_id,date,lat,lon,name,daily_mean_swell_rating,daily_mean_wave_height_min,daily_mean_wave_height_max,daily_mean_water_temperature_max,daily_mean_water_temperature_min,weather_per_timestamp,wind_per_timestamp,n_samples_per_day
5842041f4e65fad6a77087f9,2023_12_08,37.741668,-122.51038,South Ocean Beach,2.711818181818182,2.1856848484848483,3.1359848484848483,15,15,"NIGHT_CLEAR,NIGHT_CLEAR,NIGHT_CLEAR,NIGHT_CLEAR,CLEAR,CLEAR,CLEAR,CLEAR,CLEAR,CLEAR,CLEAR","Offshore,Cross-shore,Onshore,Offshore,Offshore,Offshore,Cross-shore,Offshore,Cross-shore,Cross-shore,Onshore",11
5842041f4e65fad6a7708801,2023_12_08,37.49142,-122.50428,Maverick's,NA,2.7751363636363635,3.271951515151515,13,13,"NIGHT_CLEAR,NIGHT_MOSTLY_CLEAR,NIGHT_CLEAR,NIGHT_CLEAR,CLEAR,CLEAR,CLEAR,CLEAR,CLEAR,CLEAR,CLEAR","Offshore,Offshore,Offshore,Offshore,Offshore,Offshore,Offshore,Offshore,Offshore,Offshore,Offshore",11
5842041f4e65fad6a7708804,2023_12_08,44.997,-124.018,Roads End,1.9090909090909092,2.7018181818181817,3.0236363636363635,11,11,"NIGHT_CLEAR,NIGHT_MOSTLY_CLOUDY,NIGHT_MOSTLY_CLOUDY,NIGHT_BRIEF_SHOWERS,NIGHT_MOSTLY_CLOUDY,SHOWERS,MOSTLY_CLOUDY,MOSTLY_CLOUDY,MOSTLY_CLOUDY,OVERCAST,CLEAR","Onshore,Onshore,Onshore,Onshore,Onshore,Cross-shore,Onshore,Onshore,Onshore,Onshore,Onshore",11
5842041f4e65fad6a7708805,2023_12_08,36.95188851423011,-122.02522,Steamer Lane,3.7427272727272727,1.4972333333333334,2.0203030303030305,14,14,"NIGHT_CLEAR,NIGHT_CLEAR,NIGHT_CLEAR,NIGHT_CLEAR,CLEAR,CLEAR,CLEAR,CLEAR,CLEAR,CLEAR,CLEAR","Offshore,Offshore,Offshore,Offshore,Offshore,Offshore,Offshore,Cross-shore,Onshore,Offshore,Offshore",11
5842041f4e65fad6a7708806,2023_12_08,36.95918781542251,-122.02489,Cowells,1.6363636363636365,0.1267757575757576,0.3849030303030303,14,14,"NIGHT_CLEAR,NIGHT_CLEAR,NIGHT_CLEAR,NIGHT_CLEAR,CLEAR,CLEAR,CLEAR,CLEAR,CLEAR,CLEAR,CLEAR","Offshore,Offshore,Offshore,Offshore,Offshore,Cross-shore,Cross-shore,Onshore,Onshore,Cross-shore,Offshore",11
5842041f4e65fad6a7708807,2023_12_08,36.95468082526536,-121.97234,Pleasure Point,3.7427272727272727,1.3662424242424243,1.8747757575757575,14,14,"NIGHT_CLEAR,NIGHT_CLEAR,NIGHT_CLEAR,NIGHT_CLEAR,CLEAR,CLEAR,CLEAR,CLEAR,CLEAR,CLEAR,CLEAR","Offshore,Offshore,Offshore,Offshore,Offshore,Offshore,Offshore,Offshore,Offshore,Offshore,Offshore",11
5842041f4e65fad6a770880a,2023_12_08,35.37815414378748,-120.86589,Morro Bay,2.711818181818182,1.6624030303030304,2.350751515151515,15,15,"NIGHT_CLEAR,NIGHT_CLEAR,NIGHT_CLEAR,NIGHT_CLEAR,CLEAR,CLEAR,CLEAR,CLEAR,CLEAR,CLEAR,CLEAR","Cross-shore,Onshore,Cross-shore,Cross-shore,Cross-shore,Offshore,Cross-shore,Offshore,Cross-shore,Cross-shore,Cross-shore",11
5842041f4e65fad6a770880b,2023_12_08,36.95782765000708,-121.9672887511276,Jack's,2.620909090909091,0.4585030303030303,0.7770878787878788,14,14,"NIGHT_CLEAR,NIGHT_CLEAR,NIGHT_CLEAR,NIGHT_CLEAR,CLEAR,CLEAR,CLEAR,CLEAR,CLEAR,CLEAR,CLEAR","Offshore,Offshore,Offshore,Offshore,Offshore,Offshore,Offshore,Offshore,Offshore,Offshore,Offshore",11
5842041f4e65fad6a770880d,2023_12_08,34.29982939936656,-119.3489016603669,Gold Coast Beachbreaks,2.909090909090909,0.41545454545454547,0.7209090909090909,16,16,"NIGHT_CLEAR,NIGHT_CLEAR,NIGHT_CLEAR,NIGHT_CLEAR,CLEAR,CLEAR,CLEAR,CLEAR,CLEAR,CLEAR,CLEAR","Onshore,Onshore,Cross-shore,Cross-shore,Cross-shore,Offshore,Cross-shore,Onshore,Onshore,Onshore,Onshore",11
5842041f4e65fad6a7708811,2023_12_08,34.245076,-119.26799,Ventura Harbor,3.1663636363636365,1.2911575757575757,1.8405030303030303,16,16,"NIGHT_CLEAR,NIGHT_CLEAR,NIGHT_CLEAR,NIGHT_CLEAR,CLEAR,CLEAR,CLEAR,CLEAR,CLEAR,CLEAR,CLEAR","Offshore,Offshore,Offshore,Offshore,Offshore,Offshore,Onshore,Cross-shore,Onshore,Onshore,Onshore",11
5842041f4e65fad6a7708813,2023_12_08,34.051,-118.964,County Line,2.8336363636363635,0.6626242424242424,1.0527363636363636,16,16,"NIGHT_CLEAR,NIGHT_CLEAR,NIGHT_CLEAR,NIGHT_CLEAR,CLEAR,CLEAR,CLEAR,CLEAR,CLEAR,CLEAR,CLEAR","Offshore,Offshore,Cross-shore,Offshore,Offshore,Offshore,Onshore,Onshore,Cross-shore,Onshore,Onshore",11
5842041f4e65fad6a7708814,2023_12_08,34.37256264378892,-119.47797,Rincon,2.6363636363636362,0.62,0.9254545454545454,16,16,"NIGHT_CLEAR,NIGHT_CLEAR,NIGHT_CLEAR,NIGHT_CLEAR,CLEAR,CLEAR,CLEAR,CLEAR,CLEAR,CLEAR,CLEAR","Onshore,Offshore,Offshore,Offshore,Offshore,Offshore,Cross-shore,Cross-shore,Cross-shore,Onshore,Onshore",11
5842041f4e65fad6a7708817,2023_12_08,34.03096101876324,-118.68109,Malibu Third Point,1.8181818181818181,0.25,0.5518181818181819,17,17,"NIGHT_CLEAR,NIGHT_CLEAR,NIGHT_CLEAR,NIGHT_CLEAR,CLEAR,CLEAR,CLEAR,CLEAR,MOSTLY_CLEAR,CLEAR,CLEAR","Offshore,Offshore,Offshore,Offshore,Offshore,Offshore,Cross-shore,Onshore,Onshore,Onshore,Offshore",11
5842041f4e65fad6a7708819,2023_12_08,33.984079047970035,-118.47381591796875,Venice Beach,2.909090909090909,0.9933636363636363,1.4164545454545454,17,17,"NIGHT_CLEAR,NIGHT_CLEAR,NIGHT_CLEAR,NIGHT_CLEAR,MOSTLY_CLEAR,CLEAR,MOSTLY_CLOUDY,CLEAR,CLEAR,CLEAR,CLEAR","Cross-shore,Cross-shore,Offshore,Offshore,Offshore,Offshore,Offshore,Offshore,Offshore,Onshore,Onshore",11
5842041f4e65fad6a770881e,2023_12_08,34.037508438646746,-118.58339846155594,Topanga Beach,2.7427272727272727,0.6492909090909091,0.9531030303030303,17,17,"NIGHT_CLEAR,NIGHT_CLEAR,NIGHT_CLEAR,NIGHT_CLEAR,CLEAR,CLEAR,CLEAR,CLEAR,CLEAR,CLEAR,CLEAR","Offshore,Offshore,Offshore,Offshore,Cross-shore,Offshore,Onshore,Cross-shore,Onshore,Onshore,Onshore",11
5842041f4e65fad6a7708820,2023_12_08,33.73954373690184,-118.11414,Seal Beach Jetty,2.6363636363636362,0.4090909090909091,0.7127272727272728,17,17,"NIGHT_MIST,NIGHT_MIST,NIGHT_MOSTLY_CLOUDY,NIGHT_CLEAR,CLEAR,MOSTLY_CLOUDY,CLEAR,CLEAR,CLEAR,CLEAR,CLEAR","Offshore,Cross-shore,Offshore,Offshore,Offshore,Offshore,Offshore,Onshore,Onshore,Onshore,Onshore",11
5842041f4e65fad6a7708822,2023_12_08,33.72309983348433,-118.08078,Anderson Street,2.6363636363636362,0.6718181818181819,0.92,17,17,"NIGHT_MIST,NIGHT_MIST,NIGHT_MOSTLY_CLOUDY,NIGHT_MIST,CLEAR,MOSTLY_CLOUDY,MOSTLY_CLOUDY,CLEAR,CLEAR,CLEAR,CLEAR","Offshore,Cross-shore,Offshore,Offshore,Offshore,Offshore,Offshore,Onshore,Onshore,Onshore,Onshore",11
5842041f4e65fad6a7708827,2023_12_08,33.65574085629463,-118.00397,Huntington Beach Pier Northside,3,1.0241939393939394,1.319090909090909,17,17,"NIGHT_MOSTLY_CLEAR,NIGHT_MOSTLY_CLOUDY,NIGHT_MOSTLY_CLOUDY,NIGHT_CLEAR,CLEAR,BRIEF_SHOWERS,MOSTLY_CLOUDY,MOSTLY_CLEAR,CLEAR,CLEAR,CLEAR","Cross-shore,Onshore,Cross-shore,Cross-shore,Offshore,Offshore,Offshore,Cross-shore,Onshore,Cross-shore,Onshore",11
5842041f4e65fad6a7708828,2023_12_08,34.272041739333,-119.2997646331,C St.,3,0.9483484848484849,1.264169696969697,16,16,"NIGHT_CLEAR,NIGHT_CLEAR,NIGHT_CLEAR,NIGHT_CLEAR,CLEAR,CLEAR,CLEAR,CLEAR,CLEAR,CLEAR,CLEAR","Offshore,Offshore,Offshore,Offshore,Offshore,Offshore,Cross-shore,Cross-shore,Offshore,Cross-shore,Cross-shore",11
5842041f4e65fad6a770882a,2023_12_08,33.61555743705257,-117.93676,Newport Lower Jetties,3.2572727272727273,0.8854787878787879,1.281951515151515,17,17,"NIGHT_MIST,NIGHT_MOSTLY_CLEAR,NIGHT_MOSTLY_CLOUDY,NIGHT_CLEAR,MOSTLY_CLEAR,MOSTLY_CLOUDY,MOSTLY_CLOUDY,CLEAR,CLEAR,CLEAR,CLEAR","Onshore,Cross-shore,Cross-shore,Onshore,Offshore,Offshore,Cross-shore,Onshore,Onshore,Onshore,Onshore",11
5842041f4e65fad6a770882b,2023_12_08,33.5930302087,-117.88199,The Wedge,2,0.39202272727272724,0.8204872727272727,17,17,"NIGHT_MOSTLY_CLEAR,NIGHT_MOSTLY_CLOUDY,NIGHT_MOSTLY_CLOUDY,NIGHT_CLEAR,CLEAR,BRIEF_SHOWERS,MOSTLY_CLOUDY,CLEAR,CLEAR,CLEAR,CLEAR","Cross-shore,Cross-shore,Cross-shore,Onshore,Offshore,Offshore,Cross-shore,Onshore,Onshore,Onshore,Onshore",11
5842041f4e65fad6a770882c,2023_12_08,33.60577342582,-117.9315376281,Newport Beach Pier,3.2572727272727273,0.8890060606060606,1.377548484848485,17,17,"NIGHT_MIST,NIGHT_MIST,NIGHT_BRIEF_SHOWERS,NIGHT_CLEAR,CLEAR,BRIEF_SHOWERS,MOSTLY_CLOUDY,MOSTLY_CLEAR,CLEAR,CLEAR,CLEAR","Cross-shore,Cross-shore,Cross-shore,Cross-shore,Cross-shore,Cross-shore,Cross-shore,Cross-shore,Onshore,Onshore,Onshore",11
5842041f4e65fad6a770882e,2023_12_08,33.475793399792984,-117.72291,Salt Creek,3.1972727272727273,1.0417515151515153,1.446739393939394,17,17,"NIGHT_MIST,NIGHT_MOSTLY_CLOUDY,NIGHT_MOSTLY_CLOUDY,NIGHT_CLEAR,CLEAR,MOSTLY_CLOUDY,MOSTLY_CLOUDY,MOSTLY_CLEAR,CLEAR,CLEAR,CLEAR","Cross-shore,Offshore,Offshore,Offshore,Offshore,Offshore,Offshore,Cross-shore,Onshore,Onshore,Onshore",11
5842041f4e65fad6a7708830,2023_12_08,33.41800974113613,-117.61952,T-Street,3.1063636363636364,0.905539393939394,1.2392757575757576,17,17,"NIGHT_MOSTLY_CLOUDY,NIGHT_MOSTLY_CLOUDY,NIGHT_MOSTLY_CLOUDY,NIGHT_MOSTLY_CLEAR,CLEAR,MOSTLY_CLOUDY,CLEAR,CLEAR,CLEAR,CLEAR,MIST","Cross-shore,Cross-shore,Cross-shore,Offshore,Offshore,Offshore,Cross-shore,Onshore,Onshore,Onshore,Onshore",11
5842041f4e65fad6a7708832,2023_12_08,33.202391008646,-117.39475,Oceanside Harbor,2.909090909090909,1.0629363636363636,1.5102363636363636,17,17,"NIGHT_MOSTLY_CLOUDY,NIGHT_OVERCAST,NIGHT_MOSTLY_CLOUDY,NIGHT_MOSTLY_CLOUDY,CLEAR,MOSTLY_CLOUDY,CLEAR,CLEAR,CLEAR,CLEAR,CLEAR","Cross-shore,Offshore,Cross-shore,Cross-shore,Offshore,Offshore,Offshore,Cross-shore,Onshore,Onshore,Onshore",11
5842041f4e65fad6a7708835,2023_12_08,33.19477795952803,-117.38667,Oceanside Pier,2.788181818181818,1.0443363636363636,1.4911454545454546,17,17,"NIGHT_MOSTLY_CLOUDY,NIGHT_FOG,NIGHT_MOSTLY_CLOUDY,NIGHT_MOSTLY_CLOUDY,CLEAR,MOSTLY_CLOUDY,CLEAR,CLEAR,CLEAR,CLEAR,CLEAR","Cross-shore,Cross-shore,Cross-shore,Cross-shore,Offshore,Offshore,Offshore,Cross-shore,Onshore,Onshore,Onshore",11
5842041f4e65fad6a7708837,2023_12_08,33.14948100706,-117.35029,Tamarack,2.8181818181818183,0.49454545454545457,0.7972727272727272,17,17,"NIGHT_MOSTLY_CLOUDY,NIGHT_OVERCAST,NIGHT_OVERCAST,NIGHT_MOSTLY_CLOUDY,MOSTLY_CLEAR,MOSTLY_CLOUDY,CLEAR,CLEAR,CLEAR,CLEAR,CLEAR","Onshore,Cross-shore,Cross-shore,Cross-shore,Offshore,Cross-shore,Offshore,Onshore,Onshore,Onshore,Onshore",11
5842041f4e65fad6a7708839,2023_12_08,32.865777159358856,-117.25614295356122,Scripps,2.879090909090909,1.222709090909091,1.8048,17,17,"NIGHT_CLEAR,NIGHT_CLEAR,NIGHT_CLEAR,NIGHT_CLOUDY,CLEAR,CLEAR,CLEAR,CLEAR,CLEAR,CLEAR,MIST","Onshore,Onshore,Offshore,Cross-shore,Offshore,Offshore,Onshore,Onshore,Onshore,Onshore,Onshore",11
5842041f4e65fad6a770883a,2023_12_08,32.813094,-117.27381,Birdrock,3,1.3136363636363637,1.57,16.636363636363637,16.636363636363637,"NIGHT_CLEAR,NIGHT_CLEAR,NIGHT_MOSTLY_CLOUDY,NIGHT_MOSTLY_CLOUDY,CLEAR,CLEAR,CLEAR,CLEAR,CLEAR,CLEAR,CLEAR","Offshore,Offshore,Offshore,Offshore,Offshore,Offshore,Onshore,Onshore,Onshore,Onshore,Onshore",11
5842041f4e65fad6a770883b,2023_12_08,32.877231,-117.25303,Blacks,3.3636363636363638,1.763609090909091,2.269727272727273,17,17,"NIGHT_CLEAR,NIGHT_CLEAR,NIGHT_CLEAR,NIGHT_CLOUDY,CLEAR,CLEAR,CLEAR,CLEAR,CLEAR,CLEAR,MIST","Offshore,Offshore,Cross-shore,Offshore,Offshore,Onshore,Cross-shore,Cross-shore,Onshore,Onshore,Onshore",11
5842041f4e65fad6a770883c,2023_12_08,32.82978974229765,-117.28161740727381,Windansea,3.090909090909091,1.5471363636363635,2.2161,17,17,"NIGHT_CLEAR,NIGHT_CLEAR,NIGHT_CLEAR,NIGHT_MOSTLY_CLOUDY,CLEAR,CLEAR,CLEAR,CLEAR,CLEAR,CLEAR,CLEAR","Cross-shore,Cross-shore,Offshore,Offshore,Offshore,Offshore,Cross-shore,Onshore,Onshore,Onshore,Onshore",11
5842041f4e65fad6a770883d,2023_12_08,32.838278,-117.28396,Horseshoe,3.4545454545454546,1.4963636363636363,1.7945454545454544,17,17,"NIGHT_CLEAR,NIGHT_CLEAR,NIGHT_CLEAR,NIGHT_MOSTLY_CLOUDY,CLEAR,CLEAR,CLEAR,CLEAR,CLEAR,CLEAR,CLEAR","Cross-shore,Cross-shore,Offshore,Offshore,Offshore,Offshore,Onshore,Onshore,Onshore,Onshore,Onshore",11
5842041f4e65fad6a770883f,2023_12_08,32.75034717673179,-117.25337,Ocean Beach,3,1.5930454545454547,2.2674636363636367,17,17,"NIGHT_CLEAR,NIGHT_MOSTLY_CLOUDY,NIGHT_MOSTLY_CLOUDY,NIGHT_MOSTLY_CLOUDY,CLEAR,CLEAR,CLEAR,CLEAR,CLEAR,CLEAR,CLEAR","Cross-shore,Cross-shore,Offshore,Cross-shore,Offshore,Offshore,Cross-shore,Onshore,Onshore,Onshore,Onshore",11
5842041f4e65fad6a7708840,2023_12_08,32.73693,-117.25718,Sunset Cliffs,3,1.4836363636363636,1.7809090909090908,16.636363636363637,16.636363636363637,"NIGHT_CLEAR,NIGHT_MOSTLY_CLOUDY,NIGHT_MOSTLY_CLOUDY,NIGHT_OVERCAST,CLEAR,CLEAR,CLEAR,CLEAR,CLEAR,CLEAR,CLEAR","Cross-shore,Cross-shore,Offshore,Cross-shore,Offshore,Offshore,Cross-shore,Onshore,Onshore,Onshore,Onshore",11
5842041f4e65fad6a7708841,2023_12_08,32.796582258728826,-117.25779,Pacific Beach,3,1.5171363636363637,2.009509090909091,17,17,"NIGHT_CLEAR,NIGHT_CLEAR,NIGHT_MOSTLY_CLOUDY,NIGHT_MOSTLY_CLOUDY,CLEAR,CLEAR,CLEAR,CLEAR,CLEAR,CLEAR,CLEAR","Offshore,Offshore,Offshore,Offshore,Offshore,Offshore,Onshore,Onshore,Onshore,Onshore,Onshore",11
5842041f4e65fad6a7708842,2023_12_08,32.776636,-117.25514,Mission Beach,3,1.5096363636363637,1.9988272727272727,17,17,"NIGHT_CLEAR,NIGHT_CLEAR,NIGHT_MOSTLY_CLOUDY,NIGHT_MOSTLY_CLOUDY,CLEAR,CLEAR,CLEAR,CLEAR,CLEAR,CLEAR,CLEAR","Cross-shore,Cross-shore,Offshore,Offshore,Offshore,Offshore,Onshore,Onshore,Onshore,Onshore,Onshore",11
5842041f4e65fad6a7708844,2023_12_08,32.577195519016,-117.13475,Imperial Beach Pier,3,1.6272727272727272,1.9463636363636363,17,17,"NIGHT_CLEAR,NIGHT_MOSTLY_CLOUDY,NIGHT_MOSTLY_CLOUDY,NIGHT_MOSTLY_CLOUDY,MOSTLY_CLOUDY,CLEAR,CLEAR,CLEAR,CLEAR,CLEAR,CLEAR","Cross-shore,Cross-shore,Offshore,Cross-shore,Offshore,Offshore,Offshore,Onshore,Onshore,Onshore,Onshore",11
5842041f4e65fad6a770884a,2023_12_08,42.88678181061,-70.80843,Seabrook,2,0.29854545454545456,0.5562473484848485,7,6,"NIGHT_CLEAR,NIGHT_CLEAR,NIGHT_CLEAR,NIGHT_CLEAR,CLEAR,CLEAR,CLEAR,CLEAR,CLEAR,NIGHT_CLEAR,NIGHT_CLEAR","Offshore,Offshore,Offshore,Offshore,Offshore,Offshore,Offshore,Offshore,Offshore,Offshore,Cross-shore",11
5842041f4e65fad6a770884e,2023_12_08,41.434181432898335,-71.45312118111178,Narragansett,0.9772727272727273,-6.060606060606097e-4,0.306330303030303,9,8,"NIGHT_CLEAR,NIGHT_CLEAR,NIGHT_CLEAR,NIGHT_CLEAR,CLEAR,CLEAR,CLEAR,CLEAR,CLEAR,NIGHT_CLEAR,NIGHT_MOSTLY_CLEAR","Offshore,Offshore,Offshore,Offshore,Offshore,Offshore,Cross-shore,Onshore,Onshore,Cross-shore,Onshore",11
5842041f4e65fad6a7708850,2023_12_08,40.582703230722,-73.65247,Lincoln Blvd,1.3790909090909091,0.21490303030303032,0.5174666666666667,10,8,"NIGHT_BRIEF_FREEZING_RAIN_SHOWERS,NIGHT_BRIEF_FREEZING_RAIN_SHOWERS,NIGHT_BRIEF_FREEZING_RAIN_SHOWERS,NIGHT_MIST,MIST,MOSTLY_CLEAR,MOSTLY_CLEAR,CLEAR,MOSTLY_CLEAR,CLEAR,NIGHT_CLEAR","Offshore,Offshore,Offshore,Offshore,Cross-shore,Cross-shore,Cross-shore,Onshore,Onshore,Onshore,Onshore",11
5842041f4e65fad6a7708852,2023_12_08,40.58342841721757,-73.81182,Rockaways,1.4545454545454546,0.21785757575757578,0.5261787878787879,10,8,"NIGHT_CLEAR,NIGHT_MIST,NIGHT_MIST,NIGHT_CLEAR,MIST,CLEAR,CLEAR,CLEAR,MOSTLY_CLEAR,CLEAR,NIGHT_CLEAR","Offshore,Offshore,Offshore,Offshore,Offshore,Cross-shore,Onshore,Onshore,Onshore,Onshore,Onshore",11
5842041f4e65fad6a7708853,2023_12_08,40.330474,-73.9734,Monmouth Beach,1.6963636363636363,0.17825757575757575,0.4856909090909091,9,8,"NIGHT_MIST,NIGHT_MIST,NIGHT_MIST,NIGHT_MIST,CLEAR,CLEAR,CLEAR,CLEAR,CLEAR,CLEAR,NIGHT_CLEAR","Offshore,Offshore,Offshore,Offshore,Offshore,Offshore,Onshore,Onshore,Onshore,Onshore,Onshore",11
5842041f4e65fad6a7708856,2023_12_08,40.113,-74.028,Manasquan Inlet,2.109090909090909,0.40556969696969697,0.7109515151515151,9,8,"NIGHT_MIST,NIGHT_MIST,NIGHT_MIST,NIGHT_MIST,CLEAR,CLEAR,CLEAR,CLEAR,CLEAR,CLEAR,NIGHT_CLEAR","Offshore,Offshore,Offshore,Offshore,Offshore,Offshore,Cross-shore,Cross-shore,Cross-shore,Cross-shore,Cross-shore",11
5842041f4e65fad6a7708857,2023_12_08,39.941519877445664,-74.06829,Casino Pier,1.9272727272727272,0.5048357575757576,0.8098478787878788,9,8,"NIGHT_MIST,NIGHT_MIST,NIGHT_CLEAR,NIGHT_CLEAR,CLEAR,CLEAR,CLEAR,CLEAR,CLEAR,CLEAR,NIGHT_CLEAR","Offshore,Offshore,Offshore,Offshore,Offshore,Offshore,Onshore,Onshore,Onshore,Onshore,Onshore",11
5842041f4e65fad6a7708858,2023_12_08,39.28223089949212,-74.55766,North End OC,1.6845454545454546,0.35390363636363636,0.6566278787878788,9,8,"NIGHT_CLEAR,NIGHT_CLEAR,NIGHT_CLEAR,NIGHT_CLEAR,CLEAR,CLEAR,CLEAR,CLEAR,CLEAR,CLEAR,NIGHT_CLEAR","Offshore,Offshore,Offshore,Offshore,Onshore,Onshore,Onshore,Onshore,Onshore,Onshore,Onshore",11
5842041f4e65fad6a770885b,2023_12_08,39.65080599934257,-74.17146,Ship Bottom,1.9236363636363636,0.5702727272727273,0.8746939393939394,9,8,"NIGHT_CLEAR,NIGHT_CLEAR,NIGHT_CLEAR,NIGHT_CLEAR,CLEAR,CLEAR,CLEAR,CLEAR,CLEAR,CLEAR,NIGHT_CLEAR","Offshore,Offshore,Offshore,Offshore,Cross-shore,Onshore,Onshore,Onshore,Onshore,Onshore,Onshore",11
5842041f4e65fad6a7708863,2023_12_08,36.034151543144,-75.66791,Third Street,2.8936363636363636,0.5650181818181819,0.9465090909090909,12,11,"NIGHT_CLEAR,NIGHT_CLEAR,NIGHT_CLEAR,NIGHT_CLEAR,CLEAR,CLEAR,CLEAR,CLEAR,CLEAR,CLEAR,NIGHT_CLEAR","Offshore,Offshore,Offshore,Offshore,Offshore,Cross-shore,Cross-shore,Cross-shore,Cross-shore,Cross-shore,Cross-shore",11
5842041f4e65fad6a7708867,2023_12_08,35.605833221351425,-75.46303,S-Turns,3.1963636363636363,0.9019363636363636,1.2748763636363636,12,11,"NIGHT_CLEAR,NIGHT_CLEAR,NIGHT_CLEAR,NIGHT_CLEAR,CLEAR,CLEAR,CLEAR,CLEAR,CLEAR,CLEAR,NIGHT_CLEAR","Offshore,Offshore,Offshore,Offshore,Offshore,Offshore,Offshore,Cross-shore,Cross-shore,Cross-shore,Offshore",11
5842041f4e65fad6a770886d,2023_12_08,38.338461,-75.08117,Ocean City Boardwalk,1.6509090909090909,0.565439393939394,0.8707090909090909,11,9,"NIGHT_CLEAR,NIGHT_CLEAR,NIGHT_CLEAR,NIGHT_CLEAR,CLEAR,CLEAR,CLEAR,CLEAR,CLEAR,CLEAR,NIGHT_CLEAR","Offshore,Offshore,Offshore,Offshore,Onshore,Onshore,Cross-shore,Cross-shore,Cross-shore,Cross-shore,Cross-shore",11
5842041f4e65fad6a770886f,2023_12_08,29.844757212379562,-81.26136,A St.,1.6363636363636365,0.2918181818181818,0.5990909090909091,18.272727272727273,18.272727272727273,"NIGHT_CLEAR,NIGHT_CLEAR,NIGHT_CLEAR,NIGHT_CLEAR,CLEAR,CLEAR,CLEAR,CLEAR,CLEAR,CLEAR,CLEAR","Onshore,Onshore,Onshore,Onshore,Onshore,Onshore,Onshore,Onshore,Onshore,Onshore,Onshore",11
5842041f4e65fad6a7708871,2023_12_08,29.069417851135093,-80.90824,New Smyrna Beach,2.923636363636364,0.9136727272727273,1.3841272727272727,19,17,"NIGHT_CLEAR,NIGHT_MOSTLY_CLOUDY,NIGHT_MOSTLY_CLOUDY,NIGHT_CLEAR,MOSTLY_CLEAR,MIST,CLEAR,MOSTLY_CLEAR,MOSTLY_CLOUDY,MOSTLY_CLOUDY,CLEAR","Onshore,Onshore,Onshore,Cross-shore,Onshore,Onshore,Onshore,Onshore,Onshore,Onshore,Onshore",11
5842041f4e65fad6a7708872,2023_12_08,28.367707417566,-80.60171,Cocoa Beach Pier,1.6181818181818182,0.14289696969696972,0.44451515151515153,21,20,"NIGHT_CLEAR,NIGHT_MOSTLY_CLOUDY,NIGHT_MOSTLY_CLOUDY,NIGHT_CLEAR,MOSTLY_CLOUDY,LIGHT_RAIN,MIST,MIST,CLEAR,CLEAR,CLEAR","Onshore,Onshore,Onshore,Onshore,Onshore,Onshore,Onshore,Offshore,Offshore,Onshore,Onshore",11
5842041f4e65fad6a7708873,2023_12_08,28.091782738658846,-80.56479,Indialantic,2,0.6095636363636364,0.9953727272727273,22,21,"NIGHT_MOSTLY_CLOUDY,NIGHT_MOSTLY_CLOUDY,NIGHT_MOSTLY_CLOUDY,NIGHT_MOSTLY_CLOUDY,MOSTLY_CLOUDY,MOSTLY_CLOUDY,CLEAR,MOSTLY_CLOUDY,CLEAR,CLEAR,MOSTLY_CLEAR","Onshore,Onshore,Onshore,Onshore,Onshore,Onshore,Onshore,Onshore,Onshore,Onshore,Onshore",11
5842041f4e65fad6a7708876,2023_12_08,27.25392904143517,-80.19455,Jensen Beach,2,0.8165575757575757,1.1793242424242425,24,23,"NIGHT_CLOUDY,NIGHT_CLEAR,NIGHT_MOSTLY_CLOUDY,NIGHT_CLEAR,OVERCAST,CLOUDY,MOSTLY_CLOUDY,MOSTLY_CLOUDY,CLEAR,MOSTLY_CLOUDY,MOSTLY_CLOUDY","Onshore,Onshore,Onshore,Onshore,Onshore,Onshore,Onshore,Onshore,Onshore,Onshore,Onshore",11
5842041f4e65fad6a7708879,2023_12_08,26.76346795333825,-80.0360655784607,Reef Road,1,0.6872666666666667,1.007369696969697,25,24,"NIGHT_MOSTLY_CLOUDY,NIGHT_MOSTLY_CLOUDY,NIGHT_MOSTLY_CLOUDY,NIGHT_CLEAR,MOSTLY_CLOUDY,CLEAR,CLEAR,OVERCAST,OVERCAST,MOSTLY_CLOUDY,CLEAR","Onshore,Onshore,Onshore,Onshore,Onshore,Onshore,Onshore,Onshore,Onshore,Onshore,Onshore",11
5842041f4e65fad6a770887c,2023_12_08,26.336499228484,-80.06956100463,Boca Raton Inlet,0.9090909090909091,0.2845575757575758,0.5902515151515152,25,24,"NIGHT_MOSTLY_CLOUDY,NIGHT_CLEAR,NIGHT_MOSTLY_CLOUDY,NIGHT_BRIEF_SHOWERS,OVERCAST,MOSTLY_CLOUDY,MOSTLY_CLOUDY,MOSTLY_CLOUDY,MOSTLY_CLOUDY,OVERCAST,CLEAR","Onshore,Onshore,Onshore,Onshore,Onshore,Onshore,Onshore,Onshore,Onshore,Onshore,Onshore",11
5842041f4e65fad6a770887d,2023_12_08,26.31719311695038,-80.07452525176168,Deerfield Beach Pier,1,0.30579598484848486,0.5396168181818182,26,24,"NIGHT_CLEAR,NIGHT_CLEAR,NIGHT_MOSTLY_CLOUDY,NIGHT_MOSTLY_CLOUDY,OVERCAST,MOSTLY_CLOUDY,CLEAR,MOSTLY_CLOUDY,MOSTLY_CLOUDY,CLOUDY,CLEAR","Onshore,Onshore,Onshore,Onshore,Onshore,Onshore,Onshore,Onshore,Onshore,Onshore,Onshore",11
5842041f4e65fad6a7708881,2023_12_08,30.20276320866628,-85.85626528676136,"Spyglass Dr., Panama City",0,0,0.21010909090909094,18,17,"NIGHT_CLEAR,NIGHT_MOSTLY_CLEAR,NIGHT_CLEAR,NIGHT_CLEAR,CLOUDY,MOSTLY_CLEAR,OVERCAST,CLEAR,CLEAR,OVERCAST,CLEAR","Offshore,Offshore,Offshore,Offshore,Offshore,Offshore,Offshore,Offshore,Cross-shore,Offshore,Cross-shore",11
5842041f4e65fad6a7708884,2023_12_08,33.39000832738053,-117.59852,Cottons,2.8336363636363635,1.0238727272727273,1.3339909090909092,17,17,"NIGHT_MOSTLY_CLOUDY,NIGHT_MIST,NIGHT_MOSTLY_CLOUDY,NIGHT_BRIEF_SHOWERS,CLEAR,MOSTLY_CLOUDY,CLEAR,CLEAR,CLEAR,CLEAR,CLEAR","Cross-shore,Cross-shore,Cross-shore,Cross-shore,Cross-shore,Offshore,Offshore,Cross-shore,Cross-shore,Cross-shore,Onshore",11
5842041f4e65fad6a7708885,2023_12_08,33.359416282661,-117.54167901405711,Trails,2.5454545454545454,0.7,0.9718181818181818,17,17,"NIGHT_MOSTLY_CLOUDY,NIGHT_BRIEF_SHOWERS,NIGHT_MOSTLY_CLOUDY,NIGHT_BRIEF_SHOWERS,CLEAR,CLEAR,CLEAR,CLEAR,CLEAR,CLEAR,CLEAR","Onshore,Cross-shore,Cross-shore,Cross-shore,Cross-shore,Offshore,Onshore,Onshore,Onshore,Onshore,Onshore",11
5842041f4e65fad6a7708886,2023_12_08,33.38042605929805,-117.58332,Middles,2.560909090909091,0.6102333333333333,0.9145545454545454,17,17,"NIGHT_MOSTLY_CLOUDY,NIGHT_MIST,NIGHT_MOSTLY_CLOUDY,NIGHT_BRIEF_SHOWERS,CLEAR,MOSTLY_CLOUDY,CLEAR,CLEAR,CLEAR,CLEAR,CLEAR","Offshore,Offshore,Offshore,Offshore,Offshore,Offshore,Cross-shore,Cross-shore,Onshore,Onshore,Onshore",11
5842041f4e65fad6a7708887,2023_12_08,33.38445596302903,-117.59445,Upper Trestles,2.8336363636363635,0.8851606060606061,1.2350515151515151,17,17,"NIGHT_MOSTLY_CLOUDY,NIGHT_MIST,NIGHT_MOSTLY_CLOUDY,NIGHT_BRIEF_SHOWERS,CLEAR,MOSTLY_CLOUDY,CLEAR,CLEAR,CLEAR,CLEAR,CLEAR","Offshore,Offshore,Offshore,Offshore,Offshore,Offshore,Cross-shore,Cross-shore,Onshore,Onshore,Onshore",11
5842041f4e65fad6a7708889,2023_12_08,28.944414,-95.28883,Surfside,1.3636363636363635,0.6843163636363636,1.0692436363636364,17.363636363636363,17.363636363636363,"NIGHT_MOSTLY_CLOUDY,NIGHT_MOSTLY_CLOUDY,NIGHT_CLOUDY,NIGHT_MOSTLY_CLOUDY,MOSTLY_CLOUDY,MIST,MIST,MIST,MIST,MIST,MOSTLY_CLOUDY","Onshore,Onshore,Onshore,Onshore,Onshore,Onshore,Onshore,Onshore,Onshore,Onshore,Onshore",11
5842041f4e65fad6a770888a,2023_12_08,33.38143999849023,-117.58843,Lower Trestles,2.8036363636363637,0.8942515151515151,1.196678787878788,17,17,"NIGHT_MOSTLY_CLOUDY,NIGHT_MIST,NIGHT_MOSTLY_CLOUDY,NIGHT_BRIEF_SHOWERS,CLEAR,MOSTLY_CLOUDY,CLEAR,CLEAR,CLEAR,CLEAR,CLEAR","Offshore,Offshore,Offshore,Offshore,Offshore,Offshore,Cross-shore,Cross-shore,Onshore,Onshore,Onshore",11
5842041f4e65fad6a770888b,2023_12_08,33.379622288757,-117.57894,Church,2.6363636363636362,0.6562939393939394,0.9378878787878788,17,17,"NIGHT_MOSTLY_CLOUDY,NIGHT_MIST,NIGHT_MOSTLY_CLOUDY,NIGHT_BRIEF_SHOWERS,CLEAR,MOSTLY_CLOUDY,CLEAR,CLEAR,CLEAR,CLEAR,CLEAR","Offshore,Offshore,Cross-shore,Offshore,Cross-shore,Offshore,Cross-shore,Cross-shore,Onshore,Onshore,Onshore",11
5842041f4e65fad6a770888d,2023_12_08,21.679,-158.042,Sunset Beach,3.3336363636363635,1.113030303030303,1.4553030303030303,26,25,"NIGHT_CLEAR,NIGHT_MOSTLY_CLOUDY,NIGHT_MOSTLY_CLOUDY,NIGHT_CLEAR,NIGHT_CLEAR,NIGHT_CLEAR,CLEAR,CLEAR,CLEAR,CLEAR,CLEAR","Offshore,Offshore,Offshore,Offshore,Offshore,Offshore,Offshore,Onshore,Onshore,Onshore,Onshore",11
5842041f4e65fad6a770888e,2023_12_08,21.670550036401,-158.0482,Rocky Point,3.1818181818181817,1.0043939393939394,1.3504545454545454,26,25,"NIGHT_MOSTLY_CLEAR,NIGHT_MOSTLY_CLOUDY,NIGHT_MOSTLY_CLOUDY,NIGHT_CLEAR,NIGHT_CLEAR,NIGHT_CLEAR,CLEAR,CLEAR,CLEAR,CLEAR,CLEAR","Offshore,Offshore,Offshore,Offshore,Offshore,Offshore,Offshore,Onshore,Onshore,Onshore,Onshore",11
5842041f4e65fad6a770888f,2023_12_08,21.668,-158.05,Chambers,3.090909090909091,0.9609090909090909,1.1972727272727273,25,25,"NIGHT_MOSTLY_CLEAR,NIGHT_MOSTLY_CLOUDY,NIGHT_MOSTLY_CLOUDY,NIGHT_CLEAR,NIGHT_CLEAR,NIGHT_CLEAR,CLEAR,CLEAR,CLEAR,CLEAR,CLEAR","Offshore,Offshore,Offshore,Offshore,Offshore,Offshore,Offshore,Onshore,Onshore,Onshore,Onshore",11
5842041f4e65fad6a7708890,2023_12_08,21.66522,-158.0526,Pipeline,1.8181818181818181,0.9872727272727273,1.25,26,25,"NIGHT_MOSTLY_CLEAR,NIGHT_MOSTLY_CLOUDY,NIGHT_MOSTLY_CLOUDY,NIGHT_CLEAR,NIGHT_CLEAR,NIGHT_CLEAR,CLEAR,CLEAR,CLEAR,CLEAR,CLEAR","Offshore,Offshore,Offshore,Offshore,Offshore,Offshore,Offshore,Onshore,Onshore,Onshore,Onshore",11
5842041f4e65fad6a7708891,2023_12_08,21.665,-158.054,Backdoor,3,0.9136363636363637,1.1745454545454546,25,25,"NIGHT_MOSTLY_CLEAR,NIGHT_MOSTLY_CLOUDY,NIGHT_MOSTLY_CLOUDY,NIGHT_CLEAR,NIGHT_CLEAR,NIGHT_CLEAR,CLEAR,CLEAR,CLEAR,CLEAR,CLEAR","Offshore,Offshore,Offshore,Offshore,Offshore,Offshore,Offshore,Onshore,Onshore,Onshore,Onshore",11
5842041f4e65fad6a7708892,2023_12_08,21.662,-158.057,Rockpile,3.6363636363636362,1.2227272727272727,1.480909090909091,25,25,"NIGHT_MOSTLY_CLEAR,NIGHT_MOSTLY_CLOUDY,NIGHT_MOSTLY_CLOUDY,NIGHT_CLEAR,NIGHT_CLEAR,NIGHT_CLEAR,CLEAR,CLEAR,CLEAR,CLEAR,CLEAR","Offshore,Offshore,Offshore,Offshore,Offshore,Offshore,Offshore,Onshore,Onshore,Onshore,Onshore",11
5842041f4e65fad6a7708893,2023_12_08,21.65870453806827,-158.06058,Log Cabins,3,0.84,1.1036363636363637,25,25,"NIGHT_MOSTLY_CLEAR,NIGHT_MOSTLY_CLOUDY,NIGHT_MOSTLY_CLOUDY,NIGHT_CLEAR,NIGHT_CLEAR,NIGHT_CLEAR,CLEAR,CLEAR,CLEAR,CLEAR,CLEAR","Offshore,Offshore,Offshore,Offshore,Offshore,Offshore,Offshore,Onshore,Onshore,Onshore,Onshore",11
5842041f4e65fad6a7708894,2023_12_08,21.66203493640557,-158.05495,Off-The-Wall,3.3636363636363638,0.9809090909090908,1.24,25,25,"NIGHT_MOSTLY_CLEAR,NIGHT_MOSTLY_CLOUDY,NIGHT_MOSTLY_CLOUDY,NIGHT_CLEAR,NIGHT_CLEAR,NIGHT_CLEAR,CLEAR,CLEAR,CLEAR,CLEAR,CLEAR","Offshore,Offshore,Offshore,Offshore,Offshore,Offshore,Offshore,Onshore,Onshore,Onshore,Onshore",11
5842041f4e65fad6a7708895,2023_12_08,21.643,-158.067,Waimea Bay,NA,1.1403030303030304,1.5525757575757577,26,25,"NIGHT_MOSTLY_CLEAR,NIGHT_MOSTLY_CLOUDY,NIGHT_MOSTLY_CLOUDY,NIGHT_CLEAR,NIGHT_CLEAR,NIGHT_CLEAR,CLEAR,CLEAR,CLEAR,CLEAR,CLEAR","Offshore,Offshore,Offshore,Offshore,Offshore,Offshore,Offshore,Onshore,Onshore,Onshore,Onshore",11
5842041f4e65fad6a7708896,2023_12_08,21.622,-158.087,Hultin's,3.060909090909091,1.050151515151515,1.3951515151515153,26,25,"NIGHT_MOSTLY_CLEAR,NIGHT_MOSTLY_CLOUDY,NIGHT_MOSTLY_CLOUDY,NIGHT_CLEAR,NIGHT_CLEAR,NIGHT_CLEAR,CLEAR,CLEAR,CLEAR,CLEAR,CLEAR","Onshore,Onshore,Onshore,Cross-shore,Offshore,Offshore,Cross-shore,Onshore,Onshore,Onshore,Onshore",11
5842041f4e65fad6a7708897,2023_12_08,21.623,-158.085,Jocko's,3.090909090909091,0.9345454545454546,1.1763636363636363,25,25,"NIGHT_MOSTLY_CLEAR,NIGHT_MOSTLY_CLOUDY,NIGHT_MOSTLY_CLOUDY,NIGHT_CLEAR,NIGHT_CLEAR,NIGHT_CLEAR,CLEAR,CLEAR,CLEAR,CLEAR,CLEAR","Offshore,Cross-shore,Cross-shore,Offshore,Offshore,Offshore,Offshore,Offshore,Offshore,Cross-shore,Onshore",11
5842041f4e65fad6a7708898,2023_12_08,21.62,-158.088,Laniakea,3,1.0148484848484849,1.3325757575757575,26,25,"NIGHT_MOSTLY_CLEAR,NIGHT_MOSTLY_CLOUDY,NIGHT_MOSTLY_CLOUDY,NIGHT_CLEAR,NIGHT_CLEAR,NIGHT_CLEAR,CLEAR,CLEAR,CLEAR,CLEAR,CLEAR","Cross-shore,Onshore,Onshore,Offshore,Offshore,Offshore,Offshore,Cross-shore,Cross-shore,Onshore,Onshore",11
5842041f4e65fad6a7708899,2023_12_08,21.625,-158.083,Chun's,3,0.9145454545454546,1.14,25,25,"NIGHT_MOSTLY_CLEAR,NIGHT_MOSTLY_CLOUDY,NIGHT_MOSTLY_CLOUDY,NIGHT_CLEAR,NIGHT_CLEAR,NIGHT_CLEAR,CLEAR,CLEAR,CLEAR,CLEAR,CLEAR","Cross-shore,Onshore,Onshore,Offshore,Offshore,Offshore,Offshore,Cross-shore,Onshore,Onshore,Onshore",11
5842041f4e65fad6a770889c,2023_12_08,21.286357895152136,-157.8515,South Shore - Ala Moana Park,3,0.5145454545454545,0.8209090909090909,25.363636363636363,25.363636363636363,"NIGHT_CLEAR,NIGHT_CLEAR,NIGHT_CLEAR,NIGHT_MOSTLY_CLEAR,NIGHT_CLEAR,NIGHT_CLEAR,CLEAR,CLEAR,CLEAR,CLEAR,CLEAR","Cross-shore,Cross-shore,Offshore,Offshore,Cross-shore,Offshore,Offshore,Cross-shore,Onshore,Onshore,Onshore",11
5842041f4e65fad6a770889d,2023_12_08,19.606,-155.978,Banyans,2.909090909090909,0.49772727272727274,0.7993939393939394,26,25,"NIGHT_CLEAR,NIGHT_CLEAR,NIGHT_CLEAR,NIGHT_MOSTLY_CLEAR,NIGHT_CLEAR,NIGHT_CLEAR,CLEAR,CLEAR,CLEAR,CLEAR,CLEAR","Cross-shore,Cross-shore,Cross-shore,Offshore,Cross-shore,Cross-shore,Cross-shore,Onshore,Onshore,Onshore,Onshore",11
5842041f4e65fad6a770889e,2023_12_08,20.029,-155.831,Kawaihae,2,0.4444,0.5959090909090909,26,26,"NIGHT_CLEAR,NIGHT_CLEAR,NIGHT_CLEAR,NIGHT_CLEAR,NIGHT_CLEAR,NIGHT_CLEAR,CLEAR,CLEAR,CLEAR,CLEAR,CLEAR","Offshore,Offshore,Offshore,Offshore,Offshore,Offshore,Offshore,Onshore,Onshore,Onshore,Onshore",11
5842041f4e65fad6a770889f,2023_12_08,33.07541383424675,-117.3105,Grandview,3.1818181818181817,1.04,1.26,17,17,"NIGHT_MOSTLY_CLOUDY,NIGHT_CLOUDY,NIGHT_MOSTLY_CLOUDY,NIGHT_MOSTLY_CLOUDY,CLEAR,MOSTLY_CLOUDY,CLEAR,CLEAR,CLEAR,CLEAR,CLEAR","Offshore,Offshore,Offshore,Offshore,Offshore,Offshore,Onshore,Onshore,Onshore,Onshore,Onshore",11
5842041f4e65fad6a77088a0,2023_12_08,33.065267421296596,-117.30577,Beacons,3.3636363636363638,1.0454545454545454,1.2627272727272727,17,17,"NIGHT_MOSTLY_CLOUDY,NIGHT_CLOUDY,NIGHT_MOSTLY_CLOUDY,NIGHT_MOSTLY_CLOUDY,CLEAR,MOSTLY_CLOUDY,CLEAR,CLEAR,CLEAR,CLEAR,CLEAR","Offshore,Offshore,Offshore,Offshore,Offshore,Offshore,Onshore,Onshore,Onshore,Onshore,Onshore",11
5842041f4e65fad6a77088a2,2023_12_08,21.252,-157.805,Diamond Head,3,0.7132078787878788,1.0847833333333334,26,25,"NIGHT_CLEAR,NIGHT_CLEAR,NIGHT_CLEAR,NIGHT_CLEAR,NIGHT_CLEAR,NIGHT_CLEAR,CLEAR,CLEAR,CLEAR,CLEAR,CLEAR","Offshore,Offshore,Offshore,Offshore,Offshore,Offshore,Offshore,Offshore,Onshore,Onshore,Onshore",11
5842041f4e65fad6a77088a3,2023_12_08,33.04694255008896,-117.29966,Moonlight State Beach,3.272727272727273,1.049090909090909,1.2727272727272727,17,17,"NIGHT_MOSTLY_CLOUDY,NIGHT_MOSTLY_CLOUDY,NIGHT_MOSTLY_CLOUDY,NIGHT_MOSTLY_CLOUDY,CLEAR,MOSTLY_CLOUDY,CLEAR,CLEAR,CLEAR,CLEAR,CLEAR","Offshore,Offshore,Offshore,Offshore,Offshore,Offshore,Onshore,Onshore,Onshore,Onshore,Onshore",11
5842041f4e65fad6a77088a5,2023_12_08,33.08685865930869,-117.31532,Ponto,3.1818181818181817,1.269090909090909,1.519090909090909,17,17,"NIGHT_MOSTLY_CLOUDY,NIGHT_CLOUDY,NIGHT_MOSTLY_CLOUDY,NIGHT_MOSTLY_CLOUDY,CLEAR,MOSTLY_CLOUDY,CLEAR,CLEAR,CLEAR,CLEAR,CLEAR","Offshore,Offshore,Offshore,Offshore,Offshore,Offshore,Onshore,Onshore,Onshore,Onshore,Onshore",11
5842041f4e65fad6a77088a6,2023_12_08,33.130343587871906,-117.33667796442558,Terra Mar Point,3,1.0918,1.5590636363636363,17,17,"NIGHT_MOSTLY_CLOUDY,NIGHT_OVERCAST,NIGHT_OVERCAST,NIGHT_MOSTLY_CLOUDY,CLEAR,MOSTLY_CLOUDY,CLEAR,CLEAR,CLEAR,CLEAR,CLEAR","Onshore,Cross-shore,Offshore,Cross-shore,Offshore,Cross-shore,Offshore,Cross-shore,Onshore,Onshore,Onshore",11
5842041f4e65fad6a77088af,2023_12_08,32.95916304183685,-117.26963,Del Mar,3,1.1854545454545455,1.4436363636363636,16.636363636363637,16.636363636363637,"NIGHT_CLEAR,NIGHT_CLEAR,NIGHT_CLEAR,NIGHT_MOSTLY_CLOUDY,CLEAR,CLEAR,CLEAR,CLEAR,CLEAR,CLEAR,CLEAR","Onshore,Onshore,Cross-shore,Offshore,Offshore,Onshore,Onshore,Onshore,Onshore,Onshore,Onshore",11
5842041f4e65fad6a77088b0,2023_12_08,32.97527261243354,-117.2721061331305,Del Mar Rivermouth,3,1.3372727272727272,1.5981818181818181,17,17,"NIGHT_CLEAR,NIGHT_CLEAR,NIGHT_CLEAR,NIGHT_MOSTLY_CLOUDY,CLEAR,CLEAR,CLEAR,CLEAR,CLEAR,CLEAR,CLEAR","Onshore,Onshore,Cross-shore,Offshore,Offshore,Onshore,Onshore,Onshore,Onshore,Onshore,Onshore",11
5842041f4e65fad6a77088b1,2023_12_08,33.01352178146273,-117.28219,Cardiff Reef,3.03,1.5037636363636364,2.0269181818181816,17,17,"NIGHT_MOSTLY_CLOUDY,NIGHT_MOSTLY_CLOUDY,NIGHT_MOSTLY_CLOUDY,NIGHT_MOSTLY_CLOUDY,CLEAR,CLEAR,CLEAR,CLEAR,CLEAR,CLEAR,CLEAR","Cross-shore,Offshore,Offshore,Cross-shore,Offshore,Offshore,Cross-shore,Onshore,Onshore,Onshore,Onshore",11
5842041f4e65fad6a77088b3,2023_12_08,33.00211185876003,-117.281101957955,Seaside Reef,3,1.416490909090909,1.9130545454545456,17,17,"NIGHT_MOSTLY_CLOUDY,NIGHT_MOSTLY_CLOUDY,NIGHT_MOSTLY_CLOUDY,NIGHT_MOSTLY_CLOUDY,CLEAR,CLEAR,CLEAR,CLEAR,CLEAR,CLEAR,CLEAR","Offshore,Offshore,Offshore,Cross-shore,Offshore,Offshore,Cross-shore,Onshore,Onshore,Onshore,Onshore",11
5842041f4e65fad6a77088b4,2023_12_08,33.0341859796287,-117.29552,Swami's,3.211818181818182,1.2579363636363636,1.7855,17,17,"NIGHT_MOSTLY_CLOUDY,NIGHT_MOSTLY_CLOUDY,NIGHT_MOSTLY_CLOUDY,NIGHT_MOSTLY_CLOUDY,CLEAR,CLEAR,CLEAR,CLEAR,CLEAR,CLEAR,CLEAR","Offshore,Offshore,Offshore,Offshore,Offshore,Offshore,Onshore,Onshore,Onshore,Onshore,Onshore",11
5842041f4e65fad6a77088b7,2023_12_08,33.04569760260221,-117.2994,D Street,3.4545454545454546,1.2190909090909092,1.4327272727272726,17,17,"NIGHT_MOSTLY_CLOUDY,NIGHT_MOSTLY_CLOUDY,NIGHT_MOSTLY_CLOUDY,NIGHT_MOSTLY_CLOUDY,CLEAR,MOSTLY_CLOUDY,CLEAR,CLEAR,CLEAR,CLEAR,CLEAR","Offshore,Offshore,Offshore,Offshore,Offshore,Offshore,Onshore,Onshore,Onshore,Onshore,Onshore",11
5842041f4e65fad6a77088b8,2023_12_08,33.02090944350196,-117.28535,San Elijo State Beach,3,1.2129363636363637,1.657,17,17,"NIGHT_MOSTLY_CLOUDY,NIGHT_MOSTLY_CLOUDY,NIGHT_MOSTLY_CLOUDY,NIGHT_MOSTLY_CLOUDY,CLEAR,CLEAR,CLEAR,CLEAR,CLEAR,CLEAR,CLEAR","Cross-shore,Offshore,Offshore,Cross-shore,Offshore,Offshore,Cross-shore,Onshore,Onshore,Onshore,Onshore",11
5842041f4e65fad6a77088c2,2023_12_08,32.80662846492798,-117.2688764333725,PB Point,3.3636363636363638,1.248181818181818,1.519090909090909,16.636363636363637,16.636363636363637,"NIGHT_CLEAR,NIGHT_CLEAR,NIGHT_MOSTLY_CLOUDY,NIGHT_MOSTLY_CLOUDY,CLEAR,CLEAR,CLEAR,CLEAR,CLEAR,CLEAR,CLEAR","Offshore,Offshore,Cross-shore,Offshore,Cross-shore,Cross-shore,Onshore,Onshore,Onshore,Cross-shore,Cross-shore",11
5842041f4e65fad6a77088c4,2023_12_08,32.8060476681448,-117.26479,Old Man's at Tourmaline,3,0.9781818181818182,1.211818181818182,16.636363636363637,16.636363636363637,"NIGHT_CLEAR,NIGHT_CLEAR,NIGHT_MOSTLY_CLOUDY,NIGHT_MOSTLY_CLOUDY,CLEAR,CLEAR,CLEAR,CLEAR,CLEAR,CLEAR,CLEAR","Offshore,Offshore,Cross-shore,Offshore,Cross-shore,Cross-shore,Onshore,Onshore,Onshore,Cross-shore,Cross-shore",11
5842041f4e65fad6a77088cb,2023_12_08,32.557056711256,-117.1327445020322,Tijuana Slough,3,1.0972727272727272,1.2945454545454544,17,17,"NIGHT_CLEAR,NIGHT_CLEAR,NIGHT_MOSTLY_CLOUDY,NIGHT_MOSTLY_CLOUDY,CLEAR,CLEAR,CLEAR,CLEAR,CLEAR,CLEAR,CLEAR","Offshore,Offshore,Offshore,Cross-shore,Offshore,Offshore,Offshore,Onshore,Onshore,Onshore,Onshore",11
5842041f4e65fad6a77088cc,2023_12_08,32.863,-117.257,La Jolla Shores,2.909090909090909,1.048181818181818,1.278181818181818,16.636363636363637,16.636363636363637,"NIGHT_CLEAR,NIGHT_CLEAR,NIGHT_CLEAR,NIGHT_CLOUDY,CLEAR,CLEAR,CLEAR,CLEAR,CLEAR,CLEAR,MIST","Onshore,Onshore,Offshore,Cross-shore,Offshore,Offshore,Onshore,Onshore,Onshore,Onshore,Onshore",11
5842041f4e65fad6a77088ce,2023_12_08,32.67443657790586,-117.17421316238693,Coronado Beach,2.727272727272727,0.6981818181818182,0.9572727272727273,17,17,"NIGHT_CLEAR,NIGHT_CLEAR,NIGHT_MOSTLY_CLOUDY,NIGHT_CLOUDY,MOSTLY_CLOUDY,CLEAR,CLEAR,CLEAR,CLEAR,CLEAR,CLEAR","Offshore,Offshore,Onshore,Offshore,Cross-shore,Cross-shore,Cross-shore,Cross-shore,Onshore,Cross-shore,Cross-shore",11
5842041f4e65fad6a77088cf,2023_12_08,33.40484417640326,-117.60749,San Clemente State Beach,2.909090909090909,0.7790909090909091,1.0436363636363637,17,17,"NIGHT_MOSTLY_CLOUDY,NIGHT_MOSTLY_CLOUDY,NIGHT_MOSTLY_CLOUDY,NIGHT_MOSTLY_CLEAR,CLEAR,CLEAR,CLEAR,CLEAR,CLEAR,CLEAR,CLEAR","Cross-shore,Cross-shore,Offshore,Cross-shore,Offshore,Offshore,Onshore,Onshore,Onshore,Onshore,Onshore",11
5842041f4e65fad6a77088d5,2023_12_08,33.4663042002114,-117.7168352817103,Strands,3.1063636363636364,1.060009090909091,1.423860606060606,17,17,"NIGHT_MIST,NIGHT_MOSTLY_CLOUDY,NIGHT_MOSTLY_CLOUDY,NIGHT_CLEAR,CLEAR,MOSTLY_CLOUDY,MOSTLY_CLOUDY,MOSTLY_CLEAR,CLEAR,CLEAR,CLEAR","Cross-shore,Cross-shore,Cross-shore,Offshore,Offshore,Offshore,Offshore,Cross-shore,Onshore,Onshore,Onshore",11
5842041f4e65fad6a77088d7,2023_12_08,33.4609858001748,-117.68535,Doheny State Beach,1.5154545454545454,0.040151515151515146,0.3443969696969697,17,17,"NIGHT_MOSTLY_CLOUDY,NIGHT_MOSTLY_CLOUDY,NIGHT_BRIEF_SHOWERS,NIGHT_MOSTLY_CLEAR,CLEAR,MOSTLY_CLOUDY,MOSTLY_CLOUDY,CLEAR,CLEAR,CLEAR,CLEAR","Offshore,Offshore,Offshore,Offshore,Offshore,Offshore,Cross-shore,Onshore,Onshore,Onshore,Onshore",11
5842041f4e65fad6a77088dc,2023_12_08,33.50894790083017,-117.75243,Aliso Creek,2.3636363636363638,0.6590909090909091,0.9345454545454546,17,17,"NIGHT_MIST,NIGHT_MIST,NIGHT_MOSTLY_CLOUDY,NIGHT_CLEAR,CLEAR,MOSTLY_CLOUDY,MOSTLY_CLOUDY,CLEAR,CLEAR,CLEAR,MIST","Cross-shore,Cross-shore,Cross-shore,Cross-shore,Cross-shore,Cross-shore,Offshore,Cross-shore,Onshore,Onshore,Onshore",11
5842041f4e65fad6a77088dd,2023_12_08,33.5326591767067,-117.77764,Brooks Street,2,0.5109090909090909,0.8181818181818181,17,17,"NIGHT_MIST,NIGHT_MIST,NIGHT_MIST,NIGHT_CLEAR,CLEAR,MOSTLY_CLOUDY,MOSTLY_CLOUDY,CLEAR,CLEAR,CLEAR,CLEAR","Cross-shore,Cross-shore,Cross-shore,Cross-shore,Cross-shore,Cross-shore,Cross-shore,Cross-shore,Onshore,Onshore,Cross-shore",11
5842041f4e65fad6a77088de,2023_12_08,33.53561225884637,-117.7799,Thalia Street,2.1818181818181817,0.53,0.8363636363636363,17,17,"NIGHT_MIST,NIGHT_MIST,NIGHT_MIST,NIGHT_CLEAR,CLEAR,MOSTLY_CLOUDY,MOSTLY_CLOUDY,CLEAR,CLEAR,CLEAR,CLEAR","Cross-shore,Cross-shore,Cross-shore,Cross-shore,Cross-shore,Cross-shore,Cross-shore,Cross-shore,Onshore,Onshore,Cross-shore",11
5842041f4e65fad6a77088e3,2023_12_08,33.54268310353641,-117.7916,Rockpile,2,0.49454545454545457,0.8018181818181819,17,17,"NIGHT_MIST,NIGHT_MIST,NIGHT_MIST,NIGHT_CLEAR,CLEAR,MOSTLY_CLOUDY,MOSTLY_CLOUDY,CLEAR,CLEAR,CLEAR,CLEAR","Onshore,Cross-shore,Cross-shore,Cross-shore,Cross-shore,Cross-shore,Cross-shore,Cross-shore,Onshore,Onshore,Cross-shore",11
5842041f4e65fad6a77088e4,2023_12_08,33.7368459504689,-118.10342,"Seal Beach Pier, Southside",2.272727272727273,0.2290909090909091,0.5318181818181819,17,17,"NIGHT_BRIEF_SHOWERS_POSSIBLE,NIGHT_MIST,NIGHT_MOSTLY_CLOUDY,NIGHT_CLEAR,CLEAR,MOSTLY_CLOUDY,MOSTLY_CLOUDY,CLEAR,CLEAR,CLEAR,MIST","Offshore,Offshore,Offshore,Offshore,Offshore,Offshore,Offshore,Onshore,Onshore,Onshore,Onshore",11
5842041f4e65fad6a77088e5,2023_12_08,33.73933701820233,-118.117,Ray Bay,2,0.16454545454545455,0.4681818181818182,17,17,"NIGHT_MIST,NIGHT_MIST,NIGHT_MOSTLY_CLOUDY,NIGHT_CLEAR,CLEAR,MOSTLY_CLOUDY,CLEAR,CLEAR,CLEAR,CLEAR,CLEAR","Offshore,Cross-shore,Offshore,Offshore,Offshore,Offshore,Offshore,Onshore,Onshore,Onshore,Onshore",11
5842041f4e65fad6a77088e7,2023_12_08,33.728733,-118.08982,Surfside,2.6363636363636362,0.49363636363636365,0.7981818181818182,17,17,"NIGHT_MIST,NIGHT_MIST,NIGHT_MOSTLY_CLOUDY,NIGHT_MIST,CLEAR,MOSTLY_CLOUDY,MOSTLY_CLOUDY,CLEAR,CLEAR,CLEAR,CLEAR","Offshore,Offshore,Offshore,Offshore,Offshore,Offshore,Offshore,Onshore,Onshore,Onshore,Onshore",11
5842041f4e65fad6a77088e8,2023_12_08,33.68760321488161,-118.04236,Bolsa Chica State Beach,2.7427272727272727,1.0638454545454545,1.4361515151515152,17,17,"NIGHT_MIST,NIGHT_MOSTLY_CLEAR,NIGHT_MOSTLY_CLOUDY,NIGHT_MIST,CLEAR,MOSTLY_CLOUDY,MOSTLY_CLOUDY,MOSTLY_CLEAR,CLEAR,CLEAR,CLEAR","Offshore,Offshore,Offshore,Offshore,Offshore,Offshore,Offshore,Cross-shore,Onshore,Onshore,Onshore",11
5842041f4e65fad6a77088ea,2023_12_08,33.66704400178788,-118.0192,North HB Streets,2.7427272727272727,1.0949060606060605,1.5623636363636364,17,17,"NIGHT_MIST,NIGHT_MOSTLY_CLEAR,NIGHT_MOSTLY_CLOUDY,NIGHT_CLEAR,CLEAR,MOSTLY_CLOUDY,MOSTLY_CLOUDY,MOSTLY_CLEAR,CLEAR,CLEAR,CLEAR","Offshore,Cross-shore,Offshore,Offshore,Offshore,Cross-shore,Offshore,Cross-shore,Onshore,Onshore,Onshore",11
5842041f4e65fad6a77088ed,2023_12_08,33.65475101379567,-118.00291,Huntington Beach Pier Southside,2.8336363636363635,1.0216484848484848,1.2823030303030303,17,17,"NIGHT_MOSTLY_CLEAR,NIGHT_MOSTLY_CLOUDY,NIGHT_MOSTLY_CLOUDY,NIGHT_CLEAR,CLEAR,BRIEF_SHOWERS,MOSTLY_CLOUDY,MOSTLY_CLEAR,CLEAR,CLEAR,CLEAR","Cross-shore,Onshore,Cross-shore,Cross-shore,Offshore,Offshore,Offshore,Cross-shore,Onshore,Cross-shore,Onshore",11
5842041f4e65fad6a77088ee,2023_12_08,33.62778647706099,-117.95939,River Jetties,2.7427272727272727,0.9862363636363637,1.3673090909090908,17,17,"NIGHT_MIST,NIGHT_MOSTLY_CLEAR,NIGHT_MOSTLY_CLOUDY,NIGHT_CLEAR,MOSTLY_CLEAR,MOSTLY_CLOUDY,MOSTLY_CLOUDY,CLEAR,CLEAR,CLEAR,CLEAR","Onshore,Onshore,Onshore,Offshore,Cross-shore,Offshore,Cross-shore,Cross-shore,Onshore,Onshore,Onshore",11
5842041f4e65fad6a77088f2,2023_12_08,33.605165797643664,-117.92500376701355,Newport Point,2.1818181818181817,0.4545454545454546,0.759090909090909,17,17,"NIGHT_MIST,NIGHT_MIST,NIGHT_BRIEF_SHOWERS,NIGHT_CLEAR,CLEAR,BRIEF_SHOWERS,MOSTLY_CLOUDY,MOSTLY_CLEAR,CLEAR,CLEAR,CLEAR","Cross-shore,Cross-shore,Cross-shore,Cross-shore,Cross-shore,Cross-shore,Cross-shore,Cross-shore,Onshore,Onshore,Onshore",11
5842041f4e65fad6a77088f3,2023_12_08,33.58982984726977,-117.87713,Corona del Mar,1,0.15586636363636364,0.24354090909090909,17,17,"NIGHT_BRIEF_SHOWERS,NIGHT_MIST,NIGHT_MIST,NIGHT_CLEAR,MOSTLY_CLEAR,MOSTLY_CLOUDY,MOSTLY_CLOUDY,MOSTLY_CLEAR,CLEAR,CLEAR,CLEAR","Cross-shore,Offshore,Offshore,Onshore,Offshore,Offshore,Cross-shore,Cross-shore,Cross-shore,Onshore,Onshore",11
5842041f4e65fad6a77088f7,2023_12_08,34.00750300824362,-118.4971783496269,Santa Monica Pier,2.5454545454545454,0.48818181818181816,0.7927272727272727,17,17,"NIGHT_CLEAR,NIGHT_CLEAR,NIGHT_CLEAR,NIGHT_CLEAR,MOSTLY_CLEAR,CLEAR,CLEAR,CLEAR,CLEAR,CLEAR,CLEAR","Offshore,Offshore,Offshore,Offshore,Offshore,Offshore,Offshore,Offshore,Offshore,Onshore,Onshore",11
5842041f4e65fad6a77088ff,2023_12_08,33.94070283102945,-118.44321,Dockweiler Beach,3,1.2314409848484849,1.5620807575757576,17,17,"NIGHT_CLEAR,NIGHT_CLEAR,NIGHT_CLEAR,NIGHT_CLEAR,MOSTLY_CLOUDY,CLEAR,MOSTLY_CLOUDY,CLEAR,CLEAR,CLEAR,CLEAR","Offshore,Offshore,Offshore,Offshore,Offshore,Offshore,Offshore,Offshore,Offshore,Cross-shore,Onshore",11
5842041f4e65fad6a7708900,2023_12_08,33.9231846937237,-118.4341465777908,Shitpipe,3,1.2741818181818183,1.5891969696969697,17,17,"NIGHT_CLEAR,NIGHT_CLEAR,NIGHT_CLEAR,NIGHT_CLEAR,CLEAR,MIST,CLEAR,CLEAR,CLEAR,CLEAR,CLEAR","Offshore,Offshore,Offshore,Offshore,Offshore,Offshore,Offshore,Offshore,Offshore,Cross-shore,Onshore",11
5842041f4e65fad6a7708902,2023_12_08,33.9108528052242,-118.4279133138721,Hammerland,3,1.2750000000000001,1.7905454545454547,17,17,"NIGHT_CLEAR,NIGHT_CLEAR,NIGHT_CLEAR,NIGHT_CLEAR,CLEAR,MIST,CLEAR,CLEAR,CLEAR,CLEAR,CLEAR","Onshore,Onshore,Onshore,Onshore,Offshore,Onshore,Onshore,Onshore,Onshore,Onshore,Onshore",11
5842041f4e65fad6a7708904,2023_12_08,33.87201368173932,-118.4075151286262,Hermosa Beach,3,1.2301666666666666,1.5237121212121212,17,17,"NIGHT_CLEAR,NIGHT_CLEAR,NIGHT_CLEAR,NIGHT_CLEAR,MOSTLY_CLOUDY,CLEAR,CLEAR,CLEAR,CLEAR,CLEAR,CLEAR","Cross-shore,Cross-shore,Cross-shore,Offshore,Offshore,Offshore,Offshore,Offshore,Offshore,Cross-shore,Onshore",11
5842041f4e65fad6a7708906,2023_12_08,33.90129336911256,-118.42184,El Porto,3,1.4332575757575758,1.9933484848484848,17,17,"NIGHT_CLEAR,NIGHT_CLEAR,NIGHT_CLEAR,NIGHT_CLEAR,MOSTLY_CLOUDY,MIST,CLEAR,CLEAR,CLEAR,CLEAR,CLEAR","Onshore,Onshore,Onshore,Onshore,Onshore,Onshore,Onshore,Onshore,Onshore,Onshore,Onshore",11
5842041f4e65fad6a7708907,2023_12_08,33.87963506431794,-118.41102,Manhattan Beach Pier,3,1.3106969696969697,1.8131666666666666,17,17,"NIGHT_CLEAR,NIGHT_CLEAR,NIGHT_CLEAR,NIGHT_CLEAR,MOSTLY_CLOUDY,MIST,CLEAR,CLEAR,CLEAR,CLEAR,CLEAR","Cross-shore,Cross-shore,Offshore,Offshore,Offshore,Offshore,Offshore,Offshore,Offshore,Cross-shore,Onshore",11
5842041f4e65fad6a7708914,2023_12_08,34.038053387863464,-118.5532,Sunset Point,2.3636363636363638,0.35363636363636364,0.6590909090909091,17,17,"NIGHT_CLEAR,NIGHT_CLEAR,NIGHT_CLEAR,NIGHT_CLEAR,CLEAR,CLEAR,CLEAR,MIST,CLEAR,CLEAR,CLEAR","Offshore,Offshore,Offshore,Offshore,Cross-shore,Cross-shore,Onshore,Onshore,Cross-shore,Cross-shore,Onshore",11
5842041f4e65fad6a7708920,2023_12_08,33.80930828074364,-118.3933198342649,Haggerty's,1.9090909090909092,0.38672727272727275,0.5541818181818182,17,17,"NIGHT_CLEAR,NIGHT_CLEAR,NIGHT_CLEAR,NIGHT_CLEAR,MOSTLY_CLOUDY,CLEAR,CLEAR,CLEAR,CLEAR,CLEAR,CLEAR","Onshore,Onshore,Onshore,Onshore,Offshore,Offshore,Offshore,Offshore,Offshore,Offshore,Onshore",11
5842041f4e65fad6a7708921,2023_12_08,33.85044519861206,-118.40048,Redondo Breakwater,3,1.1718181818181819,1.4463636363636363,17,17,"NIGHT_CLEAR,NIGHT_CLEAR,NIGHT_CLEAR,NIGHT_CLEAR,MOSTLY_CLOUDY,CLEAR,CLEAR,CLEAR,CLEAR,CLEAR,CLEAR","Cross-shore,Cross-shore,Cross-shore,Offshore,Offshore,Offshore,Offshore,Offshore,Offshore,Cross-shore,Onshore",11
5842041f4e65fad6a7708927,2023_12_08,33.70877301002487,-118.2840112858389,Cabrillo Beach,2.1818181818181817,0.2509090909090909,0.5563636363636364,17,17,"NIGHT_CLEAR,NIGHT_CLEAR,NIGHT_CLEAR,NIGHT_CLEAR,MOSTLY_CLOUDY,MIST,MOSTLY_CLOUDY,MOSTLY_CLOUDY,MOSTLY_CLEAR,CLEAR,CLEAR","Offshore,Offshore,Offshore,Offshore,Cross-shore,Cross-shore,Cross-shore,Cross-shore,Onshore,Onshore,Onshore",11
5842041f4e65fad6a770892c,2023_12_08,33.77209986806257,-118.4268428476672,Lunada Bay,2,1.23,1.4418181818181819,17,17,"NIGHT_CLEAR,NIGHT_CLEAR,NIGHT_CLEAR,NIGHT_CLEAR,CLEAR,CLEAR,CLEAR,CLEAR,MOSTLY_CLEAR,CLEAR,CLEAR","Offshore,Offshore,Offshore,Offshore,Offshore,Offshore,Offshore,Offshore,Offshore,Cross-shore,Onshore",11
5842041f4e65fad6a770892d,2023_12_08,33.79294656286144,-118.4070316699825,PV Cove,2.6363636363636362,0.9318409090909091,1.1843445454545454,17,17,"NIGHT_CLEAR,NIGHT_CLEAR,NIGHT_CLEAR,NIGHT_CLEAR,MOSTLY_CLOUDY,CLEAR,CLEAR,CLEAR,CLEAR,CLEAR,CLEAR","Onshore,Onshore,Onshore,Onshore,Offshore,Offshore,Offshore,Offshore,Offshore,Offshore,Onshore",11
5842041f4e65fad6a7708930,2023_12_08,34.03944902292561,-118.57539,Chart House,2.272727272727273,0.21272727272727274,0.519090909090909,17,17,"NIGHT_CLEAR,NIGHT_CLEAR,NIGHT_CLEAR,NIGHT_CLEAR,CLEAR,CLEAR,CLEAR,CLEAR,CLEAR,CLEAR,CLEAR","Offshore,Offshore,Offshore,Offshore,Onshore,Cross-shore,Cross-shore,Onshore,Cross-shore,Cross-shore,Onshore",11
5842041f4e65fad6a7708936,2023_12_08,34.0016731994772,-118.80456,Point Dume,1.3781818181818182,0.2685848484848485,0.5723212121212121,17,17,"NIGHT_CLEAR,NIGHT_CLEAR,NIGHT_CLEAR,NIGHT_CLEAR,CLEAR,CLEAR,CLEAR,CLEAR,MIST,BRIEF_SHOWERS,CLEAR","Offshore,Offshore,Offshore,Offshore,Offshore,Offshore,Cross-shore,Onshore,Onshore,Onshore,Cross-shore",11
5842041f4e65fad6a7708937,2023_12_08,34.02587527588963,-118.7554939066114,Latigo Point,1.0909090909090908,0.053636363636363635,0.35909090909090907,17,17,"NIGHT_CLEAR,NIGHT_CLEAR,NIGHT_CLEAR,NIGHT_CLEAR,CLEAR,CLEAR,CLEAR,CLEAR,MIST,MOSTLY_CLEAR,CLEAR","Offshore,Offshore,Offshore,Offshore,Offshore,Offshore,Cross-shore,Onshore,Onshore,Onshore,Cross-shore",11
5842041f4e65fad6a770893f,2023_12_08,34.043762,-118.93294,Leo Carrillo,2.6063636363636364,0.5610333333333334,0.9592515151515152,16,16,"NIGHT_CLEAR,NIGHT_CLEAR,NIGHT_CLEAR,NIGHT_CLEAR,CLEAR,CLEAR,CLEAR,CLEAR,MIST,SHOWERS,CLEAR","Offshore,Offshore,Offshore,Offshore,Offshore,Offshore,Cross-shore,Onshore,Onshore,Onshore,Onshore",11
5842041f4e65fad6a7708941,2023_12_08,36.69388179265737,-121.81289,Marina State Beach,3,2.382727272727273,2.7209090909090907,14,14,"NIGHT_CLEAR,NIGHT_CLEAR,NIGHT_CLEAR,NIGHT_CLEAR,MIST,CLEAR,CLEAR,CLEAR,CLEAR,CLEAR,CLEAR","Cross-shore,Cross-shore,Offshore,Cross-shore,Offshore,Offshore,Offshore,Cross-shore,Cross-shore,Onshore,Onshore",11
5842041f4e65fad6a7708944,2023_12_08,34.34145077331085,-119.416999352654,Stanley's,2.4545454545454546,0.5109090909090909,0.8154545454545454,16,16,"NIGHT_CLEAR,NIGHT_CLEAR,NIGHT_CLEAR,NIGHT_CLEAR,CLEAR,CLEAR,CLEAR,CLEAR,CLEAR,CLEAR,CLEAR","Cross-shore,Offshore,Offshore,Offshore,Offshore,Offshore,Offshore,Onshore,Onshore,Onshore,Onshore",11
5842041f4e65fad6a7708945,2023_12_08,34.35113017313915,-119.426921498899,Oil Piers,2.5454545454545454,0.4172727272727273,0.7218181818181818,16,16,"NIGHT_CLEAR,NIGHT_CLEAR,NIGHT_CLEAR,NIGHT_CLEAR,CLEAR,CLEAR,CLEAR,CLEAR,CLEAR,CLEAR,CLEAR","Offshore,Offshore,Offshore,Offshore,Offshore,Offshore,Offshore,Onshore,Onshore,Onshore,Onshore",11
5842041f4e65fad6a770894c,2023_12_08,34.17876333306018,-119.2399483564372,Oxnard,3,0.8181818181818181,1.0818181818181818,17,17,"NIGHT_CLEAR,NIGHT_CLEAR,NIGHT_CLEAR,NIGHT_CLEAR,CLEAR,CLEAR,CLEAR,CLEAR,CLEAR,CLEAR,CLEAR","Cross-shore,Cross-shore,Offshore,Offshore,Offshore,Offshore,Offshore,Cross-shore,Onshore,Onshore,Onshore",11
5842041f4e65fad6a7708957,2023_12_08,34.31720331100517,-119.3882324751725,Pitas Point,2.909090909090909,0.5154545454545455,0.8218181818181818,16,16,"NIGHT_CLEAR,NIGHT_CLEAR,NIGHT_CLEAR,NIGHT_CLEAR,CLEAR,CLEAR,CLEAR,CLEAR,CLEAR,CLEAR,CLEAR","Onshore,Cross-shore,Offshore,Offshore,Offshore,Offshore,Cross-shore,Onshore,Onshore,Cross-shore,Cross-shore",11
5842041f4e65fad6a7708959,2023_12_08,34.27851754384724,-119.316202617226,Emma Wood,2.4545454545454546,0.48454545454545456,0.7872727272727272,16,16,"NIGHT_CLEAR,NIGHT_CLEAR,NIGHT_CLEAR,NIGHT_CLEAR,CLEAR,CLEAR,CLEAR,CLEAR,CLEAR,CLEAR,CLEAR","Offshore,Offshore,Offshore,Offshore,Offshore,Offshore,Onshore,Onshore,Onshore,Onshore,Onshore",11
5842041f4e65fad6a770895a,2023_12_08,34.35513640390276,-119.4400589884255,Mussel Shoals (aka Little Rincon),3,0.5763636363636364,0.8772727272727273,16,16,"NIGHT_CLEAR,NIGHT_CLEAR,NIGHT_CLEAR,NIGHT_CLEAR,CLEAR,CLEAR,CLEAR,CLEAR,CLEAR,CLEAR,CLEAR","Cross-shore,Offshore,Offshore,Offshore,Offshore,Offshore,Cross-shore,Onshore,Onshore,Onshore,Onshore",11
5842041f4e65fad6a770895e,2023_12_08,34.28991757054902,-119.3366646794652,Summer Beach,2.272727272727273,0.32,0.6245454545454545,16,16,"NIGHT_CLEAR,NIGHT_CLEAR,NIGHT_CLEAR,NIGHT_CLEAR,CLEAR,CLEAR,CLEAR,CLEAR,CLEAR,CLEAR,CLEAR","Offshore,Cross-shore,Offshore,Offshore,Offshore,Offshore,Onshore,Onshore,Onshore,Onshore,Onshore",11
5842041f4e65fad6a770895f,2023_12_08,34.30897456105926,-119.3582501170116,Solimar,2.8181818181818183,0.3572727272727273,0.6618181818181819,16,16,"NIGHT_CLEAR,NIGHT_CLEAR,NIGHT_CLEAR,NIGHT_CLEAR,CLEAR,CLEAR,CLEAR,CLEAR,CLEAR,CLEAR,CLEAR","Onshore,Cross-shore,Offshore,Offshore,Offshore,Offshore,Cross-shore,Onshore,Onshore,Cross-shore,Cross-shore",11
5842041f4e65fad6a7708960,2023_12_08,34.39836265281686,-119.70213,Leadbetter Point,1.8181818181818181,0.027272727272727275,0.33,16,16,"NIGHT_CLEAR,NIGHT_CLEAR,NIGHT_CLEAR,NIGHT_CLEAR,CLEAR,CLEAR,CLEAR,CLEAR,CLEAR,CLEAR,CLEAR","Offshore,Offshore,Offshore,Offshore,Offshore,Cross-shore,Onshore,Onshore,Cross-shore,Cross-shore,Cross-shore",11
5842041f4e65fad6a7708961,2023_12_08,34.46052293893899,-120.07328,Refugio,1,0.01818181818181818,0.31727272727272726,16,16,"NIGHT_CLEAR,NIGHT_CLEAR,NIGHT_CLEAR,NIGHT_CLEAR,CLEAR,CLEAR,CLEAR,CLEAR,CLEAR,CLEAR,CLEAR","Offshore,Offshore,Offshore,Offshore,Offshore,Offshore,Offshore,Cross-shore,Onshore,Onshore,Cross-shore",11
5842041f4e65fad6a7708962,2023_12_08,34.40754276777778,-119.87639,Devereux,2.8181818181818183,0.3981818181818182,0.7,16,16,"NIGHT_CLEAR,NIGHT_CLEAR,NIGHT_CLEAR,NIGHT_CLEAR,CLEAR,CLEAR,CLEAR,CLEAR,CLEAR,CLEAR,CLEAR","Offshore,Offshore,Offshore,Offshore,Offshore,Offshore,Onshore,Onshore,Onshore,Onshore,Onshore",11
5842041f4e65fad6a7708963,2023_12_08,34.27479983305182,-119.3133222656776,Ventura Overhead,2.727272727272727,0.5072727272727273,0.8154545454545454,16,16,"NIGHT_CLEAR,NIGHT_CLEAR,NIGHT_CLEAR,NIGHT_CLEAR,CLEAR,CLEAR,CLEAR,CLEAR,CLEAR,CLEAR,CLEAR","Offshore,Offshore,Offshore,Offshore,Offshore,Offshore,Onshore,Onshore,Onshore,Onshore,Onshore",11
5842041f4e65fad6a7708964,2023_12_08,34.41023236011655,-119.88261,Sands,2.6363636363636362,0.49272727272727274,0.7963636363636364,16,16,"NIGHT_CLEAR,NIGHT_CLEAR,NIGHT_CLEAR,NIGHT_CLEAR,CLEAR,CLEAR,CLEAR,CLEAR,CLEAR,CLEAR,CLEAR","Cross-shore,Cross-shore,Cross-shore,Cross-shore,Cross-shore,Offshore,Onshore,Onshore,Onshore,Onshore,Onshore",11
5842041f4e65fad6a7708966,2023_12_08,34.40450193869233,-119.68752,Sandspit,1,0,0.21727272727272728,16,16,"NIGHT_CLEAR,NIGHT_CLEAR,NIGHT_CLEAR,NIGHT_CLEAR,CLEAR,CLEAR,CLEAR,CLEAR,CLEAR,CLEAR,CLEAR","Offshore,Offshore,Offshore,Offshore,Offshore,Cross-shore,Onshore,Onshore,Cross-shore,Cross-shore,Cross-shore",11
5842041f4e65fad6a7708967,2023_12_08,34.41549098334453,-119.6375149840203,Hammond's,1.3636363636363635,0.035454545454545454,0.34,15.363636363636363,15.363636363636363,"NIGHT_CLEAR,NIGHT_CLEAR,NIGHT_CLEAR,NIGHT_CLEAR,CLEAR,CLEAR,CLEAR,CLEAR,CLEAR,CLEAR,CLEAR","Offshore,Offshore,Offshore,Offshore,Offshore,Offshore,Cross-shore,Onshore,Onshore,Onshore,Onshore",11
5842041f4e65fad6a7708968,2023_12_08,34.45759322742309,-120.0220251867315,El Capitan,1.6363636363636365,0.12363636363636364,0.42818181818181816,16,16,"NIGHT_CLEAR,NIGHT_CLEAR,NIGHT_CLEAR,NIGHT_CLEAR,CLEAR,CLEAR,CLEAR,CLEAR,CLEAR,CLEAR,CLEAR","Offshore,Offshore,Offshore,Offshore,Offshore,Offshore,Onshore,Onshore,Onshore,Onshore,Onshore",11
5842041f4e65fad6a770896c,2023_12_08,34.405117655616,-119.84317,Campus Point,2,0.15363636363636363,0.4581818181818182,16,16,"NIGHT_CLEAR,NIGHT_CLEAR,NIGHT_CLEAR,NIGHT_CLEAR,CLEAR,CLEAR,CLEAR,CLEAR,CLEAR,CLEAR,CLEAR","Offshore,Offshore,Offshore,Offshore,Offshore,Offshore,Onshore,Onshore,Onshore,Onshore,Onshore",11
5842041f4e65fad6a770896e,2023_12_08,34.38935162233354,-119.51955,Carpinteria State Beach,2.727272727272727,0.35000000000000003,0.6545454545454545,16,16,"NIGHT_CLEAR,NIGHT_CLEAR,NIGHT_CLEAR,NIGHT_CLEAR,CLEAR,CLEAR,CLEAR,CLEAR,CLEAR,CLEAR,CLEAR","Onshore,Onshore,Onshore,Onshore,Onshore,Onshore,Onshore,Onshore,Cross-shore,Offshore,Offshore",11
5842041f4e65fad6a770896f,2023_12_08,37.48296565175612,-122.4549300127824,Half Moon Bay,3.5454545454545454,1.5909090909090908,1.8954545454545455,14,14,"NIGHT_CLEAR,NIGHT_CLEAR,NIGHT_CLEAR,NIGHT_CLEAR,CLEAR,CLEAR,CLEAR,CLEAR,CLEAR,CLEAR,CLEAR","Cross-shore,Cross-shore,Cross-shore,Cross-shore,Offshore,Offshore,Offshore,Offshore,Offshore,Offshore,Offshore",11
5842041f4e65fad6a7708970,2023_12_08,37.499,-122.471,Princeton Jetty,3.6363636363636362,1.7063636363636363,1.971818181818182,14,14,"NIGHT_CLEAR,NIGHT_CLEAR,NIGHT_CLEAR,NIGHT_CLEAR,CLEAR,CLEAR,CLEAR,CLEAR,CLEAR,CLEAR,CLEAR","Offshore,Offshore,Offshore,Offshore,Offshore,Offshore,Offshore,Offshore,Offshore,Offshore,Offshore",11
5842041f4e65fad6a7708972,2023_12_08,37.35699547365155,-122.4069534707252,Tunitas Creek,2.8181818181818183,3.041818181818182,3.4545454545454546,14,14,"NIGHT_CLEAR,NIGHT_CLEAR,NIGHT_CLEAR,NIGHT_CLEAR,CLEAR,CLEAR,CLEAR,CLEAR,CLEAR,CLEAR,CLEAR","Cross-shore,Cross-shore,Cross-shore,Cross-shore,Offshore,Offshore,Offshore,Offshore,Offshore,Cross-shore,Cross-shore",11
5842041f4e65fad6a7708974,2023_12_08,37.54735589428842,-122.5161090212687,Montara,2.272727272727273,2.269090909090909,2.6554545454545453,14,14,"NIGHT_CLEAR,NIGHT_CLEAR,NIGHT_CLEAR,NIGHT_CLEAR,CLEAR,CLEAR,CLEAR,CLEAR,CLEAR,CLEAR,CLEAR","Onshore,Onshore,Onshore,Onshore,Cross-shore,Cross-shore,Cross-shore,Cross-shore,Onshore,Onshore,Onshore",11
5842041f4e65fad6a7708975,2023_12_08,34.3869373724559,-119.5142334209018,Tarpits,2.6363636363636362,0.3372727272727273,0.6436363636363637,16,16,"NIGHT_CLEAR,NIGHT_CLEAR,NIGHT_CLEAR,NIGHT_CLEAR,CLEAR,CLEAR,CLEAR,CLEAR,CLEAR,CLEAR,CLEAR","Onshore,Onshore,Onshore,Onshore,Onshore,Onshore,Onshore,Cross-shore,Offshore,Offshore,Offshore",11
5842041f4e65fad6a7708976,2023_12_08,37.59881852720143,-122.50463,Pacifica / Linda Mar,2.1818181818181817,0.9828757575757575,1.3646878787878787,14,14,"NIGHT_CLEAR,NIGHT_CLEAR,NIGHT_CLEAR,NIGHT_MOSTLY_CLEAR,CLEAR,CLEAR,CLEAR,CLEAR,CLEAR,CLEAR,CLEAR","Onshore,Onshore,Onshore,Onshore,Offshore,Offshore,Cross-shore,Cross-shore,Onshore,Onshore,Onshore",11
5842041f4e65fad6a7708978,2023_12_08,37.59883098461164,-122.5143843582282,Pedro Point,2.5454545454545454,2.289090909090909,2.6445454545454545,14,14,"NIGHT_CLEAR,NIGHT_CLEAR,NIGHT_CLEAR,NIGHT_CLEAR,CLEAR,CLEAR,CLEAR,CLEAR,CLEAR,CLEAR,CLEAR","Onshore,Onshore,Onshore,Onshore,Cross-shore,Cross-shore,Cross-shore,Onshore,Onshore,Onshore,Onshore",11
5842041f4e65fad6a7708979,2023_12_08,37.61081996647663,-122.4973287570634,Rockaway,2.6363636363636362,2.346363636363636,2.673636363636364,14,14,"NIGHT_CLEAR,NIGHT_CLEAR,NIGHT_CLEAR,NIGHT_MOSTLY_CLEAR,CLEAR,CLEAR,CLEAR,CLEAR,CLEAR,CLEAR,CLEAR","Onshore,Onshore,Onshore,Onshore,Offshore,Offshore,Cross-shore,Cross-shore,Cross-shore,Cross-shore,Onshore",11
5842041f4e65fad6a770897a,2023_12_08,37.809987384424446,-122.4751353263855,Fort Point,4,1.4536363636363636,1.7263636363636363,13.363636363636363,13.363636363636363,"NIGHT_CLEAR,NIGHT_CLEAR,NIGHT_CLEAR,NIGHT_CLEAR,CLEAR,CLEAR,CLEAR,CLEAR,CLEAR,CLEAR,CLEAR","Offshore,Offshore,Offshore,Offshore,Offshore,Offshore,Offshore,Offshore,Offshore,Offshore,Offshore",11
5842041f4e65fad6a770897c,2023_12_08,37.63422542967464,-122.4951,Sharp Park,2.4545454545454546,2.387272727272727,2.820909090909091,14,14,"NIGHT_CLEAR,NIGHT_CLEAR,NIGHT_CLEAR,NIGHT_CLEAR,CLEAR,CLEAR,CLEAR,CLEAR,CLEAR,CLEAR,CLEAR","Onshore,Cross-shore,Cross-shore,Onshore,Offshore,Offshore,Offshore,Cross-shore,Cross-shore,Cross-shore,Onshore",11
5842041f4e65fad6a770897d,2023_12_08,37.27313605072472,-122.4127387912554,Pescadero,2.1818181818181817,2.901818181818182,3.308181818181818,14,14,"NIGHT_CLEAR,NIGHT_MOSTLY_CLEAR,NIGHT_MOSTLY_CLEAR,NIGHT_MOSTLY_CLOUDY,CLEAR,CLEAR,CLEAR,CLEAR,CLEAR,CLEAR,CLEAR","Cross-shore,Cross-shore,Cross-shore,Cross-shore,Cross-shore,Offshore,Cross-shore,Cross-shore,Cross-shore,Cross-shore,Cross-shore",11
5842041f4e65fad6a770897e,2023_12_08,37.18140279972666,-122.3926685899327,Pigeon Point,4,2.786363636363636,3.2009090909090907,14,14,"NIGHT_CLEAR,NIGHT_CLEAR,NIGHT_CLEAR,NIGHT_MOSTLY_CLEAR,CLEAR,CLEAR,CLEAR,CLEAR,CLEAR,CLEAR,CLEAR","Offshore,Offshore,Offshore,Offshore,Offshore,Offshore,Offshore,Offshore,Offshore,Offshore,Offshore",11
5842041f4e65fad6a770897f,2023_12_08,37.11578956919415,-122.314699271291,Ano Nuevo,4,1.9363636363636363,2.3145454545454545,14,14,"NIGHT_CLEAR,NIGHT_CLEAR,NIGHT_CLEAR,NIGHT_MOSTLY_CLEAR,CLEAR,CLEAR,CLEAR,CLEAR,CLEAR,CLEAR,CLEAR","Offshore,Offshore,Offshore,Offshore,Offshore,Offshore,Offshore,Offshore,Offshore,Offshore,Offshore",11
5842041f4e65fad6a7708980,2023_12_08,37.09520872681598,-122.2805474707768,Waddell Creek,3.1818181818181817,2.109090909090909,2.5163636363636366,14,14,"NIGHT_CLEAR,NIGHT_CLEAR,NIGHT_CLEAR,NIGHT_CLEAR,CLEAR,CLEAR,CLEAR,CLEAR,CLEAR,CLEAR,CLEAR","Offshore,Offshore,Offshore,Offshore,Offshore,Offshore,Offshore,Offshore,Offshore,Offshore,Offshore",11
5842041f4e65fad6a7708981,2023_12_08,36.96512852130351,-122.1252825495626,Four Mile,4,2.2227272727272727,2.599090909090909,14.363636363636363,14.363636363636363,"NIGHT_CLEAR,NIGHT_CLEAR,NIGHT_CLEAR,NIGHT_CLEAR,CLEAR,CLEAR,CLEAR,CLEAR,CLEAR,CLEAR,CLEAR","Offshore,Offshore,Offshore,Offshore,Offshore,Offshore,Offshore,Offshore,Offshore,Offshore,Offshore",11
5842041f4e65fad6a7708982,2023_12_08,37.04122807048655,-122.2333684729756,Scott Creek,3.090909090909091,2.233636363636364,2.6072727272727274,14,14,"NIGHT_CLEAR,NIGHT_CLEAR,NIGHT_CLEAR,NIGHT_CLEAR,CLEAR,CLEAR,CLEAR,CLEAR,CLEAR,CLEAR,CLEAR","Offshore,Offshore,Offshore,Offshore,Offshore,Offshore,Offshore,Offshore,Offshore,Offshore,Offshore",11
5842041f4e65fad6a7708983,2023_12_08,37.02350229387179,-122.21908,Davenport,4,2.2781818181818183,2.6963636363636363,14.363636363636363,14.363636363636363,"NIGHT_CLEAR,NIGHT_CLEAR,NIGHT_CLEAR,NIGHT_CLEAR,CLEAR,CLEAR,CLEAR,CLEAR,CLEAR,CLEAR,CLEAR","Offshore,Offshore,Offshore,Offshore,Offshore,Offshore,Offshore,Offshore,Offshore,Offshore,Offshore",11
5842041f4e65fad6a7708986,2023_12_08,36.94905295955728,-122.0611823912244,Natural Bridges,4,1.77,2.1145454545454543,14,14,"NIGHT_CLEAR,NIGHT_CLEAR,NIGHT_CLEAR,NIGHT_CLEAR,CLEAR,CLEAR,CLEAR,CLEAR,CLEAR,CLEAR,CLEAR","Offshore,Offshore,Offshore,Offshore,Offshore,Offshore,Offshore,Offshore,Offshore,Offshore,Offshore",11
5842041f4e65fad6a7708987,2023_12_08,36.95154854910425,-122.0420693940968,Mitchell's Cove,3.4545454545454546,1.1263636363636365,1.3827272727272728,14,14,"NIGHT_CLEAR,NIGHT_CLEAR,NIGHT_CLEAR,NIGHT_CLEAR,CLEAR,CLEAR,CLEAR,CLEAR,CLEAR,CLEAR,CLEAR","Offshore,Offshore,Offshore,Offshore,Offshore,Offshore,Offshore,Offshore,Offshore,Offshore,Offshore",11
5842041f4e65fad6a770898a,2023_12_08,36.9572312370203,-121.98177,26th Ave,3.6363636363636362,1.6627272727272726,1.9472727272727273,14,14,"NIGHT_CLEAR,NIGHT_CLEAR,NIGHT_CLEAR,NIGHT_CLEAR,CLEAR,CLEAR,CLEAR,CLEAR,CLEAR,CLEAR,CLEAR","Cross-shore,Cross-shore,Offshore,Cross-shore,Offshore,Offshore,Offshore,Offshore,Offshore,Offshore,Offshore",11
5842041f4e65fad6a770898e,2023_12_08,36.91899972819882,-121.85536,Manresa,3.6363636363636362,1.9909090909090907,2.3027272727272727,14,14,"NIGHT_CLEAR,NIGHT_CLEAR,NIGHT_CLEAR,NIGHT_CLEAR,MIST,MIST,CLEAR,MIST,MIST,MIST,CLEAR","Offshore,Cross-shore,Cross-shore,Offshore,Offshore,Offshore,Onshore,Onshore,Cross-shore,Cross-shore,Offshore",11
5842041f4e65fad6a7708990,2023_12_08,34.45747731928454,-120.34242,The Ranch,2,0.42,0.7245454545454545,15.363636363636363,15.363636363636363,"NIGHT_CLEAR,NIGHT_CLEAR,NIGHT_CLEAR,NIGHT_CLEAR,CLEAR,CLEAR,CLEAR,CLEAR,CLEAR,CLEAR,CLEAR","Offshore,Offshore,Offshore,Offshore,Offshore,Offshore,Offshore,Offshore,Offshore,Offshore,Offshore",11
5842041f4e65fad6a7708991,2023_12_08,34.50875036590315,-120.50348,Jalama,2.272727272727273,1.3263636363636364,1.59,16,16,"NIGHT_CLEAR,NIGHT_CLEAR,NIGHT_CLEAR,NIGHT_CLEAR,CLEAR,CLEAR,CLEAR,CLEAR,CLEAR,CLEAR,CLEAR","Offshore,Offshore,Offshore,Offshore,Offshore,Offshore,Offshore,Offshore,Offshore,Offshore,Offshore",11
5842041f4e65fad6a7708996,2023_12_08,34.68700870220497,-120.6111611019887,Surf Beach,1.8181818181818181,3.21,3.7827272727272727,15,15,"NIGHT_CLEAR,NIGHT_CLEAR,NIGHT_CLEAR,NIGHT_CLEAR,CLEAR,CLEAR,CLEAR,CLEAR,CLEAR,CLEAR,CLEAR","Cross-shore,Cross-shore,Cross-shore,Cross-shore,Cross-shore,Cross-shore,Cross-shore,Cross-shore,Cross-shore,Cross-shore,Cross-shore",11
5842041f4e65fad6a770899c,2023_12_08,35.5730538161116,-121.1143362345574,Moonstone,3.4545454545454546,2.040909090909091,2.440909090909091,15,15,"NIGHT_CLEAR,NIGHT_CLEAR,NIGHT_CLEAR,NIGHT_CLEAR,CLEAR,CLEAR,CLEAR,CLEAR,CLEAR,CLEAR,CLEAR","Offshore,Offshore,Offshore,Offshore,Offshore,Offshore,Offshore,Offshore,Offshore,Offshore,Cross-shore",11
5842041f4e65fad6a770899d,2023_12_08,35.61533716776573,-121.1502053073914,Pico Creek,3,1.6509090909090909,1.9736363636363636,15,15,"NIGHT_CLEAR,NIGHT_CLEAR,NIGHT_CLEAR,NIGHT_CLEAR,CLEAR,CLEAR,CLEAR,CLEAR,CLEAR,CLEAR,CLEAR","Offshore,Offshore,Offshore,Offshore,Offshore,Offshore,Offshore,Offshore,Offshore,Cross-shore,Cross-shore",11
5842041f4e65fad6a770899e,2023_12_08,35.56829031927379,-121.1120653023953,Santa Rosa Creek,3.5454545454545454,2.040909090909091,2.440909090909091,15,15,"NIGHT_CLEAR,NIGHT_CLEAR,NIGHT_CLEAR,NIGHT_CLEAR,CLEAR,CLEAR,CLEAR,CLEAR,CLEAR,CLEAR,CLEAR","Offshore,Offshore,Offshore,Offshore,Offshore,Offshore,Offshore,Offshore,Offshore,Offshore,Cross-shore",11
5842041f4e65fad6a77089a2,2023_12_08,35.44820114936284,-120.90715,"Cayucos Pier, Southside ",3,1,1.2618181818181817,14.363636363636363,14.363636363636363,"NIGHT_CLEAR,NIGHT_CLEAR,NIGHT_CLEAR,NIGHT_CLEAR,CLEAR,CLEAR,CLEAR,CLEAR,CLEAR,CLEAR,CLEAR","Offshore,Offshore,Offshore,Offshore,Offshore,Offshore,Offshore,Offshore,Offshore,Offshore,Offshore",11
5842041f4e65fad6a77089a4,2023_12_08,35.30143372628852,-120.877819239902,Cable Landing,3.1818181818181817,3.272727272727273,3.848181818181818,14.363636363636363,14.363636363636363,"NIGHT_CLEAR,NIGHT_CLEAR,NIGHT_CLEAR,NIGHT_CLEAR,CLEAR,CLEAR,CLEAR,CLEAR,CLEAR,CLEAR,CLEAR","Offshore,Cross-shore,Offshore,Offshore,Offshore,Offshore,Offshore,Offshore,Offshore,Offshore,Offshore",11
5842041f4e65fad6a77089a9,2023_12_08,35.61269103500222,-121.1480725356606,San Simeon,3,1.065909090909091,1.274,15,15,"NIGHT_CLEAR,NIGHT_CLEAR,NIGHT_CLEAR,NIGHT_CLEAR,CLEAR,CLEAR,CLEAR,CLEAR,CLEAR,CLEAR,CLEAR","Offshore,Offshore,Offshore,Offshore,Offshore,Offshore,Offshore,Offshore,Offshore,Offshore,Offshore",11
5842041f4e65fad6a77089ab,2023_12_08,35.1775325966252,-120.7341125142258,Avila Beach,1,0,0.24,15,15,"NIGHT_CLEAR,NIGHT_CLEAR,NIGHT_CLEAR,NIGHT_CLEAR,CLEAR,CLEAR,CLEAR,CLEAR,CLEAR,CLEAR,CLEAR","Offshore,Offshore,Offshore,Offshore,Offshore,Offshore,Offshore,Offshore,Offshore,Offshore,Offshore",11
5842041f4e65fad6a77089ac,2023_12_08,35.13877877884115,-120.64535,Pismo Beach Pier,3,1.3533636363636363,1.879360606060606,15,15,"NIGHT_CLEAR,NIGHT_CLEAR,NIGHT_CLEAR,NIGHT_CLEAR,CLEAR,CLEAR,CLEAR,CLEAR,CLEAR,CLEAR,CLEAR","Cross-shore,Cross-shore,Onshore,Cross-shore,Cross-shore,Cross-shore,Cross-shore,Offshore,Cross-shore,Cross-shore,Cross-shore",11
5842041f4e65fad6a77089ad,2023_12_08,46.8907710233147,-124.12964,Westport/Olympic Peninsula,2.5454545454545454,1.8154545454545454,2.138181818181818,10,10,"NIGHT_MOSTLY_CLOUDY,NIGHT_BRIEF_SHOWERS,NIGHT_CLEAR,NIGHT_MOSTLY_CLOUDY,NIGHT_MOSTLY_CLOUDY,MOSTLY_CLOUDY,CLEAR,CLEAR,CLEAR,MOSTLY_CLEAR,CLEAR","Onshore,Onshore,Onshore,Onshore,Onshore,Cross-shore,Cross-shore,Cross-shore,Onshore,Onshore,Offshore",11
5842041f4e65fad6a77089ae,2023_12_08,46.35185177248545,-124.06747,Long Beach Peninsula,1.8181818181818181,2.8227272727272728,3.137272727272727,10.636363636363637,10.636363636363637,"NIGHT_MOSTLY_CLOUDY,NIGHT_MOSTLY_CLEAR,NIGHT_MOSTLY_CLOUDY,NIGHT_BRIEF_SHOWERS,NIGHT_OVERCAST,CLEAR,CLEAR,MOSTLY_CLOUDY,CLEAR,CLEAR,MOSTLY_CLOUDY","Onshore,Onshore,Onshore,Onshore,Onshore,Onshore,Onshore,Onshore,Onshore,Onshore,Cross-shore",11
5842041f4e65fad6a77089af,2023_12_08,47.90649175554033,-124.6370864743483,La Push,3,2.1,2.3527272727272726,9.636363636363637,9.636363636363637,"NIGHT_CLEAR,NIGHT_MOSTLY_CLOUDY,NIGHT_BRIEF_SHOWERS,NIGHT_MOSTLY_CLOUDY,NIGHT_MOSTLY_CLEAR,CLEAR,CLEAR,MOSTLY_CLOUDY,MOSTLY_CLOUDY,MOSTLY_CLOUDY,CLOUDY","Cross-shore,Cross-shore,Cross-shore,Cross-shore,Offshore,Cross-shore,Cross-shore,Cross-shore,Onshore,Onshore,Onshore",11
5842041f4e65fad6a77089b0,2023_12_08,42.04368239985442,-124.26828,Brookings Jetty,3.272727272727273,1.3211154545454546,2.064242727272727,12,12,"NIGHT_CLEAR,NIGHT_CLEAR,NIGHT_CLEAR,NIGHT_CLEAR,NIGHT_CLEAR,CLEAR,CLEAR,CLEAR,CLEAR,CLEAR,CLEAR","Offshore,Offshore,Offshore,Offshore,Offshore,Offshore,Offshore,Offshore,Offshore,Cross-shore,Cross-shore",11
5842041f4e65fad6a77089b1,2023_12_08,42.74071837900346,-124.4983727491047,Port Orford,3.1818181818181817,1.7263636363636363,2.0472727272727274,12,12,"NIGHT_CLEAR,NIGHT_CLEAR,NIGHT_CLEAR,NIGHT_SHOWERS,NIGHT_BRIEF_SHOWERS,MOSTLY_CLEAR,BRIEF_SHOWERS,CLEAR,CLEAR,CLEAR,MOSTLY_CLOUDY","Cross-shore,Cross-shore,Offshore,Offshore,Onshore,Onshore,Onshore,Onshore,Onshore,Onshore,Onshore",11
5842041f4e65fad6a77089b2,2023_12_08,44.01532689312291,-124.13865,Florence South Jetty,1.9090909090909092,2.939090909090909,3.2936363636363635,11,11,"NIGHT_CLEAR,NIGHT_MOSTLY_CLOUDY,NIGHT_MOSTLY_CLOUDY,NIGHT_SHOWERS,NIGHT_MOSTLY_CLOUDY,MOSTLY_CLOUDY,CLEAR,MOSTLY_CLEAR,CLEAR,CLEAR,MOSTLY_CLEAR","Onshore,Onshore,Onshore,Onshore,Onshore,Onshore,Onshore,Cross-shore,Cross-shore,Offshore,Onshore",11
5842041f4e65fad6a77089b3,2023_12_08,42.41812540774362,-124.42945,Gold Beach South Jetty,3,2.34,2.78,12,12,"NIGHT_MOSTLY_CLOUDY,NIGHT_MOSTLY_CLOUDY,NIGHT_MOSTLY_CLOUDY,NIGHT_MOSTLY_CLEAR,NIGHT_CLEAR,MOSTLY_CLEAR,CLEAR,MOSTLY_CLEAR,MOSTLY_CLEAR,CLEAR,CLEAR","Offshore,Cross-shore,Cross-shore,Offshore,Cross-shore,Onshore,Onshore,Offshore,Offshore,Offshore,Cross-shore",11
5842041f4e65fad6a77089b4,2023_12_08,44.95857310226525,-124.0219017690976,Lincoln City,2.4545454545454546,2.7854545454545456,3.099090909090909,11,11,"NIGHT_CLEAR,NIGHT_FOG,NIGHT_CLEAR,NIGHT_CLEAR,NIGHT_BRIEF_SHOWERS,MOSTLY_CLOUDY,MOSTLY_CLEAR,MOSTLY_CLOUDY,CLEAR,CLOUDY,CLEAR","Onshore,Onshore,Onshore,Onshore,Onshore,Cross-shore,Onshore,Onshore,Onshore,Onshore,Onshore",11
5842041f4e65fad6a77089b5,2023_12_08,44.63792761362982,-124.0657,Newport,2,2.9527272727272726,3.346363636363636,11,11,"NIGHT_MOSTLY_CLOUDY,NIGHT_MOSTLY_CLOUDY,NIGHT_SHOWERS,NIGHT_CLEAR,NIGHT_CLEAR,MOSTLY_CLOUDY,CLEAR,MIST,MOSTLY_CLOUDY,CLOUDY,MOSTLY_CLOUDY","Onshore,Onshore,Onshore,Onshore,Onshore,Onshore,Cross-shore,Cross-shore,Cross-shore,Offshore,Onshore",11
5842041f4e65fad6a77089b6,2023_12_08,45.61468496266301,-123.94643,Rockaway Beach,1.9090909090909092,2.869090909090909,3.1945454545454544,11,11,"NIGHT_MOSTLY_CLOUDY,NIGHT_MOSTLY_CLOUDY,NIGHT_MOSTLY_CLOUDY,NIGHT_MOSTLY_CLOUDY,NIGHT_CLOUDY,CLEAR,CLEAR,CLEAR,CLEAR,CLEAR,CLEAR","Onshore,Onshore,Onshore,Onshore,Onshore,Onshore,Onshore,Onshore,Onshore,Onshore,Onshore",11
5842041f4e65fad6a77089b7,2023_12_08,45.20252914186085,-123.96975,Pacific City,2.6363636363636362,2.3754545454545455,2.708181818181818,11,11,"NIGHT_MOSTLY_CLEAR,NIGHT_CLEAR,NIGHT_MOSTLY_CLOUDY,NIGHT_CLEAR,NIGHT_MOSTLY_CLOUDY,MOSTLY_CLEAR,CLEAR,MOSTLY_CLOUDY,MOSTLY_CLOUDY,MOSTLY_CLOUDY,MOSTLY_CLOUDY","Onshore,Onshore,Onshore,Onshore,Cross-shore,Onshore,Onshore,Onshore,Onshore,Onshore,Onshore",11
5842041f4e65fad6a77089b8,2023_12_08,45.88179930310263,-123.96681,Cannon Beach,1.9090909090909092,2.707272727272727,3.0281818181818183,10.636363636363637,10.636363636363637,"NIGHT_MOSTLY_CLEAR,NIGHT_MOSTLY_CLOUDY,NIGHT_MOSTLY_CLOUDY,NIGHT_MOSTLY_CLOUDY,NIGHT_FOG,MOSTLY_CLOUDY,CLEAR,MOSTLY_CLOUDY,MOSTLY_CLOUDY,SHOWERS,MOSTLY_CLOUDY","Onshore,Onshore,Onshore,Onshore,Onshore,Onshore,Onshore,Onshore,Onshore,Onshore,Onshore",11
5842041f4e65fad6a77089ba,2023_12_08,40.02528754746774,-124.06372,Shelter Cove,3,0.7650509090909091,1.19539,13,13,"NIGHT_CLEAR,NIGHT_CLEAR,NIGHT_CLEAR,NIGHT_CLEAR,NIGHT_CLEAR,CLEAR,CLEAR,CLEAR,CLEAR,CLEAR,CLEAR","Offshore,Offshore,Offshore,Offshore,Offshore,Offshore,Offshore,Offshore,Offshore,Offshore,Offshore",11
5842041f4e65fad6a77089bb,2023_12_08,40.76816197136951,-124.24248,Humboldt Harbor Entrance,2.727272727272727,3.0081818181818183,3.4045454545454543,12.363636363636363,12.363636363636363,"NIGHT_MOSTLY_CLOUDY,NIGHT_MOSTLY_CLOUDY,NIGHT_MOSTLY_CLOUDY,NIGHT_MOSTLY_CLOUDY,NIGHT_BRIEF_SHOWERS,CLEAR,CLEAR,CLEAR,CLEAR,CLEAR,CLEAR","Cross-shore,Cross-shore,Offshore,Offshore,Offshore,Offshore,Offshore,Cross-shore,Cross-shore,Cross-shore,Cross-shore",11
5842041f4e65fad6a77089bc,2023_12_08,40.76684246920174,-124.23107,North Jetty,2.727272727272727,3.5109090909090908,3.9709090909090907,12.363636363636363,12.363636363636363,"NIGHT_MOSTLY_CLOUDY,NIGHT_BRIEF_SHOWERS,NIGHT_CLEAR,NIGHT_CLEAR,NIGHT_MOSTLY_CLEAR,MOSTLY_CLEAR,CLEAR,CLEAR,CLEAR,CLEAR,CLEAR","Offshore,Cross-shore,Offshore,Offshore,Offshore,Offshore,Offshore,Cross-shore,Cross-shore,Cross-shore,Cross-shore",11
5842041f4e65fad6a77089bd,2023_12_08,41.02731183893966,-124.1149972888982,Westhaven,3,4.073636363636363,4.6045454545454545,12.363636363636363,12.363636363636363,"NIGHT_CLEAR,NIGHT_CLEAR,NIGHT_CLEAR,NIGHT_CLEAR,NIGHT_CLEAR,CLEAR,CLEAR,CLEAR,CLEAR,CLEAR,CLEAR","Offshore,Offshore,Offshore,Offshore,Offshore,Offshore,Offshore,Offshore,Offshore,Cross-shore,Cross-shore",11
5842041f4e65fad6a77089be,2023_12_08,41.13016238153297,-124.16466,Sue-meg,3,2.7636363636363637,3.3045454545454547,12.363636363636363,12.363636363636363,"NIGHT_CLEAR,NIGHT_FOG,NIGHT_MOSTLY_CLEAR,NIGHT_BRIEF_SHOWERS,NIGHT_MOSTLY_CLEAR,CLEAR,CLEAR,CLEAR,CLEAR,CLEAR,CLEAR","Cross-shore,Cross-shore,Offshore,Cross-shore,Cross-shore,Cross-shore,Cross-shore,Cross-shore,Cross-shore,Cross-shore,Cross-shore",11
5842041f4e65fad6a77089bf,2023_12_08,37.8289474958188,-122.5376795097543,Fort Cronkite/Rodeo Beach,3.6363636363636362,2.461818181818182,2.8754545454545455,13.363636363636363,13.363636363636363,"NIGHT_CLEAR,NIGHT_CLEAR,NIGHT_CLEAR,NIGHT_CLEAR,CLEAR,CLEAR,CLEAR,CLEAR,CLEAR,CLEAR,CLEAR","Offshore,Offshore,Offshore,Offshore,Offshore,Offshore,Offshore,Offshore,Offshore,Offshore,Cross-shore",11
5842041f4e65fad6a77089c0,2023_12_08,41.74415759876137,-124.1771718063073,South Beach CA,3.4545454545454546,1.5736363636363637,1.8854545454545455,12.363636363636363,12.363636363636363,"NIGHT_MOSTLY_CLOUDY,NIGHT_MOSTLY_CLEAR,NIGHT_MOSTLY_CLOUDY,NIGHT_CLEAR,NIGHT_CLEAR,CLEAR,CLEAR,CLEAR,CLEAR,CLEAR,CLEAR","Cross-shore,Cross-shore,Cross-shore,Cross-shore,Cross-shore,Offshore,Offshore,Offshore,Offshore,Offshore,Offshore",11
5842041f4e65fad6a77089c1,2023_12_08,37.89801283969752,-122.64519,Stinson Beach,3,0.8154545454545454,1.0527272727272727,13.363636363636363,13.363636363636363,"NIGHT_CLEAR,NIGHT_CLEAR,NIGHT_CLEAR,NIGHT_CLEAR,CLEAR,CLEAR,CLEAR,CLEAR,CLEAR,CLEAR,CLEAR","Cross-shore,Cross-shore,Offshore,Offshore,Cross-shore,Cross-shore,Offshore,Cross-shore,Cross-shore,Cross-shore,Cross-shore",11
5842041f4e65fad6a77089c2,2023_12_08,37.90514516176495,-122.68151,Bolinas,3,0.56394,0.8811563636363636,13.363636363636363,13.363636363636363,"NIGHT_CLEAR,NIGHT_CLEAR,NIGHT_CLEAR,NIGHT_CLEAR,CLEAR,CLEAR,CLEAR,CLEAR,CLEAR,CLEAR,CLEAR","Onshore,Onshore,Cross-shore,Cross-shore,Onshore,Onshore,Offshore,Cross-shore,Offshore,Cross-shore,Offshore",11
5842041f4e65fad6a77089c3,2023_12_08,38.04892513158693,-122.9892494965416,Point Reyes (north),1.3636363636363635,3.481818181818182,3.960909090909091,13.363636363636363,13.363636363636363,"NIGHT_CLEAR,NIGHT_CLEAR,NIGHT_CLEAR,NIGHT_CLEAR,CLEAR,CLEAR,CLEAR,CLEAR,CLEAR,CLEAR,CLEAR","Onshore,Onshore,Onshore,Onshore,Onshore,Cross-shore,Onshore,Onshore,Onshore,Onshore,Onshore",11
5842041f4e65fad6a77089c6,2023_12_08,38.31088736605785,-123.0496777333731,Doran Beach,2.8181818181818183,0.4218181818181818,0.7263636363636363,13,13,"NIGHT_CLEAR,NIGHT_CLEAR,NIGHT_CLEAR,NIGHT_CLEAR,CLEAR,CLEAR,CLEAR,CLEAR,CLEAR,CLEAR,CLEAR","Offshore,Offshore,Offshore,Offshore,Offshore,Offshore,Offshore,Offshore,Offshore,Offshore,Offshore",11
5842041f4e65fad6a77089c7,2023_12_08,38.45077228660809,-123.13008,Russian Rivermouth,3,2.539090909090909,2.9072727272727272,13,13,"NIGHT_CLEAR,NIGHT_CLEAR,NIGHT_CLEAR,NIGHT_CLEAR,CLEAR,CLEAR,CLEAR,CLEAR,CLEAR,CLEAR,CLEAR","Cross-shore,Offshore,Offshore,Offshore,Offshore,Offshore,Offshore,Offshore,Offshore,Offshore,Onshore",11
5842041f4e65fad6a77089c8,2023_12_08,38.35329968518107,-123.06906,Salmon Creek,2.6363636363636362,2.7554545454545454,3.1054545454545455,13,13,"NIGHT_CLEAR,NIGHT_CLEAR,NIGHT_CLEAR,NIGHT_CLEAR,CLEAR,CLEAR,CLEAR,CLEAR,CLEAR,CLEAR,CLEAR","Cross-shore,Cross-shore,Cross-shore,Cross-shore,Cross-shore,Cross-shore,Cross-shore,Cross-shore,Cross-shore,Onshore,Onshore",11
5842041f4e65fad6a77089c9,2023_12_08,38.6845180197959,-123.4322714291198,Black Point Beach,3,1.6154545454545455,1.9045454545454545,13,13,"NIGHT_CLEAR,NIGHT_CLEAR,NIGHT_CLEAR,NIGHT_CLEAR,CLEAR,CLEAR,CLEAR,CLEAR,CLEAR,CLEAR,CLEAR","Onshore,Cross-shore,Cross-shore,Cross-shore,Cross-shore,Cross-shore,Onshore,Onshore,Onshore,Onshore,Onshore",11
5842041f4e65fad6a77089ca,2023_12_08,43.251076,-70.59144,Ogunquit,1.9090909090909092,0.19674242424242425,0.49955757575757576,7,6,"NIGHT_CLEAR,NIGHT_CLEAR,NIGHT_CLEAR,NIGHT_CLEAR,CLEAR,CLEAR,CLEAR,CLEAR,CLEAR,NIGHT_CLEAR,NIGHT_CLEAR","Offshore,Offshore,Offshore,Offshore,Offshore,Cross-shore,Cross-shore,Cross-shore,Cross-shore,Cross-shore,Cross-shore",11
5842041f4e65fad6a77089cb,2023_12_08,41.362631366305415,-71.48006772942608,Point Judith,1.8545454545454545,0.21095757575757576,0.5155060606060606,9,8,"NIGHT_CLEAR,NIGHT_CLEAR,NIGHT_CLEAR,NIGHT_CLEAR,CLEAR,CLEAR,CLEAR,CLEAR,CLEAR,NIGHT_CLEAR,NIGHT_CLEAR","Offshore,Offshore,Offshore,Offshore,Offshore,Onshore,Onshore,Onshore,Cross-shore,Cross-shore,Cross-shore",11
5842041f4e65fad6a77089cd,2023_12_08,41.422678090954726,-71.45413,Monahan's - Narragansett,1.3636363636363635,0.21347545454545455,0.3335572727272727,10,10,"NIGHT_CLEAR,NIGHT_CLEAR,NIGHT_CLEAR,NIGHT_CLEAR,CLEAR,CLEAR,CLEAR,CLEAR,CLEAR,NIGHT_CLEAR,NIGHT_MOSTLY_CLEAR","Offshore,Offshore,Offshore,Offshore,Cross-shore,Cross-shore,Cross-shore,Cross-shore,Cross-shore,Offshore,Cross-shore",11
5842041f4e65fad6a77089ce,2023_12_08,41.469,-71.293,Ruggles - Newport,1.6363636363636365,0.21852454545454544,0.34144545454545455,9.363636363636363,9.363636363636363,"NIGHT_CLEAR,NIGHT_CLEAR,NIGHT_CLEAR,NIGHT_CLEAR,CLEAR,CLEAR,CLEAR,CLEAR,CLEAR,NIGHT_CLEAR,NIGHT_CLEAR","Offshore,Offshore,Offshore,Offshore,Offshore,Offshore,Offshore,Onshore,Onshore,Onshore,Onshore",11
5842041f4e65fad6a77089cf,2023_12_08,43.175394,-70.606351,Short Sands Beach,1.9090909090909092,0.08181818181818182,0.38727272727272727,8,8,"NIGHT_CLEAR,NIGHT_CLEAR,NIGHT_CLEAR,NIGHT_CLEAR,CLEAR,CLEAR,CLEAR,CLEAR,CLEAR,NIGHT_CLEAR,NIGHT_CLEAR","Offshore,Offshore,Offshore,Offshore,Offshore,Offshore,Offshore,Offshore,Offshore,Offshore,Offshore",11
5842041f4e65fad6a77089d0,2023_12_08,41.487408,-71.29017,First Beach,0.8181818181818182,0,0.20272727272727273,9.363636363636363,9.363636363636363,"NIGHT_CLEAR,NIGHT_CLEAR,NIGHT_CLEAR,NIGHT_CLEAR,CLEAR,CLEAR,CLEAR,CLEAR,CLEAR,NIGHT_CLEAR,NIGHT_CLEAR","Offshore,Offshore,Offshore,Offshore,Offshore,Offshore,Offshore,Onshore,Onshore,Onshore,Onshore",11
5842041f4e65fad6a77089d1,2023_12_08,42.27916830233153,-70.86498,Nantasket Beach,1.1218181818181818,0.1065909090909091,0.4100121212121212,9,7,"NIGHT_CLEAR,NIGHT_CLEAR,NIGHT_CLEAR,NIGHT_CLEAR,CLEAR,CLEAR,CLEAR,CLEAR,CLEAR,NIGHT_CLEAR,NIGHT_CLEAR","Cross-shore,Cross-shore,Cross-shore,Cross-shore,Cross-shore,Cross-shore,Cross-shore,Offshore,Offshore,Offshore,Offshore",11
5842041f4e65fad6a77089d2,2023_12_08,41.817,-69.935,Cape Cod,1.9090909090909092,0.23363636363636364,0.5363636363636364,9,9,"NIGHT_CLEAR,NIGHT_CLEAR,NIGHT_CLEAR,NIGHT_CLEAR,CLEAR,CLEAR,CLEAR,CLEAR,CLEAR,NIGHT_CLEAR,NIGHT_CLEAR","Offshore,Offshore,Offshore,Offshore,Offshore,Offshore,Offshore,Offshore,Offshore,Offshore,Offshore",11
5842041f4e65fad6a77089d3,2023_12_08,42.22055448975661,-70.70634873403819,Egypt Beach,1.5454545454545454,0.24272727272727274,0.5472727272727272,9,9,"NIGHT_CLEAR,NIGHT_CLEAR,NIGHT_CLEAR,NIGHT_CLEAR,CLEAR,CLEAR,CLEAR,CLEAR,CLEAR,NIGHT_CLEAR,NIGHT_CLEAR","Offshore,Cross-shore,Cross-shore,Cross-shore,Offshore,Offshore,Offshore,Offshore,Offshore,Offshore,Offshore",11
5842041f4e65fad6a77089d4,2023_12_08,41.48739647744607,-71.25723,Second Beach,0.5754545454545454,0.06766833333333333,0.26505856060606064,9,8,"NIGHT_CLEAR,NIGHT_CLEAR,NIGHT_CLEAR,NIGHT_CLEAR,CLEAR,CLEAR,CLEAR,CLEAR,CLEAR,NIGHT_CLEAR,NIGHT_CLEAR","Offshore,Offshore,Offshore,Offshore,Offshore,Offshore,Onshore,Onshore,Onshore,Onshore,Onshore",11
5842041f4e65fad6a77089d5,2023_12_08,42.964,-70.769,Fox Hill,1.7272727272727273,0.15954545454545455,0.46183030303030304,7,6,"NIGHT_CLEAR,NIGHT_CLEAR,NIGHT_CLEAR,NIGHT_CLEAR,CLEAR,CLEAR,CLEAR,CLEAR,CLEAR,NIGHT_CLEAR,NIGHT_CLEAR","Offshore,Offshore,Offshore,Offshore,Offshore,Offshore,Cross-shore,Cross-shore,Cross-shore,Cross-shore,Cross-shore",11
5842041f4e65fad6a77089d6,2023_12_08,42.991359,-70.75149,Straws Point,1.8181818181818181,0.1393939393939394,0.4319818181818182,7,6,"NIGHT_CLEAR,NIGHT_CLEAR,NIGHT_CLEAR,NIGHT_CLEAR,CLEAR,CLEAR,CLEAR,CLEAR,CLEAR,NIGHT_CLEAR,NIGHT_CLEAR","Offshore,Offshore,Offshore,Offshore,Offshore,Cross-shore,Onshore,Cross-shore,Cross-shore,Cross-shore,Cross-shore",11
5842041f4e65fad6a77089d7,2023_12_08,42.946,-70.786,Plaice Cove,1.7272727272727273,0.15954545454545455,0.46183030303030304,7,6,"NIGHT_CLEAR,NIGHT_CLEAR,NIGHT_CLEAR,NIGHT_CLEAR,CLEAR,CLEAR,CLEAR,CLEAR,CLEAR,NIGHT_CLEAR,NIGHT_CLEAR","Offshore,Offshore,Offshore,Offshore,Offshore,Offshore,Cross-shore,Offshore,Offshore,Offshore,Cross-shore",11
5842041f4e65fad6a77089d9,2023_12_08,42.911574,-70.80831,The Main Beach,1.4,0.101215608815427,0.3930918870523416,7,6,"NIGHT_CLEAR,NIGHT_CLEAR,NIGHT_CLEAR,NIGHT_CLEAR,CLEAR,CLEAR,CLEAR,CLEAR,CLEAR,NIGHT_CLEAR,NIGHT_CLEAR","Offshore,Offshore,Offshore,Offshore,Offshore,Offshore,Cross-shore,Cross-shore,Cross-shore,Cross-shore,Onshore",11
5842041f4e65fad6a77089da,2023_12_08,42.97583846220203,-70.764,Sawyer's Beach,1.8181818181818181,0.12416666666666668,0.4097090909090909,7,6,"NIGHT_CLEAR,NIGHT_CLEAR,NIGHT_CLEAR,NIGHT_CLEAR,CLEAR,CLEAR,CLEAR,CLEAR,CLEAR,NIGHT_CLEAR,NIGHT_CLEAR","Offshore,Offshore,Offshore,Offshore,Offshore,Offshore,Cross-shore,Cross-shore,Cross-shore,Offshore,Cross-shore",11
5842041f4e65fad6a77089db,2023_12_08,42.97,-70.77,Rye on the Rocks / 5-0's,1.3454545454545455,0.09524785123966943,0.398070564738292,7,6,"NIGHT_CLEAR,NIGHT_CLEAR,NIGHT_CLEAR,NIGHT_CLEAR,CLEAR,CLEAR,CLEAR,CLEAR,CLEAR,NIGHT_CLEAR,NIGHT_CLEAR","Offshore,Offshore,Offshore,Offshore,Offshore,Offshore,Cross-shore,Cross-shore,Cross-shore,Cross-shore,Cross-shore",11
5842041f4e65fad6a77089dc,2023_12_08,43.55902946610303,-70.27795,Higgins Beach,1.0727272727272728,0,0.314739393939394,7,6,"NIGHT_CLEAR,NIGHT_CLEAR,NIGHT_CLEAR,NIGHT_CLEAR,CLEAR,CLEAR,CLEAR,CLEAR,CLEAR,NIGHT_CLEAR,NIGHT_CLEAR","Offshore,Offshore,Offshore,Offshore,Offshore,Offshore,Cross-shore,Cross-shore,Cross-shore,Cross-shore,Cross-shore",11
5842041f4e65fad6a77089dd,2023_12_08,43.302676,-70.5652,Wells Beach,1.8181818181818181,0.14696969696969697,0.445769696969697,7,6,"NIGHT_CLEAR,NIGHT_CLEAR,NIGHT_CLEAR,NIGHT_CLEAR,CLEAR,CLEAR,CLEAR,CLEAR,CLEAR,NIGHT_CLEAR,NIGHT_CLEAR","Offshore,Offshore,Offshore,Offshore,Offshore,Cross-shore,Cross-shore,Cross-shore,Cross-shore,Offshore,Cross-shore",11
5842041f4e65fad6a77089de,2023_12_08,43.545359,-70.30479,Scarborough Beach State Park,1.6363636363636365,0.25568386363636364,0.4892772727272727,7,6,"NIGHT_CLEAR,NIGHT_CLEAR,NIGHT_CLEAR,NIGHT_CLEAR,CLEAR,CLEAR,CLEAR,CLEAR,CLEAR,NIGHT_CLEAR,NIGHT_CLEAR","Offshore,Offshore,Offshore,Offshore,Offshore,Offshore,Cross-shore,Cross-shore,Cross-shore,Cross-shore,Cross-shore",11
5842041f4e65fad6a77089df,2023_12_08,43.514481,-70.372146,Old Orchard Beach,1.981818181818182,0.12192,0.4355230303030303,7,6,"NIGHT_CLEAR,NIGHT_CLEAR,NIGHT_CLEAR,NIGHT_CLEAR,CLEAR,CLEAR,CLEAR,CLEAR,CLEAR,NIGHT_CLEAR,NIGHT_CLEAR","Offshore,Offshore,Offshore,Offshore,Offshore,Offshore,Cross-shore,Cross-shore,Cross-shore,Cross-shore,Cross-shore",11
5842041f4e65fad6a77089e0,2023_12_08,43.34711,-70.48165,Gooch's Beach,1.7727272727272727,0.007954545454545455,0.2991787878787879,7,6,"NIGHT_CLEAR,NIGHT_CLEAR,NIGHT_CLEAR,NIGHT_CLEAR,CLEAR,CLEAR,CLEAR,CLEAR,CLEAR,NIGHT_CLEAR,NIGHT_CLEAR","Offshore,Offshore,Offshore,Offshore,Cross-shore,Onshore,Onshore,Onshore,Onshore,Onshore,Onshore",11
5842041f4e65fad6a77089e2,2023_12_08,40.58433,-73.62953,Lido Beach,1.4545454545454546,0.22581212121212121,0.5274666666666668,10,8,"NIGHT_CLEAR,NIGHT_CLEAR,NIGHT_CLEAR,NIGHT_CLEAR,MIST,CLEAR,CLEAR,MOSTLY_CLEAR,CLEAR,CLEAR,NIGHT_CLEAR","Offshore,Offshore,Offshore,Cross-shore,Cross-shore,Cross-shore,Cross-shore,Cross-shore,Onshore,Onshore,Cross-shore",11
5842041f4e65fad6a77089e3,2023_12_08,43.163135,-70.61689,Long Sands Beach,2,0.12846348484848485,0.43694239393939394,7,6,"NIGHT_CLEAR,NIGHT_CLEAR,NIGHT_CLEAR,NIGHT_CLEAR,CLEAR,CLEAR,CLEAR,CLEAR,CLEAR,NIGHT_CLEAR,NIGHT_CLEAR","Offshore,Offshore,Offshore,Offshore,Offshore,Cross-shore,Onshore,Onshore,Onshore,Cross-shore,Onshore",11
5842041f4e65fad6a77089e4,2023_12_08,40.61695351251805,-73.39376,Gilgo Beach,1.4090909090909092,0.15925151515151517,0.4638060606060606,10,8,"NIGHT_MIST,NIGHT_MIST,NIGHT_MIST,NIGHT_CLEAR,MIST,CLEAR,CLEAR,CLEAR,MOSTLY_CLEAR,MOSTLY_CLEAR,NIGHT_MOSTLY_CLEAR","Offshore,Offshore,Offshore,Offshore,Offshore,Offshore,Onshore,Onshore,Onshore,Onshore,Onshore",11
5842041f4e65fad6a77089e5,2023_12_08,40.62530081928036,-73.23827,Robert Moses,1.5454545454545454,0.04,0.34454545454545454,10.363636363636363,10.363636363636363,"NIGHT_MIST,NIGHT_MIST,NIGHT_MIST,NIGHT_CLEAR,MIST,CLEAR,CLEAR,CLEAR,CLEAR,MOSTLY_CLEAR,NIGHT_CLEAR","Offshore,Offshore,Offshore,Offshore,Offshore,Cross-shore,Onshore,Onshore,Onshore,Onshore,Onshore",11
5842041f4e65fad6a77089e6,2023_12_08,40.64313317632791,-73.15727,Fire Island,1.6363636363636365,0.038181818181818185,0.34545454545454546,10.363636363636363,10.363636363636363,"NIGHT_CLEAR,NIGHT_CLEAR,NIGHT_CLEAR,NIGHT_CLEAR,CLEAR,CLEAR,CLEAR,CLEAR,CLEAR,CLEAR,NIGHT_CLEAR","Offshore,Offshore,Offshore,Offshore,Offshore,Cross-shore,Onshore,Onshore,Onshore,Onshore,Onshore",11
5842041f4e65fad6a77089e8,2023_12_08,40.76653118828782,-72.74579619372713,Cupsogue,1.9090909090909092,0.16363636363636364,0.4672727272727273,10.363636363636363,10.363636363636363,"NIGHT_CLEAR,NIGHT_MIST,NIGHT_MIST,NIGHT_CLEAR,CLEAR,CLEAR,CLEAR,CLEAR,CLEAR,NIGHT_CLEAR,NIGHT_CLEAR","Offshore,Offshore,Offshore,Offshore,Offshore,Cross-shore,Onshore,Onshore,Onshore,Onshore,Onshore",11
5842041f4e65fad6a77089e9,2023_12_08,42.9376373334092,-70.79141,The Wall ,1.4,0.11094925344352619,0.40831009090909093,7,6,"NIGHT_CLEAR,NIGHT_CLEAR,NIGHT_CLEAR,NIGHT_CLEAR,CLEAR,CLEAR,CLEAR,CLEAR,CLEAR,NIGHT_CLEAR,NIGHT_CLEAR","Offshore,Offshore,Offshore,Offshore,Offshore,Offshore,Offshore,Offshore,Offshore,Offshore,Offshore",11
5842041f4e65fad6a77089ea,2023_12_08,40.887088,-72.338558,Flys,1.56,0.34864545454545454,0.6528212121212121,16,14,"NIGHT_CLEAR,NIGHT_CLEAR,NIGHT_CLEAR,NIGHT_CLEAR,CLEAR,CLEAR,CLEAR,CLEAR,CLEAR,NIGHT_CLEAR,NIGHT_CLEAR","Offshore,Offshore,Offshore,Offshore,Offshore,Cross-shore,Onshore,Onshore,Onshore,Onshore,Onshore",11
5842041f4e65fad6a77089eb,2023_12_08,41.0389266436591,-71.91068529316958,Trailer Park,1.8363636363636364,0.5086007575757576,0.8159896212121212,10,8,"NIGHT_CLEAR,NIGHT_CLEAR,NIGHT_CLEAR,NIGHT_CLEAR,CLEAR,CLEAR,CLEAR,CLEAR,CLEAR,NIGHT_CLEAR,NIGHT_CLEAR","Offshore,Offshore,Offshore,Offshore,Offshore,Offshore,Onshore,Onshore,Onshore,Onshore,Onshore",11
5842041f4e65fad6a77089ec,2023_12_08,41.039505402729105,-71.9142,Ditch Plains,2,0.33458,0.5227827272727272,10,10,"NIGHT_CLEAR,NIGHT_CLEAR,NIGHT_CLEAR,NIGHT_CLEAR,CLEAR,CLEAR,CLEAR,CLEAR,CLEAR,NIGHT_CLEAR,NIGHT_CLEAR","Offshore,Offshore,Offshore,Offshore,Offshore,Cross-shore,Onshore,Onshore,Onshore,Cross-shore,Onshore",11
5842041f4e65fad6a77089ee,2023_12_08,40.57633275206492,-73.56895305108567,"West End, Jones Beach",1.1209090909090909,0.13507575757575757,0.43834242424242426,10,8,"NIGHT_CLEAR,NIGHT_CLEAR,NIGHT_MIST,NIGHT_CLEAR,MIST,CLEAR,CLEAR,MOSTLY_CLEAR,CLEAR,CLEAR,NIGHT_CLEAR","Offshore,Offshore,Offshore,Offshore,Offshore,Cross-shore,Onshore,Onshore,Onshore,Onshore,Onshore",11
5842041f4e65fad6a77089f1,2023_12_08,41.038286691230795,-71.91991567611694,Poles,1.8363636363636364,0.508,0.8130311363636364,10,8,"NIGHT_CLEAR,NIGHT_CLEAR,NIGHT_CLEAR,NIGHT_CLEAR,CLEAR,CLEAR,CLEAR,CLEAR,CLEAR,NIGHT_CLEAR,NIGHT_CLEAR","Offshore,Offshore,Offshore,Offshore,Offshore,Offshore,Onshore,Onshore,Onshore,Onshore,Onshore",11
5842041f4e65fad6a77089f3,2023_12_08,40.84077769766295,-72.47989493724765,The Bowl,1.9090909090909092,0.16363636363636364,0.4672727272727273,10,10,"NIGHT_CLEAR,NIGHT_CLEAR,NIGHT_CLEAR,NIGHT_CLEAR,CLEAR,CLEAR,CLEAR,CLEAR,CLEAR,NIGHT_CLEAR,NIGHT_CLEAR","Offshore,Offshore,Offshore,Offshore,Offshore,Cross-shore,Onshore,Onshore,Onshore,Onshore,Onshore",11
5842041f4e65fad6a77089f4,2023_12_08,40.94235535243154,-72.19286,Main Beach,1.56,0.3466,0.6527454545454545,16,14,"NIGHT_CLEAR,NIGHT_CLEAR,NIGHT_CLEAR,NIGHT_CLEAR,CLEAR,CLEAR,CLEAR,CLEAR,CLEAR,NIGHT_CLEAR,NIGHT_CLEAR","Offshore,Offshore,Offshore,Offshore,Offshore,Offshore,Onshore,Onshore,Onshore,Onshore,Onshore",11
5842041f4e65fad6a77089f5,2023_12_08,40.58270702399518,-73.67251552079799,Laurelton Blvd.,1.3336363636363637,0.266285,0.5458678787878788,10,8,"NIGHT_BRIEF_FREEZING_RAIN_SHOWERS,NIGHT_BRIEF_FREEZING_RAIN_SHOWERS,NIGHT_BRIEF_FREEZING_RAIN_SHOWERS,NIGHT_MIST,MIST,MOSTLY_CLEAR,MOSTLY_CLEAR,CLEAR,MOSTLY_CLEAR,CLEAR,NIGHT_CLEAR","Offshore,Offshore,Offshore,Offshore,Cross-shore,Cross-shore,Cross-shore,Onshore,Onshore,Onshore,Onshore",11
5842041f4e65fad6a77089f6,2023_12_08,41.033752854071416,-71.93695522488403,Terrace,1.8363636363636364,0.5166363636363637,0.8182545454545455,10,8,"NIGHT_CLEAR,NIGHT_CLEAR,NIGHT_CLEAR,NIGHT_CLEAR,CLEAR,CLEAR,CLEAR,CLEAR,CLEAR,NIGHT_CLEAR,NIGHT_CLEAR","Offshore,Offshore,Offshore,Offshore,Offshore,Offshore,Onshore,Onshore,Onshore,Onshore,Onshore",11
5842041f4e65fad6a77089f7,2023_12_08,40.83372943645748,-72.50426173210144,K Road,1.9090909090909092,0.1990909090909091,0.5054545454545455,10,10,"NIGHT_CLEAR,NIGHT_CLEAR,NIGHT_CLEAR,NIGHT_CLEAR,CLEAR,CLEAR,CLEAR,CLEAR,CLEAR,NIGHT_CLEAR,NIGHT_CLEAR","Offshore,Offshore,Offshore,Offshore,Offshore,Onshore,Onshore,Onshore,Onshore,Onshore,Onshore",11
5842041f4e65fad6a77089f8,2023_12_08,40.58456099581507,-73.80730032920837,84th Street,1.3336363636363637,0.2033878787878788,0.506330303030303,10,8,"NIGHT_CLEAR,NIGHT_MIST,NIGHT_MIST,NIGHT_CLEAR,MIST,CLEAR,CLEAR,CLEAR,MOSTLY_CLEAR,CLEAR,NIGHT_CLEAR","Offshore,Offshore,Offshore,Offshore,Offshore,Cross-shore,Onshore,Onshore,Onshore,Onshore,Onshore",11
5842041f4e65fad6a77089fa,2023_12_08,40.1319,-74.02788,Sea Girt,1.788181818181818,0.2219030303030303,0.5298666666666667,9,8,"NIGHT_CLEAR,NIGHT_MIST,NIGHT_MIST,NIGHT_CLEAR,CLEAR,CLEAR,CLEAR,CLEAR,CLEAR,CLEAR,NIGHT_CLEAR","Offshore,Offshore,Offshore,Offshore,Offshore,Onshore,Cross-shore,Cross-shore,Cross-shore,Cross-shore,Cross-shore",11
5842041f4e65fad6a77089fb,2023_12_08,40.54698301868125,-73.9268,Breezy Point,2,0.053636363636363635,0.36272727272727273,9,9,"NIGHT_MIST,NIGHT_MIST,NIGHT_MIST,NIGHT_MIST,CLEAR,CLEAR,CLEAR,CLEAR,CLEAR,CLEAR,NIGHT_CLEAR","Offshore,Offshore,Offshore,Cross-shore,Offshore,Cross-shore,Onshore,Onshore,Onshore,Onshore,Onshore",11
5842041f4e65fad6a77089fc,2023_12_08,40.152504,-74.021383,Spring Lake,1.788181818181818,0.24985757575757575,0.5541848484848485,9,8,"NIGHT_MIST,NIGHT_MIST,NIGHT_MIST,NIGHT_CLEAR,CLEAR,CLEAR,CLEAR,CLEAR,CLEAR,CLEAR,NIGHT_CLEAR","Offshore,Offshore,Offshore,Offshore,Offshore,Onshore,Cross-shore,Cross-shore,Cross-shore,Cross-shore,Cross-shore",11
5842041f4e65fad6a77089fd,2023_12_08,40.591277,-73.770792,30th - 39th Streets,1,0.11545454545454546,0.3842515151515152,10,8,"NIGHT_MIST,NIGHT_MIST,NIGHT_MIST,NIGHT_MIST,CLEAR,MOSTLY_CLEAR,CLEAR,CLEAR,MOSTLY_CLEAR,CLEAR,NIGHT_CLEAR","Offshore,Offshore,Offshore,Offshore,Offshore,Onshore,Onshore,Onshore,Onshore,Onshore,Onshore",11
5842041f4e65fad6a77089fe,2023_12_08,40.18834955871439,-74.00860982500222,Avon,1.7727272727272727,0.2784939393939394,0.5844878787878788,9,8,"NIGHT_MIST,NIGHT_MIST,NIGHT_MIST,NIGHT_CLEAR,CLEAR,CLEAR,CLEAR,CLEAR,CLEAR,CLEAR,NIGHT_CLEAR","Offshore,Offshore,Offshore,Offshore,Offshore,Cross-shore,Cross-shore,Cross-shore,Cross-shore,Cross-shore,Cross-shore",11
5842041f4e65fad6a77089ff,2023_12_08,40.1974229100932,-74.00650533798255,Bradley Beach,1.7727272727272727,0.26493333333333335,0.5710787878787879,9,8,"NIGHT_MIST,NIGHT_MIST,NIGHT_MIST,NIGHT_CLEAR,CLEAR,CLEAR,CLEAR,CLEAR,CLEAR,CLEAR,NIGHT_CLEAR","Offshore,Offshore,Offshore,Offshore,Offshore,Cross-shore,Cross-shore,Cross-shore,Cross-shore,Cross-shore,Cross-shore",11
5842041f4e65fad6a7708a01,2023_12_08,40.17202,-74.01503,"16th Ave., Belmar",1.8363636363636364,0.28151818181818183,0.5840212121212122,9,8,"NIGHT_MIST,NIGHT_MIST,NIGHT_MIST,NIGHT_CLEAR,CLEAR,CLEAR,CLEAR,CLEAR,CLEAR,CLEAR,NIGHT_CLEAR","Offshore,Offshore,Offshore,Offshore,Offshore,Onshore,Cross-shore,Cross-shore,Cross-shore,Cross-shore,Cross-shore",11
5842041f4e65fad6a7708a02,2023_12_08,40.217443,-73.99982,Asbury Park,1.7727272727272727,0.24031212121212123,0.5450181818181818,9,8,"NIGHT_CLEAR,NIGHT_CLEAR,NIGHT_MIST,NIGHT_CLEAR,CLEAR,CLEAR,CLEAR,CLEAR,CLEAR,CLEAR,NIGHT_CLEAR","Offshore,Offshore,Offshore,Offshore,Offshore,Onshore,Cross-shore,Cross-shore,Cross-shore,Cross-shore,Cross-shore",11
5842041f4e65fad6a7708a03,2023_12_08,40.229841,-73.996782,Loch Arbour and Deal,1.8181818181818181,0.20591818181818183,0.5111545454545455,9,8,"NIGHT_CLEAR,NIGHT_MIST,NIGHT_MIST,NIGHT_CLEAR,CLEAR,CLEAR,CLEAR,CLEAR,CLEAR,CLEAR,NIGHT_CLEAR","Offshore,Offshore,Offshore,Offshore,Offshore,Offshore,Onshore,Onshore,Onshore,Onshore,Onshore",11
5842041f4e65fad6a7708a05,2023_12_08,40.41754,-73.97935,Sandy Hook,0.8181818181818182,0,0.16636363636363635,9,9,"NIGHT_CLEAR,NIGHT_MIST,NIGHT_MIST,NIGHT_CLEAR,CLEAR,CLEAR,CLEAR,CLEAR,CLEAR,CLEAR,NIGHT_CLEAR","Offshore,Offshore,Offshore,Offshore,Offshore,Offshore,Offshore,Onshore,Onshore,Onshore,Onshore",11
5842041f4e65fad6a7708a06,2023_12_08,39.36353,-74.40873,Crystals,1.8790909090909091,0.34196871212121216,0.6040302272727273,9,8,"NIGHT_CLEAR,NIGHT_CLEAR,NIGHT_CLEAR,NIGHT_CLEAR,CLEAR,CLEAR,CLEAR,CLEAR,CLEAR,CLEAR,NIGHT_CLEAR","Offshore,Offshore,Offshore,Offshore,Cross-shore,Onshore,Onshore,Onshore,Onshore,Onshore,Onshore",11
5842041f4e65fad6a7708a07,2023_12_08,39.31443,-74.51863,32nd Street,1.8363636363636364,0.34492795454545455,0.6442425,9,8,"NIGHT_CLEAR,NIGHT_CLEAR,NIGHT_CLEAR,NIGHT_CLEAR,CLEAR,CLEAR,CLEAR,CLEAR,CLEAR,CLEAR,NIGHT_CLEAR","Offshore,Offshore,Offshore,Offshore,Cross-shore,Onshore,Onshore,Onshore,Onshore,Onshore,Onshore",11
5842041f4e65fad6a7708a08,2023_12_08,39.327688,-74.49524,Margate Pier Northside,1.8363636363636364,0.34492795454545455,0.6442425,9,8,"NIGHT_CLEAR,NIGHT_CLEAR,NIGHT_CLEAR,NIGHT_CLEAR,CLEAR,CLEAR,CLEAR,CLEAR,CLEAR,CLEAR,NIGHT_CLEAR","Offshore,Offshore,Offshore,Offshore,Cross-shore,Onshore,Onshore,Onshore,Onshore,Onshore,Onshore",11
5842041f4e65fad6a7708a09,2023_12_08,39.336276,-74.47782,Ventnor Pier,1.711818181818182,0.3241269696969697,0.5761569696969697,9,8,"NIGHT_CLEAR,NIGHT_CLEAR,NIGHT_CLEAR,NIGHT_CLEAR,CLEAR,CLEAR,CLEAR,CLEAR,CLEAR,CLEAR,NIGHT_CLEAR","Offshore,Offshore,Offshore,Offshore,Cross-shore,Onshore,Onshore,Onshore,Onshore,Onshore,Onshore",11
5842041f4e65fad6a7708a0a,2023_12_08,39.35929751441085,-74.41683,States Avenue,1.9090909090909092,0.34196871212121216,0.6040302272727273,9,8,"NIGHT_CLEAR,NIGHT_CLEAR,NIGHT_CLEAR,NIGHT_CLEAR,CLEAR,CLEAR,CLEAR,CLEAR,CLEAR,CLEAR,NIGHT_CLEAR","Offshore,Offshore,Offshore,Offshore,Cross-shore,Onshore,Onshore,Onshore,Onshore,Onshore,Onshore",11
5842041f4e65fad6a7708a0b,2023_12_08,39.37274173278517,-74.40454,Brigantine Jetty,1.8636363636363635,0.30847651515151514,0.5517020454545455,9,8,"NIGHT_CLEAR,NIGHT_CLEAR,NIGHT_CLEAR,NIGHT_CLEAR,CLEAR,CLEAR,CLEAR,CLEAR,CLEAR,CLEAR,NIGHT_CLEAR","Cross-shore,Offshore,Offshore,Offshore,Cross-shore,Cross-shore,Onshore,Onshore,Onshore,Onshore,Onshore",11
5842041f4e65fad6a7708a0c,2023_12_08,39.356505,-74.42263,South Carolina Avenue,1.8636363636363635,0.30847651515151514,0.5517020454545455,9,8,"NIGHT_CLEAR,NIGHT_CLEAR,NIGHT_CLEAR,NIGHT_CLEAR,CLEAR,CLEAR,CLEAR,CLEAR,CLEAR,CLEAR,NIGHT_CLEAR","Cross-shore,Offshore,Offshore,Offshore,Cross-shore,Cross-shore,Onshore,Onshore,Onshore,Onshore,Onshore",11
5842041f4e65fad6a7708a0d,2023_12_08,39.413485,-74.35476,14th Street North,1.8181818181818181,0.20341818181818183,0.5070636363636364,9,8,"NIGHT_CLEAR,NIGHT_CLEAR,NIGHT_CLEAR,NIGHT_CLEAR,CLEAR,CLEAR,CLEAR,CLEAR,CLEAR,CLEAR,NIGHT_CLEAR","Offshore,Offshore,Offshore,Cross-shore,Cross-shore,Onshore,Onshore,Onshore,Onshore,Onshore,Onshore",11
5842041f4e65fad6a7708a0e,2023_12_08,39.531319,-74.263252,The Wooden Jetty,2.1236363636363635,0.5610960606060607,0.8708562121212121,9,8,"NIGHT_CLEAR,NIGHT_CLEAR,NIGHT_CLEAR,NIGHT_CLEAR,CLEAR,CLEAR,CLEAR,CLEAR,CLEAR,CLEAR,NIGHT_CLEAR","Offshore,Offshore,Offshore,Offshore,Cross-shore,Onshore,Onshore,Onshore,Onshore,Onshore,Onshore",11
5842041f4e65fad6a7708a0f,2023_12_08,39.552472,-74.24344,Holyoke,2.002727272727273,0.5532534848484849,0.8510374242424242,9,8,"NIGHT_CLEAR,NIGHT_CLEAR,NIGHT_CLEAR,NIGHT_CLEAR,CLEAR,CLEAR,CLEAR,CLEAR,CLEAR,CLEAR,NIGHT_CLEAR","Offshore,Offshore,Offshore,Offshore,Cross-shore,Onshore,Onshore,Onshore,Onshore,Onshore,Onshore",11
5842041f4e65fad6a7708a10,2023_12_08,39.692364,-74.14068,Hudson Ave.,2.2572727272727273,0.5866606060606061,0.9299181818181819,9,8,"NIGHT_CLEAR,NIGHT_CLEAR,NIGHT_CLEAR,NIGHT_CLEAR,CLEAR,CLEAR,CLEAR,CLEAR,CLEAR,CLEAR,NIGHT_CLEAR","Offshore,Offshore,Offshore,Offshore,Offshore,Onshore,Onshore,Onshore,Onshore,Onshore,Onshore",11
5842041f4e65fad6a7708a11,2023_12_08,39.79614,-74.09248,Island Beach State Park,2.060909090909091,0.43099393939393943,0.7337303030303031,9,8,"NIGHT_CLEAR,NIGHT_CLEAR,NIGHT_CLEAR,NIGHT_CLEAR,CLEAR,MOSTLY_CLEAR,CLEAR,CLEAR,CLEAR,CLEAR,NIGHT_CLEAR","Offshore,Offshore,Offshore,Offshore,Cross-shore,Onshore,Onshore,Onshore,Onshore,Onshore,Onshore",11
5842041f4e65fad6a7708a12,2023_12_08,39.91813588078152,-74.07527,Seaside Park,1.8181818181818181,0.3726606060606061,0.6773666666666667,9,8,"NIGHT_CLEAR,NIGHT_MIST,NIGHT_CLEAR,NIGHT_CLEAR,CLEAR,CLEAR,CLEAR,CLEAR,CLEAR,CLEAR,NIGHT_CLEAR","Offshore,Offshore,Offshore,Offshore,Offshore,Offshore,Onshore,Onshore,Onshore,Onshore,Onshore",11
5842041f4e65fad6a7708a14,2023_12_08,39.946638,-74.06884,Seaside Heights,1.9390909090909092,0.4387212121212121,0.7419878787878788,9,8,"NIGHT_MIST,NIGHT_MIST,NIGHT_CLEAR,NIGHT_CLEAR,CLEAR,CLEAR,CLEAR,CLEAR,CLEAR,CLEAR,NIGHT_CLEAR","Offshore,Offshore,Offshore,Offshore,Offshore,Offshore,Onshore,Onshore,Onshore,Onshore,Onshore",11
5842041f4e65fad6a7708a15,2023_12_08,39.95745637606704,-74.06736,Ortley Beach,1.8181818181818181,0.36379696969696973,0.6656242424242425,9,8,"NIGHT_MIST,NIGHT_MIST,NIGHT_CLEAR,NIGHT_CLEAR,CLEAR,CLEAR,CLEAR,CLEAR,CLEAR,CLEAR,NIGHT_CLEAR","Offshore,Offshore,Offshore,Offshore,Offshore,Offshore,Onshore,Onshore,Onshore,Onshore,Onshore",11
5842041f4e65fad6a7708a16,2023_12_08,39.98313468342945,-74.06265685577506,Lavallette,1.8181818181818181,0.3769030303030303,0.6823666666666667,9,8,"NIGHT_MIST,NIGHT_MIST,NIGHT_MIST,NIGHT_CLEAR,MIST,MOSTLY_CLEAR,CLEAR,CLEAR,CLEAR,CLEAR,NIGHT_CLEAR","Offshore,Offshore,Offshore,Offshore,Offshore,Offshore,Onshore,Onshore,Onshore,Onshore,Onshore",11
5842041f4e65fad6a7708a17,2023_12_08,40.0699319967757,-74.04144910856634,Bay Head,1.8181818181818181,0.3776606060606061,0.6856242424242424,9,8,"NIGHT_MIST,NIGHT_MIST,NIGHT_MIST,NIGHT_MIST,MIST,CLEAR,CLEAR,CLEAR,CLEAR,CLEAR,NIGHT_CLEAR","Offshore,Offshore,Offshore,Offshore,Offshore,Offshore,Cross-shore,Onshore,Onshore,Onshore,Onshore",11
5842041f4e65fad6a7708a18,2023_12_08,40.094041,-74.034859,Jenkinson's,1.8790909090909091,0.3668272727272727,0.6729727272727273,9,8,"NIGHT_MIST,NIGHT_MIST,NIGHT_MIST,NIGHT_MIST,CLEAR,CLEAR,CLEAR,CLEAR,CLEAR,CLEAR,NIGHT_CLEAR","Offshore,Offshore,Offshore,Offshore,Offshore,Offshore,Onshore,Onshore,Onshore,Onshore,Onshore",11
5842041f4e65fad6a7708a1a,2023_12_08,38.148058,-75.17704,Assateague,1.4545454545454546,0.3170545454545455,0.622669696969697,9,8,"NIGHT_CLEAR,NIGHT_CLEAR,NIGHT_CLEAR,NIGHT_CLEAR,CLEAR,CLEAR,CLEAR,CLEAR,CLEAR,CLEAR,NIGHT_CLEAR","Offshore,Offshore,Offshore,Offshore,Onshore,Onshore,Onshore,Onshore,Onshore,Onshore,Onshore",11
5842041f4e65fad6a7708a1b,2023_12_08,38.33889038664497,-75.08017670566352,North End to Ocean City Inlet,1.5,0.343039393939394,0.6510030303030303,9,8,"NIGHT_CLEAR,NIGHT_CLEAR,NIGHT_CLEAR,NIGHT_CLEAR,CLEAR,CLEAR,CLEAR,CLEAR,CLEAR,CLEAR,NIGHT_CLEAR","Offshore,Offshore,Offshore,Offshore,Onshore,Onshore,Cross-shore,Cross-shore,Cross-shore,Cross-shore,Cross-shore",11
5842041f4e65fad6a7708a1c,2023_12_08,38.603993,-75.06271,Indian River Inlet,1.3181818181818181,0.3693039393939394,0.6467424242424242,9,8,"NIGHT_CLEAR,NIGHT_CLEAR,NIGHT_CLEAR,NIGHT_CLEAR,CLEAR,CLEAR,CLEAR,CLEAR,CLEAR,CLEAR,NIGHT_CLEAR","Offshore,Offshore,Offshore,Offshore,Onshore,Onshore,Onshore,Onshore,Onshore,Onshore,Onshore",11
5842041f4e65fad6a7708a1d,2023_12_08,38.460477,-75.052069,Fenwick Island,1.3481818181818181,0.22849393939393942,0.532669696969697,9,8,"NIGHT_CLEAR,NIGHT_CLEAR,NIGHT_CLEAR,NIGHT_CLEAR,CLEAR,CLEAR,CLEAR,CLEAR,CLEAR,CLEAR,NIGHT_CLEAR","Offshore,Offshore,Offshore,Offshore,Onshore,Onshore,Cross-shore,Cross-shore,Cross-shore,Cross-shore,Cross-shore",11
5842041f4e65fad6a7708a1e,2023_12_08,38.538767,-75.05619,Bethany Beach,1.3181818181818181,0.37053515151515154,0.6486661363636363,9,8,"NIGHT_CLEAR,NIGHT_CLEAR,NIGHT_CLEAR,NIGHT_CLEAR,CLEAR,CLEAR,CLEAR,CLEAR,CLEAR,CLEAR,NIGHT_CLEAR","Offshore,Offshore,Offshore,Offshore,Onshore,Onshore,Onshore,Onshore,Onshore,Onshore,Onshore",11
5842041f4e65fad6a7708a1f,2023_12_08,38.697657,-75.075951,Dewey Beach,1.3027272727272727,0.24167575757575757,0.5472909090909092,9,8,"NIGHT_CLEAR,NIGHT_CLEAR,NIGHT_CLEAR,NIGHT_CLEAR,CLEAR,CLEAR,CLEAR,CLEAR,CLEAR,CLEAR,NIGHT_CLEAR","Offshore,Offshore,Offshore,Offshore,Onshore,Onshore,Cross-shore,Cross-shore,Cross-shore,Cross-shore,Cross-shore",11
5842041f4e65fad6a7708a20,2023_12_08,38.75034741676525,-75.08194,Gordons Pond,1.3481818181818181,0.3021890151515152,0.5418759848484849,9,8,"NIGHT_CLEAR,NIGHT_CLEAR,NIGHT_CLEAR,NIGHT_CLEAR,CLEAR,CLEAR,CLEAR,CLEAR,CLEAR,CLEAR,NIGHT_CLEAR","Offshore,Offshore,Offshore,Offshore,Onshore,Onshore,Onshore,Onshore,Onshore,Onshore,Onshore",11
