_id,date,lat,lon,name,daily_mean_swell_rating,daily_mean_wave_height_min,daily_mean_wave_height_max,daily_mean_water_temperature_max,daily_mean_water_temperature_min,weather_per_timestamp,wind_per_timestamp,n_samples_per_day
5842041f4e65fad6a77087f9,2023_12_07,37.741668,-122.51038,South Ocean Beach,1.35,3.9562083333333335,4.885219444444444,15,15,"NIGHT_BRIEF_SHOWERS,NIGHT_CLEAR,NIGHT_CLEAR,NIGHT_CLEAR,NIGHT_MOSTLY_CLEAR,NIGHT_MOSTLY_CLEAR,MOSTLY_CLOUDY,CLEAR,MOSTLY_CLEAR,MOSTLY_CLOUDY,MOSTLY_CLOUDY,MOSTLY_CLOUDY","Onshore,Onshore,Cross-shore,Offshore,Offshore,Offshore,Cross-shore,Cross-shore,Cross-shore,Cross-shore,Onshore,Onshore",12
5842041f4e65fad6a7708801,2023_12_07,37.49142,-122.50428,Maverick's,NA,3.978638888888889,4.916997222222222,13,13,"NIGHT_SHOWERS,NIGHT_MOSTLY_CLEAR,NIGHT_BRIEF_SHOWERS,NIGHT_MOSTLY_CLOUDY,NIGHT_CLEAR,NIGHT_CLEAR,CLEAR,MOSTLY_CLEAR,MOSTLY_CLEAR,MOSTLY_CLOUDY,MOSTLY_CLOUDY,BRIEF_SHOWERS","Cross-shore,Offshore,Cross-shore,Offshore,Offshore,Offshore,Cross-shore,Cross-shore,Onshore,Onshore,Onshore,Onshore",12
5842041f4e65fad6a7708804,2023_12_07,44.997,-124.018,Roads End,0.5,3.4366666666666665,4.0725,11,11,"NIGHT_MOSTLY_CLOUDY,NIGHT_MOSTLY_CLOUDY,NIGHT_MOSTLY_CLOUDY,NIGHT_DRIZZLE,NIGHT_CLOUDY,NIGHT_OVERCAST,NIGHT_CLOUDY,MOSTLY_CLOUDY,MOSTLY_CLEAR,CLEAR,MOSTLY_CLOUDY,BRIEF_SHOWERS","Onshore,Onshore,Onshore,Onshore,Onshore,Onshore,Onshore,Onshore,Onshore,Onshore,Onshore,Onshore",12
5842041f4e65fad6a7708805,2023_12_07,36.95188851423011,-122.02522,Steamer Lane,3.8333333333333335,2.329458333333333,3.1182861111111113,14,14,"NIGHT_CLEAR,NIGHT_CLEAR,NIGHT_CLEAR,NIGHT_CLEAR,NIGHT_CLEAR,NIGHT_CLEAR,CLEAR,CLEAR,CLEAR,MOSTLY_CLEAR,CLEAR,MOSTLY_CLEAR","Offshore,Offshore,Offshore,Offshore,Offshore,Offshore,Offshore,Onshore,Onshore,Onshore,Cross-shore,Offshore",12
5842041f4e65fad6a7708806,2023_12_07,36.95918781542251,-122.02489,Cowells,2.3333333333333335,0.32501944444444447,0.6316694444444445,14,14,"NIGHT_CLEAR,NIGHT_CLEAR,NIGHT_CLEAR,NIGHT_CLEAR,NIGHT_CLEAR,NIGHT_CLEAR,CLEAR,CLEAR,CLEAR,MOSTLY_CLEAR,CLEAR,MOSTLY_CLEAR","Offshore,Offshore,Cross-shore,Offshore,Offshore,Cross-shore,Cross-shore,Onshore,Onshore,Cross-shore,Cross-shore,Offshore",12
5842041f4e65fad6a7708807,2023_12_07,36.95468082526536,-121.97234,Pleasure Point,3.8333333333333335,1.9673027777777778,2.6751222222222224,14,14,"NIGHT_MOSTLY_CLEAR,NIGHT_CLEAR,NIGHT_CLEAR,NIGHT_CLEAR,NIGHT_CLEAR,NIGHT_CLEAR,CLEAR,CLEAR,CLEAR,MOSTLY_CLEAR,MIST,MOSTLY_CLEAR","Offshore,Offshore,Offshore,Offshore,Offshore,Offshore,Offshore,Offshore,Offshore,Offshore,Offshore,Cross-shore",12
5842041f4e65fad6a770880a,2023_12_07,35.37815414378748,-120.86589,Morro Bay,2.5975,2.564566666666667,3.220013888888889,15,15,"NIGHT_CLEAR,NIGHT_MIST,NIGHT_CLEAR,NIGHT_CLEAR,NIGHT_CLEAR,NIGHT_CLEAR,CLEAR,CLEAR,CLEAR,CLEAR,CLEAR,CLEAR","Onshore,Onshore,Offshore,Cross-shore,Cross-shore,Onshore,Offshore,Cross-shore,Onshore,Onshore,Onshore,Onshore",12
5842041f4e65fad6a770880b,2023_12_07,36.95782765000708,-121.9672887511276,Jack's,3.069166666666667,0.9716194444444445,1.2772972222222223,14,14,"NIGHT_MOSTLY_CLEAR,NIGHT_CLEAR,NIGHT_CLEAR,NIGHT_CLEAR,NIGHT_CLEAR,NIGHT_CLEAR,CLEAR,CLEAR,CLEAR,MOSTLY_CLEAR,MIST,MOSTLY_CLEAR","Offshore,Offshore,Offshore,Offshore,Offshore,Offshore,Offshore,Offshore,Offshore,Offshore,Offshore,Offshore",12
5842041f4e65fad6a770880d,2023_12_07,34.29982939936656,-119.3489016603669,Gold Coast Beachbreaks,2.6666666666666665,0.4066666666666667,0.7116666666666667,16,16,"NIGHT_MIST,NIGHT_CLEAR,NIGHT_CLEAR,NIGHT_CLEAR,NIGHT_CLEAR,NIGHT_CLEAR,CLEAR,MOSTLY_CLOUDY,MOSTLY_CLOUDY,MOSTLY_CLOUDY,CLEAR,CLEAR","Cross-shore,Cross-shore,Cross-shore,Cross-shore,Cross-shore,Offshore,Cross-shore,Onshore,Onshore,Onshore,Cross-shore,Cross-shore",12
5842041f4e65fad6a7708811,2023_12_07,34.245076,-119.26799,Ventura Harbor,3.4725,1.6390040277777778,2.1037040972222223,16,16,"NIGHT_CLEAR,NIGHT_CLEAR,NIGHT_CLEAR,NIGHT_CLEAR,NIGHT_CLEAR,NIGHT_CLEAR,CLEAR,BRIEF_SHOWERS,MOSTLY_CLOUDY,MOSTLY_CLOUDY,CLEAR,CLEAR","Cross-shore,Cross-shore,Offshore,Offshore,Cross-shore,Offshore,Offshore,Offshore,Onshore,Onshore,Onshore,Onshore",12
5842041f4e65fad6a7708813,2023_12_07,34.051,-118.964,County Line,2.9166666666666665,0.8313055555555555,1.1212777777777778,16,16,"NIGHT_CLEAR,NIGHT_MIST,NIGHT_MIST,NIGHT_MIST,NIGHT_CLEAR,NIGHT_CLEAR,CLEAR,CLEAR,CLEAR,CLEAR,CLEAR,CLEAR","Offshore,Offshore,Offshore,Offshore,Offshore,Offshore,Offshore,Onshore,Onshore,Cross-shore,Onshore,Onshore",12
5842041f4e65fad6a7708814,2023_12_07,34.37256264378892,-119.47797,Rincon,3,0.9991666666666666,1.2033333333333334,16,16,"NIGHT_CLEAR,NIGHT_CLEAR,NIGHT_CLEAR,NIGHT_CLEAR,NIGHT_CLEAR,NIGHT_CLEAR,CLEAR,CLEAR,MIST,MIST,CLEAR,CLEAR","Cross-shore,Onshore,Onshore,Offshore,Offshore,Cross-shore,Onshore,Onshore,Onshore,Onshore,Onshore,Onshore",12
5842041f4e65fad6a7708817,2023_12_07,34.03096101876324,-118.68109,Malibu Third Point,2.3333333333333335,0.2808333333333333,0.5875,17,17,"NIGHT_MIST,NIGHT_MIST,NIGHT_MIST,NIGHT_CLEAR,NIGHT_MOSTLY_CLOUDY,NIGHT_MOSTLY_CLOUDY,CLEAR,CLEAR,CLEAR,MOSTLY_CLEAR,MOSTLY_CLOUDY,CLEAR","Cross-shore,Cross-shore,Cross-shore,Cross-shore,Cross-shore,Cross-shore,Offshore,Cross-shore,Cross-shore,Cross-shore,Cross-shore,Cross-shore",12
5842041f4e65fad6a7708819,2023_12_07,33.984079047970035,-118.47381591796875,Venice Beach,2.9583333333333335,1.023036111111111,1.327175,17,17,"NIGHT_MOSTLY_CLOUDY,NIGHT_MIST,NIGHT_OVERCAST,NIGHT_CLOUDY,NIGHT_CLOUDY,NIGHT_BRIEF_SHOWERS,MOSTLY_CLOUDY,CLEAR,CLEAR,MIST,MIST,MIST","Offshore,Offshore,Offshore,Offshore,Offshore,Offshore,Offshore,Cross-shore,Onshore,Onshore,Onshore,Onshore",12
5842041f4e65fad6a770881e,2023_12_07,34.037508438646746,-118.58339846155594,Topanga Beach,2.569166666666667,0.5141194444444445,0.8180361111111111,17,17,"NIGHT_MOSTLY_CLOUDY,NIGHT_MOSTLY_CLOUDY,NIGHT_MOSTLY_CLOUDY,NIGHT_BRIEF_SHOWERS,NIGHT_BRIEF_SHOWERS,NIGHT_MOSTLY_CLOUDY,CLEAR,CLEAR,MOSTLY_CLEAR,MOSTLY_CLEAR,CLEAR,CLEAR","Offshore,Cross-shore,Offshore,Onshore,Cross-shore,Cross-shore,Offshore,Onshore,Onshore,Onshore,Onshore,Onshore",12
5842041f4e65fad6a7708820,2023_12_07,33.73954373690184,-118.11414,Seal Beach Jetty,2.5833333333333335,0.435,0.7383333333333333,16.833333333333332,16.833333333333332,"NIGHT_MIST,NIGHT_MIST,NIGHT_MIST,NIGHT_MIST,NIGHT_OVERCAST,NIGHT_OVERCAST,OVERCAST,OVERCAST,MOSTLY_CLOUDY,MOSTLY_CLOUDY,MOSTLY_CLOUDY,MOSTLY_CLOUDY","Offshore,Offshore,Offshore,Offshore,Offshore,Offshore,Offshore,Onshore,Onshore,Onshore,Onshore,Onshore",12
5842041f4e65fad6a7708822,2023_12_07,33.72309983348433,-118.08078,Anderson Street,2.6666666666666665,0.72,0.9941666666666666,16.833333333333332,16.833333333333332,"NIGHT_OVERCAST,NIGHT_MIST,NIGHT_MIST,NIGHT_MIST,NIGHT_OVERCAST,NIGHT_OVERCAST,DRIZZLE,OVERCAST,MOSTLY_CLOUDY,MOSTLY_CLOUDY,MOSTLY_CLOUDY,OVERCAST","Offshore,Offshore,Offshore,Offshore,Offshore,Offshore,Offshore,Onshore,Onshore,Onshore,Onshore,Onshore",12
5842041f4e65fad6a7708827,2023_12_07,33.65574085629463,-118.00397,Huntington Beach Pier Northside,2.8475,1.0762555555555555,1.3678833333333333,17,17,"NIGHT_OVERCAST,NIGHT_OVERCAST,NIGHT_OVERCAST,NIGHT_OVERCAST,NIGHT_OVERCAST,NIGHT_OVERCAST,OVERCAST,CLEAR,CLEAR,CLEAR,OVERCAST,OVERCAST","Offshore,Offshore,Offshore,Offshore,Offshore,Offshore,Offshore,Onshore,Cross-shore,Cross-shore,Cross-shore,Onshore",12
5842041f4e65fad6a7708828,2023_12_07,34.272041739333,-119.2997646331,C St.,3.4166666666666665,1.3119944444444445,1.5987777777777779,16,16,"NIGHT_MIST,NIGHT_CLEAR,NIGHT_CLEAR,NIGHT_CLEAR,NIGHT_CLEAR,NIGHT_CLEAR,CLEAR,MIST,MIST,MIST,BRIEF_SHOWERS,CLEAR","Onshore,Cross-shore,Cross-shore,Offshore,Cross-shore,Cross-shore,Cross-shore,Cross-shore,Cross-shore,Cross-shore,Cross-shore,Cross-shore",12
5842041f4e65fad6a770882a,2023_12_07,33.61555743705257,-117.93676,Newport Lower Jetties,2.930833333333333,0.9060527777777778,1.2006138888888889,17,17,"NIGHT_OVERCAST,NIGHT_OVERCAST,NIGHT_MIST,NIGHT_MIST,NIGHT_MIST,NIGHT_MIST,MOSTLY_CLOUDY,BRIEF_SHOWERS,MOSTLY_CLOUDY,MOSTLY_CLOUDY,CLEAR,MOSTLY_CLOUDY","Offshore,Offshore,Offshore,Offshore,Offshore,Offshore,Offshore,Onshore,Onshore,Onshore,Onshore,Onshore",12
5842041f4e65fad6a770882b,2023_12_07,33.5930302087,-117.88199,The Wedge,2,0.37625,0.8065258333333334,16.75,16.75,"NIGHT_OVERCAST,NIGHT_OVERCAST,NIGHT_MIST,NIGHT_MIST,NIGHT_MIST,NIGHT_OVERCAST,MOSTLY_CLOUDY,BRIEF_SHOWERS,MOSTLY_CLOUDY,MOSTLY_CLOUDY,MOSTLY_CLOUDY,MOSTLY_CLOUDY","Offshore,Offshore,Offshore,Offshore,Cross-shore,Offshore,Offshore,Onshore,Onshore,Onshore,Onshore,Onshore",12
5842041f4e65fad6a770882c,2023_12_07,33.60577342582,-117.9315376281,Newport Beach Pier,2.7641666666666667,0.6105166666666667,0.9833694444444444,17,17,"NIGHT_DRIZZLE,NIGHT_OVERCAST,NIGHT_MIST,NIGHT_MIST,NIGHT_MIST,NIGHT_OVERCAST,CLOUDY,MOSTLY_CLOUDY,MOSTLY_CLOUDY,CLEAR,CLEAR,MOSTLY_CLOUDY","Cross-shore,Onshore,Onshore,Onshore,Onshore,Cross-shore,Cross-shore,Offshore,Cross-shore,Onshore,Onshore,Onshore",12
5842041f4e65fad6a770882e,2023_12_07,33.475793399792984,-117.72291,Salt Creek,2.8475,1.060775,1.4304305555555556,17,17,"NIGHT_CLOUDY,NIGHT_CLOUDY,NIGHT_MIST,NIGHT_MIST,NIGHT_MIST,NIGHT_MIST,BRIEF_SHOWERS,MOSTLY_CLOUDY,MOSTLY_CLOUDY,MOSTLY_CLOUDY,MOSTLY_CLEAR,MOSTLY_CLOUDY","Cross-shore,Offshore,Offshore,Cross-shore,Cross-shore,Cross-shore,Offshore,Offshore,Onshore,Onshore,Onshore,Onshore",12
5842041f4e65fad6a7708830,2023_12_07,33.41800974113613,-117.61952,T-Street,2.7641666666666667,0.9677194444444445,1.2896416666666668,17,17,"NIGHT_OVERCAST,NIGHT_OVERCAST,NIGHT_MIST,NIGHT_MIST,NIGHT_MOSTLY_CLOUDY,NIGHT_MOSTLY_CLOUDY,MOSTLY_CLOUDY,CLEAR,CLEAR,CLEAR,CLEAR,CLEAR","Cross-shore,Cross-shore,Cross-shore,Cross-shore,Cross-shore,Cross-shore,Offshore,Onshore,Onshore,Onshore,Onshore,Onshore",12
5842041f4e65fad6a7708832,2023_12_07,33.202391008646,-117.39475,Oceanside Harbor,3.4166666666666665,1.1871083333333334,1.6114611111111112,17,17,"NIGHT_DRIZZLE,NIGHT_MIST,NIGHT_MIST,NIGHT_MOSTLY_CLOUDY,NIGHT_BRIEF_SHOWERS,NIGHT_OVERCAST,MOSTLY_CLOUDY,CLEAR,CLEAR,CLEAR,CLEAR,CLEAR","Onshore,Onshore,Cross-shore,Cross-shore,Offshore,Offshore,Offshore,Onshore,Onshore,Onshore,Onshore,Onshore",12
5842041f4e65fad6a7708835,2023_12_07,33.19477795952803,-117.38667,Oceanside Pier,3.0833333333333335,1.1734277777777777,1.5591,17,17,"NIGHT_MIST,NIGHT_MIST,NIGHT_OVERCAST,NIGHT_MOSTLY_CLOUDY,NIGHT_MOSTLY_CLOUDY,NIGHT_BRIEF_SHOWERS,MOSTLY_CLOUDY,CLEAR,CLEAR,CLEAR,CLEAR,CLEAR","Onshore,Onshore,Cross-shore,Offshore,Offshore,Offshore,Offshore,Onshore,Onshore,Onshore,Onshore,Onshore",12
5842041f4e65fad6a7708837,2023_12_07,33.14948100706,-117.35029,Tamarack,2.9166666666666665,0.3625,0.6675,16.833333333333332,16.833333333333332,"NIGHT_CLOUDY,NIGHT_OVERCAST,NIGHT_MIST,NIGHT_MIST,NIGHT_MOSTLY_CLOUDY,NIGHT_MOSTLY_CLOUDY,MOSTLY_CLOUDY,CLEAR,CLEAR,CLEAR,MOSTLY_CLEAR,CLEAR","Onshore,Onshore,Onshore,Onshore,Cross-shore,Onshore,Cross-shore,Onshore,Onshore,Onshore,Onshore,Onshore",12
5842041f4e65fad6a7708839,2023_12_07,32.865777159358856,-117.25614295356122,Scripps,3.0833333333333335,1.3830222222222224,1.8416083333333333,17,17,"NIGHT_MIST,NIGHT_MIST,NIGHT_DRIZZLE,NIGHT_DRIZZLE,NIGHT_MIST,NIGHT_DRIZZLE,MIST,MOSTLY_CLOUDY,CLEAR,CLEAR,CLEAR,MOSTLY_CLOUDY","Onshore,Onshore,Onshore,Cross-shore,Offshore,Offshore,Offshore,Cross-shore,Cross-shore,Onshore,Onshore,Onshore",12
5842041f4e65fad6a770883a,2023_12_07,32.813094,-117.27381,Birdrock,3.6666666666666665,1.6366666666666667,1.9558333333333333,16,16,"NIGHT_OVERCAST,NIGHT_OVERCAST,NIGHT_OVERCAST,NIGHT_OVERCAST,NIGHT_OVERCAST,NIGHT_OVERCAST,DRIZZLE,MOSTLY_CLOUDY,CLEAR,CLEAR,MOSTLY_CLOUDY,MOSTLY_CLOUDY","Offshore,Offshore,Offshore,Offshore,Offshore,Offshore,Offshore,Cross-shore,Onshore,Cross-shore,Cross-shore,Cross-shore",12
5842041f4e65fad6a770883b,2023_12_07,32.877231,-117.25303,Blacks,4.195,2.092652777777778,2.6897305555555557,17,17,"NIGHT_MIST,NIGHT_MIST,NIGHT_DRIZZLE,NIGHT_DRIZZLE,NIGHT_MIST,NIGHT_DRIZZLE,MIST,MOSTLY_CLOUDY,CLEAR,CLEAR,MIST,MOSTLY_CLOUDY","Onshore,Cross-shore,Cross-shore,Cross-shore,Offshore,Offshore,Offshore,Offshore,Offshore,Cross-shore,Onshore,Onshore",12
5842041f4e65fad6a770883c,2023_12_07,32.82978974229765,-117.28161740727381,Windansea,3.2083333333333335,1.654236111111111,2.2491083333333335,17,17,"NIGHT_MIST,NIGHT_MIST,NIGHT_MIST,NIGHT_OVERCAST,NIGHT_OVERCAST,NIGHT_OVERCAST,MIST,MOSTLY_CLOUDY,CLEAR,CLEAR,MOSTLY_CLOUDY,MOSTLY_CLOUDY","Onshore,Onshore,Cross-shore,Cross-shore,Offshore,Offshore,Offshore,Cross-shore,Onshore,Onshore,Onshore,Onshore",12
5842041f4e65fad6a770883d,2023_12_07,32.838278,-117.28396,Horseshoe,3.6666666666666665,1.7291666666666667,2.0675,16.833333333333332,16.833333333333332,"NIGHT_MIST,NIGHT_MIST,NIGHT_MIST,NIGHT_OVERCAST,NIGHT_OVERCAST,NIGHT_OVERCAST,MIST,MOSTLY_CLOUDY,CLEAR,CLEAR,MOSTLY_CLOUDY,MOSTLY_CLOUDY","Offshore,Offshore,Offshore,Offshore,Offshore,Offshore,Offshore,Offshore,Onshore,Onshore,Onshore,Onshore",12
5842041f4e65fad6a770883f,2023_12_07,32.75034717673179,-117.25337,Ocean Beach,3.375,1.7429166666666667,2.3599027777777777,17,17,"NIGHT_MIST,NIGHT_MIST,NIGHT_MIST,NIGHT_MIST,NIGHT_OVERCAST,NIGHT_OVERCAST,DRIZZLE,MOSTLY_CLOUDY,MOSTLY_CLOUDY,MOSTLY_CLOUDY,MIST,MOSTLY_CLOUDY","Onshore,Onshore,Onshore,Cross-shore,Cross-shore,Cross-shore,Offshore,Onshore,Onshore,Onshore,Onshore,Onshore",12
5842041f4e65fad6a7708840,2023_12_07,32.73693,-117.25718,Sunset Cliffs,3.5,1.7425,2.080833333333333,16.166666666666668,16.166666666666668,"NIGHT_MIST,NIGHT_MIST,NIGHT_DRIZZLE,NIGHT_MIST,NIGHT_MIST,NIGHT_OVERCAST,DRIZZLE,MOSTLY_CLOUDY,MOSTLY_CLOUDY,MOSTLY_CLOUDY,MOSTLY_CLOUDY,MOSTLY_CLOUDY","Onshore,Onshore,Onshore,Onshore,Cross-shore,Cross-shore,Offshore,Onshore,Onshore,Onshore,Onshore,Onshore",12
5842041f4e65fad6a7708841,2023_12_07,32.796582258728826,-117.25779,Pacific Beach,3,1.677638888888889,2.2782055555555556,17,17,"NIGHT_MIST,NIGHT_MIST,NIGHT_MIST,NIGHT_OVERCAST,NIGHT_OVERCAST,NIGHT_OVERCAST,MIST,MOSTLY_CLOUDY,MOSTLY_CLOUDY,MIST,MOSTLY_CLOUDY,MOSTLY_CLOUDY","Offshore,Offshore,Offshore,Offshore,Offshore,Offshore,Offshore,Offshore,Onshore,Cross-shore,Cross-shore,Cross-shore",12
5842041f4e65fad6a7708842,2023_12_07,32.776636,-117.25514,Mission Beach,3.194166666666667,1.6881944444444446,2.290427777777778,17,17,"NIGHT_MIST,NIGHT_MIST,NIGHT_MIST,NIGHT_OVERCAST,NIGHT_OVERCAST,NIGHT_OVERCAST,MIST,MOSTLY_CLOUDY,MOSTLY_CLOUDY,MIST,MOSTLY_CLOUDY,MOSTLY_CLOUDY","Offshore,Offshore,Offshore,Offshore,Offshore,Offshore,Offshore,Offshore,Onshore,Onshore,Onshore,Onshore",12
5842041f4e65fad6a7708844,2023_12_07,32.577195519016,-117.13475,Imperial Beach Pier,3,1.7908333333333333,2.14,17,17,"NIGHT_DRIZZLE,NIGHT_MIST,NIGHT_MIST,NIGHT_DRIZZLE,NIGHT_OVERCAST,NIGHT_MOSTLY_CLOUDY,BRIEF_SHOWERS,MOSTLY_CLEAR,MOSTLY_CLEAR,MOSTLY_CLEAR,MOSTLY_CLOUDY,MOSTLY_CLOUDY","Onshore,Cross-shore,Cross-shore,Offshore,Offshore,Offshore,Offshore,Offshore,Onshore,Onshore,Onshore,Onshore",12
5842041f4e65fad6a770884a,2023_12_07,42.88678181061,-70.80843,Seabrook,1.18,0.18200777777777777,0.4291152777777778,8.166666666666666,7.166666666666667,"NIGHT_CLEAR,NIGHT_CLEAR,NIGHT_CLEAR,CLEAR,CLEAR,CLEAR,CLEAR,CLEAR,CLEAR,CLEAR,NIGHT_CLEAR,NIGHT_CLEAR","Offshore,Offshore,Offshore,Offshore,Offshore,Offshore,Offshore,Offshore,Offshore,Offshore,Offshore,Offshore",12
5842041f4e65fad6a770884e,2023_12_07,41.434181432898335,-71.45312118111178,Narragansett,0.4166666666666667,0,0.22480833333333333,10.166666666666666,8.583333333333334,"NIGHT_CLEAR,NIGHT_CLEAR,NIGHT_CLEAR,CLEAR,CLEAR,CLEAR,CLEAR,CLEAR,CLEAR,CLEAR,NIGHT_CLEAR,NIGHT_CLEAR","Offshore,Offshore,Offshore,Offshore,Offshore,Offshore,Offshore,Offshore,Offshore,Offshore,Offshore,Offshore",12
5842041f4e65fad6a7708850,2023_12_07,40.582703230722,-73.65247,Lincoln Blvd,0.38333333333333336,-0.003666666666666668,0.2900916666666667,10.583333333333334,8,"NIGHT_CLEAR,NIGHT_CLEAR,NIGHT_CLEAR,CLEAR,CLEAR,CLEAR,CLEAR,MOSTLY_CLOUDY,CLOUDY,CLEAR,CLOUDY,NIGHT_CLOUDY","Offshore,Cross-shore,Offshore,Offshore,Cross-shore,Cross-shore,Offshore,Offshore,Offshore,Offshore,Offshore,Cross-shore",12
5842041f4e65fad6a7708852,2023_12_07,40.58342841721757,-73.81182,Rockaways,0.3975,0,0.29254444444444444,10.583333333333334,8,"NIGHT_CLEAR,NIGHT_CLEAR,NIGHT_CLEAR,CLEAR,CLEAR,CLEAR,CLEAR,CLEAR,MOSTLY_CLOUDY,CLEAR,CLOUDY,NIGHT_MOSTLY_CLOUDY","Offshore,Offshore,Offshore,Offshore,Cross-shore,Cross-shore,Cross-shore,Cross-shore,Cross-shore,Cross-shore,Cross-shore,Cross-shore",12
5842041f4e65fad6a7708853,2023_12_07,40.330474,-73.9734,Monmouth Beach,0.7083333333333334,0.017569444444444447,0.32156944444444446,9,8,"NIGHT_CLEAR,NIGHT_CLEAR,NIGHT_CLEAR,CLEAR,CLEAR,CLEAR,CLEAR,CLEAR,OVERCAST,CLEAR,MOSTLY_CLOUDY,NIGHT_MOSTLY_CLOUDY","Offshore,Offshore,Offshore,Offshore,Offshore,Offshore,Offshore,Offshore,Offshore,Offshore,Offshore,Offshore",12
5842041f4e65fad6a7708856,2023_12_07,40.113,-74.028,Manasquan Inlet,1.2083333333333333,0.13578055555555554,0.3898555555555556,9,8,"NIGHT_CLEAR,NIGHT_CLEAR,NIGHT_CLEAR,CLEAR,CLEAR,CLEAR,CLEAR,CLEAR,OVERCAST,OVERCAST,CLOUDY,NIGHT_OVERCAST","Offshore,Offshore,Offshore,Offshore,Offshore,Offshore,Offshore,Offshore,Offshore,Offshore,Offshore,Offshore",12
5842041f4e65fad6a7708857,2023_12_07,39.941519877445664,-74.06829,Casino Pier,2,0.24390555555555557,0.5519388888888889,9,8,"NIGHT_CLEAR,NIGHT_CLEAR,NIGHT_CLEAR,CLEAR,CLEAR,CLEAR,CLEAR,CLEAR,MOSTLY_CLOUDY,MOSTLY_CLOUDY,CLEAR,NIGHT_OVERCAST","Offshore,Offshore,Offshore,Offshore,Offshore,Offshore,Offshore,Offshore,Offshore,Offshore,Offshore,Offshore",12
5842041f4e65fad6a7708858,2023_12_07,39.28223089949212,-74.55766,North End OC,1.2583333333333333,0.09368333333333334,0.39992500000000003,9,8,"NIGHT_CLEAR,NIGHT_CLEAR,NIGHT_CLEAR,CLEAR,CLEAR,CLEAR,CLEAR,CLEAR,CLEAR,MOSTLY_CLOUDY,MOSTLY_CLOUDY,NIGHT_CLEAR","Offshore,Offshore,Offshore,Offshore,Offshore,Offshore,Offshore,Offshore,Cross-shore,Cross-shore,Cross-shore,Cross-shore",12
5842041f4e65fad6a770885b,2023_12_07,39.65080599934257,-74.17146,Ship Bottom,1.3,0.263475,0.5678833333333334,9,8,"NIGHT_CLEAR,NIGHT_CLEAR,NIGHT_CLEAR,CLEAR,CLEAR,CLEAR,CLEAR,CLEAR,CLEAR,CLEAR,CLEAR,NIGHT_OVERCAST","Offshore,Offshore,Offshore,Offshore,Offshore,Offshore,Offshore,Offshore,Offshore,Cross-shore,Cross-shore,Offshore",12
5842041f4e65fad6a7708863,2023_12_07,36.034151543144,-75.66791,Third Street,1.8608333333333333,0.8408666666666667,1.1910916666666667,13.166666666666666,12.166666666666666,"NIGHT_CLEAR,NIGHT_CLEAR,NIGHT_CLEAR,CLEAR,CLEAR,CLEAR,CLEAR,CLEAR,CLEAR,CLEAR,CLEAR,NIGHT_CLEAR","Cross-shore,Cross-shore,Cross-shore,Cross-shore,Cross-shore,Cross-shore,Cross-shore,Offshore,Offshore,Offshore,Offshore,Offshore",12
5842041f4e65fad6a7708867,2023_12_07,35.605833221351425,-75.46303,S-Turns,1.0733333333333333,0.9917416666666666,1.416775,13.166666666666666,12.166666666666666,"NIGHT_CLEAR,NIGHT_CLEAR,NIGHT_CLEAR,CLEAR,CLEAR,CLEAR,CLEAR,CLEAR,CLEAR,CLEAR,CLEAR,NIGHT_CLEAR","Cross-shore,Cross-shore,Cross-shore,Offshore,Offshore,Cross-shore,Offshore,Offshore,Offshore,Offshore,Offshore,Offshore",12
5842041f4e65fad6a770886d,2023_12_07,38.338461,-75.08117,Ocean City Boardwalk,2,0.3612527777777778,0.6627611111111111,11,9.583333333333334,"NIGHT_CLEAR,NIGHT_CLEAR,NIGHT_CLEAR,CLEAR,CLEAR,MOSTLY_CLEAR,CLEAR,CLEAR,CLEAR,CLEAR,CLEAR,NIGHT_CLEAR","Offshore,Offshore,Offshore,Offshore,Offshore,Offshore,Offshore,Offshore,Offshore,Offshore,Offshore,Offshore",12
5842041f4e65fad6a770886f,2023_12_07,29.844757212379562,-81.26136,A St.,2,0.43333333333333335,0.7391666666666666,17.5,17.5,"NIGHT_CLEAR,NIGHT_CLEAR,NIGHT_CLEAR,CLEAR,CLEAR,CLEAR,CLEAR,CLEAR,CLEAR,CLEAR,CLEAR,CLEAR","Cross-shore,Cross-shore,Cross-shore,Cross-shore,Offshore,Offshore,Offshore,Cross-shore,Cross-shore,Cross-shore,Cross-shore,Onshore",12
5842041f4e65fad6a7708871,2023_12_07,29.069417851135093,-80.90824,New Smyrna Beach,1.9375,0.9238916666666667,1.3765666666666667,19.583333333333332,17.583333333333332,"NIGHT_CLOUDY,NIGHT_CLOUDY,NIGHT_MOSTLY_CLOUDY,CLEAR,CLEAR,MOSTLY_CLOUDY,SHOWERS,MOSTLY_CLEAR,CLEAR,CLEAR,MOSTLY_CLOUDY,CLEAR","Onshore,Onshore,Onshore,Onshore,Onshore,Onshore,Cross-shore,Cross-shore,Onshore,Onshore,Onshore,Onshore",12
5842041f4e65fad6a7708872,2023_12_07,28.367707417566,-80.60171,Cocoa Beach Pier,1.75,0.06812499999999999,0.37146111111111113,21.583333333333332,20.583333333333332,"NIGHT_MOSTLY_CLOUDY,NIGHT_MOSTLY_CLOUDY,NIGHT_MOSTLY_CLOUDY,MOSTLY_CLOUDY,MOSTLY_CLOUDY,MIST,MOSTLY_CLEAR,MOSTLY_CLOUDY,BRIEF_SHOWERS,BRIEF_SHOWERS,MOSTLY_CLOUDY,MOSTLY_CLOUDY","Cross-shore,Cross-shore,Offshore,Cross-shore,Offshore,Cross-shore,Offshore,Cross-shore,Cross-shore,Cross-shore,Cross-shore,Offshore",12
5842041f4e65fad6a7708873,2023_12_07,28.091782738658846,-80.56479,Indialantic,1.625,0.6100833333333333,1.0121944444444444,22.583333333333332,21,"NIGHT_MOSTLY_CLOUDY,NIGHT_MOSTLY_CLOUDY,NIGHT_MOSTLY_CLOUDY,BRIEF_SHOWERS,BRIEF_SHOWERS,BRIEF_SHOWERS,MOSTLY_CLEAR,BRIEF_SHOWERS,BRIEF_SHOWERS,MIST,MOSTLY_CLOUDY,BRIEF_SHOWERS","Onshore,Cross-shore,Cross-shore,Cross-shore,Cross-shore,Cross-shore,Offshore,Cross-shore,Cross-shore,Onshore,Cross-shore,Cross-shore",12
5842041f4e65fad6a7708876,2023_12_07,27.25392904143517,-80.19455,Jensen Beach,1.6666666666666667,0.759225,1.1298583333333334,24.583333333333332,23,"NIGHT_CLEAR,NIGHT_MOSTLY_CLOUDY,NIGHT_MOSTLY_CLOUDY,MOSTLY_CLOUDY,CLEAR,HEAVY_SHOWERS,CLEAR,MIST,BRIEF_SHOWERS,LIGHT_RAIN,RAIN,MOSTLY_CLOUDY","Onshore,Onshore,Onshore,Onshore,Onshore,Onshore,Cross-shore,Onshore,Onshore,Onshore,Onshore,Onshore",12
5842041f4e65fad6a7708879,2023_12_07,26.76346795333825,-80.0360655784607,Reef Road,1.6333333333333333,0.6882916666666666,1.09525,25.583333333333332,24.583333333333332,"NIGHT_MOSTLY_CLOUDY,NIGHT_BRIEF_SHOWERS,NIGHT_CLEAR,MOSTLY_CLOUDY,MOSTLY_CLOUDY,MOSTLY_CLOUDY,CLEAR,MIST,MOSTLY_CLOUDY,BRIEF_SHOWERS,MOSTLY_CLOUDY,MOSTLY_CLOUDY","Cross-shore,Cross-shore,Onshore,Onshore,Onshore,Onshore,Offshore,Onshore,Onshore,Onshore,Onshore,Onshore",12
5842041f4e65fad6a770887c,2023_12_07,26.336499228484,-80.06956100463,Boca Raton Inlet,1.375,0.37078611111111115,0.6773944444444444,25.583333333333332,24,"NIGHT_MOSTLY_CLOUDY,NIGHT_MOSTLY_CLOUDY,NIGHT_MOSTLY_CLOUDY,CLEAR,MOSTLY_CLOUDY,MOSTLY_CLOUDY,MOSTLY_CLOUDY,MOSTLY_CLOUDY,BRIEF_SHOWERS,MOSTLY_CLOUDY,MOSTLY_CLOUDY,CLEAR","Offshore,Cross-shore,Cross-shore,Onshore,Cross-shore,Cross-shore,Offshore,Cross-shore,Cross-shore,Onshore,Onshore,Onshore",12
5842041f4e65fad6a770887d,2023_12_07,26.31719311695038,-80.07452525176168,Deerfield Beach Pier,1.695,0.4421344166666667,0.7796369166666667,26,24,"NIGHT_MOSTLY_CLOUDY,NIGHT_MOSTLY_CLOUDY,NIGHT_MOSTLY_CLOUDY,CLEAR,CLEAR,CLEAR,CLEAR,MOSTLY_CLOUDY,BRIEF_SHOWERS,MOSTLY_CLOUDY,MOSTLY_CLOUDY,CLEAR","Offshore,Cross-shore,Cross-shore,Cross-shore,Cross-shore,Cross-shore,Offshore,Cross-shore,Cross-shore,Onshore,Onshore,Onshore",12
5842041f4e65fad6a7708881,2023_12_07,30.20276320866628,-85.85626528676136,"Spyglass Dr., Panama City",0,0,0.08866666666666667,18,17,"NIGHT_CLEAR,NIGHT_CLEAR,NIGHT_CLEAR,NIGHT_CLEAR,CLEAR,CLEAR,CLEAR,CLEAR,CLEAR,CLEAR,CLEAR,CLEAR","Offshore,Offshore,Offshore,Offshore,Offshore,Offshore,Offshore,Offshore,Cross-shore,Cross-shore,Onshore,Onshore",12
5842041f4e65fad6a7708884,2023_12_07,33.39000832738053,-117.59852,Cottons,2.930833333333333,0.960775,1.2695027777777779,17,17,"NIGHT_OVERCAST,NIGHT_OVERCAST,NIGHT_MIST,NIGHT_MOSTLY_CLOUDY,NIGHT_MOSTLY_CLOUDY,NIGHT_MOSTLY_CLOUDY,MOSTLY_CLOUDY,CLEAR,CLEAR,CLEAR,MOSTLY_CLOUDY,MOSTLY_CLOUDY","Cross-shore,Cross-shore,Cross-shore,Cross-shore,Cross-shore,Cross-shore,Cross-shore,Onshore,Onshore,Cross-shore,Onshore,Onshore",12
5842041f4e65fad6a7708885,2023_12_07,33.359416282661,-117.54167901405711,Trails,3,0.6858333333333333,0.9916666666666667,17,17,"NIGHT_MOSTLY_CLOUDY,NIGHT_OVERCAST,NIGHT_MIST,NIGHT_MOSTLY_CLOUDY,NIGHT_MIST,NIGHT_MIST,CLEAR,CLEAR,CLEAR,CLEAR,MOSTLY_CLOUDY,CLEAR","Offshore,Offshore,Offshore,Offshore,Offshore,Offshore,Offshore,Offshore,Onshore,Onshore,Onshore,Onshore",12
5842041f4e65fad6a7708886,2023_12_07,33.38042605929805,-117.58332,Middles,2.680833333333333,0.7173861111111111,1.051113888888889,17,17,"NIGHT_OVERCAST,NIGHT_OVERCAST,NIGHT_MIST,NIGHT_MOSTLY_CLOUDY,NIGHT_MOSTLY_CLOUDY,NIGHT_MOSTLY_CLOUDY,MOSTLY_CLOUDY,CLEAR,CLEAR,CLEAR,CLEAR,MOSTLY_CLOUDY","Offshore,Offshore,Offshore,Offshore,Offshore,Cross-shore,Offshore,Cross-shore,Onshore,Cross-shore,Onshore,Onshore",12
5842041f4e65fad6a7708887,2023_12_07,33.38445596302903,-117.59445,Upper Trestles,2.930833333333333,0.9580666666666666,1.278252777777778,17,17,"NIGHT_OVERCAST,NIGHT_OVERCAST,NIGHT_MIST,NIGHT_MOSTLY_CLOUDY,NIGHT_MOSTLY_CLOUDY,NIGHT_MOSTLY_CLOUDY,MOSTLY_CLOUDY,CLEAR,CLEAR,CLEAR,MOSTLY_CLOUDY,MOSTLY_CLOUDY","Offshore,Offshore,Offshore,Offshore,Offshore,Offshore,Offshore,Cross-shore,Onshore,Cross-shore,Onshore,Onshore",12
5842041f4e65fad6a7708889,2023_12_07,28.944414,-95.28883,Surfside,1,0.3025275,0.47269916666666667,18.166666666666668,18.166666666666668,"NIGHT_CLEAR,NIGHT_CLEAR,NIGHT_CLEAR,NIGHT_CLEAR,CLEAR,CLEAR,CLEAR,CLEAR,CLEAR,CLEAR,MOSTLY_CLOUDY,MOSTLY_CLOUDY","Onshore,Onshore,Onshore,Onshore,Onshore,Onshore,Onshore,Onshore,Onshore,Onshore,Onshore,Onshore",12
5842041f4e65fad6a770888a,2023_12_07,33.38143999849023,-117.58843,Lower Trestles,2.7641666666666667,0.954525,1.2475583333333333,17,17,"NIGHT_OVERCAST,NIGHT_OVERCAST,NIGHT_MIST,NIGHT_MOSTLY_CLOUDY,NIGHT_MOSTLY_CLOUDY,NIGHT_MOSTLY_CLOUDY,MOSTLY_CLOUDY,CLEAR,CLEAR,CLEAR,CLEAR,MOSTLY_CLOUDY","Offshore,Offshore,Offshore,Offshore,Offshore,Offshore,Offshore,Cross-shore,Onshore,Cross-shore,Onshore,Onshore",12
5842041f4e65fad6a770888b,2023_12_07,33.379622288757,-117.57894,Church,2.7641666666666667,0.8048166666666667,1.0881972222222223,17,17,"NIGHT_OVERCAST,NIGHT_OVERCAST,NIGHT_MIST,NIGHT_MOSTLY_CLOUDY,NIGHT_MOSTLY_CLOUDY,NIGHT_MOSTLY_CLOUDY,MOSTLY_CLOUDY,CLEAR,CLEAR,CLEAR,MOSTLY_CLOUDY,MOSTLY_CLOUDY","Offshore,Cross-shore,Cross-shore,Offshore,Cross-shore,Cross-shore,Offshore,Cross-shore,Onshore,Cross-shore,Onshore,Onshore",12
5842041f4e65fad6a770888d,2023_12_07,21.679,-158.042,Sunset Beach,3.9025,1.81875,2.271333333333333,26,25,"NIGHT_MOSTLY_CLEAR,NIGHT_MOSTLY_CLOUDY,NIGHT_MOSTLY_CLOUDY,NIGHT_BRIEF_SHOWERS,NIGHT_MOSTLY_CLEAR,NIGHT_BRIEF_SHOWERS,NIGHT_SHOWERS,MOSTLY_CLEAR,MOSTLY_CLOUDY,MOSTLY_CLOUDY,MOSTLY_CLEAR,MOSTLY_CLEAR","Offshore,Offshore,Onshore,Offshore,Offshore,Offshore,Offshore,Offshore,Onshore,Onshore,Onshore,Onshore",12
5842041f4e65fad6a770888e,2023_12_07,21.670550036401,-158.0482,Rocky Point,3.8758333333333335,1.7379166666666668,2.1734166666666668,26,25,"NIGHT_CLEAR,NIGHT_MOSTLY_CLOUDY,NIGHT_CLEAR,NIGHT_CLEAR,NIGHT_MOSTLY_CLEAR,NIGHT_CLEAR,NIGHT_CLEAR,MOSTLY_CLEAR,MOSTLY_CLOUDY,MOSTLY_CLOUDY,CLEAR,MOSTLY_CLEAR","Offshore,Offshore,Onshore,Offshore,Offshore,Offshore,Offshore,Offshore,Onshore,Onshore,Onshore,Onshore",12
5842041f4e65fad6a770888f,2023_12_07,21.668,-158.05,Chambers,3.6666666666666665,1.685,2.015,25,25,"NIGHT_CLEAR,NIGHT_MOSTLY_CLOUDY,NIGHT_CLEAR,NIGHT_CLEAR,NIGHT_MOSTLY_CLEAR,NIGHT_CLEAR,NIGHT_CLEAR,MOSTLY_CLEAR,MOSTLY_CLOUDY,MOSTLY_CLOUDY,MOSTLY_CLOUDY,MOSTLY_CLEAR","Offshore,Offshore,Onshore,Offshore,Offshore,Offshore,Offshore,Offshore,Onshore,Onshore,Onshore,Onshore",12
5842041f4e65fad6a7708890,2023_12_07,21.66522,-158.0526,Pipeline,3.25,1.5322500000000001,1.9962083333333334,26,25,"NIGHT_CLEAR,NIGHT_MOSTLY_CLOUDY,NIGHT_CLEAR,NIGHT_CLEAR,NIGHT_MOSTLY_CLEAR,NIGHT_CLEAR,NIGHT_CLEAR,MOSTLY_CLEAR,MOSTLY_CLOUDY,MOSTLY_CLOUDY,CLEAR,MOSTLY_CLEAR","Offshore,Offshore,Onshore,Offshore,Offshore,Offshore,Offshore,Offshore,Onshore,Onshore,Onshore,Onshore",12
5842041f4e65fad6a7708891,2023_12_07,21.665,-158.054,Backdoor,3.75,1.645,1.9658333333333333,25,25,"NIGHT_CLEAR,NIGHT_MOSTLY_CLOUDY,NIGHT_CLEAR,NIGHT_CLEAR,NIGHT_MOSTLY_CLEAR,NIGHT_CLEAR,NIGHT_CLEAR,MOSTLY_CLEAR,MOSTLY_CLOUDY,MOSTLY_CLOUDY,MOSTLY_CLOUDY,MOSTLY_CLEAR","Offshore,Offshore,Onshore,Offshore,Offshore,Offshore,Offshore,Offshore,Onshore,Onshore,Onshore,Onshore",12
5842041f4e65fad6a7708892,2023_12_07,21.662,-158.057,Rockpile,3.6666666666666665,2.1516666666666664,2.5716666666666668,25.166666666666668,25.166666666666668,"NIGHT_CLEAR,NIGHT_MOSTLY_CLOUDY,NIGHT_CLEAR,NIGHT_CLEAR,NIGHT_MOSTLY_CLEAR,NIGHT_CLEAR,NIGHT_CLEAR,MOSTLY_CLEAR,MOSTLY_CLOUDY,MOSTLY_CLOUDY,CLEAR,MOSTLY_CLEAR","Offshore,Offshore,Onshore,Offshore,Offshore,Offshore,Offshore,Offshore,Onshore,Onshore,Onshore,Onshore",12
5842041f4e65fad6a7708893,2023_12_07,21.65870453806827,-158.06058,Log Cabins,3.5,1.5708333333333333,1.8791666666666667,25.25,25.25,"NIGHT_CLEAR,NIGHT_MOSTLY_CLOUDY,NIGHT_CLEAR,NIGHT_CLEAR,NIGHT_MOSTLY_CLEAR,NIGHT_CLEAR,NIGHT_CLEAR,MOSTLY_CLEAR,MOSTLY_CLOUDY,MOSTLY_CLOUDY,MOSTLY_CLOUDY,MOSTLY_CLEAR","Offshore,Offshore,Onshore,Offshore,Offshore,Offshore,Offshore,Offshore,Onshore,Onshore,Onshore,Onshore",12
5842041f4e65fad6a7708894,2023_12_07,21.66203493640557,-158.05495,Off-The-Wall,3.75,1.8141666666666667,2.1708333333333334,25,25,"NIGHT_CLEAR,NIGHT_MOSTLY_CLOUDY,NIGHT_CLEAR,NIGHT_CLEAR,NIGHT_MOSTLY_CLEAR,NIGHT_CLEAR,NIGHT_CLEAR,MOSTLY_CLEAR,MOSTLY_CLOUDY,MOSTLY_CLOUDY,CLEAR,MOSTLY_CLEAR","Offshore,Offshore,Onshore,Offshore,Offshore,Offshore,Offshore,Offshore,Onshore,Onshore,Onshore,Onshore",12
5842041f4e65fad6a7708895,2023_12_07,21.643,-158.067,Waimea Bay,NA,2.027986111111111,2.5218194444444446,26,25,"NIGHT_CLEAR,NIGHT_MOSTLY_CLOUDY,NIGHT_CLEAR,NIGHT_CLEAR,NIGHT_MOSTLY_CLEAR,NIGHT_CLEAR,NIGHT_CLEAR,MOSTLY_CLEAR,MOSTLY_CLOUDY,MOSTLY_CLOUDY,MOSTLY_CLOUDY,MOSTLY_CLEAR","Offshore,Offshore,Onshore,Offshore,Offshore,Offshore,Offshore,Offshore,Onshore,Onshore,Onshore,Onshore",12
5842041f4e65fad6a7708896,2023_12_07,21.622,-158.087,Hultin's,3.9591666666666665,1.9250694444444445,2.379111111111111,26,25,"NIGHT_CLEAR,NIGHT_CLEAR,NIGHT_CLEAR,NIGHT_CLEAR,NIGHT_CLEAR,NIGHT_CLEAR,NIGHT_CLEAR,CLEAR,CLEAR,MOSTLY_CLOUDY,MOSTLY_CLOUDY,BRIEF_SHOWERS","Offshore,Offshore,Offshore,Offshore,Offshore,Offshore,Offshore,Offshore,Offshore,Offshore,Cross-shore,Onshore",12
5842041f4e65fad6a7708897,2023_12_07,21.623,-158.085,Jocko's,3.0833333333333335,1.6483333333333334,1.97,25.166666666666668,25.166666666666668,"NIGHT_CLEAR,NIGHT_CLEAR,NIGHT_CLEAR,NIGHT_CLEAR,NIGHT_CLEAR,NIGHT_CLEAR,NIGHT_CLEAR,CLEAR,CLEAR,MOSTLY_CLOUDY,MOSTLY_CLOUDY,BRIEF_SHOWERS","Cross-shore,Cross-shore,Cross-shore,Cross-shore,Cross-shore,Cross-shore,Cross-shore,Cross-shore,Offshore,Offshore,Offshore,Cross-shore",12
5842041f4e65fad6a7708898,2023_12_07,21.62,-158.088,Laniakea,3.4583333333333335,1.6551666666666667,2.1435,26,25,"NIGHT_CLEAR,NIGHT_CLEAR,NIGHT_CLEAR,NIGHT_CLEAR,NIGHT_CLEAR,NIGHT_CLEAR,NIGHT_CLEAR,CLEAR,CLEAR,MOSTLY_CLOUDY,MOSTLY_CLOUDY,BRIEF_SHOWERS","Offshore,Offshore,Offshore,Offshore,Offshore,Offshore,Offshore,Offshore,Offshore,Offshore,Offshore,Onshore",12
5842041f4e65fad6a7708899,2023_12_07,21.625,-158.083,Chun's,3.9166666666666665,1.675,2.0025,25.25,25.25,"NIGHT_CLEAR,NIGHT_CLEAR,NIGHT_CLEAR,NIGHT_CLEAR,NIGHT_CLEAR,NIGHT_CLEAR,NIGHT_CLEAR,CLEAR,CLEAR,MOSTLY_CLOUDY,CLEAR,BRIEF_SHOWERS","Offshore,Offshore,Offshore,Offshore,Offshore,Offshore,Offshore,Offshore,Offshore,Offshore,Cross-shore,Onshore",12
5842041f4e65fad6a770889c,2023_12_07,21.286357895152136,-157.8515,South Shore - Ala Moana Park,2,0.4741666666666667,0.7816666666666666,26,26,"NIGHT_CLEAR,NIGHT_MOSTLY_CLEAR,NIGHT_MOSTLY_CLEAR,NIGHT_MOSTLY_CLOUDY,NIGHT_MOSTLY_CLEAR,NIGHT_SHOWERS,NIGHT_CLEAR,BRIEF_SHOWERS,MIST,BRIEF_SHOWERS,MOSTLY_CLEAR,MOSTLY_CLEAR","Offshore,Offshore,Offshore,Offshore,Offshore,Offshore,Cross-shore,Onshore,Onshore,Onshore,Cross-shore,Onshore",12
5842041f4e65fad6a770889d,2023_12_07,19.606,-155.978,Banyans,2.1525,0.42758333333333337,0.7292916666666667,26,25,"NIGHT_MOSTLY_CLEAR,NIGHT_MOSTLY_CLEAR,NIGHT_CLEAR,NIGHT_CLEAR,NIGHT_CLEAR,NIGHT_CLEAR,NIGHT_FOG,MOSTLY_CLOUDY,MOSTLY_CLEAR,CLEAR,CLEAR,CLEAR","Cross-shore,Cross-shore,Cross-shore,Offshore,Offshore,Offshore,Onshore,Cross-shore,Cross-shore,Cross-shore,Onshore,Onshore",12
5842041f4e65fad6a770889e,2023_12_07,20.029,-155.831,Kawaihae,1.8333333333333333,0.4444,0.595035,26,26,"NIGHT_BRIEF_SHOWERS,NIGHT_SHOWERS,NIGHT_BRIEF_SHOWERS,NIGHT_FOG,NIGHT_CLEAR,NIGHT_MOSTLY_CLOUDY,NIGHT_CLEAR,LIGHT_SHOWERS_POSSIBLE,BRIEF_SHOWERS,BRIEF_SHOWERS,CLEAR,CLEAR","Onshore,Onshore,Onshore,Onshore,Cross-shore,Cross-shore,Cross-shore,Offshore,Offshore,Offshore,Onshore,Onshore",12
5842041f4e65fad6a770889f,2023_12_07,33.07541383424675,-117.3105,Grandview,3.3333333333333335,1.0166666666666666,1.2516666666666667,16.833333333333332,16.833333333333332,"NIGHT_OVERCAST,NIGHT_OVERCAST,NIGHT_OVERCAST,NIGHT_MOSTLY_CLOUDY,NIGHT_MOSTLY_CLOUDY,NIGHT_BRIEF_SHOWERS,MOSTLY_CLOUDY,CLEAR,CLEAR,CLEAR,CLEAR,CLEAR","Offshore,Offshore,Offshore,Offshore,Offshore,Offshore,Offshore,Offshore,Onshore,Onshore,Onshore,Onshore",12
5842041f4e65fad6a77088a0,2023_12_07,33.065267421296596,-117.30577,Beacons,3.3333333333333335,1.02,1.2183333333333333,16.833333333333332,16.833333333333332,"NIGHT_OVERCAST,NIGHT_OVERCAST,NIGHT_OVERCAST,NIGHT_MOSTLY_CLOUDY,NIGHT_MOSTLY_CLOUDY,NIGHT_BRIEF_SHOWERS,MOSTLY_CLOUDY,CLEAR,CLEAR,CLEAR,CLEAR,CLEAR","Offshore,Offshore,Offshore,Offshore,Offshore,Offshore,Offshore,Offshore,Onshore,Onshore,Onshore,Onshore",12
5842041f4e65fad6a77088a2,2023_12_07,21.252,-157.805,Diamond Head,2.3608333333333333,0.6726077777777778,0.9858579166666667,26,25,"NIGHT_MOSTLY_CLEAR,NIGHT_MOSTLY_CLEAR,NIGHT_MOSTLY_CLOUDY,NIGHT_BRIEF_SHOWERS,NIGHT_MOSTLY_CLEAR,NIGHT_MOSTLY_CLEAR,NIGHT_MOSTLY_CLOUDY,CLEAR,BRIEF_SHOWERS,MOSTLY_CLOUDY,MIST,MOSTLY_CLEAR","Cross-shore,Cross-shore,Cross-shore,Cross-shore,Cross-shore,Cross-shore,Cross-shore,Onshore,Onshore,Onshore,Onshore,Onshore",12
5842041f4e65fad6a77088a3,2023_12_07,33.04694255008896,-117.29966,Moonlight State Beach,2.9166666666666665,1.0258333333333334,1.315,16.833333333333332,16.833333333333332,"NIGHT_OVERCAST,NIGHT_CLOUDY,NIGHT_CLOUDY,NIGHT_OVERCAST,NIGHT_MOSTLY_CLOUDY,NIGHT_OVERCAST,MOSTLY_CLOUDY,CLEAR,CLEAR,CLEAR,MIST,CLEAR","Offshore,Offshore,Offshore,Offshore,Cross-shore,Onshore,Offshore,Cross-shore,Onshore,Onshore,Onshore,Onshore",12
5842041f4e65fad6a77088a5,2023_12_07,33.08685865930869,-117.31532,Ponto,3.5833333333333335,1.3233333333333335,1.585,16.833333333333332,16.833333333333332,"NIGHT_OVERCAST,NIGHT_OVERCAST,NIGHT_OVERCAST,NIGHT_MOSTLY_CLOUDY,NIGHT_MOSTLY_CLOUDY,NIGHT_BRIEF_SHOWERS,MOSTLY_CLOUDY,CLEAR,CLEAR,CLEAR,CLEAR,CLEAR","Offshore,Offshore,Offshore,Offshore,Offshore,Offshore,Offshore,Offshore,Onshore,Onshore,Onshore,Onshore",12
5842041f4e65fad6a77088a6,2023_12_07,33.130343587871906,-117.33667796442558,Terra Mar Point,3.4166666666666665,0.8127333333333334,1.2577416666666668,17,17,"NIGHT_OVERCAST,NIGHT_OVERCAST,NIGHT_OVERCAST,NIGHT_BRIEF_SHOWERS,NIGHT_MIST,NIGHT_MOSTLY_CLOUDY,MOSTLY_CLOUDY,CLEAR,CLEAR,CLEAR,CLEAR,CLEAR","Onshore,Onshore,Onshore,Onshore,Onshore,Onshore,Cross-shore,Onshore,Onshore,Onshore,Onshore,Onshore",12
5842041f4e65fad6a77088af,2023_12_07,32.95916304183685,-117.26963,Del Mar,3.1666666666666665,1.49,1.7808333333333333,16,16,"NIGHT_OVERCAST,NIGHT_MIST,NIGHT_MIST,NIGHT_MIST,NIGHT_OVERCAST,NIGHT_OVERCAST,MOSTLY_CLOUDY,MOSTLY_CLOUDY,MIST,MIST,CLEAR,CLEAR","Cross-shore,Offshore,Offshore,Offshore,Offshore,Offshore,Offshore,Onshore,Onshore,Onshore,Onshore,Onshore",12
5842041f4e65fad6a77088b0,2023_12_07,32.97527261243354,-117.2721061331305,Del Mar Rivermouth,3.0833333333333335,1.3566666666666667,1.6524999999999999,16.833333333333332,16.833333333333332,"NIGHT_OVERCAST,NIGHT_MIST,NIGHT_MIST,NIGHT_MIST,NIGHT_MIST,NIGHT_MIST,MOSTLY_CLOUDY,MOSTLY_CLOUDY,MOSTLY_CLOUDY,MOSTLY_CLEAR,CLEAR,CLEAR","Cross-shore,Offshore,Offshore,Offshore,Offshore,Offshore,Offshore,Onshore,Onshore,Onshore,Onshore,Onshore",12
5842041f4e65fad6a77088b1,2023_12_07,33.01352178146273,-117.28219,Cardiff Reef,3.625,1.5526083333333334,1.9953444444444444,17,17,"NIGHT_CLOUDY,NIGHT_OVERCAST,NIGHT_OVERCAST,NIGHT_OVERCAST,NIGHT_MOSTLY_CLOUDY,NIGHT_DRIZZLE,MOSTLY_CLOUDY,CLEAR,CLEAR,CLEAR,CLEAR,CLEAR","Offshore,Offshore,Offshore,Offshore,Cross-shore,Cross-shore,Offshore,Cross-shore,Onshore,Onshore,Onshore,Onshore",12
5842041f4e65fad6a77088b3,2023_12_07,33.00211185876003,-117.281101957955,Seaside Reef,3.569166666666667,1.526913888888889,1.9652055555555554,17,17,"NIGHT_OVERCAST,NIGHT_MIST,NIGHT_MIST,NIGHT_MIST,NIGHT_OVERCAST,NIGHT_OVERCAST,MOSTLY_CLOUDY,MOSTLY_CLEAR,MOSTLY_CLOUDY,MOSTLY_CLEAR,CLEAR,CLEAR","Offshore,Offshore,Offshore,Offshore,Offshore,Offshore,Offshore,Cross-shore,Onshore,Onshore,Onshore,Onshore",12
5842041f4e65fad6a77088b4,2023_12_07,33.0341859796287,-117.29552,Swami's,3.9858333333333333,1.5120500000000001,1.9757638888888889,17,17,"NIGHT_CLOUDY,NIGHT_OVERCAST,NIGHT_OVERCAST,NIGHT_OVERCAST,NIGHT_MOSTLY_CLOUDY,NIGHT_DRIZZLE,MOSTLY_CLOUDY,CLEAR,CLEAR,CLEAR,MIST,CLEAR","Offshore,Offshore,Offshore,Offshore,Offshore,Cross-shore,Offshore,Cross-shore,Onshore,Onshore,Onshore,Onshore",12
5842041f4e65fad6a77088b7,2023_12_07,33.04569760260221,-117.2994,D Street,3.4166666666666665,1.3283333333333334,1.5891666666666668,16.75,16.75,"NIGHT_OVERCAST,NIGHT_CLOUDY,NIGHT_CLOUDY,NIGHT_OVERCAST,NIGHT_MOSTLY_CLOUDY,NIGHT_OVERCAST,MOSTLY_CLOUDY,CLEAR,CLEAR,CLEAR,CLEAR,CLEAR","Offshore,Offshore,Offshore,Offshore,Cross-shore,Onshore,Offshore,Cross-shore,Onshore,Onshore,Onshore,Onshore",12
5842041f4e65fad6a77088b8,2023_12_07,33.02090944350196,-117.28535,San Elijo State Beach,4.013333333333334,1.3183,1.7282583333333332,17,17,"NIGHT_CLOUDY,NIGHT_OVERCAST,NIGHT_OVERCAST,NIGHT_OVERCAST,NIGHT_MOSTLY_CLOUDY,NIGHT_DRIZZLE,MOSTLY_CLOUDY,CLEAR,CLEAR,CLEAR,MIST,CLEAR","Offshore,Offshore,Offshore,Offshore,Cross-shore,Cross-shore,Offshore,Cross-shore,Onshore,Onshore,Onshore,Onshore",12
5842041f4e65fad6a77088c2,2023_12_07,32.80662846492798,-117.2688764333725,PB Point,3.5833333333333335,1.5591666666666666,1.8633333333333333,16,16,"NIGHT_OVERCAST,NIGHT_OVERCAST,NIGHT_OVERCAST,NIGHT_OVERCAST,NIGHT_OVERCAST,NIGHT_OVERCAST,DRIZZLE,MOSTLY_CLOUDY,CLEAR,CLEAR,CLEAR,MOSTLY_CLOUDY","Cross-shore,Cross-shore,Cross-shore,Offshore,Cross-shore,Cross-shore,Offshore,Cross-shore,Cross-shore,Cross-shore,Cross-shore,Cross-shore",12
5842041f4e65fad6a77088c4,2023_12_07,32.8060476681448,-117.26479,Old Man's at Tourmaline,3.5833333333333335,1.2933333333333334,1.565,16,16,"NIGHT_OVERCAST,NIGHT_OVERCAST,NIGHT_OVERCAST,NIGHT_OVERCAST,NIGHT_OVERCAST,NIGHT_OVERCAST,DRIZZLE,MOSTLY_CLOUDY,CLEAR,CLEAR,CLEAR,MOSTLY_CLOUDY","Cross-shore,Cross-shore,Cross-shore,Offshore,Cross-shore,Cross-shore,Offshore,Offshore,Cross-shore,Cross-shore,Cross-shore,Cross-shore",12
5842041f4e65fad6a77088cb,2023_12_07,32.557056711256,-117.1327445020322,Tijuana Slough,3,0.9541666666666666,1.1425,17,17,"NIGHT_MIST,NIGHT_MIST,NIGHT_MIST,NIGHT_MIST,NIGHT_MIST,NIGHT_MOSTLY_CLOUDY,MIST,CLEAR,MOSTLY_CLEAR,MIST,BRIEF_SHOWERS,MOSTLY_CLOUDY","Cross-shore,Cross-shore,Cross-shore,Offshore,Offshore,Offshore,Offshore,Offshore,Onshore,Onshore,Onshore,Onshore",12
5842041f4e65fad6a77088cc,2023_12_07,32.863,-117.257,La Jolla Shores,3.0833333333333335,1.2,1.4341666666666666,16,16,"NIGHT_MIST,NIGHT_MIST,NIGHT_DRIZZLE,NIGHT_DRIZZLE,NIGHT_MIST,NIGHT_DRIZZLE,MIST,MOSTLY_CLOUDY,CLEAR,CLEAR,MIST,MOSTLY_CLOUDY","Onshore,Onshore,Onshore,Cross-shore,Offshore,Offshore,Offshore,Cross-shore,Cross-shore,Onshore,Onshore,Onshore",12
5842041f4e65fad6a77088ce,2023_12_07,32.67443657790586,-117.17421316238693,Coronado Beach,3.4166666666666665,1.2425,1.5133333333333334,16.833333333333332,16.833333333333332,"NIGHT_MIST,NIGHT_OVERCAST,NIGHT_OVERCAST,NIGHT_OVERCAST,NIGHT_OVERCAST,NIGHT_OVERCAST,OVERCAST,MOSTLY_CLOUDY,MOSTLY_CLOUDY,MOSTLY_CLEAR,MOSTLY_CLOUDY,MOSTLY_CLOUDY","Cross-shore,Offshore,Offshore,Offshore,Offshore,Onshore,Cross-shore,Onshore,Onshore,Onshore,Onshore,Onshore",12
5842041f4e65fad6a77088cf,2023_12_07,33.40484417640326,-117.60749,San Clemente State Beach,2.9166666666666665,0.7,1.0041666666666667,17,17,"NIGHT_OVERCAST,NIGHT_OVERCAST,NIGHT_MIST,NIGHT_MOSTLY_CLOUDY,NIGHT_MOSTLY_CLOUDY,NIGHT_BRIEF_SHOWERS,MOSTLY_CLOUDY,CLEAR,CLEAR,CLEAR,MOSTLY_CLOUDY,MOSTLY_CLOUDY","Cross-shore,Cross-shore,Cross-shore,Offshore,Cross-shore,Onshore,Offshore,Onshore,Onshore,Onshore,Onshore,Onshore",12
5842041f4e65fad6a77088d5,2023_12_07,33.4663042002114,-117.7168352817103,Strands,2.680833333333333,1.0295944444444445,1.410986111111111,17,17,"NIGHT_CLOUDY,NIGHT_CLOUDY,NIGHT_MIST,NIGHT_MIST,NIGHT_MIST,NIGHT_MIST,BRIEF_SHOWERS,MOSTLY_CLOUDY,MOSTLY_CLOUDY,MOSTLY_CLOUDY,MOSTLY_CLEAR,MOSTLY_CLOUDY","Cross-shore,Offshore,Offshore,Cross-shore,Cross-shore,Cross-shore,Offshore,Cross-shore,Onshore,Onshore,Onshore,Onshore",12
5842041f4e65fad6a77088d7,2023_12_07,33.4609858001748,-117.68535,Doheny State Beach,1.57,0.07083333333333333,0.3751888888888889,17,17,"NIGHT_OVERCAST,NIGHT_OVERCAST,NIGHT_OVERCAST,NIGHT_MOSTLY_CLOUDY,NIGHT_MOSTLY_CLOUDY,NIGHT_MOSTLY_CLOUDY,MOSTLY_CLOUDY,CLEAR,CLEAR,CLEAR,MOSTLY_CLOUDY,MOSTLY_CLOUDY","Offshore,Offshore,Offshore,Onshore,Onshore,Onshore,Offshore,Cross-shore,Onshore,Onshore,Onshore,Onshore",12
5842041f4e65fad6a77088dc,2023_12_07,33.50894790083017,-117.75243,Aliso Creek,2.75,0.5483333333333333,0.8516666666666667,17,17,"NIGHT_CLOUDY,NIGHT_CLOUDY,NIGHT_MIST,NIGHT_OVERCAST,NIGHT_MIST,NIGHT_MIST,MOSTLY_CLOUDY,MOSTLY_CLOUDY,MOSTLY_CLOUDY,MOSTLY_CLOUDY,MOSTLY_CLEAR,MOSTLY_CLOUDY","Offshore,Offshore,Offshore,Cross-shore,Onshore,Cross-shore,Offshore,Cross-shore,Cross-shore,Cross-shore,Onshore,Onshore",12
5842041f4e65fad6a77088dd,2023_12_07,33.5326591767067,-117.77764,Brooks Street,2.75,0.38833333333333336,0.695,17,17,"NIGHT_OVERCAST,NIGHT_OVERCAST,NIGHT_MIST,NIGHT_OVERCAST,NIGHT_OVERCAST,NIGHT_OVERCAST,OVERCAST,MOSTLY_CLOUDY,MOSTLY_CLOUDY,MOSTLY_CLOUDY,MOSTLY_CLOUDY,MOSTLY_CLOUDY","Cross-shore,Cross-shore,Cross-shore,Cross-shore,Cross-shore,Cross-shore,Offshore,Cross-shore,Cross-shore,Onshore,Onshore,Onshore",12
5842041f4e65fad6a77088de,2023_12_07,33.53561225884637,-117.7799,Thalia Street,3,0.44,0.745,17,17,"NIGHT_OVERCAST,NIGHT_OVERCAST,NIGHT_MIST,NIGHT_OVERCAST,NIGHT_OVERCAST,NIGHT_OVERCAST,OVERCAST,MOSTLY_CLOUDY,MOSTLY_CLOUDY,MOSTLY_CLOUDY,MOSTLY_CLOUDY,MOSTLY_CLOUDY","Offshore,Cross-shore,Cross-shore,Cross-shore,Cross-shore,Cross-shore,Cross-shore,Cross-shore,Cross-shore,Onshore,Onshore,Onshore",12
5842041f4e65fad6a77088e3,2023_12_07,33.54268310353641,-117.7916,Rockpile,3,0.5466666666666666,0.85,17,17,"NIGHT_OVERCAST,NIGHT_OVERCAST,NIGHT_MIST,NIGHT_OVERCAST,NIGHT_OVERCAST,NIGHT_OVERCAST,OVERCAST,MOSTLY_CLOUDY,MOSTLY_CLOUDY,MOSTLY_CLOUDY,MOSTLY_CLEAR,MOSTLY_CLOUDY","Offshore,Cross-shore,Cross-shore,Cross-shore,Cross-shore,Cross-shore,Cross-shore,Cross-shore,Cross-shore,Onshore,Cross-shore,Onshore",12
5842041f4e65fad6a77088e4,2023_12_07,33.7368459504689,-118.10342,"Seal Beach Pier, Southside",1.75,0.16166666666666668,0.4658333333333333,16.833333333333332,16.833333333333332,"NIGHT_OVERCAST,NIGHT_MIST,NIGHT_MIST,NIGHT_MIST,NIGHT_OVERCAST,NIGHT_MIST,CLOUDY,OVERCAST,MOSTLY_CLOUDY,MOSTLY_CLOUDY,MOSTLY_CLOUDY,OVERCAST","Offshore,Offshore,Offshore,Offshore,Offshore,Offshore,Offshore,Onshore,Onshore,Onshore,Onshore,Onshore",12
5842041f4e65fad6a77088e5,2023_12_07,33.73933701820233,-118.117,Ray Bay,1.75,0.18666666666666668,0.49166666666666664,16.75,16.75,"NIGHT_MIST,NIGHT_MIST,NIGHT_MIST,NIGHT_MIST,NIGHT_OVERCAST,NIGHT_OVERCAST,OVERCAST,OVERCAST,MOSTLY_CLOUDY,MOSTLY_CLOUDY,MOSTLY_CLOUDY,MOSTLY_CLOUDY","Offshore,Offshore,Offshore,Offshore,Offshore,Offshore,Offshore,Onshore,Onshore,Onshore,Onshore,Onshore",12
5842041f4e65fad6a77088e7,2023_12_07,33.728733,-118.08982,Surfside,2.75,1.0016666666666667,1.2433333333333334,16.833333333333332,16.833333333333332,"NIGHT_OVERCAST,NIGHT_MIST,NIGHT_MIST,NIGHT_MIST,NIGHT_OVERCAST,NIGHT_OVERCAST,DRIZZLE,OVERCAST,MOSTLY_CLOUDY,MOSTLY_CLOUDY,OVERCAST,OVERCAST","Offshore,Offshore,Offshore,Offshore,Offshore,Offshore,Offshore,Onshore,Onshore,Onshore,Onshore,Onshore",12
5842041f4e65fad6a77088e8,2023_12_07,33.68760321488161,-118.04236,Bolsa Chica State Beach,2.930833333333333,1.275825,1.5735138888888889,17,17,"NIGHT_OVERCAST,NIGHT_MIST,NIGHT_MIST,NIGHT_OVERCAST,NIGHT_OVERCAST,NIGHT_MIST,OVERCAST,MOSTLY_CLOUDY,MOSTLY_CLOUDY,CLEAR,OVERCAST,OVERCAST","Onshore,Onshore,Onshore,Onshore,Cross-shore,Cross-shore,Cross-shore,Onshore,Onshore,Onshore,Onshore,Onshore",12
5842041f4e65fad6a77088ea,2023_12_07,33.66704400178788,-118.0192,North HB Streets,2.930833333333333,1.2242277777777777,1.5635083333333333,17,17,"NIGHT_OVERCAST,NIGHT_MIST,NIGHT_MIST,NIGHT_MIST,NIGHT_OVERCAST,NIGHT_MIST,OVERCAST,CLEAR,CLEAR,CLEAR,OVERCAST,CLOUDY","Onshore,Onshore,Onshore,Onshore,Cross-shore,Cross-shore,Cross-shore,Offshore,Onshore,Onshore,Onshore,Onshore",12
5842041f4e65fad6a77088ed,2023_12_07,33.65475101379567,-118.00291,Huntington Beach Pier Southside,2.8475,1.0135888888888889,1.2552222222222222,17,17,"NIGHT_OVERCAST,NIGHT_OVERCAST,NIGHT_OVERCAST,NIGHT_OVERCAST,NIGHT_OVERCAST,NIGHT_OVERCAST,OVERCAST,CLEAR,CLEAR,CLEAR,OVERCAST,OVERCAST","Offshore,Offshore,Offshore,Offshore,Offshore,Offshore,Offshore,Onshore,Cross-shore,Cross-shore,Cross-shore,Onshore",12
5842041f4e65fad6a77088ee,2023_12_07,33.62778647706099,-117.95939,River Jetties,2.694166666666667,1.0714694444444444,1.3901555555555554,17,17,"NIGHT_OVERCAST,NIGHT_OVERCAST,NIGHT_MIST,NIGHT_MIST,NIGHT_MIST,NIGHT_MIST,MOSTLY_CLOUDY,BRIEF_SHOWERS,MOSTLY_CLOUDY,MOSTLY_CLOUDY,CLEAR,MOSTLY_CLOUDY","Offshore,Offshore,Offshore,Offshore,Offshore,Offshore,Offshore,Onshore,Onshore,Onshore,Onshore,Onshore",12
5842041f4e65fad6a77088f2,2023_12_07,33.605165797643664,-117.92500376701355,Newport Point,2.9166666666666665,0.5291666666666667,0.8325,16.833333333333332,16.833333333333332,"NIGHT_DRIZZLE,NIGHT_OVERCAST,NIGHT_MIST,NIGHT_MIST,NIGHT_MIST,NIGHT_OVERCAST,CLOUDY,MOSTLY_CLOUDY,MOSTLY_CLOUDY,CLEAR,CLEAR,MOSTLY_CLOUDY","Onshore,Onshore,Onshore,Onshore,Onshore,Cross-shore,Cross-shore,Offshore,Onshore,Onshore,Onshore,Onshore",12
5842041f4e65fad6a77088f3,2023_12_07,33.58982984726977,-117.87713,Corona del Mar,1,0.17242583333333333,0.269415,16.833333333333332,16.833333333333332,"NIGHT_OVERCAST,NIGHT_OVERCAST,NIGHT_MIST,NIGHT_MIST,NIGHT_MIST,NIGHT_OVERCAST,CLEAR,MOSTLY_CLOUDY,MOSTLY_CLOUDY,MOSTLY_CLOUDY,MOSTLY_CLOUDY,MOSTLY_CLOUDY","Offshore,Offshore,Offshore,Offshore,Offshore,Offshore,Offshore,Onshore,Cross-shore,Cross-shore,Onshore,Onshore",12
5842041f4e65fad6a77088f7,2023_12_07,34.00750300824362,-118.4971783496269,Santa Monica Pier,2.4166666666666665,0.37666666666666665,0.68,17,17,"NIGHT_MOSTLY_CLOUDY,NIGHT_BRIEF_SHOWERS,NIGHT_BRIEF_SHOWERS,NIGHT_BRIEF_SHOWERS,NIGHT_OVERCAST,NIGHT_MOSTLY_CLOUDY,MOSTLY_CLOUDY,CLEAR,CLEAR,MOSTLY_CLEAR,CLEAR,CLEAR","Offshore,Offshore,Offshore,Offshore,Offshore,Offshore,Offshore,Onshore,Onshore,Onshore,Onshore,Onshore",12
5842041f4e65fad6a77088ff,2023_12_07,33.94070283102945,-118.44321,Dockweiler Beach,2.9166666666666665,1.1747593055555556,1.4836947222222223,17,17,"NIGHT_OVERCAST,NIGHT_OVERCAST,NIGHT_OVERCAST,NIGHT_OVERCAST,NIGHT_OVERCAST,NIGHT_MIST,MOSTLY_CLOUDY,CLEAR,CLEAR,MIST,BRIEF_SHOWERS,BRIEF_SHOWERS","Onshore,Cross-shore,Cross-shore,Cross-shore,Offshore,Offshore,Offshore,Offshore,Onshore,Onshore,Onshore,Onshore",12
5842041f4e65fad6a7708900,2023_12_07,33.9231846937237,-118.4341465777908,Shitpipe,2.7916666666666665,1.0988972222222222,1.4720777777777778,17,17,"NIGHT_OVERCAST,NIGHT_CLOUDY,NIGHT_OVERCAST,NIGHT_CLOUDY,NIGHT_OVERCAST,NIGHT_MIST,MOSTLY_CLOUDY,MOSTLY_CLOUDY,CLEAR,CLEAR,MOSTLY_CLEAR,BRIEF_SHOWERS","Onshore,Cross-shore,Cross-shore,Cross-shore,Offshore,Offshore,Offshore,Offshore,Onshore,Onshore,Onshore,Onshore",12
5842041f4e65fad6a7708902,2023_12_07,33.9108528052242,-118.4279133138721,Hammerland,2.7641666666666667,1.3017722222222223,1.6782861111111111,17,17,"NIGHT_OVERCAST,NIGHT_CLOUDY,NIGHT_OVERCAST,NIGHT_CLOUDY,NIGHT_OVERCAST,NIGHT_MIST,MOSTLY_CLOUDY,MOSTLY_CLOUDY,CLEAR,CLEAR,BRIEF_SHOWERS,BRIEF_SHOWERS","Onshore,Onshore,Onshore,Onshore,Onshore,Onshore,Cross-shore,Onshore,Onshore,Onshore,Onshore,Onshore",12
5842041f4e65fad6a7708904,2023_12_07,33.87201368173932,-118.4075151286262,Hermosa Beach,2.8333333333333335,1.047786111111111,1.2794805555555555,17,17,"NIGHT_CLOUDY,NIGHT_CLOUDY,NIGHT_OVERCAST,NIGHT_OVERCAST,NIGHT_CLOUDY,NIGHT_MIST,MOSTLY_CLOUDY,CLEAR,CLEAR,CLEAR,CLEAR,BRIEF_SHOWERS","Onshore,Onshore,Cross-shore,Cross-shore,Offshore,Offshore,Offshore,Offshore,Onshore,Onshore,Onshore,Onshore",12
5842041f4e65fad6a7708906,2023_12_07,33.90129336911256,-118.42184,El Porto,2.7083333333333335,1.4552444444444443,1.8614111111111111,17,17,"NIGHT_CLOUDY,NIGHT_CLOUDY,NIGHT_OVERCAST,NIGHT_OVERCAST,NIGHT_CLOUDY,NIGHT_MIST,MOSTLY_CLOUDY,CLEAR,CLEAR,CLEAR,CLEAR,BRIEF_SHOWERS","Onshore,Onshore,Onshore,Onshore,Onshore,Onshore,Onshore,Onshore,Onshore,Onshore,Onshore,Onshore",12
5842041f4e65fad6a7708907,2023_12_07,33.87963506431794,-118.41102,Manhattan Beach Pier,2.7916666666666665,1.280736111111111,1.67475,17,17,"NIGHT_CLOUDY,NIGHT_CLOUDY,NIGHT_OVERCAST,NIGHT_OVERCAST,NIGHT_CLOUDY,NIGHT_MIST,MOSTLY_CLOUDY,CLEAR,CLEAR,CLEAR,MIST,BRIEF_SHOWERS","Onshore,Cross-shore,Cross-shore,Cross-shore,Offshore,Offshore,Offshore,Offshore,Onshore,Onshore,Onshore,Onshore",12
5842041f4e65fad6a7708914,2023_12_07,34.038053387863464,-118.5532,Sunset Point,2,0.1975,0.5008333333333334,17,17,"NIGHT_BRIEF_SHOWERS,NIGHT_BRIEF_SHOWERS,NIGHT_MIST,NIGHT_MIST,NIGHT_MOSTLY_CLOUDY,NIGHT_MOSTLY_CLOUDY,MOSTLY_CLEAR,BRIEF_SHOWERS,MIST,CLEAR,MOSTLY_CLEAR,CLEAR","Offshore,Cross-shore,Offshore,Onshore,Cross-shore,Onshore,Offshore,Cross-shore,Onshore,Cross-shore,Onshore,Cross-shore",12
5842041f4e65fad6a7708920,2023_12_07,33.80930828074364,-118.3933198342649,Haggerty's,2,0.23900000000000002,0.4225,17,17,"NIGHT_DRIZZLE,NIGHT_MIST,NIGHT_MIST,NIGHT_CLOUDY,NIGHT_OVERCAST,NIGHT_OVERCAST,CLOUDY,CLEAR,CLEAR,MIST,MIST,MIST","Onshore,Cross-shore,Offshore,Offshore,Offshore,Offshore,Offshore,Cross-shore,Onshore,Onshore,Onshore,Cross-shore",12
5842041f4e65fad6a7708921,2023_12_07,33.85044519861206,-118.40048,Redondo Breakwater,3.1666666666666665,1.32,1.5783333333333334,17,17,"NIGHT_CLOUDY,NIGHT_CLOUDY,NIGHT_OVERCAST,NIGHT_OVERCAST,NIGHT_CLOUDY,NIGHT_MIST,MOSTLY_CLOUDY,CLEAR,CLEAR,CLEAR,MIST,BRIEF_SHOWERS","Onshore,Onshore,Cross-shore,Cross-shore,Offshore,Offshore,Offshore,Offshore,Onshore,Onshore,Onshore,Onshore",12
5842041f4e65fad6a7708927,2023_12_07,33.70877301002487,-118.2840112858389,Cabrillo Beach,2,0.16333333333333333,0.4683333333333333,17,17,"NIGHT_DRIZZLE,NIGHT_MIST,NIGHT_MIST,NIGHT_DRIZZLE,NIGHT_MIST,NIGHT_DRIZZLE,MIST,OVERCAST,MOSTLY_CLOUDY,MOSTLY_CLOUDY,MOSTLY_CLOUDY,MOSTLY_CLOUDY","Onshore,Onshore,Onshore,Onshore,Onshore,Cross-shore,Onshore,Offshore,Offshore,Cross-shore,Onshore,Onshore",12
5842041f4e65fad6a770892c,2023_12_07,33.77209986806257,-118.4268428476672,Lunada Bay,2.3333333333333335,1.245,1.4875,17,17,"NIGHT_OVERCAST,NIGHT_MIST,NIGHT_MIST,NIGHT_MIST,NIGHT_MIST,NIGHT_CLOUDY,CLOUDY,CLEAR,CLEAR,CLEAR,MIST,MIST","Onshore,Onshore,Onshore,Onshore,Cross-shore,Offshore,Offshore,Offshore,Cross-shore,Onshore,Onshore,Onshore",12
5842041f4e65fad6a770892d,2023_12_07,33.79294656286144,-118.4070316699825,PV Cove,3,0.8254341666666667,1.0804583333333333,17,17,"NIGHT_DRIZZLE,NIGHT_MIST,NIGHT_MIST,NIGHT_CLOUDY,NIGHT_OVERCAST,NIGHT_OVERCAST,CLOUDY,CLEAR,CLEAR,MIST,MIST,MIST","Onshore,Cross-shore,Offshore,Offshore,Offshore,Offshore,Offshore,Cross-shore,Onshore,Onshore,Onshore,Onshore",12
5842041f4e65fad6a7708930,2023_12_07,34.03944902292561,-118.57539,Chart House,1.8333333333333333,0.075,0.3808333333333333,17,17,"NIGHT_MIST,NIGHT_MIST,NIGHT_MIST,NIGHT_BRIEF_SHOWERS,NIGHT_BRIEF_SHOWERS,NIGHT_MOSTLY_CLOUDY,CLEAR,CLEAR,BRIEF_SHOWERS,MOSTLY_CLEAR,MOSTLY_CLEAR,CLEAR","Offshore,Cross-shore,Cross-shore,Onshore,Cross-shore,Onshore,Offshore,Cross-shore,Cross-shore,Cross-shore,Cross-shore,Cross-shore",12
5842041f4e65fad6a7708936,2023_12_07,34.0016731994772,-118.80456,Point Dume,2,0.2864861111111111,0.5895,17,17,"NIGHT_CLEAR,NIGHT_MIST,NIGHT_BRIEF_SHOWERS,NIGHT_MIST,NIGHT_MOSTLY_CLOUDY,NIGHT_CLEAR,CLEAR,CLEAR,BRIEF_SHOWERS,MIST,MIST,MIST","Cross-shore,Cross-shore,Cross-shore,Cross-shore,Cross-shore,Cross-shore,Offshore,Cross-shore,Cross-shore,Cross-shore,Onshore,Cross-shore",12
5842041f4e65fad6a7708937,2023_12_07,34.02587527588963,-118.7554939066114,Latigo Point,2,0.14250000000000002,0.4475,17,17,"NIGHT_MIST,NIGHT_MIST,NIGHT_MIST,NIGHT_MIST,NIGHT_CLEAR,NIGHT_CLEAR,CLEAR,CLEAR,MIST,MIST,MIST,MIST","Cross-shore,Cross-shore,Cross-shore,Cross-shore,Cross-shore,Cross-shore,Offshore,Cross-shore,Cross-shore,Cross-shore,Cross-shore,Cross-shore",12
5842041f4e65fad6a770893f,2023_12_07,34.043762,-118.93294,Leo Carrillo,2.75,0.5831805555555556,0.9469027777777778,16,16,"NIGHT_CLEAR,NIGHT_CLEAR,NIGHT_MIST,NIGHT_CLEAR,NIGHT_CLEAR,NIGHT_CLEAR,CLEAR,MIST,MIST,MIST,MIST,CLEAR","Offshore,Offshore,Offshore,Offshore,Offshore,Offshore,Offshore,Onshore,Onshore,Onshore,Cross-shore,Cross-shore",12
5842041f4e65fad6a7708941,2023_12_07,36.69388179265737,-121.81289,Marina State Beach,2.1666666666666665,2.8366666666666664,3.3841666666666668,14.166666666666666,14.166666666666666,"NIGHT_CLEAR,NIGHT_MOSTLY_CLEAR,NIGHT_CLEAR,NIGHT_CLEAR,NIGHT_CLEAR,NIGHT_CLEAR,MOSTLY_CLOUDY,MOSTLY_CLOUDY,MOSTLY_CLOUDY,BRIEF_SHOWERS,MIST,MOSTLY_CLOUDY","Onshore,Onshore,Onshore,Onshore,Onshore,Onshore,Onshore,Onshore,Onshore,Onshore,Onshore,Onshore",12
5842041f4e65fad6a7708944,2023_12_07,34.34145077331085,-119.416999352654,Stanley's,2.75,0.5491666666666667,0.8541666666666667,16.166666666666668,16.166666666666668,"NIGHT_MIST,NIGHT_CLEAR,NIGHT_CLEAR,NIGHT_CLEAR,NIGHT_CLEAR,NIGHT_CLEAR,MIST,CLEAR,BRIEF_SHOWERS,MOSTLY_CLEAR,CLEAR,CLEAR","Offshore,Offshore,Offshore,Offshore,Offshore,Cross-shore,Onshore,Onshore,Onshore,Onshore,Onshore,Cross-shore",12
5842041f4e65fad6a7708945,2023_12_07,34.35113017313915,-119.426921498899,Oil Piers,2.75,0.4816666666666667,0.7841666666666667,16.166666666666668,16.166666666666668,"NIGHT_MIST,NIGHT_CLEAR,NIGHT_CLEAR,NIGHT_CLEAR,NIGHT_CLEAR,NIGHT_CLEAR,MIST,CLEAR,BRIEF_SHOWERS,MOSTLY_CLEAR,CLEAR,CLEAR","Offshore,Offshore,Offshore,Offshore,Offshore,Offshore,Cross-shore,Onshore,Onshore,Onshore,Cross-shore,Offshore",12
5842041f4e65fad6a770894c,2023_12_07,34.17876333306018,-119.2399483564372,Oxnard,3.3333333333333335,1.1008333333333333,1.3258333333333332,17,17,"NIGHT_MIST,NIGHT_MIST,NIGHT_MIST,NIGHT_MOSTLY_CLEAR,NIGHT_MOSTLY_CLEAR,NIGHT_MOSTLY_CLEAR,MOSTLY_CLOUDY,MOSTLY_CLOUDY,MOSTLY_CLOUDY,MOSTLY_CLOUDY,CLEAR,CLEAR","Offshore,Offshore,Offshore,Offshore,Offshore,Offshore,Offshore,Onshore,Onshore,Onshore,Onshore,Onshore",12
5842041f4e65fad6a7708957,2023_12_07,34.31720331100517,-119.3882324751725,Pitas Point,3,0.5683333333333334,0.8708333333333333,16,16,"NIGHT_MIST,NIGHT_CLEAR,NIGHT_CLEAR,NIGHT_CLEAR,NIGHT_CLEAR,NIGHT_CLEAR,CLEAR,BRIEF_SHOWERS,MIST,MIST,MOSTLY_CLEAR,CLEAR","Offshore,Offshore,Offshore,Offshore,Offshore,Offshore,Offshore,Onshore,Onshore,Onshore,Onshore,Onshore",12
5842041f4e65fad6a7708959,2023_12_07,34.27851754384724,-119.316202617226,Emma Wood,2.5833333333333335,0.5108333333333334,0.8166666666666667,16.166666666666668,16.166666666666668,"NIGHT_MIST,NIGHT_MIST,NIGHT_CLEAR,NIGHT_CLEAR,NIGHT_CLEAR,NIGHT_CLEAR,CLEAR,MIST,MIST,MIST,CLEAR,CLEAR","Offshore,Offshore,Offshore,Offshore,Offshore,Offshore,Cross-shore,Onshore,Onshore,Onshore,Onshore,Onshore",12
5842041f4e65fad6a770895a,2023_12_07,34.35513640390276,-119.4400589884255,Mussel Shoals (aka Little Rincon),3,0.8216666666666667,1.0616666666666668,16.25,16.25,"NIGHT_MIST,NIGHT_CLEAR,NIGHT_CLEAR,NIGHT_CLEAR,NIGHT_CLEAR,NIGHT_CLEAR,CLEAR,MIST,MIST,MIST,MOSTLY_CLEAR,CLEAR","Cross-shore,Offshore,Offshore,Offshore,Offshore,Cross-shore,Onshore,Onshore,Onshore,Onshore,Onshore,Cross-shore",12
5842041f4e65fad6a770895e,2023_12_07,34.28991757054902,-119.3366646794652,Summer Beach,2.5833333333333335,0.3591666666666667,0.6641666666666667,16,16,"NIGHT_MIST,NIGHT_MIST,NIGHT_CLEAR,NIGHT_CLEAR,NIGHT_CLEAR,NIGHT_CLEAR,CLEAR,MIST,MIST,MIST,MIST,CLEAR","Offshore,Offshore,Offshore,Offshore,Offshore,Offshore,Offshore,Onshore,Onshore,Onshore,Onshore,Onshore",12
5842041f4e65fad6a770895f,2023_12_07,34.30897456105926,-119.3582501170116,Solimar,2.75,0.37666666666666665,0.6816666666666666,16,16,"NIGHT_MIST,NIGHT_CLEAR,NIGHT_CLEAR,NIGHT_CLEAR,NIGHT_CLEAR,NIGHT_CLEAR,CLEAR,BRIEF_SHOWERS,MIST,MIST,MOSTLY_CLEAR,CLEAR","Offshore,Offshore,Offshore,Offshore,Offshore,Offshore,Offshore,Onshore,Onshore,Onshore,Cross-shore,Onshore",12
5842041f4e65fad6a7708960,2023_12_07,34.39836265281686,-119.70213,Leadbetter Point,2,0.085,0.38916666666666666,16,16,"NIGHT_CLEAR,NIGHT_CLEAR,NIGHT_CLEAR,NIGHT_CLEAR,NIGHT_MIST,NIGHT_CLEAR,CLEAR,CLEAR,CLEAR,CLEAR,CLEAR,CLEAR","Offshore,Offshore,Offshore,Offshore,Offshore,Offshore,Offshore,Onshore,Onshore,Onshore,Onshore,Onshore",12
5842041f4e65fad6a7708961,2023_12_07,34.46052293893899,-120.07328,Refugio,1,0.115,0.4225,16,16,"NIGHT_CLEAR,NIGHT_CLEAR,NIGHT_CLEAR,NIGHT_CLEAR,NIGHT_CLEAR,NIGHT_CLEAR,CLEAR,CLEAR,CLEAR,CLEAR,CLEAR,CLEAR","Offshore,Offshore,Offshore,Offshore,Offshore,Offshore,Offshore,Offshore,Offshore,Offshore,Offshore,Offshore",12
5842041f4e65fad6a7708962,2023_12_07,34.40754276777778,-119.87639,Devereux,2.75,0.6566666666666666,0.9608333333333333,16,16,"NIGHT_CLEAR,NIGHT_CLEAR,NIGHT_CLEAR,NIGHT_CLEAR,NIGHT_CLEAR,NIGHT_CLEAR,CLEAR,CLEAR,CLEAR,CLEAR,CLEAR,CLEAR","Offshore,Offshore,Offshore,Offshore,Offshore,Offshore,Offshore,Offshore,Offshore,Offshore,Offshore,Offshore",12
5842041f4e65fad6a7708963,2023_12_07,34.27479983305182,-119.3133222656776,Ventura Overhead,3,0.5691666666666667,0.8741666666666666,16.166666666666668,16.166666666666668,"NIGHT_MIST,NIGHT_CLEAR,NIGHT_CLEAR,NIGHT_CLEAR,NIGHT_CLEAR,NIGHT_CLEAR,CLEAR,MIST,MIST,MIST,CLEAR,CLEAR","Offshore,Offshore,Offshore,Offshore,Offshore,Offshore,Offshore,Onshore,Onshore,Onshore,Onshore,Onshore",12
5842041f4e65fad6a7708964,2023_12_07,34.41023236011655,-119.88261,Sands,2.25,0.6866666666666666,0.9908333333333333,16,16,"NIGHT_CLEAR,NIGHT_CLEAR,NIGHT_CLEAR,NIGHT_CLEAR,NIGHT_CLEAR,NIGHT_CLEAR,CLEAR,CLEAR,CLEAR,CLEAR,CLEAR,CLEAR","Cross-shore,Cross-shore,Cross-shore,Offshore,Offshore,Cross-shore,Offshore,Cross-shore,Cross-shore,Cross-shore,Cross-shore,Cross-shore",12
5842041f4e65fad6a7708966,2023_12_07,34.40450193869233,-119.68752,Sandspit,1.0833333333333333,8.333333333333334e-4,0.2525,16,16,"NIGHT_CLEAR,NIGHT_CLEAR,NIGHT_CLEAR,NIGHT_CLEAR,NIGHT_CLEAR,NIGHT_CLEAR,CLEAR,CLEAR,CLEAR,CLEAR,CLEAR,CLEAR","Offshore,Offshore,Offshore,Offshore,Offshore,Offshore,Offshore,Onshore,Onshore,Onshore,Onshore,Onshore",12
5842041f4e65fad6a7708967,2023_12_07,34.41549098334453,-119.6375149840203,Hammond's,1.8333333333333333,0.07333333333333333,0.37833333333333335,16,16,"NIGHT_CLEAR,NIGHT_CLEAR,NIGHT_CLEAR,NIGHT_CLEAR,NIGHT_CLEAR,NIGHT_CLEAR,CLEAR,CLEAR,CLEAR,CLEAR,CLEAR,CLEAR","Offshore,Offshore,Cross-shore,Offshore,Offshore,Offshore,Offshore,Onshore,Offshore,Offshore,Offshore,Offshore",12
5842041f4e65fad6a7708968,2023_12_07,34.45759322742309,-120.0220251867315,El Capitan,1,0.24833333333333335,0.555,16,16,"NIGHT_CLEAR,NIGHT_CLEAR,NIGHT_CLEAR,NIGHT_CLEAR,NIGHT_CLEAR,NIGHT_CLEAR,CLEAR,CLEAR,CLEAR,CLEAR,CLEAR,CLEAR","Offshore,Offshore,Offshore,Offshore,Offshore,Offshore,Offshore,Offshore,Offshore,Offshore,Offshore,Offshore",12
5842041f4e65fad6a770896c,2023_12_07,34.405117655616,-119.84317,Campus Point,2,0.2275,0.5308333333333334,16,16,"NIGHT_CLEAR,NIGHT_CLEAR,NIGHT_CLEAR,NIGHT_CLEAR,NIGHT_CLEAR,NIGHT_CLEAR,CLEAR,CLEAR,CLEAR,CLEAR,CLEAR,CLEAR","Offshore,Offshore,Offshore,Offshore,Offshore,Offshore,Offshore,Offshore,Offshore,Offshore,Offshore,Offshore",12
5842041f4e65fad6a770896e,2023_12_07,34.38935162233354,-119.51955,Carpinteria State Beach,3,0.7225,0.9975,16,16,"NIGHT_MIST,NIGHT_MIST,NIGHT_CLEAR,NIGHT_CLEAR,NIGHT_CLEAR,NIGHT_CLEAR,CLEAR,CLEAR,CLEAR,MIST,CLEAR,CLEAR","Onshore,Onshore,Onshore,Onshore,Onshore,Onshore,Onshore,Onshore,Onshore,Onshore,Onshore,Onshore",12
5842041f4e65fad6a770896f,2023_12_07,37.48296565175612,-122.4549300127824,Half Moon Bay,2.5833333333333335,2.1208333333333336,2.5341666666666667,14,14,"NIGHT_MOSTLY_CLOUDY,NIGHT_CLEAR,NIGHT_FOG,NIGHT_CLEAR,NIGHT_CLEAR,NIGHT_MOSTLY_CLOUDY,MOSTLY_CLEAR,CLEAR,MOSTLY_CLEAR,MOSTLY_CLOUDY,MOSTLY_CLOUDY,BRIEF_SHOWERS","Onshore,Onshore,Onshore,Cross-shore,Cross-shore,Onshore,Onshore,Onshore,Onshore,Onshore,Onshore,Onshore",12
5842041f4e65fad6a7708970,2023_12_07,37.499,-122.471,Princeton Jetty,2.8333333333333335,2.234166666666667,2.6625,14,14,"NIGHT_BRIEF_SHOWERS,NIGHT_MIST,NIGHT_SHOWERS,NIGHT_CLEAR,NIGHT_CLEAR,NIGHT_MOSTLY_CLOUDY,MOSTLY_CLEAR,MOSTLY_CLEAR,MOSTLY_CLEAR,MOSTLY_CLOUDY,MOSTLY_CLEAR,SHOWERS","Cross-shore,Cross-shore,Cross-shore,Cross-shore,Cross-shore,Cross-shore,Onshore,Onshore,Onshore,Onshore,Onshore,Onshore",12
5842041f4e65fad6a7708972,2023_12_07,37.35699547365155,-122.4069534707252,Tunitas Creek,2,3.5475,4.233333333333333,14,14,"NIGHT_FOG,NIGHT_CLEAR,NIGHT_CLEAR,NIGHT_CLEAR,NIGHT_MOSTLY_CLOUDY,NIGHT_CLEAR,CLEAR,MOSTLY_CLEAR,CLEAR,MOSTLY_CLOUDY,MOSTLY_CLOUDY,BRIEF_SHOWERS","Cross-shore,Onshore,Cross-shore,Cross-shore,Cross-shore,Cross-shore,Onshore,Onshore,Onshore,Onshore,Onshore,Onshore",12
5842041f4e65fad6a7708974,2023_12_07,37.54735589428842,-122.5161090212687,Montara,2,2.7441666666666666,3.2716666666666665,14,14,"NIGHT_MOSTLY_CLOUDY,NIGHT_CLEAR,NIGHT_MOSTLY_CLOUDY,NIGHT_MOSTLY_CLOUDY,NIGHT_MOSTLY_CLOUDY,NIGHT_MOSTLY_CLOUDY,CLEAR,MOSTLY_CLEAR,MOSTLY_CLEAR,MOSTLY_CLOUDY,MOSTLY_CLOUDY,SHOWERS","Onshore,Onshore,Onshore,Onshore,Onshore,Onshore,Onshore,Onshore,Onshore,Cross-shore,Cross-shore,Cross-shore",12
5842041f4e65fad6a7708975,2023_12_07,34.3869373724559,-119.5142334209018,Tarpits,2.8333333333333335,0.6225,0.9275,16,16,"NIGHT_CLEAR,NIGHT_CLEAR,NIGHT_CLEAR,NIGHT_CLEAR,NIGHT_CLEAR,NIGHT_CLEAR,CLEAR,CLEAR,CLEAR,CLEAR,CLEAR,CLEAR","Onshore,Onshore,Onshore,Onshore,Onshore,Onshore,Onshore,Cross-shore,Cross-shore,Cross-shore,Cross-shore,Onshore",12
5842041f4e65fad6a7708976,2023_12_07,37.59881852720143,-122.50463,Pacifica / Linda Mar,2.1666666666666665,1.2472972222222223,1.6952972222222222,14,14,"NIGHT_MOSTLY_CLOUDY,NIGHT_CLEAR,NIGHT_BRIEF_SHOWERS,NIGHT_MOSTLY_CLEAR,NIGHT_MOSTLY_CLEAR,NIGHT_MOSTLY_CLOUDY,MOSTLY_CLEAR,MOSTLY_CLEAR,MOSTLY_CLEAR,MOSTLY_CLEAR,MOSTLY_CLOUDY,BRIEF_SHOWERS","Onshore,Onshore,Onshore,Onshore,Onshore,Onshore,Onshore,Onshore,Onshore,Onshore,Cross-shore,Cross-shore",12
5842041f4e65fad6a7708978,2023_12_07,37.59883098461164,-122.5143843582282,Pedro Point,2.3333333333333335,2.66,3.1683333333333334,14,14,"NIGHT_MOSTLY_CLOUDY,NIGHT_CLEAR,NIGHT_MOSTLY_CLOUDY,NIGHT_BRIEF_SHOWERS,NIGHT_MOSTLY_CLOUDY,NIGHT_MOSTLY_CLOUDY,CLEAR,MOSTLY_CLEAR,MOSTLY_CLEAR,CLEAR,MOSTLY_CLOUDY,MOSTLY_CLOUDY","Onshore,Onshore,Onshore,Onshore,Onshore,Onshore,Onshore,Onshore,Cross-shore,Cross-shore,Cross-shore,Cross-shore",12
5842041f4e65fad6a7708979,2023_12_07,37.61081996647663,-122.4973287570634,Rockaway,2,2.7075,3.225,14,14,"NIGHT_MOSTLY_CLOUDY,NIGHT_CLEAR,NIGHT_BRIEF_SHOWERS,NIGHT_MOSTLY_CLEAR,NIGHT_MOSTLY_CLEAR,NIGHT_MOSTLY_CLOUDY,MOSTLY_CLEAR,MOSTLY_CLEAR,MOSTLY_CLEAR,MOSTLY_CLEAR,MOSTLY_CLEAR,BRIEF_SHOWERS","Onshore,Onshore,Onshore,Onshore,Onshore,Onshore,Onshore,Onshore,Onshore,Onshore,Cross-shore,Onshore",12
5842041f4e65fad6a770897a,2023_12_07,37.809987384424446,-122.4751353263855,Fort Point,3.0833333333333335,1.7033333333333334,2.035,14,14,"NIGHT_MOSTLY_CLEAR,NIGHT_CLEAR,NIGHT_CLEAR,NIGHT_CLEAR,NIGHT_MOSTLY_CLEAR,NIGHT_CLEAR,CLEAR,CLEAR,MOSTLY_CLEAR,MOSTLY_CLOUDY,BRIEF_SHOWERS,MOSTLY_CLOUDY","Cross-shore,Cross-shore,Cross-shore,Cross-shore,Cross-shore,Cross-shore,Cross-shore,Cross-shore,Cross-shore,Onshore,Onshore,Onshore",12
5842041f4e65fad6a770897c,2023_12_07,37.63422542967464,-122.4951,Sharp Park,1,2.7891666666666666,3.335,14,14,"NIGHT_MOSTLY_CLOUDY,NIGHT_CLEAR,NIGHT_MOSTLY_CLEAR,NIGHT_MOSTLY_CLEAR,NIGHT_MOSTLY_CLEAR,NIGHT_MOSTLY_CLOUDY,CLEAR,MOSTLY_CLEAR,CLEAR,MOSTLY_CLEAR,MOSTLY_CLOUDY,MOSTLY_CLOUDY","Onshore,Onshore,Onshore,Onshore,Onshore,Onshore,Onshore,Onshore,Onshore,Onshore,Onshore,Onshore",12
5842041f4e65fad6a770897d,2023_12_07,37.27313605072472,-122.4127387912554,Pescadero,2,3.348333333333333,4.0025,14,14,"NIGHT_CLEAR,NIGHT_CLEAR,NIGHT_MOSTLY_CLEAR,NIGHT_MOSTLY_CLOUDY,NIGHT_MOSTLY_CLOUDY,NIGHT_MOSTLY_CLOUDY,MOSTLY_CLOUDY,MOSTLY_CLOUDY,MOSTLY_CLOUDY,MOSTLY_CLOUDY,MOSTLY_CLOUDY,BRIEF_SHOWERS","Onshore,Onshore,Onshore,Onshore,Onshore,Onshore,Onshore,Onshore,Onshore,Onshore,Onshore,Cross-shore",12
5842041f4e65fad6a770897e,2023_12_07,37.18140279972666,-122.3926685899327,Pigeon Point,3,3.3141666666666665,3.9608333333333334,14,14,"NIGHT_BRIEF_SHOWERS,NIGHT_BRIEF_SHOWERS,NIGHT_BRIEF_SHOWERS,NIGHT_MOSTLY_CLOUDY,NIGHT_BRIEF_SHOWERS,NIGHT_MOSTLY_CLOUDY,MOSTLY_CLOUDY,MOSTLY_CLOUDY,MOSTLY_CLOUDY,MOSTLY_CLOUDY,CLEAR,MOSTLY_CLOUDY","Offshore,Cross-shore,Offshore,Offshore,Offshore,Offshore,Offshore,Cross-shore,Cross-shore,Cross-shore,Onshore,Onshore",12
5842041f4e65fad6a770897f,2023_12_07,37.11578956919415,-122.314699271291,Ano Nuevo,4,2.5825,3.085,14.166666666666666,14.166666666666666,"NIGHT_MOSTLY_CLOUDY,NIGHT_CLEAR,NIGHT_CLEAR,NIGHT_CLEAR,NIGHT_MOSTLY_CLOUDY,NIGHT_CLEAR,MOSTLY_CLEAR,MOSTLY_CLOUDY,MOSTLY_CLOUDY,MOSTLY_CLOUDY,CLEAR,MOSTLY_CLOUDY","Offshore,Offshore,Offshore,Offshore,Offshore,Offshore,Offshore,Offshore,Offshore,Offshore,Cross-shore,Onshore",12
5842041f4e65fad6a7708980,2023_12_07,37.09520872681598,-122.2805474707768,Waddell Creek,3,2.5741666666666667,3.0775,14.166666666666666,14.166666666666666,"NIGHT_MOSTLY_CLOUDY,NIGHT_CLEAR,NIGHT_CLEAR,NIGHT_CLEAR,NIGHT_MOSTLY_CLOUDY,NIGHT_CLEAR,MOSTLY_CLEAR,MOSTLY_CLOUDY,BRIEF_SHOWERS,MOSTLY_CLEAR,BRIEF_SHOWERS,MOSTLY_CLOUDY","Cross-shore,Cross-shore,Cross-shore,Offshore,Offshore,Offshore,Cross-shore,Cross-shore,Cross-shore,Cross-shore,Onshore,Onshore",12
5842041f4e65fad6a7708981,2023_12_07,36.96512852130351,-122.1252825495626,Four Mile,4,2.9191666666666665,3.4766666666666666,15,15,"NIGHT_CLEAR,NIGHT_CLEAR,NIGHT_CLEAR,NIGHT_CLEAR,NIGHT_CLEAR,NIGHT_MOSTLY_CLEAR,MOSTLY_CLEAR,BRIEF_SHOWERS,CLEAR,MOSTLY_CLOUDY,MOSTLY_CLOUDY,MOSTLY_CLEAR","Offshore,Offshore,Offshore,Offshore,Offshore,Offshore,Offshore,Offshore,Offshore,Offshore,Offshore,Cross-shore",12
5842041f4e65fad6a7708982,2023_12_07,37.04122807048655,-122.2333684729756,Scott Creek,3,2.6616666666666666,3.1766666666666667,14.166666666666666,14.166666666666666,"NIGHT_MOSTLY_CLOUDY,NIGHT_MOSTLY_CLEAR,NIGHT_MOSTLY_CLEAR,NIGHT_SHOWERS,NIGHT_CLEAR,NIGHT_MOSTLY_CLEAR,CLEAR,MOSTLY_CLOUDY,MIST,CLEAR,MOSTLY_CLOUDY,MOSTLY_CLOUDY","Cross-shore,Cross-shore,Cross-shore,Offshore,Offshore,Cross-shore,Cross-shore,Cross-shore,Cross-shore,Cross-shore,Onshore,Onshore",12
5842041f4e65fad6a7708983,2023_12_07,37.02350229387179,-122.21908,Davenport,3,2.8716666666666666,3.4283333333333332,15,15,"NIGHT_MOSTLY_CLOUDY,NIGHT_BRIEF_SHOWERS,NIGHT_MOSTLY_CLEAR,NIGHT_SHOWERS,NIGHT_CLEAR,NIGHT_MOSTLY_CLEAR,CLEAR,BRIEF_SHOWERS,MOSTLY_CLOUDY,CLEAR,MOSTLY_CLEAR,MOSTLY_CLOUDY","Cross-shore,Cross-shore,Cross-shore,Offshore,Offshore,Cross-shore,Cross-shore,Cross-shore,Cross-shore,Cross-shore,Cross-shore,Onshore",12
5842041f4e65fad6a7708986,2023_12_07,36.94905295955728,-122.0611823912244,Natural Bridges,3.1666666666666665,2.27,2.7133333333333334,14.166666666666666,14.166666666666666,"NIGHT_CLEAR,NIGHT_CLEAR,NIGHT_CLEAR,NIGHT_CLEAR,NIGHT_MOSTLY_CLEAR,NIGHT_CLEAR,CLEAR,CLEAR,MOSTLY_CLEAR,MOSTLY_CLOUDY,CLEAR,MOSTLY_CLEAR","Cross-shore,Offshore,Offshore,Offshore,Offshore,Offshore,Offshore,Cross-shore,Cross-shore,Cross-shore,Cross-shore,Cross-shore",12
5842041f4e65fad6a7708987,2023_12_07,36.95154854910425,-122.0420693940968,Mitchell's Cove,4,1.8041666666666667,2.1575,14.25,14.25,"NIGHT_CLEAR,NIGHT_CLEAR,NIGHT_CLEAR,NIGHT_CLEAR,NIGHT_CLEAR,NIGHT_CLEAR,CLEAR,CLEAR,CLEAR,MOSTLY_CLEAR,CLEAR,MOSTLY_CLEAR","Offshore,Offshore,Offshore,Offshore,Offshore,Offshore,Offshore,Offshore,Offshore,Cross-shore,Cross-shore,Cross-shore",12
5842041f4e65fad6a770898a,2023_12_07,36.9572312370203,-121.98177,26th Ave,3,2.2275,2.66,14,14,"NIGHT_CLEAR,NIGHT_CLEAR,NIGHT_CLEAR,NIGHT_CLEAR,NIGHT_CLEAR,NIGHT_CLEAR,CLEAR,MOSTLY_CLOUDY,CLEAR,MOSTLY_CLEAR,CLEAR,MOSTLY_CLEAR","Cross-shore,Cross-shore,Cross-shore,Cross-shore,Cross-shore,Cross-shore,Cross-shore,Cross-shore,Onshore,Onshore,Onshore,Onshore",12
5842041f4e65fad6a770898e,2023_12_07,36.91899972819882,-121.85536,Manresa,3,2.4274999999999998,2.901666666666667,14,14,"NIGHT_CLEAR,NIGHT_CLEAR,NIGHT_CLEAR,NIGHT_CLEAR,NIGHT_CLEAR,NIGHT_CLEAR,CLEAR,MOSTLY_CLOUDY,CLEAR,CLEAR,CLEAR,CLEAR","Cross-shore,Cross-shore,Cross-shore,Cross-shore,Offshore,Offshore,Offshore,Onshore,Onshore,Onshore,Onshore,Onshore",12
5842041f4e65fad6a7708990,2023_12_07,34.45747731928454,-120.34242,The Ranch,3,1.0033333333333334,1.2525,16,16,"NIGHT_CLEAR,NIGHT_CLEAR,NIGHT_CLEAR,NIGHT_CLEAR,NIGHT_CLEAR,NIGHT_CLEAR,CLEAR,CLEAR,CLEAR,CLEAR,CLEAR,CLEAR","Offshore,Offshore,Offshore,Offshore,Offshore,Offshore,Offshore,Offshore,Offshore,Offshore,Offshore,Offshore",12
5842041f4e65fad6a7708991,2023_12_07,34.50875036590315,-120.50348,Jalama,2.1666666666666665,1.685,2.0124999999999997,16,16,"NIGHT_CLEAR,NIGHT_MOSTLY_CLOUDY,NIGHT_CLEAR,NIGHT_CLEAR,NIGHT_CLEAR,NIGHT_CLEAR,CLEAR,CLEAR,CLEAR,CLEAR,CLEAR,CLEAR","Offshore,Cross-shore,Offshore,Offshore,Offshore,Offshore,Offshore,Cross-shore,Cross-shore,Cross-shore,Cross-shore,Cross-shore",12
5842041f4e65fad6a7708996,2023_12_07,34.68700870220497,-120.6111611019887,Surf Beach,1.3333333333333333,4.236666666666666,5.0616666666666665,15,15,"NIGHT_MOSTLY_CLOUDY,NIGHT_MOSTLY_CLOUDY,NIGHT_MOSTLY_CLOUDY,NIGHT_MOSTLY_CLOUDY,NIGHT_MOSTLY_CLOUDY,NIGHT_CLEAR,MOSTLY_CLOUDY,MOSTLY_CLOUDY,CLEAR,CLEAR,CLEAR,CLEAR","Onshore,Onshore,Cross-shore,Cross-shore,Cross-shore,Onshore,Onshore,Onshore,Onshore,Onshore,Onshore,Onshore",12
5842041f4e65fad6a770899c,2023_12_07,35.5730538161116,-121.1143362345574,Moonstone,2.8333333333333335,3.0766666666666667,3.6774999999999998,15.166666666666666,15.166666666666666,"NIGHT_CLEAR,NIGHT_CLEAR,NIGHT_CLEAR,NIGHT_CLEAR,NIGHT_CLEAR,NIGHT_CLEAR,CLEAR,CLEAR,CLEAR,CLEAR,CLEAR,CLEAR","Cross-shore,Cross-shore,Offshore,Offshore,Offshore,Offshore,Cross-shore,Onshore,Onshore,Onshore,Onshore,Onshore",12
5842041f4e65fad6a770899d,2023_12_07,35.61533716776573,-121.1502053073914,Pico Creek,2.75,2.1866666666666665,2.6141666666666667,15,15,"NIGHT_CLEAR,NIGHT_CLEAR,NIGHT_CLEAR,NIGHT_CLEAR,NIGHT_CLEAR,NIGHT_CLEAR,CLEAR,CLEAR,CLEAR,CLEAR,CLEAR,CLEAR","Cross-shore,Cross-shore,Cross-shore,Offshore,Offshore,Offshore,Cross-shore,Onshore,Onshore,Onshore,Onshore,Onshore",12
5842041f4e65fad6a770899e,2023_12_07,35.56829031927379,-121.1120653023953,Santa Rosa Creek,2.75,3.0741666666666667,3.6733333333333333,15.166666666666666,15.166666666666666,"NIGHT_CLEAR,NIGHT_CLEAR,NIGHT_CLEAR,NIGHT_CLEAR,NIGHT_CLEAR,NIGHT_CLEAR,CLEAR,CLEAR,CLEAR,CLEAR,CLEAR,CLEAR","Cross-shore,Cross-shore,Cross-shore,Offshore,Offshore,Offshore,Cross-shore,Cross-shore,Cross-shore,Cross-shore,Cross-shore,Cross-shore",12
5842041f4e65fad6a77089a2,2023_12_07,35.44820114936284,-120.90715,"Cayucos Pier, Southside ",3,1.4975,1.8016666666666667,15,15,"NIGHT_CLEAR,NIGHT_CLEAR,NIGHT_CLEAR,NIGHT_CLEAR,NIGHT_CLEAR,NIGHT_CLEAR,CLEAR,CLEAR,CLEAR,CLEAR,CLEAR,CLEAR","Cross-shore,Offshore,Offshore,Offshore,Offshore,Offshore,Offshore,Offshore,Offshore,Cross-shore,Cross-shore,Cross-shore",12
5842041f4e65fad6a77089a4,2023_12_07,35.30143372628852,-120.877819239902,Cable Landing,2.6666666666666665,4.200833333333334,5.0225,15,15,"NIGHT_CLEAR,NIGHT_CLOUDY,NIGHT_FOG,NIGHT_MOSTLY_CLOUDY,NIGHT_MOSTLY_CLOUDY,NIGHT_CLEAR,CLEAR,CLEAR,CLEAR,CLEAR,CLEAR,CLEAR","Onshore,Onshore,Onshore,Cross-shore,Offshore,Offshore,Cross-shore,Cross-shore,Onshore,Onshore,Onshore,Onshore",12
5842041f4e65fad6a77089a9,2023_12_07,35.61269103500222,-121.1480725356606,San Simeon,3,1.49975,1.7931666666666666,15,15,"NIGHT_CLEAR,NIGHT_CLEAR,NIGHT_CLEAR,NIGHT_CLEAR,NIGHT_CLEAR,NIGHT_CLEAR,CLEAR,CLEAR,CLEAR,CLEAR,CLEAR,CLEAR","Offshore,Cross-shore,Offshore,Offshore,Offshore,Offshore,Offshore,Cross-shore,Cross-shore,Cross-shore,Cross-shore,Cross-shore",12
5842041f4e65fad6a77089ab,2023_12_07,35.1775325966252,-120.7341125142258,Avila Beach,1.8333333333333333,0.12916666666666668,0.43166666666666664,15,15,"NIGHT_CLEAR,NIGHT_CLEAR,NIGHT_CLEAR,NIGHT_CLEAR,NIGHT_CLEAR,NIGHT_CLEAR,CLEAR,CLEAR,CLEAR,CLEAR,CLEAR,CLEAR","Offshore,Offshore,Offshore,Offshore,Offshore,Offshore,Offshore,Offshore,Offshore,Offshore,Cross-shore,Cross-shore",12
5842041f4e65fad6a77089ac,2023_12_07,35.13877877884115,-120.64535,Pismo Beach Pier,2.555833333333333,1.9587083333333333,2.5293583333333336,15,15,"NIGHT_CLEAR,NIGHT_FOG,NIGHT_OVERCAST,NIGHT_CLEAR,NIGHT_CLEAR,NIGHT_CLEAR,CLEAR,CLEAR,CLEAR,CLEAR,CLEAR,CLEAR","Cross-shore,Onshore,Cross-shore,Onshore,Cross-shore,Onshore,Onshore,Onshore,Onshore,Onshore,Onshore,Onshore",12
5842041f4e65fad6a77089ad,2023_12_07,46.8907710233147,-124.12964,Westport/Olympic Peninsula,1.1666666666666667,2.5341666666666667,3.029166666666667,10,10,"NIGHT_BRIEF_SHOWERS_POSSIBLE,NIGHT_DRIZZLE,NIGHT_BRIEF_SHOWERS,NIGHT_CLEAR,NIGHT_CLOUDY,NIGHT_MOSTLY_CLOUDY,NIGHT_MOSTLY_CLOUDY,CLOUDY,CLEAR,CLEAR,CLEAR,CLEAR","Onshore,Onshore,Onshore,Onshore,Onshore,Cross-shore,Onshore,Onshore,Cross-shore,Onshore,Onshore,Onshore",12
5842041f4e65fad6a77089ae,2023_12_07,46.35185177248545,-124.06747,Long Beach Peninsula,0.6666666666666666,3.8741666666666665,4.604166666666667,10,10,"NIGHT_CLEAR,NIGHT_BRIEF_SHOWERS,NIGHT_CLEAR,NIGHT_MOSTLY_CLOUDY,NIGHT_MOSTLY_CLOUDY,NIGHT_MOSTLY_CLOUDY,NIGHT_OVERCAST,CLOUDY,CLEAR,CLEAR,MOSTLY_CLOUDY,MOSTLY_CLOUDY","Onshore,Onshore,Onshore,Onshore,Onshore,Onshore,Cross-shore,Onshore,Onshore,Onshore,Onshore,Onshore",12
5842041f4e65fad6a77089af,2023_12_07,47.90649175554033,-124.6370864743483,La Push,2.75,3.0041666666666664,3.5825,9,9,"NIGHT_MOSTLY_CLOUDY,NIGHT_OVERCAST,NIGHT_MIST,NIGHT_MIST,NIGHT_CLEAR,NIGHT_LIGHT_SHOWERS_POSSIBLE,NIGHT_LIGHT_RAIN,OVERCAST,BRIEF_SHOWERS_POSSIBLE,CLEAR,CLOUDY,MOSTLY_CLOUDY","Cross-shore,Onshore,Onshore,Onshore,Cross-shore,Cross-shore,Cross-shore,Cross-shore,Cross-shore,Cross-shore,Cross-shore,Cross-shore",12
5842041f4e65fad6a77089b0,2023_12_07,42.04368239985442,-124.26828,Brookings Jetty,2.25,1.942205,3.0346958333333336,12,12,"NIGHT_MOSTLY_CLOUDY,NIGHT_MOSTLY_CLOUDY,NIGHT_LIGHT_RAIN,NIGHT_BRIEF_SHOWERS_POSSIBLE,NIGHT_CLEAR,NIGHT_RAIN,NIGHT_BRIEF_SHOWERS,MOSTLY_CLOUDY,BRIEF_SHOWERS_POSSIBLE,MOSTLY_CLOUDY,CLEAR,CLEAR","Onshore,Onshore,Onshore,Onshore,Onshore,Onshore,Onshore,Cross-shore,Offshore,Cross-shore,Cross-shore,Cross-shore",12
5842041f4e65fad6a77089b1,2023_12_07,42.74071837900346,-124.4983727491047,Port Orford,2.5,2.515833333333333,3.006666666666667,12,12,"NIGHT_MOSTLY_CLOUDY,NIGHT_MOSTLY_CLOUDY,NIGHT_CLOUDY,NIGHT_HEAVY_RAIN,NIGHT_BRIEF_SHOWERS_POSSIBLE,NIGHT_MOSTLY_CLOUDY,NIGHT_MOSTLY_CLOUDY,LIGHT_SHOWERS_POSSIBLE,MIST,MIST,BRIEF_SHOWERS,CLEAR","Onshore,Onshore,Onshore,Onshore,Onshore,Onshore,Onshore,Cross-shore,Onshore,Cross-shore,Offshore,Offshore",12
5842041f4e65fad6a77089b2,2023_12_07,44.01532689312291,-124.13865,Florence South Jetty,1.3333333333333333,4.028333333333333,4.769166666666667,11,11,"NIGHT_BRIEF_SHOWERS,NIGHT_MOSTLY_CLOUDY,NIGHT_MOSTLY_CLOUDY,NIGHT_CLEAR,NIGHT_MOSTLY_CLOUDY,NIGHT_LIGHT_RAIN,NIGHT_CLEAR,HEAVY_RAIN,MOSTLY_CLOUDY,MOSTLY_CLOUDY,CLEAR,CLEAR","Onshore,Onshore,Onshore,Onshore,Onshore,Onshore,Cross-shore,Onshore,Onshore,Onshore,Onshore,Onshore",12
5842041f4e65fad6a77089b3,2023_12_07,42.41812540774362,-124.42945,Gold Beach South Jetty,1.8333333333333333,3.5283333333333333,4.210833333333333,12,12,"NIGHT_SHOWERS,NIGHT_CLEAR,NIGHT_CLEAR,NIGHT_CLEAR,NIGHT_CLOUDY,NIGHT_OVERCAST,NIGHT_HEAVY_SHOWERS,MOSTLY_CLOUDY,MOSTLY_CLOUDY,MOSTLY_CLOUDY,MIST,CLEAR","Onshore,Onshore,Onshore,Onshore,Onshore,Onshore,Offshore,Offshore,Offshore,Onshore,Cross-shore,Offshore",12
5842041f4e65fad6a77089b4,2023_12_07,44.95857310226525,-124.0219017690976,Lincoln City,0.8333333333333334,3.8066666666666666,4.5025,11,11,"NIGHT_MOSTLY_CLOUDY,NIGHT_OVERCAST,NIGHT_BRIEF_SHOWERS,NIGHT_CLOUDY,NIGHT_CLOUDY,NIGHT_MOSTLY_CLOUDY,NIGHT_LIGHT_RAIN,CLEAR,CLEAR,CLEAR,CLEAR,MOSTLY_CLOUDY","Onshore,Onshore,Onshore,Onshore,Onshore,Onshore,Onshore,Onshore,Onshore,Onshore,Onshore,Onshore",12
5842041f4e65fad6a77089b5,2023_12_07,44.63792761362982,-124.0657,Newport,0.75,4.2250000000000005,5.001666666666667,11,11,"NIGHT_MOSTLY_CLOUDY,NIGHT_MOSTLY_CLOUDY,NIGHT_CLEAR,NIGHT_CLOUDY,NIGHT_MOSTLY_CLOUDY,NIGHT_CLEAR,NIGHT_OVERCAST,OVERCAST,HEAVY_SHOWERS,CLEAR,MOSTLY_CLEAR,MOSTLY_CLOUDY","Onshore,Onshore,Onshore,Onshore,Onshore,Onshore,Onshore,Onshore,Onshore,Onshore,Onshore,Onshore",12
5842041f4e65fad6a77089b6,2023_12_07,45.61468496266301,-123.94643,Rockaway Beach,0.8333333333333334,3.8725,4.5808333333333335,11,11,"NIGHT_CLEAR,NIGHT_MOSTLY_CLOUDY,NIGHT_CLEAR,NIGHT_CLEAR,NIGHT_CLOUDY,NIGHT_SHOWERS,NIGHT_LIGHT_RAIN,MOSTLY_CLOUDY,MOSTLY_CLOUDY,MOSTLY_CLOUDY,CLEAR,CLEAR","Onshore,Onshore,Onshore,Onshore,Cross-shore,Cross-shore,Onshore,Onshore,Onshore,Onshore,Onshore,Onshore",12
5842041f4e65fad6a77089b7,2023_12_07,45.20252914186085,-123.96975,Pacific City,1.1666666666666667,3.515833333333333,4.161666666666667,11,11,"NIGHT_BRIEF_SHOWERS,NIGHT_MOSTLY_CLOUDY,NIGHT_MOSTLY_CLOUDY,NIGHT_OVERCAST,NIGHT_OVERCAST,NIGHT_HEAVY_SHOWERS,NIGHT_OVERCAST,MOSTLY_CLOUDY,MOSTLY_CLOUDY,MOSTLY_CLOUDY,BRIEF_SHOWERS,BRIEF_SHOWERS","Onshore,Onshore,Onshore,Onshore,Onshore,Onshore,Onshore,Onshore,Cross-shore,Onshore,Cross-shore,Onshore",12
5842041f4e65fad6a77089b8,2023_12_07,45.88179930310263,-123.96681,Cannon Beach,1,3.7041666666666666,4.41,10,10,"NIGHT_LIGHT_RAIN,NIGHT_HEAVY_SHOWERS,NIGHT_MOSTLY_CLOUDY,NIGHT_MOSTLY_CLOUDY,NIGHT_MOSTLY_CLOUDY,NIGHT_BRIEF_SHOWERS,NIGHT_HEAVY_RAIN,MOSTLY_CLOUDY,MOSTLY_CLOUDY,SHOWERS,MOSTLY_CLOUDY,MOSTLY_CLEAR","Onshore,Onshore,Onshore,Onshore,Onshore,Cross-shore,Onshore,Onshore,Onshore,Onshore,Onshore,Onshore",12
5842041f4e65fad6a77089ba,2023_12_07,40.02528754746774,-124.06372,Shelter Cove,2,1.0466075,1.6353233333333332,13,13,"NIGHT_MOSTLY_CLOUDY,NIGHT_FOG,NIGHT_MOSTLY_CLOUDY,NIGHT_MOSTLY_CLOUDY,NIGHT_CLOUDY,NIGHT_LIGHT_RAIN,CLOUDY,CLEAR,MOSTLY_CLEAR,CLEAR,MOSTLY_CLEAR,CLEAR","Onshore,Onshore,Onshore,Onshore,Onshore,Onshore,Onshore,Cross-shore,Offshore,Offshore,Offshore,Offshore",12
5842041f4e65fad6a77089bb,2023_12_07,40.76816197136951,-124.24248,Humboldt Harbor Entrance,1.5,4.265,5.095833333333333,13,13,"NIGHT_MOSTLY_CLOUDY,NIGHT_BRIEF_SHOWERS,NIGHT_MOSTLY_CLOUDY,NIGHT_CLOUDY,NIGHT_RAIN,NIGHT_LIGHT_RAIN,NIGHT_MOSTLY_CLOUDY,CLEAR,CLEAR,CLEAR,BRIEF_SHOWERS,CLEAR","Onshore,Onshore,Cross-shore,Cross-shore,Cross-shore,Cross-shore,Onshore,Onshore,Onshore,Onshore,Onshore,Onshore",12
5842041f4e65fad6a77089bc,2023_12_07,40.76684246920174,-124.23107,North Jetty,1.5833333333333333,4.8149999999999995,5.7058333333333335,13,13,"NIGHT_MOSTLY_CLOUDY,NIGHT_BRIEF_SHOWERS,NIGHT_MOSTLY_CLOUDY,NIGHT_CLEAR,NIGHT_RAIN,NIGHT_DRIZZLE,NIGHT_LIGHT_RAIN,MOSTLY_CLOUDY,CLEAR,CLEAR,MOSTLY_CLOUDY,CLEAR","Onshore,Cross-shore,Cross-shore,Cross-shore,Cross-shore,Offshore,Onshore,Onshore,Onshore,Onshore,Onshore,Onshore",12
5842041f4e65fad6a77089bd,2023_12_07,41.02731183893966,-124.1149972888982,Westhaven,1.5,5.949166666666667,7.0633333333333335,13,13,"NIGHT_FOG,NIGHT_FOG,NIGHT_CLEAR,NIGHT_CLOUDY,NIGHT_DRIZZLE,NIGHT_LIGHT_RAIN,NIGHT_OVERCAST,BRIEF_SHOWERS,CLEAR,MOSTLY_CLEAR,MIST,MOSTLY_CLOUDY","Cross-shore,Onshore,Onshore,Cross-shore,Cross-shore,Cross-shore,Onshore,Onshore,Onshore,Onshore,Onshore,Onshore",12
5842041f4e65fad6a77089be,2023_12_07,41.13016238153297,-124.16466,Sue-meg,2.25,3.8425,4.573333333333333,13,13,"NIGHT_MOSTLY_CLOUDY,NIGHT_MOSTLY_CLOUDY,NIGHT_CLEAR,NIGHT_CLOUDY,NIGHT_RAIN,NIGHT_LIGHT_RAIN,NIGHT_MOSTLY_CLOUDY,CLEAR,SHOWERS,CLEAR,MOSTLY_CLOUDY,CLEAR","Cross-shore,Cross-shore,Cross-shore,Cross-shore,Offshore,Offshore,Cross-shore,Onshore,Onshore,Onshore,Onshore,Onshore",12
5842041f4e65fad6a77089bf,2023_12_07,37.8289474958188,-122.5376795097543,Fort Cronkite/Rodeo Beach,2,3.3716666666666666,4.015833333333333,14,14,"NIGHT_CLEAR,NIGHT_MOSTLY_CLOUDY,NIGHT_CLEAR,NIGHT_CLEAR,NIGHT_CLEAR,NIGHT_MOSTLY_CLEAR,BRIEF_SHOWERS,MOSTLY_CLEAR,MOSTLY_CLEAR,MOSTLY_CLOUDY,MOSTLY_CLOUDY,MOSTLY_CLOUDY","Cross-shore,Cross-shore,Cross-shore,Cross-shore,Cross-shore,Cross-shore,Cross-shore,Onshore,Onshore,Onshore,Onshore,Onshore",12
5842041f4e65fad6a77089c0,2023_12_07,41.74415759876137,-124.1771718063073,South Beach CA,2.25,2.1491666666666664,2.5716666666666668,12.833333333333334,12.833333333333334,"NIGHT_MOSTLY_CLOUDY,NIGHT_CLEAR,NIGHT_LIGHT_SHOWERS_POSSIBLE,NIGHT_OVERCAST,NIGHT_LIGHT_SHOWERS_POSSIBLE,NIGHT_HEAVY_RAIN,NIGHT_OVERCAST,CLEAR,MOSTLY_CLOUDY,MOSTLY_CLOUDY,MOSTLY_CLOUDY,MOSTLY_CLOUDY","Onshore,Onshore,Onshore,Onshore,Onshore,Onshore,Onshore,Cross-shore,Cross-shore,Cross-shore,Offshore,Offshore",12
5842041f4e65fad6a77089c1,2023_12_07,37.89801283969752,-122.64519,Stinson Beach,3,0.8425,1.0725,14,14,"NIGHT_FOG,NIGHT_BRIEF_SHOWERS,NIGHT_FOG,NIGHT_FOG,NIGHT_CLEAR,NIGHT_MIST,SHOWERS,SHOWERS,SHOWERS,BRIEF_SHOWERS,SHOWERS,BRIEF_SHOWERS","Cross-shore,Onshore,Offshore,Onshore,Offshore,Offshore,Offshore,Onshore,Cross-shore,Cross-shore,Offshore,Offshore",12
5842041f4e65fad6a77089c2,2023_12_07,37.90514516176495,-122.68151,Bolinas,3.75,0.9284416666666666,1.45069,14,14,"NIGHT_MOSTLY_CLEAR,NIGHT_FOG,NIGHT_FOG,NIGHT_SHOWERS,NIGHT_CLEAR,NIGHT_MOSTLY_CLEAR,BRIEF_SHOWERS,MOSTLY_CLEAR,MOSTLY_CLEAR,MOSTLY_CLOUDY,LIGHT_RAIN,BRIEF_SHOWERS","Onshore,Onshore,Cross-shore,Onshore,Offshore,Cross-shore,Cross-shore,Onshore,Offshore,Offshore,Offshore,Offshore",12
5842041f4e65fad6a77089c3,2023_12_07,38.04892513158693,-122.9892494965416,Point Reyes (north),1.5,4.221666666666667,5.036666666666667,14,14,"NIGHT_CLOUDY,NIGHT_CLOUDY,NIGHT_MOSTLY_CLOUDY,NIGHT_FOG,NIGHT_CLEAR,NIGHT_FOG,MOSTLY_CLOUDY,MOSTLY_CLOUDY,MOSTLY_CLOUDY,BRIEF_SHOWERS,SHOWERS,CLEAR","Onshore,Onshore,Onshore,Onshore,Onshore,Onshore,Onshore,Cross-shore,Cross-shore,Onshore,Cross-shore,Onshore",12
5842041f4e65fad6a77089c6,2023_12_07,38.31088736605785,-123.0496777333731,Doran Beach,2.9166666666666665,1.1183333333333334,1.3458333333333332,13.166666666666666,13.166666666666666,"NIGHT_MOSTLY_CLOUDY,NIGHT_BRIEF_SHOWERS,NIGHT_MOSTLY_CLOUDY,NIGHT_MOSTLY_CLOUDY,NIGHT_MOSTLY_CLOUDY,NIGHT_MOSTLY_CLOUDY,FOG,MOSTLY_CLOUDY,BRIEF_SHOWERS,MOSTLY_CLOUDY,CLEAR,CLEAR","Offshore,Offshore,Offshore,Offshore,Offshore,Offshore,Cross-shore,Onshore,Onshore,Cross-shore,Offshore,Offshore",12
5842041f4e65fad6a77089c7,2023_12_07,38.45077228660809,-123.13008,Russian Rivermouth,2,3.2491666666666665,3.8633333333333333,13.166666666666666,13.166666666666666,"NIGHT_FOG,NIGHT_FOG,NIGHT_FOG,NIGHT_MOSTLY_CLOUDY,NIGHT_MIST,NIGHT_FOG,BRIEF_SHOWERS,OVERCAST,RAIN,MOSTLY_CLOUDY,CLEAR,CLEAR","Onshore,Onshore,Onshore,Onshore,Onshore,Onshore,Onshore,Onshore,Onshore,Onshore,Onshore,Onshore",12
5842041f4e65fad6a77089c8,2023_12_07,38.35329968518107,-123.06906,Salmon Creek,1.75,3.1925,3.8025,13.166666666666666,13.166666666666666,"NIGHT_CLEAR,NIGHT_MOSTLY_CLOUDY,NIGHT_CLEAR,NIGHT_MOSTLY_CLOUDY,NIGHT_MOSTLY_CLOUDY,NIGHT_FOG,MOSTLY_CLOUDY,MOSTLY_CLOUDY,LIGHT_RAIN,CLEAR,MOSTLY_CLOUDY,MOSTLY_CLEAR","Onshore,Onshore,Onshore,Onshore,Onshore,Onshore,Onshore,Onshore,Onshore,Onshore,Onshore,Onshore",12
5842041f4e65fad6a77089c9,2023_12_07,38.6845180197959,-123.4322714291198,Black Point Beach,3,2.390833333333333,2.8575,13,13,"NIGHT_MOSTLY_CLOUDY,NIGHT_BRIEF_SHOWERS,NIGHT_FOG,NIGHT_BRIEF_SHOWERS,NIGHT_FOG,NIGHT_MOSTLY_CLOUDY,OVERCAST,RAIN,MOSTLY_CLEAR,MOSTLY_CLEAR,LIGHT_SHOWERS_POSSIBLE,CLEAR","Onshore,Onshore,Onshore,Onshore,Onshore,Onshore,Cross-shore,Cross-shore,Onshore,Onshore,Onshore,Onshore",12
5842041f4e65fad6a77089ca,2023_12_07,43.251076,-70.59144,Ogunquit,1.1383333333333334,0.14258055555555557,0.44488333333333335,8.166666666666666,7.166666666666667,"NIGHT_CLEAR,NIGHT_CLEAR,NIGHT_CLEAR,CLEAR,CLEAR,CLEAR,CLEAR,CLEAR,CLEAR,CLEAR,NIGHT_CLEAR,NIGHT_CLEAR","Offshore,Offshore,Offshore,Offshore,Offshore,Offshore,Offshore,Cross-shore,Offshore,Offshore,Offshore,Offshore",12
5842041f4e65fad6a77089cb,2023_12_07,41.362631366305415,-71.48006772942608,Point Judith,0.4166666666666667,0,0.180225,10.166666666666666,8.583333333333334,"NIGHT_CLEAR,NIGHT_CLEAR,NIGHT_CLEAR,CLEAR,CLEAR,CLEAR,CLEAR,CLEAR,CLEAR,CLEAR,NIGHT_CLEAR,NIGHT_CLEAR","Offshore,Offshore,Offshore,Offshore,Offshore,Offshore,Offshore,Offshore,Offshore,Offshore,Offshore,Offshore",12
5842041f4e65fad6a77089cd,2023_12_07,41.422678090954726,-71.45413,Monahan's - Narragansett,0.75,0.11768666666666666,0.18388333333333334,10,10,"NIGHT_CLEAR,NIGHT_CLEAR,NIGHT_CLEAR,CLEAR,CLEAR,CLEAR,CLEAR,CLEAR,CLEAR,CLEAR,NIGHT_CLEAR,NIGHT_CLEAR","Offshore,Offshore,Offshore,Offshore,Offshore,Offshore,Offshore,Offshore,Offshore,Offshore,Offshore,Offshore",12
5842041f4e65fad6a77089ce,2023_12_07,41.469,-71.293,Ruggles - Newport,1,0.16736583333333332,0.26151,10,10,"NIGHT_CLEAR,NIGHT_CLEAR,NIGHT_CLEAR,CLEAR,CLEAR,CLEAR,CLEAR,CLEAR,CLEAR,CLEAR,NIGHT_CLEAR,NIGHT_CLEAR","Offshore,Offshore,Offshore,Offshore,Offshore,Offshore,Offshore,Cross-shore,Cross-shore,Cross-shore,Offshore,Offshore",12
5842041f4e65fad6a77089cf,2023_12_07,43.175394,-70.606351,Short Sands Beach,1.25,0.035,0.33499999999999996,8,8,"NIGHT_CLEAR,NIGHT_CLEAR,NIGHT_CLEAR,CLEAR,CLEAR,CLEAR,CLEAR,CLEAR,CLEAR,CLEAR,NIGHT_CLEAR,NIGHT_CLEAR","Offshore,Offshore,Offshore,Offshore,Offshore,Offshore,Offshore,Offshore,Offshore,Offshore,Offshore,Offshore",12
5842041f4e65fad6a77089d0,2023_12_07,41.487408,-71.29017,First Beach,0.6666666666666666,0,0.16166666666666668,10,10,"NIGHT_CLEAR,NIGHT_CLEAR,NIGHT_CLEAR,CLEAR,CLEAR,CLEAR,CLEAR,CLEAR,CLEAR,CLEAR,NIGHT_CLEAR,NIGHT_CLEAR","Offshore,Offshore,Offshore,Offshore,Offshore,Offshore,Offshore,Cross-shore,Offshore,Offshore,Offshore,Offshore",12
5842041f4e65fad6a77089d1,2023_12_07,42.27916830233153,-70.86498,Nantasket Beach,1,0.16927777777777778,0.4782777777777778,9.583333333333334,8.166666666666666,"NIGHT_CLEAR,NIGHT_CLEAR,NIGHT_CLEAR,CLEAR,CLEAR,CLEAR,CLEAR,CLEAR,CLEAR,CLEAR,NIGHT_CLEAR,NIGHT_CLEAR","Cross-shore,Cross-shore,Cross-shore,Cross-shore,Cross-shore,Cross-shore,Cross-shore,Offshore,Offshore,Offshore,Offshore,Offshore",12
5842041f4e65fad6a77089d2,2023_12_07,41.817,-69.935,Cape Cod,1.75,0.4041666666666667,0.7083333333333333,9,9,"NIGHT_OVERCAST,NIGHT_OVERCAST,NIGHT_OVERCAST,OVERCAST,OVERCAST,CLOUDY,MOSTLY_CLOUDY,CLEAR,CLEAR,CLEAR,NIGHT_CLEAR,NIGHT_CLEAR","Offshore,Offshore,Offshore,Offshore,Offshore,Offshore,Offshore,Offshore,Offshore,Offshore,Offshore,Offshore",12
5842041f4e65fad6a77089d3,2023_12_07,42.22055448975661,-70.70634873403819,Egypt Beach,1,0.29083333333333333,0.5966666666666667,9,9,"NIGHT_CLEAR,NIGHT_CLEAR,NIGHT_CLEAR,CLEAR,CLEAR,CLEAR,CLEAR,CLEAR,CLEAR,CLEAR,NIGHT_CLEAR,NIGHT_CLEAR","Offshore,Offshore,Offshore,Offshore,Offshore,Offshore,Offshore,Offshore,Offshore,Offshore,Offshore,Offshore",12
5842041f4e65fad6a77089d4,2023_12_07,41.48739647744607,-71.25723,Second Beach,0.2916666666666667,0.033178819444444445,0.20530368055555556,10.166666666666666,8.583333333333334,"NIGHT_CLEAR,NIGHT_CLEAR,NIGHT_CLEAR,CLEAR,CLEAR,CLEAR,CLEAR,CLEAR,CLEAR,CLEAR,NIGHT_CLEAR,NIGHT_CLEAR","Offshore,Offshore,Offshore,Offshore,Offshore,Cross-shore,Cross-shore,Cross-shore,Cross-shore,Cross-shore,Cross-shore,Cross-shore",12
5842041f4e65fad6a77089d5,2023_12_07,42.964,-70.769,Fox Hill,0.8466666666666667,0.0889,0.35460555555555556,8.166666666666666,7.166666666666667,"NIGHT_CLEAR,NIGHT_CLEAR,NIGHT_CLEAR,CLEAR,CLEAR,CLEAR,CLEAR,CLEAR,CLEAR,CLEAR,NIGHT_CLEAR,NIGHT_CLEAR","Offshore,Offshore,Offshore,Offshore,Offshore,Offshore,Offshore,Offshore,Offshore,Offshore,Offshore,Offshore",12
5842041f4e65fad6a77089d6,2023_12_07,42.991359,-70.75149,Straws Point,1.0275,0.11035833333333334,0.4143277777777778,8.166666666666666,7.166666666666667,"NIGHT_CLEAR,NIGHT_CLEAR,NIGHT_CLEAR,CLEAR,CLEAR,CLEAR,CLEAR,CLEAR,CLEAR,CLEAR,NIGHT_CLEAR,NIGHT_CLEAR","Offshore,Offshore,Offshore,Offshore,Offshore,Offshore,Offshore,Cross-shore,Offshore,Offshore,Offshore,Offshore",12
5842041f4e65fad6a77089d7,2023_12_07,42.946,-70.786,Plaice Cove,0.8191666666666667,0.0889,0.35460555555555556,8.166666666666666,7.166666666666667,"NIGHT_CLEAR,NIGHT_CLEAR,NIGHT_CLEAR,CLEAR,CLEAR,CLEAR,CLEAR,CLEAR,CLEAR,CLEAR,NIGHT_CLEAR,NIGHT_CLEAR","Offshore,Offshore,Offshore,Offshore,Offshore,Offshore,Offshore,Offshore,Offshore,Offshore,Offshore,Offshore",12
5842041f4e65fad6a77089d9,2023_12_07,42.911574,-70.80831,The Main Beach,1.55,0.14921520833333335,0.3806553472222223,8.166666666666666,7.166666666666667,"NIGHT_CLEAR,NIGHT_CLEAR,NIGHT_CLEAR,CLEAR,CLEAR,CLEAR,CLEAR,CLEAR,CLEAR,CLEAR,NIGHT_CLEAR,NIGHT_CLEAR","Offshore,Offshore,Offshore,Offshore,Offshore,Offshore,Offshore,Cross-shore,Offshore,Offshore,Offshore,Offshore",12
5842041f4e65fad6a77089da,2023_12_07,42.97583846220203,-70.764,Sawyer's Beach,0.7775,0.0889,0.38280000000000003,8.166666666666666,7.166666666666667,"NIGHT_CLEAR,NIGHT_CLEAR,NIGHT_CLEAR,CLEAR,CLEAR,CLEAR,CLEAR,CLEAR,CLEAR,CLEAR,NIGHT_CLEAR,NIGHT_CLEAR","Offshore,Offshore,Offshore,Offshore,Offshore,Offshore,Offshore,Offshore,Offshore,Offshore,Offshore,Offshore",12
5842041f4e65fad6a77089db,2023_12_07,42.97,-70.77,Rye on the Rocks / 5-0's,1.5833333333333333,0.1525527777777778,0.4099467361111111,8.166666666666666,7.166666666666667,"NIGHT_CLEAR,NIGHT_CLEAR,NIGHT_CLEAR,CLEAR,CLEAR,CLEAR,CLEAR,CLEAR,CLEAR,CLEAR,NIGHT_CLEAR,NIGHT_CLEAR","Offshore,Offshore,Offshore,Offshore,Offshore,Offshore,Offshore,Offshore,Offshore,Offshore,Offshore,Offshore",12
5842041f4e65fad6a77089dc,2023_12_07,43.55902946610303,-70.27795,Higgins Beach,0.48333333333333334,0,0.26582500000000003,8.166666666666666,7.166666666666667,"NIGHT_CLEAR,NIGHT_CLEAR,NIGHT_CLEAR,CLEAR,CLEAR,CLEAR,CLEAR,CLEAR,CLEAR,CLEAR,NIGHT_CLEAR,NIGHT_CLEAR","Offshore,Offshore,Offshore,Offshore,Offshore,Offshore,Offshore,Cross-shore,Cross-shore,Cross-shore,Offshore,Offshore",12
5842041f4e65fad6a77089dd,2023_12_07,43.302676,-70.5652,Wells Beach,0.7358333333333333,0.0889,0.36835555555555555,8.166666666666666,7.166666666666667,"NIGHT_CLEAR,NIGHT_CLEAR,NIGHT_CLEAR,CLEAR,CLEAR,CLEAR,CLEAR,CLEAR,CLEAR,CLEAR,NIGHT_CLEAR,NIGHT_CLEAR","Offshore,Offshore,Offshore,Offshore,Offshore,Offshore,Offshore,Cross-shore,Offshore,Offshore,Offshore,Offshore",12
5842041f4e65fad6a77089de,2023_12_07,43.545359,-70.30479,Scarborough Beach State Park,0.7083333333333334,0.13759854166666666,0.3597263194444445,8.166666666666666,7.166666666666667,"NIGHT_CLEAR,NIGHT_CLEAR,NIGHT_CLEAR,CLEAR,CLEAR,CLEAR,CLEAR,CLEAR,CLEAR,CLEAR,NIGHT_CLEAR,NIGHT_CLEAR","Offshore,Offshore,Offshore,Offshore,Offshore,Offshore,Offshore,Cross-shore,Cross-shore,Cross-shore,Offshore,Offshore",12
5842041f4e65fad6a77089df,2023_12_07,43.514481,-70.372146,Old Orchard Beach,0.7333333333333334,0,0.3008,8.166666666666666,7.166666666666667,"NIGHT_CLEAR,NIGHT_CLEAR,NIGHT_CLEAR,CLEAR,CLEAR,CLEAR,CLEAR,CLEAR,CLEAR,CLEAR,NIGHT_CLEAR,NIGHT_CLEAR","Offshore,Offshore,Offshore,Offshore,Offshore,Offshore,Offshore,Cross-shore,Cross-shore,Cross-shore,Offshore,Offshore",12
5842041f4e65fad6a77089e0,2023_12_07,43.34711,-70.48165,Gooch's Beach,0.4583333333333333,0,0.26598333333333335,8.166666666666666,7.166666666666667,"NIGHT_CLEAR,NIGHT_CLEAR,NIGHT_CLEAR,CLEAR,CLEAR,CLEAR,CLEAR,CLEAR,CLEAR,CLEAR,NIGHT_CLEAR,NIGHT_CLEAR","Offshore,Offshore,Offshore,Offshore,Offshore,Offshore,Offshore,Onshore,Onshore,Cross-shore,Cross-shore,Cross-shore",12
5842041f4e65fad6a77089e2,2023_12_07,40.58433,-73.62953,Lido Beach,0.5666666666666667,-0.0055,0.3007166666666667,10.583333333333334,8,"NIGHT_CLEAR,NIGHT_CLEAR,NIGHT_CLEAR,CLEAR,CLEAR,CLEAR,CLEAR,CLEAR,CLEAR,MOSTLY_CLOUDY,CLOUDY,NIGHT_CLOUDY","Offshore,Offshore,Offshore,Offshore,Offshore,Offshore,Offshore,Offshore,Offshore,Offshore,Offshore,Offshore",12
5842041f4e65fad6a77089e3,2023_12_07,43.163135,-70.61689,Long Sands Beach,0.7333333333333334,-0.008869666666666663,0.29093983333333334,8.166666666666666,7.166666666666667,"NIGHT_CLEAR,NIGHT_CLEAR,NIGHT_CLEAR,CLEAR,CLEAR,CLEAR,CLEAR,CLEAR,CLEAR,CLEAR,NIGHT_CLEAR,NIGHT_CLEAR","Offshore,Offshore,Offshore,Offshore,Offshore,Offshore,Offshore,Cross-shore,Cross-shore,Cross-shore,Offshore,Offshore",12
5842041f4e65fad6a77089e4,2023_12_07,40.61695351251805,-73.39376,Gilgo Beach,0.4166666666666667,0.015000000000000001,0.30254166666666665,10.583333333333334,9.166666666666666,"NIGHT_CLEAR,NIGHT_CLEAR,NIGHT_CLEAR,CLEAR,CLEAR,CLEAR,CLEAR,CLEAR,CLEAR,MOSTLY_CLOUDY,MOSTLY_CLOUDY,NIGHT_CLOUDY","Offshore,Offshore,Offshore,Cross-shore,Cross-shore,Cross-shore,Cross-shore,Cross-shore,Cross-shore,Cross-shore,Cross-shore,Cross-shore",12
5842041f4e65fad6a77089e5,2023_12_07,40.62530081928036,-73.23827,Robert Moses,0.5,0.008333333333333333,0.26083333333333336,11,11,"NIGHT_CLEAR,NIGHT_CLEAR,NIGHT_CLEAR,CLEAR,CLEAR,CLEAR,CLEAR,MOSTLY_CLOUDY,CLEAR,CLOUDY,CLOUDY,NIGHT_CLEAR","Offshore,Offshore,Offshore,Offshore,Cross-shore,Cross-shore,Cross-shore,Cross-shore,Cross-shore,Cross-shore,Cross-shore,Cross-shore",12
5842041f4e65fad6a77089e6,2023_12_07,40.64313317632791,-73.15727,Fire Island,0.5,0.005,0.24416666666666667,11,11,"NIGHT_CLEAR,NIGHT_CLEAR,NIGHT_CLEAR,CLEAR,CLEAR,CLEAR,CLEAR,MOSTLY_CLOUDY,CLEAR,MOSTLY_CLOUDY,CLEAR,NIGHT_CLEAR","Offshore,Offshore,Offshore,Offshore,Cross-shore,Cross-shore,Cross-shore,Cross-shore,Cross-shore,Cross-shore,Cross-shore,Cross-shore",12
5842041f4e65fad6a77089e8,2023_12_07,40.76653118828782,-72.74579619372713,Cupsogue,1,0.015000000000000001,0.29333333333333333,11,11,"NIGHT_CLEAR,NIGHT_CLEAR,NIGHT_CLEAR,CLEAR,CLEAR,CLEAR,CLEAR,CLEAR,CLEAR,CLEAR,NIGHT_CLOUDY,NIGHT_MOSTLY_CLOUDY","Offshore,Offshore,Offshore,Offshore,Offshore,Cross-shore,Cross-shore,Cross-shore,Cross-shore,Cross-shore,Cross-shore,Cross-shore",12
5842041f4e65fad6a77089e9,2023_12_07,42.9376373334092,-70.79141,The Wall ,1.5333333333333334,0.18740319444444445,0.44032631944444445,8.166666666666666,7.166666666666667,"NIGHT_CLEAR,NIGHT_CLEAR,NIGHT_CLEAR,CLEAR,CLEAR,CLEAR,CLEAR,CLEAR,CLEAR,CLEAR,NIGHT_CLEAR,NIGHT_CLEAR","Offshore,Offshore,Offshore,Offshore,Offshore,Offshore,Offshore,Offshore,Offshore,Offshore,Offshore,Offshore",12
5842041f4e65fad6a77089ea,2023_12_07,40.887088,-72.338558,Flys,0.4166666666666667,0.21275000000000002,0.5124444444444445,16,14.583333333333334,"NIGHT_CLEAR,NIGHT_CLEAR,NIGHT_CLEAR,CLEAR,CLEAR,CLEAR,CLEAR,CLEAR,CLEAR,CLEAR,NIGHT_CLEAR,NIGHT_CLEAR","Offshore,Offshore,Offshore,Offshore,Offshore,Offshore,Cross-shore,Cross-shore,Cross-shore,Cross-shore,Cross-shore,Cross-shore",12
5842041f4e65fad6a77089eb,2023_12_07,41.0389266436591,-71.91068529316958,Trailer Park,0.4066666666666667,0,0.30960125,10.583333333333334,9.166666666666666,"NIGHT_CLEAR,NIGHT_MOSTLY_CLEAR,NIGHT_CLEAR,CLEAR,CLEAR,CLEAR,CLEAR,CLEAR,CLEAR,CLEAR,NIGHT_CLEAR,NIGHT_CLEAR","Offshore,Offshore,Offshore,Offshore,Offshore,Offshore,Offshore,Cross-shore,Cross-shore,Cross-shore,Cross-shore,Cross-shore",12
5842041f4e65fad6a77089ec,2023_12_07,41.039505402729105,-71.9142,Ditch Plains,1,0.20742333333333335,0.32410083333333334,10,10,"NIGHT_CLEAR,NIGHT_CLEAR,NIGHT_CLEAR,CLEAR,CLEAR,CLEAR,CLEAR,CLEAR,CLEAR,CLEAR,NIGHT_CLEAR,NIGHT_CLEAR","Offshore,Offshore,Offshore,Offshore,Offshore,Offshore,Offshore,Offshore,Offshore,Offshore,Offshore,Offshore",12
5842041f4e65fad6a77089ee,2023_12_07,40.57633275206492,-73.56895305108567,"West End, Jones Beach",0.125,0.024166666666666666,0.3119166666666667,10.583333333333334,8,"NIGHT_CLEAR,NIGHT_CLEAR,NIGHT_CLEAR,CLEAR,CLEAR,CLEAR,CLEAR,CLEAR,CLEAR,MOSTLY_CLOUDY,CLEAR,NIGHT_CLOUDY","Cross-shore,Cross-shore,Cross-shore,Cross-shore,Cross-shore,Cross-shore,Cross-shore,Onshore,Onshore,Onshore,Cross-shore,Cross-shore",12
5842041f4e65fad6a77089f1,2023_12_07,41.038286691230795,-71.91991567611694,Poles,0.4066666666666667,0,0.30593695833333334,10.583333333333334,9.166666666666666,"NIGHT_CLEAR,NIGHT_MOSTLY_CLEAR,NIGHT_CLEAR,CLEAR,CLEAR,CLEAR,CLEAR,CLEAR,CLEAR,CLEAR,NIGHT_CLEAR,NIGHT_CLEAR","Offshore,Offshore,Offshore,Offshore,Offshore,Offshore,Offshore,Cross-shore,Cross-shore,Cross-shore,Cross-shore,Cross-shore",12
5842041f4e65fad6a77089f3,2023_12_07,40.84077769766295,-72.47989493724765,The Bowl,0.5833333333333334,0.018333333333333333,0.2808333333333333,10.166666666666666,10.166666666666666,"NIGHT_CLEAR,NIGHT_CLEAR,NIGHT_CLEAR,CLEAR,CLEAR,CLEAR,CLEAR,CLEAR,CLEAR,CLEAR,NIGHT_CLEAR,NIGHT_CLEAR","Offshore,Offshore,Offshore,Offshore,Offshore,Offshore,Cross-shore,Cross-shore,Cross-shore,Cross-shore,Cross-shore,Cross-shore",12
5842041f4e65fad6a77089f4,2023_12_07,40.94235535243154,-72.19286,Main Beach,0.4166666666666667,0.21525,0.5107083333333333,16,14.583333333333334,"NIGHT_MOSTLY_CLEAR,NIGHT_CLEAR,NIGHT_CLEAR,CLEAR,CLEAR,CLEAR,CLEAR,CLEAR,CLEAR,CLEAR,NIGHT_CLEAR,NIGHT_CLEAR","Offshore,Offshore,Offshore,Offshore,Offshore,Cross-shore,Cross-shore,Cross-shore,Cross-shore,Cross-shore,Cross-shore,Cross-shore",12
5842041f4e65fad6a77089f5,2023_12_07,40.58270702399518,-73.67251552079799,Laurelton Blvd.,0.38333333333333336,0.041438,0.313091125,10.583333333333334,8,"NIGHT_CLEAR,NIGHT_CLEAR,NIGHT_CLEAR,CLEAR,CLEAR,CLEAR,CLEAR,MOSTLY_CLOUDY,CLOUDY,CLEAR,CLOUDY,NIGHT_CLOUDY","Cross-shore,Cross-shore,Cross-shore,Cross-shore,Cross-shore,Offshore,Cross-shore,Offshore,Offshore,Offshore,Offshore,Cross-shore",12
5842041f4e65fad6a77089f6,2023_12_07,41.033752854071416,-71.93695522488403,Terrace,0.35833333333333334,-0.0011666666666666733,0.3017166666666667,10.583333333333334,9.166666666666666,"NIGHT_CLEAR,NIGHT_MOSTLY_CLEAR,NIGHT_CLEAR,CLEAR,CLEAR,CLEAR,CLEAR,CLEAR,CLEAR,CLEAR,NIGHT_CLEAR,NIGHT_CLEAR","Offshore,Offshore,Offshore,Offshore,Offshore,Offshore,Offshore,Cross-shore,Cross-shore,Cross-shore,Cross-shore,Cross-shore",12
5842041f4e65fad6a77089f7,2023_12_07,40.83372943645748,-72.50426173210144,K Road,1,0.03916666666666667,0.31583333333333335,10.166666666666666,10.166666666666666,"NIGHT_CLEAR,NIGHT_CLEAR,NIGHT_CLEAR,CLEAR,CLEAR,CLEAR,CLEAR,CLEAR,CLEAR,CLEAR,NIGHT_CLEAR,NIGHT_CLEAR","Offshore,Offshore,Offshore,Offshore,Offshore,Offshore,Cross-shore,Cross-shore,Cross-shore,Cross-shore,Cross-shore,Cross-shore",12
5842041f4e65fad6a77089f8,2023_12_07,40.58456099581507,-73.80730032920837,84th Street,0.3975,0,0.28729444444444446,10.583333333333334,8,"NIGHT_CLEAR,NIGHT_CLEAR,NIGHT_CLEAR,CLEAR,CLEAR,CLEAR,CLEAR,CLEAR,MOSTLY_CLOUDY,CLEAR,CLOUDY,NIGHT_MOSTLY_CLOUDY","Offshore,Offshore,Offshore,Offshore,Cross-shore,Cross-shore,Cross-shore,Cross-shore,Cross-shore,Cross-shore,Cross-shore,Cross-shore",12
5842041f4e65fad6a77089fa,2023_12_07,40.1319,-74.02788,Sea Girt,0.9725,0.10906944444444444,0.4106388888888889,9,8,"NIGHT_CLEAR,NIGHT_CLEAR,NIGHT_CLEAR,CLEAR,CLEAR,CLEAR,CLEAR,CLEAR,MOSTLY_CLOUDY,OVERCAST,CLOUDY,NIGHT_OVERCAST","Offshore,Offshore,Offshore,Offshore,Offshore,Offshore,Offshore,Offshore,Offshore,Offshore,Offshore,Offshore",12
5842041f4e65fad6a77089fb,2023_12_07,40.54698301868125,-73.9268,Breezy Point,0.5833333333333334,0,0.21416666666666667,9.25,9.25,"NIGHT_CLEAR,NIGHT_CLEAR,NIGHT_CLEAR,CLEAR,CLEAR,CLEAR,CLEAR,CLEAR,MOSTLY_CLOUDY,CLEAR,MOSTLY_CLOUDY,NIGHT_CLEAR","Offshore,Offshore,Offshore,Cross-shore,Cross-shore,Cross-shore,Cross-shore,Onshore,Cross-shore,Onshore,Cross-shore,Cross-shore",12
5842041f4e65fad6a77089fc,2023_12_07,40.152504,-74.021383,Spring Lake,0.9725,0.11497222222222223,0.4171666666666667,9,8,"NIGHT_CLEAR,NIGHT_CLEAR,NIGHT_CLEAR,CLEAR,CLEAR,CLEAR,CLEAR,CLEAR,MOSTLY_CLOUDY,OVERCAST,MOSTLY_CLOUDY,NIGHT_CLOUDY","Offshore,Offshore,Offshore,Offshore,Offshore,Offshore,Offshore,Offshore,Offshore,Offshore,Offshore,Offshore",12
5842041f4e65fad6a77089fd,2023_12_07,40.591277,-73.770792,30th - 39th Streets,0.3333333333333333,0,0.25170833333333337,10.583333333333334,8,"NIGHT_CLEAR,NIGHT_CLEAR,NIGHT_CLEAR,CLEAR,CLEAR,CLEAR,CLEAR,CLEAR,OVERCAST,CLEAR,CLOUDY,NIGHT_MOSTLY_CLOUDY","Offshore,Offshore,Offshore,Cross-shore,Cross-shore,Cross-shore,Cross-shore,Onshore,Onshore,Onshore,Cross-shore,Cross-shore",12
5842041f4e65fad6a77089fe,2023_12_07,40.18834955871439,-74.00860982500222,Avon,0.9725,0.12302777777777778,0.42695833333333333,9,8,"NIGHT_CLEAR,NIGHT_CLEAR,NIGHT_CLEAR,CLEAR,CLEAR,CLEAR,CLEAR,CLEAR,OVERCAST,CLOUDY,CLOUDY,NIGHT_CLOUDY","Offshore,Offshore,Offshore,Offshore,Offshore,Offshore,Offshore,Offshore,Offshore,Offshore,Offshore,Offshore",12
5842041f4e65fad6a77089ff,2023_12_07,40.1974229100932,-74.00650533798255,Bradley Beach,0.9725,0.12066666666666667,0.42362500000000003,9,8,"NIGHT_CLEAR,NIGHT_CLEAR,NIGHT_CLEAR,CLEAR,CLEAR,CLEAR,CLEAR,CLEAR,OVERCAST,CLOUDY,CLOUDY,NIGHT_CLOUDY","Offshore,Offshore,Offshore,Offshore,Offshore,Offshore,Offshore,Offshore,Offshore,Offshore,Offshore,Offshore",12
