_id,date,lat,lon,name,daily_mean_swell_rating,daily_mean_wave_height_min,daily_mean_wave_height_max,daily_mean_water_temperature_max,daily_mean_water_temperature_min,weather_per_timestamp,wind_per_timestamp,n_samples_per_day
5842041f4e65fad6a77087f9,2023_12_28,37.741668,-122.51038,South Ocean Beach,2,5.675347619047619,6.874309523809524,15,15,"NIGHT_MOSTLY_CLOUDY,NIGHT_MIST,NIGHT_MIST,NIGHT_MIST,NIGHT_MIST,NIGHT_MIST,NIGHT_MIST","Offshore,Offshore,Offshore,Offshore,Offshore,Offshore,Offshore",7
5842041f4e65fad6a7708801,2023_12_28,37.49142,-122.50428,Maverick's,NA,4.651547619047619,5.527519047619048,13,13,"NIGHT_MIST,NIGHT_SHOWERS,NIGHT_MOSTLY_CLOUDY,NIGHT_CLOUDY,NIGHT_BRIEF_SHOWERS,NIGHT_BRIEF_SHOWERS,NIGHT_BRIEF_SHOWERS","Onshore,Onshore,Onshore,Onshore,Onshore,Onshore,Onshore",7
5842041f4e65fad6a7708804,2023_12_28,44.997,-124.018,Roads End,1.4285714285714286,5.3,6.257142857142857,10,10,"NIGHT_MOSTLY_CLOUDY,NIGHT_CLEAR,NIGHT_MOSTLY_CLOUDY,NIGHT_BRIEF_SHOWERS,NIGHT_BRIEF_SHOWERS,NIGHT_BRIEF_SHOWERS,NIGHT_MOSTLY_CLOUDY","Cross-shore,Cross-shore,Cross-shore,Cross-shore,Cross-shore,Cross-shore,Cross-shore",7
5842041f4e65fad6a7708805,2023_12_28,36.95188851423011,-122.02522,Steamer Lane,3.0714285714285716,3.618047619047619,4.359671428571429,14,14,"NIGHT_RAIN_AND_FOG,NIGHT_OVERCAST,NIGHT_OVERCAST,NIGHT_BRIEF_SHOWERS,NIGHT_MOSTLY_CLOUDY,NIGHT_MOSTLY_CLOUDY,NIGHT_MOSTLY_CLOUDY","Offshore,Cross-shore,Cross-shore,Cross-shore,Cross-shore,Offshore,Cross-shore",7
5842041f4e65fad6a7708806,2023_12_28,36.95918781542251,-122.02489,Cowells,2.952857142857143,1.7258333333333333,2.0762285714285715,14,14,"NIGHT_RAIN_AND_FOG,NIGHT_OVERCAST,NIGHT_OVERCAST,NIGHT_BRIEF_SHOWERS,NIGHT_MOSTLY_CLOUDY,NIGHT_MOSTLY_CLOUDY,NIGHT_MOSTLY_CLOUDY","Cross-shore,Onshore,Onshore,Onshore,Onshore,Cross-shore,Onshore",7
5842041f4e65fad6a7708807,2023_12_28,36.95468082526536,-121.97234,Pleasure Point,3.047142857142857,3.3674142857142857,4.062371428571429,14,14,"NIGHT_FOG,NIGHT_MOSTLY_CLOUDY,NIGHT_MOSTLY_CLOUDY,NIGHT_MOSTLY_CLOUDY,NIGHT_BRIEF_SHOWERS,NIGHT_MOSTLY_CLOUDY,NIGHT_MOSTLY_CLOUDY","Cross-shore,Onshore,Onshore,Onshore,Onshore,Cross-shore,Cross-shore",7
5842041f4e65fad6a770880a,2023_12_28,35.37815414378748,-120.86589,Morro Bay,3.7857142857142856,2.4267,2.956557142857143,14,14,"NIGHT_MOSTLY_CLEAR,NIGHT_MOSTLY_CLOUDY,NIGHT_MOSTLY_CLOUDY,NIGHT_MOSTLY_CLOUDY,NIGHT_MOSTLY_CLOUDY,NIGHT_MOSTLY_CLOUDY,NIGHT_MOSTLY_CLOUDY","Cross-shore,Offshore,Offshore,Onshore,Offshore,Cross-shore,Offshore",7
5842041f4e65fad6a770880b,2023_12_28,36.95782765000708,-121.9672887511276,Jack's,3.6185714285714288,1.7160285714285715,2.0785857142857145,14,14,"NIGHT_FOG,NIGHT_MOSTLY_CLOUDY,NIGHT_MOSTLY_CLOUDY,NIGHT_MOSTLY_CLOUDY,NIGHT_BRIEF_SHOWERS,NIGHT_MOSTLY_CLOUDY,NIGHT_MOSTLY_CLOUDY","Cross-shore,Onshore,Onshore,Onshore,Onshore,Onshore,Onshore",7
5842041f4e65fad6a770880d,2023_12_28,34.29982939936656,-119.3489016603669,Gold Coast Beachbreaks,2.857142857142857,0.5457142857142857,0.83,16,16,"NIGHT_MIST,NIGHT_MIST,NIGHT_CLEAR,NIGHT_MIST,NIGHT_CLOUDY,NIGHT_OVERCAST,NIGHT_MIST","Cross-shore,Offshore,Cross-shore,Cross-shore,Cross-shore,Offshore,Offshore",7
5842041f4e65fad6a7708811,2023_12_28,34.245076,-119.26799,Ventura Harbor,3.857142857142857,1.91161,2.2092714285714288,16,16,"NIGHT_MIST,NIGHT_MOSTLY_CLEAR,NIGHT_MOSTLY_CLOUDY,NIGHT_MOSTLY_CLEAR,NIGHT_MIST,NIGHT_OVERCAST,NIGHT_MOSTLY_CLOUDY","Onshore,Offshore,Cross-shore,Offshore,Offshore,Cross-shore,Offshore",7
5842041f4e65fad6a7708813,2023_12_28,34.051,-118.964,County Line,2.857142857142857,0.9528,1.2149142857142858,17,17,"NIGHT_CLEAR,NIGHT_CLEAR,NIGHT_CLEAR,NIGHT_CLEAR,NIGHT_CLEAR,NIGHT_CLEAR,NIGHT_CLEAR","Onshore,Offshore,Offshore,Offshore,Offshore,Offshore,Offshore",7
5842041f4e65fad6a7708814,2023_12_28,34.37256264378892,-119.47797,Rincon,3.857142857142857,1.46,1.7185714285714286,16,16,"NIGHT_CLEAR,NIGHT_CLEAR,NIGHT_CLEAR,NIGHT_CLEAR,NIGHT_CLEAR,NIGHT_CLEAR,NIGHT_CLEAR","Cross-shore,Cross-shore,Offshore,Cross-shore,Onshore,Cross-shore,Cross-shore",7
5842041f4e65fad6a7708817,2023_12_28,34.03096101876324,-118.68109,Malibu Third Point,2,0.08428571428571428,0.39142857142857146,16,16,"NIGHT_MIST,NIGHT_CLEAR,NIGHT_CLEAR,NIGHT_CLEAR,NIGHT_MOSTLY_CLOUDY,NIGHT_MIST,NIGHT_MOSTLY_CLOUDY","Offshore,Offshore,Cross-shore,Onshore,Onshore,Onshore,Onshore",7
5842041f4e65fad6a7708819,2023_12_28,33.984079047970035,-118.47381591796875,Venice Beach,3.3814285714285712,1.1485142857142856,1.4366857142857143,17,17,"NIGHT_MIST,NIGHT_MIST,NIGHT_MOSTLY_CLOUDY,NIGHT_MOSTLY_CLOUDY,NIGHT_MOSTLY_CLOUDY,NIGHT_MOSTLY_CLOUDY,NIGHT_CLOUDY","Onshore,Offshore,Offshore,Offshore,Offshore,Offshore,Offshore",7
5842041f4e65fad6a770881e,2023_12_28,34.037508438646746,-118.58339846155594,Topanga Beach,2.5,0.3842285714285714,0.6877714285714286,17,17,"NIGHT_MIST,NIGHT_MOSTLY_CLOUDY,NIGHT_MOSTLY_CLOUDY,NIGHT_MOSTLY_CLOUDY,NIGHT_MOSTLY_CLOUDY,NIGHT_BRIEF_SHOWERS,NIGHT_MOSTLY_CLOUDY","Cross-shore,Cross-shore,Cross-shore,Offshore,Offshore,Offshore,Offshore",7
5842041f4e65fad6a7708820,2023_12_28,33.73954373690184,-118.11414,Seal Beach Jetty,2.5714285714285716,0.36714285714285716,0.6728571428571428,16,16,"NIGHT_MOSTLY_CLOUDY,NIGHT_OVERCAST,NIGHT_OVERCAST,NIGHT_OVERCAST,NIGHT_DRIZZLE,NIGHT_OVERCAST,NIGHT_OVERCAST","Onshore,Offshore,Offshore,Offshore,Offshore,Offshore,Offshore",7
5842041f4e65fad6a7708822,2023_12_28,33.72309983348433,-118.08078,Anderson Street,2.857142857142857,0.5028571428571429,0.7928571428571428,16,16,"NIGHT_CLOUDY,NIGHT_MOSTLY_CLOUDY,NIGHT_OVERCAST,NIGHT_OVERCAST,NIGHT_OVERCAST,NIGHT_OVERCAST,NIGHT_OVERCAST","Onshore,Offshore,Offshore,Offshore,Offshore,Offshore,Offshore",7
5842041f4e65fad6a7708827,2023_12_28,33.65574085629463,-118.00397,Huntington Beach Pier Northside,3.4285714285714284,1.278457142857143,1.6016,17,17,"NIGHT_OVERCAST,NIGHT_MIST,NIGHT_OVERCAST,NIGHT_OVERCAST,NIGHT_OVERCAST,NIGHT_OVERCAST,NIGHT_OVERCAST","Onshore,Cross-shore,Offshore,Offshore,Offshore,Offshore,Offshore",7
5842041f4e65fad6a7708828,2023_12_28,34.272041739333,-119.2997646331,C St.,3.857142857142857,1.376342857142857,1.6688,16,16,"NIGHT_CLEAR,NIGHT_CLEAR,NIGHT_MOSTLY_CLOUDY,NIGHT_MOSTLY_CLEAR,NIGHT_CLOUDY,NIGHT_CLOUDY,NIGHT_MOSTLY_CLOUDY","Cross-shore,Offshore,Offshore,Offshore,Offshore,Offshore,Offshore",7
5842041f4e65fad6a770882a,2023_12_28,33.61555743705257,-117.93676,Newport Lower Jetties,3,0.5977714285714286,0.9319999999999999,17,17,"NIGHT_MIST,NIGHT_BRIEF_SHOWERS,NIGHT_OVERCAST,NIGHT_OVERCAST,NIGHT_OVERCAST,NIGHT_OVERCAST,NIGHT_OVERCAST","Cross-shore,Offshore,Offshore,Offshore,Offshore,Offshore,Offshore",7
5842041f4e65fad6a770882b,2023_12_28,33.5930302087,-117.88199,The Wedge,1,0.028234285714285715,0.45195142857142856,16,16,"NIGHT_MIST,NIGHT_MIST,NIGHT_OVERCAST,NIGHT_OVERCAST,NIGHT_OVERCAST,NIGHT_OVERCAST,NIGHT_OVERCAST","Cross-shore,Offshore,Offshore,Offshore,Offshore,Offshore,Offshore",7
5842041f4e65fad6a770882c,2023_12_28,33.60577342582,-117.9315376281,Newport Beach Pier,2.9285714285714284,0.8106285714285715,1.112,17,17,"NIGHT_MIST,NIGHT_MIST,NIGHT_CLOUDY,NIGHT_CLOUDY,NIGHT_OVERCAST,NIGHT_OVERCAST,NIGHT_OVERCAST","Cross-shore,Cross-shore,Cross-shore,Cross-shore,Onshore,Onshore,Onshore",7
5842041f4e65fad6a770882e,2023_12_28,33.475793399792984,-117.72291,Salt Creek,3,1.1770285714285715,1.475542857142857,17,17,"NIGHT_MIST,NIGHT_OVERCAST,NIGHT_CLOUDY,NIGHT_OVERCAST,NIGHT_OVERCAST,NIGHT_OVERCAST,NIGHT_OVERCAST","Onshore,Onshore,Onshore,Onshore,Onshore,Onshore,Onshore",7
5842041f4e65fad6a7708830,2023_12_28,33.41800974113613,-117.61952,T-Street,3,0.9392,1.2245142857142857,17,17,"NIGHT_MIST,NIGHT_MIST,NIGHT_OVERCAST,NIGHT_OVERCAST,NIGHT_OVERCAST,NIGHT_OVERCAST,NIGHT_OVERCAST","Cross-shore,Cross-shore,Cross-shore,Cross-shore,Cross-shore,Cross-shore,Cross-shore",7
5842041f4e65fad6a7708832,2023_12_28,33.202391008646,-117.39475,Oceanside Harbor,3,0.8636952380952381,1.1998095238095239,17,17,"NIGHT_CLEAR,NIGHT_CLOUDY,NIGHT_OVERCAST,NIGHT_OVERCAST,NIGHT_OVERCAST,NIGHT_OVERCAST,NIGHT_DRIZZLE","Onshore,Cross-shore,Cross-shore,Cross-shore,Cross-shore,Cross-shore,Cross-shore",7
5842041f4e65fad6a7708835,2023_12_28,33.19477795952803,-117.38667,Oceanside Pier,3,0.8275047619047619,1.127447619047619,17,17,"NIGHT_MOSTLY_CLOUDY,NIGHT_OVERCAST,NIGHT_OVERCAST,NIGHT_OVERCAST,NIGHT_OVERCAST,NIGHT_OVERCAST,NIGHT_OVERCAST","Onshore,Offshore,Cross-shore,Cross-shore,Offshore,Cross-shore,Offshore",7
5842041f4e65fad6a7708837,2023_12_28,33.14948100706,-117.35029,Tamarack,2,0.21142857142857144,0.52,17,17,"NIGHT_MIST,NIGHT_MIST,NIGHT_OVERCAST,NIGHT_OVERCAST,NIGHT_OVERCAST,NIGHT_OVERCAST,NIGHT_DRIZZLE","Cross-shore,Cross-shore,Cross-shore,Cross-shore,Cross-shore,Cross-shore,Offshore",7
5842041f4e65fad6a7708839,2023_12_28,32.865777159358856,-117.25614295356122,Scripps,2.4757142857142855,0.9817904761904762,1.2231619047619047,17,17,"NIGHT_OVERCAST,NIGHT_MIST,NIGHT_MIST,NIGHT_MIST,NIGHT_MIST,NIGHT_MIST,NIGHT_OVERCAST","Onshore,Onshore,Onshore,Onshore,Onshore,Onshore,Onshore",7
5842041f4e65fad6a770883a,2023_12_28,32.813094,-117.27381,Birdrock,3.2857142857142856,1.1257142857142857,1.3757142857142857,17,17,"NIGHT_OVERCAST,NIGHT_MIST,NIGHT_OVERCAST,NIGHT_DRIZZLE,NIGHT_OVERCAST,NIGHT_OVERCAST,NIGHT_DRIZZLE","Cross-shore,Offshore,Offshore,Offshore,Offshore,Offshore,Offshore",7
5842041f4e65fad6a770883b,2023_12_28,32.877231,-117.25303,Blacks,3.2857142857142856,1.387904761904762,1.7261619047619048,17,17,"NIGHT_OVERCAST,NIGHT_MIST,NIGHT_MIST,NIGHT_MIST,NIGHT_MIST,NIGHT_MIST,NIGHT_OVERCAST","Onshore,Onshore,Onshore,Onshore,Onshore,Onshore,Onshore",7
5842041f4e65fad6a770883c,2023_12_28,32.82978974229765,-117.28161740727381,Windansea,3,1.1903238095238096,1.5145333333333333,17,17,"NIGHT_OVERCAST,NIGHT_DRIZZLE,NIGHT_DRIZZLE,NIGHT_DRIZZLE,NIGHT_DRIZZLE,NIGHT_DRIZZLE,NIGHT_OVERCAST","Cross-shore,Onshore,Cross-shore,Onshore,Onshore,Onshore,Onshore",7
5842041f4e65fad6a770883d,2023_12_28,32.838278,-117.28396,Horseshoe,3.5714285714285716,1.2285714285714286,1.49,17,17,"NIGHT_OVERCAST,NIGHT_DRIZZLE,NIGHT_DRIZZLE,NIGHT_DRIZZLE,NIGHT_DRIZZLE,NIGHT_DRIZZLE,NIGHT_OVERCAST","Onshore,Offshore,Offshore,Offshore,Offshore,Offshore,Offshore",7
5842041f4e65fad6a770883f,2023_12_28,32.75034717673179,-117.25337,Ocean Beach,3,1.3107619047619048,1.6240190476190475,17,17,"NIGHT_CLOUDY,NIGHT_DRIZZLE,NIGHT_MIST,NIGHT_OVERCAST,NIGHT_OVERCAST,NIGHT_OVERCAST,NIGHT_OVERCAST","Cross-shore,Onshore,Cross-shore,Cross-shore,Cross-shore,Onshore,Onshore",7
5842041f4e65fad6a7708840,2023_12_28,32.73693,-117.25718,Sunset Cliffs,3,1.1314285714285715,1.3985714285714286,17,17,"NIGHT_MIST,NIGHT_MIST,NIGHT_MIST,NIGHT_MIST,NIGHT_MIST,NIGHT_MIST,NIGHT_OVERCAST","Cross-shore,Onshore,Cross-shore,Cross-shore,Cross-shore,Onshore,Onshore",7
5842041f4e65fad6a7708841,2023_12_28,32.796582258728826,-117.25779,Pacific Beach,2.9042857142857144,1.1548476190476191,1.4812,17,17,"NIGHT_CLOUDY,NIGHT_MIST,NIGHT_MIST,NIGHT_OVERCAST,NIGHT_OVERCAST,NIGHT_OVERCAST,NIGHT_OVERCAST","Cross-shore,Offshore,Offshore,Offshore,Offshore,Offshore,Offshore",7
5842041f4e65fad6a7708842,2023_12_28,32.776636,-117.25514,Mission Beach,3.047142857142857,1.1260380952380953,1.4688190476190477,17,17,"NIGHT_CLOUDY,NIGHT_MIST,NIGHT_MIST,NIGHT_OVERCAST,NIGHT_OVERCAST,NIGHT_OVERCAST,NIGHT_OVERCAST","Onshore,Offshore,Offshore,Offshore,Offshore,Offshore,Offshore",7
5842041f4e65fad6a7708844,2023_12_28,32.577195519016,-117.13475,Imperial Beach Pier,3,1.2042857142857144,1.477142857142857,17,17,"NIGHT_CLEAR,NIGHT_DRIZZLE,NIGHT_MIST,NIGHT_MIST,NIGHT_DRIZZLE,NIGHT_DRIZZLE,NIGHT_DRIZZLE","Onshore,Cross-shore,Cross-shore,Cross-shore,Cross-shore,Onshore,Cross-shore",7
5842041f4e65fad6a770884a,2023_12_28,42.88678181061,-70.80843,Seabrook,1,0.4621788095238095,0.7402958333333334,7,6,"NIGHT_DRIZZLE,NIGHT_OVERCAST,NIGHT_DRIZZLE,NIGHT_CLOUDY,NIGHT_CLOUDY,OVERCAST,CLOUDY","Onshore,Cross-shore,Cross-shore,Cross-shore,Cross-shore,Cross-shore,Cross-shore",7
5842041f4e65fad6a770884e,2023_12_28,41.434181432898335,-71.45312118111178,Narragansett,1.2857142857142858,0.05641428571428571,0.3622047619047619,9,7,"NIGHT_MIST,NIGHT_DRIZZLE,NIGHT_MIST,NIGHT_MIST,NIGHT_OVERCAST,DRIZZLE,DRIZZLE","Cross-shore,Cross-shore,Offshore,Offshore,Offshore,Offshore,Offshore",7
5842041f4e65fad6a7708850,2023_12_28,40.582703230722,-73.65247,Lincoln Blvd,0.9771428571428571,0.3139619047619048,0.6162619047619048,9,7,"NIGHT_MIST,NIGHT_DRIZZLE,NIGHT_RAIN,NIGHT_RAIN,NIGHT_LIGHT_SHOWERS_POSSIBLE,LIGHT_RAIN,MIST","Offshore,Offshore,Offshore,Offshore,Offshore,Offshore,Offshore",7
5842041f4e65fad6a7708852,2023_12_28,40.58342841721757,-73.81182,Rockaways,1.2142857142857142,0.36405238095238096,0.6682571428571429,9,7,"NIGHT_OVERCAST,NIGHT_LIGHT_RAIN,NIGHT_HEAVY_RAIN,NIGHT_LIGHT_RAIN,NIGHT_LIGHT_SHOWERS_POSSIBLE,CLOUDY,MIST","Cross-shore,Cross-shore,Offshore,Cross-shore,Cross-shore,Cross-shore,Offshore",7
5842041f4e65fad6a7708853,2023_12_28,40.330474,-73.9734,Monmouth Beach,0.8571428571428571,0.7534142857142857,1.059504761904762,8,7,"NIGHT_LIGHT_RAIN,NIGHT_LIGHT_RAIN,NIGHT_HEAVY_RAIN,NIGHT_RAIN,NIGHT_DRIZZLE,MIST,MIST","Onshore,Onshore,Onshore,Onshore,Onshore,Onshore,Onshore",7
5842041f4e65fad6a7708856,2023_12_28,40.113,-74.028,Manasquan Inlet,0.9771428571428571,0.6435000000000001,0.9513333333333334,8,7,"NIGHT_OVERCAST,NIGHT_LIGHT_RAIN,NIGHT_LIGHT_RAIN,NIGHT_RAIN,NIGHT_DRIZZLE,MIST,DRIZZLE","Onshore,Onshore,Onshore,Onshore,Onshore,Onshore,Onshore",7
5842041f4e65fad6a7708857,2023_12_28,39.941519877445664,-74.06829,Casino Pier,1.0957142857142856,0.635452380952381,0.9405761904761905,8,7,"NIGHT_LIGHT_RAIN,NIGHT_DRIZZLE,NIGHT_RAIN,NIGHT_LIGHT_RAIN,NIGHT_BRIEF_SHOWERS,MIST,MIST","Onshore,Onshore,Onshore,Onshore,Onshore,Onshore,Onshore",7
5842041f4e65fad6a7708858,2023_12_28,39.28223089949212,-74.55766,North End OC,2.0957142857142856,0.6177857142857143,0.9262428571428573,8,7,"NIGHT_MIST,NIGHT_LIGHT_RAIN,NIGHT_DRIZZLE,NIGHT_RAIN,NIGHT_MIST,MIST,MIST","Onshore,Offshore,Cross-shore,Cross-shore,Cross-shore,Offshore,Offshore",7
5842041f4e65fad6a770885b,2023_12_28,39.65080599934257,-74.17146,Ship Bottom,1.7614285714285713,0.5973571428571429,1.029842857142857,8,7,"NIGHT_BRIEF_SHOWERS,NIGHT_LIGHT_RAIN,NIGHT_MIST,NIGHT_LIGHT_RAIN,NIGHT_MIST,MIST,MIST","Onshore,Offshore,Onshore,Onshore,Cross-shore,Cross-shore,Cross-shore",7
5842041f4e65fad6a7708863,2023_12_28,36.034151543144,-75.66791,Third Street,2.7142857142857144,0.9680190476190477,1.3154809523809523,11,10,"NIGHT_OVERCAST,NIGHT_OVERCAST,NIGHT_OVERCAST,NIGHT_MIST,NIGHT_OVERCAST,MOSTLY_CLOUDY,OVERCAST","Onshore,Offshore,Offshore,Offshore,Offshore,Offshore,Offshore",7
5842041f4e65fad6a7708867,2023_12_28,35.605833221351425,-75.46303,S-Turns,2.5,1.0558857142857143,1.6008838095238096,12,11,"NIGHT_LIGHT_RAIN,NIGHT_CLOUDY,NIGHT_MIST,NIGHT_MIST,NIGHT_MIST,CLOUDY,CLOUDY","Onshore,Offshore,Offshore,Offshore,Offshore,Offshore,Offshore",7
5842041f4e65fad6a770886d,2023_12_28,38.338461,-75.08117,Ocean City Boardwalk,2.69,0.5941904761904763,1.0909904761904763,10,8,"NIGHT_MIST,NIGHT_RAIN,NIGHT_MIST,NIGHT_HEAVY_RAIN,NIGHT_MIST,MIST,MIST","Onshore,Onshore,Onshore,Onshore,Cross-shore,Cross-shore,Cross-shore",7
5842041f4e65fad6a770886f,2023_12_28,29.844757212379562,-81.26136,A St.,3,0.45571428571428574,0.7614285714285715,16,16,"NIGHT_CLOUDY,NIGHT_CLEAR,NIGHT_CLOUDY,NIGHT_OVERCAST,NIGHT_CLEAR,CLEAR,OVERCAST","Offshore,Offshore,Offshore,Offshore,Offshore,Offshore,Offshore",7
5842041f4e65fad6a7708871,2023_12_28,29.069417851135093,-80.90824,New Smyrna Beach,3,0.8685952380952381,1.1967142857142858,19,17,"NIGHT_OVERCAST,NIGHT_OVERCAST,NIGHT_CLEAR,NIGHT_CLEAR,NIGHT_BRIEF_SHOWERS_POSSIBLE,CLEAR,CLEAR","Onshore,Offshore,Offshore,Offshore,Offshore,Offshore,Offshore",7
5842041f4e65fad6a7708872,2023_12_28,28.367707417566,-80.60171,Cocoa Beach Pier,2,0.2588761904761905,0.5643904761904762,21,20,"NIGHT_MOSTLY_CLOUDY,NIGHT_CLOUDY,NIGHT_DRIZZLE,NIGHT_DRIZZLE,NIGHT_FOG,DRIZZLE,MIST","Offshore,Offshore,Offshore,Offshore,Offshore,Offshore,Offshore",7
5842041f4e65fad6a7708873,2023_12_28,28.091782738658846,-80.56479,Indialantic,2.142857142857143,0.5006619047619048,0.8044904761904762,23,22,"NIGHT_CLEAR,NIGHT_CLOUDY,NIGHT_OVERCAST,NIGHT_CLEAR,NIGHT_DRIZZLE,OVERCAST,OVERCAST","Offshore,Offshore,Offshore,Offshore,Offshore,Offshore,Offshore",7
5842041f4e65fad6a7708876,2023_12_28,27.25392904143517,-80.19455,Jensen Beach,0.9042857142857142,0.38843333333333335,0.6902571428571429,25,23,"NIGHT_OVERCAST,NIGHT_CLEAR,NIGHT_MOSTLY_CLOUDY,NIGHT_OVERCAST,NIGHT_CLEAR,CLEAR,CLOUDY","Offshore,Cross-shore,Cross-shore,Cross-shore,Cross-shore,Cross-shore,Cross-shore",7
5842041f4e65fad6a7708879,2023_12_28,26.76346795333825,-80.0360655784607,Reef Road,0.2857142857142857,-0.0048809523809523825,0.2716047619047619,25,23,"NIGHT_CLEAR,NIGHT_MOSTLY_CLOUDY,NIGHT_CLOUDY,NIGHT_MOSTLY_CLOUDY,NIGHT_CLEAR,MOSTLY_CLEAR,MOSTLY_CLOUDY","Offshore,Offshore,Offshore,Cross-shore,Cross-shore,Cross-shore,Cross-shore",7
5842041f4e65fad6a770887c,2023_12_28,26.336499228484,-80.06956100463,Boca Raton Inlet,0.8571428571428571,0.03154761904761905,0.34034761904761907,25,23,"NIGHT_CLEAR,NIGHT_CLOUDY,NIGHT_CLEAR,NIGHT_OVERCAST,NIGHT_OVERCAST,CLEAR,MOSTLY_CLOUDY","Offshore,Offshore,Cross-shore,Cross-shore,Cross-shore,Offshore,Offshore",7
5842041f4e65fad6a770887d,2023_12_28,26.31719311695038,-80.07452525176168,Deerfield Beach Pier,0,0,0.23201904761904765,26,23,"NIGHT_CLEAR,NIGHT_MIST,NIGHT_CLEAR,NIGHT_CLOUDY,NIGHT_CLOUDY,CLEAR,MOSTLY_CLOUDY","Offshore,Offshore,Cross-shore,Cross-shore,Offshore,Offshore,Offshore",7
5842041f4e65fad6a7708881,2023_12_28,30.20276320866628,-85.85626528676136,"Spyglass Dr., Panama City",0,0,0.2740809523809524,16,15,"NIGHT_CLEAR,NIGHT_CLEAR,NIGHT_CLEAR,NIGHT_CLEAR,NIGHT_CLEAR,NIGHT_CLEAR,CLEAR","Onshore,Cross-shore,Offshore,Offshore,Offshore,Offshore,Offshore",7
5842041f4e65fad6a7708884,2023_12_28,33.39000832738053,-117.59852,Cottons,3.142857142857143,0.9106285714285715,1.1741714285714286,17,17,"NIGHT_DRIZZLE,NIGHT_MIST,NIGHT_OVERCAST,NIGHT_MIST,NIGHT_MIST,NIGHT_DRIZZLE,NIGHT_MIST","Onshore,Cross-shore,Cross-shore,Cross-shore,Cross-shore,Cross-shore,Cross-shore",7
5842041f4e65fad6a7708885,2023_12_28,33.359416282661,-117.54167901405711,Trails,2.857142857142857,0.5828571428571429,0.8728571428571429,16,16,"NIGHT_MIST,NIGHT_MIST,NIGHT_MIST,NIGHT_MIST,NIGHT_MIST,NIGHT_MIST,NIGHT_BRIEF_SHOWERS","Cross-shore,Offshore,Offshore,Offshore,Offshore,Offshore,Offshore",7
5842041f4e65fad6a7708886,2023_12_28,33.38042605929805,-117.58332,Middles,2.857142857142857,0.42422857142857145,0.7524,17,17,"NIGHT_DRIZZLE,NIGHT_MIST,NIGHT_OVERCAST,NIGHT_MIST,NIGHT_MIST,NIGHT_DRIZZLE,NIGHT_MIST","Onshore,Offshore,Offshore,Offshore,Offshore,Cross-shore,Offshore",7
5842041f4e65fad6a7708887,2023_12_28,33.38445596302903,-117.59445,Upper Trestles,3.4285714285714284,0.9549142857142857,1.1956,17,17,"NIGHT_DRIZZLE,NIGHT_MIST,NIGHT_OVERCAST,NIGHT_MIST,NIGHT_MIST,NIGHT_DRIZZLE,NIGHT_MIST","Cross-shore,Offshore,Offshore,Offshore,Offshore,Offshore,Offshore",7
5842041f4e65fad6a7708889,2023_12_28,28.944414,-95.28883,Surfside,1.1428571428571428,0.2682942857142857,0.4192057142857143,17,17,"NIGHT_CLEAR,NIGHT_CLEAR,NIGHT_CLEAR,NIGHT_CLEAR,NIGHT_CLEAR,NIGHT_CLEAR,NIGHT_CLEAR","Offshore,Offshore,Offshore,Offshore,Offshore,Offshore,Offshore",7
5842041f4e65fad6a770888a,2023_12_28,33.38143999849023,-117.58843,Lower Trestles,3,0.8599428571428571,1.1524,17,17,"NIGHT_DRIZZLE,NIGHT_MIST,NIGHT_OVERCAST,NIGHT_MIST,NIGHT_MIST,NIGHT_DRIZZLE,NIGHT_MIST","Cross-shore,Offshore,Offshore,Offshore,Cross-shore,Offshore,Offshore",7
5842041f4e65fad6a770888b,2023_12_28,33.379622288757,-117.57894,Church,2.857142857142857,0.5099428571428571,0.8352571428571428,17,17,"NIGHT_DRIZZLE,NIGHT_MIST,NIGHT_OVERCAST,NIGHT_MIST,NIGHT_MIST,NIGHT_DRIZZLE,NIGHT_MIST","Onshore,Cross-shore,Cross-shore,Cross-shore,Cross-shore,Cross-shore,Cross-shore",7
5842041f4e65fad6a770888d,2023_12_28,21.679,-158.042,Sunset Beach,2.857142857142857,3.8645238095238095,4.656785714285714,26,25,"MOSTLY_CLOUDY,NIGHT_MOSTLY_CLOUDY,NIGHT_CLEAR,NIGHT_MOSTLY_CLOUDY,NIGHT_MOSTLY_CLOUDY,NIGHT_MOSTLY_CLOUDY,NIGHT_FOG","Onshore,Offshore,Onshore,Cross-shore,Offshore,Offshore,Offshore",7
5842041f4e65fad6a770888e,2023_12_28,21.670550036401,-158.0482,Rocky Point,2.857142857142857,3.592142857142857,4.310238095238096,26,25,"MOSTLY_CLOUDY,NIGHT_MOSTLY_CLOUDY,NIGHT_CLEAR,NIGHT_MOSTLY_CLOUDY,NIGHT_MOSTLY_CLOUDY,NIGHT_MOSTLY_CLOUDY,NIGHT_MOSTLY_CLOUDY","Onshore,Offshore,Onshore,Cross-shore,Offshore,Offshore,Offshore",7
5842041f4e65fad6a770888f,2023_12_28,21.668,-158.05,Chambers,2.857142857142857,3.4714285714285715,4.1242857142857146,25,25,"MOSTLY_CLOUDY,NIGHT_MOSTLY_CLOUDY,NIGHT_CLEAR,NIGHT_MOSTLY_CLOUDY,NIGHT_MOSTLY_CLOUDY,NIGHT_MOSTLY_CLOUDY,NIGHT_MOSTLY_CLOUDY","Onshore,Offshore,Onshore,Cross-shore,Offshore,Offshore,Offshore",7
5842041f4e65fad6a7708890,2023_12_28,21.66522,-158.0526,Pipeline,3,3.197142857142857,3.8191904761904762,26,25,"MOSTLY_CLOUDY,NIGHT_MOSTLY_CLOUDY,NIGHT_CLEAR,NIGHT_MOSTLY_CLOUDY,NIGHT_MOSTLY_CLOUDY,NIGHT_MOSTLY_CLOUDY,NIGHT_MOSTLY_CLOUDY","Onshore,Offshore,Onshore,Cross-shore,Offshore,Offshore,Offshore",7
5842041f4e65fad6a7708891,2023_12_28,21.665,-158.054,Backdoor,3,3.157142857142857,3.77,25,25,"MOSTLY_CLOUDY,NIGHT_MOSTLY_CLOUDY,NIGHT_CLEAR,NIGHT_MOSTLY_CLOUDY,NIGHT_MOSTLY_CLOUDY,NIGHT_MOSTLY_CLOUDY,NIGHT_MOSTLY_CLOUDY","Onshore,Offshore,Onshore,Cross-shore,Offshore,Offshore,Offshore",7
5842041f4e65fad6a7708892,2023_12_28,21.662,-158.057,Rockpile,2.4285714285714284,3.6514285714285717,4.365714285714286,25,25,"MOSTLY_CLOUDY,NIGHT_MOSTLY_CLOUDY,NIGHT_CLEAR,NIGHT_MOSTLY_CLOUDY,NIGHT_MOSTLY_CLOUDY,NIGHT_MOSTLY_CLOUDY,NIGHT_MOSTLY_CLOUDY","Onshore,Offshore,Onshore,Cross-shore,Offshore,Offshore,Offshore",7
5842041f4e65fad6a7708893,2023_12_28,21.65870453806827,-158.06058,Log Cabins,2.857142857142857,3.047142857142857,3.6414285714285715,25,25,"MOSTLY_CLOUDY,NIGHT_MOSTLY_CLOUDY,NIGHT_CLEAR,NIGHT_MOSTLY_CLOUDY,NIGHT_MOSTLY_CLOUDY,NIGHT_MOSTLY_CLOUDY,NIGHT_MOSTLY_CLOUDY","Onshore,Offshore,Onshore,Cross-shore,Offshore,Offshore,Offshore",7
5842041f4e65fad6a7708894,2023_12_28,21.66203493640557,-158.05495,Off-The-Wall,2.7142857142857144,3.757142857142857,4.4871428571428575,25,25,"MOSTLY_CLOUDY,NIGHT_MOSTLY_CLOUDY,NIGHT_CLEAR,NIGHT_MOSTLY_CLOUDY,NIGHT_MOSTLY_CLOUDY,NIGHT_MOSTLY_CLOUDY,NIGHT_MOSTLY_CLOUDY","Onshore,Offshore,Onshore,Cross-shore,Offshore,Offshore,Offshore",7
5842041f4e65fad6a7708895,2023_12_28,21.643,-158.067,Waimea Bay,NA,3.978214285714286,4.7351190476190474,26,25,"MOSTLY_CLOUDY,NIGHT_MOSTLY_CLOUDY,NIGHT_CLEAR,NIGHT_MOSTLY_CLOUDY,NIGHT_MOSTLY_CLOUDY,NIGHT_MOSTLY_CLOUDY,NIGHT_MOSTLY_CLOUDY","Onshore,Offshore,Onshore,Cross-shore,Offshore,Offshore,Offshore",7
5842041f4e65fad6a7708896,2023_12_28,21.622,-158.087,Hultin's,2.2857142857142856,4.0375,4.748095238095238,26,25,"MOSTLY_CLOUDY,NIGHT_MOSTLY_CLOUDY,NIGHT_MOSTLY_CLEAR,NIGHT_CLEAR,NIGHT_MOSTLY_CLOUDY,NIGHT_MOSTLY_CLOUDY,NIGHT_MOSTLY_CLOUDY","Cross-shore,Onshore,Cross-shore,Cross-shore,Cross-shore,Cross-shore,Cross-shore",7
5842041f4e65fad6a7708897,2023_12_28,21.623,-158.085,Jocko's,2.142857142857143,2.9885714285714284,3.572857142857143,25,25,"MOSTLY_CLOUDY,NIGHT_MOSTLY_CLOUDY,NIGHT_MOSTLY_CLEAR,NIGHT_CLEAR,NIGHT_MOSTLY_CLOUDY,NIGHT_MOSTLY_CLOUDY,NIGHT_MOSTLY_CLOUDY","Onshore,Onshore,Onshore,Onshore,Onshore,Onshore,Onshore",7
5842041f4e65fad6a7708898,2023_12_28,21.62,-158.088,Laniakea,2.142857142857143,3.0594047619047617,3.711190476190476,26,25,"MOSTLY_CLOUDY,NIGHT_MOSTLY_CLOUDY,NIGHT_MOSTLY_CLEAR,NIGHT_CLEAR,NIGHT_MOSTLY_CLOUDY,NIGHT_MOSTLY_CLOUDY,NIGHT_MOSTLY_CLOUDY","Onshore,Onshore,Onshore,Onshore,Onshore,Onshore,Cross-shore",7
5842041f4e65fad6a7708899,2023_12_28,21.625,-158.083,Chun's,2.142857142857143,3.0314285714285716,3.6228571428571428,25,25,"MOSTLY_CLOUDY,NIGHT_MOSTLY_CLOUDY,NIGHT_MOSTLY_CLEAR,NIGHT_CLEAR,NIGHT_MOSTLY_CLOUDY,NIGHT_MOSTLY_CLOUDY,NIGHT_MOSTLY_CLOUDY","Onshore,Onshore,Onshore,Onshore,Onshore,Onshore,Cross-shore",7
5842041f4e65fad6a770889c,2023_12_28,21.286357895152136,-157.8515,South Shore - Ala Moana Park,2,0.09142857142857143,0.39714285714285713,25,25,"BRIEF_SHOWERS,NIGHT_CLEAR,NIGHT_CLEAR,NIGHT_CLEAR,NIGHT_CLEAR,NIGHT_CLEAR,NIGHT_CLEAR","Offshore,Offshore,Offshore,Offshore,Offshore,Offshore,Offshore",7
5842041f4e65fad6a770889d,2023_12_28,19.606,-155.978,Banyans,3,0.9632380952380952,1.1492380952380952,26,25,"MOSTLY_CLEAR,NIGHT_CLEAR,NIGHT_CLEAR,NIGHT_CLEAR,NIGHT_CLEAR,NIGHT_CLEAR,NIGHT_CLEAR","Onshore,Cross-shore,Cross-shore,Cross-shore,Cross-shore,Cross-shore,Cross-shore",7
5842041f4e65fad6a770889e,2023_12_28,20.029,-155.831,Kawaihae,2,0.4444,0.7502485714285714,25,25,"CLEAR,NIGHT_CLEAR,NIGHT_CLEAR,NIGHT_MOSTLY_CLEAR,NIGHT_CLEAR,NIGHT_CLEAR,NIGHT_CLEAR","Onshore,Cross-shore,Onshore,Offshore,Offshore,Offshore,Offshore",7
5842041f4e65fad6a770889f,2023_12_28,33.07541383424675,-117.3105,Grandview,2.857142857142857,0.7128571428571429,0.9857142857142857,17,17,"NIGHT_MOSTLY_CLOUDY,NIGHT_MIST,NIGHT_OVERCAST,NIGHT_OVERCAST,NIGHT_OVERCAST,NIGHT_OVERCAST,NIGHT_OVERCAST","Onshore,Offshore,Offshore,Offshore,Offshore,Offshore,Offshore",7
5842041f4e65fad6a77088a0,2023_12_28,33.065267421296596,-117.30577,Beacons,2.857142857142857,0.74,1.0114285714285713,17,17,"NIGHT_MOSTLY_CLOUDY,NIGHT_MIST,NIGHT_OVERCAST,NIGHT_OVERCAST,NIGHT_OVERCAST,NIGHT_OVERCAST,NIGHT_OVERCAST","Onshore,Offshore,Offshore,Offshore,Offshore,Offshore,Offshore",7
5842041f4e65fad6a77088a2,2023_12_28,21.252,-157.805,Diamond Head,2,0.3164847619047619,0.6351490476190477,26,25,"MOSTLY_CLOUDY,NIGHT_CLEAR,NIGHT_CLEAR,NIGHT_CLEAR,NIGHT_CLEAR,NIGHT_CLEAR,NIGHT_CLEAR","Offshore,Offshore,Offshore,Offshore,Offshore,Offshore,Offshore",7
5842041f4e65fad6a77088a3,2023_12_28,33.04694255008896,-117.29966,Moonlight State Beach,3.142857142857143,0.7528571428571429,1.0285714285714285,17,17,"NIGHT_MIST,NIGHT_MIST,NIGHT_OVERCAST,NIGHT_OVERCAST,NIGHT_OVERCAST,NIGHT_MIST,NIGHT_OVERCAST","Onshore,Offshore,Offshore,Offshore,Cross-shore,Offshore,Offshore",7
5842041f4e65fad6a77088a5,2023_12_28,33.08685865930869,-117.31532,Ponto,3.2857142857142856,1.0971428571428572,1.3371428571428572,17,17,"NIGHT_MOSTLY_CLOUDY,NIGHT_MIST,NIGHT_OVERCAST,NIGHT_OVERCAST,NIGHT_OVERCAST,NIGHT_OVERCAST,NIGHT_OVERCAST","Onshore,Offshore,Offshore,Cross-shore,Cross-shore,Cross-shore,Offshore",7
5842041f4e65fad6a77088a6,2023_12_28,33.130343587871906,-117.33667796442558,Terra Mar Point,2.3814285714285712,0.48937142857142857,0.7952857142857143,17,17,"NIGHT_MOSTLY_CLOUDY,NIGHT_OVERCAST,NIGHT_OVERCAST,NIGHT_OVERCAST,NIGHT_OVERCAST,NIGHT_OVERCAST,NIGHT_OVERCAST","Cross-shore,Cross-shore,Cross-shore,Cross-shore,Cross-shore,Cross-shore,Offshore",7
5842041f4e65fad6a77088af,2023_12_28,32.95916304183685,-117.26963,Del Mar,3,1.072857142857143,1.3142857142857143,17,17,"NIGHT_MOSTLY_CLOUDY,NIGHT_MIST,NIGHT_OVERCAST,NIGHT_MIST,NIGHT_OVERCAST,NIGHT_OVERCAST,NIGHT_OVERCAST","Onshore,Onshore,Cross-shore,Onshore,Onshore,Onshore,Onshore",7
5842041f4e65fad6a77088b0,2023_12_28,32.97527261243354,-117.2721061331305,Del Mar Rivermouth,3,1.1114285714285714,1.3557142857142856,17,17,"NIGHT_CLEAR,NIGHT_MIST,NIGHT_MIST,NIGHT_MIST,NIGHT_OVERCAST,NIGHT_OVERCAST,NIGHT_OVERCAST","Onshore,Onshore,Cross-shore,Onshore,Onshore,Onshore,Onshore",7
5842041f4e65fad6a77088b1,2023_12_28,33.01352178146273,-117.28219,Cardiff Reef,3.0957142857142856,1.1555619047619048,1.490247619047619,17,17,"NIGHT_MIST,NIGHT_MIST,NIGHT_MIST,NIGHT_OVERCAST,NIGHT_OVERCAST,NIGHT_OVERCAST,NIGHT_DRIZZLE","Cross-shore,Onshore,Cross-shore,Cross-shore,Cross-shore,Onshore,Cross-shore",7
5842041f4e65fad6a77088b3,2023_12_28,33.00211185876003,-117.281101957955,Seaside Reef,3.0957142857142856,1.1831809523809524,1.5178666666666667,17,17,"NIGHT_MOSTLY_CLOUDY,NIGHT_OVERCAST,NIGHT_MIST,NIGHT_OVERCAST,NIGHT_OVERCAST,NIGHT_OVERCAST,NIGHT_DRIZZLE","Cross-shore,Onshore,Cross-shore,Cross-shore,Onshore,Onshore,Cross-shore",7
5842041f4e65fad6a77088b4,2023_12_28,33.0341859796287,-117.29552,Swami's,3.5714285714285716,1.1631809523809524,1.4750095238095238,17,17,"NIGHT_MIST,NIGHT_MIST,NIGHT_MIST,NIGHT_OVERCAST,NIGHT_OVERCAST,NIGHT_OVERCAST,NIGHT_DRIZZLE","Onshore,Offshore,Offshore,Offshore,Cross-shore,Offshore,Offshore",7
5842041f4e65fad6a77088b7,2023_12_28,33.04569760260221,-117.2994,D Street,3.142857142857143,0.9871428571428571,1.22,17,17,"NIGHT_MIST,NIGHT_MIST,NIGHT_OVERCAST,NIGHT_OVERCAST,NIGHT_OVERCAST,NIGHT_MIST,NIGHT_OVERCAST","Onshore,Offshore,Offshore,Offshore,Cross-shore,Offshore,Offshore",7
5842041f4e65fad6a77088b8,2023_12_28,33.02090944350196,-117.28535,San Elijo State Beach,2.3814285714285712,0.7560380952380953,1.1028666666666667,17,17,"NIGHT_MIST,NIGHT_MIST,NIGHT_MIST,NIGHT_OVERCAST,NIGHT_OVERCAST,NIGHT_OVERCAST,NIGHT_DRIZZLE","Cross-shore,Onshore,Cross-shore,Cross-shore,Cross-shore,Onshore,Cross-shore",7
5842041f4e65fad6a77088c2,2023_12_28,32.80662846492798,-117.2688764333725,PB Point,3,1.0071428571428571,1.22,17,17,"NIGHT_OVERCAST,NIGHT_MIST,NIGHT_OVERCAST,NIGHT_DRIZZLE,NIGHT_OVERCAST,NIGHT_OVERCAST,NIGHT_DRIZZLE","Cross-shore,Cross-shore,Offshore,Cross-shore,Cross-shore,Offshore,Cross-shore",7
5842041f4e65fad6a77088c4,2023_12_28,32.8060476681448,-117.26479,Old Man's at Tourmaline,3,0.7485714285714286,1.002857142857143,17,17,"NIGHT_OVERCAST,NIGHT_MIST,NIGHT_OVERCAST,NIGHT_DRIZZLE,NIGHT_OVERCAST,NIGHT_OVERCAST,NIGHT_DRIZZLE","Cross-shore,Cross-shore,Offshore,Cross-shore,Cross-shore,Offshore,Cross-shore",7
5842041f4e65fad6a77088cb,2023_12_28,32.557056711256,-117.1327445020322,Tijuana Slough,2,0.4328571428571429,0.7371428571428571,17,17,"NIGHT_CLEAR,NIGHT_MIST,NIGHT_MIST,NIGHT_OVERCAST,NIGHT_MIST,NIGHT_CLOUDY,NIGHT_CLOUDY","Cross-shore,Cross-shore,Cross-shore,Cross-shore,Cross-shore,Cross-shore,Cross-shore",7
5842041f4e65fad6a77088cc,2023_12_28,32.863,-117.257,La Jolla Shores,2.142857142857143,0.8157142857142857,1.072857142857143,17,17,"NIGHT_OVERCAST,NIGHT_MIST,NIGHT_MIST,NIGHT_MIST,NIGHT_MIST,NIGHT_MIST,NIGHT_OVERCAST","Onshore,Onshore,Onshore,Onshore,Onshore,Onshore,Onshore",7
5842041f4e65fad6a77088ce,2023_12_28,32.67443657790586,-117.17421316238693,Coronado Beach,3,0.5228571428571429,0.83,17,17,"NIGHT_CLEAR,NIGHT_DRIZZLE,NIGHT_OVERCAST,NIGHT_OVERCAST,NIGHT_OVERCAST,NIGHT_DRIZZLE,NIGHT_OVERCAST","Offshore,Offshore,Offshore,Offshore,Offshore,Offshore,Offshore",7
5842041f4e65fad6a77088cf,2023_12_28,33.40484417640326,-117.60749,San Clemente State Beach,2.857142857142857,0.75,1.0071428571428571,16,16,"NIGHT_MIST,NIGHT_MOSTLY_CLOUDY,NIGHT_OVERCAST,NIGHT_OVERCAST,NIGHT_OVERCAST,NIGHT_OVERCAST,NIGHT_MOSTLY_CLOUDY","Cross-shore,Cross-shore,Cross-shore,Cross-shore,Cross-shore,Cross-shore,Cross-shore",7
5842041f4e65fad6a77088d5,2023_12_28,33.4663042002114,-117.7168352817103,Strands,3.047142857142857,1.152742857142857,1.4498285714285715,17,17,"NIGHT_MIST,NIGHT_OVERCAST,NIGHT_CLOUDY,NIGHT_OVERCAST,NIGHT_OVERCAST,NIGHT_OVERCAST,NIGHT_OVERCAST","Cross-shore,Cross-shore,Onshore,Onshore,Onshore,Onshore,Onshore",7
5842041f4e65fad6a77088d7,2023_12_28,33.4609858001748,-117.68535,Doheny State Beach,1.9285714285714286,0.049999999999999996,0.3564,17,17,"NIGHT_MIST,NIGHT_OVERCAST,NIGHT_OVERCAST,NIGHT_OVERCAST,NIGHT_OVERCAST,NIGHT_OVERCAST,NIGHT_OVERCAST","Cross-shore,Offshore,Offshore,Offshore,Offshore,Offshore,Offshore",7
5842041f4e65fad6a77088dc,2023_12_28,33.50894790083017,-117.75243,Aliso Creek,2.5714285714285716,0.3728571428571429,0.6828571428571428,16,16,"NIGHT_MIST,NIGHT_CLOUDY,NIGHT_CLOUDY,NIGHT_CLOUDY,NIGHT_MIST,NIGHT_MIST,NIGHT_MIST","Cross-shore,Cross-shore,Cross-shore,Onshore,Onshore,Onshore,Cross-shore",7
5842041f4e65fad6a77088dd,2023_12_28,33.5326591767067,-117.77764,Brooks Street,2,0.2057142857142857,0.5114285714285715,16,16,"NIGHT_MIST,NIGHT_CLOUDY,NIGHT_CLOUDY,NIGHT_CLOUDY,NIGHT_MIST,NIGHT_MIST,NIGHT_MIST","Cross-shore,Cross-shore,Cross-shore,Onshore,Onshore,Onshore,Cross-shore",7
5842041f4e65fad6a77088de,2023_12_28,33.53561225884637,-117.7799,Thalia Street,2.142857142857143,0.24285714285714285,0.55,16,16,"NIGHT_MIST,NIGHT_CLOUDY,NIGHT_CLOUDY,NIGHT_CLOUDY,NIGHT_MIST,NIGHT_MIST,NIGHT_MIST","Cross-shore,Cross-shore,Cross-shore,Onshore,Onshore,Onshore,Cross-shore",7
5842041f4e65fad6a77088e3,2023_12_28,33.54268310353641,-117.7916,Rockpile,2,0.2671428571428571,0.5714285714285714,16,16,"NIGHT_MIST,NIGHT_CLOUDY,NIGHT_CLOUDY,NIGHT_CLOUDY,NIGHT_MIST,NIGHT_MIST,NIGHT_MIST","Cross-shore,Cross-shore,Cross-shore,Cross-shore,Onshore,Cross-shore,Cross-shore",7
5842041f4e65fad6a77088e4,2023_12_28,33.7368459504689,-118.10342,"Seal Beach Pier, Southside",2,0.12000000000000001,0.4242857142857143,16,16,"NIGHT_CLEAR,NIGHT_CLOUDY,NIGHT_CLOUDY,NIGHT_CLOUDY,NIGHT_CLOUDY,NIGHT_CLOUDY,NIGHT_OVERCAST","Cross-shore,Offshore,Offshore,Offshore,Offshore,Offshore,Offshore",7
5842041f4e65fad6a77088e5,2023_12_28,33.73933701820233,-118.117,Ray Bay,2,0.07428571428571429,0.38,16,16,"NIGHT_MOSTLY_CLOUDY,NIGHT_OVERCAST,NIGHT_OVERCAST,NIGHT_OVERCAST,NIGHT_DRIZZLE,NIGHT_OVERCAST,NIGHT_OVERCAST","Onshore,Offshore,Offshore,Offshore,Offshore,Offshore,Offshore",7
5842041f4e65fad6a77088e7,2023_12_28,33.728733,-118.08982,Surfside,2.857142857142857,0.6485714285714286,0.9357142857142857,16,16,"NIGHT_CLOUDY,NIGHT_MOSTLY_CLOUDY,NIGHT_OVERCAST,NIGHT_OVERCAST,NIGHT_OVERCAST,NIGHT_OVERCAST,NIGHT_OVERCAST","Cross-shore,Offshore,Offshore,Offshore,Offshore,Offshore,Offshore",7
5842041f4e65fad6a77088e8,2023_12_28,33.68760321488161,-118.04236,Bolsa Chica State Beach,3.2857142857142856,1.2556,1.499142857142857,17,17,"NIGHT_OVERCAST,NIGHT_MIST,NIGHT_OVERCAST,NIGHT_OVERCAST,NIGHT_OVERCAST,NIGHT_OVERCAST,NIGHT_OVERCAST","Onshore,Cross-shore,Cross-shore,Cross-shore,Cross-shore,Cross-shore,Cross-shore",7
5842041f4e65fad6a77088ea,2023_12_28,33.66704400178788,-118.0192,North HB Streets,3.4285714285714284,1.2227428571428571,1.5426714285714287,17,17,"NIGHT_CLOUDY,NIGHT_MIST,NIGHT_OVERCAST,NIGHT_OVERCAST,NIGHT_OVERCAST,NIGHT_OVERCAST,NIGHT_OVERCAST","Onshore,Cross-shore,Offshore,Cross-shore,Cross-shore,Cross-shore,Cross-shore",7
5842041f4e65fad6a77088ed,2023_12_28,33.65475101379567,-118.00291,Huntington Beach Pier Southside,3.2857142857142856,1.0741714285714286,1.4044571428571428,17,17,"NIGHT_OVERCAST,NIGHT_MIST,NIGHT_OVERCAST,NIGHT_OVERCAST,NIGHT_OVERCAST,NIGHT_OVERCAST,NIGHT_OVERCAST","Onshore,Cross-shore,Offshore,Offshore,Offshore,Offshore,Offshore",7
5842041f4e65fad6a77088ee,2023_12_28,33.62778647706099,-117.95939,River Jetties,3,0.7763428571428571,1.0773714285714284,17,17,"NIGHT_MIST,NIGHT_BRIEF_SHOWERS,NIGHT_OVERCAST,NIGHT_OVERCAST,NIGHT_OVERCAST,NIGHT_OVERCAST,NIGHT_OVERCAST","Onshore,Offshore,Offshore,Offshore,Offshore,Offshore,Offshore",7
5842041f4e65fad6a77088f2,2023_12_28,33.605165797643664,-117.92500376701355,Newport Point,2,0.12714285714285714,0.43285714285714283,16,16,"NIGHT_MIST,NIGHT_MIST,NIGHT_CLOUDY,NIGHT_CLOUDY,NIGHT_OVERCAST,NIGHT_OVERCAST,NIGHT_OVERCAST","Cross-shore,Cross-shore,Cross-shore,Cross-shore,Onshore,Onshore,Onshore",7
5842041f4e65fad6a77088f3,2023_12_28,33.58982984726977,-117.87713,Corona del Mar,1,0.10568285714285715,0.16513,16,16,"NIGHT_MIST,NIGHT_MIST,NIGHT_OVERCAST,NIGHT_OVERCAST,NIGHT_OVERCAST,NIGHT_MIST,NIGHT_MIST","Onshore,Offshore,Offshore,Offshore,Offshore,Offshore,Offshore",7
5842041f4e65fad6a77088f7,2023_12_28,34.00750300824362,-118.4971783496269,Santa Monica Pier,2,0.11,0.41285714285714287,16,16,"NIGHT_MIST,NIGHT_MIST,NIGHT_MOSTLY_CLOUDY,NIGHT_MOSTLY_CLOUDY,NIGHT_MOSTLY_CLOUDY,NIGHT_OVERCAST,NIGHT_MOSTLY_CLOUDY","Onshore,Offshore,Cross-shore,Cross-shore,Onshore,Onshore,Onshore",7
5842041f4e65fad6a77088ff,2023_12_28,33.94070283102945,-118.44321,Dockweiler Beach,3,1.043607142857143,1.224537142857143,17,17,"NIGHT_MIST,NIGHT_CLOUDY,NIGHT_CLOUDY,NIGHT_CLOUDY,NIGHT_OVERCAST,NIGHT_DRIZZLE,NIGHT_CLOUDY","Onshore,Offshore,Cross-shore,Cross-shore,Cross-shore,Cross-shore,Cross-shore",7
5842041f4e65fad6a7708900,2023_12_28,33.9231846937237,-118.4341465777908,Shitpipe,2.857142857142857,0.8777714285714285,1.1413142857142857,17,17,"NIGHT_MIST,NIGHT_CLOUDY,NIGHT_CLOUDY,NIGHT_CLOUDY,NIGHT_CLOUDY,NIGHT_OVERCAST,NIGHT_OVERCAST","Onshore,Offshore,Cross-shore,Cross-shore,Cross-shore,Cross-shore,Offshore",7
5842041f4e65fad6a7708902,2023_12_28,33.9108528052242,-118.4279133138721,Hammerland,2.952857142857143,0.9663428571428572,1.282,17,17,"NIGHT_MIST,NIGHT_CLOUDY,NIGHT_CLOUDY,NIGHT_CLOUDY,NIGHT_CLOUDY,NIGHT_OVERCAST,NIGHT_OVERCAST","Onshore,Offshore,Cross-shore,Cross-shore,Cross-shore,Cross-shore,Offshore",7
5842041f4e65fad6a7708904,2023_12_28,33.87201368173932,-118.4075151286262,Hermosa Beach,2.857142857142857,0.7306857142857143,0.9899428571428571,17,17,"NIGHT_MIST,NIGHT_CLOUDY,NIGHT_CLOUDY,NIGHT_OVERCAST,NIGHT_OVERCAST,NIGHT_CLOUDY,NIGHT_CLOUDY","Onshore,Onshore,Cross-shore,Offshore,Offshore,Offshore,Offshore",7
5842041f4e65fad6a7708906,2023_12_28,33.90129336911256,-118.42184,El Porto,3,1.4577714285714285,1.8105714285714285,17,17,"NIGHT_MIST,NIGHT_CLOUDY,NIGHT_OVERCAST,NIGHT_CLOUDY,NIGHT_CLOUDY,NIGHT_CLOUDY,NIGHT_OVERCAST","Onshore,Cross-shore,Cross-shore,Cross-shore,Cross-shore,Offshore,Offshore",7
5842041f4e65fad6a7708907,2023_12_28,33.87963506431794,-118.41102,Manhattan Beach Pier,3,1.3713428571428572,1.6566714285714286,17,17,"NIGHT_MIST,NIGHT_CLOUDY,NIGHT_OVERCAST,NIGHT_CLOUDY,NIGHT_CLOUDY,NIGHT_CLOUDY,NIGHT_OVERCAST","Onshore,Cross-shore,Cross-shore,Cross-shore,Cross-shore,Offshore,Offshore",7
5842041f4e65fad6a7708914,2023_12_28,34.038053387863464,-118.5532,Sunset Point,1.7142857142857142,0.05,0.3514285714285714,16,16,"NIGHT_MIST,NIGHT_MOSTLY_CLOUDY,NIGHT_CLEAR,NIGHT_MOSTLY_CLOUDY,NIGHT_MOSTLY_CLOUDY,NIGHT_MOSTLY_CLOUDY,NIGHT_MOSTLY_CLOUDY","Cross-shore,Cross-shore,Cross-shore,Offshore,Offshore,Offshore,Offshore",7
5842041f4e65fad6a7708920,2023_12_28,33.80930828074364,-118.3933198342649,Haggerty's,2.142857142857143,0.3334285714285714,0.5005714285714286,16,16,"NIGHT_MIST,NIGHT_CLOUDY,NIGHT_DRIZZLE,NIGHT_OVERCAST,NIGHT_CLOUDY,NIGHT_OVERCAST,NIGHT_MIST","Onshore,Onshore,Offshore,Offshore,Offshore,Offshore,Offshore",7
5842041f4e65fad6a7708921,2023_12_28,33.85044519861206,-118.40048,Redondo Breakwater,3,1.1742857142857144,1.41,16,16,"NIGHT_MIST,NIGHT_CLOUDY,NIGHT_CLOUDY,NIGHT_OVERCAST,NIGHT_OVERCAST,NIGHT_CLOUDY,NIGHT_CLOUDY","Onshore,Onshore,Cross-shore,Offshore,Offshore,Offshore,Offshore",7
5842041f4e65fad6a7708927,2023_12_28,33.70877301002487,-118.2840112858389,Cabrillo Beach,1.8571428571428572,0.10142857142857144,0.4057142857142857,16,16,"NIGHT_CLEAR,NIGHT_CLEAR,NIGHT_OVERCAST,NIGHT_CLEAR,NIGHT_CLOUDY,NIGHT_OVERCAST,NIGHT_OVERCAST","Offshore,Offshore,Offshore,Cross-shore,Onshore,Cross-shore,Cross-shore",7
5842041f4e65fad6a770892c,2023_12_28,33.77209986806257,-118.4268428476672,Lunada Bay,2.7142857142857144,1.3928571428571428,1.6485714285714286,17,17,"NIGHT_BRIEF_SHOWERS,NIGHT_CLOUDY,NIGHT_DRIZZLE,NIGHT_OVERCAST,NIGHT_OVERCAST,NIGHT_OVERCAST,NIGHT_CLOUDY","Cross-shore,Onshore,Cross-shore,Cross-shore,Onshore,Offshore,Offshore",7
5842041f4e65fad6a770892d,2023_12_28,33.79294656286144,-118.4070316699825,PV Cove,2.857142857142857,0.8655285714285714,1.09125,16,16,"NIGHT_MIST,NIGHT_CLOUDY,NIGHT_DRIZZLE,NIGHT_OVERCAST,NIGHT_CLOUDY,NIGHT_OVERCAST,NIGHT_MIST","Onshore,Onshore,Offshore,Offshore,Offshore,Offshore,Offshore",7
5842041f4e65fad6a7708930,2023_12_28,34.03944902292561,-118.57539,Chart House,0.8571428571428571,0.0014285714285714286,0.19857142857142857,16,16,"NIGHT_MIST,NIGHT_MOSTLY_CLOUDY,NIGHT_MOSTLY_CLOUDY,NIGHT_MOSTLY_CLOUDY,NIGHT_FOG,NIGHT_MOSTLY_CLOUDY,NIGHT_MOSTLY_CLOUDY","Cross-shore,Onshore,Cross-shore,Offshore,Offshore,Offshore,Offshore",7
5842041f4e65fad6a7708936,2023_12_28,34.0016731994772,-118.80456,Point Dume,2.0714285714285716,0.18285714285714288,0.48782857142857144,17,17,"NIGHT_CLEAR,NIGHT_CLEAR,NIGHT_MOSTLY_CLOUDY,NIGHT_MOSTLY_CLOUDY,NIGHT_CLEAR,NIGHT_MOSTLY_CLOUDY,NIGHT_MOSTLY_CLOUDY","Offshore,Cross-shore,Offshore,Offshore,Offshore,Offshore,Offshore",7
5842041f4e65fad6a7708937,2023_12_28,34.02587527588963,-118.7554939066114,Latigo Point,2,0.055714285714285716,0.3628571428571429,16,16,"NIGHT_CLEAR,NIGHT_CLEAR,NIGHT_CLEAR,NIGHT_CLEAR,NIGHT_MOSTLY_CLOUDY,NIGHT_MOSTLY_CLOUDY,NIGHT_MOSTLY_CLOUDY","Offshore,Cross-shore,Offshore,Offshore,Cross-shore,Onshore,Cross-shore",7
5842041f4e65fad6a770893f,2023_12_28,34.043762,-118.93294,Leo Carrillo,2.5714285714285716,0.40994285714285716,0.7134857142857143,17,17,"NIGHT_CLEAR,NIGHT_CLEAR,NIGHT_CLEAR,NIGHT_CLEAR,NIGHT_MOSTLY_CLOUDY,NIGHT_CLEAR,NIGHT_CLEAR","Cross-shore,Offshore,Offshore,Offshore,Offshore,Offshore,Offshore",7
5842041f4e65fad6a7708941,2023_12_28,36.69388179265737,-121.81289,Marina State Beach,3,3.77,4.445714285714286,14,14,"NIGHT_MIST,NIGHT_MOSTLY_CLEAR,NIGHT_CLEAR,NIGHT_CLEAR,NIGHT_CLEAR,NIGHT_CLEAR,NIGHT_CLEAR","Offshore,Offshore,Offshore,Offshore,Offshore,Offshore,Offshore",7
5842041f4e65fad6a7708944,2023_12_28,34.34145077331085,-119.416999352654,Stanley's,3,0.7857142857142857,1.0442857142857143,16,16,"NIGHT_MOSTLY_CLOUDY,NIGHT_CLEAR,NIGHT_CLEAR,NIGHT_CLEAR,NIGHT_CLEAR,NIGHT_CLEAR,NIGHT_CLEAR","Onshore,Offshore,Cross-shore,Offshore,Onshore,Offshore,Offshore",7
5842041f4e65fad6a7708945,2023_12_28,34.35113017313915,-119.426921498899,Oil Piers,3.2857142857142856,0.9142857142857143,1.1542857142857144,16,16,"NIGHT_MOSTLY_CLOUDY,NIGHT_CLEAR,NIGHT_CLEAR,NIGHT_CLEAR,NIGHT_CLEAR,NIGHT_CLEAR,NIGHT_CLEAR","Cross-shore,Offshore,Offshore,Offshore,Cross-shore,Offshore,Offshore",7
5842041f4e65fad6a770894c,2023_12_28,34.17876333306018,-119.2399483564372,Oxnard,3.5714285714285716,1.1714285714285715,1.43,16,16,"NIGHT_MOSTLY_CLOUDY,NIGHT_MOSTLY_CLOUDY,NIGHT_MOSTLY_CLOUDY,NIGHT_MOSTLY_CLOUDY,NIGHT_OVERCAST,NIGHT_OVERCAST,NIGHT_MIST","Onshore,Offshore,Cross-shore,Offshore,Offshore,Offshore,Offshore",7
5842041f4e65fad6a7708957,2023_12_28,34.31720331100517,-119.3882324751725,Pitas Point,3.142857142857143,0.9471428571428572,1.19,16,16,"NIGHT_MOSTLY_CLOUDY,NIGHT_CLEAR,NIGHT_CLEAR,NIGHT_CLEAR,NIGHT_CLEAR,NIGHT_CLEAR,NIGHT_CLEAR","Cross-shore,Offshore,Offshore,Offshore,Offshore,Offshore,Offshore",7
5842041f4e65fad6a7708959,2023_12_28,34.27851754384724,-119.316202617226,Emma Wood,2.857142857142857,0.7642857142857142,1.0214285714285714,16,16,"NIGHT_CLEAR,NIGHT_MOSTLY_CLEAR,NIGHT_CLEAR,NIGHT_CLEAR,NIGHT_CLEAR,NIGHT_CLEAR,NIGHT_CLEAR","Onshore,Offshore,Offshore,Offshore,Offshore,Offshore,Offshore",7
5842041f4e65fad6a770895a,2023_12_28,34.35513640390276,-119.4400589884255,Mussel Shoals (aka Little Rincon),3.5714285714285716,1.207142857142857,1.4528571428571428,16,16,"NIGHT_CLEAR,NIGHT_CLEAR,NIGHT_MOSTLY_CLEAR,NIGHT_MOSTLY_CLEAR,NIGHT_CLOUDY,NIGHT_MOSTLY_CLOUDY,NIGHT_MOSTLY_CLEAR","Cross-shore,Offshore,Cross-shore,Cross-shore,Onshore,Onshore,Offshore",7
5842041f4e65fad6a770895e,2023_12_28,34.28991757054902,-119.3366646794652,Summer Beach,2.7142857142857144,0.4357142857142857,0.7442857142857143,16,16,"NIGHT_CLEAR,NIGHT_MOSTLY_CLEAR,NIGHT_CLEAR,NIGHT_CLEAR,NIGHT_CLEAR,NIGHT_CLEAR,NIGHT_CLEAR","Onshore,Offshore,Offshore,Offshore,Offshore,Offshore,Cross-shore",7
5842041f4e65fad6a770895f,2023_12_28,34.30897456105926,-119.3582501170116,Solimar,2.857142857142857,0.49142857142857144,0.7971428571428572,16,16,"NIGHT_MOSTLY_CLOUDY,NIGHT_CLEAR,NIGHT_CLEAR,NIGHT_CLEAR,NIGHT_CLEAR,NIGHT_CLEAR,NIGHT_CLEAR","Cross-shore,Offshore,Offshore,Offshore,Offshore,Offshore,Offshore",7
5842041f4e65fad6a7708960,2023_12_28,34.39836265281686,-119.70213,Leadbetter Point,2.2857142857142856,0.24857142857142858,0.5428571428571428,16,16,"NIGHT_CLEAR,NIGHT_CLEAR,NIGHT_CLEAR,NIGHT_CLEAR,NIGHT_CLEAR,NIGHT_CLEAR,NIGHT_CLEAR","Offshore,Offshore,Offshore,Offshore,Offshore,Offshore,Offshore",7
5842041f4e65fad6a7708961,2023_12_28,34.46052293893899,-120.07328,Refugio,2.142857142857143,0.21285714285714286,0.51,16,16,"NIGHT_CLEAR,NIGHT_CLEAR,NIGHT_CLEAR,NIGHT_CLEAR,NIGHT_CLEAR,NIGHT_CLEAR,NIGHT_CLEAR","Offshore,Offshore,Offshore,Offshore,Offshore,Offshore,Cross-shore",7
5842041f4e65fad6a7708962,2023_12_28,34.40754276777778,-119.87639,Devereux,3.2857142857142856,1.0371428571428571,1.3042857142857143,16,16,"NIGHT_CLEAR,NIGHT_CLEAR,NIGHT_CLEAR,NIGHT_CLEAR,NIGHT_CLEAR,NIGHT_CLEAR,NIGHT_CLEAR","Cross-shore,Offshore,Offshore,Offshore,Offshore,Cross-shore,Cross-shore",7
5842041f4e65fad6a7708963,2023_12_28,34.27479983305182,-119.3133222656776,Ventura Overhead,3.2857142857142856,0.8942857142857142,1.1271428571428572,16,16,"NIGHT_CLEAR,NIGHT_CLEAR,NIGHT_MOSTLY_CLOUDY,NIGHT_MOSTLY_CLEAR,NIGHT_CLOUDY,NIGHT_CLOUDY,NIGHT_MOSTLY_CLOUDY","Onshore,Offshore,Offshore,Offshore,Offshore,Offshore,Offshore",7
5842041f4e65fad6a7708964,2023_12_28,34.41023236011655,-119.88261,Sands,3.4285714285714284,1.1142857142857143,1.3628571428571428,16,16,"NIGHT_CLEAR,NIGHT_CLEAR,NIGHT_CLEAR,NIGHT_CLEAR,NIGHT_CLEAR,NIGHT_CLEAR,NIGHT_CLEAR","Onshore,Offshore,Offshore,Offshore,Offshore,Offshore,Offshore",7
5842041f4e65fad6a7708966,2023_12_28,34.40450193869233,-119.68752,Sandspit,1.7142857142857142,0.09714285714285714,0.38,16,16,"NIGHT_OVERCAST,NIGHT_CLEAR,NIGHT_CLEAR,NIGHT_CLEAR,NIGHT_CLEAR,NIGHT_CLEAR,NIGHT_CLEAR","Offshore,Offshore,Offshore,Offshore,Offshore,Offshore,Offshore",7
5842041f4e65fad6a7708967,2023_12_28,34.41549098334453,-119.6375149840203,Hammond's,2.5714285714285716,0.45,0.7428571428571429,16,16,"NIGHT_CLEAR,NIGHT_CLEAR,NIGHT_CLEAR,NIGHT_CLEAR,NIGHT_CLEAR,NIGHT_CLEAR,NIGHT_CLEAR","Cross-shore,Offshore,Offshore,Offshore,Offshore,Cross-shore,Cross-shore",7
5842041f4e65fad6a7708968,2023_12_28,34.45759322742309,-120.0220251867315,El Capitan,2.4285714285714284,0.3442857142857143,0.6471428571428571,16,16,"NIGHT_CLEAR,NIGHT_CLEAR,NIGHT_CLEAR,NIGHT_CLEAR,NIGHT_CLEAR,NIGHT_CLEAR,NIGHT_CLEAR","Offshore,Offshore,Offshore,Offshore,Onshore,Cross-shore,Cross-shore",7
5842041f4e65fad6a770896c,2023_12_28,34.405117655616,-119.84317,Campus Point,2.7142857142857144,0.5085714285714286,0.7871428571428571,16,16,"NIGHT_CLEAR,NIGHT_CLEAR,NIGHT_CLEAR,NIGHT_CLEAR,NIGHT_CLEAR,NIGHT_CLEAR,NIGHT_CLEAR","Cross-shore,Offshore,Offshore,Offshore,Offshore,Cross-shore,Cross-shore",7
5842041f4e65fad6a770896e,2023_12_28,34.38935162233354,-119.51955,Carpinteria State Beach,2.857142857142857,0.8728571428571429,1.1357142857142857,16,16,"NIGHT_CLEAR,NIGHT_CLEAR,NIGHT_CLEAR,NIGHT_CLEAR,NIGHT_CLEAR,NIGHT_CLEAR,NIGHT_CLEAR","Offshore,Onshore,Onshore,Onshore,Onshore,Onshore,Onshore",7
5842041f4e65fad6a770896f,2023_12_28,37.48296565175612,-122.4549300127824,Half Moon Bay,2.142857142857143,4.3,5.077142857142857,13,13,"NIGHT_MIST,NIGHT_BRIEF_SHOWERS,NIGHT_MIST,NIGHT_OVERCAST,NIGHT_MIST,NIGHT_MOSTLY_CLOUDY,NIGHT_MIST","Onshore,Onshore,Cross-shore,Cross-shore,Onshore,Onshore,Cross-shore",7
5842041f4e65fad6a7708970,2023_12_28,37.499,-122.471,Princeton Jetty,2.5714285714285716,3.592857142857143,4.291428571428572,13,13,"NIGHT_MIST,NIGHT_MOSTLY_CLOUDY,NIGHT_FOG,NIGHT_FOG,NIGHT_MOSTLY_CLOUDY,NIGHT_MOSTLY_CLOUDY,NIGHT_MOSTLY_CLOUDY","Onshore,Onshore,Onshore,Onshore,Onshore,Onshore,Onshore",7
5842041f4e65fad6a7708972,2023_12_28,37.35699547365155,-122.4069534707252,Tunitas Creek,2,5.285714285714286,6.297142857142857,13.571428571428571,13.571428571428571,"NIGHT_MOSTLY_CLOUDY,NIGHT_BRIEF_SHOWERS,NIGHT_MIST,NIGHT_MOSTLY_CLOUDY,NIGHT_MOSTLY_CLOUDY,NIGHT_MOSTLY_CLOUDY,NIGHT_MOSTLY_CLOUDY","Onshore,Cross-shore,Cross-shore,Cross-shore,Cross-shore,Cross-shore,Cross-shore",7
5842041f4e65fad6a7708974,2023_12_28,37.54735589428842,-122.5161090212687,Montara,3,4.511428571428572,5.3585714285714285,13,13,"NIGHT_BRIEF_SHOWERS,NIGHT_MIST,NIGHT_MIST,NIGHT_OVERCAST,NIGHT_BRIEF_SHOWERS,NIGHT_MOSTLY_CLOUDY,NIGHT_MIST","Offshore,Offshore,Offshore,Offshore,Offshore,Offshore,Offshore",7
5842041f4e65fad6a7708975,2023_12_28,34.3869373724559,-119.5142334209018,Tarpits,2.857142857142857,0.8571428571428571,1.13,16,16,"NIGHT_CLEAR,NIGHT_CLEAR,NIGHT_MOSTLY_CLEAR,NIGHT_MOSTLY_CLEAR,NIGHT_OVERCAST,NIGHT_CLEAR,NIGHT_CLEAR","Offshore,Onshore,Onshore,Onshore,Onshore,Onshore,Onshore",7
5842041f4e65fad6a7708976,2023_12_28,37.59881852720143,-122.50463,Pacifica / Linda Mar,3.7614285714285716,2.1894,2.646857142857143,14,14,"NIGHT_BRIEF_SHOWERS,NIGHT_BRIEF_SHOWERS_POSSIBLE,NIGHT_CLEAR,NIGHT_CLEAR,NIGHT_CLEAR,NIGHT_CLEAR,NIGHT_CLEAR","Cross-shore,Offshore,Offshore,Offshore,Offshore,Offshore,Offshore",7
5842041f4e65fad6a7708978,2023_12_28,37.59883098461164,-122.5143843582282,Pedro Point,3.7142857142857144,4.738571428571428,5.628571428571428,13,13,"NIGHT_MIST,NIGHT_BRIEF_SHOWERS,NIGHT_MIST,NIGHT_DRIZZLE,NIGHT_BRIEF_SHOWERS,NIGHT_MIST,NIGHT_MOSTLY_CLOUDY","Offshore,Offshore,Offshore,Offshore,Offshore,Offshore,Offshore",7
5842041f4e65fad6a7708979,2023_12_28,37.61081996647663,-122.4973287570634,Rockaway,2.857142857142857,4.35,5.198571428571428,13,13,"NIGHT_BRIEF_SHOWERS,NIGHT_BRIEF_SHOWERS_POSSIBLE,NIGHT_CLEAR,NIGHT_CLEAR,NIGHT_CLEAR,NIGHT_CLEAR,NIGHT_CLEAR","Cross-shore,Cross-shore,Offshore,Offshore,Cross-shore,Cross-shore,Offshore",7
5842041f4e65fad6a770897a,2023_12_28,37.809987384424446,-122.4751353263855,Fort Point,3.5714285714285716,2.9214285714285713,3.4885714285714284,13,13,"NIGHT_MOSTLY_CLOUDY,NIGHT_MOSTLY_CLOUDY,NIGHT_MIST,NIGHT_CLOUDY,NIGHT_BRIEF_SHOWERS,NIGHT_MIST,NIGHT_MIST","Onshore,Onshore,Onshore,Onshore,Onshore,Onshore,Onshore",7
5842041f4e65fad6a770897c,2023_12_28,37.63422542967464,-122.4951,Sharp Park,2.5714285714285716,4.648571428571429,5.482857142857143,13,13,"NIGHT_MOSTLY_CLOUDY,NIGHT_BRIEF_SHOWERS_POSSIBLE,NIGHT_CLEAR,NIGHT_CLEAR,NIGHT_CLEAR,NIGHT_FOG,NIGHT_MOSTLY_CLOUDY","Cross-shore,Cross-shore,Offshore,Offshore,Offshore,Cross-shore,Cross-shore",7
5842041f4e65fad6a770897d,2023_12_28,37.27313605072472,-122.4127387912554,Pescadero,2.857142857142857,4.718571428571429,5.554285714285714,14,14,"NIGHT_MOSTLY_CLOUDY,NIGHT_BRIEF_SHOWERS,NIGHT_MOSTLY_CLOUDY,NIGHT_BRIEF_SHOWERS,NIGHT_MOSTLY_CLOUDY,NIGHT_MOSTLY_CLOUDY,NIGHT_CLOUDY","Cross-shore,Cross-shore,Offshore,Offshore,Cross-shore,Cross-shore,Offshore",7
5842041f4e65fad6a770897e,2023_12_28,37.18140279972666,-122.3926685899327,Pigeon Point,1.4285714285714286,4.925714285714285,5.857142857142857,14,14,"NIGHT_MIST,NIGHT_MIST,NIGHT_MOSTLY_CLOUDY,NIGHT_MOSTLY_CLOUDY,NIGHT_MOSTLY_CLOUDY,NIGHT_OVERCAST,NIGHT_DRIZZLE","Onshore,Onshore,Onshore,Onshore,Onshore,Onshore,Onshore",7
5842041f4e65fad6a770897f,2023_12_28,37.11578956919415,-122.314699271291,Ano Nuevo,1.2857142857142858,4.890000000000001,5.774285714285714,14,14,"NIGHT_MOSTLY_CLOUDY,NIGHT_MOSTLY_CLOUDY,NIGHT_BRIEF_SHOWERS,NIGHT_MOSTLY_CLOUDY,NIGHT_BRIEF_SHOWERS,NIGHT_OVERCAST,NIGHT_DRIZZLE","Onshore,Onshore,Onshore,Onshore,Onshore,Onshore,Onshore",7
5842041f4e65fad6a7708980,2023_12_28,37.09520872681598,-122.2805474707768,Waddell Creek,2.2857142857142856,4.01,4.76,14,14,"NIGHT_BRIEF_SHOWERS,NIGHT_DRIZZLE,NIGHT_BRIEF_SHOWERS,NIGHT_SHOWERS,NIGHT_RAIN,NIGHT_OVERCAST,NIGHT_DRIZZLE","Onshore,Cross-shore,Cross-shore,Cross-shore,Cross-shore,Cross-shore,Cross-shore",7
5842041f4e65fad6a7708981,2023_12_28,36.96512852130351,-122.1252825495626,Four Mile,2.857142857142857,4.957142857142857,5.917142857142857,14,14,"NIGHT_DRIZZLE,NIGHT_MIST,NIGHT_OVERCAST,NIGHT_OVERCAST,NIGHT_CLOUDY,NIGHT_MIST,NIGHT_MIST","Onshore,Cross-shore,Cross-shore,Cross-shore,Cross-shore,Cross-shore,Cross-shore",7
5842041f4e65fad6a7708982,2023_12_28,37.04122807048655,-122.2333684729756,Scott Creek,2.7142857142857144,3.9171428571428573,4.671428571428572,14,14,"NIGHT_SHOWERS,NIGHT_DRIZZLE,NIGHT_DRIZZLE,NIGHT_OVERCAST,NIGHT_OVERCAST,NIGHT_OVERCAST,NIGHT_OVERCAST","Onshore,Cross-shore,Cross-shore,Cross-shore,Cross-shore,Cross-shore,Cross-shore",7
5842041f4e65fad6a7708983,2023_12_28,37.02350229387179,-122.21908,Davenport,2.857142857142857,4.227142857142857,5.054285714285714,14,14,"NIGHT_BRIEF_SHOWERS,NIGHT_OVERCAST,NIGHT_LIGHT_RAIN,NIGHT_OVERCAST,NIGHT_OVERCAST,NIGHT_OVERCAST,NIGHT_DRIZZLE","Onshore,Cross-shore,Cross-shore,Cross-shore,Cross-shore,Cross-shore,Cross-shore",7
5842041f4e65fad6a7708986,2023_12_28,36.94905295955728,-122.0611823912244,Natural Bridges,2.857142857142857,4.188571428571429,4.9714285714285715,14,14,"NIGHT_LIGHT_RAIN,NIGHT_MIST,NIGHT_OVERCAST,NIGHT_MOSTLY_CLOUDY,NIGHT_MOSTLY_CLOUDY,NIGHT_MOSTLY_CLOUDY,NIGHT_MOSTLY_CLOUDY","Onshore,Offshore,Cross-shore,Offshore,Cross-shore,Offshore,Offshore",7
5842041f4e65fad6a7708987,2023_12_28,36.95154854910425,-122.0420693940968,Mitchell's Cove,3.2857142857142856,2.9557142857142855,3.5314285714285716,14,14,"NIGHT_RAIN_AND_FOG,NIGHT_OVERCAST,NIGHT_OVERCAST,NIGHT_BRIEF_SHOWERS,NIGHT_MOSTLY_CLOUDY,NIGHT_MOSTLY_CLOUDY,NIGHT_MOSTLY_CLOUDY","Onshore,Cross-shore,Cross-shore,Cross-shore,Cross-shore,Cross-shore,Cross-shore",7
5842041f4e65fad6a770898a,2023_12_28,36.9572312370203,-121.98177,26th Ave,3,3.5957142857142856,4.297142857142857,14,14,"NIGHT_RAIN_AND_FOG,NIGHT_MOSTLY_CLOUDY,NIGHT_OVERCAST,NIGHT_MOSTLY_CLOUDY,NIGHT_MOSTLY_CLOUDY,NIGHT_MOSTLY_CLOUDY,NIGHT_MOSTLY_CLOUDY","Onshore,Offshore,Offshore,Offshore,Offshore,Offshore,Offshore",7
5842041f4e65fad6a770898e,2023_12_28,36.91899972819882,-121.85536,Manresa,3,4.11,4.88,14,14,"NIGHT_MIST,NIGHT_MOSTLY_CLOUDY,NIGHT_MOSTLY_CLOUDY,NIGHT_MOSTLY_CLOUDY,NIGHT_CLEAR,NIGHT_MOSTLY_CLOUDY,NIGHT_MOSTLY_CLEAR","Offshore,Offshore,Offshore,Offshore,Offshore,Offshore,Offshore",7
5842041f4e65fad6a7708990,2023_12_28,34.45747731928454,-120.34242,The Ranch,3.857142857142857,1.302857142857143,1.6071428571428572,16,16,"NIGHT_CLEAR,NIGHT_CLEAR,NIGHT_MOSTLY_CLEAR,NIGHT_CLEAR,NIGHT_MOSTLY_CLOUDY,NIGHT_CLEAR,NIGHT_CLEAR","Offshore,Offshore,Offshore,Offshore,Offshore,Offshore,Offshore",7
5842041f4e65fad6a7708991,2023_12_28,34.50875036590315,-120.50348,Jalama,3,1.9328571428571428,2.3000000000000003,16,16,"NIGHT_CLEAR,NIGHT_CLEAR,NIGHT_CLEAR,NIGHT_CLEAR,NIGHT_CLEAR,NIGHT_CLEAR,NIGHT_CLEAR","Cross-shore,Offshore,Offshore,Cross-shore,Cross-shore,Offshore,Offshore",7
5842041f4e65fad6a7708996,2023_12_28,34.68700870220497,-120.6111611019887,Surf Beach,3.142857142857143,3.3985714285714286,4.038571428571428,16,16,"NIGHT_CLEAR,NIGHT_CLEAR,NIGHT_MOSTLY_CLEAR,NIGHT_CLEAR,NIGHT_MOSTLY_CLOUDY,NIGHT_MOSTLY_CLEAR,NIGHT_MOSTLY_CLEAR","Onshore,Offshore,Offshore,Offshore,Offshore,Offshore,Offshore",7
5842041f4e65fad6a770899c,2023_12_28,35.5730538161116,-121.1143362345574,Moonstone,3,3.257142857142857,3.8242857142857143,15,15,"NIGHT_CLEAR,NIGHT_CLEAR,NIGHT_MOSTLY_CLOUDY,NIGHT_MOSTLY_CLOUDY,NIGHT_CLEAR,NIGHT_MOSTLY_CLOUDY,NIGHT_MOSTLY_CLOUDY","Cross-shore,Offshore,Offshore,Offshore,Offshore,Offshore,Offshore",7
5842041f4e65fad6a770899d,2023_12_28,35.61533716776573,-121.1502053073914,Pico Creek,3,2.66,3.162857142857143,15,15,"NIGHT_MOSTLY_CLOUDY,NIGHT_CLEAR,NIGHT_MIST,NIGHT_CLOUDY,NIGHT_CLEAR,NIGHT_MOSTLY_CLEAR,NIGHT_MOSTLY_CLOUDY","Cross-shore,Offshore,Offshore,Offshore,Offshore,Offshore,Offshore",7
5842041f4e65fad6a770899e,2023_12_28,35.56829031927379,-121.1120653023953,Santa Rosa Creek,3,3.257142857142857,3.8242857142857143,15,15,"NIGHT_MOSTLY_CLOUDY,NIGHT_CLEAR,NIGHT_MIST,NIGHT_MOSTLY_CLOUDY,NIGHT_MOSTLY_CLOUDY,NIGHT_MOSTLY_CLOUDY,NIGHT_MOSTLY_CLOUDY","Onshore,Offshore,Offshore,Offshore,Offshore,Offshore,Offshore",7
5842041f4e65fad6a77089a2,2023_12_28,35.44820114936284,-120.90715,"Cayucos Pier, Southside ",3,1.8757142857142857,2.244285714285714,15,15,"NIGHT_MOSTLY_CLOUDY,NIGHT_CLEAR,NIGHT_MOSTLY_CLOUDY,NIGHT_MOSTLY_CLOUDY,NIGHT_MOSTLY_CLOUDY,NIGHT_MOSTLY_CLOUDY,NIGHT_MOSTLY_CLOUDY","Onshore,Cross-shore,Cross-shore,Cross-shore,Offshore,Offshore,Offshore",7
5842041f4e65fad6a77089a4,2023_12_28,35.30143372628852,-120.877819239902,Cable Landing,4,4.097142857142857,4.855714285714286,15,15,"NIGHT_CLEAR,NIGHT_MOSTLY_CLOUDY,NIGHT_MOSTLY_CLOUDY,NIGHT_MOSTLY_CLOUDY,NIGHT_CLEAR,NIGHT_CLEAR,NIGHT_MOSTLY_CLOUDY","Offshore,Offshore,Offshore,Offshore,Offshore,Offshore,Offshore",7
5842041f4e65fad6a77089a9,2023_12_28,35.61269103500222,-121.1480725356606,San Simeon,3,2.002,2.3770000000000002,15,15,"NIGHT_MIST,NIGHT_CLEAR,NIGHT_FOG,NIGHT_MOSTLY_CLOUDY,NIGHT_MOSTLY_CLOUDY,NIGHT_MOSTLY_CLEAR,NIGHT_MOSTLY_CLOUDY","Onshore,Cross-shore,Cross-shore,Cross-shore,Cross-shore,Offshore,Offshore",7
5842041f4e65fad6a77089ab,2023_12_28,35.1775325966252,-120.7341125142258,Avila Beach,2.2857142857142856,0.42428571428571427,0.7014285714285714,15,15,"NIGHT_MOSTLY_CLEAR,NIGHT_MOSTLY_CLEAR,NIGHT_CLEAR,NIGHT_CLEAR,NIGHT_CLEAR,NIGHT_CLEAR,NIGHT_CLEAR","Onshore,Offshore,Offshore,Offshore,Offshore,Offshore,Offshore",7
5842041f4e65fad6a77089ac,2023_12_28,35.13877877884115,-120.64535,Pismo Beach Pier,3.7142857142857144,2.0369380952380953,2.4411428571428573,14,14,"NIGHT_MOSTLY_CLEAR,NIGHT_CLEAR,NIGHT_CLEAR,NIGHT_MOSTLY_CLOUDY,NIGHT_MOSTLY_CLEAR,NIGHT_MOSTLY_CLOUDY,NIGHT_MOSTLY_CLOUDY","Onshore,Offshore,Offshore,Offshore,Offshore,Offshore,Offshore",7
5842041f4e65fad6a77089ad,2023_12_28,46.8907710233147,-124.12964,Westport/Olympic Peninsula,2.2857142857142856,5.491428571428571,6.441428571428571,9.571428571428571,9.571428571428571,"NIGHT_MOSTLY_CLOUDY,NIGHT_OVERCAST,NIGHT_MOSTLY_CLOUDY,NIGHT_MOSTLY_CLOUDY,NIGHT_MOSTLY_CLOUDY,NIGHT_MOSTLY_CLOUDY,NIGHT_MOSTLY_CLOUDY","Cross-shore,Cross-shore,Cross-shore,Cross-shore,Cross-shore,Cross-shore,Cross-shore",7
5842041f4e65fad6a77089ae,2023_12_28,46.35185177248545,-124.06747,Long Beach Peninsula,1.4285714285714286,5.252857142857143,6.26,10.571428571428571,10.571428571428571,"NIGHT_BRIEF_SHOWERS,NIGHT_DRIZZLE,NIGHT_MOSTLY_CLOUDY,NIGHT_MOSTLY_CLOUDY,NIGHT_OVERCAST,NIGHT_MOSTLY_CLOUDY,NIGHT_CLEAR","Cross-shore,Cross-shore,Cross-shore,Cross-shore,Cross-shore,Cross-shore,Cross-shore",7
5842041f4e65fad6a77089af,2023_12_28,47.90649175554033,-124.6370864743483,La Push,0,5.298571428571429,6.3342857142857145,9,9,"NIGHT_CLEAR,NIGHT_MOSTLY_CLOUDY,NIGHT_BRIEF_SHOWERS,NIGHT_MOSTLY_CLOUDY,NIGHT_MOSTLY_CLOUDY,NIGHT_BRIEF_SHOWERS,NIGHT_SHOWERS","Cross-shore,Onshore,Onshore,Onshore,Onshore,Onshore,Onshore",7
5842041f4e65fad6a77089b0,2023_12_28,42.04368239985442,-124.26828,Brookings Jetty,2.2857142857142856,3.5536971428571427,5.552652857142857,11.428571428571429,11.428571428571429,"NIGHT_OVERCAST,NIGHT_CLEAR,NIGHT_MOSTLY_CLOUDY,NIGHT_CLEAR,NIGHT_CLEAR,NIGHT_CLEAR,NIGHT_MOSTLY_CLOUDY","Onshore,Onshore,Onshore,Onshore,Cross-shore,Cross-shore,Cross-shore",7
5842041f4e65fad6a77089b1,2023_12_28,42.74071837900346,-124.4983727491047,Port Orford,0.8571428571428571,6.28,7.507142857142857,11.428571428571429,11.428571428571429,"NIGHT_MOSTLY_CLOUDY,NIGHT_MOSTLY_CLOUDY,NIGHT_MOSTLY_CLOUDY,NIGHT_MOSTLY_CLOUDY,NIGHT_MOSTLY_CLOUDY,NIGHT_CLEAR,NIGHT_MOSTLY_CLOUDY","Onshore,Onshore,Onshore,Onshore,Onshore,Onshore,Onshore",7
5842041f4e65fad6a77089b2,2023_12_28,44.01532689312291,-124.13865,Florence South Jetty,2,6.562857142857143,7.798571428571429,11,11,"NIGHT_MOSTLY_CLOUDY,NIGHT_MOSTLY_CLOUDY,NIGHT_MOSTLY_CLOUDY,NIGHT_MOSTLY_CLOUDY,NIGHT_CLEAR,NIGHT_CLEAR,NIGHT_CLEAR","Cross-shore,Cross-shore,Cross-shore,Cross-shore,Cross-shore,Cross-shore,Cross-shore",7
5842041f4e65fad6a77089b3,2023_12_28,42.41812540774362,-124.42945,Gold Beach South Jetty,0.8571428571428571,9.425714285714285,11.214285714285715,11.428571428571429,11.428571428571429,"NIGHT_BRIEF_SHOWERS,NIGHT_CLEAR,NIGHT_CLEAR,NIGHT_BRIEF_SHOWERS,NIGHT_MOSTLY_CLOUDY,NIGHT_CLEAR,NIGHT_CLEAR","Onshore,Onshore,Onshore,Onshore,Onshore,Onshore,Onshore",7
5842041f4e65fad6a77089b4,2023_12_28,44.95857310226525,-124.0219017690976,Lincoln City,1.7142857142857142,5.758571428571429,6.859999999999999,10.571428571428571,10.571428571428571,"NIGHT_MOSTLY_CLOUDY,NIGHT_MOSTLY_CLOUDY,NIGHT_MOSTLY_CLOUDY,NIGHT_BRIEF_SHOWERS,NIGHT_BRIEF_SHOWERS,NIGHT_BRIEF_SHOWERS,NIGHT_MOSTLY_CLOUDY","Cross-shore,Cross-shore,Cross-shore,Cross-shore,Cross-shore,Cross-shore,Cross-shore",7
5842041f4e65fad6a77089b5,2023_12_28,44.63792761362982,-124.0657,Newport,1.2857142857142858,7.2371428571428575,8.627142857142857,11,11,"NIGHT_MOSTLY_CLOUDY,NIGHT_CLEAR,NIGHT_BRIEF_SHOWERS,NIGHT_MOSTLY_CLOUDY,NIGHT_BRIEF_SHOWERS,NIGHT_MOSTLY_CLEAR,NIGHT_CLOUDY","Cross-shore,Cross-shore,Cross-shore,Cross-shore,Cross-shore,Cross-shore,Cross-shore",7
5842041f4e65fad6a77089b6,2023_12_28,45.61468496266301,-123.94643,Rockaway Beach,2.5714285714285716,6.162857142857143,7.347142857142857,11,11,"NIGHT_BRIEF_SHOWERS,NIGHT_BRIEF_SHOWERS,NIGHT_MOSTLY_CLOUDY,NIGHT_CLOUDY,NIGHT_BRIEF_SHOWERS,NIGHT_SHOWERS,NIGHT_BRIEF_SHOWERS","Cross-shore,Cross-shore,Cross-shore,Cross-shore,Cross-shore,Cross-shore,Cross-shore",7
5842041f4e65fad6a77089b7,2023_12_28,45.20252914186085,-123.96975,Pacific City,2,5.93,7.057142857142857,11,11,"NIGHT_MOSTLY_CLOUDY,NIGHT_MOSTLY_CLOUDY,NIGHT_BRIEF_SHOWERS,NIGHT_BRIEF_SHOWERS,NIGHT_SHOWERS,NIGHT_MOSTLY_CLOUDY,NIGHT_CLEAR","Cross-shore,Cross-shore,Onshore,Cross-shore,Cross-shore,Cross-shore,Cross-shore",7
5842041f4e65fad6a77089b8,2023_12_28,45.88179930310263,-123.96681,Cannon Beach,1.7142857142857142,5.982857142857143,7.102857142857143,10.571428571428571,10.571428571428571,"NIGHT_MOSTLY_CLEAR,NIGHT_MOSTLY_CLOUDY,NIGHT_SHOWERS,NIGHT_MOSTLY_CLOUDY,NIGHT_OVERCAST,NIGHT_MOSTLY_CLOUDY,NIGHT_MOSTLY_CLOUDY","Cross-shore,Onshore,Cross-shore,Cross-shore,Cross-shore,Cross-shore,Cross-shore",7
5842041f4e65fad6a77089ba,2023_12_28,40.02528754746774,-124.06372,Shelter Cove,1.8571428571428572,2.17625,3.400392857142857,13,13,"NIGHT_CLEAR,NIGHT_SHOWERS,NIGHT_MOSTLY_CLOUDY,NIGHT_MOSTLY_CLEAR,NIGHT_BRIEF_SHOWERS,NIGHT_MOSTLY_CLEAR,NIGHT_MOSTLY_CLEAR","Onshore,Onshore,Onshore,Onshore,Onshore,Onshore,Onshore",7
5842041f4e65fad6a77089bb,2023_12_28,40.76816197136951,-124.24248,Humboldt Harbor Entrance,2.857142857142857,7.75,9.26142857142857,12,12,"NIGHT_CLEAR,NIGHT_CLEAR,NIGHT_CLEAR,NIGHT_CLEAR,NIGHT_CLEAR,NIGHT_CLEAR,NIGHT_CLEAR","Cross-shore,Cross-shore,Cross-shore,Cross-shore,Cross-shore,Offshore,Offshore",7
5842041f4e65fad6a77089bc,2023_12_28,40.76684246920174,-124.23107,North Jetty,3,7.078571428571428,8.458571428571428,12,12,"NIGHT_CLEAR,NIGHT_CLEAR,NIGHT_CLEAR,NIGHT_CLEAR,NIGHT_CLEAR,NIGHT_CLEAR,NIGHT_CLEAR","Cross-shore,Cross-shore,Cross-shore,Cross-shore,Cross-shore,Offshore,Offshore",7
5842041f4e65fad6a77089bd,2023_12_28,41.02731183893966,-124.1149972888982,Westhaven,2.4285714285714284,9.704285714285714,11.597142857142858,12,12,"NIGHT_MOSTLY_CLOUDY,NIGHT_MOSTLY_CLEAR,NIGHT_CLEAR,NIGHT_CLEAR,NIGHT_CLEAR,NIGHT_CLEAR,NIGHT_CLEAR","Cross-shore,Cross-shore,Cross-shore,Cross-shore,Cross-shore,Cross-shore,Cross-shore",7
5842041f4e65fad6a77089be,2023_12_28,41.13016238153297,-124.16466,Sue-meg,2.857142857142857,8.585714285714285,10.265714285714285,12,12,"NIGHT_CLEAR,NIGHT_MOSTLY_CLEAR,NIGHT_MOSTLY_CLOUDY,NIGHT_CLEAR,NIGHT_CLEAR,NIGHT_CLEAR,NIGHT_CLEAR","Cross-shore,Offshore,Offshore,Offshore,Offshore,Offshore,Offshore",7
5842041f4e65fad6a77089bf,2023_12_28,37.8289474958188,-122.5376795097543,Fort Cronkite/Rodeo Beach,2.2857142857142856,5.327142857142857,6.224285714285714,13,13,"NIGHT_MOSTLY_CLOUDY,NIGHT_MIST,NIGHT_MIST,NIGHT_MIST,NIGHT_MIST,NIGHT_DRIZZLE,NIGHT_BRIEF_SHOWERS","Onshore,Onshore,Cross-shore,Cross-shore,Cross-shore,Cross-shore,Cross-shore",7
5842041f4e65fad6a77089c0,2023_12_28,41.74415759876137,-124.1771718063073,South Beach CA,1.7142857142857142,6.344285714285714,7.534285714285715,12,12,"NIGHT_BRIEF_SHOWERS,NIGHT_MOSTLY_CLOUDY,NIGHT_MOSTLY_CLEAR,NIGHT_CLEAR,NIGHT_CLEAR,NIGHT_MOSTLY_CLOUDY,NIGHT_CLEAR","Onshore,Onshore,Onshore,Onshore,Onshore,Onshore,Onshore",7
5842041f4e65fad6a77089c1,2023_12_28,37.89801283969752,-122.64519,Stinson Beach,2.857142857142857,1.5871428571428572,1.8985714285714286,13,13,"NIGHT_MIST,NIGHT_MOSTLY_CLOUDY,NIGHT_BRIEF_SHOWERS,NIGHT_MIST,NIGHT_SHOWERS,NIGHT_BRIEF_SHOWERS,NIGHT_BRIEF_SHOWERS","Onshore,Onshore,Onshore,Onshore,Onshore,Onshore,Onshore",7
5842041f4e65fad6a77089c2,2023_12_28,37.90514516176495,-122.68151,Bolinas,3.4285714285714284,1.90873,2.9823914285714284,13,13,"NIGHT_MIST,NIGHT_MOSTLY_CLOUDY,NIGHT_BRIEF_SHOWERS,NIGHT_FOG,NIGHT_FOG,NIGHT_BRIEF_SHOWERS,NIGHT_FOG","Cross-shore,Onshore,Onshore,Onshore,Onshore,Onshore,Cross-shore",7
5842041f4e65fad6a77089c3,2023_12_28,38.04892513158693,-122.9892494965416,Point Reyes (north),3,6.188571428571429,7.38,13.428571428571429,13.428571428571429,"NIGHT_CLOUDY,NIGHT_MIST,NIGHT_MIST,NIGHT_DRIZZLE,NIGHT_MIST,NIGHT_LIGHT_RAIN,NIGHT_MIST","Offshore,Offshore,Offshore,Offshore,Offshore,Offshore,Offshore",7
5842041f4e65fad6a77089c6,2023_12_28,38.31088736605785,-123.0496777333731,Doran Beach,2.857142857142857,1.91,2.2857142857142856,13,13,"NIGHT_BRIEF_SHOWERS,NIGHT_FOG,NIGHT_LIGHT_RAIN,NIGHT_OVERCAST,NIGHT_FOG,NIGHT_FOG,NIGHT_MIST","Onshore,Onshore,Onshore,Onshore,Onshore,Onshore,Onshore",7
5842041f4e65fad6a77089c7,2023_12_28,38.45077228660809,-123.13008,Russian Rivermouth,2.7142857142857144,5.2371428571428575,6.231428571428571,13,13,"NIGHT_MIST,NIGHT_MIST,NIGHT_OVERCAST,NIGHT_DRIZZLE,NIGHT_FOG,NIGHT_FOG,NIGHT_FOG","Onshore,Cross-shore,Offshore,Offshore,Offshore,Offshore,Offshore",7
5842041f4e65fad6a77089c8,2023_12_28,38.35329968518107,-123.06906,Salmon Creek,2.857142857142857,5.065714285714286,5.9871428571428575,13,13,"NIGHT_SHOWERS,NIGHT_MIST,NIGHT_OVERCAST,NIGHT_CLOUDY,NIGHT_DRIZZLE,NIGHT_CLOUDY,NIGHT_CLOUDY","Cross-shore,Offshore,Offshore,Offshore,Offshore,Offshore,Offshore",7
5842041f4e65fad6a77089c9,2023_12_28,38.6845180197959,-123.4322714291198,Black Point Beach,3.857142857142857,6.0928571428571425,7.2371428571428575,13,13,"NIGHT_MIST,NIGHT_HEAVY_RAIN,NIGHT_MOSTLY_CLOUDY,NIGHT_MOSTLY_CLOUDY,NIGHT_OVERCAST,NIGHT_LIGHT_RAIN,NIGHT_MIST","Offshore,Offshore,Offshore,Offshore,Offshore,Offshore,Offshore",7
5842041f4e65fad6a77089ca,2023_12_28,43.251076,-70.59144,Ogunquit,1.8571428571428572,0.3525,0.6579047619047619,7,6,"NIGHT_FOG,NIGHT_FOG,NIGHT_OVERCAST,NIGHT_DRIZZLE,NIGHT_FOG,OVERCAST,OVERCAST","Cross-shore,Cross-shore,Cross-shore,Cross-shore,Cross-shore,Cross-shore,Cross-shore",7
5842041f4e65fad6a77089cb,2023_12_28,41.362631366305415,-71.48006772942608,Point Judith,1,0.04189047619047618,0.3426095238095238,9,7,"NIGHT_OVERCAST,NIGHT_LIGHT_RAIN,NIGHT_DRIZZLE,NIGHT_OVERCAST,NIGHT_OVERCAST,DRIZZLE,LIGHT_RAIN","Onshore,Onshore,Onshore,Onshore,Cross-shore,Cross-shore,Cross-shore",7
5842041f4e65fad6a77089cd,2023_12_28,41.422678090954726,-71.45413,Monahan's - Narragansett,1,0.3714642857142857,0.5804114285714286,8,8,"NIGHT_OVERCAST,NIGHT_DRIZZLE,NIGHT_OVERCAST,NIGHT_DRIZZLE,NIGHT_OVERCAST,DRIZZLE,LIGHT_RAIN","Onshore,Onshore,Cross-shore,Cross-shore,Cross-shore,Cross-shore,Cross-shore",7
5842041f4e65fad6a77089ce,2023_12_28,41.469,-71.293,Ruggles - Newport,2,0.4141642857142857,0.6471328571428572,8,8,"NIGHT_MIST,NIGHT_LIGHT_RAIN,NIGHT_OVERCAST,NIGHT_DRIZZLE,NIGHT_MIST,DRIZZLE,RAIN","Offshore,Cross-shore,Offshore,Offshore,Offshore,Offshore,Offshore",7
5842041f4e65fad6a77089cf,2023_12_28,43.175394,-70.606351,Short Sands Beach,1,0.27714285714285714,0.5814285714285714,5.428571428571429,5.428571428571429,"NIGHT_OVERCAST,NIGHT_OVERCAST,NIGHT_OVERCAST,NIGHT_LIGHT_RAIN,NIGHT_OVERCAST,OVERCAST,OVERCAST","Onshore,Onshore,Onshore,Onshore,Onshore,Onshore,Onshore",7
5842041f4e65fad6a77089d0,2023_12_28,41.487408,-71.29017,First Beach,1.2857142857142858,0.14285714285714285,0.45142857142857146,8,8,"NIGHT_MIST,NIGHT_RAIN,NIGHT_OVERCAST,NIGHT_DRIZZLE,NIGHT_MIST,DRIZZLE,RAIN","Offshore,Cross-shore,Offshore,Offshore,Offshore,Offshore,Offshore",7
5842041f4e65fad6a77089d1,2023_12_28,42.27916830233153,-70.86498,Nantasket Beach,1,0.015119047619047619,0.2906190476190476,8,6,"NIGHT_MIST,NIGHT_MIST,NIGHT_LIGHT_RAIN,NIGHT_LIGHT_RAIN,NIGHT_MIST,MIST,DRIZZLE","Onshore,Onshore,Onshore,Onshore,Onshore,Onshore,Onshore",7
5842041f4e65fad6a77089d2,2023_12_28,41.817,-69.935,Cape Cod,1.1428571428571428,0.23714285714285716,0.5428571428571428,7,7,"NIGHT_RAIN,NIGHT_DRIZZLE,NIGHT_MIST,NIGHT_DRIZZLE,NIGHT_LIGHT_RAIN,MIST,LIGHT_RAIN","Onshore,Onshore,Onshore,Onshore,Onshore,Onshore,Onshore",7
5842041f4e65fad6a77089d3,2023_12_28,42.22055448975661,-70.70634873403819,Egypt Beach,1,0.037142857142857144,0.3157142857142857,7,7,"NIGHT_MIST,NIGHT_DRIZZLE,NIGHT_LIGHT_RAIN,NIGHT_RAIN,NIGHT_MIST,LIGHT_SHOWERS_POSSIBLE,DRIZZLE","Onshore,Onshore,Onshore,Onshore,Onshore,Onshore,Onshore",7
5842041f4e65fad6a77089d4,2023_12_28,41.48739647744607,-71.25723,Second Beach,1.1428571428571428,0.25137571428571426,0.39277285714285715,9,7,"NIGHT_DRIZZLE,NIGHT_LIGHT_RAIN,NIGHT_DRIZZLE,NIGHT_DRIZZLE,NIGHT_MIST,DRIZZLE,HEAVY_RAIN","Offshore,Offshore,Offshore,Offshore,Offshore,Offshore,Offshore",7
5842041f4e65fad6a77089d5,2023_12_28,42.964,-70.769,Fox Hill,1.2857142857142858,0.26607142857142857,0.5677857142857142,7,6,"NIGHT_DRIZZLE,NIGHT_OVERCAST,NIGHT_OVERCAST,NIGHT_OVERCAST,NIGHT_FOG,OVERCAST,OVERCAST","Cross-shore,Cross-shore,Cross-shore,Cross-shore,Cross-shore,Cross-shore,Cross-shore",7
5842041f4e65fad6a77089d6,2023_12_28,42.991359,-70.75149,Straws Point,2,0.2367857142857143,0.5407619047619048,7,6,"NIGHT_FOG,NIGHT_FOG,NIGHT_FOG,NIGHT_FOG,NIGHT_FOG,OVERCAST,OVERCAST","Cross-shore,Offshore,Offshore,Offshore,Cross-shore,Cross-shore,Cross-shore",7
5842041f4e65fad6a77089d7,2023_12_28,42.946,-70.786,Plaice Cove,1,0.26607142857142857,0.5677857142857142,7,6,"NIGHT_OVERCAST,NIGHT_DRIZZLE,NIGHT_OVERCAST,NIGHT_OVERCAST,NIGHT_OVERCAST,OVERCAST,OVERCAST","Onshore,Cross-shore,Cross-shore,Cross-shore,Cross-shore,Cross-shore,Cross-shore",7
5842041f4e65fad6a77089d9,2023_12_28,42.911574,-70.80831,The Main Beach,1,2.766666666666552e-4,0.3052338095238096,7,6,"NIGHT_OVERCAST,NIGHT_DRIZZLE,NIGHT_DRIZZLE,NIGHT_CLOUDY,NIGHT_CLOUDY,OVERCAST,CLOUDY","Cross-shore,Offshore,Offshore,Offshore,Offshore,Cross-shore,Offshore",7
5842041f4e65fad6a77089da,2023_12_28,42.97583846220203,-70.764,Sawyer's Beach,1,0.22571428571428573,0.5339761904761905,7,6,"NIGHT_DRIZZLE,NIGHT_OVERCAST,NIGHT_OVERCAST,NIGHT_OVERCAST,NIGHT_FOG,OVERCAST,OVERCAST","Cross-shore,Cross-shore,Cross-shore,Cross-shore,Cross-shore,Cross-shore,Cross-shore",7
5842041f4e65fad6a77089db,2023_12_28,42.97,-70.77,Rye on the Rocks / 5-0's,1,-0.0029585714285714293,0.3007316666666667,7,6,"NIGHT_DRIZZLE,NIGHT_OVERCAST,NIGHT_OVERCAST,NIGHT_OVERCAST,NIGHT_FOG,OVERCAST,OVERCAST","Cross-shore,Cross-shore,Cross-shore,Cross-shore,Cross-shore,Cross-shore,Cross-shore",7
5842041f4e65fad6a77089dc,2023_12_28,43.55902946610303,-70.27795,Higgins Beach,1,-0.003809523809523812,0.2990857142857143,7,6,"NIGHT_DRIZZLE,NIGHT_OVERCAST,NIGHT_OVERCAST,NIGHT_OVERCAST,NIGHT_OVERCAST,CLOUDY,CLOUDY","Offshore,Offshore,Offshore,Offshore,Offshore,Offshore,Offshore",7
5842041f4e65fad6a77089dd,2023_12_28,43.302676,-70.5652,Wells Beach,2,0.315952380952381,0.6213571428571428,7,6,"NIGHT_MIST,NIGHT_MIST,NIGHT_CLOUDY,NIGHT_CLOUDY,NIGHT_MIST,MIST,MIST","Cross-shore,Cross-shore,Cross-shore,Cross-shore,Cross-shore,Cross-shore,Cross-shore",7
5842041f4e65fad6a77089de,2023_12_28,43.545359,-70.30479,Scarborough Beach State Park,2,0.4952313095238095,0.7919396428571429,7,6,"NIGHT_BRIEF_SHOWERS_POSSIBLE,NIGHT_MIST,NIGHT_CLOUDY,NIGHT_MIST,NIGHT_MIST,MIST,MIST","Offshore,Offshore,Offshore,Offshore,Offshore,Offshore,Offshore",7
5842041f4e65fad6a77089df,2023_12_28,43.514481,-70.372146,Old Orchard Beach,1.31,0.05162857142857142,0.35809523809523813,7,6,"NIGHT_MIST,NIGHT_OVERCAST,NIGHT_MIST,NIGHT_MIST,NIGHT_MIST,MIST,CLEAR","Offshore,Offshore,Offshore,Offshore,Cross-shore,Offshore,Offshore",7
5842041f4e65fad6a77089e0,2023_12_28,43.34711,-70.48165,Gooch's Beach,2,0.23904761904761906,0.5464761904761906,7,6,"NIGHT_MIST,NIGHT_OVERCAST,NIGHT_MIST,NIGHT_MIST,NIGHT_LIGHT_RAIN,OVERCAST,OVERCAST","Offshore,Offshore,Offshore,Offshore,Offshore,Offshore,Offshore",7
5842041f4e65fad6a77089e2,2023_12_28,40.58433,-73.62953,Lido Beach,1.31,0.5559476190476191,0.8635428571428572,9,7,"NIGHT_MIST,NIGHT_LIGHT_RAIN,NIGHT_HEAVY_RAIN,NIGHT_RAIN,NIGHT_HEAVY_RAIN,DRIZZLE,MIST","Cross-shore,Cross-shore,Offshore,Cross-shore,Cross-shore,Cross-shore,Cross-shore",7
5842041f4e65fad6a77089e3,2023_12_28,43.163135,-70.61689,Long Sands Beach,1.31,0.0585804761904762,0.36367880952380954,7,6,"NIGHT_OVERCAST,NIGHT_OVERCAST,NIGHT_CLOUDY,NIGHT_DRIZZLE,NIGHT_OVERCAST,CLOUDY,DRIZZLE","Cross-shore,Offshore,Offshore,Offshore,Offshore,Offshore,Offshore",7
5842041f4e65fad6a77089e4,2023_12_28,40.61695351251805,-73.39376,Gilgo Beach,0.8571428571428571,0.25092380952380955,0.554752380952381,9,7,"NIGHT_DRIZZLE,NIGHT_RAIN,NIGHT_RAIN,NIGHT_LIGHT_SHOWERS_POSSIBLE,NIGHT_LIGHT_RAIN,BRIEF_SHOWERS_POSSIBLE,MIST","Cross-shore,Offshore,Cross-shore,Offshore,Cross-shore,Cross-shore,Cross-shore",7
5842041f4e65fad6a77089e5,2023_12_28,40.62530081928036,-73.23827,Robert Moses,1,0.3242857142857143,0.6314285714285715,8,8,"NIGHT_LIGHT_RAIN,NIGHT_RAIN,NIGHT_LIGHT_SHOWERS_POSSIBLE,NIGHT_HEAVY_RAIN,NIGHT_LIGHT_RAIN,LIGHT_RAIN,MIST","Cross-shore,Cross-shore,Cross-shore,Offshore,Cross-shore,Cross-shore,Cross-shore",7
5842041f4e65fad6a77089e6,2023_12_28,40.64313317632791,-73.15727,Fire Island,1,0.31,0.6142857142857143,8,8,"NIGHT_LIGHT_RAIN,NIGHT_RAIN,NIGHT_LIGHT_SHOWERS_POSSIBLE,NIGHT_HEAVY_RAIN,NIGHT_HEAVY_RAIN,LIGHT_RAIN,MIST","Cross-shore,Cross-shore,Cross-shore,Offshore,Cross-shore,Cross-shore,Cross-shore",7
5842041f4e65fad6a77089e8,2023_12_28,40.76653118828782,-72.74579619372713,Cupsogue,1.5714285714285714,0.5671428571428572,0.8714285714285714,8,8,"NIGHT_MIST,NIGHT_RAIN,NIGHT_LIGHT_SHOWERS_POSSIBLE,NIGHT_LIGHT_SHOWERS_POSSIBLE,NIGHT_LIGHT_RAIN,LIGHT_RAIN,DRIZZLE","Cross-shore,Cross-shore,Cross-shore,Offshore,Offshore,Offshore,Offshore",7
5842041f4e65fad6a77089e9,2023_12_28,42.9376373334092,-70.79141,The Wall ,1,-0.004403095238095226,0.2979204761904762,7,6,"NIGHT_OVERCAST,NIGHT_DRIZZLE,NIGHT_DRIZZLE,NIGHT_CLOUDY,NIGHT_CLOUDY,OVERCAST,CLOUDY","Onshore,Onshore,Onshore,Onshore,Onshore,Onshore,Onshore",7
5842041f4e65fad6a77089ea,2023_12_28,40.887088,-72.338558,Flys,1.4285714285714286,0.509752380952381,0.8178666666666666,15,13,"NIGHT_MIST,NIGHT_LIGHT_SHOWERS_POSSIBLE,NIGHT_LIGHT_RAIN,NIGHT_LIGHT_RAIN,NIGHT_RAIN,OVERCAST,DRIZZLE","Cross-shore,Cross-shore,Offshore,Offshore,Offshore,Offshore,Offshore",7
5842041f4e65fad6a77089eb,2023_12_28,41.0389266436591,-71.91068529316958,Trailer Park,0.8814285714285715,0.4257680952380953,0.7271611904761904,9,7,"NIGHT_MIST,NIGHT_RAIN,NIGHT_RAIN,NIGHT_LIGHT_RAIN,NIGHT_RAIN,LIGHT_SHOWERS_POSSIBLE,LIGHT_RAIN","Cross-shore,Cross-shore,Cross-shore,Offshore,Offshore,Offshore,Offshore",7
5842041f4e65fad6a77089ec,2023_12_28,41.039505402729105,-71.9142,Ditch Plains,1,0.57533,0.8989514285714285,9,9,"NIGHT_MIST,NIGHT_RAIN,NIGHT_RAIN,NIGHT_LIGHT_RAIN,NIGHT_LIGHT_RAIN,RAIN,LIGHT_RAIN","Cross-shore,Onshore,Cross-shore,Cross-shore,Cross-shore,Cross-shore,Cross-shore",7
5842041f4e65fad6a77089ee,2023_12_28,40.57633275206492,-73.56895305108567,"West End, Jones Beach",1.1428571428571428,0.3913285714285714,0.6951571428571428,9,7,"NIGHT_MIST,NIGHT_LIGHT_RAIN,NIGHT_LIGHT_SHOWERS_POSSIBLE,NIGHT_LIGHT_RAIN,NIGHT_RAIN,LIGHT_RAIN,MIST","Offshore,Offshore,Offshore,Offshore,Offshore,Offshore,Offshore",7
5842041f4e65fad6a77089f1,2023_12_28,41.038286691230795,-71.91991567611694,Poles,0.8571428571428571,0.4337436904761905,0.7395070238095238,9,7,"NIGHT_MIST,NIGHT_RAIN,NIGHT_RAIN,NIGHT_LIGHT_RAIN,NIGHT_RAIN,LIGHT_SHOWERS_POSSIBLE,LIGHT_RAIN","Cross-shore,Cross-shore,Cross-shore,Offshore,Offshore,Offshore,Offshore",7
5842041f4e65fad6a77089f3,2023_12_28,40.84077769766295,-72.47989493724765,The Bowl,1.4285714285714286,0.49714285714285716,0.8042857142857143,8.428571428571429,8.428571428571429,"NIGHT_MIST,NIGHT_LIGHT_SHOWERS_POSSIBLE,NIGHT_LIGHT_RAIN,NIGHT_LIGHT_SHOWERS_POSSIBLE,NIGHT_HEAVY_RAIN,DRIZZLE,LIGHT_RAIN","Cross-shore,Cross-shore,Cross-shore,Offshore,Offshore,Offshore,Offshore",7
5842041f4e65fad6a77089f4,2023_12_28,40.94235535243154,-72.19286,Main Beach,1.7142857142857142,0.5453476190476191,0.8520333333333333,15,13,"NIGHT_MIST,NIGHT_LIGHT_RAIN,NIGHT_DRIZZLE,NIGHT_LIGHT_RAIN,NIGHT_LIGHT_RAIN,DRIZZLE,DRIZZLE","Offshore,Cross-shore,Offshore,Offshore,Offshore,Offshore,Offshore",7
5842041f4e65fad6a77089f5,2023_12_28,40.58270702399518,-73.67251552079799,Laurelton Blvd.,1.0242857142857142,0.31465190476190474,0.6196436904761905,9,7,"NIGHT_MIST,NIGHT_DRIZZLE,NIGHT_RAIN,NIGHT_RAIN,NIGHT_LIGHT_SHOWERS_POSSIBLE,LIGHT_RAIN,MIST","Cross-shore,Offshore,Offshore,Offshore,Offshore,Offshore,Offshore",7
5842041f4e65fad6a77089f6,2023_12_28,41.033752854071416,-71.93695522488403,Terrace,0.81,0.40853809523809526,0.7144095238095238,9,7,"NIGHT_MIST,NIGHT_LIGHT_RAIN,NIGHT_LIGHT_RAIN,NIGHT_DRIZZLE,NIGHT_RAIN,LIGHT_SHOWERS_POSSIBLE,LIGHT_RAIN","Cross-shore,Cross-shore,Cross-shore,Offshore,Offshore,Offshore,Offshore",7
5842041f4e65fad6a77089f7,2023_12_28,40.83372943645748,-72.50426173210144,K Road,1.4285714285714286,0.6128571428571429,0.9142857142857143,8.428571428571429,8.428571428571429,"NIGHT_MIST,NIGHT_LIGHT_SHOWERS_POSSIBLE,NIGHT_DRIZZLE,NIGHT_LIGHT_SHOWERS_POSSIBLE,NIGHT_LIGHT_RAIN,RAIN,MIST","Cross-shore,Cross-shore,Cross-shore,Cross-shore,Offshore,Offshore,Offshore",7
5842041f4e65fad6a77089f8,2023_12_28,40.58456099581507,-73.80730032920837,84th Street,1.2142857142857142,0.3620285714285715,0.6719476190476191,9,7,"NIGHT_OVERCAST,NIGHT_LIGHT_RAIN,NIGHT_HEAVY_RAIN,NIGHT_LIGHT_RAIN,NIGHT_LIGHT_SHOWERS_POSSIBLE,CLOUDY,MIST","Cross-shore,Cross-shore,Offshore,Cross-shore,Cross-shore,Cross-shore,Offshore",7
5842041f4e65fad6a77089fa,2023_12_28,40.1319,-74.02788,Sea Girt,0.7142857142857143,0.7040095238095239,1.007242857142857,8,7,"NIGHT_MIST,NIGHT_LIGHT_RAIN,NIGHT_LIGHT_RAIN,NIGHT_RAIN,NIGHT_LIGHT_RAIN,MIST,MIST","Onshore,Cross-shore,Onshore,Onshore,Onshore,Onshore,Onshore",7
5842041f4e65fad6a77089fb,2023_12_28,40.54698301868125,-73.9268,Breezy Point,1.4285714285714286,0.4357142857142857,0.7428571428571429,7,7,"NIGHT_DRIZZLE,NIGHT_DRIZZLE,NIGHT_RAIN,NIGHT_LIGHT_RAIN,NIGHT_LIGHT_SHOWERS_POSSIBLE,MIST,MIST","Cross-shore,Cross-shore,Offshore,Cross-shore,Cross-shore,Cross-shore,Offshore",7
5842041f4e65fad6a77089fc,2023_12_28,40.152504,-74.021383,Spring Lake,0.7142857142857143,0.6957952380952381,1.001052380952381,8,7,"NIGHT_MIST,NIGHT_RAIN,NIGHT_RAIN,NIGHT_RAIN,NIGHT_LIGHT_RAIN,DRIZZLE,DRIZZLE","Onshore,Cross-shore,Onshore,Onshore,Onshore,Onshore,Onshore",7
5842041f4e65fad6a77089fd,2023_12_28,40.591277,-73.770792,30th - 39th Streets,1.2857142857142858,0.3504952380952381,0.6551571428571429,9,7,"NIGHT_OVERCAST,NIGHT_DRIZZLE,NIGHT_HEAVY_RAIN,NIGHT_LIGHT_RAIN,NIGHT_LIGHT_SHOWERS_POSSIBLE,OVERCAST,MIST","Cross-shore,Offshore,Offshore,Cross-shore,Cross-shore,Cross-shore,Offshore",7
5842041f4e65fad6a77089fe,2023_12_28,40.18834955871439,-74.00860982500222,Avon,0.7142857142857143,0.7117476190476191,1.014147619047619,8,7,"NIGHT_MIST,NIGHT_HEAVY_RAIN,NIGHT_RAIN,NIGHT_RAIN,NIGHT_LIGHT_RAIN,MIST,MIST","Onshore,Cross-shore,Onshore,Onshore,Onshore,Onshore,Onshore",7
5842041f4e65fad6a77089ff,2023_12_28,40.1974229100932,-74.00650533798255,Bradley Beach,0.7142857142857143,0.6979380952380952,1.0026,8,7,"NIGHT_MIST,NIGHT_HEAVY_RAIN,NIGHT_RAIN,NIGHT_RAIN,NIGHT_LIGHT_RAIN,MIST,MIST","Onshore,Cross-shore,Onshore,Onshore,Onshore,Onshore,Onshore",7
5842041f4e65fad6a7708a01,2023_12_28,40.17202,-74.01503,"16th Ave., Belmar",0.9057142857142857,0.6414761904761905,0.9477619047619048,8,7,"NIGHT_MIST,NIGHT_HEAVY_RAIN,NIGHT_RAIN,NIGHT_RAIN,NIGHT_LIGHT_RAIN,MIST,MIST","Onshore,Cross-shore,Onshore,Onshore,Onshore,Onshore,Onshore",7
5842041f4e65fad6a7708a02,2023_12_28,40.217443,-73.99982,Asbury Park,0.7142857142857143,0.6929380952380952,0.9996238095238096,8,7,"NIGHT_MIST,NIGHT_RAIN,NIGHT_RAIN,NIGHT_LIGHT_SHOWERS_POSSIBLE,NIGHT_LIGHT_RAIN,MIST,MIST","Onshore,Cross-shore,Onshore,Onshore,Onshore,Onshore,Onshore",7
5842041f4e65fad6a7708a03,2023_12_28,40.229841,-73.996782,Loch Arbour and Deal,1.5714285714285714,0.7152000000000001,1.0198619047619049,8,7,"NIGHT_MIST,NIGHT_LIGHT_RAIN,NIGHT_RAIN,NIGHT_RAIN,NIGHT_LIGHT_RAIN,MIST,MIST","Onshore,Onshore,Onshore,Onshore,Onshore,Onshore,Onshore",7
5842041f4e65fad6a7708a05,2023_12_28,40.41754,-73.97935,Sandy Hook,1,0.35285714285714287,0.6557142857142857,7,7,"NIGHT_LIGHT_RAIN,NIGHT_LIGHT_RAIN,NIGHT_RAIN,NIGHT_LIGHT_RAIN,NIGHT_LIGHT_SHOWERS_POSSIBLE,MIST,MIST","Onshore,Onshore,Onshore,Onshore,Onshore,Onshore,Onshore",7
5842041f4e65fad6a7708a06,2023_12_28,39.36353,-74.40873,Crystals,2.7142857142857144,0.804432619047619,1.2349277380952381,8,7,"NIGHT_MIST,NIGHT_MIST,NIGHT_LIGHT_RAIN,NIGHT_LIGHT_RAIN,NIGHT_MIST,MIST,DRIZZLE","Onshore,Cross-shore,Cross-shore,Cross-shore,Cross-shore,Cross-shore,Cross-shore",7
5842041f4e65fad6a7708a07,2023_12_28,39.31443,-74.51863,32nd Street,2,0.6165461904761905,0.9118729761904761,8,7,"NIGHT_MIST,NIGHT_LIGHT_RAIN,NIGHT_DRIZZLE,NIGHT_LIGHT_RAIN,NIGHT_MIST,MIST,MIST","Onshore,Cross-shore,Cross-shore,Cross-shore,Cross-shore,Cross-shore,Cross-shore",7
5842041f4e65fad6a7708a08,2023_12_28,39.327688,-74.49524,Margate Pier Northside,2,0.6165461904761905,0.9118729761904761,8,7,"NIGHT_MIST,NIGHT_LIGHT_RAIN,NIGHT_DRIZZLE,NIGHT_LIGHT_RAIN,NIGHT_MIST,MIST,MIST","Onshore,Cross-shore,Cross-shore,Cross-shore,Cross-shore,Cross-shore,Cross-shore",7
5842041f4e65fad6a7708a09,2023_12_28,39.336276,-74.47782,Ventnor Pier,2,0.7317951190476191,1.1214291666666667,8,7,"NIGHT_MIST,NIGHT_LIGHT_RAIN,NIGHT_DRIZZLE,NIGHT_LIGHT_RAIN,NIGHT_MIST,MIST,MIST","Onshore,Cross-shore,Cross-shore,Cross-shore,Cross-shore,Cross-shore,Cross-shore",7
5842041f4e65fad6a7708a0a,2023_12_28,39.35929751441085,-74.41683,States Avenue,2.5714285714285716,0.804432619047619,1.2349277380952381,8,7,"NIGHT_MIST,NIGHT_DRIZZLE,NIGHT_LIGHT_RAIN,NIGHT_LIGHT_RAIN,NIGHT_MIST,MIST,MIST","Onshore,Cross-shore,Cross-shore,Cross-shore,Cross-shore,Cross-shore,Cross-shore",7
5842041f4e65fad6a7708a0b,2023_12_28,39.37274173278517,-74.40454,Brigantine Jetty,2.4285714285714284,0.7467614285714286,1.1448190476190476,8,7,"NIGHT_MIST,NIGHT_MIST,NIGHT_LIGHT_RAIN,NIGHT_LIGHT_RAIN,NIGHT_MIST,MIST,DRIZZLE","Onshore,Offshore,Offshore,Offshore,Cross-shore,Offshore,Offshore",7
5842041f4e65fad6a7708a0c,2023_12_28,39.356505,-74.42263,South Carolina Avenue,2.4285714285714284,0.7467614285714286,1.1448190476190476,8,7,"NIGHT_MIST,NIGHT_DRIZZLE,NIGHT_LIGHT_RAIN,NIGHT_LIGHT_RAIN,NIGHT_MIST,MIST,MIST","Onshore,Offshore,Offshore,Offshore,Cross-shore,Offshore,Offshore",7
5842041f4e65fad6a7708a0d,2023_12_28,39.413485,-74.35476,14th Street North,2.5714285714285716,1.0031761904761904,1.3106952380952381,8,7,"NIGHT_MIST,NIGHT_LIGHT_RAIN,NIGHT_MIST,NIGHT_RAIN,NIGHT_MIST,MIST,MIST","Onshore,Cross-shore,Cross-shore,Cross-shore,Cross-shore,Cross-shore,Cross-shore",7
5842041f4e65fad6a7708a0e,2023_12_28,39.531319,-74.263252,The Wooden Jetty,1.69,0.639694880952381,1.0570709523809523,8,7,"NIGHT_MIST,NIGHT_LIGHT_RAIN,NIGHT_MIST,NIGHT_LIGHT_RAIN,NIGHT_MIST,MIST,MIST","Onshore,Cross-shore,Cross-shore,Cross-shore,Cross-shore,Cross-shore,Cross-shore",7
5842041f4e65fad6a7708a0f,2023_12_28,39.552472,-74.24344,Holyoke,1.69,0.6418113095238095,1.0608871428571427,8,7,"NIGHT_MIST,NIGHT_LIGHT_RAIN,NIGHT_MIST,NIGHT_LIGHT_RAIN,NIGHT_MIST,MIST,MIST","Onshore,Cross-shore,Cross-shore,Cross-shore,Cross-shore,Cross-shore,Cross-shore",7
5842041f4e65fad6a7708a10,2023_12_28,39.692364,-74.14068,Hudson Ave.,1.7614285714285713,0.6837857142857142,1.0843666666666667,8,7,"NIGHT_MIST,NIGHT_RAIN,NIGHT_MIST,NIGHT_LIGHT_RAIN,NIGHT_MIST,MIST,MIST","Onshore,Offshore,Onshore,Cross-shore,Cross-shore,Cross-shore,Cross-shore",7
5842041f4e65fad6a7708a11,2023_12_28,39.79614,-74.09248,Island Beach State Park,1.5714285714285714,0.7459619047619047,1.0240761904761906,8,7,"NIGHT_RAIN,NIGHT_LIGHT_SHOWERS_POSSIBLE,NIGHT_LIGHT_RAIN,NIGHT_DRIZZLE,NIGHT_MIST,MIST,MIST","Onshore,Cross-shore,Onshore,Onshore,Onshore,Onshore,Onshore",7
5842041f4e65fad6a7708a12,2023_12_28,39.91813588078152,-74.07527,Seaside Park,1.5714285714285714,0.7342952380952381,1.0352666666666668,8,7,"NIGHT_RAIN,NIGHT_DRIZZLE,NIGHT_RAIN,NIGHT_LIGHT_RAIN,NIGHT_BRIEF_SHOWERS,MIST,MIST","Onshore,Onshore,Onshore,Onshore,Onshore,Onshore,Onshore",7
5842041f4e65fad6a7708a14,2023_12_28,39.946638,-74.06884,Seaside Heights,1.5714285714285714,0.7027,1.0051,8,7,"NIGHT_LIGHT_RAIN,NIGHT_DRIZZLE,NIGHT_RAIN,NIGHT_LIGHT_RAIN,NIGHT_BRIEF_SHOWERS,MIST,MIST","Onshore,Onshore,Onshore,Onshore,Onshore,Onshore,Onshore",7
5842041f4e65fad6a7708a15,2023_12_28,39.95745637606704,-74.06736,Ortley Beach,1.5714285714285714,0.6819857142857143,0.9880761904761906,8,7,"NIGHT_LIGHT_RAIN,NIGHT_DRIZZLE,NIGHT_RAIN,NIGHT_LIGHT_RAIN,NIGHT_BRIEF_SHOWERS,MIST,MIST","Onshore,Onshore,Onshore,Onshore,Onshore,Onshore,Onshore",7
5842041f4e65fad6a7708a16,2023_12_28,39.98313468342945,-74.06265685577506,Lavallette,1.7142857142857142,0.7160333333333333,1.017004761904762,8,7,"NIGHT_LIGHT_RAIN,NIGHT_DRIZZLE,NIGHT_RAIN,NIGHT_LIGHT_RAIN,NIGHT_BRIEF_SHOWERS,MIST,MIST","Onshore,Onshore,Onshore,Onshore,Onshore,Onshore,Onshore",7
5842041f4e65fad6a7708a17,2023_12_28,40.0699319967757,-74.04144910856634,Bay Head,1.5714285714285714,0.7190095238095238,1.0251,8,7,"NIGHT_MIST,NIGHT_DRIZZLE,NIGHT_LIGHT_SHOWERS_POSSIBLE,NIGHT_LIGHT_RAIN,NIGHT_LIGHT_RAIN,MIST,MIST","Onshore,Onshore,Onshore,Onshore,Onshore,Onshore,Onshore",7
5842041f4e65fad6a7708a18,2023_12_28,40.094041,-74.034859,Jenkinson's,1.7142857142857142,0.694247619047619,1.0009333333333335,8,7,"NIGHT_OVERCAST,NIGHT_LIGHT_RAIN,NIGHT_LIGHT_RAIN,NIGHT_RAIN,NIGHT_DRIZZLE,MIST,DRIZZLE","Onshore,Onshore,Onshore,Onshore,Onshore,Onshore,Cross-shore",7
5842041f4e65fad6a7708a1a,2023_12_28,38.148058,-75.17704,Assateague,2.2857142857142856,1.0016904761904761,1.3405809523809524,9,8,"NIGHT_MIST,NIGHT_RAIN,NIGHT_LIGHT_RAIN,NIGHT_MIST,NIGHT_MIST,MIST,MIST","Onshore,Cross-shore,Cross-shore,Cross-shore,Offshore,Offshore,Offshore",7
5842041f4e65fad6a7708a1b,2023_12_28,38.33889038664497,-75.08017670566352,North End to Ocean City Inlet,2.142857142857143,1.0099047619047619,1.3222476190476191,9,8,"NIGHT_MIST,NIGHT_RAIN,NIGHT_MIST,NIGHT_HEAVY_RAIN,NIGHT_MIST,MIST,MIST","Cross-shore,Onshore,Onshore,Onshore,Onshore,Cross-shore,Cross-shore",7
5842041f4e65fad6a7708a1c,2023_12_28,38.603993,-75.06271,Indian River Inlet,2,0.7183182142857143,1.1384739285714285,9,8,"NIGHT_MIST,NIGHT_RAIN,NIGHT_MIST,NIGHT_LIGHT_RAIN,NIGHT_RAIN,MIST,MIST","Onshore,Onshore,Onshore,Onshore,Cross-shore,Cross-shore,Cross-shore",7
5842041f4e65fad6a7708a1d,2023_12_28,38.460477,-75.052069,Fenwick Island,2,0.643,0.9924857142857143,9,8,"NIGHT_LIGHT_RAIN,NIGHT_LIGHT_RAIN,NIGHT_MIST,NIGHT_OVERCAST,NIGHT_MIST,MIST,MIST","Cross-shore,Onshore,Onshore,Onshore,Onshore,Cross-shore,Cross-shore",7
5842041f4e65fad6a7708a1e,2023_12_28,38.538767,-75.05619,Bethany Beach,2,0.7083927380952381,1.1229636904761904,9,8,"NIGHT_MIST,NIGHT_LIGHT_RAIN,NIGHT_MIST,NIGHT_LIGHT_RAIN,NIGHT_DRIZZLE,MIST,MIST","Onshore,Onshore,Onshore,Cross-shore,Cross-shore,Cross-shore,Cross-shore",7
5842041f4e65fad6a7708a1f,2023_12_28,38.697657,-75.075951,Dewey Beach,2,0.7737142857142857,1.1226047619047619,9,8,"NIGHT_MIST,NIGHT_LIGHT_RAIN,NIGHT_MIST,NIGHT_MIST,NIGHT_MIST,MIST,MIST","Cross-shore,Onshore,Onshore,Onshore,Onshore,Onshore,Onshore",7
5842041f4e65fad6a7708a20,2023_12_28,38.75034741676525,-75.08194,Gordons Pond,2,0.6092652380952381,0.9680767857142857,9,8,"NIGHT_MIST,NIGHT_LIGHT_RAIN,NIGHT_MIST,NIGHT_MIST,NIGHT_MIST,MIST,MIST","Onshore,Onshore,Onshore,Onshore,Cross-shore,Cross-shore,Cross-shore",7
5842041f4e65fad6a7708a21,2023_12_28,38.767837,-75.082841,Naval Jetties,2,0.6744285714285714,1.0224857142857142,9,8,"NIGHT_MIST,NIGHT_LIGHT_RAIN,NIGHT_MIST,NIGHT_MIST,NIGHT_MIST,MIST,MIST","Cross-shore,Onshore,Onshore,Onshore,Onshore,Onshore,Onshore",7
5842041f4e65fad6a7708a22,2023_12_28,36.81735875786576,-75.96624,Camp Pendleton,2.857142857142857,1.0345714285714287,1.4103809523809523,11,9,"NIGHT_MIST,NIGHT_MIST,NIGHT_MIST,NIGHT_OVERCAST,NIGHT_DRIZZLE,OVERCAST,MIST","Onshore,Offshore,Cross-shore,Offshore,Offshore,Offshore,Offshore",7
5842041f4e65fad6a7708a23,2023_12_28,36.9102212316428,-75.98732471466064,North End,1.9757142857142858,0.6269809523809524,0.9754428571428572,11,9,"NIGHT_MIST,NIGHT_MIST,NIGHT_OVERCAST,NIGHT_OVERCAST,NIGHT_OVERCAST,MIST,CLOUDY","Onshore,Offshore,Cross-shore,Offshore,Offshore,Offshore,Offshore",7
5842041f4e65fad6a7708a24,2023_12_28,36.737117517621314,-75.93923719853362,Sandbridge Beach,2.857142857142857,0.7841476190476191,1.1330380952380952,11,9,"NIGHT_MIST,NIGHT_MIST,NIGHT_MOSTLY_CLOUDY,NIGHT_FOG,NIGHT_OVERCAST,LIGHT_RAIN_AND_FOG,MIST","Onshore,Offshore,Cross-shore,Offshore,Offshore,Offshore,Offshore",7
5842041f4e65fad6a7708a26,2023_12_28,36.818257440557794,-75.96666,Croatan to Pendleton,2.857142857142857,0.8112380952380952,1.1882380952380953,11,9,"NIGHT_MIST,NIGHT_MIST,NIGHT_MIST,NIGHT_OVERCAST,NIGHT_DRIZZLE,OVERCAST,MIST","Onshore,Offshore,Cross-shore,Offshore,Offshore,Offshore,Offshore",7
5842041f4e65fad6a7708a27,2023_12_28,36.84318777204769,-75.9719,South End,2.857142857142857,0.8029714285714286,1.1089142857142857,11,9,"NIGHT_MIST,NIGHT_MIST,NIGHT_OVERCAST,NIGHT_DRIZZLE,NIGHT_OVERCAST,DRIZZLE,CLEAR","Onshore,Offshore,Cross-shore,Offshore,Offshore,Offshore,Offshore",7
5842041f4e65fad6a7708a28,2023_12_28,37.08612627584661,-75.976121638199,Fishermans Island,2,0.5074285714285715,0.6297142857142858,9,9,"NIGHT_MIST,NIGHT_MIST,NIGHT_LIGHT_RAIN,NIGHT_MIST,NIGHT_MIST,MIST,MIST","Onshore,Offshore,Offshore,Offshore,Offshore,Offshore,Offshore",7
5842041f4e65fad6a7708a38,2023_12_28,35.254619418229026,-75.52074,Cape Hatteras Lighthouse,2.9814285714285713,1.2478667380952382,1.6268476428571428,13,12,"NIGHT_OVERCAST,NIGHT_CLEAR,NIGHT_CLOUDY,NIGHT_CLOUDY,NIGHT_CLOUDY,CLEAR,CLEAR","Onshore,Offshore,Offshore,Offshore,Offshore,Offshore,Offshore",7
5842041f4e65fad6a7708a3a,2023_12_28,35.54572934093336,-75.46477,Waves and Salvo,2,1.3543285714285713,1.6882619047619047,12,11,"NIGHT_LIGHT_RAIN,NIGHT_MIST,NIGHT_MIST,NIGHT_MIST,NIGHT_CLOUDY,CLOUDY,CLOUDY","Onshore,Offshore,Offshore,Offshore,Offshore,Offshore,Offshore",7
5842041f4e65fad6a7708a3b,2023_12_28,35.22565892751075,-75.63606,Frisco,0.6900000000000001,1.3515142857142857,1.6517142857142857,15,14,"NIGHT_DRIZZLE,NIGHT_CLEAR,NIGHT_CLOUDY,NIGHT_CLOUDY,NIGHT_CLEAR,CLEAR,CLEAR","Onshore,Cross-shore,Cross-shore,Cross-shore,Cross-shore,Cross-shore,Cross-shore",7
5842041f4e65fad6a7708a3c,2023_12_28,35.13086,-75.90591,Ocracoke,1,1.0342814285714286,1.6160642857142857,14.142857142857142,14.142857142857142,"NIGHT_CLEAR,NIGHT_CLOUDY,NIGHT_CLOUDY,NIGHT_CLEAR,NIGHT_CLEAR,CLEAR,CLOUDY","Onshore,Cross-shore,Offshore,Cross-shore,Offshore,Offshore,Offshore",7
5842041f4e65fad6a7708a3d,2023_12_28,35.34721340158342,-75.50084,Avon Pier,3.2857142857142856,1.2892714285714286,1.6910914285714287,13,11,"NIGHT_LIGHT_RAIN,NIGHT_OVERCAST,NIGHT_OVERCAST,NIGHT_OVERCAST,NIGHT_OVERCAST,CLOUDY,CLOUDY","Onshore,Offshore,Offshore,Offshore,Offshore,Offshore,Offshore",7
5842041f4e65fad6a7708a3f,2023_12_28,35.71680821253768,-75.49243,Pea Island,2.5714285714285716,1.0271428571428571,1.2671428571428571,10,10,"NIGHT_OVERCAST,NIGHT_OVERCAST,NIGHT_OVERCAST,NIGHT_MOSTLY_CLOUDY,NIGHT_OVERCAST,CLEAR,OVERCAST","Onshore,Offshore,Offshore,Offshore,Offshore,Offshore,Offshore",7
5842041f4e65fad6a7708a40,2023_12_28,35.97427620657821,-75.62984,Nags Head Pier,2.142857142857143,0.9657095238095238,1.2690809523809525,11,10,"NIGHT_OVERCAST,NIGHT_OVERCAST,NIGHT_OVERCAST,NIGHT_OVERCAST,NIGHT_DRIZZLE,BRIEF_SHOWERS,OVERCAST","Offshore,Offshore,Offshore,Offshore,Offshore,Offshore,Offshore",7
5842041f4e65fad6a7708a41,2023_12_28,36.0439998039079,-75.67288,Avalon Pier,2.7142857142857144,1.0411142857142857,1.3406,11,10,"NIGHT_OVERCAST,NIGHT_OVERCAST,NIGHT_OVERCAST,NIGHT_MIST,NIGHT_OVERCAST,MOSTLY_CLOUDY,OVERCAST","Onshore,Offshore,Offshore,Offshore,Offshore,Offshore,Offshore",7
5842041f4e65fad6a7708a42,2023_12_28,36.03043116489792,-75.66413,First Street,2.142857142857143,0.9282476190476191,1.2869285714285714,11,10,"NIGHT_OVERCAST,NIGHT_OVERCAST,NIGHT_OVERCAST,NIGHT_MIST,NIGHT_OVERCAST,MOSTLY_CLOUDY,OVERCAST","Onshore,Offshore,Offshore,Offshore,Offshore,Offshore,Offshore",7
5842041f4e65fad6a7708a43,2023_12_28,36.06829910590498,-75.6899,Old Station/Laundromats,2.7142857142857144,1.0199238095238095,1.3895,11,10,"NIGHT_OVERCAST,NIGHT_OVERCAST,NIGHT_OVERCAST,NIGHT_OVERCAST,NIGHT_OVERCAST,MOSTLY_CLOUDY,OVERCAST","Onshore,Offshore,Offshore,Offshore,Offshore,Offshore,Offshore",7
5842041f4e65fad6a7708a44,2023_12_28,36.10126676607491,-75.71107462163894,Kitty Hawk Pier,2.142857142857143,0.912295238095238,1.3690428571428572,11,10,"NIGHT_OVERCAST,NIGHT_OVERCAST,NIGHT_OVERCAST,NIGHT_OVERCAST,NIGHT_OVERCAST,MOSTLY_CLOUDY,OVERCAST","Onshore,Offshore,Offshore,Offshore,Offshore,Offshore,Offshore",7
5842041f4e65fad6a7708a45,2023_12_28,36.18220630068973,-75.75013580649097,Duck Pier,2.7142857142857144,0.9392809523809523,1.2452238095238095,11,9,"NIGHT_MIST,NIGHT_MIST,NIGHT_MIST,NIGHT_MIST,NIGHT_MIST,CLEAR,CLOUDY","Onshore,Offshore,Offshore,Offshore,Offshore,Offshore,Offshore",7
5842041f4e65fad6a7708a46,2023_12_28,36.37660668125033,-75.82409701687456,Corolla,2.7142857142857144,0.9621380952380952,1.2680809523809524,11,9,"NIGHT_LIGHT_RAIN,NIGHT_MIST,NIGHT_MIST,NIGHT_MIST,NIGHT_MIST,DRIZZLE,MIST","Onshore,Offshore,Offshore,Offshore,Offshore,Offshore,Offshore",7
5842041f4e65fad6a7708a47,2023_12_28,33.90373404124834,-78.08241431707907,Oak Island,1.1428571428571428,0.45,0.7542857142857142,14,14,"NIGHT_MOSTLY_CLOUDY,NIGHT_CLEAR,NIGHT_CLEAR,NIGHT_CLEAR,NIGHT_CLEAR,CLEAR,CLEAR","Cross-shore,Cross-shore,Onshore,Onshore,Onshore,Onshore,Onshore",7
5842041f4e65fad6a7708a48,2023_12_28,33.91108837766468,-78.29653,South Brunswick Beaches,1,0.39264,0.6135,13,13,"NIGHT_CLEAR,NIGHT_CLEAR,NIGHT_CLEAR,NIGHT_CLEAR,NIGHT_CLEAR,CLEAR,CLEAR","Cross-shore,Cross-shore,Cross-shore,Cross-shore,Cross-shore,Cross-shore,Cross-shore",7
5842041f4e65fad6a7708a49,2023_12_28,34.05683595651973,-77.88128,Carolina Beach Pier,2.857142857142857,0.6129238095238095,1.021942857142857,13,12,"NIGHT_CLEAR,NIGHT_CLOUDY,NIGHT_CLEAR,NIGHT_CLEAR,NIGHT_CLEAR,CLEAR,CLEAR","Offshore,Offshore,Offshore,Offshore,Offshore,Offshore,Offshore",7
5842041f4e65fad6a7708a4a,2023_12_28,33.96841191816696,-77.9180242565498,Fort Fisher,2.857142857142857,0.6123285714285714,1.0162285714285715,13,12,"NIGHT_MOSTLY_CLOUDY,NIGHT_CLOUDY,NIGHT_CLEAR,NIGHT_CLEAR,NIGHT_CLEAR,CLEAR,CLEAR","Offshore,Offshore,Offshore,Offshore,Offshore,Offshore,Offshore",7
5842041f4e65fad6a7708a4b,2023_12_28,34.46776662988774,-77.47083191635772,Topsail Beach,1.2857142857142858,0.6320857142857144,0.9245428571428571,13,12,"NIGHT_CLEAR,NIGHT_CLOUDY,NIGHT_CLEAR,NIGHT_CLEAR,NIGHT_CLEAR,CLEAR,CLEAR","Offshore,Offshore,Cross-shore,Cross-shore,Cross-shore,Cross-shore,Cross-shore",7
5842041f4e65fad6a7708a4c,2023_12_28,34.69270354752445,-76.82854854446575,Iron Steamer,1.9285714285714286,0.6473,0.951147619047619,14,13,"NIGHT_OVERCAST,NIGHT_CLEAR,NIGHT_CLOUDY,NIGHT_CLEAR,NIGHT_CLEAR,CLEAR,CLEAR","Offshore,Cross-shore,Cross-shore,Cross-shore,Cross-shore,Cross-shore,Cross-shore",7
5842041f4e65fad6a7708a4f,2023_12_28,30.85132684893727,-81.42283496231143,Cumberland Island,3,0.4942857142857143,0.7971428571428572,14.428571428571429,14.428571428571429,"NIGHT_CLEAR,NIGHT_CLEAR,NIGHT_CLEAR,NIGHT_OVERCAST,NIGHT_CLOUDY,OVERCAST,CLEAR","Offshore,Offshore,Offshore,Offshore,Offshore,Offshore,Offshore",7
5842041f4e65fad6a7708a50,2023_12_28,34.686741128540874,-76.47516712138378,Cape Lookout National Seashore,2.857142857142857,1.1928571428571428,1.4585714285714286,14.571428571428571,14.571428571428571,"NIGHT_MIST,NIGHT_CLOUDY,NIGHT_CLEAR,NIGHT_CLOUDY,NIGHT_CLEAR,CLEAR,CLEAR","Offshore,Offshore,Offshore,Offshore,Offshore,Offshore,Offshore",7
5842041f4e65fad6a7708a51,2023_12_28,31.10585419260024,-81.40422767604812,Jekyll Island,2.142857142857143,0.26,0.5657142857142857,14,14,"NIGHT_OVERCAST,NIGHT_CLEAR,NIGHT_CLEAR,NIGHT_CLEAR,NIGHT_CLEAR,CLOUDY,CLEAR","Offshore,Offshore,Offshore,Offshore,Offshore,Offshore,Offshore",7
5842041f4e65fad6a7708a52,2023_12_28,31.16212806376699,-81.32512426500224,Harbor Marker Buoys,3,0.45714285714285713,0.7614285714285715,14.428571428571429,14.428571428571429,"NIGHT_CLEAR,NIGHT_CLEAR,NIGHT_CLOUDY,NIGHT_CLEAR,NIGHT_CLEAR,CLOUDY,CLEAR","Offshore,Offshore,Offshore,Offshore,Offshore,Offshore,Offshore",7
5842041f4e65fad6a7708a53,2023_12_28,31.20076299997009,-81.32629,Sea Island,3,0.46571428571428575,0.7714285714285715,14.428571428571429,14.428571428571429,"NIGHT_CLEAR,NIGHT_CLEAR,NIGHT_CLEAR,NIGHT_CLEAR,NIGHT_CLEAR,OVERCAST,CLEAR","Offshore,Offshore,Offshore,Offshore,Offshore,Offshore,Offshore",7
5842041f4e65fad6a7708a54,2023_12_28,31.13553222995767,-81.38457634790909,St. Simons Island,2.5714285714285716,0.38571428571428573,0.6914285714285714,14,14,"NIGHT_CLEAR,NIGHT_CLEAR,NIGHT_CLEAR,NIGHT_CLEAR,NIGHT_CLEAR,CLOUDY,CLEAR","Cross-shore,Offshore,Offshore,Cross-shore,Offshore,Offshore,Offshore",7
5842041f4e65fad6a7708a55,2023_12_28,31.33550077186516,-81.28383377408417,Wolf Island,2.2857142857142856,0.30142857142857143,0.6071428571428571,14,14,"NIGHT_CLEAR,NIGHT_CLEAR,NIGHT_CLOUDY,NIGHT_CLOUDY,NIGHT_CLEAR,CLEAR,CLEAR","Offshore,Offshore,Offshore,Offshore,Offshore,Offshore,Offshore",7
5842041f4e65fad6a7708a56,2023_12_28,31.2704493877174,-81.27324039152315,Little St. Simons Island,3,0.41428571428571426,0.72,14.428571428571429,14.428571428571429,"NIGHT_CLEAR,NIGHT_CLEAR,NIGHT_CLOUDY,NIGHT_CLOUDY,NIGHT_CLEAR,CLOUDY,CLEAR","Offshore,Offshore,Offshore,Offshore,Offshore,Offshore,Offshore",7
5842041f4e65fad6a7708a57,2023_12_28,31.39261761368919,-81.26190520231917,Sapelo Island,3,0.36142857142857143,0.6657142857142857,14,14,"NIGHT_CLEAR,NIGHT_CLEAR,NIGHT_CLEAR,NIGHT_OVERCAST,NIGHT_OVERCAST,CLEAR,OVERCAST","Offshore,Offshore,Offshore,Offshore,Offshore,Offshore,Offshore",7
5842041f4e65fad6a7708a58,2023_12_28,34.42458783809001,-77.54492,Surf City Pier,2,0.6120857142857143,0.9231142857142858,13,12,"NIGHT_MIST,NIGHT_CLOUDY,NIGHT_CLEAR,NIGHT_CLEAR,NIGHT_CLEAR,CLEAR,CLEAR","Offshore,Offshore,Offshore,Offshore,Offshore,Offshore,Offshore",7
5842041f4e65fad6a7708a59,2023_12_28,31.4231993614213,-81.24725340591522,Cabretta Island,3,0.3742857142857143,0.6814285714285715,14,14,"NIGHT_CLEAR,NIGHT_CLEAR,NIGHT_CLEAR,NIGHT_CLOUDY,NIGHT_OVERCAST,CLEAR,CLEAR","Offshore,Offshore,Offshore,Offshore,Offshore,Offshore,Offshore",7
5842041f4e65fad6a7708a5a,2023_12_28,31.46684389030369,-81.2100056410468,Blackbeard Island,2.7142857142857144,0.36142857142857143,0.6657142857142857,14,14,"NIGHT_CLEAR,NIGHT_CLEAR,NIGHT_CLEAR,NIGHT_OVERCAST,NIGHT_OVERCAST,CLEAR,CLOUDY","Offshore,Offshore,Offshore,Offshore,Offshore,Offshore,Offshore",7
5842041f4e65fad6a7708a5b,2023_12_28,31.85953587631629,-80.99031310336719,Wassaw Island/South End,2,0.06,0.36428571428571427,13,13,"NIGHT_CLEAR,NIGHT_CLEAR,NIGHT_CLEAR,NIGHT_OVERCAST,NIGHT_CLOUDY,CLEAR,CLEAR","Offshore,Offshore,Offshore,Offshore,Offshore,Offshore,Offshore",7
5842041f4e65fad6a7708a5c,2023_12_28,31.62535662342983,-81.13328352167974,St. Catherines Island,3,0.4085714285714286,0.7128571428571429,13.428571428571429,13.428571428571429,"NIGHT_CLEAR,NIGHT_CLEAR,NIGHT_CLEAR,NIGHT_CLOUDY,NIGHT_OVERCAST,CLEAR,CLEAR","Offshore,Offshore,Offshore,Offshore,Offshore,Offshore,Offshore",7
5842041f4e65fad6a7708a5d,2023_12_28,31.76502169596568,-81.07655443806622,Ossabaw Island,2.857142857142857,0.32285714285714284,0.6285714285714286,13,13,"NIGHT_CLEAR,NIGHT_CLEAR,NIGHT_CLEAR,NIGHT_CLOUDY,NIGHT_CLEAR,CLEAR,CLEAR","Offshore,Offshore,Offshore,Offshore,Offshore,Offshore,Offshore",7
5842041f4e65fad6a7708a5e,2023_12_28,31.90593619092352,-80.93589231700857,Wassaw Island/North End,2.142857142857143,0.5357142857142857,0.8414285714285714,13,13,"NIGHT_CLEAR,NIGHT_CLEAR,NIGHT_CLEAR,NIGHT_CLEAR,NIGHT_CLOUDY,CLEAR,CLEAR","Offshore,Offshore,Offshore,Offshore,Offshore,Offshore,Offshore",7
5842041f4e65fad6a7708a5f,2023_12_28,31.96738675414547,-80.86977980706155,Little Tybee Island,2.4285714285714284,0.4642857142857143,0.77,13,13,"NIGHT_CLEAR,NIGHT_CLEAR,NIGHT_CLEAR,NIGHT_CLEAR,NIGHT_CLOUDY,MOSTLY_CLOUDY,CLEAR","Offshore,Offshore,Cross-shore,Offshore,Offshore,Offshore,Offshore",7
5842041f4e65fad6a7708a60,2023_12_28,31.9812255780179,-80.84773973467009,South Tybee Sandbars,3,0.36857142857142855,0.6742857142857143,13,13,"NIGHT_CLEAR,NIGHT_CLEAR,NIGHT_CLEAR,NIGHT_CLEAR,NIGHT_CLOUDY,MOSTLY_CLOUDY,CLEAR","Offshore,Offshore,Offshore,Offshore,Offshore,Offshore,Offshore",7
5842041f4e65fad6a7708a61,2023_12_28,32.01226,-80.83983,Sugar Shack,2.142857142857143,0.27285714285714285,0.5742857142857143,13,13,"NIGHT_CLEAR,NIGHT_CLEAR,NIGHT_CLEAR,NIGHT_CLOUDY,NIGHT_CLOUDY,CLEAR,CLEAR","Offshore,Offshore,Offshore,Offshore,Offshore,Offshore,Offshore",7
