_id,date,lat,lon,name,daily_mean_swell_rating,daily_mean_wave_height_min,daily_mean_wave_height_max,daily_mean_water_temperature_max,daily_mean_water_temperature_min,weather_per_timestamp,wind_per_timestamp,n_samples_per_day
5842041f4e65fad6a77087f9,2024_01_10,37.741668,-122.51038,South Ocean Beach,1.13,2.628074074074074,3.330637037037037,14,14,"NIGHT_CLEAR,NIGHT_CLEAR,NIGHT_MOSTLY_CLEAR,NIGHT_MOSTLY_CLOUDY,NIGHT_MOSTLY_CLEAR,NIGHT_MOSTLY_CLEAR,OVERCAST,BRIEF_SHOWERS,MOSTLY_CLOUDY","Onshore,Onshore,Onshore,Onshore,Onshore,Onshore,Onshore,Onshore,Onshore",9
5842041f4e65fad6a7708801,2024_01_10,37.49142,-122.50428,Maverick's,NA,1.9874074074074073,2.421451851851852,13,13,"NIGHT_CLEAR,NIGHT_CLEAR,NIGHT_MOSTLY_CLOUDY,NIGHT_MOSTLY_CLOUDY,NIGHT_MOSTLY_CLOUDY,NIGHT_CLEAR,MOSTLY_CLOUDY,BRIEF_SHOWERS,MOSTLY_CLOUDY","Offshore,Offshore,Offshore,Offshore,Offshore,Offshore,Cross-shore,Cross-shore,Cross-shore",9
5842041f4e65fad6a7708804,2024_01_10,44.997,-124.018,Roads End,0.3333333333333333,5.46,6.38,11,11,"NIGHT_LIGHT_RAIN,NIGHT_MOSTLY_CLOUDY,NIGHT_CLEAR,NIGHT_MOSTLY_CLOUDY,NIGHT_MOSTLY_CLOUDY,NIGHT_CLEAR,SHOWERS,CLEAR,MOSTLY_CLOUDY","Onshore,Onshore,Onshore,Onshore,Onshore,Onshore,Onshore,Onshore,Onshore",9
5842041f4e65fad6a7708805,2024_01_10,36.95188851423011,-122.02522,Steamer Lane,3.4266666666666667,1.2627407407407407,1.6501925925925927,14,14,"NIGHT_CLEAR,NIGHT_CLEAR,NIGHT_CLEAR,NIGHT_CLEAR,NIGHT_MIST,NIGHT_CLEAR,MOSTLY_CLEAR,SHOWERS,MIST","Offshore,Offshore,Offshore,Offshore,Offshore,Offshore,Offshore,Cross-shore,Cross-shore",9
5842041f4e65fad6a7708806,2024_01_10,36.95918781542251,-122.02489,Cowells,1,0,0.21022222222222223,14,14,"NIGHT_CLEAR,NIGHT_CLEAR,NIGHT_CLEAR,NIGHT_CLEAR,NIGHT_MIST,NIGHT_CLEAR,MOSTLY_CLEAR,SHOWERS,MIST","Offshore,Offshore,Offshore,Offshore,Offshore,Offshore,Offshore,Onshore,Onshore",9
5842041f4e65fad6a7708807,2024_01_10,36.95468082526536,-121.97234,Pleasure Point,3.647777777777778,1.1586666666666667,1.5228148148148148,14,14,"NIGHT_CLEAR,NIGHT_CLEAR,NIGHT_CLEAR,NIGHT_CLEAR,NIGHT_CLEAR,NIGHT_CLEAR,CLEAR,MIST,BRIEF_SHOWERS","Offshore,Cross-shore,Cross-shore,Offshore,Offshore,Onshore,Onshore,Onshore,Cross-shore",9
5842041f4e65fad6a770880a,2024_01_10,35.37815414378748,-120.86589,Morro Bay,3,1.000162962962963,1.3356148148148148,13,13,"NIGHT_CLEAR,NIGHT_CLEAR,NIGHT_CLEAR,NIGHT_CLEAR,NIGHT_CLEAR,NIGHT_CLEAR,CLEAR,CLEAR,CLEAR","Offshore,Cross-shore,Cross-shore,Cross-shore,Onshore,Onshore,Offshore,Onshore,Onshore",9
5842041f4e65fad6a770880b,2024_01_10,36.95782765000708,-121.9672887511276,Jack's,1.7777777777777777,0.17148148148148148,0.43894814814814814,14,14,"NIGHT_CLEAR,NIGHT_CLEAR,NIGHT_CLEAR,NIGHT_CLEAR,NIGHT_CLEAR,NIGHT_CLEAR,CLEAR,MIST,BRIEF_SHOWERS","Offshore,Cross-shore,Offshore,Cross-shore,Offshore,Onshore,Onshore,Onshore,Offshore",9
5842041f4e65fad6a770880d,2024_01_10,34.29982939936656,-119.3489016603669,Gold Coast Beachbreaks,2.3333333333333335,0.3188888888888889,0.6244444444444445,14,14,"NIGHT_CLEAR,NIGHT_CLEAR,NIGHT_CLEAR,NIGHT_CLEAR,NIGHT_CLEAR,NIGHT_CLEAR,MOSTLY_CLEAR,MOSTLY_CLEAR,MOSTLY_CLEAR","Cross-shore,Offshore,Cross-shore,Cross-shore,Offshore,Offshore,Onshore,Onshore,Cross-shore",9
5842041f4e65fad6a7708811,2024_01_10,34.245076,-119.26799,Ventura Harbor,2.703333333333333,0.8228011111111111,1.1395351851851852,14,14,"NIGHT_CLEAR,NIGHT_CLEAR,NIGHT_CLEAR,NIGHT_CLEAR,NIGHT_CLEAR,NIGHT_CLEAR,CLEAR,CLEAR,MOSTLY_CLEAR","Offshore,Offshore,Cross-shore,Offshore,Cross-shore,Offshore,Offshore,Onshore,Cross-shore",9
5842041f4e65fad6a7708813,2024_01_10,34.051,-118.964,County Line,1.8333333333333333,0.49230370370370374,0.797325925925926,14,14,"NIGHT_CLEAR,NIGHT_CLEAR,NIGHT_CLEAR,NIGHT_CLEAR,NIGHT_CLEAR,NIGHT_CLEAR,CLEAR,CLEAR,CLEAR","Offshore,Offshore,Offshore,Offshore,Offshore,Offshore,Offshore,Cross-shore,Onshore",9
5842041f4e65fad6a7708814,2024_01_10,34.37256264378892,-119.47797,Rincon,2.6666666666666665,0.40555555555555556,0.71,14,14,"NIGHT_CLEAR,NIGHT_CLEAR,NIGHT_CLEAR,NIGHT_CLEAR,NIGHT_CLEAR,NIGHT_CLEAR,CLEAR,CLEAR,CLEAR","Onshore,Onshore,Onshore,Onshore,Onshore,Onshore,Onshore,Onshore,Onshore",9
5842041f4e65fad6a7708817,2024_01_10,34.03096101876324,-118.68109,Malibu Third Point,2.3333333333333335,0.31777777777777777,0.6244444444444445,15,15,"NIGHT_CLEAR,NIGHT_CLEAR,NIGHT_CLEAR,NIGHT_CLEAR,NIGHT_CLEAR,NIGHT_CLEAR,CLEAR,CLEAR,CLEAR","Offshore,Offshore,Offshore,Offshore,Offshore,Cross-shore,Cross-shore,Onshore,Onshore",9
5842041f4e65fad6a7708819,2024_01_10,33.984079047970035,-118.47381591796875,Venice Beach,2.703333333333333,0.6642888888888889,0.9957333333333334,14,14,"NIGHT_CLEAR,NIGHT_CLEAR,NIGHT_MIST,NIGHT_CLEAR,NIGHT_CLEAR,NIGHT_CLEAR,MOSTLY_CLEAR,CLEAR,CLEAR","Offshore,Offshore,Offshore,Offshore,Offshore,Offshore,Offshore,Cross-shore,Onshore",9
5842041f4e65fad6a770881e,2024_01_10,34.037508438646746,-118.58339846155594,Topanga Beach,2.852222222222222,0.3433555555555556,0.646525925925926,14,14,"NIGHT_CLEAR,NIGHT_CLEAR,NIGHT_CLEAR,NIGHT_CLEAR,NIGHT_CLEAR,NIGHT_CLEAR,CLEAR,CLEAR,CLEAR","Offshore,Offshore,Cross-shore,Onshore,Offshore,Cross-shore,Cross-shore,Onshore,Onshore",9
5842041f4e65fad6a7708820,2024_01_10,33.73954373690184,-118.11414,Seal Beach Jetty,2,0.2177777777777778,0.5244444444444445,15,15,"NIGHT_CLEAR,NIGHT_CLEAR,NIGHT_CLEAR,NIGHT_CLEAR,NIGHT_CLEAR,NIGHT_CLEAR,MOSTLY_CLOUDY,MOSTLY_CLOUDY,MOSTLY_CLOUDY","Offshore,Offshore,Offshore,Offshore,Offshore,Offshore,Offshore,Cross-shore,Cross-shore",9
5842041f4e65fad6a7708822,2024_01_10,33.72309983348433,-118.08078,Anderson Street,2.111111111111111,0.27,0.5744444444444444,15,15,"NIGHT_CLEAR,NIGHT_CLEAR,NIGHT_CLEAR,NIGHT_CLEAR,NIGHT_CLEAR,NIGHT_CLEAR,MOSTLY_CLOUDY,MOSTLY_CLOUDY,MOSTLY_CLOUDY","Offshore,Offshore,Offshore,Offshore,Offshore,Offshore,Offshore,Cross-shore,Cross-shore",9
5842041f4e65fad6a7708827,2024_01_10,33.65574085629463,-118.00397,Huntington Beach Pier Northside,3,0.8345962962962963,1.1137518518518519,14,14,"NIGHT_CLEAR,NIGHT_CLEAR,NIGHT_CLEAR,NIGHT_CLEAR,NIGHT_MOSTLY_CLEAR,NIGHT_CLEAR,MOSTLY_CLOUDY,MOSTLY_CLOUDY,MOSTLY_CLOUDY","Offshore,Offshore,Offshore,Offshore,Offshore,Offshore,Offshore,Cross-shore,Cross-shore",9
5842041f4e65fad6a7708828,2024_01_10,34.272041739333,-119.2997646331,C St.,2.611111111111111,0.41242962962962965,0.7161555555555555,14,14,"NIGHT_CLEAR,NIGHT_CLEAR,NIGHT_CLEAR,NIGHT_CLEAR,NIGHT_CLEAR,NIGHT_CLEAR,CLEAR,CLEAR,MOSTLY_CLEAR","Offshore,Offshore,Offshore,Offshore,Offshore,Offshore,Offshore,Onshore,Onshore",9
5842041f4e65fad6a770882a,2024_01_10,33.61555743705257,-117.93676,Newport Lower Jetties,2.741111111111111,0.540162962962963,0.8811703703703704,14,14,"NIGHT_CLEAR,NIGHT_CLEAR,NIGHT_CLEAR,NIGHT_MOSTLY_CLEAR,NIGHT_CLEAR,NIGHT_CLEAR,MOSTLY_CLOUDY,MOSTLY_CLEAR,CLEAR","Offshore,Offshore,Offshore,Offshore,Offshore,Offshore,Cross-shore,Cross-shore,Cross-shore",9
5842041f4e65fad6a770882b,2024_01_10,33.5930302087,-117.88199,The Wedge,1.7777777777777777,0.45753555555555553,0.8874222222222222,15,15,"NIGHT_CLEAR,NIGHT_CLEAR,NIGHT_CLEAR,NIGHT_CLEAR,NIGHT_MOSTLY_CLEAR,NIGHT_CLEAR,MOSTLY_CLOUDY,MOSTLY_CLEAR,CLEAR","Offshore,Offshore,Offshore,Cross-shore,Cross-shore,Cross-shore,Cross-shore,Cross-shore,Cross-shore",9
5842041f4e65fad6a770882c,2024_01_10,33.60577342582,-117.9315376281,Newport Beach Pier,2.4444444444444446,0.5433222222222223,0.8838666666666667,14,14,"NIGHT_CLEAR,NIGHT_CLEAR,NIGHT_CLEAR,NIGHT_CLEAR,NIGHT_CLEAR,NIGHT_CLEAR,MOSTLY_CLOUDY,MOSTLY_CLEAR,CLEAR","Onshore,Onshore,Cross-shore,Onshore,Onshore,Cross-shore,Cross-shore,Onshore,Onshore",9
5842041f4e65fad6a770882e,2024_01_10,33.475793399792984,-117.72291,Salt Creek,3,0.7065703703703704,1.0121555555555555,15,15,"NIGHT_CLEAR,NIGHT_CLEAR,NIGHT_CLEAR,NIGHT_CLEAR,NIGHT_CLEAR,NIGHT_CLEAR,CLEAR,CLEAR,CLEAR","Offshore,Offshore,Offshore,Offshore,Offshore,Offshore,Offshore,Cross-shore,Cross-shore",9
5842041f4e65fad6a7708830,2024_01_10,33.41800974113613,-117.61952,T-Street,2.758888888888889,0.49265185185185184,0.8333037037037037,15,15,"NIGHT_CLEAR,NIGHT_CLEAR,NIGHT_CLEAR,NIGHT_CLEAR,NIGHT_CLEAR,NIGHT_CLEAR,CLEAR,CLEAR,CLEAR","Offshore,Offshore,Offshore,Offshore,Offshore,Offshore,Cross-shore,Onshore,Onshore",9
5842041f4e65fad6a7708832,2024_01_10,33.202391008646,-117.39475,Oceanside Harbor,2.758888888888889,0.5392888888888889,0.8434962962962963,15,15,"NIGHT_CLEAR,NIGHT_CLEAR,NIGHT_CLEAR,NIGHT_MOSTLY_CLEAR,NIGHT_MOSTLY_CLOUDY,NIGHT_MOSTLY_CLOUDY,CLEAR,CLEAR,CLEAR","Offshore,Offshore,Offshore,Offshore,Offshore,Offshore,Offshore,Cross-shore,Onshore",9
5842041f4e65fad6a7708835,2024_01_10,33.19477795952803,-117.38667,Oceanside Pier,2.647777777777778,0.4169333333333333,0.7632444444444445,15,15,"NIGHT_CLEAR,NIGHT_CLEAR,NIGHT_CLEAR,NIGHT_CLEAR,NIGHT_MOSTLY_CLOUDY,NIGHT_MOSTLY_CLOUDY,CLEAR,CLEAR,CLEAR","Offshore,Offshore,Offshore,Offshore,Offshore,Offshore,Offshore,Onshore,Onshore",9
5842041f4e65fad6a7708837,2024_01_10,33.14948100706,-117.35029,Tamarack,2.4444444444444446,0.30777777777777776,0.6166666666666667,15,15,"NIGHT_CLEAR,NIGHT_CLEAR,NIGHT_CLEAR,NIGHT_CLEAR,NIGHT_MOSTLY_CLOUDY,NIGHT_MOSTLY_CLOUDY,CLEAR,CLEAR,CLEAR","Offshore,Offshore,Offshore,Offshore,Offshore,Offshore,Offshore,Onshore,Onshore",9
5842041f4e65fad6a7708839,2024_01_10,32.865777159358856,-117.25614295356122,Scripps,3,0.6792888888888889,1.0241185185185184,15,15,"NIGHT_CLEAR,NIGHT_CLEAR,NIGHT_CLEAR,NIGHT_MOSTLY_CLEAR,NIGHT_MOSTLY_CLOUDY,NIGHT_MOSTLY_CLOUDY,CLEAR,MOSTLY_CLEAR,MOSTLY_CLOUDY","Offshore,Offshore,Offshore,Offshore,Offshore,Offshore,Offshore,Cross-shore,Cross-shore",9
5842041f4e65fad6a770883a,2024_01_10,32.813094,-117.27381,Birdrock,3,0.5966666666666667,0.9022222222222223,15,15,"NIGHT_CLEAR,NIGHT_CLEAR,NIGHT_MOSTLY_CLOUDY,NIGHT_MOSTLY_CLOUDY,NIGHT_MOSTLY_CLOUDY,NIGHT_MOSTLY_CLOUDY,CLEAR,MOSTLY_CLOUDY,MOSTLY_CLOUDY","Offshore,Offshore,Offshore,Offshore,Offshore,Offshore,Offshore,Cross-shore,Onshore",9
5842041f4e65fad6a770883b,2024_01_10,32.877231,-117.25303,Blacks,2.758888888888889,0.8266962962962964,1.1799259259259258,15,15,"NIGHT_CLEAR,NIGHT_CLEAR,NIGHT_CLEAR,NIGHT_MOSTLY_CLEAR,NIGHT_MOSTLY_CLOUDY,NIGHT_MOSTLY_CLOUDY,CLEAR,MOSTLY_CLEAR,MOSTLY_CLOUDY","Offshore,Offshore,Offshore,Offshore,Offshore,Offshore,Onshore,Onshore,Onshore",9
5842041f4e65fad6a770883c,2024_01_10,32.82978974229765,-117.28161740727381,Windansea,2.1666666666666665,0.7155851851851852,1.0190518518518519,15,15,"NIGHT_CLEAR,NIGHT_CLEAR,NIGHT_CLEAR,NIGHT_CLEAR,NIGHT_CLEAR,NIGHT_MOSTLY_CLOUDY,CLEAR,MOSTLY_CLOUDY,MOSTLY_CLOUDY","Offshore,Offshore,Offshore,Offshore,Offshore,Offshore,Offshore,Cross-shore,Cross-shore",9
5842041f4e65fad6a770883d,2024_01_10,32.838278,-117.28396,Horseshoe,3,0.6911111111111111,0.9933333333333334,15,15,"NIGHT_CLEAR,NIGHT_CLEAR,NIGHT_CLEAR,NIGHT_CLEAR,NIGHT_CLEAR,NIGHT_MOSTLY_CLOUDY,CLEAR,MOSTLY_CLOUDY,MOSTLY_CLOUDY","Offshore,Offshore,Offshore,Offshore,Offshore,Offshore,Offshore,Offshore,Onshore",9
5842041f4e65fad6a770883f,2024_01_10,32.75034717673179,-117.25337,Ocean Beach,3,0.8229925925925926,1.1404148148148148,15,15,"NIGHT_CLEAR,NIGHT_CLEAR,NIGHT_MOSTLY_CLOUDY,NIGHT_MOSTLY_CLOUDY,NIGHT_MOSTLY_CLOUDY,NIGHT_MOSTLY_CLOUDY,CLEAR,MOSTLY_CLOUDY,MOSTLY_CLOUDY","Offshore,Offshore,Offshore,Offshore,Offshore,Offshore,Offshore,Cross-shore,Cross-shore",9
5842041f4e65fad6a7708840,2024_01_10,32.73693,-117.25718,Sunset Cliffs,2,0.6488888888888888,0.9544444444444444,14,14,"NIGHT_CLEAR,NIGHT_CLEAR,NIGHT_MOSTLY_CLOUDY,NIGHT_MOSTLY_CLOUDY,NIGHT_MOSTLY_CLOUDY,NIGHT_MOSTLY_CLOUDY,CLEAR,MOSTLY_CLOUDY,MOSTLY_CLOUDY","Offshore,Offshore,Offshore,Offshore,Offshore,Offshore,Offshore,Cross-shore,Cross-shore",9
5842041f4e65fad6a7708841,2024_01_10,32.796582258728826,-117.25779,Pacific Beach,3,0.7644740740740741,1.1118962962962964,15,15,"NIGHT_CLEAR,NIGHT_CLEAR,NIGHT_MOSTLY_CLOUDY,NIGHT_MOSTLY_CLOUDY,NIGHT_MOSTLY_CLOUDY,NIGHT_MOSTLY_CLOUDY,CLEAR,MOSTLY_CLOUDY,MOSTLY_CLOUDY","Offshore,Offshore,Offshore,Offshore,Offshore,Offshore,Offshore,Cross-shore,Onshore",9
5842041f4e65fad6a7708842,2024_01_10,32.776636,-117.25514,Mission Beach,3,0.7252148148148149,1.071525925925926,15,15,"NIGHT_CLEAR,NIGHT_CLEAR,NIGHT_MOSTLY_CLOUDY,NIGHT_MOSTLY_CLOUDY,NIGHT_MOSTLY_CLOUDY,NIGHT_MOSTLY_CLOUDY,CLEAR,MOSTLY_CLOUDY,MOSTLY_CLOUDY","Offshore,Offshore,Offshore,Offshore,Offshore,Offshore,Offshore,Offshore,Cross-shore",9
5842041f4e65fad6a7708844,2024_01_10,32.577195519016,-117.13475,Imperial Beach Pier,3,0.7677777777777778,1.0422222222222222,14.222222222222221,14.222222222222221,"NIGHT_CLEAR,NIGHT_CLEAR,NIGHT_CLEAR,NIGHT_CLEAR,NIGHT_CLEAR,NIGHT_CLEAR,CLEAR,MOSTLY_CLOUDY,MOSTLY_CLOUDY","Offshore,Offshore,Offshore,Offshore,Offshore,Offshore,Offshore,Cross-shore,Onshore",9
5842041f4e65fad6a770884a,2024_01_10,42.88678181061,-70.80843,Seabrook,0.20333333333333334,2.5561723148148148,3.8740746296296296,7,4.333333333333333,"NIGHT_RAIN,NIGHT_RAIN,NIGHT_HEAVY_RAIN,LIGHT_RAIN,BRIEF_SHOWERS,MIST,MOSTLY_CLOUDY,CLEAR,CLEAR","Onshore,Onshore,Onshore,Onshore,Cross-shore,Cross-shore,Offshore,Offshore,Offshore",9
5842041f4e65fad6a770884e,2024_01_10,41.434181432898335,-71.45312118111178,Narragansett,0.6944444444444444,2.3936711111111113,3.2509785185185187,7.333333333333333,5.666666666666667,"NIGHT_MIST,NIGHT_RAIN,NIGHT_MIST,MIST,MIST,MOSTLY_CLOUDY,BRIEF_SHOWERS_POSSIBLE,CLEAR,CLEAR","Onshore,Onshore,Onshore,Onshore,Onshore,Cross-shore,Cross-shore,Cross-shore,Cross-shore",9
5842041f4e65fad6a7708850,2024_01_10,40.582703230722,-73.65247,Lincoln Blvd,0,2.9202414814814817,4.193904444444445,7.333333333333333,5.333333333333333,"NIGHT_LIGHT_RAIN,NIGHT_MIST,NIGHT_CLEAR,CLEAR,CLEAR,CLEAR,CLEAR,CLEAR,CLEAR","Onshore,Onshore,Cross-shore,Cross-shore,Cross-shore,Onshore,Onshore,Onshore,Onshore",9
5842041f4e65fad6a7708852,2024_01_10,40.58342841721757,-73.81182,Rockaways,0.09444444444444444,2.5830562962962964,3.720663703703704,7.333333333333333,5.333333333333333,"NIGHT_LIGHT_RAIN,NIGHT_BRIEF_SHOWERS,NIGHT_MOSTLY_CLEAR,CLEAR,MOSTLY_CLEAR,CLEAR,CLEAR,MOSTLY_CLOUDY,MOSTLY_CLEAR","Onshore,Onshore,Cross-shore,Cross-shore,Cross-shore,Cross-shore,Cross-shore,Cross-shore,Cross-shore",9
5842041f4e65fad6a7708853,2024_01_10,40.330474,-73.9734,Monmouth Beach,2.741111111111111,2.3219481481481483,3.0531185185185183,8,7,"NIGHT_MIST,NIGHT_BRIEF_SHOWERS,NIGHT_CLEAR,CLEAR,MOSTLY_CLEAR,CLEAR,CLEAR,MOSTLY_CLOUDY,MOSTLY_CLEAR","Onshore,Cross-shore,Offshore,Offshore,Offshore,Offshore,Offshore,Offshore,Offshore",9
5842041f4e65fad6a7708856,2024_01_10,40.113,-74.028,Manasquan Inlet,4.027777777777778,2.6330074074074075,3.5488666666666666,8,7,"NIGHT_OVERCAST,NIGHT_CLEAR,NIGHT_MOSTLY_CLEAR,CLEAR,CLEAR,CLEAR,CLEAR,CLEAR,CLEAR","Cross-shore,Cross-shore,Offshore,Offshore,Offshore,Offshore,Offshore,Offshore,Offshore",9
5842041f4e65fad6a7708857,2024_01_10,39.941519877445664,-74.06829,Casino Pier,3.3144444444444443,2.4737333333333336,3.5765296296296296,8,7,"NIGHT_MIST,NIGHT_CLEAR,NIGHT_MOSTLY_CLEAR,CLEAR,CLEAR,CLEAR,CLEAR,CLEAR,CLEAR","Onshore,Cross-shore,Offshore,Offshore,Offshore,Offshore,Offshore,Offshore,Offshore",9
5842041f4e65fad6a7708858,2024_01_10,39.28223089949212,-74.55766,North End OC,0.9822222222222222,1.8672925925925925,2.860577777777778,8,7,"NIGHT_MIST,NIGHT_MIST,NIGHT_BRIEF_SHOWERS,LIGHT_RAIN,CLEAR,MOSTLY_CLOUDY,CLEAR,CLEAR,CLEAR","Onshore,Onshore,Cross-shore,Offshore,Offshore,Cross-shore,Offshore,Cross-shore,Offshore",9
5842041f4e65fad6a770885b,2024_01_10,39.65080599934257,-74.17146,Ship Bottom,1.7777777777777777,2.830077777777778,3.9544185185185183,8,7,"NIGHT_LIGHT_SHOWERS_POSSIBLE,NIGHT_MOSTLY_CLEAR,NIGHT_CLEAR,MOSTLY_CLOUDY,OVERCAST,CLEAR,CLEAR,CLEAR,CLEAR","Onshore,Cross-shore,Offshore,Offshore,Cross-shore,Offshore,Offshore,Offshore,Offshore",9
5842041f4e65fad6a7708863,2024_01_10,36.034151543144,-75.66791,Third Street,2.5366666666666666,1.4054222222222224,1.968725925925926,11,9,"NIGHT_MOSTLY_CLOUDY,NIGHT_CLEAR,NIGHT_CLEAR,CLEAR,CLEAR,CLEAR,CLEAR,CLEAR,CLEAR","Offshore,Offshore,Offshore,Offshore,Offshore,Offshore,Offshore,Offshore,Offshore",9
5842041f4e65fad6a7708867,2024_01_10,35.605833221351425,-75.46303,S-Turns,1.7366666666666668,2.0537651851851852,2.7721503703703707,12,9,"NIGHT_OVERCAST,NIGHT_MOSTLY_CLEAR,NIGHT_MOSTLY_CLEAR,CLEAR,CLEAR,CLEAR,CLEAR,CLEAR,CLEAR","Offshore,Offshore,Offshore,Offshore,Offshore,Offshore,Offshore,Offshore,Offshore",9
5842041f4e65fad6a770886d,2024_01_10,38.338461,-75.08117,Ocean City Boardwalk,2.8144444444444443,2.0279962962962963,2.987003703703704,8,7,"NIGHT_MIST,NIGHT_CLEAR,NIGHT_CLEAR,CLEAR,CLEAR,CLEAR,CLEAR,CLEAR,CLEAR","Offshore,Offshore,Offshore,Offshore,Offshore,Offshore,Offshore,Offshore,Offshore",9
5842041f4e65fad6a770886f,2024_01_10,29.844757212379562,-81.26136,A St.,3,0.43777777777777777,0.7433333333333333,15,15,"NIGHT_MOSTLY_CLEAR,NIGHT_CLEAR,NIGHT_CLEAR,CLEAR,CLEAR,CLEAR,CLEAR,CLEAR,CLEAR","Offshore,Offshore,Offshore,Offshore,Offshore,Offshore,Offshore,Offshore,Offshore",9
5842041f4e65fad6a7708871,2024_01_10,29.069417851135093,-80.90824,New Smyrna Beach,2.6666666666666665,0.736382962962963,1.1398525925925926,18,17,"NIGHT_CLEAR,NIGHT_MOSTLY_CLEAR,NIGHT_CLEAR,CLEAR,CLEAR,CLEAR,CLEAR,CLEAR,CLEAR","Offshore,Offshore,Offshore,Offshore,Offshore,Offshore,Offshore,Offshore,Offshore",9
5842041f4e65fad6a7708872,2024_01_10,28.367707417566,-80.60171,Cocoa Beach Pier,2.011111111111111,0.36502962962962965,0.6814629629629629,21.333333333333332,19,"NIGHT_CLEAR,NIGHT_CLEAR,NIGHT_CLEAR,CLEAR,CLEAR,CLEAR,CLEAR,CLEAR,CLEAR","Offshore,Offshore,Offshore,Offshore,Offshore,Offshore,Offshore,Offshore,Offshore",9
5842041f4e65fad6a7708873,2024_01_10,28.091782738658846,-80.56479,Indialantic,2.6855555555555557,0.5699037037037037,0.8926333333333333,23,22,"NIGHT_MOSTLY_CLOUDY,NIGHT_CLEAR,NIGHT_CLEAR,CLEAR,CLEAR,CLEAR,CLEAR,CLEAR,CLEAR","Offshore,Offshore,Offshore,Offshore,Offshore,Offshore,Offshore,Offshore,Offshore",9
5842041f4e65fad6a7708876,2024_01_10,27.25392904143517,-80.19455,Jensen Beach,1.6666666666666667,0.46541481481481484,0.7728814814814815,23,21,"NIGHT_CLEAR,NIGHT_CLEAR,NIGHT_CLEAR,CLEAR,CLEAR,CLEAR,CLEAR,CLEAR,CLEAR","Offshore,Offshore,Offshore,Offshore,Offshore,Offshore,Cross-shore,Cross-shore,Onshore",9
5842041f4e65fad6a7708879,2024_01_10,26.76346795333825,-80.0360655784607,Reef Road,1.07,0.2156948148148148,0.46940814814814813,25,23,"NIGHT_BRIEF_SHOWERS,NIGHT_CLEAR,NIGHT_CLEAR,MOSTLY_CLEAR,CLEAR,CLEAR,CLEAR,CLEAR,CLEAR","Offshore,Offshore,Offshore,Offshore,Offshore,Offshore,Offshore,Cross-shore,Onshore",9
5842041f4e65fad6a770887c,2024_01_10,26.336499228484,-80.06956100463,Boca Raton Inlet,0.6477777777777778,0.09722222222222222,0.4017851851851852,25,23,"NIGHT_LIGHT_SHOWERS_POSSIBLE,NIGHT_OVERCAST,NIGHT_MOSTLY_CLEAR,MOSTLY_CLEAR,CLEAR,CLEAR,CLEAR,CLEAR,MOSTLY_CLEAR","Offshore,Offshore,Offshore,Offshore,Offshore,Offshore,Offshore,Onshore,Onshore",9
5842041f4e65fad6a770887d,2024_01_10,26.31719311695038,-80.07452525176168,Deerfield Beach Pier,0,0.030226444444444438,0.24712044444444445,25,23,"NIGHT_BRIEF_SHOWERS_POSSIBLE,NIGHT_MOSTLY_CLOUDY,NIGHT_MOSTLY_CLEAR,MOSTLY_CLEAR,CLEAR,CLEAR,MOSTLY_CLEAR,CLEAR,CLEAR","Offshore,Offshore,Offshore,Offshore,Offshore,Offshore,Offshore,Onshore,Onshore",9
5842041f4e65fad6a7708881,2024_01_10,30.20276320866628,-85.85626528676136,"Spyglass Dr., Panama City",2.26,1.23,1.5133333333333334,16,14,"NIGHT_CLEAR,NIGHT_CLEAR,NIGHT_CLEAR,NIGHT_CLEAR,CLEAR,CLEAR,CLEAR,CLEAR,CLEAR","Cross-shore,Cross-shore,Cross-shore,Cross-shore,Cross-shore,Cross-shore,Cross-shore,Onshore,Onshore",9
5842041f4e65fad6a7708884,2024_01_10,33.39000832738053,-117.59852,Cottons,3,0.6313555555555556,0.9810296296296296,15,15,"NIGHT_CLEAR,NIGHT_CLEAR,NIGHT_CLEAR,NIGHT_CLEAR,NIGHT_CLEAR,NIGHT_CLEAR,MOSTLY_CLEAR,CLEAR,CLEAR","Cross-shore,Cross-shore,Cross-shore,Cross-shore,Cross-shore,Cross-shore,Offshore,Offshore,Offshore",9
5842041f4e65fad6a7708885,2024_01_10,33.359416282661,-117.54167901405711,Trails,2.4444444444444446,0.33555555555555555,0.6388888888888888,14.222222222222221,14.222222222222221,"NIGHT_CLEAR,NIGHT_CLEAR,NIGHT_CLEAR,NIGHT_CLEAR,NIGHT_CLEAR,NIGHT_CLEAR,CLEAR,CLEAR,CLEAR","Offshore,Offshore,Offshore,Offshore,Offshore,Offshore,Cross-shore,Cross-shore,Cross-shore",9
5842041f4e65fad6a7708886,2024_01_10,33.38042605929805,-117.58332,Middles,2.758888888888889,0.421962962962963,0.7738592592592592,15,15,"NIGHT_CLEAR,NIGHT_CLEAR,NIGHT_CLEAR,NIGHT_CLEAR,NIGHT_CLEAR,NIGHT_CLEAR,MOSTLY_CLEAR,CLEAR,CLEAR","Offshore,Offshore,Offshore,Offshore,Offshore,Offshore,Offshore,Cross-shore,Cross-shore",9
5842041f4e65fad6a7708887,2024_01_10,33.38445596302903,-117.59445,Upper Trestles,2.9633333333333334,0.5872814814814815,0.9364,15,15,"NIGHT_CLEAR,NIGHT_CLEAR,NIGHT_CLEAR,NIGHT_CLEAR,NIGHT_CLEAR,NIGHT_CLEAR,MOSTLY_CLEAR,CLEAR,CLEAR","Offshore,Offshore,Offshore,Offshore,Offshore,Offshore,Offshore,Cross-shore,Cross-shore",9
5842041f4e65fad6a7708889,2024_01_10,28.944414,-95.28883,Surfside,1.7777777777777777,0.5913888888888889,0.9240477777777778,15,15,"NIGHT_CLEAR,NIGHT_CLEAR,NIGHT_CLEAR,NIGHT_CLEAR,CLEAR,CLEAR,CLEAR,CLEAR,CLEAR","Offshore,Offshore,Onshore,Onshore,Onshore,Onshore,Onshore,Onshore,Cross-shore",9
5842041f4e65fad6a770888a,2024_01_10,33.38143999849023,-117.58843,Lower Trestles,2.9633333333333334,0.6111703703703704,0.9597333333333333,15,15,"NIGHT_CLEAR,NIGHT_CLEAR,NIGHT_CLEAR,NIGHT_CLEAR,NIGHT_CLEAR,NIGHT_CLEAR,MOSTLY_CLEAR,CLEAR,CLEAR","Offshore,Offshore,Offshore,Offshore,Offshore,Offshore,Offshore,Cross-shore,Cross-shore",9
5842041f4e65fad6a770888b,2024_01_10,33.379622288757,-117.57894,Church,2.7777777777777777,0.3891851851851852,0.7433037037037037,15,15,"NIGHT_CLEAR,NIGHT_CLEAR,NIGHT_CLEAR,NIGHT_CLEAR,NIGHT_CLEAR,NIGHT_CLEAR,MOSTLY_CLEAR,CLEAR,CLEAR","Offshore,Cross-shore,Offshore,Offshore,Cross-shore,Offshore,Offshore,Offshore,Cross-shore",9
5842041f4e65fad6a770888d,2024_01_10,21.679,-158.042,Sunset Beach,2.4633333333333334,2.6084925925925924,3.5050074074074073,26,25,"NIGHT_MOSTLY_CLOUDY,NIGHT_MOSTLY_CLEAR,NIGHT_HEAVY_SHOWERS,NIGHT_MOSTLY_CLEAR,NIGHT_MOSTLY_CLEAR,NIGHT_CLEAR,CLEAR,MOSTLY_CLEAR,MOSTLY_CLEAR","Onshore,Onshore,Cross-shore,Offshore,Cross-shore,Cross-shore,Offshore,Offshore,Onshore",9
5842041f4e65fad6a770888e,2024_01_10,21.670550036401,-158.0482,Rocky Point,2.4633333333333334,2.615159259259259,3.2993888888888887,26,25,"NIGHT_MOSTLY_CLEAR,NIGHT_SHOWERS,NIGHT_MOSTLY_CLEAR,NIGHT_MOSTLY_CLEAR,NIGHT_CLEAR,NIGHT_MOSTLY_CLEAR,CLEAR,MOSTLY_CLEAR,MOSTLY_CLEAR","Cross-shore,Onshore,Cross-shore,Offshore,Offshore,Cross-shore,Offshore,Offshore,Onshore",9
5842041f4e65fad6a770888f,2024_01_10,21.668,-158.05,Chambers,2.7777777777777777,2.5677777777777777,2.9655555555555555,25,25,"NIGHT_MOSTLY_CLEAR,NIGHT_SHOWERS,NIGHT_MOSTLY_CLEAR,NIGHT_MOSTLY_CLEAR,NIGHT_CLEAR,NIGHT_MOSTLY_CLEAR,CLEAR,MOSTLY_CLEAR,MOSTLY_CLEAR","Cross-shore,Onshore,Cross-shore,Offshore,Offshore,Cross-shore,Offshore,Offshore,Cross-shore",9
5842041f4e65fad6a7708890,2024_01_10,21.66522,-158.0526,Pipeline,2.39,2.446177777777778,3.1227222222222224,26,25,"NIGHT_MOSTLY_CLEAR,NIGHT_SHOWERS,NIGHT_MOSTLY_CLEAR,NIGHT_MOSTLY_CLEAR,NIGHT_CLEAR,NIGHT_MOSTLY_CLEAR,CLEAR,MOSTLY_CLEAR,MOSTLY_CLEAR","Cross-shore,Onshore,Cross-shore,Offshore,Offshore,Cross-shore,Offshore,Offshore,Cross-shore",9
5842041f4e65fad6a7708891,2024_01_10,21.665,-158.054,Backdoor,3,2.4244444444444446,2.8088888888888888,25,25,"NIGHT_MOSTLY_CLEAR,NIGHT_SHOWERS,NIGHT_MOSTLY_CLEAR,NIGHT_MOSTLY_CLEAR,NIGHT_CLEAR,NIGHT_MOSTLY_CLEAR,CLEAR,MOSTLY_CLEAR,MOSTLY_CLEAR","Cross-shore,Onshore,Cross-shore,Offshore,Offshore,Cross-shore,Offshore,Offshore,Onshore",9
5842041f4e65fad6a7708892,2024_01_10,21.662,-158.057,Rockpile,2.4444444444444446,2.727777777777778,3.2022222222222223,25,25,"NIGHT_MOSTLY_CLEAR,NIGHT_SHOWERS,NIGHT_MOSTLY_CLEAR,NIGHT_MOSTLY_CLEAR,NIGHT_CLEAR,NIGHT_MOSTLY_CLEAR,CLEAR,MOSTLY_CLEAR,MOSTLY_CLEAR","Cross-shore,Onshore,Cross-shore,Offshore,Offshore,Cross-shore,Offshore,Offshore,Onshore",9
5842041f4e65fad6a7708893,2024_01_10,21.65870453806827,-158.06058,Log Cabins,2.7777777777777777,2.157777777777778,2.511111111111111,25,25,"NIGHT_MOSTLY_CLEAR,NIGHT_SHOWERS,NIGHT_MOSTLY_CLEAR,NIGHT_MOSTLY_CLEAR,NIGHT_CLEAR,NIGHT_MOSTLY_CLEAR,CLEAR,MOSTLY_CLEAR,MOSTLY_CLEAR","Cross-shore,Onshore,Cross-shore,Offshore,Offshore,Cross-shore,Offshore,Offshore,Onshore",9
5842041f4e65fad6a7708894,2024_01_10,21.66203493640557,-158.05495,Off-The-Wall,3,2.6822222222222223,3.1166666666666667,25,25,"NIGHT_MOSTLY_CLEAR,NIGHT_SHOWERS,NIGHT_MOSTLY_CLEAR,NIGHT_MOSTLY_CLEAR,NIGHT_CLEAR,NIGHT_MOSTLY_CLEAR,CLEAR,MOSTLY_CLEAR,MOSTLY_CLEAR","Cross-shore,Onshore,Cross-shore,Offshore,Offshore,Cross-shore,Offshore,Offshore,Onshore",9
5842041f4e65fad6a7708895,2024_01_10,21.643,-158.067,Waimea Bay,NA,2.8339555555555553,3.671951851851852,26,25,"NIGHT_MOSTLY_CLEAR,NIGHT_SHOWERS,NIGHT_MOSTLY_CLEAR,NIGHT_MOSTLY_CLEAR,NIGHT_CLEAR,NIGHT_MOSTLY_CLEAR,CLEAR,MOSTLY_CLEAR,MOSTLY_CLEAR","Onshore,Onshore,Cross-shore,Offshore,Cross-shore,Cross-shore,Offshore,Offshore,Onshore",9
5842041f4e65fad6a7708896,2024_01_10,21.622,-158.087,Hultin's,1.9633333333333334,2.8539555555555554,3.539759259259259,26,25,"NIGHT_MOSTLY_CLEAR,NIGHT_BRIEF_SHOWERS,NIGHT_CLEAR,NIGHT_SHOWERS,NIGHT_MOSTLY_CLOUDY,NIGHT_MOSTLY_CLEAR,CLEAR,CLEAR,MOSTLY_CLEAR","Onshore,Onshore,Onshore,Onshore,Onshore,Cross-shore,Onshore,Onshore,Onshore",9
5842041f4e65fad6a7708897,2024_01_10,21.623,-158.085,Jocko's,4,2.44,2.752222222222222,25,25,"NIGHT_MOSTLY_CLEAR,NIGHT_BRIEF_SHOWERS,NIGHT_CLEAR,NIGHT_SHOWERS,NIGHT_MOSTLY_CLOUDY,NIGHT_MOSTLY_CLEAR,CLEAR,CLEAR,MOSTLY_CLEAR","Offshore,Offshore,Offshore,Cross-shore,Offshore,Offshore,Offshore,Offshore,Offshore",9
5842041f4e65fad6a7708898,2024_01_10,21.62,-158.088,Laniakea,2.4255555555555555,2.4912703703703705,3.121703703703704,26,25,"NIGHT_MOSTLY_CLEAR,NIGHT_BRIEF_SHOWERS,NIGHT_CLEAR,NIGHT_SHOWERS,NIGHT_MOSTLY_CLOUDY,NIGHT_MOSTLY_CLEAR,CLEAR,CLEAR,MOSTLY_CLEAR","Cross-shore,Cross-shore,Cross-shore,Onshore,Cross-shore,Cross-shore,Cross-shore,Cross-shore,Cross-shore",9
5842041f4e65fad6a7708899,2024_01_10,21.625,-158.083,Chun's,2.3333333333333335,2.4877777777777776,2.8355555555555556,25,25,"NIGHT_MOSTLY_CLEAR,NIGHT_BRIEF_SHOWERS,NIGHT_CLEAR,NIGHT_SHOWERS,NIGHT_MOSTLY_CLOUDY,NIGHT_MOSTLY_CLEAR,CLEAR,CLEAR,MOSTLY_CLEAR","Cross-shore,Onshore,Cross-shore,Onshore,Cross-shore,Cross-shore,Cross-shore,Cross-shore,Onshore",9
5842041f4e65fad6a770889c,2024_01_10,21.286357895152136,-157.8515,South Shore - Ala Moana Park,2,0.5977777777777777,0.9033333333333333,25,25,"NIGHT_MOSTLY_CLEAR,NIGHT_MOSTLY_CLOUDY,NIGHT_MOSTLY_CLEAR,NIGHT_MOSTLY_CLEAR,NIGHT_MOSTLY_CLOUDY,NIGHT_CLEAR,BRIEF_SHOWERS,MOSTLY_CLEAR,MIST","Onshore,Onshore,Onshore,Onshore,Onshore,Onshore,Onshore,Onshore,Onshore",9
5842041f4e65fad6a770889d,2024_01_10,19.606,-155.978,Banyans,2.7777777777777777,1.0416222222222222,1.3008666666666666,26,25,"NIGHT_MOSTLY_CLEAR,NIGHT_CLEAR,NIGHT_MOSTLY_CLEAR,NIGHT_SHOWERS,NIGHT_MOSTLY_CLEAR,NIGHT_CLEAR,CLEAR,MOSTLY_CLEAR,CLEAR","Offshore,Offshore,Offshore,Offshore,Cross-shore,Cross-shore,Cross-shore,Cross-shore,Cross-shore",9
5842041f4e65fad6a770889e,2024_01_10,20.029,-155.831,Kawaihae,3,1.1010688888888889,1.4927911111111112,25,25,"NIGHT_CLEAR,NIGHT_CLEAR,NIGHT_CLEAR,NIGHT_CLEAR,NIGHT_CLEAR,NIGHT_CLEAR,MOSTLY_CLEAR,CLEAR,CLEAR","Cross-shore,Offshore,Cross-shore,Cross-shore,Offshore,Offshore,Onshore,Onshore,Onshore",9
5842041f4e65fad6a770889f,2024_01_10,33.07541383424675,-117.3105,Grandview,3,0.5477777777777778,0.8544444444444445,15,15,"NIGHT_CLEAR,NIGHT_CLEAR,NIGHT_CLEAR,NIGHT_CLEAR,NIGHT_CLEAR,NIGHT_MOSTLY_CLEAR,CLEAR,CLEAR,CLEAR","Offshore,Offshore,Offshore,Offshore,Offshore,Offshore,Offshore,Cross-shore,Onshore",9
5842041f4e65fad6a77088a0,2024_01_10,33.065267421296596,-117.30577,Beacons,3,0.5511111111111111,0.8555555555555555,15,15,"NIGHT_CLEAR,NIGHT_CLEAR,NIGHT_CLEAR,NIGHT_CLEAR,NIGHT_CLEAR,NIGHT_MOSTLY_CLEAR,CLEAR,CLEAR,CLEAR","Offshore,Offshore,Offshore,Offshore,Offshore,Offshore,Offshore,Cross-shore,Onshore",9
5842041f4e65fad6a77088a2,2024_01_10,21.252,-157.805,Diamond Head,1.8333333333333333,0.8948575,1.2569299999999999,26,25,"NIGHT_CLEAR,NIGHT_BRIEF_SHOWERS,NIGHT_CLEAR,NIGHT_CLEAR,NIGHT_MOSTLY_CLOUDY,NIGHT_CLEAR,SHOWERS,HEAVY_SHOWERS,BRIEF_SHOWERS","Cross-shore,Cross-shore,Cross-shore,Cross-shore,Onshore,Cross-shore,Cross-shore,Cross-shore,Cross-shore",9
5842041f4e65fad6a77088a3,2024_01_10,33.04694255008896,-117.29966,Moonlight State Beach,3,0.5555555555555556,0.8566666666666667,15,15,"NIGHT_CLEAR,NIGHT_CLEAR,NIGHT_CLEAR,NIGHT_CLEAR,NIGHT_CLEAR,NIGHT_CLEAR,CLEAR,CLEAR,CLEAR","Offshore,Offshore,Offshore,Offshore,Offshore,Offshore,Offshore,Cross-shore,Onshore",9
5842041f4e65fad6a77088a5,2024_01_10,33.08685865930869,-117.31532,Ponto,2.7777777777777777,0.6366666666666667,0.9411111111111111,15,15,"NIGHT_CLEAR,NIGHT_CLEAR,NIGHT_CLEAR,NIGHT_CLEAR,NIGHT_CLEAR,NIGHT_MOSTLY_CLEAR,CLEAR,CLEAR,CLEAR","Offshore,Offshore,Offshore,Offshore,Offshore,Offshore,Offshore,Cross-shore,Cross-shore",9
5842041f4e65fad6a77088a6,2024_01_10,33.130343587871906,-117.33667796442558,Terra Mar Point,2.87,0.5250814814814815,0.8307703703703704,15,15,"NIGHT_CLEAR,NIGHT_CLEAR,NIGHT_CLEAR,NIGHT_CLEAR,NIGHT_MOSTLY_CLEAR,NIGHT_MOSTLY_CLOUDY,CLEAR,CLEAR,CLEAR","Offshore,Offshore,Offshore,Offshore,Offshore,Offshore,Offshore,Onshore,Onshore",9
5842041f4e65fad6a77088af,2024_01_10,32.95916304183685,-117.26963,Del Mar,3,0.6711111111111111,0.9766666666666667,15,15,"NIGHT_CLEAR,NIGHT_CLEAR,NIGHT_CLEAR,NIGHT_CLEAR,NIGHT_MOSTLY_CLEAR,NIGHT_MOSTLY_CLOUDY,CLEAR,CLEAR,MOSTLY_CLEAR","Offshore,Offshore,Offshore,Offshore,Offshore,Offshore,Offshore,Cross-shore,Onshore",9
5842041f4e65fad6a77088b0,2024_01_10,32.97527261243354,-117.2721061331305,Del Mar Rivermouth,2.7777777777777777,0.6277777777777778,0.9333333333333333,15,15,"NIGHT_CLEAR,NIGHT_CLEAR,NIGHT_CLEAR,NIGHT_CLEAR,NIGHT_MOSTLY_CLEAR,NIGHT_BRIEF_SHOWERS,CLEAR,CLEAR,CLEAR","Offshore,Offshore,Offshore,Offshore,Offshore,Offshore,Offshore,Cross-shore,Onshore",9
5842041f4e65fad6a77088b1,2024_01_10,33.01352178146273,-117.28219,Cardiff Reef,2.87,0.7889185185185186,1.0546074074074074,15,15,"NIGHT_CLEAR,NIGHT_CLEAR,NIGHT_CLEAR,NIGHT_CLEAR,NIGHT_CLEAR,NIGHT_CLEAR,CLEAR,CLEAR,CLEAR","Offshore,Offshore,Offshore,Offshore,Offshore,Offshore,Offshore,Onshore,Onshore",9
5842041f4e65fad6a77088b3,2024_01_10,33.00211185876003,-117.281101957955,Seaside Reef,2.8333333333333335,0.6785481481481481,0.984237037037037,15,15,"NIGHT_CLEAR,NIGHT_CLEAR,NIGHT_CLEAR,NIGHT_CLEAR,NIGHT_CLEAR,NIGHT_CLEAR,CLEAR,CLEAR,CLEAR","Offshore,Offshore,Offshore,Offshore,Offshore,Offshore,Offshore,Onshore,Onshore",9
5842041f4e65fad6a77088b4,2024_01_10,33.0341859796287,-117.29552,Swami's,2.87,0.6032296296296297,0.9473185185185186,15,15,"NIGHT_CLEAR,NIGHT_CLEAR,NIGHT_CLEAR,NIGHT_CLEAR,NIGHT_CLEAR,NIGHT_CLEAR,CLEAR,CLEAR,CLEAR","Offshore,Offshore,Offshore,Offshore,Offshore,Offshore,Offshore,Cross-shore,Onshore",9
5842041f4e65fad6a77088b7,2024_01_10,33.04569760260221,-117.2994,D Street,3,0.6122222222222222,0.9177777777777778,15,15,"NIGHT_CLEAR,NIGHT_CLEAR,NIGHT_CLEAR,NIGHT_CLEAR,NIGHT_CLEAR,NIGHT_CLEAR,CLEAR,CLEAR,CLEAR","Offshore,Offshore,Offshore,Offshore,Offshore,Offshore,Offshore,Cross-shore,Onshore",9
5842041f4e65fad6a77088b8,2024_01_10,33.02090944350196,-117.28535,San Elijo State Beach,2.611111111111111,0.4758222222222222,0.7822518518518519,15,15,"NIGHT_CLEAR,NIGHT_CLEAR,NIGHT_CLEAR,NIGHT_CLEAR,NIGHT_CLEAR,NIGHT_CLEAR,CLEAR,CLEAR,CLEAR","Offshore,Offshore,Offshore,Offshore,Offshore,Offshore,Offshore,Onshore,Onshore",9
5842041f4e65fad6a77088c2,2024_01_10,32.80662846492798,-117.2688764333725,PB Point,3,0.5955555555555555,0.9,15,15,"NIGHT_CLEAR,NIGHT_CLEAR,NIGHT_MOSTLY_CLOUDY,NIGHT_MOSTLY_CLOUDY,NIGHT_MOSTLY_CLOUDY,NIGHT_MOSTLY_CLOUDY,CLEAR,MOSTLY_CLOUDY,MOSTLY_CLOUDY","Cross-shore,Cross-shore,Cross-shore,Offshore,Cross-shore,Cross-shore,Offshore,Onshore,Onshore",9
5842041f4e65fad6a77088c4,2024_01_10,32.8060476681448,-117.26479,Old Man's at Tourmaline,2.888888888888889,0.48333333333333334,0.7855555555555556,15,15,"NIGHT_CLEAR,NIGHT_CLEAR,NIGHT_MOSTLY_CLOUDY,NIGHT_MOSTLY_CLOUDY,NIGHT_MOSTLY_CLOUDY,NIGHT_MOSTLY_CLOUDY,CLEAR,MOSTLY_CLOUDY,MOSTLY_CLOUDY","Cross-shore,Cross-shore,Cross-shore,Offshore,Cross-shore,Cross-shore,Offshore,Cross-shore,Onshore",9
5842041f4e65fad6a77088cb,2024_01_10,32.557056711256,-117.1327445020322,Tijuana Slough,2.888888888888889,0.6077777777777778,0.9133333333333333,14.222222222222221,14.222222222222221,"NIGHT_CLEAR,NIGHT_MOSTLY_CLEAR,NIGHT_CLEAR,NIGHT_CLEAR,NIGHT_CLEAR,NIGHT_CLEAR,CLEAR,MOSTLY_CLOUDY,BRIEF_SHOWERS","Offshore,Offshore,Offshore,Offshore,Offshore,Offshore,Cross-shore,Onshore,Onshore",9
5842041f4e65fad6a77088cc,2024_01_10,32.863,-117.257,La Jolla Shores,3,0.5466666666666666,0.8544444444444445,15,15,"NIGHT_CLEAR,NIGHT_CLEAR,NIGHT_CLEAR,NIGHT_MOSTLY_CLEAR,NIGHT_MOSTLY_CLOUDY,NIGHT_MOSTLY_CLOUDY,CLEAR,MOSTLY_CLEAR,MOSTLY_CLOUDY","Offshore,Offshore,Offshore,Offshore,Offshore,Offshore,Offshore,Cross-shore,Cross-shore",9
5842041f4e65fad6a77088ce,2024_01_10,32.67443657790586,-117.17421316238693,Coronado Beach,2,0.20777777777777778,0.5133333333333333,14,14,"NIGHT_CLEAR,NIGHT_CLEAR,NIGHT_MOSTLY_CLOUDY,NIGHT_CLEAR,NIGHT_CLEAR,NIGHT_CLEAR,CLEAR,MOSTLY_CLOUDY,MOSTLY_CLOUDY","Cross-shore,Cross-shore,Cross-shore,Cross-shore,Cross-shore,Cross-shore,Onshore,Onshore,Onshore",9
5842041f4e65fad6a77088cf,2024_01_10,33.40484417640326,-117.60749,San Clemente State Beach,2.4444444444444446,0.43,0.7355555555555555,15,15,"NIGHT_CLEAR,NIGHT_CLEAR,NIGHT_CLEAR,NIGHT_CLEAR,NIGHT_CLEAR,NIGHT_CLEAR,CLEAR,CLEAR,CLEAR","Offshore,Offshore,Offshore,Offshore,Offshore,Offshore,Cross-shore,Onshore,Onshore",9
5842041f4e65fad6a77088d5,2024_01_10,33.4663042002114,-117.7168352817103,Strands,3,0.7215703703703704,1.0232666666666668,15,15,"NIGHT_CLEAR,NIGHT_CLEAR,NIGHT_CLEAR,NIGHT_CLEAR,NIGHT_CLEAR,NIGHT_CLEAR,CLEAR,CLEAR,CLEAR","Offshore,Offshore,Offshore,Offshore,Offshore,Offshore,Cross-shore,Cross-shore,Onshore",9
5842041f4e65fad6a77088d7,2024_01_10,33.4609858001748,-117.68535,Doheny State Beach,1.63,0.011111111111111112,0.31391851851851854,15,15,"NIGHT_CLEAR,NIGHT_CLEAR,NIGHT_CLEAR,NIGHT_CLEAR,NIGHT_MOSTLY_CLEAR,NIGHT_CLEAR,MOSTLY_CLOUDY,CLEAR,CLEAR","Offshore,Offshore,Offshore,Offshore,Offshore,Offshore,Offshore,Cross-shore,Cross-shore",9
5842041f4e65fad6a77088dc,2024_01_10,33.50894790083017,-117.75243,Aliso Creek,2.3333333333333335,0.44,0.7444444444444445,15,15,"NIGHT_CLEAR,NIGHT_CLEAR,NIGHT_CLEAR,NIGHT_CLEAR,NIGHT_MOSTLY_CLEAR,NIGHT_CLEAR,MOSTLY_CLOUDY,CLEAR,CLEAR","Cross-shore,Offshore,Offshore,Cross-shore,Offshore,Cross-shore,Cross-shore,Onshore,Onshore",9
5842041f4e65fad6a77088dd,2024_01_10,33.5326591767067,-117.77764,Brooks Street,2.3333333333333335,0.3566666666666667,0.6622222222222223,15,15,"NIGHT_CLEAR,NIGHT_CLEAR,NIGHT_CLEAR,NIGHT_MOSTLY_CLEAR,NIGHT_MOSTLY_CLEAR,NIGHT_CLEAR,MOSTLY_CLOUDY,CLEAR,CLEAR","Cross-shore,Offshore,Offshore,Cross-shore,Cross-shore,Cross-shore,Cross-shore,Onshore,Onshore",9
5842041f4e65fad6a77088de,2024_01_10,33.53561225884637,-117.7799,Thalia Street,2.4444444444444446,0.3888888888888889,0.6911111111111111,15,15,"NIGHT_CLEAR,NIGHT_CLEAR,NIGHT_CLEAR,NIGHT_MOSTLY_CLEAR,NIGHT_MOSTLY_CLEAR,NIGHT_CLEAR,MOSTLY_CLOUDY,CLEAR,CLEAR","Cross-shore,Offshore,Offshore,Cross-shore,Cross-shore,Cross-shore,Cross-shore,Onshore,Onshore",9
5842041f4e65fad6a77088e3,2024_01_10,33.54268310353641,-117.7916,Rockpile,2.3333333333333335,0.4811111111111111,0.7888888888888889,15,15,"NIGHT_CLEAR,NIGHT_CLEAR,NIGHT_CLEAR,NIGHT_MOSTLY_CLEAR,NIGHT_MOSTLY_CLEAR,NIGHT_CLEAR,MOSTLY_CLOUDY,CLEAR,CLEAR","Cross-shore,Offshore,Offshore,Cross-shore,Cross-shore,Cross-shore,Cross-shore,Onshore,Onshore",9
5842041f4e65fad6a77088e4,2024_01_10,33.7368459504689,-118.10342,"Seal Beach Pier, Southside",1.7777777777777777,0.04111111111111111,0.34111111111111114,15,15,"NIGHT_CLEAR,NIGHT_CLEAR,NIGHT_CLEAR,NIGHT_CLEAR,NIGHT_CLEAR,NIGHT_CLEAR,MOSTLY_CLOUDY,MOSTLY_CLOUDY,MOSTLY_CLOUDY","Offshore,Offshore,Offshore,Offshore,Offshore,Offshore,Offshore,Onshore,Onshore",9
5842041f4e65fad6a77088e5,2024_01_10,33.73933701820233,-118.117,Ray Bay,1.5555555555555556,0.024444444444444446,0.3211111111111111,15,15,"NIGHT_CLEAR,NIGHT_CLEAR,NIGHT_CLEAR,NIGHT_CLEAR,NIGHT_CLEAR,NIGHT_CLEAR,MOSTLY_CLOUDY,MOSTLY_CLOUDY,MOSTLY_CLOUDY","Offshore,Offshore,Offshore,Offshore,Offshore,Offshore,Offshore,Cross-shore,Cross-shore",9
5842041f4e65fad6a77088e7,2024_01_10,33.728733,-118.08982,Surfside,2,0.10222222222222223,0.4033333333333333,15,15,"NIGHT_CLEAR,NIGHT_CLEAR,NIGHT_CLEAR,NIGHT_CLEAR,NIGHT_CLEAR,NIGHT_CLEAR,MOSTLY_CLOUDY,MOSTLY_CLOUDY,MOSTLY_CLOUDY","Offshore,Offshore,Offshore,Offshore,Offshore,Offshore,Offshore,Cross-shore,Onshore",9
5842041f4e65fad6a77088e8,2024_01_10,33.68760321488161,-118.04236,Bolsa Chica State Beach,3,0.5971074074074074,0.9347814814814814,14,14,"NIGHT_CLEAR,NIGHT_CLEAR,NIGHT_CLEAR,NIGHT_CLEAR,NIGHT_MOSTLY_CLEAR,NIGHT_CLEAR,MOSTLY_CLOUDY,MOSTLY_CLOUDY,MOSTLY_CLOUDY","Onshore,Cross-shore,Offshore,Cross-shore,Cross-shore,Cross-shore,Offshore,Cross-shore,Onshore",9
5842041f4e65fad6a77088ea,2024_01_10,33.66704400178788,-118.0192,North HB Streets,3,0.8015407407407407,1.0611592592592594,14,14,"NIGHT_CLEAR,NIGHT_CLEAR,NIGHT_CLEAR,NIGHT_MOSTLY_CLEAR,NIGHT_MOSTLY_CLEAR,NIGHT_CLEAR,CLEAR,MOSTLY_CLOUDY,MOSTLY_CLOUDY","Onshore,Onshore,Cross-shore,Cross-shore,Onshore,Cross-shore,Cross-shore,Cross-shore,Onshore",9
5842041f4e65fad6a77088ed,2024_01_10,33.65475101379567,-118.00291,Huntington Beach Pier Southside,3,0.8008925925925926,1.1370333333333333,14,14,"NIGHT_CLEAR,NIGHT_CLEAR,NIGHT_CLEAR,NIGHT_CLEAR,NIGHT_MOSTLY_CLEAR,NIGHT_CLEAR,MOSTLY_CLOUDY,MOSTLY_CLOUDY,MOSTLY_CLOUDY","Offshore,Offshore,Offshore,Offshore,Offshore,Offshore,Offshore,Cross-shore,Cross-shore",9
5842041f4e65fad6a77088ee,2024_01_10,33.62778647706099,-117.95939,River Jetties,2.888888888888889,0.715625925925926,1.032137037037037,14,14,"NIGHT_CLEAR,NIGHT_CLEAR,NIGHT_CLEAR,NIGHT_MOSTLY_CLEAR,NIGHT_CLEAR,NIGHT_CLEAR,MOSTLY_CLOUDY,MOSTLY_CLEAR,CLEAR","Offshore,Offshore,Offshore,Offshore,Offshore,Offshore,Cross-shore,Cross-shore,Cross-shore",9
5842041f4e65fad6a77088f2,2024_01_10,33.605165797643664,-117.92500376701355,Newport Point,2.4444444444444446,0.5622222222222222,0.8655555555555555,15,15,"NIGHT_CLEAR,NIGHT_CLEAR,NIGHT_CLEAR,NIGHT_CLEAR,NIGHT_CLEAR,NIGHT_CLEAR,MOSTLY_CLOUDY,MOSTLY_CLEAR,CLEAR","Onshore,Onshore,Cross-shore,Cross-shore,Cross-shore,Cross-shore,Cross-shore,Onshore,Onshore",9
5842041f4e65fad6a77088f3,2024_01_10,33.58982984726977,-117.87713,Corona del Mar,1.6666666666666667,0.21297444444444444,0.3327733333333333,15,15,"NIGHT_CLEAR,NIGHT_CLEAR,NIGHT_CLEAR,NIGHT_MOSTLY_CLEAR,NIGHT_CLEAR,NIGHT_CLEAR,MOSTLY_CLOUDY,MOSTLY_CLEAR,CLEAR","Offshore,Offshore,Offshore,Offshore,Offshore,Offshore,Offshore,Cross-shore,Cross-shore",9
5842041f4e65fad6a77088f7,2024_01_10,34.00750300824362,-118.4971783496269,Santa Monica Pier,2.888888888888889,0.41444444444444445,0.72,15,15,"NIGHT_CLEAR,NIGHT_CLEAR,NIGHT_CLEAR,NIGHT_CLEAR,NIGHT_CLEAR,NIGHT_CLEAR,MOSTLY_CLEAR,CLEAR,CLEAR","Onshore,Offshore,Offshore,Offshore,Offshore,Offshore,Offshore,Offshore,Cross-shore",9
5842041f4e65fad6a77088ff,2024_01_10,33.94070283102945,-118.44321,Dockweiler Beach,2.758888888888889,0.8487416666666666,1.098033888888889,14,14,"NIGHT_CLEAR,NIGHT_CLEAR,NIGHT_CLEAR,NIGHT_CLEAR,NIGHT_CLEAR,NIGHT_CLEAR,CLEAR,CLEAR,CLEAR","Onshore,Offshore,Offshore,Offshore,Offshore,Offshore,Offshore,Offshore,Onshore",9
5842041f4e65fad6a7708900,2024_01_10,33.9231846937237,-118.4341465777908,Shitpipe,2.5555555555555554,0.6754,0.9972666666666667,14,14,"NIGHT_CLEAR,NIGHT_CLEAR,NIGHT_CLEAR,NIGHT_MIST,NIGHT_CLEAR,NIGHT_CLEAR,CLEAR,CLEAR,CLEAR","Onshore,Cross-shore,Offshore,Offshore,Offshore,Offshore,Offshore,Offshore,Onshore",9
5842041f4e65fad6a7708902,2024_01_10,33.9108528052242,-118.4279133138721,Hammerland,2.888888888888889,0.7420222222222222,1.0666666666666667,14,14,"NIGHT_CLEAR,NIGHT_CLEAR,NIGHT_CLEAR,NIGHT_MIST,NIGHT_CLEAR,NIGHT_CLEAR,CLEAR,CLEAR,CLEAR","Onshore,Cross-shore,Offshore,Offshore,Offshore,Offshore,Offshore,Offshore,Onshore",9
5842041f4e65fad6a7708904,2024_01_10,33.87201368173932,-118.4075151286262,Hermosa Beach,2.5555555555555554,0.6251555555555556,0.9571555555555555,14,14,"NIGHT_CLEAR,NIGHT_CLEAR,NIGHT_CLEAR,NIGHT_CLEAR,NIGHT_MIST,NIGHT_MIST,CLEAR,CLEAR,CLEAR","Onshore,Onshore,Offshore,Offshore,Offshore,Offshore,Offshore,Offshore,Cross-shore",9
5842041f4e65fad6a7708906,2024_01_10,33.90129336911256,-118.42184,El Porto,3,0.8009111111111111,1.105,14,14,"NIGHT_CLEAR,NIGHT_CLEAR,NIGHT_CLEAR,NIGHT_MIST,NIGHT_MIST,NIGHT_CLEAR,CLEAR,CLEAR,CLEAR","Onshore,Cross-shore,Offshore,Offshore,Offshore,Offshore,Offshore,Offshore,Cross-shore",9
5842041f4e65fad6a7708907,2024_01_10,33.87963506431794,-118.41102,Manhattan Beach Pier,2.888888888888889,0.7545333333333333,1.0815333333333332,14,14,"NIGHT_CLEAR,NIGHT_CLEAR,NIGHT_CLEAR,NIGHT_MIST,NIGHT_MIST,NIGHT_CLEAR,CLEAR,CLEAR,CLEAR","Onshore,Cross-shore,Offshore,Offshore,Offshore,Offshore,Offshore,Offshore,Cross-shore",9
5842041f4e65fad6a7708914,2024_01_10,34.038053387863464,-118.5532,Sunset Point,2,0.24,0.5433333333333333,15,15,"NIGHT_CLEAR,NIGHT_CLEAR,NIGHT_CLEAR,NIGHT_CLEAR,NIGHT_CLEAR,NIGHT_CLEAR,CLEAR,CLEAR,CLEAR","Cross-shore,Offshore,Cross-shore,Onshore,Offshore,Cross-shore,Onshore,Onshore,Onshore",9
5842041f4e65fad6a7708920,2024_01_10,33.80930828074364,-118.3933198342649,Haggerty's,2,0.174,0.35733333333333334,15,15,"NIGHT_CLEAR,NIGHT_CLEAR,NIGHT_CLEAR,NIGHT_CLEAR,NIGHT_CLEAR,NIGHT_CLEAR,CLEAR,CLEAR,CLEAR","Onshore,Onshore,Onshore,Offshore,Offshore,Offshore,Offshore,Offshore,Offshore",9
5842041f4e65fad6a7708921,2024_01_10,33.85044519861206,-118.40048,Redondo Breakwater,3,0.7033333333333334,1.0055555555555555,15,15,"NIGHT_CLEAR,NIGHT_CLEAR,NIGHT_CLEAR,NIGHT_CLEAR,NIGHT_MIST,NIGHT_MIST,CLEAR,CLEAR,CLEAR","Onshore,Onshore,Offshore,Offshore,Offshore,Offshore,Offshore,Offshore,Cross-shore",9
5842041f4e65fad6a7708927,2024_01_10,33.70877301002487,-118.2840112858389,Cabrillo Beach,2,0.08555555555555555,0.3888888888888889,15,15,"NIGHT_CLEAR,NIGHT_CLEAR,NIGHT_CLEAR,NIGHT_CLEAR,NIGHT_CLEAR,NIGHT_CLEAR,MIST,MOSTLY_CLOUDY,MOSTLY_CLOUDY","Cross-shore,Offshore,Offshore,Onshore,Onshore,Onshore,Cross-shore,Onshore,Onshore",9
5842041f4e65fad6a770892c,2024_01_10,33.77209986806257,-118.4268428476672,Lunada Bay,1.8888888888888888,0.6811111111111111,0.9844444444444445,15,15,"NIGHT_CLEAR,NIGHT_CLEAR,NIGHT_CLEAR,NIGHT_CLEAR,NIGHT_CLEAR,NIGHT_MIST,MOSTLY_CLEAR,BRIEF_SHOWERS,MOSTLY_CLOUDY","Onshore,Onshore,Offshore,Offshore,Cross-shore,Cross-shore,Offshore,Offshore,Cross-shore",9
5842041f4e65fad6a770892d,2024_01_10,33.79294656286144,-118.4070316699825,PV Cove,2.888888888888889,0.7277211111111112,0.9818222222222223,15,15,"NIGHT_CLEAR,NIGHT_CLEAR,NIGHT_CLEAR,NIGHT_CLEAR,NIGHT_CLEAR,NIGHT_CLEAR,CLEAR,CLEAR,CLEAR","Onshore,Onshore,Onshore,Offshore,Offshore,Offshore,Offshore,Offshore,Offshore",9
5842041f4e65fad6a7708930,2024_01_10,34.03944902292561,-118.57539,Chart House,2,0.12,0.42333333333333334,15,15,"NIGHT_CLEAR,NIGHT_CLEAR,NIGHT_CLEAR,NIGHT_CLEAR,NIGHT_CLEAR,NIGHT_CLEAR,CLEAR,CLEAR,CLEAR","Cross-shore,Offshore,Onshore,Onshore,Offshore,Onshore,Onshore,Onshore,Cross-shore",9
5842041f4e65fad6a7708936,2024_01_10,34.0016731994772,-118.80456,Point Dume,1.518888888888889,0.12333333333333334,0.3993925925925926,14,14,"NIGHT_CLEAR,NIGHT_CLEAR,NIGHT_CLEAR,NIGHT_CLEAR,NIGHT_CLEAR,NIGHT_CLEAR,CLEAR,CLEAR,MIST","Offshore,Offshore,Offshore,Offshore,Offshore,Offshore,Offshore,Onshore,Onshore",9
5842041f4e65fad6a7708937,2024_01_10,34.02587527588963,-118.7554939066114,Latigo Point,2,0.16555555555555557,0.47,15,15,"NIGHT_CLEAR,NIGHT_CLEAR,NIGHT_CLEAR,NIGHT_CLEAR,NIGHT_CLEAR,NIGHT_CLEAR,CLEAR,CLEAR,MIST","Offshore,Offshore,Offshore,Offshore,Offshore,Offshore,Cross-shore,Onshore,Onshore",9
5842041f4e65fad6a770893f,2024_01_10,34.043762,-118.93294,Leo Carrillo,1.8333333333333333,0.421562962962963,0.729362962962963,14,14,"NIGHT_CLEAR,NIGHT_CLEAR,NIGHT_CLEAR,NIGHT_CLEAR,NIGHT_CLEAR,NIGHT_CLEAR,CLEAR,CLEAR,CLEAR","Offshore,Offshore,Offshore,Offshore,Offshore,Offshore,Offshore,Onshore,Onshore",9
5842041f4e65fad6a7708941,2024_01_10,36.69388179265737,-121.81289,Marina State Beach,2.888888888888889,1.8855555555555557,2.23,13,13,"NIGHT_CLEAR,NIGHT_CLEAR,NIGHT_CLEAR,NIGHT_CLEAR,NIGHT_CLEAR,NIGHT_CLEAR,CLEAR,MIST,MIST","Onshore,Onshore,Onshore,Onshore,Onshore,Onshore,Offshore,Onshore,Onshore",9
5842041f4e65fad6a7708944,2024_01_10,34.34145077331085,-119.416999352654,Stanley's,2.111111111111111,0.4166666666666667,0.7211111111111111,14,14,"NIGHT_CLEAR,NIGHT_CLEAR,NIGHT_CLEAR,NIGHT_CLEAR,NIGHT_MIST,NIGHT_MIST,CLEAR,MOSTLY_CLEAR,MOSTLY_CLEAR","Cross-shore,Offshore,Onshore,Onshore,Onshore,Onshore,Cross-shore,Onshore,Onshore",9
5842041f4e65fad6a7708945,2024_01_10,34.35113017313915,-119.426921498899,Oil Piers,2,0.2644444444444444,0.5700000000000001,14,14,"NIGHT_CLEAR,NIGHT_CLEAR,NIGHT_CLEAR,NIGHT_CLEAR,NIGHT_MIST,NIGHT_MIST,CLEAR,MOSTLY_CLEAR,MOSTLY_CLEAR","Onshore,Cross-shore,Cross-shore,Cross-shore,Onshore,Onshore,Onshore,Onshore,Onshore",9
5842041f4e65fad6a770894c,2024_01_10,34.17876333306018,-119.2399483564372,Oxnard,2.7777777777777777,0.5377777777777778,0.8411111111111111,14,14,"NIGHT_CLEAR,NIGHT_CLEAR,NIGHT_CLEAR,NIGHT_CLEAR,NIGHT_CLEAR,NIGHT_CLEAR,CLEAR,CLEAR,BRIEF_SHOWERS","Offshore,Offshore,Offshore,Offshore,Offshore,Offshore,Offshore,Onshore,Onshore",9
5842041f4e65fad6a7708957,2024_01_10,34.31720331100517,-119.3882324751725,Pitas Point,2.7777777777777777,0.3822222222222222,0.6900000000000001,14,14,"NIGHT_CLEAR,NIGHT_CLEAR,NIGHT_CLEAR,NIGHT_CLEAR,NIGHT_CLEAR,NIGHT_CLEAR,MOSTLY_CLEAR,MOSTLY_CLEAR,MOSTLY_CLEAR","Offshore,Offshore,Offshore,Offshore,Offshore,Offshore,Onshore,Onshore,Onshore",9
5842041f4e65fad6a7708959,2024_01_10,34.27851754384724,-119.316202617226,Emma Wood,2.888888888888889,0.3466666666666667,0.6511111111111111,14,14,"NIGHT_CLEAR,NIGHT_CLEAR,NIGHT_CLEAR,NIGHT_CLEAR,NIGHT_CLEAR,NIGHT_CLEAR,MOSTLY_CLEAR,CLEAR,CLEAR","Offshore,Offshore,Offshore,Offshore,Offshore,Offshore,Offshore,Onshore,Onshore",9
5842041f4e65fad6a770895a,2024_01_10,34.35513640390276,-119.4400589884255,Mussel Shoals (aka Little Rincon),2.888888888888889,0.3433333333333333,0.6455555555555555,14,14,"NIGHT_CLEAR,NIGHT_CLEAR,NIGHT_CLEAR,NIGHT_CLEAR,NIGHT_CLEAR,NIGHT_CLEAR,CLEAR,CLEAR,CLEAR","Onshore,Cross-shore,Onshore,Onshore,Onshore,Onshore,Onshore,Onshore,Onshore",9
5842041f4e65fad6a770895e,2024_01_10,34.28991757054902,-119.3366646794652,Summer Beach,2,0.22777777777777777,0.5344444444444444,14,14,"NIGHT_CLEAR,NIGHT_CLEAR,NIGHT_CLEAR,NIGHT_CLEAR,NIGHT_CLEAR,NIGHT_CLEAR,MOSTLY_CLEAR,CLEAR,CLEAR","Offshore,Offshore,Offshore,Offshore,Offshore,Offshore,Cross-shore,Onshore,Onshore",9
5842041f4e65fad6a770895f,2024_01_10,34.30897456105926,-119.3582501170116,Solimar,2.111111111111111,0.2644444444444444,0.5711111111111111,14,14,"NIGHT_CLEAR,NIGHT_CLEAR,NIGHT_CLEAR,NIGHT_CLEAR,NIGHT_CLEAR,NIGHT_CLEAR,MOSTLY_CLEAR,MOSTLY_CLEAR,MOSTLY_CLEAR","Offshore,Offshore,Offshore,Offshore,Offshore,Offshore,Onshore,Onshore,Onshore",9
5842041f4e65fad6a7708960,2024_01_10,34.39836265281686,-119.70213,Leadbetter Point,1,0,0.27,14,14,"NIGHT_CLEAR,NIGHT_CLEAR,NIGHT_CLEAR,NIGHT_CLEAR,NIGHT_CLEAR,NIGHT_CLEAR,CLEAR,CLEAR,CLEAR","Offshore,Offshore,Offshore,Offshore,Offshore,Offshore,Offshore,Offshore,Offshore",9
5842041f4e65fad6a7708961,2024_01_10,34.46052293893899,-120.07328,Refugio,1,0,0.2588888888888889,14,14,"NIGHT_CLEAR,NIGHT_CLEAR,NIGHT_CLEAR,NIGHT_CLEAR,NIGHT_CLEAR,NIGHT_CLEAR,CLEAR,CLEAR,CLEAR","Offshore,Offshore,Offshore,Offshore,Offshore,Offshore,Offshore,Offshore,Offshore",9
5842041f4e65fad6a7708962,2024_01_10,34.40754276777778,-119.87639,Devereux,2,0.1688888888888889,0.47555555555555556,14,14,"NIGHT_CLEAR,NIGHT_CLEAR,NIGHT_CLEAR,NIGHT_CLEAR,NIGHT_CLEAR,NIGHT_CLEAR,CLEAR,CLEAR,CLEAR","Offshore,Offshore,Offshore,Offshore,Offshore,Offshore,Offshore,Cross-shore,Offshore",9
5842041f4e65fad6a7708963,2024_01_10,34.27479983305182,-119.3133222656776,Ventura Overhead,3,0.35333333333333333,0.6611111111111111,14,14,"NIGHT_CLEAR,NIGHT_CLEAR,NIGHT_CLEAR,NIGHT_CLEAR,NIGHT_CLEAR,NIGHT_CLEAR,CLEAR,CLEAR,MOSTLY_CLEAR","Offshore,Offshore,Offshore,Offshore,Offshore,Offshore,Offshore,Onshore,Onshore",9
5842041f4e65fad6a7708964,2024_01_10,34.41023236011655,-119.88261,Sands,1.8888888888888888,0.25666666666666665,0.5622222222222222,14,14,"NIGHT_CLEAR,NIGHT_CLEAR,NIGHT_CLEAR,NIGHT_CLEAR,NIGHT_CLEAR,NIGHT_CLEAR,CLEAR,CLEAR,CLEAR","Cross-shore,Cross-shore,Offshore,Cross-shore,Offshore,Cross-shore,Cross-shore,Onshore,Cross-shore",9
5842041f4e65fad6a7708966,2024_01_10,34.40450193869233,-119.68752,Sandspit,0.7777777777777778,0,0.16444444444444445,14,14,"NIGHT_CLEAR,NIGHT_CLEAR,NIGHT_CLEAR,NIGHT_CLEAR,NIGHT_CLEAR,NIGHT_CLEAR,CLEAR,CLEAR,CLEAR","Offshore,Offshore,Offshore,Offshore,Offshore,Offshore,Offshore,Offshore,Offshore",9
5842041f4e65fad6a7708967,2024_01_10,34.41549098334453,-119.6375149840203,Hammond's,1,0,0.27444444444444444,14,14,"NIGHT_CLEAR,NIGHT_CLEAR,NIGHT_CLEAR,NIGHT_CLEAR,NIGHT_CLEAR,NIGHT_CLEAR,CLEAR,CLEAR,CLEAR","Offshore,Offshore,Offshore,Offshore,Offshore,Offshore,Cross-shore,Cross-shore,Offshore",9
5842041f4e65fad6a7708968,2024_01_10,34.45759322742309,-120.0220251867315,El Capitan,1,0.04555555555555556,0.3511111111111111,14,14,"NIGHT_CLEAR,NIGHT_CLEAR,NIGHT_CLEAR,NIGHT_CLEAR,NIGHT_CLEAR,NIGHT_CLEAR,CLEAR,CLEAR,CLEAR","Offshore,Offshore,Offshore,Offshore,Offshore,Offshore,Offshore,Offshore,Offshore",9
5842041f4e65fad6a770896c,2024_01_10,34.405117655616,-119.84317,Campus Point,2,0.08333333333333334,0.3888888888888889,14,14,"NIGHT_CLEAR,NIGHT_CLEAR,NIGHT_CLEAR,NIGHT_CLEAR,NIGHT_CLEAR,NIGHT_CLEAR,CLEAR,CLEAR,CLEAR","Offshore,Offshore,Offshore,Offshore,Offshore,Offshore,Offshore,Cross-shore,Offshore",9
5842041f4e65fad6a770896e,2024_01_10,34.38935162233354,-119.51955,Carpinteria State Beach,2,0.24666666666666667,0.55,14,14,"NIGHT_CLEAR,NIGHT_CLEAR,NIGHT_CLEAR,NIGHT_CLEAR,NIGHT_CLEAR,NIGHT_CLEAR,CLEAR,CLEAR,CLEAR","Onshore,Onshore,Onshore,Onshore,Onshore,Onshore,Onshore,Onshore,Onshore",9
5842041f4e65fad6a770896f,2024_01_10,37.48296565175612,-122.4549300127824,Half Moon Bay,2.6666666666666665,1.55,1.8455555555555556,13,13,"NIGHT_CLEAR,NIGHT_CLEAR,NIGHT_MOSTLY_CLEAR,NIGHT_MOSTLY_CLOUDY,NIGHT_MOSTLY_CLOUDY,NIGHT_CLEAR,MOSTLY_CLOUDY,BRIEF_SHOWERS,MOSTLY_CLOUDY","Cross-shore,Cross-shore,Cross-shore,Cross-shore,Cross-shore,Onshore,Onshore,Onshore,Onshore",9
5842041f4e65fad6a7708970,2024_01_10,37.499,-122.471,Princeton Jetty,2.6666666666666665,1.7244444444444444,2.0588888888888888,13,13,"NIGHT_CLEAR,NIGHT_CLEAR,NIGHT_MOSTLY_CLEAR,NIGHT_MOSTLY_CLOUDY,NIGHT_MOSTLY_CLOUDY,NIGHT_MOSTLY_CLOUDY,MOSTLY_CLOUDY,BRIEF_SHOWERS,BRIEF_SHOWERS","Cross-shore,Offshore,Cross-shore,Cross-shore,Cross-shore,Cross-shore,Onshore,Onshore,Onshore",9
5842041f4e65fad6a7708972,2024_01_10,37.35699547365155,-122.4069534707252,Tunitas Creek,1.6666666666666667,3.172222222222222,3.7577777777777777,13,13,"NIGHT_CLEAR,NIGHT_CLEAR,NIGHT_MOSTLY_CLEAR,NIGHT_MOSTLY_CLOUDY,NIGHT_MOSTLY_CLOUDY,NIGHT_BRIEF_SHOWERS,BRIEF_SHOWERS,BRIEF_SHOWERS,MOSTLY_CLOUDY","Cross-shore,Cross-shore,Cross-shore,Cross-shore,Cross-shore,Cross-shore,Onshore,Onshore,Onshore",9
5842041f4e65fad6a7708974,2024_01_10,37.54735589428842,-122.5161090212687,Montara,1,2.1344444444444446,2.5477777777777777,13,13,"NIGHT_MOSTLY_CLEAR,NIGHT_CLEAR,NIGHT_MOSTLY_CLOUDY,NIGHT_MOSTLY_CLOUDY,NIGHT_MOSTLY_CLOUDY,NIGHT_MOSTLY_CLOUDY,MOSTLY_CLOUDY,MOSTLY_CLOUDY,MOSTLY_CLOUDY","Onshore,Onshore,Onshore,Onshore,Onshore,Onshore,Onshore,Onshore,Onshore",9
5842041f4e65fad6a7708975,2024_01_10,34.3869373724559,-119.5142334209018,Tarpits,2,0.22666666666666668,0.5311111111111111,14,14,"NIGHT_CLEAR,NIGHT_CLEAR,NIGHT_CLEAR,NIGHT_CLEAR,NIGHT_MIST,NIGHT_CLEAR,CLEAR,CLEAR,CLEAR","Onshore,Onshore,Onshore,Onshore,Onshore,Onshore,Onshore,Cross-shore,Cross-shore",9
5842041f4e65fad6a7708976,2024_01_10,37.59881852720143,-122.50463,Pacifica / Linda Mar,1.5555555555555556,1.0828,1.3826222222222222,14,14,"NIGHT_CLEAR,NIGHT_CLEAR,NIGHT_CLEAR,NIGHT_MOSTLY_CLOUDY,NIGHT_MOSTLY_CLOUDY,NIGHT_MOSTLY_CLOUDY,MOSTLY_CLOUDY,BRIEF_SHOWERS,MOSTLY_CLOUDY","Onshore,Onshore,Onshore,Onshore,Onshore,Onshore,Onshore,Onshore,Onshore",9
5842041f4e65fad6a7708978,2024_01_10,37.59883098461164,-122.5143843582282,Pedro Point,1.2222222222222223,2.4455555555555555,2.9066666666666667,13,13,"NIGHT_CLEAR,NIGHT_CLEAR,NIGHT_CLEAR,NIGHT_MOSTLY_CLOUDY,NIGHT_MOSTLY_CLOUDY,NIGHT_CLEAR,BRIEF_SHOWERS,MOSTLY_CLOUDY,MOSTLY_CLOUDY","Onshore,Onshore,Onshore,Onshore,Onshore,Onshore,Onshore,Onshore,Onshore",9
5842041f4e65fad6a7708979,2024_01_10,37.61081996647663,-122.4973287570634,Rockaway,1,2.4955555555555557,2.982222222222222,13,13,"NIGHT_CLEAR,NIGHT_CLEAR,NIGHT_CLEAR,NIGHT_MOSTLY_CLOUDY,NIGHT_MOSTLY_CLOUDY,NIGHT_MOSTLY_CLOUDY,MOSTLY_CLOUDY,BRIEF_SHOWERS,MOSTLY_CLOUDY","Onshore,Onshore,Onshore,Onshore,Onshore,Onshore,Onshore,Onshore,Onshore",9
5842041f4e65fad6a770897a,2024_01_10,37.809987384424446,-122.4751353263855,Fort Point,3,1.4044444444444444,1.681111111111111,12,12,"NIGHT_CLEAR,NIGHT_CLEAR,NIGHT_CLEAR,NIGHT_CLEAR,NIGHT_CLEAR,NIGHT_CLEAR,LIGHT_RAIN,BRIEF_SHOWERS,BRIEF_SHOWERS","Offshore,Offshore,Offshore,Cross-shore,Cross-shore,Cross-shore,Cross-shore,Cross-shore,Cross-shore",9
5842041f4e65fad6a770897c,2024_01_10,37.63422542967464,-122.4951,Sharp Park,1,2.497777777777778,2.9522222222222223,13,13,"NIGHT_CLEAR,NIGHT_CLEAR,NIGHT_CLEAR,NIGHT_MOSTLY_CLOUDY,NIGHT_MOSTLY_CLOUDY,NIGHT_MOSTLY_CLOUDY,OVERCAST,MOSTLY_CLOUDY,MOSTLY_CLOUDY","Onshore,Onshore,Onshore,Onshore,Onshore,Onshore,Onshore,Onshore,Onshore",9
5842041f4e65fad6a770897d,2024_01_10,37.27313605072472,-122.4127387912554,Pescadero,1.5555555555555556,3.1466666666666665,3.68,13,13,"NIGHT_CLEAR,NIGHT_MOSTLY_CLEAR,NIGHT_CLEAR,NIGHT_MOSTLY_CLOUDY,NIGHT_BRIEF_SHOWERS,NIGHT_BRIEF_SHOWERS,MOSTLY_CLOUDY,MOSTLY_CLOUDY,MOSTLY_CLOUDY","Cross-shore,Cross-shore,Onshore,Onshore,Onshore,Onshore,Onshore,Onshore,Onshore",9
5842041f4e65fad6a770897e,2024_01_10,37.18140279972666,-122.3926685899327,Pigeon Point,2.888888888888889,2.9344444444444444,3.4544444444444444,13,13,"NIGHT_CLEAR,NIGHT_MOSTLY_CLEAR,NIGHT_CLEAR,NIGHT_MOSTLY_CLOUDY,NIGHT_MOSTLY_CLOUDY,NIGHT_OVERCAST,CLEAR,MOSTLY_CLOUDY,BRIEF_SHOWERS","Offshore,Offshore,Offshore,Offshore,Offshore,Offshore,Cross-shore,Cross-shore,Cross-shore",9
5842041f4e65fad6a770897f,2024_01_10,37.11578956919415,-122.314699271291,Ano Nuevo,3.7777777777777777,1.9577777777777778,2.34,13,13,"NIGHT_CLEAR,NIGHT_CLEAR,NIGHT_MOSTLY_CLEAR,NIGHT_MOSTLY_CLOUDY,NIGHT_MOSTLY_CLOUDY,NIGHT_CLOUDY,MOSTLY_CLOUDY,MOSTLY_CLOUDY,MOSTLY_CLOUDY","Offshore,Offshore,Offshore,Offshore,Offshore,Offshore,Offshore,Offshore,Offshore",9
5842041f4e65fad6a7708980,2024_01_10,37.09520872681598,-122.2805474707768,Waddell Creek,2.7777777777777777,2.21,2.62,13,13,"NIGHT_CLEAR,NIGHT_CLEAR,NIGHT_MOSTLY_CLEAR,NIGHT_MOSTLY_CLEAR,NIGHT_CLEAR,NIGHT_MOSTLY_CLOUDY,FOG,BRIEF_SHOWERS,MOSTLY_CLOUDY","Offshore,Offshore,Cross-shore,Cross-shore,Cross-shore,Cross-shore,Onshore,Onshore,Cross-shore",9
5842041f4e65fad6a7708981,2024_01_10,36.96512852130351,-122.1252825495626,Four Mile,3.7777777777777777,2.1255555555555556,2.5322222222222224,13,13,"NIGHT_CLEAR,NIGHT_CLEAR,NIGHT_CLEAR,NIGHT_CLEAR,NIGHT_MOSTLY_CLEAR,NIGHT_MOSTLY_CLOUDY,FOG,MOSTLY_CLOUDY,BRIEF_SHOWERS","Offshore,Offshore,Offshore,Offshore,Offshore,Offshore,Cross-shore,Cross-shore,Cross-shore",9
5842041f4e65fad6a7708982,2024_01_10,37.04122807048655,-122.2333684729756,Scott Creek,2.7777777777777777,2.301111111111111,2.7111111111111112,13,13,"NIGHT_CLEAR,NIGHT_CLEAR,NIGHT_BRIEF_SHOWERS,NIGHT_MOSTLY_CLEAR,NIGHT_CLEAR,NIGHT_MOSTLY_CLOUDY,MOSTLY_CLOUDY,SHOWERS,SHOWERS","Offshore,Offshore,Cross-shore,Cross-shore,Cross-shore,Cross-shore,Onshore,Onshore,Onshore",9
5842041f4e65fad6a7708983,2024_01_10,37.02350229387179,-122.21908,Davenport,3.111111111111111,2.2744444444444443,2.698888888888889,13,13,"NIGHT_CLEAR,NIGHT_CLEAR,NIGHT_MOSTLY_CLEAR,NIGHT_MOSTLY_CLEAR,NIGHT_MOSTLY_CLOUDY,NIGHT_MOSTLY_CLOUDY,MOSTLY_CLOUDY,BRIEF_SHOWERS,BRIEF_SHOWERS","Offshore,Offshore,Cross-shore,Cross-shore,Cross-shore,Cross-shore,Cross-shore,Onshore,Onshore",9
5842041f4e65fad6a7708986,2024_01_10,36.94905295955728,-122.0611823912244,Natural Bridges,3.5555555555555554,1.6144444444444443,1.9422222222222223,13,13,"NIGHT_CLEAR,NIGHT_CLEAR,NIGHT_CLEAR,NIGHT_CLEAR,NIGHT_MIST,NIGHT_CLEAR,MOSTLY_CLEAR,MIST,MOSTLY_CLOUDY","Offshore,Offshore,Offshore,Offshore,Offshore,Cross-shore,Cross-shore,Onshore,Cross-shore",9
5842041f4e65fad6a7708987,2024_01_10,36.95154854910425,-122.0420693940968,Mitchell's Cove,3.3333333333333335,1.0422222222222222,1.301111111111111,13,13,"NIGHT_CLEAR,NIGHT_CLEAR,NIGHT_CLEAR,NIGHT_CLEAR,NIGHT_MIST,NIGHT_CLEAR,MOSTLY_CLEAR,SHOWERS,MIST","Offshore,Offshore,Offshore,Cross-shore,Cross-shore,Onshore,Onshore,Onshore,Cross-shore",9
5842041f4e65fad6a770898a,2024_01_10,36.9572312370203,-121.98177,26th Ave,3.4444444444444446,1.281111111111111,1.5555555555555556,13,13,"NIGHT_CLEAR,NIGHT_CLEAR,NIGHT_CLEAR,NIGHT_CLEAR,NIGHT_CLEAR,NIGHT_CLEAR,MOSTLY_CLEAR,BRIEF_SHOWERS,MIST","Cross-shore,Offshore,Offshore,Offshore,Offshore,Cross-shore,Cross-shore,Cross-shore,Onshore",9
5842041f4e65fad6a770898e,2024_01_10,36.91899972819882,-121.85536,Manresa,3.7777777777777777,1.6388888888888888,1.9388888888888889,13,13,"NIGHT_CLEAR,NIGHT_MIST,NIGHT_MIST,NIGHT_MIST,NIGHT_MIST,NIGHT_MIST,MIST,CLEAR,OVERCAST","Offshore,Offshore,Offshore,Offshore,Offshore,Offshore,Offshore,Onshore,Onshore",9
5842041f4e65fad6a7708990,2024_01_10,34.45747731928454,-120.34242,The Ranch,1,0.17333333333333334,0.4766666666666667,14,14,"NIGHT_CLEAR,NIGHT_CLEAR,NIGHT_CLEAR,NIGHT_CLEAR,NIGHT_CLEAR,NIGHT_CLEAR,CLEAR,CLEAR,CLEAR","Offshore,Offshore,Offshore,Offshore,Offshore,Offshore,Offshore,Offshore,Offshore",9
5842041f4e65fad6a7708991,2024_01_10,34.50875036590315,-120.50348,Jalama,1,0.7166666666666667,0.9988888888888889,13.222222222222221,13.222222222222221,"NIGHT_CLEAR,NIGHT_CLEAR,NIGHT_CLEAR,NIGHT_CLEAR,NIGHT_CLEAR,NIGHT_CLEAR,CLEAR,CLEAR,CLEAR","Cross-shore,Cross-shore,Offshore,Offshore,Offshore,Offshore,Offshore,Cross-shore,Cross-shore",9
5842041f4e65fad6a7708996,2024_01_10,34.68700870220497,-120.6111611019887,Surf Beach,1.7777777777777777,2.31,2.738888888888889,14,14,"NIGHT_MOSTLY_CLOUDY,NIGHT_MOSTLY_CLOUDY,NIGHT_CLEAR,NIGHT_CLEAR,NIGHT_CLEAR,NIGHT_CLEAR,CLEAR,CLEAR,CLEAR","Onshore,Onshore,Cross-shore,Cross-shore,Cross-shore,Cross-shore,Cross-shore,Onshore,Onshore",9
5842041f4e65fad6a770899c,2024_01_10,35.5730538161116,-121.1143362345574,Moonstone,3,1.6033333333333333,1.9300000000000002,14,14,"NIGHT_CLEAR,NIGHT_MOSTLY_CLEAR,NIGHT_CLEAR,NIGHT_CLEAR,NIGHT_CLEAR,NIGHT_CLEAR,CLEAR,CLEAR,CLEAR","Offshore,Offshore,Offshore,Offshore,Offshore,Offshore,Offshore,Onshore,Onshore",9
5842041f4e65fad6a770899d,2024_01_10,35.61533716776573,-121.1502053073914,Pico Creek,3,1.3655555555555556,1.6411111111111112,14,14,"NIGHT_CLEAR,NIGHT_MOSTLY_CLEAR,NIGHT_CLEAR,NIGHT_CLEAR,NIGHT_CLEAR,NIGHT_CLEAR,CLEAR,CLEAR,CLEAR","Offshore,Offshore,Offshore,Offshore,Offshore,Offshore,Cross-shore,Onshore,Onshore",9
5842041f4e65fad6a770899e,2024_01_10,35.56829031927379,-121.1120653023953,Santa Rosa Creek,3.4444444444444446,1.6033333333333333,1.9300000000000002,14,14,"NIGHT_CLEAR,NIGHT_MOSTLY_CLEAR,NIGHT_CLEAR,NIGHT_CLEAR,NIGHT_CLEAR,NIGHT_CLEAR,CLEAR,CLEAR,CLEAR","Offshore,Offshore,Offshore,Offshore,Offshore,Offshore,Offshore,Onshore,Onshore",9
5842041f4e65fad6a77089a2,2024_01_10,35.44820114936284,-120.90715,"Cayucos Pier, Southside ",3,0.5144444444444445,0.8033333333333333,14,14,"NIGHT_CLEAR,NIGHT_CLEAR,NIGHT_CLEAR,NIGHT_CLEAR,NIGHT_CLEAR,NIGHT_CLEAR,CLEAR,CLEAR,CLEAR","Offshore,Offshore,Offshore,Offshore,Offshore,Offshore,Offshore,Offshore,Cross-shore",9
5842041f4e65fad6a77089a4,2024_01_10,35.30143372628852,-120.877819239902,Cable Landing,2.888888888888889,2.697777777777778,3.1566666666666667,14,14,"NIGHT_MOSTLY_CLEAR,NIGHT_MOSTLY_CLEAR,NIGHT_CLEAR,NIGHT_CLEAR,NIGHT_CLEAR,NIGHT_CLEAR,CLEAR,CLEAR,CLEAR","Offshore,Cross-shore,Offshore,Offshore,Offshore,Offshore,Offshore,Onshore,Onshore",9
5842041f4e65fad6a77089a9,2024_01_10,35.61269103500222,-121.1480725356606,San Simeon,2.6666666666666665,0.8866666666666666,1.0678888888888889,14,14,"NIGHT_CLEAR,NIGHT_MOSTLY_CLEAR,NIGHT_CLEAR,NIGHT_CLEAR,NIGHT_CLEAR,NIGHT_CLEAR,CLEAR,CLEAR,CLEAR","Offshore,Offshore,Offshore,Offshore,Offshore,Offshore,Offshore,Cross-shore,Onshore",9
5842041f4e65fad6a77089ab,2024_01_10,35.1775325966252,-120.7341125142258,Avila Beach,1,0.006666666666666667,0.29444444444444445,14,14,"NIGHT_CLEAR,NIGHT_CLEAR,NIGHT_CLEAR,NIGHT_CLEAR,NIGHT_CLEAR,NIGHT_CLEAR,CLEAR,CLEAR,CLEAR","Offshore,Offshore,Offshore,Offshore,Offshore,Offshore,Offshore,Offshore,Offshore",9
5842041f4e65fad6a77089ac,2024_01_10,35.13877877884115,-120.64535,Pismo Beach Pier,2.3333333333333335,0.8466444444444444,1.1479333333333333,14,14,"NIGHT_MIST,NIGHT_CLEAR,NIGHT_CLEAR,NIGHT_CLEAR,NIGHT_CLEAR,NIGHT_CLEAR,CLEAR,CLEAR,CLEAR","Onshore,Cross-shore,Cross-shore,Onshore,Onshore,Onshore,Onshore,Onshore,Onshore",9
5842041f4e65fad6a77089ad,2024_01_10,46.8907710233147,-124.12964,Westport/Olympic Peninsula,0.1111111111111111,4.04,4.764444444444445,10,10,"NIGHT_MOSTLY_CLOUDY,NIGHT_MOSTLY_CLOUDY,NIGHT_MOSTLY_CLOUDY,NIGHT_MOSTLY_CLOUDY,NIGHT_CLEAR,NIGHT_CLEAR,MOSTLY_CLOUDY,OVERCAST,OVERCAST","Onshore,Onshore,Onshore,Onshore,Onshore,Onshore,Onshore,Onshore,Onshore",9
5842041f4e65fad6a77089ae,2024_01_10,46.35185177248545,-124.06747,Long Beach Peninsula,0.2222222222222222,5.8133333333333335,6.851111111111111,10,10,"NIGHT_LIGHT_SHOWERS_POSSIBLE,NIGHT_BRIEF_SHOWERS,NIGHT_MOSTLY_CLOUDY,NIGHT_CLEAR,NIGHT_MOSTLY_CLOUDY,NIGHT_CLEAR,SHOWERS,MOSTLY_CLOUDY,CLEAR","Onshore,Onshore,Onshore,Onshore,Onshore,Onshore,Onshore,Onshore,Onshore",9
5842041f4e65fad6a77089af,2024_01_10,47.90649175554033,-124.6370864743483,La Push,0.4444444444444444,4.7988888888888885,5.5,10,10,"NIGHT_CLEAR,NIGHT_LIGHT_RAIN,NIGHT_MOSTLY_CLOUDY,NIGHT_MOSTLY_CLOUDY,NIGHT_BRIEF_SHOWERS,NIGHT_CLOUDY,MOSTLY_CLOUDY,BRIEF_SHOWERS,MOSTLY_CLOUDY","Cross-shore,Cross-shore,Cross-shore,Cross-shore,Cross-shore,Cross-shore,Cross-shore,Cross-shore,Cross-shore",9
5842041f4e65fad6a77089b0,2024_01_10,42.04368239985442,-124.26828,Brookings Jetty,1.6666666666666667,1.9433155555555555,3.03643,12,12,"NIGHT_LIGHT_RAIN,NIGHT_OVERCAST,NIGHT_HEAVY_RAIN,NIGHT_LIGHT_RAIN,NIGHT_LIGHT_RAIN,NIGHT_RAIN,MOSTLY_CLOUDY,MOSTLY_CLOUDY,CLEAR","Onshore,Onshore,Cross-shore,Onshore,Onshore,Cross-shore,Offshore,Offshore,Cross-shore",9
5842041f4e65fad6a77089b1,2024_01_10,42.74071837900346,-124.4983727491047,Port Orford,3.111111111111111,3.307777777777778,3.8755555555555556,11.777777777777779,11.777777777777779,"NIGHT_LIGHT_RAIN,NIGHT_BRIEF_SHOWERS,NIGHT_OVERCAST,NIGHT_RAIN,NIGHT_LIGHT_RAIN,NIGHT_LIGHT_RAIN,CLOUDY,LIGHT_RAIN,LIGHT_SHOWERS_POSSIBLE","Cross-shore,Cross-shore,Offshore,Offshore,Offshore,Offshore,Cross-shore,Cross-shore,Offshore",9
5842041f4e65fad6a77089b2,2024_01_10,44.01532689312291,-124.13865,Florence South Jetty,0.7777777777777778,6.085555555555556,7.217777777777778,11,11,"NIGHT_OVERCAST,NIGHT_OVERCAST,NIGHT_CLEAR,NIGHT_MOSTLY_CLOUDY,NIGHT_MOSTLY_CLOUDY,NIGHT_MOSTLY_CLOUDY,MOSTLY_CLEAR,MOSTLY_CLEAR,MOSTLY_CLEAR","Onshore,Onshore,Onshore,Onshore,Onshore,Onshore,Onshore,Onshore,Onshore",9
5842041f4e65fad6a77089b3,2024_01_10,42.41812540774362,-124.42945,Gold Beach South Jetty,2.111111111111111,4.622222222222222,5.488888888888889,12,12,"NIGHT_LIGHT_RAIN,NIGHT_DRIZZLE,NIGHT_OVERCAST,NIGHT_OVERCAST,NIGHT_LIGHT_RAIN,NIGHT_DRIZZLE,CLEAR,MOSTLY_CLOUDY,MOSTLY_CLOUDY","Onshore,Onshore,Cross-shore,Cross-shore,Cross-shore,Offshore,Offshore,Cross-shore,Cross-shore",9
5842041f4e65fad6a77089b4,2024_01_10,44.95857310226525,-124.0219017690976,Lincoln City,0.7777777777777778,5.842222222222222,6.863333333333333,11,11,"NIGHT_RAIN,NIGHT_MOSTLY_CLOUDY,NIGHT_MOSTLY_CLOUDY,NIGHT_MOSTLY_CLOUDY,NIGHT_MOSTLY_CLOUDY,NIGHT_CLEAR,SHOWERS,CLEAR,CLEAR","Onshore,Onshore,Onshore,Onshore,Onshore,Onshore,Onshore,Onshore,Onshore",9
5842041f4e65fad6a77089b5,2024_01_10,44.63792761362982,-124.0657,Newport,0.4444444444444444,6.346666666666667,7.477777777777778,11,11,"NIGHT_BRIEF_SHOWERS,NIGHT_MOSTLY_CLOUDY,NIGHT_CLEAR,NIGHT_CLEAR,NIGHT_MOSTLY_CLOUDY,NIGHT_CLEAR,MOSTLY_CLOUDY,MOSTLY_CLOUDY,CLEAR","Onshore,Onshore,Onshore,Onshore,Onshore,Onshore,Onshore,Onshore,Onshore",9
5842041f4e65fad6a77089b6,2024_01_10,45.61468496266301,-123.94643,Rockaway Beach,1.1111111111111112,5.958888888888889,7.018888888888889,11,11,"NIGHT_RAIN,NIGHT_MOSTLY_CLOUDY,NIGHT_MOSTLY_CLOUDY,NIGHT_MOSTLY_CLOUDY,NIGHT_MOSTLY_CLOUDY,NIGHT_CLEAR,CLEAR,CLEAR,MOSTLY_CLOUDY","Onshore,Onshore,Onshore,Onshore,Onshore,Onshore,Onshore,Onshore,Onshore",9
5842041f4e65fad6a77089b7,2024_01_10,45.20252914186085,-123.96975,Pacific City,1.3333333333333333,5.088888888888889,5.997777777777777,11,11,"NIGHT_HEAVY_SNOW_SHOWERS,NIGHT_OVERCAST,NIGHT_MOSTLY_CLOUDY,NIGHT_MOSTLY_CLOUDY,NIGHT_MOSTLY_CLOUDY,NIGHT_BRIEF_SHOWERS,MOSTLY_CLOUDY,BRIEF_SHOWERS,CLEAR","Offshore,Onshore,Onshore,Onshore,Onshore,Cross-shore,Cross-shore,Cross-shore,Onshore",9
5842041f4e65fad6a77089b8,2024_01_10,45.88179930310263,-123.96681,Cannon Beach,1.1111111111111112,5.622222222222223,6.604444444444445,10,10,"NIGHT_LIGHT_RAIN,NIGHT_MOSTLY_CLOUDY,NIGHT_MOSTLY_CLOUDY,NIGHT_CLEAR,NIGHT_MOSTLY_CLOUDY,NIGHT_MOSTLY_CLOUDY,MOSTLY_CLOUDY,MOSTLY_CLOUDY,MOSTLY_CLOUDY","Onshore,Onshore,Onshore,Onshore,Onshore,Onshore,Onshore,Onshore,Onshore",9
5842041f4e65fad6a77089ba,2024_01_10,40.02528754746774,-124.06372,Shelter Cove,1.7777777777777777,0.9926088888888889,1.5509511111111112,13,13,"NIGHT_BRIEF_SHOWERS,NIGHT_FOG,NIGHT_BRIEF_SHOWERS,NIGHT_CLOUDY,NIGHT_OVERCAST,NIGHT_OVERCAST,OVERCAST,OVERCAST,MOSTLY_CLOUDY","Offshore,Cross-shore,Cross-shore,Cross-shore,Cross-shore,Cross-shore,Cross-shore,Cross-shore,Cross-shore",9
5842041f4e65fad6a77089bb,2024_01_10,40.76816197136951,-124.24248,Humboldt Harbor Entrance,0.7777777777777778,5.407777777777778,6.432222222222222,12,12,"NIGHT_OVERCAST,NIGHT_RAIN,NIGHT_CLOUDY,NIGHT_LIGHT_RAIN,NIGHT_DRIZZLE,NIGHT_OVERCAST,OVERCAST,LIGHT_RAIN,RAIN","Onshore,Onshore,Onshore,Onshore,Onshore,Onshore,Onshore,Onshore,Cross-shore",9
5842041f4e65fad6a77089bc,2024_01_10,40.76684246920174,-124.23107,North Jetty,0.6666666666666666,6.917777777777777,8.141111111111112,12,12,"NIGHT_OVERCAST,NIGHT_RAIN,NIGHT_CLOUDY,NIGHT_DRIZZLE,NIGHT_LIGHT_RAIN,NIGHT_OVERCAST,OVERCAST,LIGHT_RAIN,HEAVY_RAIN","Onshore,Onshore,Onshore,Onshore,Onshore,Onshore,Onshore,Onshore,Cross-shore",9
5842041f4e65fad6a77089bd,2024_01_10,41.02731183893966,-124.1149972888982,Westhaven,0.8888888888888888,7.544444444444444,8.908888888888889,12,12,"NIGHT_LIGHT_RAIN,NIGHT_LIGHT_RAIN,NIGHT_CLOUDY,NIGHT_DRIZZLE,NIGHT_OVERCAST,NIGHT_OVERCAST,LIGHT_RAIN,LIGHT_RAIN,CLOUDY","Onshore,Onshore,Onshore,Onshore,Onshore,Onshore,Onshore,Cross-shore,Cross-shore",9
5842041f4e65fad6a77089be,2024_01_10,41.13016238153297,-124.16466,Sue-meg,1.1111111111111112,5.41,6.387777777777778,12,12,"NIGHT_DRIZZLE,NIGHT_LIGHT_RAIN,NIGHT_OVERCAST,NIGHT_OVERCAST,NIGHT_OVERCAST,NIGHT_OVERCAST,DRIZZLE,OVERCAST,MOSTLY_CLOUDY","Onshore,Onshore,Onshore,Onshore,Onshore,Onshore,Onshore,Onshore,Cross-shore",9
5842041f4e65fad6a77089bf,2024_01_10,37.8289474958188,-122.5376795097543,Fort Cronkite/Rodeo Beach,2.2222222222222223,2.2977777777777777,2.7444444444444445,12.777777777777779,12.777777777777779,"NIGHT_CLEAR,NIGHT_CLEAR,NIGHT_CLEAR,NIGHT_CLEAR,NIGHT_CLEAR,NIGHT_CLEAR,MOSTLY_CLOUDY,BRIEF_SHOWERS,BRIEF_SHOWERS","Offshore,Offshore,Cross-shore,Cross-shore,Cross-shore,Cross-shore,Cross-shore,Onshore,Cross-shore",9
5842041f4e65fad6a77089c0,2024_01_10,41.74415759876137,-124.1771718063073,South Beach CA,2.3333333333333335,2.4366666666666665,2.91,12,12,"NIGHT_LIGHT_RAIN,NIGHT_LIGHT_RAIN,NIGHT_OVERCAST,NIGHT_OVERCAST,NIGHT_LIGHT_RAIN,NIGHT_DRIZZLE,MOSTLY_CLOUDY,MOSTLY_CLOUDY,CLEAR","Onshore,Onshore,Cross-shore,Cross-shore,Cross-shore,Cross-shore,Offshore,Offshore,Offshore",9
5842041f4e65fad6a77089c1,2024_01_10,37.89801283969752,-122.64519,Stinson Beach,3,0.7277777777777777,1.0077777777777779,13,13,"NIGHT_CLEAR,NIGHT_CLEAR,NIGHT_FOG,NIGHT_CLEAR,NIGHT_MOSTLY_CLEAR,NIGHT_MOSTLY_CLEAR,BRIEF_SHOWERS,BRIEF_SHOWERS,BRIEF_SHOWERS","Offshore,Offshore,Offshore,Offshore,Offshore,Cross-shore,Offshore,Offshore,Offshore",9
5842041f4e65fad6a77089c2,2024_01_10,37.90514516176495,-122.68151,Bolinas,2.888888888888889,0.5514977777777778,0.8617166666666667,13,13,"NIGHT_CLEAR,NIGHT_CLEAR,NIGHT_MOSTLY_CLEAR,NIGHT_CLEAR,NIGHT_MOSTLY_CLEAR,NIGHT_MOSTLY_CLEAR,MIST,MIST,BRIEF_SHOWERS","Cross-shore,Cross-shore,Cross-shore,Cross-shore,Cross-shore,Onshore,Offshore,Offshore,Cross-shore",9
5842041f4e65fad6a77089c3,2024_01_10,38.04892513158693,-122.9892494965416,Point Reyes (north),0.7777777777777778,4.377777777777777,5.126666666666667,13,13,"NIGHT_CLEAR,NIGHT_CLEAR,NIGHT_MOSTLY_CLOUDY,NIGHT_CLEAR,NIGHT_MOSTLY_CLEAR,NIGHT_MOSTLY_CLOUDY,MOSTLY_CLOUDY,OVERCAST,CLEAR","Onshore,Onshore,Onshore,Onshore,Onshore,Onshore,Onshore,Onshore,Onshore",9
5842041f4e65fad6a77089c6,2024_01_10,38.31088736605785,-123.0496777333731,Doran Beach,3,0.9288888888888889,1.1311111111111112,13,13,"NIGHT_CLEAR,NIGHT_CLEAR,NIGHT_CLEAR,NIGHT_MOSTLY_CLOUDY,NIGHT_MOSTLY_CLOUDY,NIGHT_BRIEF_SHOWERS,BRIEF_SHOWERS,BRIEF_SHOWERS,MOSTLY_CLOUDY","Offshore,Offshore,Offshore,Offshore,Offshore,Offshore,Offshore,Offshore,Offshore",9
5842041f4e65fad6a77089c7,2024_01_10,38.45077228660809,-123.13008,Russian Rivermouth,2.3333333333333335,2.928888888888889,3.4833333333333334,13,13,"NIGHT_CLEAR,NIGHT_CLEAR,NIGHT_FOG,NIGHT_FOG,NIGHT_MOSTLY_CLOUDY,NIGHT_BRIEF_SHOWERS,MIST,BRIEF_SHOWERS,MOSTLY_CLOUDY","Cross-shore,Cross-shore,Onshore,Onshore,Onshore,Onshore,Onshore,Onshore,Onshore",9
5842041f4e65fad6a77089c8,2024_01_10,38.35329968518107,-123.06906,Salmon Creek,1.2222222222222223,3.3233333333333333,3.9055555555555554,13,13,"NIGHT_CLEAR,NIGHT_CLEAR,NIGHT_CLEAR,NIGHT_MOSTLY_CLOUDY,NIGHT_MOSTLY_CLOUDY,NIGHT_BRIEF_SHOWERS,BRIEF_SHOWERS,MOSTLY_CLOUDY,MOSTLY_CLOUDY","Cross-shore,Cross-shore,Onshore,Onshore,Onshore,Onshore,Onshore,Onshore,Onshore",9
5842041f4e65fad6a77089c9,2024_01_10,38.6845180197959,-123.4322714291198,Black Point Beach,2,1.7655555555555555,2.112222222222222,13,13,"NIGHT_CLEAR,NIGHT_CLEAR,NIGHT_MOSTLY_CLOUDY,NIGHT_MOSTLY_CLOUDY,NIGHT_CLOUDY,NIGHT_BRIEF_SHOWERS,MOSTLY_CLOUDY,SHOWERS,DRIZZLE","Onshore,Onshore,Onshore,Onshore,Onshore,Onshore,Onshore,Onshore,Onshore",9
5842041f4e65fad6a77089ca,2024_01_10,43.251076,-70.59144,Ogunquit,0.3522222222222222,3.2397407407407406,4.292851851851852,7,4.333333333333333,"NIGHT_HEAVY_RAIN,NIGHT_HEAVY_RAIN,NIGHT_LIGHT_RAIN,LIGHT_RAIN,RAIN,MIST,CLEAR,CLEAR,CLEAR","Onshore,Onshore,Onshore,Onshore,Onshore,Cross-shore,Offshore,Offshore,Offshore",9
5842041f4e65fad6a77089cb,2024_01_10,41.362631366305415,-71.48006772942608,Point Judith,0.7777777777777778,3.5946266666666666,4.736069629629629,7.333333333333333,5.666666666666667,"NIGHT_RAIN,NIGHT_LIGHT_RAIN,NIGHT_LIGHT_RAIN,MIST,MIST,CLEAR,CLEAR,CLEAR,CLEAR","Onshore,Onshore,Offshore,Offshore,Offshore,Offshore,Offshore,Offshore,Offshore",9
5842041f4e65fad6a77089cd,2024_01_10,41.422678090954726,-71.45413,Monahan's - Narragansett,0.5555555555555556,1.1152977777777777,1.7426544444444445,7,7,"NIGHT_RAIN,NIGHT_RAIN,NIGHT_MIST,MIST,MIST,MOSTLY_CLOUDY,BRIEF_SHOWERS_POSSIBLE,CLEAR,CLEAR","Onshore,Onshore,Cross-shore,Cross-shore,Cross-shore,Offshore,Offshore,Offshore,Offshore",9
5842041f4e65fad6a77089ce,2024_01_10,41.469,-71.293,Ruggles - Newport,0,2.4080777777777778,3.7626222222222223,7,7,"NIGHT_DRIZZLE,NIGHT_RAIN,NIGHT_DRIZZLE,MIST,MIST,CLEAR,BRIEF_SHOWERS_POSSIBLE,CLEAR,CLEAR","Onshore,Onshore,Onshore,Onshore,Onshore,Onshore,Cross-shore,Cross-shore,Cross-shore",9
5842041f4e65fad6a77089cf,2024_01_10,43.175394,-70.606351,Short Sands Beach,1.2222222222222223,3.3577777777777778,3.8833333333333333,4.222222222222222,4.222222222222222,"NIGHT_RAIN,NIGHT_RAIN,NIGHT_LIGHT_RAIN,RAIN,RAIN,MIST,CLEAR,CLEAR,CLEAR","Onshore,Onshore,Cross-shore,Onshore,Cross-shore,Cross-shore,Offshore,Offshore,Offshore",9
5842041f4e65fad6a77089d0,2024_01_10,41.487408,-71.29017,First Beach,0.1111111111111111,2.5055555555555555,2.953333333333333,7,7,"NIGHT_DRIZZLE,NIGHT_RAIN,NIGHT_RAIN,MIST,MIST,CLEAR,BRIEF_SHOWERS_POSSIBLE,CLEAR,CLEAR","Onshore,Onshore,Onshore,Onshore,Onshore,Onshore,Cross-shore,Cross-shore,Cross-shore",9
5842041f4e65fad6a77089d1,2024_01_10,42.27916830233153,-70.86498,Nantasket Beach,1.26,1.2915296296296297,1.7041555555555554,7,5,"NIGHT_RAIN,NIGHT_LIGHT_SHOWERS_POSSIBLE,NIGHT_HEAVY_SHOWERS,BRIEF_SHOWERS,BRIEF_SHOWERS,MIST,MOSTLY_CLOUDY,CLEAR,CLEAR","Cross-shore,Cross-shore,Offshore,Offshore,Offshore,Offshore,Offshore,Offshore,Offshore",9
5842041f4e65fad6a77089d2,2024_01_10,41.817,-69.935,Cape Cod,0.4444444444444444,1.4566666666666666,1.7222222222222223,6.222222222222222,6.222222222222222,"NIGHT_RAIN,NIGHT_RAIN,NIGHT_MIST,MIST,MIST,DRIZZLE,MOSTLY_CLOUDY,CLEAR,CLEAR","Onshore,Onshore,Onshore,Onshore,Cross-shore,Cross-shore,Offshore,Offshore,Offshore",9
5842041f4e65fad6a77089d3,2024_01_10,42.22055448975661,-70.70634873403819,Egypt Beach,1.1111111111111112,1.1266666666666667,1.4322222222222223,5.222222222222222,5.222222222222222,"NIGHT_RAIN,NIGHT_RAIN,NIGHT_LIGHT_RAIN,MOSTLY_CLOUDY,BRIEF_SHOWERS,CLEAR,MOSTLY_CLOUDY,CLEAR,CLEAR","Onshore,Cross-shore,Cross-shore,Cross-shore,Cross-shore,Offshore,Offshore,Offshore,Offshore",9
5842041f4e65fad6a77089d4,2024_01_10,41.48739647744607,-71.25723,Second Beach,0.4255555555555556,2.3478024074074075,3.555904351851852,7.333333333333333,5.666666666666667,"NIGHT_LIGHT_RAIN,NIGHT_HEAVY_RAIN,NIGHT_MIST,MIST,MIST,CLEAR,BRIEF_SHOWERS_POSSIBLE,CLEAR,CLEAR","Cross-shore,Onshore,Onshore,Onshore,Onshore,Onshore,Onshore,Onshore,Onshore",9
5842041f4e65fad6a77089d5,2024_01_10,42.964,-70.769,Fox Hill,0.13,2.9355925925925925,4.026351851851852,7,4.333333333333333,"NIGHT_RAIN,NIGHT_HEAVY_RAIN,NIGHT_LIGHT_RAIN,RAIN,MIST,MIST,CLEAR,CLEAR,CLEAR","Onshore,Onshore,Onshore,Onshore,Onshore,Onshore,Offshore,Offshore,Offshore",9
5842041f4e65fad6a77089d6,2024_01_10,42.991359,-70.75149,Straws Point,0.14777777777777779,2.911796296296296,4.018018518518518,7,4.333333333333333,"NIGHT_HEAVY_RAIN,NIGHT_HEAVY_RAIN,NIGHT_LIGHT_RAIN,LIGHT_RAIN,MIST,MIST,CLEAR,CLEAR,CLEAR","Onshore,Onshore,Onshore,Onshore,Onshore,Onshore,Cross-shore,Cross-shore,Cross-shore",9
5842041f4e65fad6a77089d7,2024_01_10,42.946,-70.786,Plaice Cove,0.18555555555555556,2.9355925925925925,4.026351851851852,7,4.333333333333333,"NIGHT_RAIN,NIGHT_HEAVY_RAIN,NIGHT_RAIN,RAIN,MIST,MIST,MOSTLY_CLEAR,CLEAR,CLEAR","Onshore,Onshore,Onshore,Onshore,Cross-shore,Cross-shore,Offshore,Offshore,Offshore",9
5842041f4e65fad6a77089d9,2024_01_10,42.911574,-70.80831,The Main Beach,0.28888888888888886,2.5055590370370373,3.7722705740740743,7,4.333333333333333,"NIGHT_RAIN,NIGHT_RAIN,NIGHT_HEAVY_RAIN,LIGHT_RAIN,DRIZZLE,MIST,MOSTLY_CLEAR,CLEAR,CLEAR","Onshore,Onshore,Onshore,Onshore,Onshore,Onshore,Cross-shore,Cross-shore,Cross-shore",9
5842041f4e65fad6a77089da,2024_01_10,42.97583846220203,-70.764,Sawyer's Beach,0.2222222222222222,2.9506851851851854,4.0082962962962965,7,4.333333333333333,"NIGHT_RAIN,NIGHT_HEAVY_RAIN,NIGHT_LIGHT_RAIN,RAIN,MIST,MIST,CLEAR,CLEAR,CLEAR","Onshore,Onshore,Onshore,Onshore,Onshore,Onshore,Offshore,Offshore,Offshore",9
5842041f4e65fad6a77089db,2024_01_10,42.97,-70.77,Rye on the Rocks / 5-0's,0.31666666666666665,2.3826755,3.657928703703704,7,4.333333333333333,"NIGHT_RAIN,NIGHT_HEAVY_RAIN,NIGHT_LIGHT_RAIN,RAIN,MIST,MIST,CLEAR,CLEAR,CLEAR","Onshore,Onshore,Onshore,Onshore,Onshore,Onshore,Offshore,Offshore,Offshore",9
5842041f4e65fad6a77089dc,2024_01_10,43.55902946610303,-70.27795,Higgins Beach,0,3.0401837037037036,4.203976296296296,7,4.333333333333333,"NIGHT_RAIN,NIGHT_RAIN,NIGHT_RAIN,LIGHT_RAIN,HEAVY_RAIN,MIST,CLEAR,CLEAR,CLEAR","Onshore,Onshore,Onshore,Onshore,Onshore,Onshore,Cross-shore,Cross-shore,Cross-shore",9
5842041f4e65fad6a77089dd,2024_01_10,43.302676,-70.5652,Wells Beach,0.2777777777777778,3.057703703703704,4.08637037037037,7,4.333333333333333,"NIGHT_HEAVY_RAIN,NIGHT_HEAVY_RAIN,NIGHT_OVERCAST,LIGHT_RAIN,LIGHT_RAIN,MIST,CLEAR,CLEAR,CLEAR","Onshore,Onshore,Onshore,Onshore,Onshore,Cross-shore,Offshore,Offshore,Offshore",9
5842041f4e65fad6a77089de,2024_01_10,43.545359,-70.30479,Scarborough Beach State Park,0.18555555555555556,2.6434005555555555,4.0174259259259255,7,4.333333333333333,"NIGHT_RAIN,NIGHT_RAIN,NIGHT_LIGHT_RAIN,HEAVY_RAIN,HEAVY_RAIN,MIST,CLEAR,CLEAR,CLEAR","Onshore,Onshore,Onshore,Onshore,Onshore,Onshore,Cross-shore,Cross-shore,Cross-shore",9
5842041f4e65fad6a77089df,2024_01_10,43.514481,-70.372146,Old Orchard Beach,0.07444444444444445,2.5749007407407407,3.927373333333333,7,4.333333333333333,"NIGHT_RAIN,NIGHT_HEAVY_RAIN,NIGHT_LIGHT_RAIN,HEAVY_RAIN,RAIN,MIST,CLEAR,CLEAR,CLEAR","Onshore,Onshore,Onshore,Onshore,Onshore,Onshore,Offshore,Cross-shore,Cross-shore",9
5842041f4e65fad6a77089e0,2024_01_10,43.34711,-70.48165,Gooch's Beach,0.05555555555555556,3.0332222222222223,4.107055555555555,7,4.333333333333333,"NIGHT_RAIN,NIGHT_HEAVY_RAIN,NIGHT_LIGHT_RAIN,DRIZZLE,LIGHT_RAIN,MIST,CLEAR,CLEAR,CLEAR","Cross-shore,Onshore,Onshore,Onshore,Onshore,Onshore,Cross-shore,Cross-shore,Cross-shore",9
5842041f4e65fad6a77089e2,2024_01_10,40.58433,-73.62953,Lido Beach,0,3.0152162962962965,4.3623666666666665,7.333333333333333,5.333333333333333,"NIGHT_LIGHT_RAIN,NIGHT_MIST,NIGHT_CLEAR,MOSTLY_CLEAR,CLEAR,CLEAR,CLEAR,CLEAR,CLEAR","Onshore,Onshore,Offshore,Offshore,Offshore,Onshore,Cross-shore,Cross-shore,Cross-shore",9
5842041f4e65fad6a77089e3,2024_01_10,43.163135,-70.61689,Long Sands Beach,0.14777777777777779,2.6441256666666666,4.017567333333333,7,4.333333333333333,"NIGHT_RAIN,NIGHT_RAIN,NIGHT_LIGHT_RAIN,MIST,LIGHT_RAIN,MIST,CLEAR,CLEAR,CLEAR","Onshore,Onshore,Onshore,Onshore,Onshore,Onshore,Cross-shore,Cross-shore,Cross-shore",9
5842041f4e65fad6a77089e4,2024_01_10,40.61695351251805,-73.39376,Gilgo Beach,0,3.489374074074074,4.570033333333334,8,6.666666666666667,"NIGHT_RAIN,NIGHT_HEAVY_RAIN,NIGHT_CLEAR,MOSTLY_CLEAR,CLEAR,CLEAR,CLEAR,CLEAR,CLEAR","Onshore,Onshore,Onshore,Onshore,Onshore,Onshore,Onshore,Onshore,Onshore",9
5842041f4e65fad6a77089e5,2024_01_10,40.62530081928036,-73.23827,Robert Moses,0,3.341111111111111,3.71,7.777777777777778,7.777777777777778,"NIGHT_HEAVY_RAIN,NIGHT_MIST,NIGHT_CLEAR,MOSTLY_CLEAR,MOSTLY_CLEAR,CLEAR,CLEAR,CLEAR,CLEAR","Onshore,Onshore,Cross-shore,Cross-shore,Cross-shore,Cross-shore,Cross-shore,Cross-shore,Cross-shore",9
5842041f4e65fad6a77089e6,2024_01_10,40.64313317632791,-73.15727,Fire Island,0,3.292222222222222,3.6277777777777778,8,8,"NIGHT_RAIN,NIGHT_MIST,NIGHT_CLEAR,CLEAR,CLEAR,CLOUDY,CLEAR,CLEAR,MOSTLY_CLEAR","Onshore,Onshore,Cross-shore,Cross-shore,Cross-shore,Cross-shore,Cross-shore,Cross-shore,Cross-shore",9
5842041f4e65fad6a77089e8,2024_01_10,40.76653118828782,-72.74579619372713,Cupsogue,0,6.4399999999999995,7.331111111111111,7,7,"NIGHT_HEAVY_RAIN,NIGHT_DRIZZLE,NIGHT_MIST,CLEAR,CLEAR,MOSTLY_CLOUDY,CLEAR,CLEAR,CLEAR","Onshore,Onshore,Onshore,Cross-shore,Cross-shore,Onshore,Cross-shore,Cross-shore,Cross-shore",9
5842041f4e65fad6a77089e9,2024_01_10,42.9376373334092,-70.79141,The Wall ,0.28888888888888886,2.5006750555555555,3.7646421111111112,7,4.333333333333333,"NIGHT_RAIN,NIGHT_RAIN,NIGHT_HEAVY_RAIN,LIGHT_RAIN,DRIZZLE,MIST,MOSTLY_CLEAR,CLEAR,CLEAR","Onshore,Onshore,Cross-shore,Cross-shore,Cross-shore,Cross-shore,Offshore,Offshore,Offshore",9
5842041f4e65fad6a77089ea,2024_01_10,40.887088,-72.338558,Flys,0.4255555555555556,3.5077740740740744,4.40632962962963,14,13,"NIGHT_HEAVY_RAIN,NIGHT_LIGHT_RAIN,NIGHT_MIST,CLEAR,MOSTLY_CLEAR,CLEAR,CLEAR,CLEAR,CLEAR","Onshore,Onshore,Onshore,Onshore,Onshore,Onshore,Onshore,Onshore,Cross-shore",9
5842041f4e65fad6a77089eb,2024_01_10,41.0389266436591,-71.91068529316958,Trailer Park,0.4166666666666667,3.6363956111111113,4.997669962962963,8,6.666666666666667,"NIGHT_RAIN,NIGHT_LIGHT_RAIN,NIGHT_DRIZZLE,OVERCAST,CLEAR,MOSTLY_CLOUDY,CLEAR,CLEAR,MOSTLY_CLEAR","Onshore,Onshore,Onshore,Onshore,Onshore,Onshore,Onshore,Onshore,Cross-shore",9
5842041f4e65fad6a77089ec,2024_01_10,41.039505402729105,-71.9142,Ditch Plains,0,2.6246455555555555,4.101007777777777,7.222222222222222,7.222222222222222,"NIGHT_LIGHT_RAIN,NIGHT_LIGHT_RAIN,NIGHT_MIST,MIST,CLEAR,MOSTLY_CLOUDY,CLEAR,CLEAR,MOSTLY_CLEAR","Onshore,Onshore,Onshore,Cross-shore,Cross-shore,Cross-shore,Cross-shore,Cross-shore,Cross-shore",9
5842041f4e65fad6a77089ee,2024_01_10,40.57633275206492,-73.56895305108567,"West End, Jones Beach",0,3.735592592592593,4.8945,7.333333333333333,5.333333333333333,"NIGHT_RAIN,NIGHT_MIST,NIGHT_CLEAR,CLEAR,MOSTLY_CLEAR,CLOUDY,CLEAR,CLEAR,CLEAR","Onshore,Onshore,Onshore,Onshore,Onshore,Onshore,Onshore,Onshore,Onshore",9
5842041f4e65fad6a77089f1,2024_01_10,41.038286691230795,-71.91991567611694,Poles,0.4166666666666667,3.5073680925925927,4.8675785740740745,8,6.666666666666667,"NIGHT_RAIN,NIGHT_LIGHT_RAIN,NIGHT_DRIZZLE,OVERCAST,CLEAR,MOSTLY_CLOUDY,CLEAR,CLEAR,MOSTLY_CLEAR","Onshore,Onshore,Onshore,Onshore,Onshore,Onshore,Onshore,Cross-shore,Cross-shore",9
5842041f4e65fad6a77089f3,2024_01_10,40.84077769766295,-72.47989493724765,The Bowl,0,5.188888888888889,6.133333333333333,7,7,"NIGHT_LIGHT_RAIN,NIGHT_DRIZZLE,NIGHT_MIST,CLEAR,MOSTLY_CLEAR,CLEAR,CLEAR,CLEAR,MOSTLY_CLEAR","Onshore,Onshore,Onshore,Onshore,Onshore,Onshore,Onshore,Cross-shore,Cross-shore",9
5842041f4e65fad6a77089f4,2024_01_10,40.94235535243154,-72.19286,Main Beach,0.4255555555555556,3.522866666666667,4.349014814814815,14,13,"NIGHT_RAIN,NIGHT_LIGHT_RAIN,NIGHT_MIST,MIST,MOSTLY_CLEAR,MOSTLY_CLOUDY,CLEAR,CLEAR,CLEAR","Onshore,Onshore,Onshore,Onshore,Onshore,Onshore,Onshore,Onshore,Onshore",9
5842041f4e65fad6a77089f5,2024_01_10,40.58270702399518,-73.67251552079799,Laurelton Blvd.,0,2.8374625925925927,4.117220462962963,7.333333333333333,5.333333333333333,"NIGHT_LIGHT_RAIN,NIGHT_MIST,NIGHT_CLEAR,CLEAR,CLEAR,CLEAR,CLEAR,CLEAR,CLEAR","Onshore,Onshore,Cross-shore,Cross-shore,Offshore,Onshore,Onshore,Onshore,Onshore",9
5842041f4e65fad6a77089f6,2024_01_10,41.033752854071416,-71.93695522488403,Terrace,0.4166666666666667,3.7007674074074073,5.044114814814815,8,6.666666666666667,"NIGHT_RAIN,NIGHT_LIGHT_RAIN,NIGHT_LIGHT_RAIN,CLOUDY,CLEAR,MOSTLY_CLOUDY,CLEAR,CLEAR,CLEAR","Onshore,Onshore,Onshore,Onshore,Onshore,Onshore,Onshore,Cross-shore,Cross-shore",9
5842041f4e65fad6a77089f7,2024_01_10,40.83372943645748,-72.50426173210144,K Road,0,5.7122222222222225,6.585555555555556,7,7,"NIGHT_LIGHT_RAIN,NIGHT_DRIZZLE,NIGHT_MIST,CLEAR,MOSTLY_CLEAR,CLEAR,CLEAR,CLEAR,MOSTLY_CLOUDY","Onshore,Onshore,Onshore,Cross-shore,Cross-shore,Cross-shore,Cross-shore,Cross-shore,Cross-shore",9
5842041f4e65fad6a77089f8,2024_01_10,40.58456099581507,-73.80730032920837,84th Street,0.09444444444444444,2.7346303703703705,3.879811851851852,7.333333333333333,5.333333333333333,"NIGHT_LIGHT_RAIN,NIGHT_BRIEF_SHOWERS,NIGHT_MOSTLY_CLEAR,CLEAR,MOSTLY_CLEAR,CLEAR,CLEAR,MOSTLY_CLOUDY,MOSTLY_CLEAR","Onshore,Onshore,Cross-shore,Cross-shore,Cross-shore,Cross-shore,Cross-shore,Onshore,Onshore",9
5842041f4e65fad6a77089fa,2024_01_10,40.1319,-74.02788,Sea Girt,2.9811111111111113,3.027559259259259,4.1722222222222225,8,7,"NIGHT_OVERCAST,NIGHT_MOSTLY_CLOUDY,NIGHT_CLEAR,CLEAR,CLEAR,CLEAR,CLEAR,CLEAR,CLEAR","Onshore,Cross-shore,Offshore,Offshore,Offshore,Offshore,Offshore,Offshore,Offshore",9
5842041f4e65fad6a77089fb,2024_01_10,40.54698301868125,-73.9268,Breezy Point,0,2.513333333333333,2.8088888888888888,6,6,"NIGHT_LIGHT_RAIN,NIGHT_MIST,NIGHT_CLEAR,CLEAR,CLEAR,CLEAR,CLEAR,MOSTLY_CLOUDY,CLEAR","Onshore,Onshore,Cross-shore,Cross-shore,Cross-shore,Cross-shore,Cross-shore,Onshore,Onshore",9
5842041f4e65fad6a77089fc,2024_01_10,40.152504,-74.021383,Spring Lake,2.9811111111111113,3.1396888888888888,4.178518518518518,8,7,"NIGHT_LIGHT_RAIN,NIGHT_MOSTLY_CLOUDY,NIGHT_CLEAR,CLEAR,MOSTLY_CLOUDY,CLEAR,CLEAR,CLEAR,CLEAR","Onshore,Cross-shore,Offshore,Offshore,Offshore,Offshore,Offshore,Offshore,Offshore",9
5842041f4e65fad6a77089fd,2024_01_10,40.591277,-73.770792,30th - 39th Streets,0,3.0365962962962962,4.056885185185185,7.333333333333333,5.333333333333333,"NIGHT_LIGHT_RAIN,NIGHT_BRIEF_SHOWERS,NIGHT_CLEAR,CLEAR,CLEAR,CLEAR,CLEAR,MOSTLY_CLOUDY,CLEAR","Onshore,Onshore,Cross-shore,Onshore,Onshore,Cross-shore,Onshore,Onshore,Onshore",9
5842041f4e65fad6a77089fe,2024_01_10,40.18834955871439,-74.00860982500222,Avon,2.8333333333333335,3.0034851851851854,4.0350925925925925,8,7,"NIGHT_RAIN,NIGHT_MOSTLY_CLOUDY,NIGHT_CLEAR,CLEAR,MOSTLY_CLOUDY,CLEAR,CLEAR,CLEAR,CLEAR","Onshore,Cross-shore,Offshore,Offshore,Offshore,Offshore,Offshore,Offshore,Offshore",9
5842041f4e65fad6a77089ff,2024_01_10,40.1974229100932,-74.00650533798255,Bradley Beach,2.758888888888889,3.150151851851852,4.1712037037037035,8,7,"NIGHT_RAIN,NIGHT_MOSTLY_CLOUDY,NIGHT_CLEAR,CLEAR,MOSTLY_CLOUDY,CLEAR,CLEAR,CLEAR,CLEAR","Onshore,Cross-shore,Offshore,Offshore,Offshore,Offshore,Offshore,Offshore,Offshore",9
5842041f4e65fad6a7708a01,2024_01_10,40.17202,-74.01503,"16th Ave., Belmar",3.37,2.727314814814815,3.722259259259259,8,7,"NIGHT_RAIN,NIGHT_MOSTLY_CLOUDY,NIGHT_CLEAR,CLEAR,MOSTLY_CLOUDY,CLEAR,CLEAR,CLEAR,CLEAR","Onshore,Cross-shore,Offshore,Offshore,Offshore,Offshore,Offshore,Offshore,Offshore",9
5842041f4e65fad6a7708a02,2024_01_10,40.217443,-73.99982,Asbury Park,2.9811111111111113,3.2183925925925925,4.248703703703704,8,7,"NIGHT_RAIN,NIGHT_MOSTLY_CLOUDY,NIGHT_CLEAR,MOSTLY_CLEAR,CLEAR,CLEAR,CLEAR,CLEAR,CLEAR","Onshore,Cross-shore,Offshore,Offshore,Offshore,Offshore,Offshore,Offshore,Offshore",9
5842041f4e65fad6a7708a03,2024_01_10,40.229841,-73.996782,Loch Arbour and Deal,2.3144444444444443,3.152374074074074,4.175833333333333,8,7,"NIGHT_RAIN,NIGHT_BRIEF_SHOWERS,NIGHT_CLEAR,MOSTLY_CLEAR,MOSTLY_CLOUDY,CLEAR,CLEAR,CLEAR,MOSTLY_CLEAR","Cross-shore,Cross-shore,Offshore,Offshore,Offshore,Offshore,Offshore,Offshore,Offshore",9
5842041f4e65fad6a7708a05,2024_01_10,40.41754,-73.97935,Sandy Hook,1.6666666666666667,0.9511111111111111,1.1955555555555555,6,6,"NIGHT_MIST,NIGHT_CLEAR,NIGHT_CLEAR,MOSTLY_CLEAR,CLEAR,CLEAR,CLEAR,CLEAR,MOSTLY_CLOUDY","Onshore,Cross-shore,Offshore,Offshore,Offshore,Offshore,Offshore,Offshore,Offshore",9
5842041f4e65fad6a7708a06,2024_01_10,39.36353,-74.40873,Crystals,0.8333333333333334,2.277326574074074,3.38017,8,7,"NIGHT_MIST,NIGHT_MIST,NIGHT_CLEAR,OVERCAST,CLEAR,LIGHT_RAIN,CLEAR,CLEAR,CLEAR","Onshore,Onshore,Cross-shore,Cross-shore,Cross-shore,Cross-shore,Cross-shore,Cross-shore,Cross-shore",9
5842041f4e65fad6a7708a07,2024_01_10,39.31443,-74.51863,32nd Street,1.0377777777777777,1.8519679629629628,2.9127478703703704,8,7,"NIGHT_MIST,NIGHT_MIST,NIGHT_MOSTLY_CLOUDY,DRIZZLE,BRIEF_SHOWERS_POSSIBLE,CLOUDY,CLEAR,CLEAR,CLEAR","Onshore,Onshore,Cross-shore,Cross-shore,Cross-shore,Cross-shore,Cross-shore,Cross-shore,Cross-shore",9
5842041f4e65fad6a7708a08,2024_01_10,39.327688,-74.49524,Margate Pier Northside,1.0377777777777777,1.8519679629629628,2.9127478703703704,8,7,"NIGHT_MIST,NIGHT_MIST,NIGHT_MOSTLY_CLOUDY,DRIZZLE,BRIEF_SHOWERS_POSSIBLE,CLOUDY,CLEAR,CLEAR,CLEAR","Onshore,Onshore,Cross-shore,Cross-shore,Cross-shore,Cross-shore,Cross-shore,Cross-shore,Cross-shore",9
5842041f4e65fad6a7708a09,2024_01_10,39.336276,-74.47782,Ventnor Pier,0.5366666666666666,2.160065,3.19694787037037,8,7,"NIGHT_MIST,NIGHT_MIST,NIGHT_MOSTLY_CLOUDY,DRIZZLE,BRIEF_SHOWERS_POSSIBLE,CLOUDY,CLEAR,CLEAR,CLEAR","Onshore,Onshore,Cross-shore,Cross-shore,Cross-shore,Cross-shore,Cross-shore,Cross-shore,Cross-shore",9
5842041f4e65fad6a7708a0a,2024_01_10,39.35929751441085,-74.41683,States Avenue,0.6666666666666666,2.277326574074074,3.38017,8,7,"NIGHT_MIST,NIGHT_MIST,NIGHT_CLEAR,OVERCAST,CLEAR,OVERCAST,CLEAR,CLEAR,CLEAR","Onshore,Onshore,Cross-shore,Cross-shore,Cross-shore,Cross-shore,Cross-shore,Cross-shore,Cross-shore",9
5842041f4e65fad6a7708a0b,2024_01_10,39.37274173278517,-74.40454,Brigantine Jetty,0.6288888888888888,2.3262227777777778,3.4565710185185186,8,7,"NIGHT_MIST,NIGHT_MIST,NIGHT_CLEAR,OVERCAST,CLEAR,LIGHT_RAIN,CLEAR,CLEAR,CLEAR","Onshore,Onshore,Cross-shore,Cross-shore,Cross-shore,Cross-shore,Cross-shore,Cross-shore,Cross-shore",9
5842041f4e65fad6a7708a0c,2024_01_10,39.356505,-74.42263,South Carolina Avenue,0.6288888888888888,2.3262227777777778,3.4565710185185186,8,7,"NIGHT_MIST,NIGHT_MIST,NIGHT_CLEAR,OVERCAST,CLEAR,OVERCAST,CLEAR,CLEAR,CLEAR","Onshore,Onshore,Cross-shore,Cross-shore,Cross-shore,Cross-shore,Cross-shore,Cross-shore,Cross-shore",9
5842041f4e65fad6a7708a0d,2024_01_10,39.413485,-74.35476,14th Street North,1.1122222222222222,2.6488222222222224,3.2509444444444444,8,7,"NIGHT_CLOUDY,NIGHT_MIST,NIGHT_CLEAR,OVERCAST,CLEAR,DRIZZLE,CLEAR,CLEAR,CLEAR","Onshore,Cross-shore,Cross-shore,Cross-shore,Offshore,Cross-shore,Offshore,Cross-shore,Offshore",9
5842041f4e65fad6a7708a0e,2024_01_10,39.531319,-74.263252,The Wooden Jetty,1.75,2.741267314814815,3.8646539814814815,8,7,"NIGHT_BRIEF_SHOWERS_POSSIBLE,NIGHT_MIST,NIGHT_CLEAR,OVERCAST,BRIEF_SHOWERS_POSSIBLE,CLEAR,CLEAR,CLEAR,CLEAR","Onshore,Onshore,Cross-shore,Cross-shore,Cross-shore,Cross-shore,Cross-shore,Cross-shore,Cross-shore",9
5842041f4e65fad6a7708a0f,2024_01_10,39.552472,-74.24344,Holyoke,1.7777777777777777,2.682323148148148,3.895501388888889,8,7,"NIGHT_BRIEF_SHOWERS_POSSIBLE,NIGHT_MIST,NIGHT_CLEAR,OVERCAST,BRIEF_SHOWERS_POSSIBLE,CLEAR,CLEAR,CLEAR,CLEAR","Onshore,Cross-shore,Offshore,Offshore,Cross-shore,Offshore,Offshore,Offshore,Offshore",9
5842041f4e65fad6a7708a10,2024_01_10,39.692364,-74.14068,Hudson Ave.,1.9722222222222223,2.903503703703704,4.05552962962963,8,7,"NIGHT_BRIEF_SHOWERS_POSSIBLE,NIGHT_MOSTLY_CLEAR,NIGHT_CLEAR,CLEAR,OVERCAST,CLEAR,CLEAR,CLEAR,CLEAR","Onshore,Onshore,Cross-shore,Cross-shore,Cross-shore,Cross-shore,Cross-shore,Cross-shore,Cross-shore",9
5842041f4e65fad6a7708a11,2024_01_10,39.79614,-74.09248,Island Beach State Park,1.6111111111111112,2.845262962962963,3.677874074074074,8,7,"NIGHT_BRIEF_SHOWERS_POSSIBLE,NIGHT_MOSTLY_CLOUDY,NIGHT_CLEAR,CLEAR,CLEAR,CLEAR,CLEAR,CLEAR,CLEAR","Onshore,Cross-shore,Offshore,Offshore,Offshore,Offshore,Offshore,Offshore,Offshore",9
5842041f4e65fad6a7708a12,2024_01_10,39.91813588078152,-74.07527,Seaside Park,1.6111111111111112,2.7626703703703703,3.5875962962962964,8,7,"NIGHT_MIST,NIGHT_CLEAR,NIGHT_CLEAR,MOSTLY_CLEAR,OVERCAST,CLEAR,CLEAR,CLEAR,CLEAR","Onshore,Cross-shore,Offshore,Offshore,Offshore,Offshore,Offshore,Offshore,Offshore",9
5842041f4e65fad6a7708a14,2024_01_10,39.946638,-74.06884,Seaside Heights,2.4255555555555555,2.8753111111111114,3.7723222222222224,8,7,"NIGHT_MIST,NIGHT_CLEAR,NIGHT_MOSTLY_CLEAR,CLEAR,CLEAR,CLEAR,CLEAR,CLEAR,CLEAR","Onshore,Cross-shore,Offshore,Offshore,Offshore,Offshore,Offshore,Offshore,Offshore",9
5842041f4e65fad6a7708a15,2024_01_10,39.95745637606704,-74.06736,Ortley Beach,2.4255555555555555,2.7440148148148147,3.626674074074074,8,7,"NIGHT_MIST,NIGHT_CLEAR,NIGHT_MOSTLY_CLEAR,CLEAR,CLEAR,CLEAR,CLEAR,CLEAR,CLEAR","Onshore,Cross-shore,Offshore,Offshore,Offshore,Offshore,Offshore,Offshore,Offshore",9
5842041f4e65fad6a7708a16,2024_01_10,39.98313468342945,-74.06265685577506,Lavallette,2.2777777777777777,2.8934592592592594,3.7927851851851853,8,7,"NIGHT_MIST,NIGHT_CLEAR,NIGHT_CLEAR,CLEAR,CLOUDY,CLEAR,CLEAR,MOSTLY_CLEAR,CLEAR","Onshore,Cross-shore,Offshore,Offshore,Offshore,Offshore,Offshore,Offshore,Offshore",9
5842041f4e65fad6a7708a17,2024_01_10,40.0699319967757,-74.04144910856634,Bay Head,2.9077777777777776,2.680262962962963,3.8631740740740743,8,7,"NIGHT_MIST,NIGHT_CLEAR,NIGHT_CLEAR,CLEAR,CLEAR,CLEAR,CLEAR,CLEAR,CLEAR","Onshore,Cross-shore,Offshore,Offshore,Offshore,Offshore,Offshore,Offshore,Offshore",9
5842041f4e65fad6a7708a18,2024_01_10,40.094041,-74.034859,Jenkinson's,2.388888888888889,2.8553111111111114,3.7590814814814815,8,7,"NIGHT_OVERCAST,NIGHT_CLEAR,NIGHT_MOSTLY_CLEAR,CLEAR,CLEAR,CLEAR,CLEAR,CLEAR,CLEAR","Onshore,Cross-shore,Offshore,Offshore,Offshore,Offshore,Offshore,Offshore,Offshore",9
5842041f4e65fad6a7708a1a,2024_01_10,38.148058,-75.17704,Assateague,1.6666666666666667,2.3165296296296294,2.985381481481481,8,7,"NIGHT_MIST,NIGHT_CLEAR,NIGHT_CLEAR,DRIZZLE,MOSTLY_CLOUDY,CLEAR,CLEAR,CLEAR,CLEAR","Cross-shore,Cross-shore,Cross-shore,Offshore,Offshore,Offshore,Offshore,Offshore,Offshore",9
5842041f4e65fad6a7708a1b,2024_01_10,38.33889038664497,-75.08017670566352,North End to Ocean City Inlet,2.2044444444444444,2.218288888888889,2.9158444444444447,8,7,"NIGHT_MIST,NIGHT_CLEAR,NIGHT_CLEAR,CLEAR,CLEAR,CLEAR,CLEAR,CLEAR,CLEAR","Offshore,Offshore,Offshore,Offshore,Offshore,Offshore,Offshore,Offshore,Offshore",9
5842041f4e65fad6a7708a1c,2024_01_10,38.603993,-75.06271,Indian River Inlet,1.76,1.642665,2.5320903703703705,8,7,"NIGHT_MIST,NIGHT_CLEAR,NIGHT_CLEAR,CLEAR,CLEAR,CLEAR,CLEAR,CLEAR,CLEAR","Cross-shore,Offshore,Offshore,Offshore,Offshore,Offshore,Offshore,Offshore,Offshore",9
5842041f4e65fad6a7708a1d,2024_01_10,38.460477,-75.052069,Fenwick Island,2.1855555555555557,2.2544925925925927,2.8942703703703705,8,7,"NIGHT_OVERCAST,NIGHT_SHOWERS,NIGHT_MOSTLY_CLEAR,MOSTLY_CLOUDY,CLEAR,CLEAR,CLEAR,CLEAR,CLEAR","Offshore,Offshore,Offshore,Offshore,Offshore,Offshore,Offshore,Offshore,Offshore",9
5842041f4e65fad6a7708a1e,2024_01_10,38.538767,-75.05619,Bethany Beach,2.2044444444444444,1.591237962962963,2.4517391666666666,8,7,"NIGHT_MIST,NIGHT_CLEAR,NIGHT_CLEAR,MOSTLY_CLOUDY,CLEAR,CLEAR,CLEAR,CLEAR,CLEAR","Cross-shore,Offshore,Offshore,Offshore,Offshore,Offshore,Offshore,Offshore,Offshore",9
5842041f4e65fad6a7708a1f,2024_01_10,38.697657,-75.075951,Dewey Beach,2.2044444444444444,2.2795851851851854,2.9884370370370372,8,7,"NIGHT_BRIEF_SHOWERS_POSSIBLE,NIGHT_CLEAR,NIGHT_MOSTLY_CLEAR,MOSTLY_CLOUDY,CLEAR,CLEAR,CLEAR,CLEAR,CLEAR","Cross-shore,Offshore,Offshore,Offshore,Offshore,Offshore,Offshore,Offshore,Offshore",9
5842041f4e65fad6a7708a20,2024_01_10,38.75034741676525,-75.08194,Gordons Pond,1.8711111111111112,1.4557355555555556,2.240018425925926,8,7,"NIGHT_CLEAR,NIGHT_CLEAR,NIGHT_MOSTLY_CLEAR,CLEAR,CLEAR,CLEAR,CLEAR,CLEAR,CLEAR","Cross-shore,Offshore,Offshore,Offshore,Offshore,Offshore,Offshore,Offshore,Offshore",9
5842041f4e65fad6a7708a21,2024_01_10,38.767837,-75.082841,Naval Jetties,2.2044444444444444,2.123288888888889,2.761862962962963,8,7,"NIGHT_CLEAR,NIGHT_CLEAR,NIGHT_MOSTLY_CLEAR,CLEAR,CLEAR,CLEAR,CLEAR,CLEAR,CLEAR","Offshore,Offshore,Offshore,Offshore,Offshore,Offshore,Offshore,Offshore,Offshore",9
5842041f4e65fad6a7708a22,2024_01_10,36.81735875786576,-75.96624,Camp Pendleton,4.018888888888889,1.3732,1.7666222222222223,10,8,"NIGHT_MOSTLY_CLOUDY,NIGHT_CLEAR,NIGHT_CLEAR,CLEAR,CLEAR,CLEAR,CLEAR,CLEAR,CLEAR","Offshore,Offshore,Offshore,Offshore,Offshore,Offshore,Offshore,Offshore,Offshore",9
5842041f4e65fad6a7708a23,2024_01_10,36.9102212316428,-75.98732471466064,North End,3.141111111111111,1.0982962962962963,1.5428037037037037,10,8,"NIGHT_CLEAR,NIGHT_CLEAR,NIGHT_CLEAR,MOSTLY_CLEAR,CLEAR,CLEAR,CLEAR,CLEAR,CLEAR","Offshore,Offshore,Offshore,Offshore,Offshore,Offshore,Offshore,Offshore,Offshore",9
5842041f4e65fad6a7708a24,2024_01_10,36.737117517621314,-75.93923719853362,Sandbridge Beach,3.1666666666666665,1.3171814814814815,1.7162037037037037,10,8,"NIGHT_MOSTLY_CLOUDY,NIGHT_CLEAR,NIGHT_CLEAR,CLEAR,CLEAR,CLEAR,CLEAR,CLEAR,CLEAR","Offshore,Offshore,Offshore,Offshore,Offshore,Offshore,Offshore,Offshore,Offshore",9
5842041f4e65fad6a7708a26,2024_01_10,36.818257440557794,-75.96666,Croatan to Pendleton,4.001111111111111,1.2385703703703703,1.7371777777777777,10,8,"NIGHT_MOSTLY_CLOUDY,NIGHT_CLEAR,NIGHT_CLEAR,CLEAR,CLEAR,CLEAR,CLEAR,CLEAR,CLEAR","Offshore,Offshore,Offshore,Offshore,Offshore,Offshore,Offshore,Offshore,Offshore",9
5842041f4e65fad6a7708a27,2024_01_10,36.84318777204769,-75.9719,South End,3.0366666666666666,1.2259,1.5703037037037038,10,8,"NIGHT_MOSTLY_CLEAR,NIGHT_CLEAR,NIGHT_CLEAR,MOSTLY_CLEAR,CLEAR,CLEAR,CLEAR,CLEAR,CLEAR","Offshore,Offshore,Offshore,Offshore,Offshore,Offshore,Offshore,Offshore,Offshore",9
5842041f4e65fad6a7708a28,2024_01_10,37.08612627584661,-75.976121638199,Fishermans Island,0,0.6617777777777778,0.7853333333333333,8,8,"NIGHT_MOSTLY_CLEAR,NIGHT_CLEAR,NIGHT_CLEAR,CLEAR,CLEAR,CLEAR,CLEAR,CLEAR,CLEAR","Cross-shore,Cross-shore,Cross-shore,Cross-shore,Cross-shore,Cross-shore,Cross-shore,Cross-shore,Cross-shore",9
5842041f4e65fad6a7708a38,2024_01_10,35.254619418229026,-75.52074,Cape Hatteras Lighthouse,1.5666666666666667,2.0340178148148147,2.986313425925926,12,11,"NIGHT_CLOUDY,NIGHT_MOSTLY_CLOUDY,NIGHT_BRIEF_SHOWERS,CLEAR,CLEAR,CLEAR,CLEAR,CLEAR,CLEAR","Cross-shore,Offshore,Offshore,Offshore,Offshore,Offshore,Offshore,Offshore,Offshore",9
5842041f4e65fad6a7708a3a,2024_01_10,35.54572934093336,-75.46477,Waves and Salvo,0.8333333333333334,2.9268925925925924,3.637814814814815,12,9,"NIGHT_OVERCAST,NIGHT_CLEAR,NIGHT_MOSTLY_CLOUDY,MOSTLY_CLOUDY,CLEAR,CLEAR,CLEAR,CLEAR,CLEAR","Cross-shore,Offshore,Offshore,Offshore,Offshore,Offshore,Offshore,Offshore,Offshore",9
5842041f4e65fad6a7708a3b,2024_01_10,35.22565892751075,-75.63606,Frisco,0.5922222222222222,2.8818814814814817,3.722814814814815,15,13,"NIGHT_MOSTLY_CLOUDY,NIGHT_CLEAR,NIGHT_MOSTLY_CLOUDY,CLEAR,MOSTLY_CLEAR,CLEAR,CLEAR,CLEAR,CLEAR","Onshore,Onshore,Onshore,Cross-shore,Cross-shore,Cross-shore,Cross-shore,Cross-shore,Cross-shore",9
5842041f4e65fad6a7708a3c,2024_01_10,35.13086,-75.90591,Ocracoke,0.2222222222222222,1.9442066666666666,3.0378244444444444,11,11,"NIGHT_MOSTLY_CLOUDY,NIGHT_CLEAR,NIGHT_CLEAR,MOSTLY_CLOUDY,CLEAR,CLEAR,CLEAR,CLEAR,CLEAR","Cross-shore,Cross-shore,Cross-shore,Cross-shore,Cross-shore,Cross-shore,Cross-shore,Cross-shore,Cross-shore",9
5842041f4e65fad6a7708a3d,2024_01_10,35.34721340158342,-75.50084,Avon Pier,1.3277777777777777,2.479900740740741,3.3122562962962965,12,9,"NIGHT_CLOUDY,NIGHT_MOSTLY_CLOUDY,NIGHT_MOSTLY_CLOUDY,CLEAR,CLEAR,CLEAR,CLEAR,CLEAR,CLEAR","Offshore,Offshore,Offshore,Offshore,Offshore,Offshore,Offshore,Offshore,Offshore",9
5842041f4e65fad6a7708a3f,2024_01_10,35.71680821253768,-75.49243,Pea Island,2.2222222222222223,2.0566666666666666,2.3155555555555556,9,9,"NIGHT_MOSTLY_CLOUDY,NIGHT_CLEAR,NIGHT_MOSTLY_CLEAR,MOSTLY_CLOUDY,CLEAR,CLEAR,CLEAR,CLEAR,CLEAR","Offshore,Offshore,Offshore,Offshore,Offshore,Offshore,Offshore,Offshore,Offshore",9
5842041f4e65fad6a7708a40,2024_01_10,35.97427620657821,-75.62984,Nags Head Pier,2.6133333333333333,1.436242962962963,2.0699022222222223,11,9,"NIGHT_MOSTLY_CLOUDY,NIGHT_CLEAR,NIGHT_CLEAR,CLEAR,CLEAR,CLEAR,CLEAR,CLEAR,CLEAR","Offshore,Offshore,Offshore,Offshore,Offshore,Offshore,Offshore,Offshore,Offshore",9
5842041f4e65fad6a7708a41,2024_01_10,36.0439998039079,-75.67288,Avalon Pier,2.1666666666666665,1.3879222222222223,1.9103,11,9,"NIGHT_MOSTLY_CLOUDY,NIGHT_CLEAR,NIGHT_CLEAR,CLEAR,CLEAR,CLEAR,CLEAR,CLEAR,CLEAR","Offshore,Offshore,Offshore,Offshore,Offshore,Offshore,Offshore,Offshore,Offshore",9
5842041f4e65fad6a7708a42,2024_01_10,36.03043116489792,-75.66413,First Street,2.5244444444444443,1.2423096296296297,1.9069155555555557,11,9,"NIGHT_MOSTLY_CLOUDY,NIGHT_CLEAR,NIGHT_CLEAR,CLEAR,CLEAR,CLEAR,CLEAR,CLEAR,CLEAR","Offshore,Offshore,Offshore,Offshore,Offshore,Offshore,Offshore,Offshore,Offshore",9
5842041f4e65fad6a7708a43,2024_01_10,36.06829910590498,-75.6899,Old Station/Laundromats,2.5555555555555554,1.9288888888888889,2.1844444444444444,9.222222222222221,9.222222222222221,"NIGHT_MOSTLY_CLOUDY,NIGHT_CLEAR,NIGHT_CLEAR,CLEAR,CLEAR,CLEAR,CLEAR,CLEAR,CLEAR","Offshore,Offshore,Offshore,Offshore,Offshore,Offshore,Offshore,Offshore,Offshore",9
5842041f4e65fad6a7708a44,2024_01_10,36.10126676607491,-75.71107462163894,Kitty Hawk Pier,2.9811111111111113,1.2305925925925927,1.9331481481481483,11,9,"NIGHT_MOSTLY_CLOUDY,NIGHT_MOSTLY_CLEAR,NIGHT_CLEAR,MOSTLY_CLEAR,CLEAR,CLEAR,CLEAR,CLEAR,CLEAR","Offshore,Offshore,Offshore,Offshore,Offshore,Offshore,Offshore,Offshore,Offshore",9
5842041f4e65fad6a7708a45,2024_01_10,36.18220630068973,-75.75013580649097,Duck Pier,1.8888888888888888,1.2955555555555556,1.5533333333333332,9,9,"NIGHT_MOSTLY_CLOUDY,NIGHT_BRIEF_SHOWERS,NIGHT_CLEAR,CLEAR,CLEAR,CLEAR,CLEAR,CLEAR,CLEAR","Offshore,Offshore,Offshore,Offshore,Offshore,Offshore,Offshore,Offshore,Offshore",9
5842041f4e65fad6a7708a46,2024_01_10,36.37660668125033,-75.82409701687456,Corolla,2.3333333333333335,1.5722222222222222,1.8055555555555556,9,9,"NIGHT_CLEAR,NIGHT_CLEAR,NIGHT_CLEAR,CLEAR,CLEAR,CLEAR,CLEAR,CLEAR,CLEAR","Offshore,Offshore,Offshore,Offshore,Offshore,Offshore,Offshore,Offshore,Offshore",9
