_id,date,lat,lon,name,daily_mean_swell_rating,daily_mean_wave_height_min,daily_mean_wave_height_max,daily_mean_water_temperature_max,daily_mean_water_temperature_min,weather_per_timestamp,wind_per_timestamp,n_samples_per_day
5842041f4e65fad6a77087f9,2023_12_10,37.741668,-122.51038,South Ocean Beach,3.2,0.8107380952380953,1.1253095238095239,15,15,"NIGHT_CLEAR,NIGHT_CLEAR,NIGHT_CLEAR,NIGHT_CLEAR,NIGHT_CLEAR,NIGHT_CLEAR,NIGHT_CLEAR,CLEAR,CLEAR,CLEAR,CLEAR,CLEAR,CLEAR,CLEAR","Cross-shore,Offshore,Offshore,Offshore,Offshore,Offshore,Offshore,Offshore,Cross-shore,Offshore,Cross-shore,Cross-shore,Cross-shore,Cross-shore",14
5842041f4e65fad6a7708801,2023_12_10,37.49142,-122.50428,Maverick's,NA,0.37494047619047616,0.6038047619047618,13,13,"NIGHT_CLEAR,NIGHT_CLEAR,NIGHT_CLEAR,NIGHT_CLEAR,NIGHT_CLEAR,NIGHT_CLEAR,NIGHT_CLEAR,CLEAR,CLEAR,CLEAR,CLEAR,CLEAR,CLEAR,CLEAR","Offshore,Offshore,Offshore,Offshore,Offshore,Offshore,Offshore,Offshore,Offshore,Offshore,Offshore,Offshore,Offshore,Offshore",14
5842041f4e65fad6a7708804,2023_12_10,44.997,-124.018,Roads End,0.6428571428571429,3.3535714285714286,3.9392857142857145,11.714285714285714,11.714285714285714,"NIGHT_LIGHT_RAIN,NIGHT_RAIN,NIGHT_RAIN,NIGHT_LIGHT_RAIN,NIGHT_RAIN,NIGHT_RAIN,NIGHT_LIGHT_RAIN,LIGHT_RAIN,LIGHT_RAIN,RAIN,RAIN,LIGHT_RAIN,RAIN,LIGHT_RAIN","Cross-shore,Cross-shore,Cross-shore,Cross-shore,Cross-shore,Cross-shore,Onshore,Cross-shore,Cross-shore,Cross-shore,Cross-shore,Cross-shore,Cross-shore,Cross-shore",14
5842041f4e65fad6a7708805,2023_12_10,36.95188851423011,-122.02522,Steamer Lane,2,0.43316190476190475,0.7377357142857143,14,14,"NIGHT_CLEAR,NIGHT_CLEAR,NIGHT_CLEAR,NIGHT_CLEAR,NIGHT_CLEAR,NIGHT_CLEAR,NIGHT_CLEAR,CLEAR,CLEAR,CLEAR,CLEAR,CLEAR,CLEAR,CLEAR","Offshore,Offshore,Offshore,Offshore,Offshore,Offshore,Offshore,Offshore,Offshore,Offshore,Onshore,Cross-shore,Offshore,Cross-shore",14
5842041f4e65fad6a7708806,2023_12_10,36.95918781542251,-122.02489,Cowells,0.5714285714285714,0,0.1479714285714286,14,14,"NIGHT_CLEAR,NIGHT_CLEAR,NIGHT_CLEAR,NIGHT_CLEAR,NIGHT_CLEAR,NIGHT_CLEAR,NIGHT_CLEAR,CLEAR,CLEAR,CLEAR,CLEAR,CLEAR,CLEAR,CLEAR","Cross-shore,Cross-shore,Cross-shore,Offshore,Offshore,Cross-shore,Cross-shore,Cross-shore,Cross-shore,Cross-shore,Onshore,Offshore,Offshore,Offshore",14
5842041f4e65fad6a7708807,2023_12_10,36.95468082526536,-121.97234,Pleasure Point,2.2857142857142856,0.2977214285714286,0.6009857142857142,14,14,"NIGHT_CLEAR,NIGHT_CLEAR,NIGHT_CLEAR,NIGHT_CLEAR,NIGHT_CLEAR,NIGHT_CLEAR,NIGHT_CLEAR,CLEAR,CLEAR,CLEAR,CLEAR,CLEAR,CLEAR,CLEAR","Offshore,Offshore,Cross-shore,Offshore,Offshore,Offshore,Offshore,Offshore,Cross-shore,Cross-shore,Onshore,Onshore,Cross-shore,Onshore",14
5842041f4e65fad6a770880a,2023_12_10,35.37815414378748,-120.86589,Morro Bay,3.119285714285714,0.5471928571428571,0.9191571428571429,15,15,"NIGHT_CLEAR,NIGHT_CLEAR,NIGHT_CLEAR,NIGHT_CLEAR,NIGHT_CLEAR,NIGHT_CLEAR,NIGHT_CLEAR,CLEAR,CLEAR,CLEAR,CLEAR,CLEAR,CLEAR,CLEAR","Offshore,Cross-shore,Offshore,Offshore,Offshore,Offshore,Offshore,Offshore,Onshore,Offshore,Offshore,Offshore,Offshore,Onshore",14
5842041f4e65fad6a770880b,2023_12_10,36.95782765000708,-121.9672887511276,Jack's,1,7.142857142857143e-4,0.22154285714285715,14,14,"NIGHT_CLEAR,NIGHT_CLEAR,NIGHT_CLEAR,NIGHT_CLEAR,NIGHT_CLEAR,NIGHT_CLEAR,NIGHT_CLEAR,CLEAR,CLEAR,CLEAR,CLEAR,CLEAR,CLEAR,CLEAR","Offshore,Offshore,Cross-shore,Offshore,Offshore,Offshore,Cross-shore,Offshore,Cross-shore,Cross-shore,Onshore,Onshore,Cross-shore,Cross-shore",14
5842041f4e65fad6a770880d,2023_12_10,34.29982939936656,-119.3489016603669,Gold Coast Beachbreaks,2,0.020714285714285713,0.32571428571428573,16,16,"NIGHT_CLEAR,NIGHT_CLEAR,NIGHT_CLEAR,NIGHT_CLEAR,NIGHT_CLEAR,NIGHT_CLEAR,CLEAR,CLEAR,CLEAR,CLEAR,CLEAR,CLEAR,CLEAR,CLEAR","Cross-shore,Cross-shore,Cross-shore,Cross-shore,Cross-shore,Cross-shore,Cross-shore,Cross-shore,Offshore,Cross-shore,Onshore,Onshore,Onshore,Onshore",14
5842041f4e65fad6a7708811,2023_12_10,34.245076,-119.26799,Ventura Harbor,1.6071428571428572,0.5733450595238095,0.8632253571428571,16,16,"NIGHT_CLEAR,NIGHT_CLEAR,NIGHT_CLEAR,NIGHT_CLEAR,NIGHT_CLEAR,NIGHT_CLEAR,CLEAR,CLEAR,CLEAR,CLEAR,CLEAR,CLEAR,CLEAR,CLEAR","Offshore,Offshore,Offshore,Onshore,Cross-shore,Cross-shore,Offshore,Offshore,Onshore,Onshore,Onshore,Onshore,Onshore,Onshore",14
5842041f4e65fad6a7708813,2023_12_10,34.051,-118.964,County Line,1.6071428571428572,0.2375809523809524,0.5435857142857143,16,16,"NIGHT_CLEAR,NIGHT_CLEAR,NIGHT_CLEAR,NIGHT_CLEAR,NIGHT_CLEAR,NIGHT_CLEAR,CLEAR,CLEAR,CLEAR,CLEAR,CLEAR,CLEAR,CLEAR,CLEAR","Offshore,Offshore,Offshore,Offshore,Offshore,Cross-shore,Offshore,Onshore,Onshore,Onshore,Onshore,Onshore,Onshore,Offshore",14
5842041f4e65fad6a7708814,2023_12_10,34.37256264378892,-119.47797,Rincon,1.2142857142857142,0.0035714285714285713,0.28500000000000003,16,16,"NIGHT_CLEAR,NIGHT_CLEAR,NIGHT_CLEAR,NIGHT_CLEAR,NIGHT_CLEAR,NIGHT_CLEAR,CLEAR,CLEAR,CLEAR,CLEAR,CLEAR,MIST,MIST,CLEAR","Offshore,Offshore,Offshore,Offshore,Offshore,Cross-shore,Cross-shore,Offshore,Offshore,Cross-shore,Cross-shore,Cross-shore,Cross-shore,Cross-shore",14
5842041f4e65fad6a7708817,2023_12_10,34.03096101876324,-118.68109,Malibu Third Point,1.1428571428571428,0.04357142857142857,0.35,17,17,"NIGHT_CLEAR,NIGHT_CLEAR,NIGHT_CLEAR,NIGHT_CLEAR,NIGHT_CLEAR,NIGHT_CLEAR,CLEAR,CLEAR,CLEAR,CLEAR,CLEAR,CLEAR,CLEAR,CLEAR","Offshore,Offshore,Offshore,Offshore,Offshore,Offshore,Offshore,Offshore,Offshore,Offshore,Offshore,Offshore,Offshore,Cross-shore",14
5842041f4e65fad6a7708819,2023_12_10,33.984079047970035,-118.47381591796875,Venice Beach,1.595,0.2371047619047619,0.5411595238095238,17,17,"NIGHT_CLEAR,NIGHT_CLEAR,NIGHT_CLEAR,NIGHT_CLEAR,NIGHT_CLEAR,NIGHT_CLEAR,CLEAR,CLEAR,CLEAR,CLEAR,CLEAR,CLEAR,CLEAR,CLEAR","Offshore,Offshore,Offshore,Offshore,Offshore,Offshore,Offshore,Offshore,Offshore,Offshore,Offshore,Onshore,Onshore,Onshore",14
5842041f4e65fad6a770881e,2023_12_10,34.037508438646746,-118.58339846155594,Topanga Beach,1.6071428571428572,0.013211904761904765,0.3198119047619048,17,17,"NIGHT_CLEAR,NIGHT_CLEAR,NIGHT_CLEAR,NIGHT_CLEAR,NIGHT_CLEAR,NIGHT_CLEAR,CLEAR,CLEAR,CLEAR,CLEAR,CLEAR,CLEAR,CLEAR,CLEAR","Offshore,Offshore,Offshore,Offshore,Offshore,Offshore,Offshore,Offshore,Offshore,Offshore,Onshore,Onshore,Onshore,Onshore",14
5842041f4e65fad6a7708820,2023_12_10,33.73954373690184,-118.11414,Seal Beach Jetty,2,0.014285714285714285,0.31714285714285717,17,17,"NIGHT_CLEAR,NIGHT_CLEAR,NIGHT_CLEAR,NIGHT_CLEAR,NIGHT_CLEAR,NIGHT_CLEAR,CLEAR,CLEAR,CLEAR,CLEAR,CLEAR,CLEAR,CLEAR,CLEAR","Offshore,Offshore,Offshore,Offshore,Offshore,Offshore,Offshore,Offshore,Offshore,Cross-shore,Onshore,Onshore,Onshore,Onshore",14
5842041f4e65fad6a7708822,2023_12_10,33.72309983348433,-118.08078,Anderson Street,1.2857142857142858,0.008571428571428572,0.30214285714285716,17,17,"NIGHT_CLEAR,NIGHT_CLEAR,NIGHT_CLEAR,NIGHT_CLEAR,NIGHT_CLEAR,NIGHT_CLEAR,CLEAR,CLEAR,CLEAR,CLEAR,CLEAR,CLEAR,CLEAR,CLEAR","Offshore,Offshore,Offshore,Offshore,Offshore,Offshore,Offshore,Offshore,Offshore,Offshore,Onshore,Onshore,Onshore,Onshore",14
5842041f4e65fad6a7708827,2023_12_10,33.65574085629463,-118.00397,Huntington Beach Pier Northside,2.5357142857142856,0.4753476190476191,0.7520214285714285,17,17,"NIGHT_CLEAR,NIGHT_CLEAR,NIGHT_CLEAR,NIGHT_CLEAR,NIGHT_CLEAR,NIGHT_CLEAR,CLEAR,CLEAR,CLEAR,CLEAR,CLEAR,CLEAR,CLEAR,CLEAR","Offshore,Offshore,Cross-shore,Offshore,Offshore,Cross-shore,Offshore,Offshore,Cross-shore,Onshore,Onshore,Onshore,Onshore,Onshore",14
5842041f4e65fad6a7708828,2023_12_10,34.272041739333,-119.2997646331,C St.,1.5235714285714286,0.10059285714285715,0.40542142857142854,16,16,"NIGHT_CLEAR,NIGHT_CLEAR,NIGHT_CLEAR,NIGHT_CLEAR,NIGHT_CLEAR,NIGHT_CLEAR,CLEAR,CLEAR,CLEAR,CLEAR,CLEAR,CLEAR,CLEAR,CLEAR","Offshore,Offshore,Offshore,Offshore,Offshore,Offshore,Offshore,Offshore,Offshore,Offshore,Cross-shore,Cross-shore,Cross-shore,Cross-shore",14
5842041f4e65fad6a770882a,2023_12_10,33.61555743705257,-117.93676,Newport Lower Jetties,2,0.19499047619047621,0.5009952380952382,17,17,"NIGHT_CLEAR,NIGHT_CLEAR,NIGHT_CLEAR,NIGHT_CLEAR,NIGHT_CLEAR,NIGHT_CLEAR,CLEAR,CLEAR,CLEAR,CLEAR,CLEAR,CLEAR,CLEAR,CLEAR","Offshore,Offshore,Offshore,Offshore,Offshore,Offshore,Offshore,Offshore,Cross-shore,Onshore,Onshore,Onshore,Onshore,Cross-shore",14
5842041f4e65fad6a770882b,2023_12_10,33.5930302087,-117.88199,The Wedge,1.4285714285714286,0.156505,0.5876192857142857,17,17,"NIGHT_CLEAR,NIGHT_CLEAR,NIGHT_CLEAR,NIGHT_CLEAR,NIGHT_CLEAR,NIGHT_CLEAR,CLEAR,CLEAR,CLEAR,CLEAR,CLEAR,CLEAR,CLEAR,CLEAR","Offshore,Offshore,Offshore,Offshore,Offshore,Offshore,Cross-shore,Offshore,Offshore,Onshore,Onshore,Onshore,Onshore,Onshore",14
5842041f4e65fad6a770882c,2023_12_10,33.60577342582,-117.9315376281,Newport Beach Pier,1.9642857142857142,0.18784761904761907,0.4903404761904762,17,17,"NIGHT_CLEAR,NIGHT_CLEAR,NIGHT_CLEAR,NIGHT_CLEAR,NIGHT_CLEAR,NIGHT_CLEAR,CLEAR,CLEAR,CLEAR,CLEAR,CLEAR,CLEAR,CLEAR,CLEAR","Offshore,Offshore,Offshore,Cross-shore,Offshore,Offshore,Cross-shore,Onshore,Onshore,Onshore,Onshore,Onshore,Onshore,Onshore",14
5842041f4e65fad6a770882e,2023_12_10,33.475793399792984,-117.72291,Salt Creek,2.857142857142857,0.444002380952381,0.7501404761904762,17,17,"NIGHT_CLEAR,NIGHT_CLEAR,NIGHT_CLEAR,NIGHT_CLEAR,NIGHT_CLEAR,NIGHT_CLEAR,CLEAR,CLEAR,CLEAR,CLEAR,CLEAR,CLEAR,CLEAR,CLEAR","Offshore,Offshore,Offshore,Offshore,Offshore,Offshore,Offshore,Offshore,Onshore,Onshore,Onshore,Onshore,Onshore,Onshore",14
5842041f4e65fad6a7708830,2023_12_10,33.41800974113613,-117.61952,T-Street,2.405,0.4360261904761905,0.7399476190476191,17,17,"NIGHT_CLEAR,NIGHT_CLEAR,NIGHT_CLEAR,NIGHT_CLEAR,NIGHT_CLEAR,NIGHT_CLEAR,CLEAR,CLEAR,CLEAR,CLEAR,CLEAR,CLEAR,CLEAR,CLEAR","Offshore,Offshore,Offshore,Offshore,Offshore,Offshore,Offshore,Offshore,Cross-shore,Onshore,Cross-shore,Cross-shore,Onshore,Cross-shore",14
5842041f4e65fad6a7708832,2023_12_10,33.202391008646,-117.39475,Oceanside Harbor,2.2385714285714284,0.5880404761904762,0.8941833333333333,17,17,"NIGHT_CLEAR,NIGHT_CLEAR,NIGHT_CLEAR,NIGHT_CLEAR,NIGHT_CLEAR,NIGHT_CLEAR,CLEAR,CLEAR,CLEAR,CLEAR,CLEAR,CLEAR,CLEAR,CLEAR","Offshore,Offshore,Offshore,Offshore,Offshore,Offshore,Offshore,Offshore,Offshore,Offshore,Offshore,Cross-shore,Onshore,Onshore",14
5842041f4e65fad6a7708835,2023_12_10,33.19477795952803,-117.38667,Oceanside Pier,2.190714285714286,0.41100476190476193,0.7980761904761905,17,17,"NIGHT_CLEAR,NIGHT_CLEAR,NIGHT_CLEAR,NIGHT_CLEAR,NIGHT_CLEAR,NIGHT_CLEAR,CLEAR,CLEAR,CLEAR,CLEAR,CLEAR,CLEAR,CLEAR,CLEAR","Offshore,Offshore,Offshore,Offshore,Offshore,Offshore,Offshore,Offshore,Offshore,Offshore,Offshore,Offshore,Cross-shore,Onshore",14
5842041f4e65fad6a7708837,2023_12_10,33.14948100706,-117.35029,Tamarack,1.9285714285714286,0.12785714285714286,0.4342857142857143,16,16,"NIGHT_CLEAR,NIGHT_CLEAR,NIGHT_CLEAR,NIGHT_CLEAR,NIGHT_CLEAR,NIGHT_CLEAR,CLEAR,CLEAR,CLEAR,CLEAR,CLEAR,CLEAR,CLEAR,CLEAR","Offshore,Offshore,Offshore,Offshore,Offshore,Offshore,Offshore,Offshore,Offshore,Offshore,Offshore,Offshore,Cross-shore,Cross-shore",14
5842041f4e65fad6a7708839,2023_12_10,32.865777159358856,-117.25614295356122,Scripps,2.857142857142857,0.5505619047619048,0.9341404761904761,17,17,"NIGHT_CLEAR,NIGHT_CLEAR,NIGHT_CLEAR,NIGHT_CLEAR,NIGHT_CLEAR,NIGHT_CLEAR,CLEAR,CLEAR,CLEAR,CLEAR,CLEAR,CLEAR,CLEAR,CLEAR","Offshore,Offshore,Offshore,Offshore,Offshore,Offshore,Offshore,Offshore,Offshore,Cross-shore,Onshore,Onshore,Onshore,Onshore",14
5842041f4e65fad6a770883a,2023_12_10,32.813094,-117.27381,Birdrock,2.7857142857142856,0.4007142857142857,0.7057142857142857,16,16,"NIGHT_CLEAR,NIGHT_CLEAR,NIGHT_CLEAR,NIGHT_CLEAR,NIGHT_CLEAR,NIGHT_CLEAR,CLEAR,CLEAR,CLEAR,CLEAR,CLEAR,CLEAR,CLEAR,CLEAR","Offshore,Offshore,Offshore,Offshore,Offshore,Offshore,Offshore,Offshore,Offshore,Cross-shore,Cross-shore,Cross-shore,Cross-shore,Cross-shore",14
5842041f4e65fad6a770883b,2023_12_10,32.877231,-117.25303,Blacks,2.9042857142857144,0.7658452380952381,1.1520714285714286,17,17,"NIGHT_CLEAR,NIGHT_CLEAR,NIGHT_CLEAR,NIGHT_CLEAR,NIGHT_CLEAR,NIGHT_CLEAR,CLEAR,CLEAR,CLEAR,CLEAR,CLEAR,CLEAR,CLEAR,CLEAR","Offshore,Offshore,Offshore,Offshore,Offshore,Offshore,Offshore,Cross-shore,Cross-shore,Cross-shore,Offshore,Cross-shore,Onshore,Offshore",14
5842041f4e65fad6a770883c,2023_12_10,32.82978974229765,-117.28161740727381,Windansea,2.142857142857143,0.7335238095238095,1.0382404761904762,17,17,"NIGHT_CLEAR,NIGHT_CLEAR,NIGHT_CLEAR,NIGHT_CLEAR,NIGHT_CLEAR,NIGHT_CLEAR,CLEAR,CLEAR,CLEAR,CLEAR,CLEAR,CLEAR,CLEAR,CLEAR","Offshore,Offshore,Offshore,Offshore,Offshore,Offshore,Offshore,Offshore,Offshore,Onshore,Onshore,Onshore,Onshore,Onshore",14
5842041f4e65fad6a770883d,2023_12_10,32.838278,-117.28396,Horseshoe,2.642857142857143,0.4707142857142857,0.7742857142857142,16,16,"NIGHT_CLEAR,NIGHT_CLEAR,NIGHT_CLEAR,NIGHT_CLEAR,NIGHT_CLEAR,NIGHT_CLEAR,CLEAR,CLEAR,CLEAR,CLEAR,CLEAR,CLEAR,CLEAR,CLEAR","Offshore,Offshore,Offshore,Offshore,Offshore,Offshore,Offshore,Offshore,Offshore,Onshore,Cross-shore,Onshore,Onshore,Onshore",14
5842041f4e65fad6a770883f,2023_12_10,32.75034717673179,-117.25337,Ocean Beach,2.940714285714286,0.7610833333333333,1.146595238095238,17,17,"NIGHT_CLEAR,NIGHT_CLEAR,NIGHT_CLEAR,NIGHT_CLEAR,NIGHT_CLEAR,NIGHT_CLEAR,CLEAR,CLEAR,CLEAR,CLEAR,CLEAR,CLEAR,CLEAR,CLEAR","Offshore,Offshore,Offshore,Offshore,Offshore,Offshore,Offshore,Offshore,Offshore,Onshore,Onshore,Onshore,Onshore,Onshore",14
5842041f4e65fad6a7708840,2023_12_10,32.73693,-117.25718,Sunset Cliffs,2,0.42,0.7278571428571429,16,16,"NIGHT_CLEAR,NIGHT_CLEAR,NIGHT_CLEAR,NIGHT_CLEAR,NIGHT_CLEAR,NIGHT_CLEAR,CLEAR,CLEAR,CLEAR,CLEAR,CLEAR,CLEAR,CLEAR,CLEAR","Offshore,Offshore,Offshore,Offshore,Offshore,Offshore,Offshore,Offshore,Offshore,Onshore,Onshore,Onshore,Onshore,Onshore",14
5842041f4e65fad6a7708841,2023_12_10,32.796582258728826,-117.25779,Pacific Beach,2.9292857142857143,0.7453095238095238,1.0503238095238094,17,17,"NIGHT_CLEAR,NIGHT_CLEAR,NIGHT_CLEAR,NIGHT_CLEAR,NIGHT_CLEAR,NIGHT_CLEAR,CLEAR,CLEAR,CLEAR,CLEAR,CLEAR,CLEAR,CLEAR,CLEAR","Offshore,Offshore,Offshore,Offshore,Offshore,Offshore,Offshore,Offshore,Cross-shore,Cross-shore,Cross-shore,Cross-shore,Cross-shore,Cross-shore",14
5842041f4e65fad6a7708842,2023_12_10,32.776636,-117.25514,Mission Beach,2.857142857142857,0.7381071428571429,1.042347619047619,17,17,"NIGHT_CLEAR,NIGHT_CLEAR,NIGHT_CLEAR,NIGHT_CLEAR,NIGHT_CLEAR,NIGHT_CLEAR,CLEAR,CLEAR,CLEAR,CLEAR,CLEAR,CLEAR,CLEAR,CLEAR","Offshore,Offshore,Offshore,Offshore,Offshore,Offshore,Offshore,Offshore,Offshore,Onshore,Cross-shore,Onshore,Onshore,Onshore",14
5842041f4e65fad6a7708844,2023_12_10,32.577195519016,-117.13475,Imperial Beach Pier,2.642857142857143,0.5142857142857143,0.82,17,17,"NIGHT_CLEAR,NIGHT_CLEAR,NIGHT_CLEAR,NIGHT_CLEAR,NIGHT_CLEAR,NIGHT_CLEAR,CLEAR,CLEAR,CLEAR,CLEAR,CLEAR,CLEAR,CLEAR,CLEAR","Offshore,Offshore,Offshore,Offshore,Offshore,Offshore,Offshore,Offshore,Offshore,Cross-shore,Cross-shore,Onshore,Onshore,Onshore",14
5842041f4e65fad6a770884a,2023_12_10,42.88678181061,-70.80843,Seabrook,1.1664285714285714,0.3165209523809524,0.5715595238095238,7,6,"NIGHT_MIST,NIGHT_MIST,NIGHT_MIST,NIGHT_MIST,NIGHT_MIST,MIST,MIST,CLEAR,CLEAR,CLEAR,CLEAR,CLOUDY,RAIN,NIGHT_CLOUDY","Cross-shore,Cross-shore,Cross-shore,Cross-shore,Cross-shore,Cross-shore,Cross-shore,Cross-shore,Cross-shore,Cross-shore,Cross-shore,Onshore,Cross-shore,Cross-shore",14
5842041f4e65fad6a770884e,2023_12_10,41.434181432898335,-71.45312118111178,Narragansett,1.3214285714285714,0.25357380952380953,0.5585690476190476,9,8,"NIGHT_MIST,NIGHT_MIST,NIGHT_MIST,NIGHT_DRIZZLE,MIST,MIST,MIST,CLEAR,CLOUDY,OVERCAST,MIST,MIST,MIST,NIGHT_MIST","Onshore,Onshore,Onshore,Onshore,Onshore,Onshore,Onshore,Onshore,Onshore,Onshore,Onshore,Onshore,Onshore,Onshore",14
5842041f4e65fad6a7708850,2023_12_10,40.582703230722,-73.65247,Lincoln Blvd,0.5592857142857143,0.4440904761904762,0.7503238095238095,10,8,"NIGHT_MIST,NIGHT_MOSTLY_CLOUDY,NIGHT_MIST,NIGHT_MIST,NIGHT_MIST,MIST,MIST,MIST,LIGHT_RAIN,HEAVY_RAIN,MIST,LIGHT_RAIN,HEAVY_RAIN,NIGHT_LIGHT_RAIN","Onshore,Onshore,Onshore,Onshore,Onshore,Onshore,Onshore,Onshore,Onshore,Onshore,Onshore,Onshore,Onshore,Onshore",14
5842041f4e65fad6a7708852,2023_12_10,40.58342841721757,-73.81182,Rockaways,1.0357142857142858,0.32867380952380953,0.6329428571428571,10,8,"NIGHT_MIST,NIGHT_MOSTLY_CLOUDY,NIGHT_MIST,NIGHT_MIST,NIGHT_MIST,MIST,MIST,DRIZZLE,MIST,MIST,MIST,MIST,HEAVY_RAIN,NIGHT_RAIN","Onshore,Onshore,Onshore,Onshore,Onshore,Onshore,Onshore,Onshore,Onshore,Onshore,Onshore,Onshore,Onshore,Onshore",14
5842041f4e65fad6a7708853,2023_12_10,40.330474,-73.9734,Monmouth Beach,0.6785714285714286,0.31607142857142856,0.6222452380952381,9,8,"NIGHT_CLEAR,NIGHT_MOSTLY_CLOUDY,NIGHT_MIST,NIGHT_MIST,NIGHT_MIST,MIST,MOSTLY_CLOUDY,MOSTLY_CLOUDY,MOSTLY_CLOUDY,HEAVY_RAIN,MIST,LIGHT_RAIN,RAIN,NIGHT_DRIZZLE","Cross-shore,Cross-shore,Cross-shore,Cross-shore,Cross-shore,Cross-shore,Cross-shore,Cross-shore,Cross-shore,Cross-shore,Cross-shore,Cross-shore,Cross-shore,Cross-shore",14
5842041f4e65fad6a7708856,2023_12_10,40.113,-74.028,Manasquan Inlet,1.4521428571428572,0.3455190476190476,0.6484785714285715,9,8,"NIGHT_MOSTLY_CLOUDY,NIGHT_MOSTLY_CLOUDY,NIGHT_CLOUDY,NIGHT_MOSTLY_CLOUDY,NIGHT_MOSTLY_CLOUDY,MOSTLY_CLOUDY,OVERCAST,MOSTLY_CLOUDY,MOSTLY_CLOUDY,SHOWERS,MOSTLY_CLOUDY,LIGHT_RAIN,HEAVY_RAIN,NIGHT_OVERCAST","Cross-shore,Cross-shore,Cross-shore,Cross-shore,Cross-shore,Cross-shore,Cross-shore,Cross-shore,Cross-shore,Cross-shore,Cross-shore,Cross-shore,Cross-shore,Cross-shore",14
5842041f4e65fad6a7708857,2023_12_10,39.941519877445664,-74.06829,Casino Pier,0.8092857142857143,0.36426904761904766,0.6706214285714286,9,8,"NIGHT_CLEAR,NIGHT_CLEAR,NIGHT_MIST,NIGHT_MIST,NIGHT_CLEAR,MIST,MIST,MIST,HEAVY_SHOWERS,BRIEF_SHOWERS,DRIZZLE,DRIZZLE,LIGHT_SHOWERS_POSSIBLE,NIGHT_LIGHT_RAIN","Cross-shore,Cross-shore,Cross-shore,Cross-shore,Cross-shore,Cross-shore,Cross-shore,Cross-shore,Cross-shore,Cross-shore,Cross-shore,Cross-shore,Cross-shore,Cross-shore",14
5842041f4e65fad6a7708858,2023_12_10,39.28223089949212,-74.55766,North End OC,1.2971428571428572,0.578654761904762,0.8834904761904763,9,8,"NIGHT_CLOUDY,NIGHT_CLEAR,NIGHT_CLEAR,NIGHT_CLEAR,NIGHT_MIST,MIST,MIST,MIST,MIST,LIGHT_RAIN,MIST,MIST,DRIZZLE,NIGHT_MIST","Cross-shore,Onshore,Onshore,Onshore,Onshore,Onshore,Cross-shore,Onshore,Onshore,Cross-shore,Cross-shore,Onshore,Onshore,Cross-shore",14
5842041f4e65fad6a770885b,2023_12_10,39.65080599934257,-74.17146,Ship Bottom,1,0.49610000000000004,0.8029,9,8,"NIGHT_MOSTLY_CLOUDY,NIGHT_MOSTLY_CLOUDY,NIGHT_MIST,NIGHT_MIST,NIGHT_MIST,MIST,MIST,MIST,MIST,MIST,MIST,RAIN,LIGHT_RAIN,NIGHT_RAIN","Onshore,Onshore,Onshore,Onshore,Onshore,Onshore,Onshore,Onshore,Onshore,Onshore,Onshore,Onshore,Onshore,Onshore",14
5842041f4e65fad6a7708863,2023_12_10,36.034151543144,-75.66791,Third Street,1.4757142857142858,0.27595714285714285,0.5817357142857144,13.142857142857142,12.142857142857142,"NIGHT_CLEAR,NIGHT_CLEAR,NIGHT_CLEAR,NIGHT_MOSTLY_CLEAR,NIGHT_MOSTLY_CLOUDY,OVERCAST,MOSTLY_CLEAR,MOSTLY_CLEAR,CLEAR,SHOWERS,MOSTLY_CLOUDY,CLEAR,MOSTLY_CLOUDY,NIGHT_CLEAR","Cross-shore,Cross-shore,Cross-shore,Cross-shore,Cross-shore,Cross-shore,Cross-shore,Cross-shore,Cross-shore,Offshore,Offshore,Offshore,Offshore,Cross-shore",14
5842041f4e65fad6a7708867,2023_12_10,35.605833221351425,-75.46303,S-Turns,0.8814285714285715,0.6473857142857143,0.9374428571428571,13.714285714285714,12.714285714285714,"NIGHT_CLEAR,NIGHT_CLEAR,NIGHT_CLEAR,NIGHT_MOSTLY_CLOUDY,MIST,MIST,MOSTLY_CLEAR,MIST,MIST,CLEAR,MIST,MOSTLY_CLEAR,BRIEF_SHOWERS,NIGHT_MOSTLY_CLOUDY","Cross-shore,Cross-shore,Cross-shore,Cross-shore,Cross-shore,Cross-shore,Cross-shore,Cross-shore,Cross-shore,Cross-shore,Cross-shore,Cross-shore,Cross-shore,Cross-shore",14
5842041f4e65fad6a770886d,2023_12_10,38.338461,-75.08117,Ocean City Boardwalk,0.9878571428571429,0.46825714285714287,0.7705619047619048,11,9,"NIGHT_CLEAR,NIGHT_CLEAR,NIGHT_CLEAR,NIGHT_CLEAR,NIGHT_OVERCAST,MIST,MIST,MIST,MIST,MIST,MIST,MIST,MIST,NIGHT_MIST","Cross-shore,Cross-shore,Cross-shore,Cross-shore,Cross-shore,Cross-shore,Cross-shore,Cross-shore,Cross-shore,Cross-shore,Cross-shore,Cross-shore,Cross-shore,Cross-shore",14
5842041f4e65fad6a770886f,2023_12_10,29.844757212379562,-81.26136,A St.,2,0.4592857142857143,0.7642857142857142,18,18,"NIGHT_CLEAR,NIGHT_MOSTLY_CLEAR,NIGHT_CLEAR,NIGHT_CLEAR,NIGHT_CLEAR,CLEAR,MOSTLY_CLEAR,CLEAR,CLEAR,CLEAR,CLEAR,CLEAR,CLEAR,CLOUDY","Cross-shore,Cross-shore,Cross-shore,Cross-shore,Cross-shore,Cross-shore,Cross-shore,Cross-shore,Cross-shore,Cross-shore,Cross-shore,Cross-shore,Cross-shore,Cross-shore",14
5842041f4e65fad6a7708871,2023_12_10,29.069417851135093,-80.90824,New Smyrna Beach,2.5242857142857145,0.6472714285714286,1.0401357142857144,19.571428571428573,17.571428571428573,"NIGHT_CLEAR,NIGHT_CLEAR,NIGHT_CLEAR,NIGHT_CLEAR,NIGHT_CLEAR,MOSTLY_CLOUDY,CLEAR,CLEAR,CLEAR,CLEAR,CLEAR,CLEAR,MOSTLY_CLOUDY,CLEAR","Cross-shore,Cross-shore,Cross-shore,Cross-shore,Offshore,Cross-shore,Cross-shore,Cross-shore,Cross-shore,Cross-shore,Cross-shore,Cross-shore,Offshore,Cross-shore",14
5842041f4e65fad6a7708872,2023_12_10,28.367707417566,-80.60171,Cocoa Beach Pier,1.4042857142857144,0.36505000000000004,0.6677785714285714,21,20.571428571428573,"NIGHT_CLEAR,NIGHT_MOSTLY_CLEAR,NIGHT_CLEAR,NIGHT_MOSTLY_CLEAR,NIGHT_CLEAR,BRIEF_SHOWERS,CLEAR,CLEAR,CLEAR,CLEAR,OVERCAST,CLEAR,MOSTLY_CLOUDY,MOSTLY_CLOUDY","Onshore,Onshore,Onshore,Onshore,Cross-shore,Cross-shore,Cross-shore,Cross-shore,Onshore,Onshore,Onshore,Onshore,Cross-shore,Cross-shore",14
5842041f4e65fad6a7708873,2023_12_10,28.091782738658846,-80.56479,Indialantic,2,0.5952785714285714,0.9603785714285714,22,21,"NIGHT_CLEAR,NIGHT_CLEAR,NIGHT_CLEAR,NIGHT_CLEAR,NIGHT_MOSTLY_CLEAR,CLEAR,CLEAR,CLEAR,CLEAR,CLOUDY,CLEAR,CLEAR,CLEAR,CLEAR","Onshore,Cross-shore,Cross-shore,Cross-shore,Cross-shore,Cross-shore,Cross-shore,Cross-shore,Cross-shore,Onshore,Cross-shore,Cross-shore,Cross-shore,Cross-shore",14
5842041f4e65fad6a7708876,2023_12_10,27.25392904143517,-80.19455,Jensen Beach,1,0.5402095238095238,0.8460238095238095,24,23,"NIGHT_CLEAR,NIGHT_MOSTLY_CLEAR,NIGHT_CLOUDY,NIGHT_MOSTLY_CLEAR,MOSTLY_CLOUDY,MOSTLY_CLEAR,MOSTLY_CLEAR,CLEAR,CLEAR,CLOUDY,MOSTLY_CLOUDY,MOSTLY_CLOUDY,CLEAR,CLEAR","Onshore,Onshore,Onshore,Cross-shore,Cross-shore,Cross-shore,Cross-shore,Cross-shore,Cross-shore,Cross-shore,Cross-shore,Cross-shore,Cross-shore,Cross-shore",14
5842041f4e65fad6a7708879,2023_12_10,26.76346795333825,-80.0360655784607,Reef Road,1,0.43233000000000005,0.7375966666666667,25,24,"NIGHT_CLEAR,NIGHT_MOSTLY_CLEAR,NIGHT_MOSTLY_CLOUDY,NIGHT_MOSTLY_CLOUDY,CLEAR,MOSTLY_CLOUDY,MOSTLY_CLOUDY,CLEAR,MOSTLY_CLOUDY,CLEAR,CLEAR,CLEAR,MOSTLY_CLOUDY,CLEAR","Onshore,Onshore,Onshore,Onshore,Onshore,Onshore,Onshore,Cross-shore,Cross-shore,Cross-shore,Cross-shore,Cross-shore,Cross-shore,Cross-shore",14
5842041f4e65fad6a770887c,2023_12_10,26.336499228484,-80.06956100463,Boca Raton Inlet,1,0.3076,0.6126404761904762,25,24,"NIGHT_MOSTLY_CLEAR,NIGHT_MOSTLY_CLEAR,NIGHT_MOSTLY_CLOUDY,NIGHT_MOSTLY_CLOUDY,MOSTLY_CLEAR,CLEAR,MOSTLY_CLOUDY,CLEAR,CLEAR,CLEAR,CLEAR,MOSTLY_CLOUDY,MOSTLY_CLOUDY,CLEAR","Onshore,Onshore,Onshore,Onshore,Onshore,Onshore,Onshore,Onshore,Onshore,Onshore,Onshore,Onshore,Onshore,Cross-shore",14
5842041f4e65fad6a770887d,2023_12_10,26.31719311695038,-80.07452525176168,Deerfield Beach Pier,1,0.2939513690476191,0.5221297619047619,26,24,"NIGHT_CLEAR,NIGHT_CLEAR,NIGHT_MOSTLY_CLOUDY,NIGHT_MOSTLY_CLOUDY,MOSTLY_CLOUDY,CLEAR,MOSTLY_CLOUDY,CLEAR,CLEAR,CLEAR,CLEAR,MOSTLY_CLOUDY,MOSTLY_CLOUDY,CLEAR","Onshore,Onshore,Onshore,Onshore,Onshore,Onshore,Onshore,Onshore,Onshore,Onshore,Onshore,Cross-shore,Onshore,Cross-shore",14
5842041f4e65fad6a7708881,2023_12_10,30.20276320866628,-85.85626528676136,"Spyglass Dr., Panama City",1,0.38642857142857145,0.6935714285714285,18,17,"NIGHT_MIST,NIGHT_MIST,NIGHT_MOSTLY_CLOUDY,NIGHT_DRIZZLE,NIGHT_OVERCAST,MIST,MIST,BRIEF_SHOWERS_POSSIBLE,CLEAR,LIGHT_RAIN,OVERCAST,MOSTLY_CLOUDY,OVERCAST,OVERCAST","Onshore,Onshore,Onshore,Onshore,Onshore,Onshore,Onshore,Onshore,Onshore,Onshore,Cross-shore,Cross-shore,Cross-shore,Offshore",14
5842041f4e65fad6a7708884,2023_12_10,33.39000832738053,-117.59852,Cottons,2.25,0.44257380952380954,0.7484,17,17,"NIGHT_CLEAR,NIGHT_CLEAR,NIGHT_CLEAR,NIGHT_CLEAR,NIGHT_CLEAR,NIGHT_CLEAR,CLEAR,CLEAR,CLEAR,CLEAR,CLEAR,CLEAR,CLEAR,CLEAR","Cross-shore,Offshore,Offshore,Offshore,Offshore,Cross-shore,Cross-shore,Offshore,Offshore,Cross-shore,Onshore,Onshore,Onshore,Onshore",14
5842041f4e65fad6a7708885,2023_12_10,33.359416282661,-117.54167901405711,Trails,2,0.12642857142857142,0.43285714285714283,17,17,"NIGHT_CLEAR,NIGHT_CLEAR,NIGHT_CLEAR,NIGHT_CLEAR,NIGHT_CLEAR,NIGHT_CLEAR,CLEAR,CLEAR,CLEAR,CLEAR,CLEAR,CLEAR,CLEAR,CLEAR","Offshore,Offshore,Offshore,Offshore,Offshore,Offshore,Offshore,Offshore,Offshore,Cross-shore,Onshore,Onshore,Onshore,Onshore",14
5842041f4e65fad6a7708886,2023_12_10,33.38042605929805,-117.58332,Middles,2.262142857142857,0.4011761904761905,0.7029547619047619,17,17,"NIGHT_CLEAR,NIGHT_CLEAR,NIGHT_CLEAR,NIGHT_CLEAR,NIGHT_CLEAR,NIGHT_CLEAR,CLEAR,CLEAR,CLEAR,CLEAR,CLEAR,CLEAR,CLEAR,CLEAR","Cross-shore,Offshore,Offshore,Offshore,Offshore,Offshore,Offshore,Offshore,Offshore,Onshore,Onshore,Onshore,Onshore,Onshore",14
5842041f4e65fad6a7708887,2023_12_10,33.38445596302903,-117.59445,Upper Trestles,2.869285714285714,0.47644285714285717,0.7804238095238095,17,17,"NIGHT_CLEAR,NIGHT_CLEAR,NIGHT_CLEAR,NIGHT_CLEAR,NIGHT_CLEAR,NIGHT_CLEAR,CLEAR,CLEAR,CLEAR,CLEAR,CLEAR,CLEAR,CLEAR,CLEAR","Cross-shore,Offshore,Offshore,Offshore,Offshore,Offshore,Offshore,Offshore,Offshore,Onshore,Onshore,Cross-shore,Onshore,Onshore",14
5842041f4e65fad6a7708889,2023_12_10,28.944414,-95.28883,Surfside,1,0.22050357142857144,0.3445371428571429,17,17,"NIGHT_CLEAR,NIGHT_MOSTLY_CLOUDY,NIGHT_MOSTLY_CLEAR,NIGHT_CLEAR,NIGHT_CLEAR,NIGHT_CLEAR,CLEAR,CLEAR,CLEAR,CLEAR,CLEAR,CLEAR,CLEAR,CLEAR","Offshore,Offshore,Offshore,Offshore,Offshore,Offshore,Offshore,Offshore,Offshore,Offshore,Offshore,Offshore,Offshore,Offshore",14
5842041f4e65fad6a770888a,2023_12_10,33.38143999849023,-117.58843,Lower Trestles,2.25,0.46918095238095237,0.7729833333333334,17,17,"NIGHT_CLEAR,NIGHT_CLEAR,NIGHT_CLEAR,NIGHT_CLEAR,NIGHT_CLEAR,NIGHT_CLEAR,CLEAR,CLEAR,CLEAR,CLEAR,CLEAR,CLEAR,CLEAR,CLEAR","Cross-shore,Offshore,Offshore,Offshore,Offshore,Offshore,Offshore,Offshore,Offshore,Onshore,Onshore,Cross-shore,Onshore,Onshore",14
5842041f4e65fad6a770888b,2023_12_10,33.379622288757,-117.57894,Church,2.31,0.42599761904761907,0.7325380952380952,17,17,"NIGHT_CLEAR,NIGHT_CLEAR,NIGHT_CLEAR,NIGHT_CLEAR,NIGHT_CLEAR,NIGHT_CLEAR,CLEAR,CLEAR,CLEAR,CLEAR,CLEAR,CLEAR,CLEAR,CLEAR","Cross-shore,Offshore,Offshore,Offshore,Offshore,Cross-shore,Offshore,Offshore,Offshore,Onshore,Onshore,Onshore,Onshore,Onshore",14
5842041f4e65fad6a770888d,2023_12_10,21.679,-158.042,Sunset Beach,3.737857142857143,2.069047619047619,2.5663095238095237,26,25,"NIGHT_BRIEF_SHOWERS,NIGHT_CLEAR,NIGHT_MOSTLY_CLEAR,NIGHT_BRIEF_SHOWERS,NIGHT_CLEAR,NIGHT_MOSTLY_CLEAR,NIGHT_BRIEF_SHOWERS_POSSIBLE,NIGHT_CLEAR,CLEAR,CLEAR,CLEAR,MOSTLY_CLEAR,MOSTLY_CLOUDY,CLEAR","Offshore,Offshore,Offshore,Cross-shore,Cross-shore,Offshore,Offshore,Cross-shore,Offshore,Cross-shore,Onshore,Cross-shore,Offshore,Offshore",14
5842041f4e65fad6a770888e,2023_12_10,21.670550036401,-158.0482,Rocky Point,3.892857142857143,2.003452380952381,2.4785714285714286,26,25,"NIGHT_SHOWERS,NIGHT_MOSTLY_CLEAR,NIGHT_CLEAR,NIGHT_CLEAR,NIGHT_MOSTLY_CLEAR,NIGHT_BRIEF_SHOWERS_POSSIBLE,NIGHT_CLEAR,NIGHT_CLEAR,CLEAR,CLEAR,CLEAR,CLEAR,CLEAR,BRIEF_SHOWERS","Offshore,Onshore,Onshore,Cross-shore,Offshore,Offshore,Cross-shore,Cross-shore,Offshore,Offshore,Onshore,Cross-shore,Offshore,Offshore",14
5842041f4e65fad6a770888f,2023_12_10,21.668,-158.05,Chambers,3.7857142857142856,2.125,2.5335714285714284,25.714285714285715,25.714285714285715,"NIGHT_SHOWERS,NIGHT_MOSTLY_CLEAR,NIGHT_CLEAR,NIGHT_CLEAR,NIGHT_MOSTLY_CLEAR,NIGHT_BRIEF_SHOWERS_POSSIBLE,NIGHT_CLEAR,NIGHT_CLEAR,CLEAR,CLEAR,CLEAR,CLEAR,CLEAR,BRIEF_SHOWERS","Offshore,Onshore,Onshore,Cross-shore,Offshore,Offshore,Cross-shore,Cross-shore,Offshore,Onshore,Onshore,Cross-shore,Offshore,Offshore",14
5842041f4e65fad6a7708890,2023_12_10,21.66522,-158.0526,Pipeline,3.107142857142857,1.5744047619047619,2.0326190476190478,26,25,"NIGHT_SHOWERS,NIGHT_MOSTLY_CLEAR,NIGHT_CLEAR,NIGHT_CLEAR,NIGHT_MOSTLY_CLEAR,NIGHT_BRIEF_SHOWERS_POSSIBLE,NIGHT_CLEAR,NIGHT_CLEAR,CLEAR,CLEAR,CLEAR,CLEAR,CLEAR,BRIEF_SHOWERS","Offshore,Onshore,Onshore,Cross-shore,Offshore,Offshore,Cross-shore,Cross-shore,Offshore,Onshore,Onshore,Cross-shore,Offshore,Cross-shore",14
5842041f4e65fad6a7708891,2023_12_10,21.665,-158.054,Backdoor,3.9285714285714284,1.7621428571428572,2.0714285714285716,25.714285714285715,25.714285714285715,"NIGHT_SHOWERS,NIGHT_MOSTLY_CLEAR,NIGHT_CLEAR,NIGHT_CLEAR,NIGHT_MOSTLY_CLEAR,NIGHT_BRIEF_SHOWERS_POSSIBLE,NIGHT_CLEAR,NIGHT_CLEAR,CLEAR,CLEAR,CLEAR,CLEAR,CLEAR,BRIEF_SHOWERS","Cross-shore,Offshore,Onshore,Cross-shore,Offshore,Offshore,Cross-shore,Cross-shore,Offshore,Cross-shore,Onshore,Cross-shore,Cross-shore,Cross-shore",14
5842041f4e65fad6a7708892,2023_12_10,21.662,-158.057,Rockpile,3.5,2.317142857142857,2.744285714285714,26,26,"NIGHT_SHOWERS,NIGHT_MOSTLY_CLEAR,NIGHT_CLEAR,NIGHT_CLEAR,NIGHT_MOSTLY_CLEAR,NIGHT_BRIEF_SHOWERS_POSSIBLE,NIGHT_CLEAR,NIGHT_CLEAR,CLEAR,CLEAR,CLEAR,CLEAR,CLEAR,BRIEF_SHOWERS","Cross-shore,Onshore,Onshore,Cross-shore,Offshore,Offshore,Cross-shore,Offshore,Offshore,Onshore,Onshore,Cross-shore,Offshore,Cross-shore",14
5842041f4e65fad6a7708893,2023_12_10,21.65870453806827,-158.06058,Log Cabins,3.2857142857142856,1.9657142857142857,2.347857142857143,26,26,"NIGHT_SHOWERS,NIGHT_MOSTLY_CLEAR,NIGHT_CLEAR,NIGHT_CLEAR,NIGHT_MOSTLY_CLEAR,NIGHT_BRIEF_SHOWERS_POSSIBLE,NIGHT_CLEAR,NIGHT_CLEAR,CLEAR,CLEAR,CLEAR,CLEAR,CLEAR,BRIEF_SHOWERS","Cross-shore,Offshore,Onshore,Cross-shore,Offshore,Offshore,Cross-shore,Cross-shore,Offshore,Cross-shore,Onshore,Cross-shore,Offshore,Cross-shore",14
5842041f4e65fad6a7708894,2023_12_10,21.66203493640557,-158.05495,Off-The-Wall,3.7857142857142856,2.185,2.612857142857143,25.714285714285715,25.714285714285715,"NIGHT_SHOWERS,NIGHT_MOSTLY_CLEAR,NIGHT_CLEAR,NIGHT_CLEAR,NIGHT_MOSTLY_CLEAR,NIGHT_BRIEF_SHOWERS_POSSIBLE,NIGHT_CLEAR,NIGHT_CLEAR,CLEAR,CLEAR,CLEAR,CLEAR,CLEAR,BRIEF_SHOWERS","Cross-shore,Onshore,Onshore,Cross-shore,Offshore,Offshore,Cross-shore,Offshore,Offshore,Onshore,Onshore,Cross-shore,Cross-shore,Cross-shore",14
5842041f4e65fad6a7708895,2023_12_10,21.643,-158.067,Waimea Bay,NA,2.3235714285714284,2.775714285714286,26,25,"NIGHT_SHOWERS,NIGHT_MOSTLY_CLEAR,NIGHT_CLEAR,NIGHT_CLEAR,NIGHT_MOSTLY_CLEAR,NIGHT_BRIEF_SHOWERS_POSSIBLE,NIGHT_CLEAR,NIGHT_CLEAR,CLEAR,CLEAR,CLEAR,CLEAR,CLEAR,BRIEF_SHOWERS","Offshore,Onshore,Onshore,Cross-shore,Offshore,Offshore,Cross-shore,Offshore,Offshore,Onshore,Onshore,Cross-shore,Offshore,Offshore",14
5842041f4e65fad6a7708896,2023_12_10,21.622,-158.087,Hultin's,4,1.9413095238095237,2.345595238095238,26,25,"NIGHT_CLEAR,NIGHT_CLEAR,NIGHT_CLEAR,NIGHT_CLEAR,NIGHT_CLEAR,NIGHT_CLEAR,NIGHT_CLEAR,NIGHT_CLEAR,CLEAR,CLEAR,CLEAR,CLEAR,CLEAR,CLEAR","Offshore,Offshore,Offshore,Offshore,Offshore,Offshore,Offshore,Offshore,Offshore,Offshore,Offshore,Offshore,Offshore,Offshore",14
5842041f4e65fad6a7708897,2023_12_10,21.623,-158.085,Jocko's,3,1.9857142857142858,2.3635714285714284,26,26,"NIGHT_CLEAR,NIGHT_CLEAR,NIGHT_CLEAR,NIGHT_CLEAR,NIGHT_CLEAR,NIGHT_CLEAR,NIGHT_CLEAR,NIGHT_CLEAR,CLEAR,CLEAR,CLEAR,CLEAR,CLEAR,CLEAR","Cross-shore,Cross-shore,Cross-shore,Onshore,Cross-shore,Cross-shore,Cross-shore,Cross-shore,Cross-shore,Cross-shore,Cross-shore,Cross-shore,Cross-shore,Cross-shore",14
5842041f4e65fad6a7708898,2023_12_10,21.62,-158.088,Laniakea,3.5357142857142856,2.0804761904761904,2.550952380952381,26,25,"NIGHT_CLEAR,NIGHT_CLEAR,NIGHT_CLEAR,NIGHT_CLEAR,NIGHT_CLEAR,NIGHT_CLEAR,NIGHT_CLEAR,NIGHT_CLEAR,CLEAR,CLEAR,CLEAR,CLEAR,CLEAR,CLEAR","Cross-shore,Offshore,Cross-shore,Cross-shore,Offshore,Offshore,Offshore,Offshore,Offshore,Offshore,Offshore,Offshore,Offshore,Offshore",14
5842041f4e65fad6a7708899,2023_12_10,21.625,-158.083,Chun's,4,1.9849999999999999,2.374285714285714,26,26,"NIGHT_CLEAR,NIGHT_CLEAR,NIGHT_CLEAR,NIGHT_CLEAR,NIGHT_CLEAR,NIGHT_CLEAR,NIGHT_CLEAR,NIGHT_CLEAR,CLEAR,CLEAR,CLEAR,CLEAR,CLEAR,CLEAR","Offshore,Offshore,Offshore,Offshore,Offshore,Offshore,Offshore,Offshore,Offshore,Offshore,Offshore,Offshore,Offshore,Offshore",14
5842041f4e65fad6a770889c,2023_12_10,21.286357895152136,-157.8515,South Shore - Ala Moana Park,2.142857142857143,0.3692857142857143,0.6721428571428572,25.714285714285715,25.714285714285715,"NIGHT_MOSTLY_CLOUDY,NIGHT_MOSTLY_CLEAR,NIGHT_MOSTLY_CLOUDY,NIGHT_CLEAR,NIGHT_MOSTLY_CLOUDY,NIGHT_CLEAR,NIGHT_CLEAR,NIGHT_CLEAR,CLEAR,CLEAR,CLEAR,CLEAR,CLEAR,CLEAR","Offshore,Offshore,Offshore,Offshore,Offshore,Offshore,Offshore,Offshore,Offshore,Offshore,Offshore,Offshore,Offshore,Offshore",14
5842041f4e65fad6a770889d,2023_12_10,19.606,-155.978,Banyans,2.940714285714286,0.5232142857142857,0.8291666666666666,26,25,"NIGHT_MOSTLY_CLEAR,NIGHT_MOSTLY_CLEAR,NIGHT_CLEAR,NIGHT_CLEAR,NIGHT_CLEAR,NIGHT_CLEAR,NIGHT_CLEAR,NIGHT_CLEAR,CLEAR,CLEAR,CLEAR,CLEAR,CLEAR,CLEAR","Offshore,Onshore,Onshore,Cross-shore,Cross-shore,Cross-shore,Offshore,Cross-shore,Cross-shore,Onshore,Onshore,Onshore,Onshore,Onshore",14
5842041f4e65fad6a770889e,2023_12_10,20.029,-155.831,Kawaihae,2,0.4444,0.6101442857142857,26,26,"NIGHT_CLEAR,NIGHT_MOSTLY_CLEAR,NIGHT_CLEAR,NIGHT_CLEAR,NIGHT_CLEAR,NIGHT_CLEAR,NIGHT_CLEAR,NIGHT_CLEAR,CLEAR,CLEAR,CLEAR,CLEAR,CLEAR,CLEAR","Cross-shore,Cross-shore,Cross-shore,Cross-shore,Cross-shore,Cross-shore,Cross-shore,Offshore,Offshore,Offshore,Onshore,Onshore,Onshore,Onshore",14
5842041f4e65fad6a770889f,2023_12_10,33.07541383424675,-117.3105,Grandview,2.2142857142857144,0.2392857142857143,0.545,16.285714285714285,16.285714285714285,"NIGHT_CLEAR,NIGHT_CLEAR,NIGHT_CLEAR,NIGHT_CLEAR,NIGHT_CLEAR,NIGHT_CLEAR,CLEAR,CLEAR,CLEAR,CLEAR,CLEAR,CLEAR,CLEAR,CLEAR","Offshore,Offshore,Offshore,Offshore,Offshore,Offshore,Offshore,Offshore,Offshore,Onshore,Onshore,Onshore,Onshore,Onshore",14
5842041f4e65fad6a77088a0,2023_12_10,33.065267421296596,-117.30577,Beacons,2.142857142857143,0.23714285714285716,0.5414285714285714,16.285714285714285,16.285714285714285,"NIGHT_CLEAR,NIGHT_CLEAR,NIGHT_CLEAR,NIGHT_CLEAR,NIGHT_CLEAR,NIGHT_CLEAR,CLEAR,CLEAR,CLEAR,CLEAR,CLEAR,CLEAR,CLEAR,CLEAR","Offshore,Offshore,Offshore,Offshore,Offshore,Offshore,Offshore,Offshore,Offshore,Onshore,Onshore,Onshore,Onshore,Onshore",14
5842041f4e65fad6a77088a2,2023_12_10,21.252,-157.805,Diamond Head,2.75,0.5981508333333333,0.9159415476190477,26,25,"NIGHT_CLEAR,NIGHT_CLEAR,NIGHT_MOSTLY_CLOUDY,NIGHT_BRIEF_SHOWERS,NIGHT_CLEAR,NIGHT_MOSTLY_CLOUDY,NIGHT_CLEAR,NIGHT_MOSTLY_CLOUDY,BRIEF_SHOWERS,MOSTLY_CLOUDY,MOSTLY_CLOUDY,MOSTLY_CLOUDY,CLEAR,CLEAR","Cross-shore,Cross-shore,Cross-shore,Cross-shore,Cross-shore,Cross-shore,Cross-shore,Cross-shore,Cross-shore,Cross-shore,Cross-shore,Cross-shore,Cross-shore,Cross-shore",14
5842041f4e65fad6a77088a3,2023_12_10,33.04694255008896,-117.29966,Moonlight State Beach,2.2142857142857144,0.235,0.5392857142857143,16.285714285714285,16.285714285714285,"NIGHT_CLEAR,NIGHT_CLEAR,NIGHT_CLEAR,NIGHT_CLEAR,NIGHT_CLEAR,NIGHT_CLEAR,CLEAR,CLEAR,CLEAR,CLEAR,CLEAR,CLEAR,CLEAR,CLEAR","Offshore,Offshore,Offshore,Offshore,Offshore,Offshore,Offshore,Offshore,Cross-shore,Onshore,Onshore,Onshore,Cross-shore,Onshore",14
5842041f4e65fad6a77088a5,2023_12_10,33.08685865930869,-117.31532,Ponto,2.5,0.33714285714285713,0.64,16.285714285714285,16.285714285714285,"NIGHT_CLEAR,NIGHT_CLEAR,NIGHT_CLEAR,NIGHT_CLEAR,NIGHT_CLEAR,NIGHT_CLEAR,CLEAR,CLEAR,CLEAR,CLEAR,CLEAR,CLEAR,CLEAR,CLEAR","Offshore,Offshore,Offshore,Offshore,Offshore,Offshore,Offshore,Offshore,Offshore,Onshore,Onshore,Cross-shore,Onshore,Onshore",14
5842041f4e65fad6a77088a6,2023_12_10,33.130343587871906,-117.33667796442558,Terra Mar Point,2.0714285714285716,0.37960476190476194,0.6833071428571429,17,17,"NIGHT_CLEAR,NIGHT_CLEAR,NIGHT_CLEAR,NIGHT_CLEAR,NIGHT_CLEAR,NIGHT_CLEAR,CLEAR,CLEAR,CLEAR,CLEAR,CLEAR,CLEAR,CLEAR,CLEAR","Offshore,Offshore,Offshore,Offshore,Offshore,Offshore,Offshore,Offshore,Offshore,Offshore,Offshore,Offshore,Cross-shore,Cross-shore",14
5842041f4e65fad6a77088af,2023_12_10,32.95916304183685,-117.26963,Del Mar,2.7142857142857144,0.39,0.6942857142857143,16,16,"NIGHT_CLEAR,NIGHT_CLEAR,NIGHT_CLEAR,NIGHT_CLEAR,NIGHT_CLEAR,NIGHT_CLEAR,CLEAR,CLEAR,CLEAR,CLEAR,CLEAR,CLEAR,CLEAR,CLEAR","Offshore,Offshore,Offshore,Offshore,Offshore,Offshore,Offshore,Offshore,Offshore,Offshore,Offshore,Offshore,Offshore,Offshore",14
5842041f4e65fad6a77088b0,2023_12_10,32.97527261243354,-117.2721061331305,Del Mar Rivermouth,2.7857142857142856,0.39071428571428574,0.695,16,16,"NIGHT_CLEAR,NIGHT_CLEAR,NIGHT_CLEAR,NIGHT_CLEAR,NIGHT_CLEAR,NIGHT_CLEAR,CLEAR,CLEAR,CLEAR,CLEAR,CLEAR,CLEAR,CLEAR,CLEAR","Offshore,Offshore,Offshore,Offshore,Offshore,Offshore,Offshore,Offshore,Offshore,Offshore,Offshore,Offshore,Offshore,Offshore",14
5842041f4e65fad6a77088b1,2023_12_10,33.01352178146273,-117.28219,Cardiff Reef,2.869285714285714,0.7061357142857143,1.011802380952381,17,17,"NIGHT_CLEAR,NIGHT_CLEAR,NIGHT_CLEAR,NIGHT_CLEAR,NIGHT_CLEAR,NIGHT_CLEAR,CLEAR,CLEAR,CLEAR,CLEAR,CLEAR,CLEAR,CLEAR,CLEAR","Offshore,Offshore,Offshore,Offshore,Offshore,Offshore,Offshore,Offshore,Offshore,Offshore,Offshore,Onshore,Onshore,Cross-shore",14
5842041f4e65fad6a77088b3,2023_12_10,33.00211185876003,-117.281101957955,Seaside Reef,2.9285714285714284,0.6877428571428572,0.9935880952380953,17,17,"NIGHT_CLEAR,NIGHT_CLEAR,NIGHT_CLEAR,NIGHT_CLEAR,NIGHT_CLEAR,NIGHT_CLEAR,CLEAR,CLEAR,CLEAR,CLEAR,CLEAR,CLEAR,CLEAR,CLEAR","Offshore,Offshore,Offshore,Offshore,Offshore,Offshore,Offshore,Offshore,Offshore,Offshore,Onshore,Onshore,Onshore,Cross-shore",14
5842041f4e65fad6a77088b4,2023_12_10,33.0341859796287,-117.29552,Swami's,2.440714285714286,0.5058857142857143,0.8920190476190476,17,17,"NIGHT_CLEAR,NIGHT_CLEAR,NIGHT_CLEAR,NIGHT_CLEAR,NIGHT_CLEAR,NIGHT_CLEAR,CLEAR,CLEAR,CLEAR,CLEAR,CLEAR,CLEAR,CLEAR,CLEAR","Offshore,Offshore,Offshore,Offshore,Offshore,Offshore,Offshore,Offshore,Onshore,Onshore,Onshore,Onshore,Cross-shore,Onshore",14
5842041f4e65fad6a77088b7,2023_12_10,33.04569760260221,-117.2994,D Street,2.4285714285714284,0.29,0.5957142857142858,16.285714285714285,16.285714285714285,"NIGHT_CLEAR,NIGHT_CLEAR,NIGHT_CLEAR,NIGHT_CLEAR,NIGHT_CLEAR,NIGHT_CLEAR,CLEAR,CLEAR,CLEAR,CLEAR,CLEAR,CLEAR,CLEAR,CLEAR","Offshore,Offshore,Offshore,Offshore,Offshore,Offshore,Offshore,Offshore,Onshore,Onshore,Onshore,Onshore,Cross-shore,Onshore",14
5842041f4e65fad6a77088b8,2023_12_10,33.02090944350196,-117.28535,San Elijo State Beach,1.8571428571428572,0.40484285714285717,0.7113428571428572,17,17,"NIGHT_CLEAR,NIGHT_CLEAR,NIGHT_CLEAR,NIGHT_CLEAR,NIGHT_CLEAR,NIGHT_CLEAR,CLEAR,CLEAR,CLEAR,CLEAR,CLEAR,CLEAR,CLEAR,CLEAR","Offshore,Offshore,Offshore,Offshore,Offshore,Offshore,Offshore,Offshore,Offshore,Offshore,Offshore,Onshore,Onshore,Cross-shore",14
5842041f4e65fad6a77088c2,2023_12_10,32.80662846492798,-117.2688764333725,PB Point,2.7142857142857144,0.39785714285714285,0.7014285714285714,16,16,"NIGHT_CLEAR,NIGHT_CLEAR,NIGHT_CLEAR,NIGHT_CLEAR,NIGHT_CLEAR,NIGHT_CLEAR,CLEAR,CLEAR,CLEAR,CLEAR,CLEAR,CLEAR,CLEAR,CLEAR","Offshore,Cross-shore,Cross-shore,Cross-shore,Cross-shore,Cross-shore,Cross-shore,Cross-shore,Cross-shore,Cross-shore,Offshore,Cross-shore,Cross-shore,Cross-shore",14
5842041f4e65fad6a77088c4,2023_12_10,32.8060476681448,-117.26479,Old Man's at Tourmaline,2.4285714285714284,0.28785714285714287,0.595,16,16,"NIGHT_CLEAR,NIGHT_CLEAR,NIGHT_CLEAR,NIGHT_CLEAR,NIGHT_CLEAR,NIGHT_CLEAR,CLEAR,CLEAR,CLEAR,CLEAR,CLEAR,CLEAR,CLEAR,CLEAR","Offshore,Cross-shore,Cross-shore,Cross-shore,Cross-shore,Cross-shore,Cross-shore,Cross-shore,Cross-shore,Cross-shore,Cross-shore,Cross-shore,Cross-shore,Cross-shore",14
5842041f4e65fad6a77088cb,2023_12_10,32.557056711256,-117.1327445020322,Tijuana Slough,2.2142857142857144,0.24928571428571428,0.5564285714285714,17,17,"NIGHT_CLEAR,NIGHT_CLEAR,NIGHT_CLEAR,NIGHT_CLEAR,NIGHT_CLEAR,NIGHT_CLEAR,CLEAR,CLEAR,CLEAR,CLEAR,CLEAR,CLEAR,CLEAR,CLEAR","Offshore,Offshore,Offshore,Offshore,Offshore,Offshore,Offshore,Offshore,Offshore,Cross-shore,Cross-shore,Cross-shore,Cross-shore,Cross-shore",14
5842041f4e65fad6a77088cc,2023_12_10,32.863,-117.257,La Jolla Shores,2.5,0.31285714285714283,0.6164285714285714,16,16,"NIGHT_CLEAR,NIGHT_CLEAR,NIGHT_CLEAR,NIGHT_CLEAR,NIGHT_CLEAR,NIGHT_CLEAR,CLEAR,CLEAR,CLEAR,CLEAR,CLEAR,CLEAR,CLEAR,CLEAR","Offshore,Offshore,Offshore,Offshore,Offshore,Offshore,Offshore,Offshore,Offshore,Cross-shore,Onshore,Onshore,Onshore,Onshore",14
5842041f4e65fad6a77088ce,2023_12_10,32.67443657790586,-117.17421316238693,Coronado Beach,2,0.06857142857142857,0.37357142857142855,16,16,"NIGHT_CLEAR,NIGHT_CLEAR,NIGHT_CLEAR,NIGHT_CLEAR,NIGHT_CLEAR,NIGHT_CLEAR,CLEAR,CLEAR,CLEAR,CLEAR,CLEAR,CLEAR,CLEAR,CLEAR","Offshore,Offshore,Offshore,Offshore,Offshore,Offshore,Offshore,Offshore,Offshore,Cross-shore,Cross-shore,Cross-shore,Cross-shore,Cross-shore",14
5842041f4e65fad6a77088cf,2023_12_10,33.40484417640326,-117.60749,San Clemente State Beach,2,0.14785714285714285,0.45357142857142857,17,17,"NIGHT_CLEAR,NIGHT_CLEAR,NIGHT_CLEAR,NIGHT_CLEAR,NIGHT_CLEAR,NIGHT_CLEAR,CLEAR,CLEAR,CLEAR,CLEAR,CLEAR,CLEAR,CLEAR,CLEAR","Offshore,Offshore,Offshore,Offshore,Offshore,Offshore,Offshore,Offshore,Cross-shore,Onshore,Onshore,Cross-shore,Onshore,Cross-shore",14
5842041f4e65fad6a77088d5,2023_12_10,33.4663042002114,-117.7168352817103,Strands,2.75,0.4492404761904762,0.7566880952380952,17,17,"NIGHT_CLEAR,NIGHT_CLEAR,NIGHT_CLEAR,NIGHT_CLEAR,NIGHT_CLEAR,NIGHT_CLEAR,CLEAR,CLEAR,CLEAR,CLEAR,CLEAR,CLEAR,CLEAR,CLEAR","Offshore,Offshore,Offshore,Offshore,Offshore,Offshore,Offshore,Offshore,Onshore,Onshore,Onshore,Onshore,Onshore,Onshore",14
5842041f4e65fad6a77088d7,2023_12_10,33.4609858001748,-117.68535,Doheny State Beach,1.0121428571428572,0,0.28576666666666667,17,17,"NIGHT_CLEAR,NIGHT_CLEAR,NIGHT_CLEAR,NIGHT_CLEAR,NIGHT_CLEAR,NIGHT_CLEAR,CLEAR,CLEAR,CLEAR,CLEAR,CLEAR,CLEAR,CLEAR,CLEAR","Offshore,Offshore,Offshore,Offshore,Offshore,Offshore,Offshore,Offshore,Cross-shore,Offshore,Onshore,Onshore,Onshore,Onshore",14
5842041f4e65fad6a77088dc,2023_12_10,33.50894790083017,-117.75243,Aliso Creek,2,0.14,0.44571428571428573,17,17,"NIGHT_CLEAR,NIGHT_CLEAR,NIGHT_CLEAR,NIGHT_CLEAR,NIGHT_CLEAR,NIGHT_CLEAR,CLEAR,CLEAR,CLEAR,CLEAR,CLEAR,CLEAR,CLEAR,CLEAR","Offshore,Cross-shore,Offshore,Offshore,Offshore,Offshore,Offshore,Offshore,Offshore,Cross-shore,Cross-shore,Onshore,Onshore,Cross-shore",14
5842041f4e65fad6a77088dd,2023_12_10,33.5326591767067,-117.77764,Brooks Street,2,0.04642857142857143,0.3507142857142857,17,17,"NIGHT_CLEAR,NIGHT_CLEAR,NIGHT_CLEAR,NIGHT_CLEAR,NIGHT_CLEAR,NIGHT_CLEAR,CLEAR,CLEAR,CLEAR,CLEAR,CLEAR,CLEAR,CLEAR,CLEAR","Cross-shore,Offshore,Offshore,Offshore,Offshore,Offshore,Offshore,Offshore,Offshore,Cross-shore,Cross-shore,Onshore,Onshore,Cross-shore",14
5842041f4e65fad6a77088de,2023_12_10,33.53561225884637,-117.7799,Thalia Street,2,0.06571428571428571,0.3707142857142857,17,17,"NIGHT_CLEAR,NIGHT_CLEAR,NIGHT_CLEAR,NIGHT_CLEAR,NIGHT_CLEAR,NIGHT_CLEAR,CLEAR,CLEAR,CLEAR,CLEAR,CLEAR,CLEAR,CLEAR,CLEAR","Cross-shore,Offshore,Offshore,Offshore,Offshore,Offshore,Offshore,Offshore,Offshore,Cross-shore,Cross-shore,Onshore,Onshore,Cross-shore",14
5842041f4e65fad6a77088e3,2023_12_10,33.54268310353641,-117.7916,Rockpile,2,0.13857142857142857,0.44285714285714284,17,17,"NIGHT_CLEAR,NIGHT_CLEAR,NIGHT_CLEAR,NIGHT_CLEAR,NIGHT_CLEAR,NIGHT_CLEAR,CLEAR,CLEAR,CLEAR,CLEAR,CLEAR,CLEAR,CLEAR,CLEAR","Cross-shore,Offshore,Cross-shore,Offshore,Offshore,Offshore,Offshore,Offshore,Offshore,Cross-shore,Cross-shore,Onshore,Onshore,Cross-shore",14
5842041f4e65fad6a77088e4,2023_12_10,33.7368459504689,-118.10342,"Seal Beach Pier, Southside",1,0,0.26357142857142857,17,17,"NIGHT_CLEAR,NIGHT_CLEAR,NIGHT_CLEAR,NIGHT_CLEAR,NIGHT_CLEAR,NIGHT_CLEAR,CLEAR,CLEAR,CLEAR,CLEAR,CLEAR,CLEAR,CLEAR,CLEAR","Offshore,Offshore,Offshore,Offshore,Offshore,Offshore,Offshore,Offshore,Offshore,Cross-shore,Onshore,Onshore,Onshore,Onshore",14
5842041f4e65fad6a77088e5,2023_12_10,33.73933701820233,-118.117,Ray Bay,1,0,0.3,17,17,"NIGHT_CLEAR,NIGHT_CLEAR,NIGHT_CLEAR,NIGHT_CLEAR,NIGHT_CLEAR,NIGHT_CLEAR,CLEAR,CLEAR,CLEAR,CLEAR,CLEAR,CLEAR,CLEAR,CLEAR","Offshore,Offshore,Offshore,Offshore,Offshore,Offshore,Offshore,Offshore,Offshore,Cross-shore,Onshore,Onshore,Onshore,Onshore",14
5842041f4e65fad6a77088e7,2023_12_10,33.728733,-118.08982,Surfside,1,0,0.28,17,17,"NIGHT_CLEAR,NIGHT_CLEAR,NIGHT_CLEAR,NIGHT_CLEAR,NIGHT_CLEAR,NIGHT_CLEAR,CLEAR,CLEAR,CLEAR,CLEAR,CLEAR,CLEAR,CLEAR,CLEAR","Offshore,Offshore,Offshore,Offshore,Offshore,Offshore,Offshore,Offshore,Offshore,Cross-shore,Onshore,Onshore,Onshore,Onshore",14
5842041f4e65fad6a77088e8,2023_12_10,33.68760321488161,-118.04236,Bolsa Chica State Beach,2.392857142857143,0.4041214285714286,0.7107214285714286,17,17,"NIGHT_CLEAR,NIGHT_CLEAR,NIGHT_CLEAR,NIGHT_CLEAR,NIGHT_CLEAR,NIGHT_CLEAR,CLEAR,CLEAR,CLEAR,CLEAR,CLEAR,CLEAR,CLEAR,CLEAR","Offshore,Offshore,Offshore,Offshore,Offshore,Offshore,Offshore,Offshore,Offshore,Offshore,Offshore,Onshore,Onshore,Onshore",14
5842041f4e65fad6a77088ea,2023_12_10,33.66704400178788,-118.0192,North HB Streets,2.8214285714285716,0.45709761904761903,0.7618666666666667,17,17,"NIGHT_CLEAR,NIGHT_CLEAR,NIGHT_CLEAR,NIGHT_CLEAR,NIGHT_CLEAR,NIGHT_CLEAR,CLEAR,CLEAR,CLEAR,CLEAR,CLEAR,CLEAR,CLEAR,CLEAR","Offshore,Offshore,Offshore,Offshore,Offshore,Offshore,Offshore,Offshore,Offshore,Cross-shore,Onshore,Onshore,Onshore,Onshore",14
5842041f4e65fad6a77088ed,2023_12_10,33.65475101379567,-118.00291,Huntington Beach Pier Southside,2.5114285714285716,0.4532047619047619,0.7277833333333333,17,17,"NIGHT_CLEAR,NIGHT_CLEAR,NIGHT_CLEAR,NIGHT_CLEAR,NIGHT_CLEAR,NIGHT_CLEAR,CLEAR,CLEAR,CLEAR,CLEAR,CLEAR,CLEAR,CLEAR,CLEAR","Offshore,Cross-shore,Cross-shore,Offshore,Offshore,Cross-shore,Offshore,Offshore,Cross-shore,Onshore,Onshore,Onshore,Onshore,Onshore",14
5842041f4e65fad6a77088ee,2023_12_10,33.62778647706099,-117.95939,River Jetties,2.737857142857143,0.46632380952380953,0.7711523809523809,17,17,"NIGHT_CLEAR,NIGHT_CLEAR,NIGHT_CLEAR,NIGHT_CLEAR,NIGHT_CLEAR,NIGHT_CLEAR,CLEAR,CLEAR,CLEAR,CLEAR,CLEAR,CLEAR,CLEAR,CLEAR","Offshore,Offshore,Offshore,Offshore,Offshore,Offshore,Offshore,Offshore,Offshore,Onshore,Onshore,Onshore,Onshore,Onshore",14
5842041f4e65fad6a77088f2,2023_12_10,33.605165797643664,-117.92500376701355,Newport Point,2,0.21714285714285714,0.52,17,17,"NIGHT_CLEAR,NIGHT_CLEAR,NIGHT_CLEAR,NIGHT_CLEAR,NIGHT_CLEAR,NIGHT_CLEAR,CLEAR,CLEAR,CLEAR,CLEAR,CLEAR,CLEAR,CLEAR,CLEAR","Offshore,Offshore,Offshore,Cross-shore,Offshore,Offshore,Cross-shore,Onshore,Onshore,Onshore,Onshore,Onshore,Onshore,Onshore",14
5842041f4e65fad6a77088f3,2023_12_10,33.58982984726977,-117.87713,Corona del Mar,1,0.13535214285714287,0.21148857142857141,17,17,"NIGHT_CLEAR,NIGHT_CLEAR,NIGHT_CLEAR,NIGHT_CLEAR,NIGHT_CLEAR,NIGHT_CLEAR,CLEAR,CLEAR,CLEAR,CLEAR,CLEAR,CLEAR,CLEAR,CLEAR","Cross-shore,Offshore,Offshore,Offshore,Offshore,Offshore,Offshore,Cross-shore,Offshore,Onshore,Onshore,Onshore,Onshore,Onshore",14
5842041f4e65fad6a77088f7,2023_12_10,34.00750300824362,-118.4971783496269,Santa Monica Pier,1,0.002142857142857143,0.29214285714285715,17,17,"NIGHT_CLEAR,NIGHT_CLEAR,NIGHT_CLEAR,NIGHT_CLEAR,NIGHT_CLEAR,NIGHT_CLEAR,CLEAR,CLEAR,CLEAR,CLEAR,CLEAR,CLEAR,CLEAR,CLEAR","Offshore,Offshore,Offshore,Offshore,Offshore,Offshore,Offshore,Offshore,Offshore,Offshore,Offshore,Onshore,Onshore,Onshore",14
5842041f4e65fad6a77088ff,2023_12_10,33.94070283102945,-118.44321,Dockweiler Beach,1.6071428571428572,0.45155690476190474,0.7008785119047619,17,17,"NIGHT_CLEAR,NIGHT_CLEAR,NIGHT_CLEAR,NIGHT_CLEAR,NIGHT_CLEAR,NIGHT_CLEAR,CLEAR,CLEAR,CLEAR,CLEAR,CLEAR,CLEAR,CLEAR,CLEAR","Offshore,Offshore,Offshore,Offshore,Offshore,Offshore,Offshore,Offshore,Offshore,Offshore,Offshore,Cross-shore,Onshore,Onshore",14
5842041f4e65fad6a7708900,2023_12_10,33.9231846937237,-118.4341465777908,Shitpipe,1.6071428571428572,0.18823571428571428,0.4944928571428572,17,17,"NIGHT_CLEAR,NIGHT_CLEAR,NIGHT_CLEAR,NIGHT_CLEAR,NIGHT_CLEAR,NIGHT_CLEAR,CLEAR,CLEAR,CLEAR,CLEAR,CLEAR,CLEAR,CLEAR,CLEAR","Offshore,Offshore,Offshore,Offshore,Offshore,Offshore,Offshore,Offshore,Offshore,Offshore,Offshore,Cross-shore,Onshore,Onshore",14
5842041f4e65fad6a7708902,2023_12_10,33.9108528052242,-118.4279133138721,Hammerland,2,0.20692619047619049,0.5144333333333333,17,17,"NIGHT_CLEAR,NIGHT_CLEAR,NIGHT_CLEAR,NIGHT_CLEAR,NIGHT_CLEAR,NIGHT_CLEAR,CLEAR,CLEAR,CLEAR,CLEAR,CLEAR,CLEAR,CLEAR,CLEAR","Onshore,Onshore,Onshore,Onshore,Onshore,Onshore,Offshore,Onshore,Onshore,Onshore,Onshore,Onshore,Onshore,Onshore",14
5842041f4e65fad6a7708904,2023_12_10,33.87201368173932,-118.4075151286262,Hermosa Beach,1.3692857142857142,0.20186666666666667,0.5066952380952381,17,17,"NIGHT_CLEAR,NIGHT_CLEAR,NIGHT_CLEAR,NIGHT_CLEAR,NIGHT_CLEAR,NIGHT_CLEAR,CLEAR,CLEAR,CLEAR,CLEAR,CLEAR,CLEAR,CLEAR,CLEAR","Offshore,Offshore,Offshore,Offshore,Offshore,Offshore,Offshore,Offshore,Offshore,Offshore,Offshore,Cross-shore,Onshore,Onshore",14
5842041f4e65fad6a7708906,2023_12_10,33.90129336911256,-118.42184,El Porto,2.2857142857142856,0.28805714285714284,0.5942547619047619,17,17,"NIGHT_CLEAR,NIGHT_CLEAR,NIGHT_CLEAR,NIGHT_CLEAR,NIGHT_CLEAR,NIGHT_CLEAR,CLEAR,CLEAR,CLEAR,CLEAR,CLEAR,CLEAR,CLEAR,CLEAR","Onshore,Onshore,Onshore,Onshore,Onshore,Onshore,Offshore,Onshore,Onshore,Onshore,Onshore,Onshore,Onshore,Onshore",14
5842041f4e65fad6a7708907,2023_12_10,33.87963506431794,-118.41102,Manhattan Beach Pier,1.8214285714285714,0.2844857142857143,0.5893142857142857,17,17,"NIGHT_CLEAR,NIGHT_CLEAR,NIGHT_CLEAR,NIGHT_CLEAR,NIGHT_CLEAR,NIGHT_CLEAR,CLEAR,CLEAR,CLEAR,CLEAR,CLEAR,CLEAR,CLEAR,CLEAR","Offshore,Offshore,Offshore,Offshore,Offshore,Offshore,Offshore,Offshore,Offshore,Offshore,Offshore,Cross-shore,Onshore,Onshore",14
5842041f4e65fad6a7708914,2023_12_10,34.038053387863464,-118.5532,Sunset Point,1,0,0.24857142857142858,17,17,"NIGHT_CLEAR,NIGHT_CLEAR,NIGHT_CLEAR,NIGHT_CLEAR,NIGHT_CLEAR,NIGHT_CLEAR,CLEAR,CLEAR,CLEAR,CLEAR,CLEAR,CLEAR,CLEAR,CLEAR","Offshore,Offshore,Offshore,Offshore,Offshore,Offshore,Offshore,Offshore,Offshore,Offshore,Onshore,Onshore,Onshore,Onshore",14
5842041f4e65fad6a7708920,2023_12_10,33.80930828074364,-118.3933198342649,Haggerty's,1,0.01242857142857143,0.18771428571428572,17,17,"NIGHT_CLEAR,NIGHT_CLEAR,NIGHT_CLEAR,NIGHT_CLEAR,NIGHT_CLEAR,NIGHT_CLEAR,CLEAR,CLEAR,CLEAR,CLEAR,CLEAR,CLEAR,CLEAR,CLEAR","Offshore,Offshore,Cross-shore,Cross-shore,Cross-shore,Offshore,Offshore,Offshore,Offshore,Cross-shore,Cross-shore,Onshore,Onshore,Onshore",14
5842041f4e65fad6a7708921,2023_12_10,33.85044519861206,-118.40048,Redondo Breakwater,1.7857142857142858,0.16428571428571428,0.4707142857142857,17,17,"NIGHT_CLEAR,NIGHT_CLEAR,NIGHT_CLEAR,NIGHT_CLEAR,NIGHT_CLEAR,NIGHT_CLEAR,CLEAR,CLEAR,CLEAR,CLEAR,CLEAR,CLEAR,CLEAR,CLEAR","Offshore,Offshore,Offshore,Offshore,Offshore,Offshore,Offshore,Offshore,Offshore,Offshore,Offshore,Cross-shore,Onshore,Onshore",14
5842041f4e65fad6a7708927,2023_12_10,33.70877301002487,-118.2840112858389,Cabrillo Beach,1,0,0.18928571428571428,17,17,"NIGHT_CLEAR,NIGHT_CLEAR,NIGHT_CLEAR,NIGHT_CLEAR,NIGHT_CLEAR,NIGHT_CLEAR,CLEAR,CLEAR,CLEAR,CLEAR,CLEAR,CLEAR,CLEAR,CLEAR","Offshore,Offshore,Offshore,Offshore,Offshore,Offshore,Offshore,Offshore,Offshore,Offshore,Offshore,Offshore,Offshore,Offshore",14
5842041f4e65fad6a770892c,2023_12_10,33.77209986806257,-118.4268428476672,Lunada Bay,1,0.09428571428571429,0.4014285714285714,17,17,"NIGHT_CLEAR,NIGHT_CLEAR,NIGHT_CLEAR,NIGHT_CLEAR,NIGHT_CLEAR,NIGHT_CLEAR,CLEAR,CLEAR,CLEAR,CLEAR,CLEAR,CLEAR,CLEAR,CLEAR","Offshore,Offshore,Offshore,Offshore,Offshore,Offshore,Offshore,Offshore,Offshore,Offshore,Offshore,Offshore,Offshore,Cross-shore",14
5842041f4e65fad6a770892d,2023_12_10,33.79294656286144,-118.4070316699825,PV Cove,2,0.4010207142857143,0.6398085714285714,17,17,"NIGHT_CLEAR,NIGHT_CLEAR,NIGHT_CLEAR,NIGHT_CLEAR,NIGHT_CLEAR,NIGHT_CLEAR,CLEAR,CLEAR,CLEAR,CLEAR,CLEAR,CLEAR,CLEAR,CLEAR","Offshore,Offshore,Offshore,Cross-shore,Cross-shore,Offshore,Offshore,Offshore,Offshore,Cross-shore,Cross-shore,Onshore,Onshore,Onshore",14
5842041f4e65fad6a7708930,2023_12_10,34.03944902292561,-118.57539,Chart House,0.42857142857142855,0,0.15285714285714286,17,17,"NIGHT_CLEAR,NIGHT_CLEAR,NIGHT_CLEAR,NIGHT_CLEAR,NIGHT_CLEAR,NIGHT_CLEAR,CLEAR,CLEAR,CLEAR,CLEAR,CLEAR,CLEAR,CLEAR,CLEAR","Offshore,Offshore,Offshore,Offshore,Offshore,Offshore,Offshore,Offshore,Offshore,Offshore,Onshore,Onshore,Onshore,Onshore",14
5842041f4e65fad6a7708936,2023_12_10,34.0016731994772,-118.80456,Point Dume,1,0.0026476190476190462,0.22870000000000001,17,17,"NIGHT_CLEAR,NIGHT_CLEAR,NIGHT_CLEAR,NIGHT_CLEAR,NIGHT_CLEAR,NIGHT_CLEAR,CLEAR,CLEAR,CLEAR,CLEAR,CLEAR,CLEAR,CLEAR,CLEAR","Offshore,Offshore,Offshore,Offshore,Offshore,Offshore,Offshore,Offshore,Offshore,Offshore,Offshore,Offshore,Offshore,Offshore",14
5842041f4e65fad6a7708937,2023_12_10,34.02587527588963,-118.7554939066114,Latigo Point,1,0.029285714285714286,0.33214285714285713,17,17,"NIGHT_CLEAR,NIGHT_CLEAR,NIGHT_CLEAR,NIGHT_CLEAR,NIGHT_CLEAR,NIGHT_CLEAR,CLEAR,CLEAR,CLEAR,CLEAR,CLEAR,CLEAR,CLEAR,CLEAR","Offshore,Offshore,Offshore,Offshore,Offshore,Offshore,Offshore,Offshore,Offshore,Offshore,Offshore,Offshore,Offshore,Offshore",14
5842041f4e65fad6a770893f,2023_12_10,34.043762,-118.93294,Leo Carrillo,0.7857142857142857,0.2037119047619048,0.5124547619047619,16,16,"NIGHT_CLEAR,NIGHT_CLEAR,NIGHT_CLEAR,NIGHT_CLEAR,NIGHT_CLEAR,NIGHT_CLEAR,CLEAR,CLEAR,CLEAR,CLEAR,CLEAR,CLEAR,CLEAR,CLEAR","Offshore,Offshore,Offshore,Offshore,Offshore,Offshore,Offshore,Cross-shore,Cross-shore,Cross-shore,Cross-shore,Cross-shore,Cross-shore,Onshore",14
5842041f4e65fad6a7708941,2023_12_10,36.69388179265737,-121.81289,Marina State Beach,2.9285714285714284,0.5637642857142857,0.8823428571428572,14,14,"NIGHT_CLEAR,NIGHT_CLEAR,NIGHT_CLEAR,NIGHT_CLEAR,NIGHT_CLEAR,NIGHT_CLEAR,NIGHT_CLEAR,CLEAR,CLEAR,CLEAR,CLEAR,CLEAR,CLEAR,CLEAR","Offshore,Offshore,Offshore,Offshore,Offshore,Offshore,Offshore,Offshore,Offshore,Offshore,Offshore,Offshore,Offshore,Cross-shore",14
5842041f4e65fad6a7708944,2023_12_10,34.34145077331085,-119.416999352654,Stanley's,1.4285714285714286,0.007857142857142858,0.30714285714285716,16,16,"NIGHT_CLEAR,NIGHT_CLEAR,NIGHT_CLEAR,NIGHT_CLEAR,NIGHT_CLEAR,NIGHT_CLEAR,CLEAR,CLEAR,CLEAR,CLEAR,CLEAR,CLEAR,CLEAR,CLEAR","Offshore,Offshore,Offshore,Offshore,Offshore,Offshore,Cross-shore,Cross-shore,Onshore,Onshore,Onshore,Onshore,Onshore,Onshore",14
5842041f4e65fad6a7708945,2023_12_10,34.35113017313915,-119.426921498899,Oil Piers,1.0714285714285714,0,0.28500000000000003,16,16,"NIGHT_CLEAR,NIGHT_CLEAR,NIGHT_CLEAR,NIGHT_CLEAR,NIGHT_CLEAR,NIGHT_CLEAR,CLEAR,CLEAR,CLEAR,CLEAR,CLEAR,CLEAR,CLEAR,CLEAR","Offshore,Offshore,Offshore,Offshore,Offshore,Offshore,Offshore,Offshore,Cross-shore,Onshore,Onshore,Onshore,Cross-shore,Cross-shore",14
5842041f4e65fad6a770894c,2023_12_10,34.17876333306018,-119.2399483564372,Oxnard,1.7857142857142858,0.21214285714285716,0.5142857142857143,16,16,"NIGHT_CLEAR,NIGHT_CLEAR,NIGHT_CLEAR,NIGHT_CLEAR,NIGHT_CLEAR,NIGHT_CLEAR,CLEAR,CLEAR,CLEAR,CLEAR,CLEAR,CLEAR,CLEAR,CLEAR","Offshore,Offshore,Offshore,Offshore,Offshore,Offshore,Offshore,Offshore,Offshore,Offshore,Cross-shore,Onshore,Onshore,Cross-shore",14
5842041f4e65fad6a7708957,2023_12_10,34.31720331100517,-119.3882324751725,Pitas Point,2,0.02,0.325,16,16,"NIGHT_CLEAR,NIGHT_CLEAR,NIGHT_CLEAR,NIGHT_CLEAR,NIGHT_CLEAR,NIGHT_CLEAR,CLEAR,CLEAR,CLEAR,CLEAR,MIST,MIST,MIST,CLEAR","Offshore,Offshore,Offshore,Offshore,Offshore,Offshore,Offshore,Offshore,Offshore,Onshore,Onshore,Onshore,Cross-shore,Cross-shore",14
5842041f4e65fad6a7708959,2023_12_10,34.27851754384724,-119.316202617226,Emma Wood,1.7142857142857142,0.016428571428571428,0.32071428571428573,16,16,"NIGHT_CLEAR,NIGHT_CLEAR,NIGHT_CLEAR,NIGHT_CLEAR,NIGHT_CLEAR,NIGHT_CLEAR,CLEAR,CLEAR,CLEAR,CLEAR,CLEAR,CLEAR,CLEAR,CLEAR","Offshore,Offshore,Offshore,Offshore,Offshore,Offshore,Offshore,Offshore,Offshore,Cross-shore,Onshore,Onshore,Onshore,Onshore",14
5842041f4e65fad6a770895a,2023_12_10,34.35513640390276,-119.4400589884255,Mussel Shoals (aka Little Rincon),1.2142857142857142,0.0014285714285714286,0.2842857142857143,16,16,"NIGHT_CLEAR,NIGHT_CLEAR,NIGHT_CLEAR,NIGHT_CLEAR,NIGHT_CLEAR,NIGHT_CLEAR,CLEAR,CLEAR,CLEAR,CLEAR,CLEAR,CLEAR,CLEAR,CLEAR","Offshore,Offshore,Offshore,Offshore,Offshore,Offshore,Cross-shore,Offshore,Cross-shore,Onshore,Onshore,Cross-shore,Cross-shore,Cross-shore",14
5842041f4e65fad6a770895e,2023_12_10,34.28991757054902,-119.3366646794652,Summer Beach,1.2857142857142858,0.002142857142857143,0.30428571428571427,16,16,"NIGHT_CLEAR,NIGHT_CLEAR,NIGHT_CLEAR,NIGHT_CLEAR,NIGHT_CLEAR,NIGHT_CLEAR,CLEAR,CLEAR,CLEAR,CLEAR,CLEAR,CLEAR,CLEAR,CLEAR","Offshore,Offshore,Offshore,Offshore,Offshore,Offshore,Offshore,Offshore,Cross-shore,Cross-shore,Onshore,Onshore,Onshore,Onshore",14
5842041f4e65fad6a770895f,2023_12_10,34.30897456105926,-119.3582501170116,Solimar,1.1428571428571428,0,0.295,16,16,"NIGHT_CLEAR,NIGHT_CLEAR,NIGHT_CLEAR,NIGHT_CLEAR,NIGHT_CLEAR,NIGHT_CLEAR,CLEAR,CLEAR,CLEAR,CLEAR,MIST,MIST,MIST,CLEAR","Offshore,Offshore,Offshore,Offshore,Offshore,Offshore,Cross-shore,Offshore,Offshore,Onshore,Onshore,Onshore,Onshore,Cross-shore",14
5842041f4e65fad6a7708960,2023_12_10,34.39836265281686,-119.70213,Leadbetter Point,1,0,0.13214285714285715,16,16,"NIGHT_CLEAR,NIGHT_CLEAR,NIGHT_CLEAR,NIGHT_CLEAR,NIGHT_CLEAR,NIGHT_CLEAR,CLEAR,CLEAR,CLEAR,CLEAR,CLEAR,CLEAR,CLEAR,CLEAR","Offshore,Offshore,Offshore,Offshore,Offshore,Cross-shore,Offshore,Offshore,Cross-shore,Onshore,Cross-shore,Cross-shore,Cross-shore,Cross-shore",14
5842041f4e65fad6a7708961,2023_12_10,34.46052293893899,-120.07328,Refugio,1,0,0.17285714285714288,15.285714285714286,15.285714285714286,"NIGHT_CLEAR,NIGHT_CLEAR,NIGHT_CLEAR,NIGHT_CLEAR,NIGHT_CLEAR,NIGHT_CLEAR,CLEAR,CLEAR,CLEAR,CLEAR,CLEAR,CLEAR,CLEAR,CLEAR","Cross-shore,Cross-shore,Offshore,Offshore,Cross-shore,Cross-shore,Onshore,Onshore,Onshore,Cross-shore,Cross-shore,Cross-shore,Cross-shore,Offshore",14
5842041f4e65fad6a7708962,2023_12_10,34.40754276777778,-119.87639,Devereux,1,0,0.24928571428571428,15,15,"NIGHT_MIST,NIGHT_CLEAR,NIGHT_CLEAR,NIGHT_CLEAR,NIGHT_CLEAR,NIGHT_CLEAR,CLEAR,CLEAR,CLEAR,CLEAR,MIST,MIST,MIST,MIST","Cross-shore,Cross-shore,Cross-shore,Offshore,Offshore,Offshore,Offshore,Cross-shore,Onshore,Onshore,Cross-shore,Cross-shore,Cross-shore,Cross-shore",14
5842041f4e65fad6a7708963,2023_12_10,34.27479983305182,-119.3133222656776,Ventura Overhead,1.6428571428571428,0.02857142857142857,0.33214285714285713,16,16,"NIGHT_CLEAR,NIGHT_CLEAR,NIGHT_CLEAR,NIGHT_CLEAR,NIGHT_CLEAR,NIGHT_CLEAR,CLEAR,CLEAR,CLEAR,CLEAR,CLEAR,CLEAR,CLEAR,CLEAR","Offshore,Offshore,Offshore,Offshore,Offshore,Offshore,Offshore,Offshore,Offshore,Cross-shore,Onshore,Onshore,Onshore,Onshore",14
5842041f4e65fad6a7708964,2023_12_10,34.41023236011655,-119.88261,Sands,1.1428571428571428,7.142857142857143e-4,0.27714285714285714,15,15,"NIGHT_MIST,NIGHT_CLEAR,NIGHT_CLEAR,NIGHT_CLEAR,NIGHT_CLEAR,NIGHT_CLEAR,CLEAR,CLEAR,CLEAR,CLEAR,MIST,MIST,MIST,MIST","Offshore,Offshore,Offshore,Cross-shore,Cross-shore,Offshore,Cross-shore,Offshore,Cross-shore,Onshore,Onshore,Onshore,Onshore,Onshore",14
5842041f4e65fad6a7708966,2023_12_10,34.40450193869233,-119.68752,Sandspit,0.14285714285714285,0,0.08428571428571428,16,16,"NIGHT_CLEAR,NIGHT_CLEAR,NIGHT_CLEAR,NIGHT_CLEAR,NIGHT_CLEAR,NIGHT_CLEAR,CLEAR,CLEAR,CLEAR,CLEAR,CLEAR,CLEAR,CLEAR,CLEAR","Offshore,Offshore,Offshore,Offshore,Offshore,Offshore,Offshore,Offshore,Offshore,Cross-shore,Onshore,Cross-shore,Cross-shore,Cross-shore",14
5842041f4e65fad6a7708967,2023_12_10,34.41549098334453,-119.6375149840203,Hammond's,0.7857142857142857,0,0.09571428571428571,16,16,"NIGHT_CLEAR,NIGHT_CLEAR,NIGHT_CLEAR,NIGHT_CLEAR,NIGHT_CLEAR,NIGHT_CLEAR,CLEAR,CLEAR,CLEAR,CLEAR,CLEAR,CLEAR,CLEAR,CLEAR","Offshore,Offshore,Offshore,Offshore,Offshore,Offshore,Cross-shore,Offshore,Cross-shore,Cross-shore,Onshore,Onshore,Onshore,Cross-shore",14
5842041f4e65fad6a7708968,2023_12_10,34.45759322742309,-120.0220251867315,El Capitan,1,0,0.19357142857142856,15.285714285714286,15.285714285714286,"NIGHT_CLEAR,NIGHT_CLEAR,NIGHT_CLEAR,NIGHT_CLEAR,NIGHT_CLEAR,NIGHT_CLEAR,CLEAR,CLEAR,CLEAR,CLEAR,CLEAR,CLEAR,CLEAR,CLEAR","Cross-shore,Cross-shore,Offshore,Offshore,Offshore,Offshore,Cross-shore,Cross-shore,Onshore,Onshore,Onshore,Cross-shore,Cross-shore,Cross-shore",14
5842041f4e65fad6a770896c,2023_12_10,34.405117655616,-119.84317,Campus Point,1,0,0.165,15,15,"NIGHT_CLEAR,NIGHT_CLEAR,NIGHT_CLEAR,NIGHT_CLEAR,NIGHT_CLEAR,NIGHT_CLEAR,CLEAR,CLEAR,CLEAR,CLEAR,CLEAR,CLEAR,CLEAR,CLEAR","Cross-shore,Cross-shore,Offshore,Offshore,Offshore,Offshore,Offshore,Cross-shore,Onshore,Cross-shore,Cross-shore,Cross-shore,Cross-shore,Cross-shore",14
5842041f4e65fad6a770896e,2023_12_10,34.38935162233354,-119.51955,Carpinteria State Beach,1,0,0.21642857142857141,16,16,"NIGHT_CLEAR,NIGHT_CLEAR,NIGHT_CLEAR,NIGHT_CLEAR,NIGHT_CLEAR,NIGHT_CLEAR,CLEAR,CLEAR,CLEAR,CLEAR,MIST,MIST,MIST,MIST","Onshore,Onshore,Onshore,Onshore,Onshore,Onshore,Cross-shore,Onshore,Onshore,Onshore,Onshore,Onshore,Offshore,Offshore",14
5842041f4e65fad6a770896f,2023_12_10,37.48296565175612,-122.4549300127824,Half Moon Bay,2.2142857142857144,0.385,0.6892857142857143,14,14,"NIGHT_CLEAR,NIGHT_CLEAR,NIGHT_CLEAR,NIGHT_CLEAR,NIGHT_CLEAR,NIGHT_CLEAR,NIGHT_CLEAR,CLEAR,CLEAR,CLEAR,CLEAR,CLEAR,CLEAR,CLEAR","Offshore,Offshore,Offshore,Offshore,Offshore,Offshore,Offshore,Offshore,Offshore,Offshore,Offshore,Offshore,Offshore,Offshore",14
5842041f4e65fad6a7708970,2023_12_10,37.499,-122.471,Princeton Jetty,2,0.30857142857142855,0.6128571428571429,14,14,"NIGHT_CLEAR,NIGHT_CLEAR,NIGHT_CLEAR,NIGHT_CLEAR,NIGHT_CLEAR,NIGHT_CLEAR,NIGHT_CLEAR,CLEAR,CLEAR,CLEAR,CLEAR,CLEAR,CLEAR,CLEAR","Offshore,Offshore,Offshore,Offshore,Offshore,Offshore,Offshore,Offshore,Offshore,Offshore,Offshore,Offshore,Offshore,Offshore",14
5842041f4e65fad6a7708972,2023_12_10,37.35699547365155,-122.4069534707252,Tunitas Creek,3.142857142857143,0.8285714285714285,1.1157142857142857,14,14,"NIGHT_CLEAR,NIGHT_CLEAR,NIGHT_CLEAR,NIGHT_CLEAR,NIGHT_CLEAR,NIGHT_CLEAR,NIGHT_CLEAR,CLEAR,CLEAR,CLEAR,CLEAR,CLEAR,CLEAR,CLEAR","Offshore,Offshore,Offshore,Offshore,Offshore,Offshore,Offshore,Offshore,Offshore,Offshore,Offshore,Offshore,Offshore,Offshore",14
5842041f4e65fad6a7708974,2023_12_10,37.54735589428842,-122.5161090212687,Montara,2.7857142857142856,0.7107142857142857,0.9835714285714285,14,14,"NIGHT_CLEAR,NIGHT_CLEAR,NIGHT_CLEAR,NIGHT_CLEAR,NIGHT_CLEAR,NIGHT_CLEAR,NIGHT_CLEAR,CLEAR,CLEAR,CLEAR,CLEAR,CLEAR,CLEAR,CLEAR","Offshore,Offshore,Offshore,Offshore,Offshore,Offshore,Offshore,Offshore,Offshore,Offshore,Offshore,Offshore,Cross-shore,Cross-shore",14
5842041f4e65fad6a7708975,2023_12_10,34.3869373724559,-119.5142334209018,Tarpits,1,0,0.21571428571428572,16,16,"NIGHT_CLEAR,NIGHT_CLEAR,NIGHT_CLEAR,NIGHT_CLEAR,NIGHT_CLEAR,NIGHT_CLEAR,CLEAR,CLEAR,CLEAR,CLEAR,CLEAR,CLEAR,CLEAR,CLEAR","Onshore,Onshore,Onshore,Onshore,Onshore,Onshore,Onshore,Onshore,Onshore,Onshore,Cross-shore,Cross-shore,Offshore,Offshore",14
5842041f4e65fad6a7708976,2023_12_10,37.59881852720143,-122.50463,Pacifica / Linda Mar,2,0.27343809523809526,0.5822809523809523,14,14,"NIGHT_CLEAR,NIGHT_CLEAR,NIGHT_CLEAR,NIGHT_CLEAR,NIGHT_CLEAR,NIGHT_CLEAR,NIGHT_CLEAR,CLEAR,CLEAR,CLEAR,CLEAR,CLEAR,CLEAR,CLEAR","Offshore,Offshore,Offshore,Offshore,Offshore,Offshore,Offshore,Offshore,Offshore,Offshore,Offshore,Offshore,Cross-shore,Cross-shore",14
5842041f4e65fad6a7708978,2023_12_10,37.59883098461164,-122.5143843582282,Pedro Point,1.9285714285714286,0.6157142857142857,0.9207142857142857,13.285714285714286,13.285714285714286,"NIGHT_CLEAR,NIGHT_CLEAR,NIGHT_CLEAR,NIGHT_CLEAR,NIGHT_CLEAR,NIGHT_CLEAR,NIGHT_CLEAR,CLEAR,CLEAR,CLEAR,CLEAR,CLEAR,CLEAR,CLEAR","Cross-shore,Cross-shore,Offshore,Cross-shore,Cross-shore,Cross-shore,Offshore,Offshore,Offshore,Cross-shore,Cross-shore,Cross-shore,Cross-shore,Cross-shore",14
5842041f4e65fad6a7708979,2023_12_10,37.61081996647663,-122.4973287570634,Rockaway,2.7857142857142856,0.6328571428571429,0.9364285714285714,13.285714285714286,13.285714285714286,"NIGHT_CLEAR,NIGHT_CLEAR,NIGHT_CLEAR,NIGHT_CLEAR,NIGHT_CLEAR,NIGHT_CLEAR,NIGHT_CLEAR,CLEAR,CLEAR,CLEAR,CLEAR,CLEAR,CLEAR,CLEAR","Offshore,Offshore,Offshore,Offshore,Offshore,Offshore,Offshore,Offshore,Offshore,Offshore,Offshore,Offshore,Offshore,Cross-shore",14
5842041f4e65fad6a770897a,2023_12_10,37.809987384424446,-122.4751353263855,Fort Point,2.0714285714285716,0.3057142857142857,0.6107142857142857,13,13,"NIGHT_CLEAR,NIGHT_CLEAR,NIGHT_CLEAR,NIGHT_CLEAR,NIGHT_CLEAR,NIGHT_CLEAR,NIGHT_CLEAR,CLEAR,CLEAR,CLEAR,CLEAR,CLEAR,CLEAR,CLEAR","Offshore,Offshore,Offshore,Offshore,Offshore,Offshore,Offshore,Offshore,Offshore,Offshore,Offshore,Offshore,Offshore,Offshore",14
5842041f4e65fad6a770897c,2023_12_10,37.63422542967464,-122.4951,Sharp Park,3,0.7614285714285715,1.0071428571428571,13,13,"NIGHT_CLEAR,NIGHT_CLEAR,NIGHT_CLEAR,NIGHT_CLEAR,NIGHT_CLEAR,NIGHT_CLEAR,NIGHT_CLEAR,CLEAR,CLEAR,CLEAR,CLEAR,CLEAR,CLEAR,CLEAR","Offshore,Offshore,Offshore,Offshore,Offshore,Offshore,Offshore,Offshore,Offshore,Offshore,Offshore,Offshore,Offshore,Offshore",14
5842041f4e65fad6a770897d,2023_12_10,37.27313605072472,-122.4127387912554,Pescadero,2.7857142857142856,0.785,1.0792857142857142,14,14,"NIGHT_CLEAR,NIGHT_CLEAR,NIGHT_CLEAR,NIGHT_CLEAR,NIGHT_CLEAR,NIGHT_CLEAR,NIGHT_CLEAR,CLEAR,CLEAR,CLEAR,CLEAR,CLEAR,CLEAR,CLEAR","Offshore,Offshore,Offshore,Offshore,Offshore,Offshore,Offshore,Offshore,Offshore,Offshore,Cross-shore,Cross-shore,Cross-shore,Cross-shore",14
5842041f4e65fad6a770897e,2023_12_10,37.18140279972666,-122.3926685899327,Pigeon Point,3,0.8157142857142857,1.062142857142857,14,14,"NIGHT_CLEAR,NIGHT_CLEAR,NIGHT_CLEAR,NIGHT_CLEAR,NIGHT_CLEAR,NIGHT_CLEAR,NIGHT_CLEAR,CLEAR,CLEAR,CLEAR,CLEAR,CLEAR,CLEAR,CLEAR","Cross-shore,Cross-shore,Cross-shore,Cross-shore,Cross-shore,Cross-shore,Offshore,Offshore,Offshore,Offshore,Offshore,Offshore,Offshore,Offshore",14
5842041f4e65fad6a770897f,2023_12_10,37.11578956919415,-122.314699271291,Ano Nuevo,3,0.4685714285714286,0.7735714285714286,14,14,"NIGHT_CLEAR,NIGHT_CLEAR,NIGHT_CLEAR,NIGHT_CLEAR,NIGHT_CLEAR,NIGHT_CLEAR,NIGHT_CLEAR,CLEAR,CLEAR,CLEAR,CLEAR,CLEAR,CLEAR,CLEAR","Onshore,Onshore,Cross-shore,Cross-shore,Cross-shore,Cross-shore,Cross-shore,Offshore,Offshore,Offshore,Offshore,Offshore,Offshore,Offshore",14
5842041f4e65fad6a7708980,2023_12_10,37.09520872681598,-122.2805474707768,Waddell Creek,2.9285714285714284,0.61,0.9142857142857143,14,14,"NIGHT_CLEAR,NIGHT_CLEAR,NIGHT_CLEAR,NIGHT_CLEAR,NIGHT_CLEAR,NIGHT_CLEAR,NIGHT_CLEAR,CLEAR,CLEAR,CLEAR,CLEAR,CLEAR,CLEAR,CLEAR","Cross-shore,Offshore,Offshore,Cross-shore,Offshore,Offshore,Offshore,Offshore,Offshore,Cross-shore,Onshore,Onshore,Onshore,Cross-shore",14
5842041f4e65fad6a7708981,2023_12_10,36.96512852130351,-122.1252825495626,Four Mile,3,0.38785714285714284,0.6935714285714286,14,14,"NIGHT_CLEAR,NIGHT_CLEAR,NIGHT_CLEAR,NIGHT_CLEAR,NIGHT_CLEAR,NIGHT_CLEAR,NIGHT_CLEAR,CLEAR,CLEAR,CLEAR,CLEAR,CLEAR,CLEAR,CLEAR","Offshore,Offshore,Offshore,Offshore,Offshore,Offshore,Offshore,Offshore,Offshore,Cross-shore,Cross-shore,Cross-shore,Cross-shore,Offshore",14
5842041f4e65fad6a7708982,2023_12_10,37.04122807048655,-122.2333684729756,Scott Creek,2.9285714285714284,0.6321428571428571,0.9242857142857143,14.714285714285714,14.714285714285714,"NIGHT_CLEAR,NIGHT_CLEAR,NIGHT_CLEAR,NIGHT_CLEAR,NIGHT_CLEAR,NIGHT_CLEAR,NIGHT_CLEAR,CLEAR,CLEAR,CLEAR,CLEAR,CLEAR,CLEAR,CLEAR","Onshore,Cross-shore,Offshore,Onshore,Cross-shore,Cross-shore,Cross-shore,Offshore,Cross-shore,Cross-shore,Onshore,Onshore,Onshore,Cross-shore",14
5842041f4e65fad6a7708983,2023_12_10,37.02350229387179,-122.21908,Davenport,2.9285714285714284,0.5721428571428572,0.8792857142857142,15,15,"NIGHT_CLEAR,NIGHT_CLEAR,NIGHT_CLEAR,NIGHT_CLEAR,NIGHT_CLEAR,NIGHT_CLEAR,NIGHT_CLEAR,CLEAR,CLEAR,CLEAR,CLEAR,CLEAR,CLEAR,CLEAR","Onshore,Cross-shore,Cross-shore,Cross-shore,Cross-shore,Cross-shore,Cross-shore,Cross-shore,Cross-shore,Cross-shore,Cross-shore,Onshore,Onshore,Cross-shore",14
5842041f4e65fad6a7708986,2023_12_10,36.94905295955728,-122.0611823912244,Natural Bridges,3,0.5314285714285715,0.8357142857142857,14,14,"NIGHT_CLEAR,NIGHT_CLEAR,NIGHT_CLEAR,NIGHT_CLEAR,NIGHT_CLEAR,NIGHT_CLEAR,NIGHT_CLEAR,CLEAR,CLEAR,CLEAR,CLEAR,CLEAR,CLEAR,CLEAR","Offshore,Offshore,Offshore,Offshore,Offshore,Offshore,Offshore,Offshore,Offshore,Offshore,Onshore,Onshore,Onshore,Cross-shore",14
5842041f4e65fad6a7708987,2023_12_10,36.95154854910425,-122.0420693940968,Mitchell's Cove,2,0.18214285714285713,0.4878571428571429,14,14,"NIGHT_CLEAR,NIGHT_CLEAR,NIGHT_CLEAR,NIGHT_CLEAR,NIGHT_CLEAR,NIGHT_CLEAR,NIGHT_CLEAR,CLEAR,CLEAR,CLEAR,CLEAR,CLEAR,CLEAR,CLEAR","Offshore,Offshore,Offshore,Offshore,Offshore,Offshore,Offshore,Offshore,Offshore,Offshore,Offshore,Onshore,Onshore,Onshore",14
5842041f4e65fad6a770898a,2023_12_10,36.9572312370203,-121.98177,26th Ave,2.857142857142857,0.33,0.6342857142857142,14,14,"NIGHT_CLEAR,NIGHT_CLEAR,NIGHT_CLEAR,NIGHT_CLEAR,NIGHT_CLEAR,NIGHT_CLEAR,NIGHT_CLEAR,CLEAR,CLEAR,CLEAR,CLEAR,CLEAR,CLEAR,CLEAR","Offshore,Offshore,Offshore,Offshore,Offshore,Offshore,Offshore,Offshore,Offshore,Offshore,Offshore,Onshore,Onshore,Onshore",14
5842041f4e65fad6a770898e,2023_12_10,36.91899972819882,-121.85536,Manresa,3,0.4471428571428571,0.7514285714285714,14,14,"NIGHT_CLEAR,NIGHT_CLEAR,NIGHT_CLEAR,NIGHT_CLEAR,NIGHT_CLEAR,NIGHT_CLEAR,NIGHT_CLEAR,CLEAR,CLEAR,CLEAR,CLEAR,CLEAR,CLEAR,CLEAR","Offshore,Offshore,Offshore,Offshore,Offshore,Offshore,Offshore,Offshore,Offshore,Offshore,Offshore,Offshore,Onshore,Onshore",14
5842041f4e65fad6a7708990,2023_12_10,34.45747731928454,-120.34242,The Ranch,2,0.029285714285714286,0.3342857142857143,15,15,"NIGHT_CLEAR,NIGHT_CLEAR,NIGHT_CLEAR,NIGHT_CLEAR,NIGHT_CLEAR,NIGHT_CLEAR,CLEAR,CLEAR,CLEAR,CLEAR,CLEAR,CLEAR,CLEAR,CLEAR","Offshore,Cross-shore,Offshore,Offshore,Offshore,Offshore,Offshore,Cross-shore,Cross-shore,Onshore,Onshore,Onshore,Onshore,Cross-shore",14
5842041f4e65fad6a7708991,2023_12_10,34.50875036590315,-120.50348,Jalama,2.2142857142857144,0.2714285714285714,0.5757142857142857,14,14,"NIGHT_CLEAR,NIGHT_CLEAR,NIGHT_CLEAR,NIGHT_CLEAR,NIGHT_CLEAR,NIGHT_CLEAR,CLEAR,CLEAR,CLEAR,CLEAR,CLEAR,MIST,MIST,MIST","Offshore,Onshore,Cross-shore,Offshore,Offshore,Offshore,Onshore,Offshore,Offshore,Onshore,Onshore,Onshore,Onshore,Onshore",14
5842041f4e65fad6a7708996,2023_12_10,34.68700870220497,-120.6111611019887,Surf Beach,3.642857142857143,1.2057142857142857,1.407857142857143,14,14,"NIGHT_CLEAR,NIGHT_CLEAR,NIGHT_CLEAR,NIGHT_CLEAR,NIGHT_CLEAR,NIGHT_CLEAR,CLEAR,CLEAR,CLEAR,CLEAR,CLEAR,CLEAR,CLEAR,CLEAR","Offshore,Offshore,Offshore,Offshore,Offshore,Offshore,Offshore,Offshore,Offshore,Offshore,Onshore,Onshore,Onshore,Onshore",14
5842041f4e65fad6a770899c,2023_12_10,35.5730538161116,-121.1143362345574,Moonstone,2.2857142857142856,0.4257142857142857,0.73,14,14,"NIGHT_CLEAR,NIGHT_CLEAR,NIGHT_CLEAR,NIGHT_CLEAR,NIGHT_CLEAR,NIGHT_CLEAR,NIGHT_CLEAR,CLEAR,CLEAR,CLEAR,CLEAR,CLEAR,CLEAR,CLEAR","Offshore,Offshore,Offshore,Offshore,Offshore,Offshore,Offshore,Offshore,Offshore,Offshore,Offshore,Offshore,Offshore,Offshore",14
5842041f4e65fad6a770899d,2023_12_10,35.61533716776573,-121.1502053073914,Pico Creek,2.357142857142857,0.4828571428571429,0.7871428571428571,14,14,"NIGHT_CLEAR,NIGHT_CLEAR,NIGHT_CLEAR,NIGHT_CLEAR,NIGHT_CLEAR,NIGHT_CLEAR,NIGHT_CLEAR,CLEAR,CLEAR,CLEAR,CLEAR,CLEAR,CLEAR,CLEAR","Offshore,Offshore,Offshore,Offshore,Offshore,Offshore,Offshore,Offshore,Offshore,Offshore,Offshore,Offshore,Cross-shore,Cross-shore",14
5842041f4e65fad6a770899e,2023_12_10,35.56829031927379,-121.1120653023953,Santa Rosa Creek,2.2857142857142856,0.4257142857142857,0.73,14,14,"NIGHT_CLEAR,NIGHT_CLEAR,NIGHT_CLEAR,NIGHT_CLEAR,NIGHT_CLEAR,NIGHT_CLEAR,NIGHT_CLEAR,CLEAR,CLEAR,CLEAR,CLEAR,CLEAR,CLEAR,CLEAR","Offshore,Offshore,Offshore,Offshore,Offshore,Offshore,Offshore,Offshore,Offshore,Offshore,Offshore,Offshore,Offshore,Cross-shore",14
5842041f4e65fad6a77089a2,2023_12_10,35.44820114936284,-120.90715,"Cayucos Pier, Southside ",1,0.1,0.40214285714285714,14,14,"NIGHT_CLEAR,NIGHT_CLEAR,NIGHT_CLEAR,NIGHT_CLEAR,NIGHT_CLEAR,NIGHT_CLEAR,NIGHT_CLEAR,CLEAR,CLEAR,CLEAR,CLEAR,CLEAR,CLEAR,CLEAR","Offshore,Offshore,Offshore,Offshore,Offshore,Offshore,Offshore,Offshore,Offshore,Offshore,Offshore,Offshore,Offshore,Offshore",14
5842041f4e65fad6a77089a4,2023_12_10,35.30143372628852,-120.877819239902,Cable Landing,3.857142857142857,1.325,1.5335714285714286,14,14,"NIGHT_CLEAR,NIGHT_CLEAR,NIGHT_CLEAR,NIGHT_CLEAR,NIGHT_CLEAR,NIGHT_CLEAR,NIGHT_CLEAR,CLEAR,CLEAR,CLEAR,CLEAR,CLEAR,CLEAR,CLEAR","Offshore,Offshore,Offshore,Offshore,Offshore,Offshore,Offshore,Offshore,Offshore,Offshore,Offshore,Offshore,Offshore,Offshore",14
5842041f4e65fad6a77089a9,2023_12_10,35.61269103500222,-121.1480725356606,San Simeon,1.2857142857142858,0.2935,0.5065,14,14,"NIGHT_CLEAR,NIGHT_CLEAR,NIGHT_CLEAR,NIGHT_CLEAR,NIGHT_CLEAR,NIGHT_CLEAR,NIGHT_CLEAR,CLEAR,CLEAR,CLEAR,CLEAR,CLEAR,CLEAR,CLEAR","Offshore,Offshore,Offshore,Offshore,Offshore,Offshore,Offshore,Offshore,Offshore,Offshore,Offshore,Offshore,Offshore,Offshore",14
5842041f4e65fad6a77089ab,2023_12_10,35.1775325966252,-120.7341125142258,Avila Beach,1,0,0.17857142857142858,14,14,"NIGHT_CLEAR,NIGHT_CLEAR,NIGHT_CLEAR,NIGHT_CLEAR,NIGHT_CLEAR,NIGHT_CLEAR,CLEAR,CLEAR,CLEAR,CLEAR,CLEAR,CLEAR,CLEAR,CLEAR","Offshore,Offshore,Offshore,Offshore,Offshore,Offshore,Offshore,Offshore,Offshore,Offshore,Offshore,Cross-shore,Onshore,Onshore",14
5842041f4e65fad6a77089ac,2023_12_10,35.13877877884115,-120.64535,Pismo Beach Pier,2.987857142857143,0.49055952380952383,0.8030119047619048,15,15,"NIGHT_CLEAR,NIGHT_CLEAR,NIGHT_CLEAR,NIGHT_CLEAR,NIGHT_CLEAR,NIGHT_CLEAR,CLEAR,CLEAR,CLEAR,CLEAR,CLEAR,CLEAR,CLEAR,CLEAR","Offshore,Offshore,Offshore,Offshore,Offshore,Offshore,Offshore,Offshore,Offshore,Onshore,Onshore,Onshore,Onshore,Onshore",14
5842041f4e65fad6a77089ad,2023_12_10,46.8907710233147,-124.12964,Westport/Olympic Peninsula,1.3571428571428572,3.1185714285714283,3.4892857142857143,10,10,"NIGHT_RAIN,NIGHT_MIST,NIGHT_LIGHT_RAIN,NIGHT_OVERCAST,NIGHT_OVERCAST,NIGHT_MIST,NIGHT_CLOUDY,OVERCAST,MIST,MIST,MOSTLY_CLOUDY,OVERCAST,MIST,MIST","Onshore,Onshore,Onshore,Onshore,Onshore,Onshore,Onshore,Onshore,Onshore,Onshore,Onshore,Onshore,Onshore,Onshore",14
5842041f4e65fad6a77089ae,2023_12_10,46.35185177248545,-124.06747,Long Beach Peninsula,1.3571428571428572,3.611428571428571,4.046428571428572,10,10,"NIGHT_DRIZZLE,NIGHT_MIST,NIGHT_RAIN,NIGHT_MIST,NIGHT_MIST,NIGHT_MIST,NIGHT_MIST,MIST,MIST,MIST,MIST,DRIZZLE,MIST,MIST","Onshore,Onshore,Onshore,Onshore,Onshore,Onshore,Onshore,Onshore,Onshore,Onshore,Cross-shore,Onshore,Onshore,Onshore",14
5842041f4e65fad6a77089af,2023_12_10,47.90649175554033,-124.6370864743483,La Push,1.5714285714285714,3.185,3.63,9.714285714285714,9.714285714285714,"NIGHT_LIGHT_RAIN,NIGHT_MIST,NIGHT_RAIN,NIGHT_MIST,NIGHT_MIST,NIGHT_MIST,NIGHT_MOSTLY_CLOUDY,MIST,MOSTLY_CLOUDY,CLOUDY,MIST,MIST,OVERCAST,MIST","Onshore,Onshore,Onshore,Onshore,Onshore,Onshore,Onshore,Onshore,Onshore,Onshore,Onshore,Onshore,Onshore,Onshore",14
5842041f4e65fad6a77089b0,2023_12_10,42.04368239985442,-124.26828,Brookings Jetty,3,1.3898285714285714,2.1716064285714287,11,11,"NIGHT_CLEAR,NIGHT_CLEAR,NIGHT_MOSTLY_CLOUDY,NIGHT_MOSTLY_CLOUDY,NIGHT_MOSTLY_CLOUDY,NIGHT_MOSTLY_CLOUDY,NIGHT_CLOUDY,DRIZZLE,OVERCAST,OVERCAST,OVERCAST,CLOUDY,OVERCAST,RAIN","Cross-shore,Cross-shore,Cross-shore,Cross-shore,Cross-shore,Cross-shore,Cross-shore,Cross-shore,Cross-shore,Cross-shore,Cross-shore,Cross-shore,Onshore,Cross-shore",14
5842041f4e65fad6a77089b1,2023_12_10,42.74071837900346,-124.4983727491047,Port Orford,1,2.1457142857142855,2.5621428571428573,11.285714285714286,11.285714285714286,"NIGHT_CLEAR,NIGHT_MOSTLY_CLOUDY,NIGHT_MOSTLY_CLOUDY,NIGHT_MOSTLY_CLOUDY,NIGHT_MOSTLY_CLOUDY,NIGHT_BRIEF_SHOWERS,NIGHT_MOSTLY_CLOUDY,OVERCAST,OVERCAST,OVERCAST,LIGHT_RAIN,DRIZZLE,DRIZZLE,DRIZZLE","Onshore,Onshore,Onshore,Onshore,Onshore,Onshore,Onshore,Onshore,Onshore,Onshore,Onshore,Onshore,Onshore,Onshore",14
5842041f4e65fad6a77089b2,2023_12_10,44.01532689312291,-124.13865,Florence South Jetty,0.35714285714285715,3.567142857142857,3.9185714285714286,12,12,"NIGHT_OVERCAST,NIGHT_LIGHT_RAIN,NIGHT_OVERCAST,NIGHT_LIGHT_RAIN,NIGHT_OVERCAST,NIGHT_RAIN,NIGHT_RAIN,OVERCAST,OVERCAST,OVERCAST,LIGHT_RAIN,DRIZZLE,RAIN,RAIN","Cross-shore,Cross-shore,Cross-shore,Cross-shore,Cross-shore,Cross-shore,Cross-shore,Cross-shore,Cross-shore,Cross-shore,Cross-shore,Cross-shore,Onshore,Onshore",14
5842041f4e65fad6a77089b3,2023_12_10,42.41812540774362,-124.42945,Gold Beach South Jetty,1,2.597142857142857,2.912857142857143,11.285714285714286,11.285714285714286,"NIGHT_CLEAR,NIGHT_MOSTLY_CLOUDY,NIGHT_MOSTLY_CLOUDY,NIGHT_MOSTLY_CLOUDY,NIGHT_MOSTLY_CLOUDY,NIGHT_BRIEF_SHOWERS,NIGHT_DRIZZLE,OVERCAST,OVERCAST,OVERCAST,OVERCAST,OVERCAST,OVERCAST,LIGHT_RAIN","Onshore,Onshore,Onshore,Onshore,Onshore,Onshore,Onshore,Onshore,Onshore,Onshore,Onshore,Onshore,Onshore,Onshore",14
5842041f4e65fad6a77089b4,2023_12_10,44.95857310226525,-124.0219017690976,Lincoln City,0.7857142857142857,3.535,3.9214285714285713,11.714285714285714,11.714285714285714,"NIGHT_LIGHT_RAIN,NIGHT_LIGHT_RAIN,NIGHT_LIGHT_RAIN,NIGHT_DRIZZLE,NIGHT_RAIN,NIGHT_RAIN,NIGHT_LIGHT_RAIN,LIGHT_RAIN,RAIN,RAIN,RAIN,LIGHT_RAIN,RAIN,RAIN","Cross-shore,Cross-shore,Cross-shore,Cross-shore,Cross-shore,Cross-shore,Onshore,Cross-shore,Cross-shore,Cross-shore,Cross-shore,Cross-shore,Cross-shore,Cross-shore",14
5842041f4e65fad6a77089b5,2023_12_10,44.63792761362982,-124.0657,Newport,0.2857142857142857,3.7714285714285714,4.1814285714285715,11,11,"NIGHT_OVERCAST,NIGHT_LIGHT_RAIN,NIGHT_DRIZZLE,NIGHT_LIGHT_RAIN,NIGHT_OVERCAST,NIGHT_RAIN,NIGHT_OVERCAST,LIGHT_RAIN,LIGHT_RAIN,LIGHT_RAIN,OVERCAST,DRIZZLE,LIGHT_RAIN,RAIN","Onshore,Onshore,Onshore,Onshore,Onshore,Onshore,Onshore,Onshore,Onshore,Onshore,Onshore,Onshore,Onshore,Onshore",14
5842041f4e65fad6a77089b6,2023_12_10,45.61468496266301,-123.94643,Rockaway Beach,1.2142857142857142,3.5964285714285715,4.005,11,11,"NIGHT_RAIN,NIGHT_RAIN,NIGHT_HEAVY_RAIN,NIGHT_HEAVY_RAIN,NIGHT_HEAVY_RAIN,NIGHT_HEAVY_RAIN,NIGHT_RAIN,DRIZZLE,MIST,MIST,MIST,MIST,LIGHT_RAIN,MIST","Cross-shore,Cross-shore,Onshore,Onshore,Cross-shore,Cross-shore,Onshore,Cross-shore,Onshore,Onshore,Onshore,Onshore,Onshore,Onshore",14
5842041f4e65fad6a77089b7,2023_12_10,45.20252914186085,-123.96975,Pacific City,0.7142857142857143,3.424145238095238,3.881604761904762,12,12,"NIGHT_HEAVY_RAIN,NIGHT_LIGHT_RAIN,NIGHT_RAIN,NIGHT_HEAVY_RAIN,NIGHT_HEAVY_RAIN,NIGHT_HEAVY_RAIN,NIGHT_HEAVY_RAIN,LIGHT_RAIN,RAIN,RAIN,RAIN,DRIZZLE,RAIN,LIGHT_RAIN","Onshore,Onshore,Onshore,Onshore,Onshore,Onshore,Onshore,Onshore,Onshore,Onshore,Onshore,Onshore,Onshore,Onshore",14
5842041f4e65fad6a77089b8,2023_12_10,45.88179930310263,-123.96681,Cannon Beach,1,3.6414285714285715,4.055714285714286,11,11,"NIGHT_HEAVY_RAIN,NIGHT_LIGHT_RAIN,NIGHT_HEAVY_RAIN,NIGHT_RAIN,NIGHT_RAIN,NIGHT_HEAVY_RAIN,NIGHT_RAIN,OVERCAST,MIST,MIST,DRIZZLE,LIGHT_RAIN,LIGHT_RAIN,MIST","Onshore,Onshore,Onshore,Onshore,Onshore,Onshore,Onshore,Onshore,Onshore,Onshore,Onshore,Onshore,Onshore,Onshore",14
5842041f4e65fad6a77089ba,2023_12_10,40.02528754746774,-124.06372,Shelter Cove,2.7857142857142856,0.5230878571428571,0.817325,13,13,"NIGHT_CLEAR,NIGHT_CLEAR,NIGHT_CLEAR,NIGHT_CLEAR,NIGHT_CLEAR,NIGHT_CLEAR,NIGHT_CLEAR,CLEAR,MIST,MIST,MIST,MIST,MIST,MIST","Offshore,Offshore,Offshore,Offshore,Offshore,Offshore,Offshore,Offshore,Offshore,Offshore,Cross-shore,Offshore,Offshore,Offshore",14
5842041f4e65fad6a77089bb,2023_12_10,40.76816197136951,-124.24248,Humboldt Harbor Entrance,3.5,2.0942857142857143,2.369285714285714,12,12,"NIGHT_CLEAR,NIGHT_CLEAR,NIGHT_CLEAR,NIGHT_CLEAR,NIGHT_CLEAR,NIGHT_CLEAR,NIGHT_CLEAR,CLEAR,CLEAR,CLEAR,CLEAR,MOSTLY_CLOUDY,MOSTLY_CLEAR,CLEAR","Cross-shore,Offshore,Cross-shore,Cross-shore,Offshore,Cross-shore,Cross-shore,Cross-shore,Offshore,Cross-shore,Cross-shore,Cross-shore,Cross-shore,Cross-shore",14
5842041f4e65fad6a77089bc,2023_12_10,40.76684246920174,-124.23107,North Jetty,3.357142857142857,2.04,2.2742857142857145,12,12,"NIGHT_CLEAR,NIGHT_CLEAR,NIGHT_CLEAR,NIGHT_CLEAR,NIGHT_CLEAR,NIGHT_CLEAR,NIGHT_CLEAR,CLEAR,CLEAR,CLEAR,CLEAR,CLEAR,CLEAR,CLEAR","Offshore,Offshore,Offshore,Offshore,Offshore,Offshore,Offshore,Offshore,Offshore,Offshore,Cross-shore,Cross-shore,Cross-shore,Offshore",14
5842041f4e65fad6a77089bd,2023_12_10,41.02731183893966,-124.1149972888982,Westhaven,3.357142857142857,2.8049999999999997,3.157142857142857,12,12,"NIGHT_CLEAR,NIGHT_CLEAR,NIGHT_CLEAR,NIGHT_CLEAR,NIGHT_CLEAR,NIGHT_CLEAR,NIGHT_CLEAR,CLEAR,CLEAR,CLEAR,CLEAR,CLOUDY,MOSTLY_CLEAR,CLEAR","Offshore,Offshore,Offshore,Offshore,Offshore,Offshore,Offshore,Offshore,Offshore,Offshore,Cross-shore,Cross-shore,Cross-shore,Cross-shore",14
5842041f4e65fad6a77089be,2023_12_10,41.13016238153297,-124.16466,Sue-meg,3.9285714285714284,2.317142857142857,2.6035714285714286,12,12,"NIGHT_CLEAR,NIGHT_CLEAR,NIGHT_CLEAR,NIGHT_CLEAR,NIGHT_CLEAR,NIGHT_CLEAR,NIGHT_CLEAR,CLEAR,CLEAR,CLEAR,CLEAR,CLEAR,MOSTLY_CLEAR,CLEAR","Offshore,Offshore,Offshore,Offshore,Offshore,Offshore,Offshore,Offshore,Offshore,Offshore,Offshore,Offshore,Cross-shore,Offshore",14
5842041f4e65fad6a77089bf,2023_12_10,37.8289474958188,-122.5376795097543,Fort Cronkite/Rodeo Beach,2.857142857142857,0.6014285714285714,0.8892857142857142,13,13,"NIGHT_CLEAR,NIGHT_CLEAR,NIGHT_CLEAR,NIGHT_CLEAR,NIGHT_CLEAR,NIGHT_CLEAR,NIGHT_CLEAR,CLEAR,CLEAR,CLEAR,CLEAR,CLEAR,CLEAR,CLEAR","Offshore,Offshore,Offshore,Offshore,Offshore,Offshore,Offshore,Offshore,Offshore,Offshore,Offshore,Offshore,Offshore,Offshore",14
5842041f4e65fad6a77089c0,2023_12_10,41.74415759876137,-124.1771718063073,South Beach CA,3,1.5807142857142857,1.8414285714285714,11,11,"NIGHT_CLEAR,NIGHT_CLEAR,NIGHT_CLEAR,NIGHT_CLEAR,NIGHT_CLEAR,NIGHT_CLEAR,NIGHT_CLEAR,CLEAR,OVERCAST,OVERCAST,OVERCAST,CLEAR,CLEAR,OVERCAST","Onshore,Onshore,Onshore,Onshore,Onshore,Onshore,Onshore,Onshore,Onshore,Onshore,Onshore,Onshore,Onshore,Onshore",14
5842041f4e65fad6a77089c1,2023_12_10,37.89801283969752,-122.64519,Stinson Beach,2,0.095,0.4007142857142857,13,13,"NIGHT_CLEAR,NIGHT_CLEAR,NIGHT_CLEAR,NIGHT_CLEAR,NIGHT_CLEAR,NIGHT_CLEAR,NIGHT_CLEAR,CLEAR,CLEAR,CLEAR,CLEAR,CLEAR,CLEAR,CLEAR","Cross-shore,Cross-shore,Cross-shore,Cross-shore,Cross-shore,Cross-shore,Cross-shore,Onshore,Cross-shore,Offshore,Cross-shore,Cross-shore,Cross-shore,Cross-shore",14
5842041f4e65fad6a77089c2,2023_12_10,37.90514516176495,-122.68151,Bolinas,2,0.27083357142857145,0.4231785714285714,13,13,"NIGHT_CLEAR,NIGHT_CLEAR,NIGHT_CLEAR,NIGHT_CLEAR,NIGHT_CLEAR,NIGHT_CLEAR,NIGHT_CLEAR,CLEAR,CLEAR,CLEAR,CLEAR,CLEAR,CLEAR,CLEAR","Cross-shore,Onshore,Onshore,Onshore,Onshore,Onshore,Onshore,Onshore,Onshore,Offshore,Offshore,Offshore,Offshore,Offshore",14
5842041f4e65fad6a77089c3,2023_12_10,38.04892513158693,-122.9892494965416,Point Reyes (north),3,1.21,1.447857142857143,13,13,"NIGHT_CLEAR,NIGHT_CLEAR,NIGHT_CLEAR,NIGHT_CLEAR,NIGHT_CLEAR,NIGHT_CLEAR,NIGHT_CLEAR,CLEAR,CLEAR,CLEAR,CLEAR,CLEAR,CLEAR,CLEAR","Cross-shore,Offshore,Offshore,Cross-shore,Offshore,Offshore,Cross-shore,Offshore,Cross-shore,Cross-shore,Cross-shore,Onshore,Onshore,Onshore",14
5842041f4e65fad6a77089c6,2023_12_10,38.31088736605785,-123.0496777333731,Doran Beach,1.5714285714285714,0.02,0.30642857142857144,13,13,"NIGHT_CLEAR,NIGHT_CLEAR,NIGHT_CLEAR,NIGHT_CLEAR,NIGHT_CLEAR,NIGHT_CLEAR,NIGHT_CLEAR,CLEAR,CLEAR,CLEAR,CLEAR,CLEAR,CLEAR,CLEAR","Offshore,Cross-shore,Cross-shore,Cross-shore,Cross-shore,Offshore,Offshore,Cross-shore,Offshore,Offshore,Cross-shore,Cross-shore,Offshore,Offshore",14
5842041f4e65fad6a77089c7,2023_12_10,38.45077228660809,-123.13008,Russian Rivermouth,3,0.8421428571428571,1.1064285714285713,12.714285714285714,12.714285714285714,"NIGHT_CLEAR,NIGHT_CLEAR,NIGHT_CLEAR,NIGHT_CLEAR,NIGHT_CLEAR,NIGHT_CLEAR,NIGHT_CLEAR,CLEAR,CLEAR,CLEAR,CLEAR,CLEAR,CLEAR,CLEAR","Offshore,Offshore,Offshore,Offshore,Cross-shore,Cross-shore,Cross-shore,Cross-shore,Onshore,Onshore,Onshore,Onshore,Onshore,Onshore",14
5842041f4e65fad6a77089c8,2023_12_10,38.35329968518107,-123.06906,Salmon Creek,3,0.9321428571428572,1.167142857142857,13,13,"NIGHT_CLEAR,NIGHT_CLEAR,NIGHT_CLEAR,NIGHT_CLEAR,NIGHT_CLEAR,NIGHT_CLEAR,NIGHT_CLEAR,CLEAR,CLEAR,CLEAR,CLEAR,CLEAR,MIST,MIST","Offshore,Offshore,Offshore,Offshore,Offshore,Offshore,Cross-shore,Offshore,Offshore,Onshore,Onshore,Onshore,Onshore,Onshore",14
5842041f4e65fad6a77089c9,2023_12_10,38.6845180197959,-123.4322714291198,Black Point Beach,2.857142857142857,0.5278571428571428,0.8121428571428572,13,13,"NIGHT_CLEAR,NIGHT_CLEAR,NIGHT_CLEAR,NIGHT_CLEAR,NIGHT_CLEAR,NIGHT_CLEAR,NIGHT_CLEAR,CLEAR,CLEAR,CLEAR,CLEAR,CLEAR,CLEAR,CLEAR","Offshore,Offshore,Offshore,Offshore,Offshore,Offshore,Offshore,Offshore,Offshore,Onshore,Onshore,Onshore,Onshore,Onshore",14
5842041f4e65fad6a77089ca,2023_12_10,43.251076,-70.59144,Ogunquit,1.25,0.35300952380952383,0.6572690476190476,7,6,"NIGHT_OVERCAST,NIGHT_MIST,NIGHT_CLOUDY,NIGHT_MIST,NIGHT_MIST,MIST,MIST,CLOUDY,CLEAR,CLEAR,CLEAR,MIST,MIST,NIGHT_CLEAR","Offshore,Offshore,Onshore,Cross-shore,Cross-shore,Cross-shore,Cross-shore,Cross-shore,Cross-shore,Cross-shore,Cross-shore,Cross-shore,Onshore,Cross-shore",14
5842041f4e65fad6a77089cb,2023_12_10,41.362631366305415,-71.48006772942608,Point Judith,1.0121428571428572,0.20208333333333334,0.5079523809523809,9,8,"NIGHT_MIST,NIGHT_MIST,NIGHT_MIST,NIGHT_MIST,MIST,MIST,MIST,MIST,MIST,MIST,MIST,MIST,MIST,NIGHT_MIST","Offshore,Cross-shore,Cross-shore,Cross-shore,Cross-shore,Cross-shore,Offshore,Cross-shore,Cross-shore,Cross-shore,Offshore,Cross-shore,Offshore,Offshore",14
5842041f4e65fad6a77089cd,2023_12_10,41.422678090954726,-71.45413,Monahan's - Narragansett,0.8571428571428571,0.15676214285714285,0.24493642857142855,9,9,"NIGHT_MIST,NIGHT_MIST,NIGHT_MIST,NIGHT_MIST,MIST,MIST,MIST,MIST,MIST,MIST,MIST,MIST,MIST,NIGHT_MIST","Cross-shore,Cross-shore,Cross-shore,Cross-shore,Cross-shore,Cross-shore,Cross-shore,Cross-shore,Cross-shore,Cross-shore,Cross-shore,Cross-shore,Cross-shore,Cross-shore",14
5842041f4e65fad6a77089ce,2023_12_10,41.469,-71.293,Ruggles - Newport,1.0714285714285714,0.4547492857142857,0.7105457142857143,9,9,"NIGHT_MIST,NIGHT_MIST,NIGHT_MIST,NIGHT_DRIZZLE,MIST,MIST,DRIZZLE,MIST,MIST,MIST,DRIZZLE,MIST,MIST,NIGHT_MIST","Onshore,Onshore,Onshore,Onshore,Onshore,Onshore,Onshore,Onshore,Onshore,Onshore,Onshore,Onshore,Onshore,Onshore",14
5842041f4e65fad6a77089cf,2023_12_10,43.175394,-70.606351,Short Sands Beach,1.2857142857142858,0.3542857142857143,0.6578571428571428,7,7,"NIGHT_OVERCAST,NIGHT_OVERCAST,NIGHT_MIST,NIGHT_MIST,NIGHT_MIST,MIST,MIST,MOSTLY_CLOUDY,CLEAR,CLEAR,CLEAR,MIST,HEAVY_RAIN,NIGHT_MOSTLY_CLOUDY","Onshore,Onshore,Onshore,Cross-shore,Cross-shore,Cross-shore,Cross-shore,Cross-shore,Cross-shore,Cross-shore,Cross-shore,Cross-shore,Cross-shore,Cross-shore",14
5842041f4e65fad6a77089d0,2023_12_10,41.487408,-71.29017,First Beach,0.6428571428571429,0.07428571428571429,0.35285714285714287,9,9,"NIGHT_MIST,NIGHT_MIST,NIGHT_OVERCAST,NIGHT_MIST,OVERCAST,MIST,DRIZZLE,MIST,OVERCAST,MIST,DRIZZLE,MIST,MIST,NIGHT_MIST","Onshore,Onshore,Onshore,Onshore,Onshore,Onshore,Onshore,Onshore,Onshore,Onshore,Onshore,Onshore,Onshore,Onshore",14
5842041f4e65fad6a77089d1,2023_12_10,42.27916830233153,-70.86498,Nantasket Beach,0.6071428571428571,0,0.24562380952380952,9,7,"NIGHT_MIST,NIGHT_MIST,NIGHT_MIST,NIGHT_MIST,NIGHT_MIST,MIST,MIST,CLEAR,CLEAR,CLEAR,CLEAR,MOSTLY_CLOUDY,BRIEF_SHOWERS,NIGHT_MIST","Offshore,Offshore,Offshore,Offshore,Offshore,Offshore,Offshore,Offshore,Offshore,Offshore,Offshore,Offshore,Offshore,Offshore",14
5842041f4e65fad6a77089d2,2023_12_10,41.817,-69.935,Cape Cod,0.8571428571428571,0.03142857142857143,0.33571428571428574,8,8,"NIGHT_MIST,NIGHT_MIST,NIGHT_MIST,NIGHT_MIST,MIST,MIST,MIST,MIST,MIST,MIST,MIST,MIST,MIST,NIGHT_MIST","Onshore,Cross-shore,Cross-shore,Cross-shore,Cross-shore,Cross-shore,Cross-shore,Cross-shore,Cross-shore,Cross-shore,Cross-shore,Cross-shore,Cross-shore,Cross-shore",14
5842041f4e65fad6a77089d3,2023_12_10,42.22055448975661,-70.70634873403819,Egypt Beach,1,0,0.19714285714285715,8,8,"NIGHT_MIST,NIGHT_MIST,NIGHT_MIST,NIGHT_MIST,MIST,MIST,MIST,CLEAR,CLEAR,CLEAR,CLEAR,MIST,BRIEF_SHOWERS,NIGHT_CLEAR","Cross-shore,Cross-shore,Cross-shore,Cross-shore,Cross-shore,Cross-shore,Cross-shore,Cross-shore,Cross-shore,Cross-shore,Cross-shore,Cross-shore,Cross-shore,Cross-shore",14
5842041f4e65fad6a77089d4,2023_12_10,41.48739647744607,-71.25723,Second Beach,0.8092857142857143,0.32778065476190477,0.5715727380952381,9,8,"NIGHT_MIST,NIGHT_MIST,NIGHT_MIST,NIGHT_MIST,MIST,MIST,DRIZZLE,MIST,MIST,MIST,DRIZZLE,MIST,LIGHT_RAIN,NIGHT_MIST","Onshore,Onshore,Onshore,Onshore,Onshore,Onshore,Onshore,Onshore,Onshore,Onshore,Onshore,Onshore,Onshore,Onshore",14
5842041f4e65fad6a77089d5,2023_12_10,42.964,-70.769,Fox Hill,1.2857142857142858,0.25747380952380955,0.5633404761904762,7,6,"NIGHT_MIST,NIGHT_MIST,NIGHT_MIST,NIGHT_MIST,NIGHT_MIST,MIST,MIST,CLEAR,CLEAR,CLEAR,CLEAR,CLEAR,RAIN,NIGHT_OVERCAST","Onshore,Onshore,Cross-shore,Cross-shore,Onshore,Onshore,Onshore,Onshore,Onshore,Onshore,Onshore,Onshore,Onshore,Onshore",14
5842041f4e65fad6a77089d6,2023_12_10,42.991359,-70.75149,Straws Point,1.2857142857142858,0.2717,0.5787571428571429,7,6,"NIGHT_MIST,NIGHT_MIST,NIGHT_MIST,NIGHT_MIST,NIGHT_MIST,MIST,MIST,CLEAR,CLEAR,CLEAR,CLEAR,CLEAR,RAIN,NIGHT_CLOUDY","Onshore,Onshore,Onshore,Onshore,Onshore,Onshore,Onshore,Onshore,Onshore,Onshore,Onshore,Onshore,Onshore,Onshore",14
5842041f4e65fad6a77089d7,2023_12_10,42.946,-70.786,Plaice Cove,1.2857142857142858,0.25747380952380955,0.5633404761904762,7,6,"NIGHT_MIST,NIGHT_MIST,NIGHT_MIST,NIGHT_DRIZZLE,NIGHT_MIST,MIST,MIST,CLEAR,CLEAR,CLEAR,CLEAR,CLEAR,RAIN,NIGHT_OVERCAST","Onshore,Cross-shore,Cross-shore,Cross-shore,Cross-shore,Cross-shore,Cross-shore,Cross-shore,Cross-shore,Cross-shore,Cross-shore,Onshore,Onshore,Cross-shore",14
5842041f4e65fad6a77089d9,2023_12_10,42.911574,-70.80831,The Main Beach,1.2857142857142858,0.24743857142857142,0.5115807142857143,7,6,"NIGHT_MIST,NIGHT_MIST,NIGHT_MIST,NIGHT_MIST,NIGHT_MIST,MIST,MIST,CLEAR,CLEAR,CLEAR,CLEAR,CLEAR,RAIN,NIGHT_CLOUDY","Onshore,Onshore,Onshore,Onshore,Onshore,Onshore,Onshore,Onshore,Onshore,Onshore,Onshore,Onshore,Onshore,Onshore",14
5842041f4e65fad6a77089da,2023_12_10,42.97583846220203,-70.764,Sawyer's Beach,1.2857142857142858,0.2843785714285714,0.5879833333333333,7,6,"NIGHT_MIST,NIGHT_MIST,NIGHT_MIST,NIGHT_MIST,NIGHT_MIST,MIST,MIST,CLEAR,CLEAR,CLEAR,CLEAR,CLEAR,RAIN,NIGHT_OVERCAST","Onshore,Onshore,Cross-shore,Cross-shore,Onshore,Cross-shore,Cross-shore,Onshore,Onshore,Onshore,Onshore,Onshore,Onshore,Onshore",14
5842041f4e65fad6a77089db,2023_12_10,42.97,-70.77,Rye on the Rocks / 5-0's,1.2857142857142858,0.27431827380952384,0.5522939285714286,7,6,"NIGHT_MIST,NIGHT_MIST,NIGHT_MIST,NIGHT_MIST,NIGHT_MIST,MIST,MIST,CLEAR,CLEAR,CLEAR,CLEAR,CLEAR,RAIN,NIGHT_OVERCAST","Onshore,Onshore,Cross-shore,Onshore,Onshore,Onshore,Onshore,Onshore,Onshore,Onshore,Onshore,Onshore,Onshore,Onshore",14
5842041f4e65fad6a77089dc,2023_12_10,43.55902946610303,-70.27795,Higgins Beach,1.5,0.24146190476190477,0.5478642857142857,7,6,"NIGHT_MIST,NIGHT_OVERCAST,NIGHT_OVERCAST,NIGHT_MOSTLY_CLOUDY,NIGHT_MIST,MIST,MIST,MIST,MIST,MIST,MIST,MIST,MIST,NIGHT_MIST","Offshore,Offshore,Cross-shore,Onshore,Onshore,Onshore,Onshore,Onshore,Onshore,Onshore,Onshore,Onshore,Onshore,Onshore",14
5842041f4e65fad6a77089dd,2023_12_10,43.302676,-70.5652,Wells Beach,1.25,0.32949761904761904,0.6342928571428571,7,6,"NIGHT_MIST,NIGHT_CLOUDY,NIGHT_CLOUDY,NIGHT_CLOUDY,NIGHT_MIST,MIST,MIST,MIST,CLEAR,CLEAR,CLEAR,MIST,MIST,NIGHT_MIST","Offshore,Cross-shore,Onshore,Onshore,Cross-shore,Cross-shore,Cross-shore,Cross-shore,Cross-shore,Cross-shore,Cross-shore,Cross-shore,Cross-shore,Cross-shore",14
5842041f4e65fad6a77089de,2023_12_10,43.545359,-70.30479,Scarborough Beach State Park,1.4164285714285714,0.37442779761904765,0.6620397619047619,7,6,"NIGHT_LIGHT_RAIN,NIGHT_DRIZZLE,NIGHT_OVERCAST,NIGHT_CLOUDY,NIGHT_OVERCAST,DRIZZLE,MIST,MIST,MIST,MIST,MIST,MIST,MIST,NIGHT_MIST","Offshore,Offshore,Offshore,Cross-shore,Onshore,Cross-shore,Onshore,Onshore,Onshore,Onshore,Onshore,Onshore,Onshore,Onshore",14
5842041f4e65fad6a77089df,2023_12_10,43.514481,-70.372146,Old Orchard Beach,1.2021428571428572,0.2558666666666667,0.5604833333333333,7,6,"NIGHT_MIST,NIGHT_MIST,NIGHT_DRIZZLE,NIGHT_CLEAR,NIGHT_MIST,LIGHT_RAIN,MIST,MIST,MIST,MIST,MIST,MIST,MIST,NIGHT_MIST","Offshore,Offshore,Offshore,Offshore,Onshore,Cross-shore,Onshore,Onshore,Onshore,Onshore,Onshore,Onshore,Onshore,Onshore",14
5842041f4e65fad6a77089e0,2023_12_10,43.34711,-70.48165,Gooch's Beach,1.405,0.32795,0.6350666666666667,7,6,"NIGHT_MIST,NIGHT_OVERCAST,NIGHT_CLOUDY,NIGHT_OVERCAST,NIGHT_MIST,MIST,MIST,MIST,MIST,MIST,MIST,MIST,MIST,NIGHT_CLEAR","Offshore,Offshore,Offshore,Onshore,Onshore,Onshore,Onshore,Onshore,Onshore,Onshore,Onshore,Onshore,Onshore,Onshore",14
5842041f4e65fad6a77089e2,2023_12_10,40.58433,-73.62953,Lido Beach,0.9407142857142857,0.43301904761904764,0.7359785714285714,10,8,"NIGHT_MOSTLY_CLOUDY,NIGHT_CLEAR,NIGHT_MIST,NIGHT_MIST,NIGHT_MIST,MIST,MIST,OVERCAST,DRIZZLE,DRIZZLE,DRIZZLE,RAIN,HEAVY_RAIN,NIGHT_RAIN","Onshore,Onshore,Onshore,Cross-shore,Onshore,Onshore,Onshore,Onshore,Onshore,Onshore,Onshore,Onshore,Onshore,Onshore",14
5842041f4e65fad6a77089e3,2023_12_10,43.163135,-70.61689,Long Sands Beach,1.2142857142857142,0.33238779761904763,0.5963513690476191,7,6,"NIGHT_CLOUDY,NIGHT_OVERCAST,NIGHT_MIST,NIGHT_MIST,NIGHT_MIST,MIST,MIST,CLEAR,CLEAR,MIST,MIST,MIST,RAIN,NIGHT_MOSTLY_CLOUDY","Cross-shore,Onshore,Onshore,Onshore,Onshore,Onshore,Onshore,Onshore,Onshore,Onshore,Onshore,Onshore,Onshore,Onshore",14
5842041f4e65fad6a77089e4,2023_12_10,40.61695351251805,-73.39376,Gilgo Beach,0.6785714285714286,0.5227809523809523,0.828597619047619,10,8,"NIGHT_MOSTLY_CLOUDY,NIGHT_MIST,NIGHT_MIST,NIGHT_MIST,NIGHT_MIST,MIST,MIST,MIST,MIST,HEAVY_RAIN,MIST,HEAVY_RAIN,LIGHT_RAIN,NIGHT_DRIZZLE","Onshore,Onshore,Onshore,Onshore,Onshore,Onshore,Onshore,Onshore,Onshore,Onshore,Onshore,Onshore,Onshore,Onshore",14
5842041f4e65fad6a77089e5,2023_12_10,40.62530081928036,-73.23827,Robert Moses,0.9285714285714286,0.4164285714285714,0.72,9,9,"NIGHT_MOSTLY_CLOUDY,NIGHT_MIST,NIGHT_MIST,NIGHT_MIST,NIGHT_MIST,MIST,MIST,MIST,LIGHT_RAIN,LIGHT_RAIN,MIST,MIST,LIGHT_RAIN,NIGHT_LIGHT_RAIN","Onshore,Onshore,Onshore,Onshore,Onshore,Onshore,Onshore,Onshore,Onshore,Onshore,Onshore,Onshore,Onshore,Onshore",14
5842041f4e65fad6a77089e6,2023_12_10,40.64313317632791,-73.15727,Fire Island,0.9285714285714286,0.41285714285714287,0.7171428571428571,9,9,"NIGHT_MIST,NIGHT_MIST,NIGHT_MIST,NIGHT_MIST,NIGHT_MIST,MIST,MIST,MIST,DRIZZLE,MIST,MIST,LIGHT_RAIN,MIST,NIGHT_LIGHT_SHOWERS_POSSIBLE","Onshore,Onshore,Onshore,Onshore,Onshore,Onshore,Onshore,Onshore,Onshore,Onshore,Onshore,Onshore,Onshore,Onshore",14
5842041f4e65fad6a77089e8,2023_12_10,40.76653118828782,-72.74579619372713,Cupsogue,1,0.5907142857142857,0.8957142857142857,9,9,"NIGHT_MIST,NIGHT_MIST,NIGHT_MIST,NIGHT_MIST,NIGHT_MIST,MIST,MIST,MIST,MIST,MIST,MIST,MIST,MIST,NIGHT_DRIZZLE","Onshore,Onshore,Onshore,Onshore,Onshore,Onshore,Onshore,Onshore,Onshore,Onshore,Onshore,Onshore,Onshore,Onshore",14
5842041f4e65fad6a77089e9,2023_12_10,42.9376373334092,-70.79141,The Wall ,1.2142857142857142,0.20597863095238098,0.44679964285714285,7,6,"NIGHT_MIST,NIGHT_MIST,NIGHT_MIST,NIGHT_MIST,NIGHT_MIST,MIST,MIST,CLEAR,CLEAR,CLEAR,CLEAR,CLEAR,RAIN,NIGHT_CLOUDY","Cross-shore,Cross-shore,Cross-shore,Cross-shore,Cross-shore,Cross-shore,Cross-shore,Cross-shore,Cross-shore,Cross-shore,Cross-shore,Cross-shore,Cross-shore,Cross-shore",14
5842041f4e65fad6a77089ea,2023_12_10,40.887088,-72.338558,Flys,0.7021428571428572,0.5146857142857143,0.8229428571428571,16,14,"NIGHT_MIST,NIGHT_MIST,NIGHT_MIST,NIGHT_MIST,NIGHT_MIST,MIST,MIST,MIST,MIST,MIST,MIST,MIST,MIST,NIGHT_MIST","Onshore,Onshore,Onshore,Onshore,Onshore,Onshore,Onshore,Onshore,Onshore,Onshore,Onshore,Onshore,Onshore,Onshore",14
5842041f4e65fad6a77089eb,2023_12_10,41.0389266436591,-71.91068529316958,Trailer Park,0.8928571428571429,0.5356560714285714,0.8018710714285714,10,8,"NIGHT_OVERCAST,NIGHT_CLOUDY,NIGHT_OVERCAST,NIGHT_OVERCAST,NIGHT_OVERCAST,MIST,MIST,MIST,MIST,MIST,MIST,MIST,MIST,NIGHT_OVERCAST","Onshore,Onshore,Onshore,Onshore,Onshore,Onshore,Onshore,Onshore,Onshore,Onshore,Onshore,Onshore,Onshore,Onshore",14
5842041f4e65fad6a77089ec,2023_12_10,41.039505402729105,-71.9142,Ditch Plains,0.9285714285714286,0.43092214285714286,0.6733164285714286,9.285714285714286,9.285714285714286,"NIGHT_MIST,NIGHT_MIST,NIGHT_MIST,NIGHT_MIST,NIGHT_MIST,MIST,DRIZZLE,MIST,MIST,MIST,MIST,MIST,MIST,NIGHT_MIST","Onshore,Onshore,Onshore,Onshore,Onshore,Onshore,Onshore,Onshore,Onshore,Onshore,Onshore,Onshore,Onshore,Onshore",14
5842041f4e65fad6a77089ee,2023_12_10,40.57633275206492,-73.56895305108567,"West End, Jones Beach",0.4521428571428571,0.530697619047619,0.8340142857142857,10,8,"NIGHT_CLEAR,NIGHT_MIST,NIGHT_MIST,NIGHT_MIST,NIGHT_MIST,MIST,MIST,OVERCAST,MIST,RAIN,LIGHT_RAIN,RAIN,RAIN,NIGHT_RAIN","Onshore,Onshore,Onshore,Onshore,Onshore,Onshore,Onshore,Onshore,Onshore,Onshore,Onshore,Onshore,Onshore,Onshore",14
5842041f4e65fad6a77089f1,2023_12_10,41.038286691230795,-71.91991567611694,Poles,0.8928571428571429,0.4900222619047619,0.765453630952381,10,8,"NIGHT_OVERCAST,NIGHT_CLOUDY,NIGHT_OVERCAST,NIGHT_OVERCAST,NIGHT_OVERCAST,MIST,MIST,MIST,MIST,MIST,MIST,MIST,MIST,NIGHT_OVERCAST","Onshore,Onshore,Onshore,Onshore,Onshore,Onshore,Onshore,Onshore,Onshore,Onshore,Onshore,Onshore,Onshore,Onshore",14
5842041f4e65fad6a77089f3,2023_12_10,40.84077769766295,-72.47989493724765,The Bowl,1,0.5221428571428571,0.8285714285714286,9,9,"NIGHT_MIST,NIGHT_MIST,NIGHT_MIST,NIGHT_MIST,NIGHT_MIST,MIST,MIST,BRIEF_SHOWERS,MIST,DRIZZLE,MIST,MIST,MIST,NIGHT_MIST","Onshore,Onshore,Onshore,Onshore,Onshore,Onshore,Onshore,Onshore,Onshore,Onshore,Onshore,Onshore,Onshore,Onshore",14
5842041f4e65fad6a77089f4,2023_12_10,40.94235535243154,-72.19286,Main Beach,0.8092857142857143,0.5242690476190476,0.8262761904761905,16,14,"NIGHT_MIST,NIGHT_MIST,NIGHT_OVERCAST,NIGHT_OVERCAST,NIGHT_OVERCAST,MIST,DRIZZLE,MOSTLY_CLEAR,MOSTLY_CLOUDY,DRIZZLE,MIST,LIGHT_RAIN,MIST,NIGHT_MIST","Onshore,Onshore,Onshore,Onshore,Onshore,Onshore,Onshore,Onshore,Onshore,Onshore,Onshore,Onshore,Onshore,Onshore",14
5842041f4e65fad6a77089f5,2023_12_10,40.58270702399518,-73.67251552079799,Laurelton Blvd.,0.5,0.5601341071428572,0.7993728571428571,10,8,"NIGHT_MIST,NIGHT_MOSTLY_CLOUDY,NIGHT_MIST,NIGHT_MIST,NIGHT_MIST,MIST,MIST,MIST,LIGHT_RAIN,HEAVY_RAIN,MIST,LIGHT_RAIN,HEAVY_RAIN,NIGHT_LIGHT_RAIN","Onshore,Onshore,Onshore,Cross-shore,Onshore,Onshore,Onshore,Onshore,Onshore,Onshore,Onshore,Onshore,Onshore,Onshore",14
5842041f4e65fad6a77089f6,2023_12_10,41.033752854071416,-71.93695522488403,Terrace,0.8092857142857143,0.4002809523809524,0.7081809523809524,10,8,"NIGHT_MIST,NIGHT_MIST,NIGHT_MIST,NIGHT_MIST,NIGHT_MIST,MIST,MIST,CLEAR,MIST,MIST,MIST,MIST,MIST,NIGHT_MIST","Onshore,Onshore,Onshore,Onshore,Onshore,Onshore,Onshore,Onshore,Onshore,Onshore,Onshore,Onshore,Onshore,Onshore",14
5842041f4e65fad6a77089f7,2023_12_10,40.83372943645748,-72.50426173210144,K Road,1,0.5942857142857143,0.8985714285714286,9,9,"NIGHT_MIST,NIGHT_MIST,NIGHT_MIST,NIGHT_MIST,NIGHT_MIST,MIST,DRIZZLE,MIST,MIST,DRIZZLE,MIST,MIST,MIST,NIGHT_MIST","Onshore,Onshore,Onshore,Onshore,Onshore,Onshore,Onshore,Onshore,Onshore,Onshore,Onshore,Onshore,Onshore,Onshore",14
5842041f4e65fad6a77089f8,2023_12_10,40.58456099581507,-73.80730032920837,84th Street,1,0.35819761904761904,0.6616333333333334,10,8,"NIGHT_MIST,NIGHT_MOSTLY_CLOUDY,NIGHT_MIST,NIGHT_MIST,NIGHT_MIST,MIST,MIST,DRIZZLE,MIST,MIST,MIST,MIST,HEAVY_RAIN,NIGHT_RAIN","Onshore,Onshore,Onshore,Onshore,Onshore,Onshore,Onshore,Onshore,Onshore,Onshore,Onshore,Onshore,Onshore,Onshore",14
