_id,date,lat,lon,name,daily_mean_swell_rating,daily_mean_wave_height_min,daily_mean_wave_height_max,daily_mean_water_temperature_max,daily_mean_water_temperature_min,weather_per_timestamp,wind_per_timestamp,n_samples_per_day
5842041f4e65fad6a77087f9,2023_11_30,37.741668,-122.51038,South Ocean Beach,2.3636363636363638,0.9488121212121212,1.254460606060606,15,15,"NIGHT_CLEAR,NIGHT_CLEAR,NIGHT_CLEAR,NIGHT_CLEAR,NIGHT_CLEAR,NIGHT_CLEAR,NIGHT_CLEAR,NIGHT_CLEAR,NIGHT_CLEAR,MOSTLY_CLOUDY,CLEAR","Onshore,Onshore,Offshore,Offshore,Offshore,Onshore,Onshore,Onshore,Onshore,Onshore,Onshore",11
5842041f4e65fad6a7708801,2023_11_30,37.49142,-122.50428,Maverick's,NA,0.9306060606060607,1.1983272727272727,13,13,"NIGHT_CLEAR,NIGHT_CLEAR,NIGHT_CLEAR,NIGHT_CLEAR,NIGHT_CLEAR,NIGHT_CLEAR,NIGHT_CLEAR,NIGHT_CLOUDY,NIGHT_MOSTLY_CLEAR,MOSTLY_CLOUDY,BRIEF_SHOWERS","Offshore,Offshore,Offshore,Offshore,Offshore,Offshore,Offshore,Offshore,Offshore,Offshore,Offshore",11
5842041f4e65fad6a7708804,2023_11_30,44.997,-124.018,Roads End,3.727272727272727,1.2272727272727273,1.480909090909091,12,12,"NIGHT_MOSTLY_CLOUDY,NIGHT_OVERCAST,NIGHT_CLOUDY,NIGHT_CLOUDY,NIGHT_CLOUDY,NIGHT_CLEAR,NIGHT_CLOUDY,NIGHT_CLOUDY,NIGHT_CLEAR,CLEAR,MOSTLY_CLOUDY","Offshore,Offshore,Offshore,Offshore,Offshore,Offshore,Offshore,Offshore,Offshore,Offshore,Offshore",11
5842041f4e65fad6a7708805,2023_11_30,36.95188851423011,-122.02522,Steamer Lane,3,0.9638363636363636,1.2508757575757576,14,14,"NIGHT_CLEAR,NIGHT_CLEAR,NIGHT_CLEAR,NIGHT_CLEAR,NIGHT_CLEAR,NIGHT_CLEAR,NIGHT_CLEAR,NIGHT_OVERCAST,NIGHT_OVERCAST,MOSTLY_CLEAR,CLEAR","Offshore,Offshore,Offshore,Offshore,Offshore,Offshore,Offshore,Offshore,Offshore,Offshore,Offshore",11
5842041f4e65fad6a7708806,2023_11_30,36.95918781542251,-122.02489,Cowells,0.9845454545454545,-0.018181818181818184,0.21571818181818184,14,14,"NIGHT_CLEAR,NIGHT_CLEAR,NIGHT_CLEAR,NIGHT_CLEAR,NIGHT_CLEAR,NIGHT_CLEAR,NIGHT_CLEAR,NIGHT_OVERCAST,NIGHT_OVERCAST,MOSTLY_CLEAR,CLEAR","Offshore,Offshore,Offshore,Cross-shore,Offshore,Offshore,Cross-shore,Cross-shore,Offshore,Offshore,Cross-shore",11
5842041f4e65fad6a7708807,2023_11_30,36.95468082526536,-121.97234,Pleasure Point,3,0.964669696969697,1.2139818181818183,14,14,"NIGHT_CLEAR,NIGHT_CLEAR,NIGHT_CLEAR,NIGHT_CLEAR,NIGHT_CLEAR,NIGHT_CLEAR,NIGHT_CLEAR,NIGHT_CLEAR,NIGHT_CLEAR,MOSTLY_CLEAR,CLEAR","Cross-shore,Cross-shore,Cross-shore,Onshore,Cross-shore,Offshore,Onshore,Cross-shore,Offshore,Offshore,Onshore",11
5842041f4e65fad6a770880a,2023_11_30,35.37815414378748,-120.86589,Morro Bay,3.288181818181818,1.0795151515151515,1.4646818181818182,15,15,"NIGHT_MIST,NIGHT_CLEAR,NIGHT_CLEAR,NIGHT_CLEAR,NIGHT_CLEAR,NIGHT_CLEAR,NIGHT_CLEAR,NIGHT_CLEAR,NIGHT_CLEAR,OVERCAST,OVERCAST","Offshore,Offshore,Offshore,Onshore,Onshore,Offshore,Offshore,Offshore,Onshore,Cross-shore,Onshore",11
5842041f4e65fad6a770880b,2023_11_30,36.95782765000708,-121.9672887511276,Jack's,2.1063636363636364,0.2190969696969697,0.5222696969696969,14,14,"NIGHT_CLEAR,NIGHT_CLEAR,NIGHT_CLEAR,NIGHT_CLEAR,NIGHT_CLEAR,NIGHT_CLEAR,NIGHT_CLEAR,NIGHT_CLEAR,NIGHT_CLEAR,MOSTLY_CLEAR,CLEAR","Cross-shore,Cross-shore,Cross-shore,Onshore,Offshore,Offshore,Onshore,Offshore,Offshore,Offshore,Onshore",11
5842041f4e65fad6a770880d,2023_11_30,34.29982939936656,-119.3489016603669,Gold Coast Beachbreaks,2,0.2590909090909091,0.5618181818181818,17,17,"NIGHT_MOSTLY_CLOUDY,NIGHT_MIST,NIGHT_MIST,NIGHT_MOSTLY_CLOUDY,NIGHT_MOSTLY_CLOUDY,NIGHT_CLEAR,NIGHT_CLEAR,NIGHT_CLEAR,CLEAR,MOSTLY_CLEAR,CLEAR","Offshore,Cross-shore,Offshore,Offshore,Cross-shore,Cross-shore,Cross-shore,Cross-shore,Offshore,Cross-shore,Cross-shore",11
5842041f4e65fad6a7708811,2023_11_30,34.245076,-119.26799,Ventura Harbor,3,0.9575604545454546,1.2483263636363637,17,17,"NIGHT_FOG,NIGHT_FOG,NIGHT_MOSTLY_CLOUDY,NIGHT_MOSTLY_CLOUDY,NIGHT_MOSTLY_CLOUDY,NIGHT_CLEAR,NIGHT_CLEAR,NIGHT_CLEAR,CLEAR,MOSTLY_CLEAR,CLEAR","Offshore,Offshore,Offshore,Cross-shore,Cross-shore,Offshore,Offshore,Offshore,Offshore,Offshore,Offshore",11
5842041f4e65fad6a7708813,2023_11_30,34.051,-118.964,County Line,3,0.5709090909090909,0.8934545454545454,16,16,"NIGHT_FOG,NIGHT_FOG,NIGHT_FOG,NIGHT_FOG,NIGHT_FOG,NIGHT_FOG,NIGHT_FOG,NIGHT_MOSTLY_CLOUDY,CLEAR,FOG,CLEAR","Offshore,Offshore,Offshore,Cross-shore,Offshore,Offshore,Offshore,Cross-shore,Offshore,Offshore,Offshore",11
5842041f4e65fad6a7708814,2023_11_30,34.37256264378892,-119.47797,Rincon,2,0.2690909090909091,0.5736363636363636,17,17,"NIGHT_MOSTLY_CLEAR,NIGHT_MIST,NIGHT_CLEAR,NIGHT_MOSTLY_CLEAR,NIGHT_CLEAR,NIGHT_CLEAR,NIGHT_CLEAR,NIGHT_CLEAR,CLEAR,CLEAR,CLEAR","Onshore,Onshore,Cross-shore,Cross-shore,Onshore,Cross-shore,Cross-shore,Onshore,Onshore,Cross-shore,Cross-shore",11
5842041f4e65fad6a7708817,2023_11_30,34.03096101876324,-118.68109,Malibu Third Point,2,0.23545454545454544,0.54,17,17,"NIGHT_FOG,NIGHT_FOG,NIGHT_BRIEF_SHOWERS,NIGHT_FOG,NIGHT_FOG,NIGHT_SHOWERS,NIGHT_FOG,NIGHT_FOG,FOG,FOG,MIST","Offshore,Offshore,Offshore,Cross-shore,Cross-shore,Offshore,Cross-shore,Offshore,Offshore,Offshore,Cross-shore",11
5842041f4e65fad6a7708819,2023_11_30,33.984079047970035,-118.47381591796875,Venice Beach,3,0.751439393939394,1.0575757575757576,17,17,"NIGHT_MOSTLY_CLEAR,NIGHT_FOG,NIGHT_MOSTLY_CLEAR,NIGHT_MIST,NIGHT_MOSTLY_CLOUDY,NIGHT_MOSTLY_CLOUDY,NIGHT_FOG,NIGHT_FOG,CLEAR,CLOUDY,CLEAR","Offshore,Onshore,Offshore,Offshore,Offshore,Offshore,Offshore,Offshore,Offshore,Offshore,Offshore",11
5842041f4e65fad6a770881e,2023_11_30,34.037508438646746,-118.58339846155594,Topanga Beach,2.0154545454545456,0.2818181818181818,0.5870454545454545,17,17,"NIGHT_FOG,NIGHT_MOSTLY_CLEAR,NIGHT_MOSTLY_CLEAR,NIGHT_FOG,NIGHT_FOG,NIGHT_BRIEF_SHOWERS,NIGHT_SHOWERS,NIGHT_FOG,FOG,CLOUDY,MOSTLY_CLEAR","Offshore,Offshore,Offshore,Offshore,Offshore,Onshore,Offshore,Offshore,Cross-shore,Offshore,Offshore",11
5842041f4e65fad6a7708820,2023_11_30,33.73954373690184,-118.11414,Seal Beach Jetty,2,0.1481818181818182,0.4509090909090909,18,18,"NIGHT_FOG,NIGHT_CLEAR,NIGHT_CLEAR,NIGHT_FOG,NIGHT_FOG,NIGHT_FOG,NIGHT_FOG,NIGHT_FOG,CLEAR,CLEAR,MOSTLY_CLOUDY","Cross-shore,Onshore,Onshore,Offshore,Offshore,Offshore,Offshore,Offshore,Offshore,Offshore,Offshore",11
5842041f4e65fad6a7708822,2023_11_30,33.72309983348433,-118.08078,Anderson Street,2,0.17454545454545456,0.47909090909090907,18,18,"NIGHT_CLEAR,NIGHT_FOG,NIGHT_CLEAR,NIGHT_MOSTLY_CLOUDY,NIGHT_FOG,NIGHT_MOSTLY_CLOUDY,NIGHT_MOSTLY_CLOUDY,NIGHT_FOG,FOG,CLEAR,CLEAR","Cross-shore,Onshore,Onshore,Offshore,Offshore,Offshore,Offshore,Offshore,Offshore,Offshore,Offshore",11
5842041f4e65fad6a7708827,2023_11_30,33.65574085629463,-118.00397,Huntington Beach Pier Northside,3.272727272727273,0.6945333333333333,1.064909090909091,17,17,"NIGHT_SHOWERS,NIGHT_MOSTLY_CLOUDY,NIGHT_FOG,NIGHT_FOG,NIGHT_FOG,NIGHT_FOG,NIGHT_FOG,NIGHT_MOSTLY_CLOUDY,MOSTLY_CLOUDY,FOG,OVERCAST","Offshore,Onshore,Offshore,Offshore,Offshore,Offshore,Offshore,Offshore,Offshore,Offshore,Offshore",11
5842041f4e65fad6a7708828,2023_11_30,34.272041739333,-119.2997646331,C St.,3,0.6524,0.9866545454545455,17,17,"NIGHT_MIST,NIGHT_MIST,NIGHT_MOSTLY_CLOUDY,NIGHT_MIST,NIGHT_MOSTLY_CLOUDY,NIGHT_MIST,NIGHT_MIST,NIGHT_CLEAR,CLEAR,MOSTLY_CLEAR,CLOUDY","Offshore,Offshore,Offshore,Offshore,Offshore,Offshore,Offshore,Offshore,Offshore,Offshore,Offshore",11
5842041f4e65fad6a770882a,2023_11_30,33.61555743705257,-117.93676,Newport Lower Jetties,2.6363636363636362,0.46253333333333335,0.7670848484848486,17,17,"NIGHT_SHOWERS,NIGHT_FOG,NIGHT_FOG,NIGHT_OVERCAST,NIGHT_FOG,NIGHT_FOG,NIGHT_FOG,NIGHT_FOG,MOSTLY_CLOUDY,CLEAR,CLEAR","Offshore,Offshore,Offshore,Offshore,Offshore,Offshore,Offshore,Offshore,Offshore,Offshore,Cross-shore",11
5842041f4e65fad6a770882b,2023_11_30,33.5930302087,-117.88199,The Wedge,1.2727272727272727,0.27453439393939394,0.6597843939393939,17,17,"NIGHT_SHOWERS,NIGHT_CLEAR,NIGHT_CLEAR,NIGHT_FOG,NIGHT_FOG,NIGHT_FOG,NIGHT_FOG,NIGHT_FOG,BRIEF_SHOWERS,CLEAR,CLEAR","Onshore,Onshore,Cross-shore,Offshore,Cross-shore,Cross-shore,Offshore,Offshore,Offshore,Offshore,Cross-shore",11
5842041f4e65fad6a770882c,2023_11_30,33.60577342582,-117.9315376281,Newport Beach Pier,2,0.2509090909090909,0.5563636363636364,18,18,"NIGHT_BRIEF_SHOWERS,NIGHT_CLEAR,NIGHT_CLEAR,NIGHT_CLOUDY,NIGHT_FOG,NIGHT_FOG,NIGHT_SHOWERS,NIGHT_FOG,BRIEF_SHOWERS,MOSTLY_CLOUDY,MIST","Onshore,Cross-shore,Offshore,Cross-shore,Onshore,Onshore,Onshore,Onshore,Cross-shore,Offshore,Cross-shore",11
5842041f4e65fad6a770882e,2023_11_30,33.475793399792984,-117.72291,Salt Creek,3,0.6715939393939394,1.0258757575757576,17,17,"NIGHT_OVERCAST,NIGHT_FOG,NIGHT_FOG,NIGHT_FOG,NIGHT_FOG,NIGHT_CLOUDY,NIGHT_MOSTLY_CLOUDY,NIGHT_FOG,FOG,CLOUDY,CLEAR","Onshore,Onshore,Onshore,Onshore,Onshore,Onshore,Onshore,Onshore,Onshore,Offshore,Offshore",11
5842041f4e65fad6a7708830,2023_11_30,33.41800974113613,-117.61952,T-Street,3.2572727272727273,0.6688666666666667,0.9717212121212121,17,17,"NIGHT_FOG,NIGHT_FOG,NIGHT_FOG,NIGHT_CLOUDY,NIGHT_FOG,NIGHT_CLEAR,NIGHT_FOG,NIGHT_FOG,MOSTLY_CLOUDY,CLEAR,CLEAR","Cross-shore,Cross-shore,Cross-shore,Onshore,Onshore,Onshore,Onshore,Onshore,Onshore,Offshore,Offshore",11
5842041f4e65fad6a7708832,2023_11_30,33.202391008646,-117.39475,Oceanside Harbor,2.788181818181818,0.5728606060606061,0.9376636363636364,17,17,"NIGHT_FOG,NIGHT_FOG,NIGHT_FOG,NIGHT_MOSTLY_CLOUDY,NIGHT_MOSTLY_CLOUDY,NIGHT_MOSTLY_CLOUDY,NIGHT_CLEAR,NIGHT_MOSTLY_CLOUDY,MOSTLY_CLOUDY,OVERCAST,BRIEF_SHOWERS","Cross-shore,Cross-shore,Offshore,Onshore,Onshore,Onshore,Onshore,Onshore,Onshore,Onshore,Onshore",11
5842041f4e65fad6a7708835,2023_11_30,33.19477795952803,-117.38667,Oceanside Pier,2.879090909090909,0.5169515151515152,0.849560606060606,17,17,"NIGHT_MOSTLY_CLOUDY,NIGHT_FOG,NIGHT_FOG,NIGHT_CLEAR,NIGHT_MOSTLY_CLOUDY,NIGHT_FOG,NIGHT_MOSTLY_CLOUDY,NIGHT_MOSTLY_CLOUDY,MOSTLY_CLOUDY,OVERCAST,MIST","Cross-shore,Offshore,Offshore,Onshore,Onshore,Onshore,Onshore,Onshore,Onshore,Onshore,Onshore",11
5842041f4e65fad6a7708837,2023_11_30,33.14948100706,-117.35029,Tamarack,2.727272727272727,0.3718181818181818,0.6790909090909091,17,17,"NIGHT_MOSTLY_CLOUDY,NIGHT_FOG,NIGHT_FOG,NIGHT_CLEAR,NIGHT_MOSTLY_CLOUDY,NIGHT_MOSTLY_CLOUDY,NIGHT_MOSTLY_CLOUDY,NIGHT_MOSTLY_CLOUDY,MOSTLY_CLOUDY,CLOUDY,MOSTLY_CLOUDY","Cross-shore,Offshore,Offshore,Onshore,Onshore,Onshore,Onshore,Onshore,Onshore,Onshore,Onshore",11
5842041f4e65fad6a7708839,2023_11_30,32.865777159358856,-117.25614295356122,Scripps,2.909090909090909,0.9448727272727273,1.186509090909091,17,17,"NIGHT_MOSTLY_CLOUDY,NIGHT_FOG,NIGHT_FOG,NIGHT_CLOUDY,NIGHT_MOSTLY_CLOUDY,NIGHT_MOSTLY_CLOUDY,NIGHT_MOSTLY_CLOUDY,NIGHT_BRIEF_SHOWERS,FOG,CLOUDY,MIST","Onshore,Onshore,Onshore,Onshore,Cross-shore,Cross-shore,Cross-shore,Cross-shore,Cross-shore,Cross-shore,Cross-shore",11
5842041f4e65fad6a770883a,2023_11_30,32.813094,-117.27381,Birdrock,3,1.0381818181818183,1.2418181818181817,17,17,"NIGHT_MOSTLY_CLOUDY,NIGHT_OVERCAST,NIGHT_FOG,NIGHT_MOSTLY_CLOUDY,NIGHT_MOSTLY_CLOUDY,NIGHT_MOSTLY_CLOUDY,NIGHT_CLEAR,NIGHT_SHOWERS,FOG,DRIZZLE,DRIZZLE","Offshore,Offshore,Offshore,Cross-shore,Offshore,Offshore,Offshore,Offshore,Offshore,Offshore,Offshore",11
5842041f4e65fad6a770883b,2023_11_30,32.877231,-117.25303,Blacks,3.5454545454545454,1.2414181818181818,1.515,17,17,"NIGHT_MOSTLY_CLOUDY,NIGHT_FOG,NIGHT_FOG,NIGHT_CLOUDY,NIGHT_MOSTLY_CLOUDY,NIGHT_MOSTLY_CLOUDY,NIGHT_MOSTLY_CLOUDY,NIGHT_BRIEF_SHOWERS,FOG,CLOUDY,MIST","Offshore,Cross-shore,Offshore,Cross-shore,Onshore,Onshore,Onshore,Onshore,Onshore,Onshore,Offshore",11
5842041f4e65fad6a770883c,2023_11_30,32.82978974229765,-117.28161740727381,Windansea,2.8181818181818183,0.9973636363636363,1.299,17,17,"NIGHT_MOSTLY_CLOUDY,NIGHT_FOG,NIGHT_FOG,NIGHT_OVERCAST,NIGHT_MOSTLY_CLOUDY,NIGHT_MOSTLY_CLOUDY,NIGHT_MOSTLY_CLOUDY,NIGHT_SHOWERS,FOG,OVERCAST,MIST","Onshore,Onshore,Onshore,Onshore,Onshore,Onshore,Cross-shore,Onshore,Onshore,Onshore,Cross-shore",11
5842041f4e65fad6a770883d,2023_11_30,32.838278,-117.28396,Horseshoe,3.3636363636363638,1.0218181818181817,1.2645454545454546,17,17,"NIGHT_MOSTLY_CLOUDY,NIGHT_FOG,NIGHT_FOG,NIGHT_OVERCAST,NIGHT_MOSTLY_CLOUDY,NIGHT_MOSTLY_CLOUDY,NIGHT_MOSTLY_CLOUDY,NIGHT_SHOWERS,FOG,OVERCAST,MIST","Offshore,Offshore,Offshore,Offshore,Offshore,Offshore,Offshore,Offshore,Offshore,Offshore,Offshore",11
5842041f4e65fad6a770883f,2023_11_30,32.75034717673179,-117.25337,Ocean Beach,3,1.0205454545454546,1.4004545454545456,17,17,"NIGHT_MOSTLY_CLOUDY,NIGHT_MOSTLY_CLOUDY,NIGHT_OVERCAST,NIGHT_MOSTLY_CLOUDY,NIGHT_MOSTLY_CLOUDY,NIGHT_MOSTLY_CLOUDY,NIGHT_CLEAR,NIGHT_FOG,FOG,CLOUDY,CLOUDY","Onshore,Onshore,Onshore,Onshore,Onshore,Onshore,Cross-shore,Cross-shore,Cross-shore,Onshore,Onshore",11
5842041f4e65fad6a7708840,2023_11_30,32.73693,-117.25718,Sunset Cliffs,3,1.0245454545454546,1.2172727272727273,17,17,"NIGHT_MOSTLY_CLOUDY,NIGHT_MOSTLY_CLOUDY,NIGHT_MOSTLY_CLOUDY,NIGHT_MOSTLY_CLOUDY,NIGHT_MOSTLY_CLOUDY,NIGHT_FOG,NIGHT_OVERCAST,NIGHT_FOG,FOG,OVERCAST,MIST","Onshore,Onshore,Onshore,Onshore,Onshore,Onshore,Cross-shore,Cross-shore,Cross-shore,Onshore,Onshore",11
5842041f4e65fad6a7708841,2023_11_30,32.796582258728826,-117.25779,Pacific Beach,3,1.0014545454545454,1.3394545454545455,17,17,"NIGHT_MOSTLY_CLOUDY,NIGHT_FOG,NIGHT_FOG,NIGHT_MOSTLY_CLOUDY,NIGHT_MOSTLY_CLOUDY,NIGHT_MOSTLY_CLOUDY,NIGHT_MOSTLY_CLOUDY,NIGHT_FOG,FOG,OVERCAST,MIST","Offshore,Offshore,Offshore,Cross-shore,Offshore,Offshore,Offshore,Offshore,Offshore,Offshore,Offshore",11
5842041f4e65fad6a7708842,2023_11_30,32.776636,-117.25514,Mission Beach,3,1.0036363636363637,1.29,17,17,"NIGHT_MOSTLY_CLOUDY,NIGHT_FOG,NIGHT_FOG,NIGHT_MOSTLY_CLOUDY,NIGHT_MOSTLY_CLOUDY,NIGHT_MOSTLY_CLOUDY,NIGHT_MOSTLY_CLOUDY,NIGHT_FOG,FOG,OVERCAST,MIST","Offshore,Offshore,Offshore,Offshore,Offshore,Offshore,Offshore,Offshore,Offshore,Offshore,Offshore",11
5842041f4e65fad6a7708844,2023_11_30,32.577195519016,-117.13475,Imperial Beach Pier,2.909090909090909,1.03,1.2618181818181817,17,17,"NIGHT_MOSTLY_CLOUDY,NIGHT_FOG,NIGHT_MOSTLY_CLOUDY,NIGHT_MOSTLY_CLOUDY,NIGHT_MOSTLY_CLOUDY,NIGHT_MOSTLY_CLOUDY,NIGHT_MOSTLY_CLOUDY,NIGHT_MOSTLY_CLOUDY,MOSTLY_CLOUDY,FOG,CLOUDY","Onshore,Onshore,Onshore,Onshore,Onshore,Cross-shore,Cross-shore,Cross-shore,Cross-shore,Cross-shore,Cross-shore",11
5842041f4e65fad6a770884a,2023_11_30,42.88678181061,-70.80843,Seabrook,0.5909090909090909,0.1540169696969697,0.3838157575757576,9,8,"NIGHT_CLEAR,NIGHT_CLEAR,NIGHT_CLEAR,NIGHT_CLEAR,NIGHT_CLEAR,NIGHT_CLEAR,CLEAR,CLEAR,CLEAR,CLEAR,CLEAR","Offshore,Offshore,Offshore,Offshore,Offshore,Offshore,Offshore,Offshore,Offshore,Offshore,Offshore",11
5842041f4e65fad6a770884e,2023_11_30,41.434181432898335,-71.45312118111178,Narragansett,0.45454545454545453,0,0.2558151515151515,11,9,"NIGHT_CLEAR,NIGHT_CLEAR,NIGHT_CLEAR,NIGHT_CLEAR,NIGHT_CLEAR,NIGHT_CLEAR,CLEAR,CLEAR,CLEAR,CLEAR,CLEAR","Cross-shore,Cross-shore,Cross-shore,Cross-shore,Cross-shore,Cross-shore,Offshore,Offshore,Cross-shore,Cross-shore,Cross-shore",11
5842041f4e65fad6a7708850,2023_11_30,40.582703230722,-73.65247,Lincoln Blvd,0.46636363636363637,0.010545454545454545,0.31570909090909094,11,8,"NIGHT_CLEAR,NIGHT_CLEAR,NIGHT_CLEAR,NIGHT_CLEAR,NIGHT_CLEAR,NIGHT_CLEAR,CLEAR,CLEAR,CLEAR,CLEAR,CLEAR","Offshore,Offshore,Offshore,Offshore,Offshore,Cross-shore,Offshore,Offshore,Offshore,Offshore,Cross-shore",11
5842041f4e65fad6a7708852,2023_11_30,40.58342841721757,-73.81182,Rockaways,0,0.030999999999999996,0.33634545454545456,11,8,"NIGHT_CLEAR,NIGHT_CLEAR,NIGHT_CLEAR,NIGHT_CLEAR,NIGHT_CLEAR,NIGHT_CLEAR,CLEAR,CLEAR,CLEAR,CLEAR,CLEAR","Cross-shore,Cross-shore,Cross-shore,Cross-shore,Cross-shore,Cross-shore,Cross-shore,Cross-shore,Cross-shore,Cross-shore,Cross-shore",11
5842041f4e65fad6a7708853,2023_11_30,40.330474,-73.9734,Monmouth Beach,0.6363636363636364,0.044621212121212124,0.29439393939393943,11,8,"NIGHT_CLEAR,NIGHT_CLEAR,NIGHT_CLEAR,NIGHT_CLEAR,NIGHT_CLEAR,NIGHT_CLEAR,CLEAR,CLEAR,CLEAR,CLEAR,CLEAR","Offshore,Offshore,Offshore,Offshore,Offshore,Offshore,Offshore,Offshore,Offshore,Offshore,Offshore",11
5842041f4e65fad6a7708856,2023_11_30,40.113,-74.028,Manasquan Inlet,0.16363636363636364,0,0.24646363636363638,11,8,"NIGHT_CLEAR,NIGHT_CLEAR,NIGHT_CLEAR,NIGHT_CLEAR,NIGHT_CLEAR,NIGHT_CLEAR,CLEAR,CLEAR,CLEAR,CLEAR,CLEAR","Offshore,Offshore,Offshore,Offshore,Offshore,Offshore,Offshore,Offshore,Offshore,Offshore,Offshore",11
5842041f4e65fad6a7708857,2023_11_30,39.941519877445664,-74.06829,Casino Pier,0.16363636363636364,0,0.24705454545454547,11,8,"NIGHT_CLEAR,NIGHT_CLEAR,NIGHT_CLEAR,NIGHT_CLEAR,NIGHT_CLEAR,NIGHT_CLEAR,CLEAR,CLEAR,CLEAR,CLEAR,CLEAR","Offshore,Offshore,Offshore,Offshore,Offshore,Offshore,Offshore,Offshore,Offshore,Offshore,Offshore",11
5842041f4e65fad6a7708858,2023_11_30,39.28223089949212,-74.55766,North End OC,0,-0.004318181818181817,0.2551,11,8,"NIGHT_CLEAR,NIGHT_CLEAR,NIGHT_CLEAR,NIGHT_CLEAR,NIGHT_CLEAR,NIGHT_CLEAR,CLEAR,CLEAR,CLEAR,CLEAR,CLEAR","Cross-shore,Cross-shore,Cross-shore,Offshore,Offshore,Offshore,Offshore,Cross-shore,Cross-shore,Cross-shore,Onshore",11
5842041f4e65fad6a770885b,2023_11_30,39.65080599934257,-74.17146,Ship Bottom,0,-0.0036363636363636364,0.1796090909090909,11,8,"NIGHT_CLEAR,NIGHT_CLEAR,NIGHT_CLEAR,NIGHT_CLEAR,NIGHT_CLEAR,NIGHT_CLEAR,CLEAR,CLEAR,CLEAR,CLEAR,CLEAR","Cross-shore,Cross-shore,Offshore,Offshore,Offshore,Offshore,Offshore,Offshore,Cross-shore,Offshore,Cross-shore",11
5842041f4e65fad6a7708863,2023_11_30,36.034151543144,-75.66791,Third Street,0.6363636363636364,0.003481818181818182,0.25366363636363637,14,12,"NIGHT_CLEAR,NIGHT_CLEAR,NIGHT_CLEAR,NIGHT_CLEAR,NIGHT_CLEAR,NIGHT_CLEAR,CLEAR,CLEAR,CLEAR,CLEAR,CLEAR","Offshore,Offshore,Offshore,Offshore,Offshore,Offshore,Offshore,Offshore,Offshore,Offshore,Offshore",11
5842041f4e65fad6a7708867,2023_11_30,35.605833221351425,-75.46303,S-Turns,1,-0.004545454545454546,0.26591818181818183,14,12,"NIGHT_CLEAR,NIGHT_CLEAR,NIGHT_CLEAR,NIGHT_CLEAR,NIGHT_CLEAR,NIGHT_CLEAR,CLEAR,CLEAR,CLEAR,CLEAR,CLEAR","Offshore,Offshore,Offshore,Offshore,Offshore,Offshore,Offshore,Offshore,Offshore,Offshore,Offshore",11
5842041f4e65fad6a770886d,2023_11_30,38.338461,-75.08117,Ocean City Boardwalk,0,0,0.1637636363636364,12,10,"NIGHT_CLEAR,NIGHT_CLEAR,NIGHT_CLEAR,NIGHT_CLEAR,NIGHT_CLEAR,NIGHT_CLEAR,CLEAR,CLEAR,CLEAR,CLEAR,CLEAR","Offshore,Offshore,Offshore,Offshore,Offshore,Offshore,Offshore,Offshore,Offshore,Offshore,Offshore",11
5842041f4e65fad6a770886f,2023_11_30,29.844757212379562,-81.26136,A St.,0.6363636363636364,0.005454545454545454,0.2990909090909091,20,20,"NIGHT_CLEAR,NIGHT_CLEAR,NIGHT_CLEAR,NIGHT_CLEAR,NIGHT_CLEAR,NIGHT_CLEAR,CLEAR,CLEAR,CLEAR,CLEAR,CLEAR","Onshore,Onshore,Onshore,Onshore,Onshore,Onshore,Onshore,Onshore,Onshore,Onshore,Onshore",11
5842041f4e65fad6a7708871,2023_11_30,29.069417851135093,-80.90824,New Smyrna Beach,1,0.20801212121212123,0.5139030303030303,21,18,"NIGHT_CLEAR,NIGHT_CLEAR,NIGHT_CLEAR,NIGHT_CLEAR,NIGHT_CLEAR,NIGHT_CLEAR,CLEAR,CLEAR,CLEAR,MOSTLY_CLEAR,BRIEF_SHOWERS","Onshore,Onshore,Onshore,Onshore,Onshore,Onshore,Onshore,Onshore,Onshore,Onshore,Onshore",11
5842041f4e65fad6a7708872,2023_11_30,28.367707417566,-80.60171,Cocoa Beach Pier,0.4090909090909091,0.011818181818181818,0.319830303030303,23,19,"NIGHT_CLEAR,NIGHT_CLEAR,NIGHT_CLEAR,NIGHT_CLEAR,NIGHT_MOSTLY_CLEAR,NIGHT_MOSTLY_CLEAR,MOSTLY_CLOUDY,MOSTLY_CLOUDY,MOSTLY_CLOUDY,SHOWERS,CLEAR","Cross-shore,Cross-shore,Onshore,Cross-shore,Cross-shore,Onshore,Onshore,Onshore,Onshore,Cross-shore,Offshore",11
5842041f4e65fad6a7708873,2023_11_30,28.091782738658846,-80.56479,Indialantic,0.5909090909090909,0.08310606060606061,0.3883151515151515,23,19,"NIGHT_MOSTLY_CLOUDY,NIGHT_MOSTLY_CLOUDY,NIGHT_MOSTLY_CLOUDY,NIGHT_MOSTLY_CLOUDY,NIGHT_CLEAR,NIGHT_BRIEF_SHOWERS,BRIEF_SHOWERS,MOSTLY_CLOUDY,MOSTLY_CLOUDY,CLEAR,CLEAR","Onshore,Onshore,Onshore,Onshore,Onshore,Onshore,Onshore,Onshore,Onshore,Cross-shore,Cross-shore",11
5842041f4e65fad6a7708876,2023_11_30,27.25392904143517,-80.19455,Jensen Beach,0.6181818181818182,0.1053030303030303,0.4099060606060606,24,21,"NIGHT_MOSTLY_CLOUDY,NIGHT_OVERCAST,NIGHT_OVERCAST,NIGHT_CLEAR,NIGHT_CLEAR,NIGHT_MOSTLY_CLOUDY,CLEAR,CLEAR,CLEAR,CLEAR,CLEAR","Onshore,Onshore,Onshore,Onshore,Onshore,Onshore,Onshore,Onshore,Onshore,Onshore,Onshore",11
5842041f4e65fad6a7708879,2023_11_30,26.76346795333825,-80.0360655784607,Reef Road,0.24272727272727274,0.04072727272727272,0.3433909090909091,27,25,"NIGHT_OVERCAST,NIGHT_OVERCAST,NIGHT_MOSTLY_CLOUDY,NIGHT_CLEAR,NIGHT_CLEAR,NIGHT_CLEAR,MOSTLY_CLOUDY,MOSTLY_CLOUDY,OVERCAST,MOSTLY_CLOUDY,MOSTLY_CLOUDY","Onshore,Onshore,Onshore,Onshore,Onshore,Onshore,Onshore,Onshore,Onshore,Onshore,Onshore",11
5842041f4e65fad6a770887c,2023_11_30,26.336499228484,-80.06956100463,Boca Raton Inlet,0.45454545454545453,0.011439393939393938,0.31642121212121216,27,25,"NIGHT_OVERCAST,NIGHT_OVERCAST,NIGHT_CLOUDY,NIGHT_CLEAR,NIGHT_MOSTLY_CLOUDY,NIGHT_OVERCAST,MOSTLY_CLOUDY,MOSTLY_CLOUDY,MOSTLY_CLOUDY,MOSTLY_CLOUDY,CLOUDY","Onshore,Onshore,Onshore,Onshore,Onshore,Onshore,Onshore,Onshore,Onshore,Onshore,Onshore",11
5842041f4e65fad6a770887d,2023_11_30,26.31719311695038,-80.07452525176168,Deerfield Beach Pier,0,0.01613613636363637,0.30163636363636365,27,25,"NIGHT_OVERCAST,NIGHT_OVERCAST,NIGHT_OVERCAST,NIGHT_CLEAR,NIGHT_CLEAR,NIGHT_MOSTLY_CLOUDY,MOSTLY_CLOUDY,MOSTLY_CLOUDY,MOSTLY_CLOUDY,MOSTLY_CLOUDY,CLEAR","Onshore,Onshore,Onshore,Onshore,Onshore,Onshore,Onshore,Onshore,Onshore,Onshore,Onshore",11
5842041f4e65fad6a7708881,2023_11_30,30.20276320866628,-85.85626528676136,"Spyglass Dr., Panama City",0,0,0.08151212121212122,18,17,"NIGHT_CLEAR,NIGHT_CLEAR,NIGHT_CLEAR,NIGHT_CLEAR,NIGHT_CLEAR,NIGHT_CLEAR,CLEAR,CLEAR,CLEAR,CLEAR,CLEAR","Offshore,Offshore,Offshore,Offshore,Offshore,Offshore,Offshore,Offshore,Offshore,Offshore,Offshore",11
5842041f4e65fad6a7708884,2023_11_30,33.39000832738053,-117.59852,Cottons,3.2572727272727273,0.6176545454545455,0.9209636363636364,17,17,"NIGHT_MOSTLY_CLOUDY,NIGHT_FOG,NIGHT_FOG,NIGHT_MOSTLY_CLOUDY,NIGHT_MOSTLY_CLOUDY,NIGHT_OVERCAST,NIGHT_MOSTLY_CLOUDY,NIGHT_FOG,MOSTLY_CLOUDY,MIST,OVERCAST","Cross-shore,Cross-shore,Cross-shore,Cross-shore,Offshore,Cross-shore,Cross-shore,Cross-shore,Cross-shore,Offshore,Offshore",11
5842041f4e65fad6a7708885,2023_11_30,33.359416282661,-117.54167901405711,Trails,3,0.39454545454545453,0.7,18,18,"NIGHT_MOSTLY_CLOUDY,NIGHT_MOSTLY_CLOUDY,NIGHT_FOG,NIGHT_MOSTLY_CLOUDY,NIGHT_MOSTLY_CLOUDY,NIGHT_FOG,NIGHT_FOG,NIGHT_MOSTLY_CLOUDY,FOG,FOG,MIST","Offshore,Offshore,Offshore,Offshore,Offshore,Offshore,Offshore,Offshore,Offshore,Offshore,Offshore",11
5842041f4e65fad6a7708886,2023_11_30,33.38042605929805,-117.58332,Middles,3,0.5239666666666667,0.8755212121212121,17,17,"NIGHT_MOSTLY_CLOUDY,NIGHT_FOG,NIGHT_FOG,NIGHT_MOSTLY_CLOUDY,NIGHT_MOSTLY_CLOUDY,NIGHT_OVERCAST,NIGHT_MOSTLY_CLOUDY,NIGHT_FOG,MOSTLY_CLOUDY,MIST,OVERCAST","Offshore,Offshore,Cross-shore,Offshore,Offshore,Cross-shore,Cross-shore,Offshore,Offshore,Offshore,Offshore",11
5842041f4e65fad6a7708887,2023_11_30,33.38445596302903,-117.59445,Upper Trestles,3.2572727272727273,0.9172,1.1414939393939394,17,17,"NIGHT_MOSTLY_CLOUDY,NIGHT_FOG,NIGHT_FOG,NIGHT_MOSTLY_CLOUDY,NIGHT_MOSTLY_CLOUDY,NIGHT_OVERCAST,NIGHT_MOSTLY_CLOUDY,NIGHT_FOG,MOSTLY_CLOUDY,MIST,OVERCAST","Offshore,Offshore,Offshore,Offshore,Offshore,Offshore,Offshore,Offshore,Offshore,Offshore,Offshore",11
5842041f4e65fad6a7708889,2023_11_30,28.944414,-95.28883,Surfside,0.9090909090909091,1.0071809090909092,1.5737181818181818,18,18,"NIGHT_OVERCAST,NIGHT_OVERCAST,NIGHT_MOSTLY_CLOUDY,NIGHT_MOSTLY_CLOUDY,NIGHT_MOSTLY_CLOUDY,NIGHT_MOSTLY_CLOUDY,NIGHT_OVERCAST,LIGHT_RAIN,MOSTLY_CLOUDY,MOSTLY_CLOUDY,RAIN","Onshore,Onshore,Onshore,Onshore,Onshore,Onshore,Onshore,Onshore,Onshore,Onshore,Onshore",11
5842041f4e65fad6a770888a,2023_11_30,33.38143999849023,-117.58843,Lower Trestles,3.2572727272727273,0.7918969696969697,1.1457242424242424,17,17,"NIGHT_MOSTLY_CLOUDY,NIGHT_FOG,NIGHT_FOG,NIGHT_MOSTLY_CLOUDY,NIGHT_MOSTLY_CLOUDY,NIGHT_OVERCAST,NIGHT_MOSTLY_CLOUDY,NIGHT_FOG,MOSTLY_CLOUDY,MIST,OVERCAST","Offshore,Offshore,Offshore,Offshore,Offshore,Offshore,Offshore,Offshore,Offshore,Offshore,Offshore",11
5842041f4e65fad6a770888b,2023_11_30,33.379622288757,-117.57894,Church,3,0.5644969696969697,0.9206727272727273,17,17,"NIGHT_MOSTLY_CLOUDY,NIGHT_FOG,NIGHT_FOG,NIGHT_MOSTLY_CLOUDY,NIGHT_MOSTLY_CLOUDY,NIGHT_OVERCAST,NIGHT_MOSTLY_CLOUDY,NIGHT_FOG,MOSTLY_CLOUDY,MIST,OVERCAST","Cross-shore,Cross-shore,Cross-shore,Cross-shore,Offshore,Cross-shore,Cross-shore,Offshore,Cross-shore,Offshore,Offshore",11
5842041f4e65fad6a770888d,2023_11_30,21.679,-158.042,Sunset Beach,4,1.8427272727272728,2.2018181818181817,26,25,"NIGHT_CLEAR,NIGHT_CLEAR,NIGHT_CLEAR,NIGHT_CLEAR,NIGHT_OVERCAST,NIGHT_OVERCAST,NIGHT_DRIZZLE,NIGHT_DRIZZLE,NIGHT_OVERCAST,NIGHT_CLEAR,NIGHT_CLEAR","Offshore,Offshore,Offshore,Offshore,Offshore,Offshore,Offshore,Offshore,Cross-shore,Offshore,Offshore",11
5842041f4e65fad6a770888e,2023_11_30,21.670550036401,-158.0482,Rocky Point,4,1.7054545454545456,2.037272727272727,26,25,"NIGHT_CLEAR,NIGHT_CLEAR,NIGHT_CLEAR,NIGHT_MOSTLY_CLOUDY,NIGHT_OVERCAST,NIGHT_OVERCAST,NIGHT_OVERCAST,NIGHT_OVERCAST,NIGHT_OVERCAST,NIGHT_CLEAR,NIGHT_CLEAR","Offshore,Offshore,Offshore,Offshore,Offshore,Offshore,Offshore,Offshore,Cross-shore,Offshore,Offshore",11
5842041f4e65fad6a770888f,2023_11_30,21.668,-158.05,Chambers,4,1.6245454545454545,1.940909090909091,26,26,"NIGHT_CLEAR,NIGHT_CLEAR,NIGHT_CLEAR,NIGHT_MOSTLY_CLOUDY,NIGHT_OVERCAST,NIGHT_OVERCAST,NIGHT_OVERCAST,NIGHT_OVERCAST,NIGHT_OVERCAST,NIGHT_CLEAR,NIGHT_CLEAR","Offshore,Offshore,Offshore,Offshore,Offshore,Offshore,Offshore,Offshore,Cross-shore,Offshore,Offshore",11
5842041f4e65fad6a7708890,2023_11_30,21.66522,-158.0526,Pipeline,3,1.6209090909090909,1.9372727272727273,26,25,"NIGHT_CLEAR,NIGHT_CLEAR,NIGHT_CLEAR,NIGHT_MOSTLY_CLOUDY,NIGHT_OVERCAST,NIGHT_OVERCAST,NIGHT_OVERCAST,NIGHT_OVERCAST,NIGHT_OVERCAST,NIGHT_CLEAR,NIGHT_CLEAR","Offshore,Offshore,Offshore,Offshore,Offshore,Offshore,Offshore,Offshore,Cross-shore,Offshore,Offshore",11
5842041f4e65fad6a7708891,2023_11_30,21.665,-158.054,Backdoor,4,1.6209090909090909,1.9372727272727273,26,26,"NIGHT_CLEAR,NIGHT_CLEAR,NIGHT_CLEAR,NIGHT_MOSTLY_CLOUDY,NIGHT_OVERCAST,NIGHT_OVERCAST,NIGHT_OVERCAST,NIGHT_OVERCAST,NIGHT_OVERCAST,NIGHT_CLEAR,NIGHT_CLEAR","Offshore,Offshore,Offshore,Offshore,Offshore,Offshore,Offshore,Offshore,Offshore,Offshore,Offshore",11
5842041f4e65fad6a7708892,2023_11_30,21.662,-158.057,Rockpile,4,1.82,2.1754545454545453,26,26,"NIGHT_CLEAR,NIGHT_CLEAR,NIGHT_CLEAR,NIGHT_MOSTLY_CLOUDY,NIGHT_OVERCAST,NIGHT_OVERCAST,NIGHT_OVERCAST,NIGHT_OVERCAST,NIGHT_OVERCAST,NIGHT_CLEAR,NIGHT_CLEAR","Offshore,Offshore,Offshore,Offshore,Offshore,Offshore,Offshore,Offshore,Cross-shore,Offshore,Offshore",11
5842041f4e65fad6a7708893,2023_11_30,21.65870453806827,-158.06058,Log Cabins,4,1.43,1.7127272727272727,26,26,"NIGHT_CLEAR,NIGHT_CLEAR,NIGHT_CLEAR,NIGHT_MOSTLY_CLOUDY,NIGHT_OVERCAST,NIGHT_OVERCAST,NIGHT_OVERCAST,NIGHT_OVERCAST,NIGHT_OVERCAST,NIGHT_CLEAR,NIGHT_CLEAR","Offshore,Offshore,Offshore,Offshore,Offshore,Offshore,Offshore,Offshore,Offshore,Offshore,Offshore",11
5842041f4e65fad6a7708894,2023_11_30,21.66203493640557,-158.05495,Off-The-Wall,4,1.800909090909091,2.153636363636364,26,26,"NIGHT_CLEAR,NIGHT_CLEAR,NIGHT_CLEAR,NIGHT_MOSTLY_CLOUDY,NIGHT_OVERCAST,NIGHT_OVERCAST,NIGHT_OVERCAST,NIGHT_OVERCAST,NIGHT_OVERCAST,NIGHT_CLEAR,NIGHT_CLEAR","Offshore,Offshore,Offshore,Offshore,Offshore,Offshore,Offshore,Offshore,Cross-shore,Offshore,Offshore",11
5842041f4e65fad6a7708895,2023_11_30,21.643,-158.067,Waimea Bay,NA,1.8027272727272727,2.1554545454545453,26,25,"NIGHT_CLEAR,NIGHT_CLEAR,NIGHT_CLEAR,NIGHT_MOSTLY_CLOUDY,NIGHT_OVERCAST,NIGHT_OVERCAST,NIGHT_OVERCAST,NIGHT_OVERCAST,NIGHT_OVERCAST,NIGHT_CLEAR,NIGHT_CLEAR","Offshore,Offshore,Offshore,Offshore,Offshore,Offshore,Offshore,Offshore,Cross-shore,Offshore,Offshore",11
5842041f4e65fad6a7708896,2023_11_30,21.622,-158.087,Hultin's,4,1.9972727272727273,2.387272727272727,26,25,"NIGHT_CLEAR,NIGHT_CLEAR,NIGHT_CLEAR,NIGHT_MOSTLY_CLOUDY,NIGHT_OVERCAST,NIGHT_OVERCAST,NIGHT_DRIZZLE,NIGHT_OVERCAST,NIGHT_OVERCAST,NIGHT_CLEAR,NIGHT_CLEAR","Offshore,Offshore,Offshore,Offshore,Offshore,Offshore,Offshore,Offshore,Offshore,Offshore,Cross-shore",11
5842041f4e65fad6a7708897,2023_11_30,21.623,-158.085,Jocko's,4,1.4227272727272728,1.7063636363636363,26,26,"NIGHT_CLEAR,NIGHT_CLEAR,NIGHT_CLEAR,NIGHT_MOSTLY_CLOUDY,NIGHT_OVERCAST,NIGHT_OVERCAST,NIGHT_DRIZZLE,NIGHT_OVERCAST,NIGHT_OVERCAST,NIGHT_CLEAR,NIGHT_CLEAR","Offshore,Offshore,Offshore,Offshore,Offshore,Offshore,Offshore,Offshore,Cross-shore,Offshore,Offshore",11
5842041f4e65fad6a7708898,2023_11_30,21.62,-158.088,Laniakea,4,1.4027272727272728,1.6754545454545455,26,25,"NIGHT_CLEAR,NIGHT_CLEAR,NIGHT_CLEAR,NIGHT_MOSTLY_CLOUDY,NIGHT_OVERCAST,NIGHT_OVERCAST,NIGHT_DRIZZLE,NIGHT_OVERCAST,NIGHT_OVERCAST,NIGHT_CLEAR,NIGHT_CLEAR","Offshore,Offshore,Offshore,Offshore,Offshore,Offshore,Offshore,Offshore,Offshore,Offshore,Offshore",11
5842041f4e65fad6a7708899,2023_11_30,21.625,-158.083,Chun's,4,1.4272727272727272,1.710909090909091,26,26,"NIGHT_CLEAR,NIGHT_CLEAR,NIGHT_CLEAR,NIGHT_MOSTLY_CLOUDY,NIGHT_OVERCAST,NIGHT_OVERCAST,NIGHT_DRIZZLE,NIGHT_OVERCAST,NIGHT_OVERCAST,NIGHT_CLEAR,NIGHT_CLEAR","Offshore,Offshore,Offshore,Offshore,Offshore,Offshore,Offshore,Offshore,Offshore,Offshore,Offshore",11
5842041f4e65fad6a770889c,2023_11_30,21.286357895152136,-157.8515,South Shore - Ala Moana Park,2,0.32636363636363636,0.6318181818181818,26,26,"NIGHT_MIST,NIGHT_CLEAR,NIGHT_MIST,NIGHT_MIST,NIGHT_MIST,NIGHT_LIGHT_RAIN,NIGHT_OVERCAST,NIGHT_LIGHT_RAIN,NIGHT_CLOUDY,NIGHT_CLEAR,NIGHT_CLEAR","Onshore,Onshore,Onshore,Onshore,Onshore,Onshore,Onshore,Onshore,Cross-shore,Cross-shore,Cross-shore",11
5842041f4e65fad6a770889d,2023_11_30,19.606,-155.978,Banyans,2.1818181818181817,0.5745454545454546,0.8772727272727273,26,25,"NIGHT_CLEAR,NIGHT_CLEAR,NIGHT_CLEAR,NIGHT_CLEAR,NIGHT_CLEAR,NIGHT_CLEAR,NIGHT_CLEAR,NIGHT_CLEAR,NIGHT_CLEAR,NIGHT_OVERCAST,NIGHT_BRIEF_SHOWERS_POSSIBLE","Cross-shore,Cross-shore,Cross-shore,Cross-shore,Onshore,Onshore,Onshore,Onshore,Onshore,Cross-shore,Cross-shore",11
5842041f4e65fad6a770889e,2023_11_30,20.029,-155.831,Kawaihae,2,0.4444,0.5959090909090909,26,26,"NIGHT_CLEAR,NIGHT_CLEAR,NIGHT_CLEAR,NIGHT_FOG,NIGHT_CLEAR,NIGHT_CLEAR,NIGHT_CLEAR,NIGHT_MIST,NIGHT_FOG,NIGHT_OVERCAST,NIGHT_MOSTLY_CLOUDY","Offshore,Cross-shore,Offshore,Onshore,Offshore,Offshore,Offshore,Cross-shore,Onshore,Cross-shore,Cross-shore",11
5842041f4e65fad6a770889f,2023_11_30,33.07541383424675,-117.3105,Grandview,3,0.48818181818181816,0.7945454545454546,17,17,"NIGHT_FOG,NIGHT_FOG,NIGHT_FOG,NIGHT_FOG,NIGHT_CLEAR,NIGHT_BRIEF_SHOWERS,NIGHT_CLEAR,NIGHT_FOG,MOSTLY_CLOUDY,CLOUDY,BRIEF_SHOWERS","Offshore,Offshore,Offshore,Offshore,Offshore,Offshore,Offshore,Offshore,Offshore,Offshore,Offshore",11
5842041f4e65fad6a77088a0,2023_11_30,33.065267421296596,-117.30577,Beacons,2.6363636363636362,0.5027272727272727,0.8072727272727273,17,17,"NIGHT_FOG,NIGHT_FOG,NIGHT_FOG,NIGHT_FOG,NIGHT_CLEAR,NIGHT_BRIEF_SHOWERS,NIGHT_CLEAR,NIGHT_FOG,MOSTLY_CLOUDY,CLOUDY,BRIEF_SHOWERS","Offshore,Offshore,Offshore,Offshore,Offshore,Offshore,Offshore,Offshore,Offshore,Offshore,Offshore",11
5842041f4e65fad6a77088a2,2023_11_30,21.252,-157.805,Diamond Head,2,0.606180909090909,0.9257109090909091,26,25,"NIGHT_CLEAR,NIGHT_CLEAR,NIGHT_CLEAR,NIGHT_MOSTLY_CLOUDY,NIGHT_OVERCAST,NIGHT_OVERCAST,NIGHT_OVERCAST,NIGHT_LIGHT_RAIN,NIGHT_CLEAR,NIGHT_CLEAR,NIGHT_CLEAR","Onshore,Onshore,Onshore,Onshore,Onshore,Onshore,Cross-shore,Onshore,Cross-shore,Cross-shore,Onshore",11
5842041f4e65fad6a77088a3,2023_11_30,33.04694255008896,-117.29966,Moonlight State Beach,2.8181818181818183,0.5163636363636364,0.8218181818181818,17,17,"NIGHT_FOG,NIGHT_FOG,NIGHT_MOSTLY_CLOUDY,NIGHT_FOG,NIGHT_MOSTLY_CLOUDY,NIGHT_BRIEF_SHOWERS,NIGHT_CLEAR,NIGHT_SHOWERS,FOG,CLOUDY,MOSTLY_CLOUDY","Onshore,Cross-shore,Offshore,Onshore,Onshore,Offshore,Offshore,Offshore,Cross-shore,Onshore,Cross-shore",11
5842041f4e65fad6a77088a5,2023_11_30,33.08685865930869,-117.31532,Ponto,3,0.6581818181818182,0.9627272727272727,17,17,"NIGHT_FOG,NIGHT_FOG,NIGHT_FOG,NIGHT_FOG,NIGHT_CLEAR,NIGHT_BRIEF_SHOWERS,NIGHT_CLEAR,NIGHT_FOG,MOSTLY_CLOUDY,CLOUDY,BRIEF_SHOWERS","Offshore,Offshore,Offshore,Offshore,Offshore,Cross-shore,Offshore,Offshore,Offshore,Offshore,Offshore",11
5842041f4e65fad6a77088a6,2023_11_30,33.130343587871906,-117.33667796442558,Terra Mar Point,2.439090909090909,0.4083151515151515,0.7707696969696969,17,17,"NIGHT_MOSTLY_CLOUDY,NIGHT_MOSTLY_CLOUDY,NIGHT_FOG,NIGHT_MOSTLY_CLOUDY,NIGHT_MOSTLY_CLOUDY,NIGHT_FOG,NIGHT_MOSTLY_CLOUDY,NIGHT_MOSTLY_CLOUDY,MOSTLY_CLOUDY,OVERCAST,BRIEF_SHOWERS","Cross-shore,Offshore,Offshore,Onshore,Onshore,Onshore,Onshore,Onshore,Onshore,Onshore,Onshore",11
5842041f4e65fad6a77088af,2023_11_30,32.95916304183685,-117.26963,Del Mar,2.909090909090909,0.9790909090909091,1.1718181818181816,17,17,"NIGHT_FOG,NIGHT_FOG,NIGHT_MOSTLY_CLOUDY,NIGHT_MOSTLY_CLOUDY,NIGHT_FOG,NIGHT_SHOWERS,NIGHT_FOG,NIGHT_FOG,CLEAR,FOG,CLOUDY","Onshore,Onshore,Onshore,Onshore,Onshore,Onshore,Onshore,Onshore,Onshore,Onshore,Onshore",11
5842041f4e65fad6a77088b0,2023_11_30,32.97527261243354,-117.2721061331305,Del Mar Rivermouth,2.727272727272727,0.899090909090909,1.1027272727272728,17,17,"NIGHT_FOG,NIGHT_FOG,NIGHT_MOSTLY_CLOUDY,NIGHT_MOSTLY_CLOUDY,NIGHT_MOSTLY_CLOUDY,NIGHT_BRIEF_SHOWERS,NIGHT_FOG,NIGHT_FOG,MOSTLY_CLOUDY,FOG,CLOUDY","Onshore,Onshore,Onshore,Onshore,Onshore,Onshore,Onshore,Onshore,Onshore,Onshore,Onshore",11
5842041f4e65fad6a77088b1,2023_11_30,33.01352178146273,-117.28219,Cardiff Reef,2.9845454545454544,0.7635424242424242,1.0995181818181818,17,17,"NIGHT_OVERCAST,NIGHT_FOG,NIGHT_MOSTLY_CLOUDY,NIGHT_CLEAR,NIGHT_MOSTLY_CLOUDY,NIGHT_FOG,NIGHT_CLEAR,NIGHT_FOG,MOSTLY_CLOUDY,FOG,MOSTLY_CLOUDY","Onshore,Onshore,Onshore,Onshore,Onshore,Onshore,Onshore,Onshore,Onshore,Onshore,Onshore",11
5842041f4e65fad6a77088b3,2023_11_30,33.00211185876003,-117.281101957955,Seaside Reef,2.9845454545454544,0.7702848484848485,1.110730303030303,17,17,"NIGHT_CLOUDY,NIGHT_FOG,NIGHT_CLEAR,NIGHT_MOSTLY_CLOUDY,NIGHT_MOSTLY_CLOUDY,NIGHT_BRIEF_SHOWERS,NIGHT_FOG,NIGHT_FOG,FOG,FOG,CLOUDY","Onshore,Onshore,Onshore,Onshore,Onshore,Onshore,Onshore,Onshore,Onshore,Onshore,Onshore",11
5842041f4e65fad6a77088b4,2023_11_30,33.0341859796287,-117.29552,Swami's,2.9845454545454544,0.9605878787878788,1.2018666666666666,17,17,"NIGHT_OVERCAST,NIGHT_FOG,NIGHT_MOSTLY_CLOUDY,NIGHT_CLEAR,NIGHT_MOSTLY_CLOUDY,NIGHT_FOG,NIGHT_CLEAR,NIGHT_FOG,MOSTLY_CLOUDY,FOG,MOSTLY_CLOUDY","Onshore,Cross-shore,Offshore,Onshore,Onshore,Offshore,Offshore,Cross-shore,Onshore,Onshore,Cross-shore",11
5842041f4e65fad6a77088b7,2023_11_30,33.04569760260221,-117.2994,D Street,2.8181818181818183,0.6909090909090909,0.9981818181818182,17,17,"NIGHT_FOG,NIGHT_FOG,NIGHT_MOSTLY_CLOUDY,NIGHT_FOG,NIGHT_MOSTLY_CLOUDY,NIGHT_BRIEF_SHOWERS,NIGHT_CLEAR,NIGHT_SHOWERS,FOG,CLOUDY,MOSTLY_CLOUDY","Onshore,Cross-shore,Offshore,Onshore,Onshore,Offshore,Offshore,Offshore,Cross-shore,Offshore,Cross-shore",11
5842041f4e65fad6a77088b8,2023_11_30,33.02090944350196,-117.28535,San Elijo State Beach,2.8936363636363636,0.5151333333333333,0.8542151515151515,17,17,"NIGHT_OVERCAST,NIGHT_FOG,NIGHT_MOSTLY_CLOUDY,NIGHT_CLEAR,NIGHT_MOSTLY_CLOUDY,NIGHT_FOG,NIGHT_CLEAR,NIGHT_FOG,MOSTLY_CLOUDY,FOG,MOSTLY_CLOUDY","Onshore,Onshore,Onshore,Onshore,Onshore,Onshore,Onshore,Onshore,Onshore,Onshore,Onshore",11
5842041f4e65fad6a77088c2,2023_11_30,32.80662846492798,-117.2688764333725,PB Point,3,0.9972727272727273,1.1927272727272726,17,17,"NIGHT_MOSTLY_CLOUDY,NIGHT_OVERCAST,NIGHT_FOG,NIGHT_MOSTLY_CLOUDY,NIGHT_MOSTLY_CLOUDY,NIGHT_MOSTLY_CLOUDY,NIGHT_CLEAR,NIGHT_SHOWERS,FOG,DRIZZLE,DRIZZLE","Offshore,Offshore,Offshore,Cross-shore,Offshore,Cross-shore,Offshore,Offshore,Offshore,Cross-shore,Offshore",11
5842041f4e65fad6a77088c4,2023_11_30,32.8060476681448,-117.26479,Old Man's at Tourmaline,3,0.5763636363636364,0.88,17,17,"NIGHT_MOSTLY_CLOUDY,NIGHT_OVERCAST,NIGHT_FOG,NIGHT_MOSTLY_CLOUDY,NIGHT_MOSTLY_CLOUDY,NIGHT_MOSTLY_CLOUDY,NIGHT_CLEAR,NIGHT_SHOWERS,FOG,DRIZZLE,DRIZZLE","Offshore,Offshore,Offshore,Cross-shore,Offshore,Cross-shore,Offshore,Offshore,Offshore,Cross-shore,Offshore",11
5842041f4e65fad6a77088cb,2023_11_30,32.557056711256,-117.1327445020322,Tijuana Slough,2.272727272727273,0.35727272727272724,0.6590909090909092,17,17,"NIGHT_BRIEF_SHOWERS,NIGHT_FOG,NIGHT_MOSTLY_CLOUDY,NIGHT_MOSTLY_CLOUDY,NIGHT_MOSTLY_CLOUDY,NIGHT_CLEAR,NIGHT_MOSTLY_CLOUDY,NIGHT_MOSTLY_CLOUDY,MOSTLY_CLOUDY,FOG,OVERCAST","Onshore,Onshore,Onshore,Onshore,Onshore,Cross-shore,Cross-shore,Cross-shore,Cross-shore,Onshore,Onshore",11
5842041f4e65fad6a77088cc,2023_11_30,32.863,-117.257,La Jolla Shores,2.909090909090909,0.7209090909090908,1.0263636363636364,17,17,"NIGHT_MOSTLY_CLOUDY,NIGHT_FOG,NIGHT_FOG,NIGHT_CLOUDY,NIGHT_MOSTLY_CLOUDY,NIGHT_MOSTLY_CLOUDY,NIGHT_MOSTLY_CLOUDY,NIGHT_BRIEF_SHOWERS,FOG,CLOUDY,MIST","Onshore,Onshore,Onshore,Onshore,Cross-shore,Cross-shore,Cross-shore,Cross-shore,Cross-shore,Cross-shore,Cross-shore",11
5842041f4e65fad6a77088ce,2023_11_30,32.67443657790586,-117.17421316238693,Coronado Beach,2.909090909090909,0.9054545454545454,1.1136363636363635,17,17,"NIGHT_FOG,NIGHT_FOG,NIGHT_BRIEF_SHOWERS,NIGHT_MOSTLY_CLOUDY,NIGHT_MOSTLY_CLOUDY,NIGHT_MOSTLY_CLOUDY,NIGHT_FOG,NIGHT_LIGHT_RAIN_AND_FOG,MOSTLY_CLOUDY,MOSTLY_CLOUDY,BRIEF_SHOWERS","Offshore,Cross-shore,Cross-shore,Cross-shore,Onshore,Onshore,Onshore,Onshore,Onshore,Onshore,Onshore",11
5842041f4e65fad6a77088cf,2023_11_30,33.40484417640326,-117.60749,San Clemente State Beach,2.909090909090909,0.4163636363636364,0.7227272727272727,18,18,"NIGHT_MOSTLY_CLOUDY,NIGHT_FOG,NIGHT_FOG,NIGHT_FOG,NIGHT_OVERCAST,NIGHT_FOG,NIGHT_MOSTLY_CLOUDY,NIGHT_BRIEF_SHOWERS,MOSTLY_CLOUDY,OVERCAST,CLOUDY","Offshore,Offshore,Cross-shore,Onshore,Onshore,Onshore,Onshore,Onshore,Onshore,Offshore,Offshore",11
5842041f4e65fad6a77088d5,2023_11_30,33.4663042002114,-117.7168352817103,Strands,3,0.6748515151515152,1.029209090909091,17,17,"NIGHT_OVERCAST,NIGHT_FOG,NIGHT_FOG,NIGHT_FOG,NIGHT_FOG,NIGHT_CLOUDY,NIGHT_MOSTLY_CLOUDY,NIGHT_FOG,FOG,CLOUDY,CLEAR","Onshore,Onshore,Onshore,Onshore,Onshore,Onshore,Onshore,Onshore,Onshore,Offshore,Offshore",11
5842041f4e65fad6a77088d7,2023_11_30,33.4609858001748,-117.68535,Doheny State Beach,1.7272727272727273,0.08946060606060606,0.3946636363636363,17,17,"NIGHT_OVERCAST,NIGHT_FOG,NIGHT_FOG,NIGHT_FOG,NIGHT_FOG,NIGHT_OVERCAST,NIGHT_MOSTLY_CLOUDY,NIGHT_FOG,FOG,OVERCAST,CLEAR","Offshore,Offshore,Offshore,Offshore,Offshore,Offshore,Cross-shore,Cross-shore,Cross-shore,Offshore,Offshore",11
5842041f4e65fad6a77088dc,2023_11_30,33.50894790083017,-117.75243,Aliso Creek,2,0.2609090909090909,0.5645454545454546,18,18,"NIGHT_FOG,NIGHT_FOG,NIGHT_FOG,NIGHT_CLOUDY,NIGHT_FOG,NIGHT_MOSTLY_CLOUDY,NIGHT_FOG,NIGHT_MOSTLY_CLOUDY,MOSTLY_CLEAR,CLEAR,CLEAR","Onshore,Onshore,Onshore,Onshore,Onshore,Onshore,Onshore,Onshore,Onshore,Offshore,Offshore",11
5842041f4e65fad6a77088dd,2023_11_30,33.5326591767067,-117.77764,Brooks Street,2,0.1190909090909091,0.4254545454545454,18,18,"NIGHT_FOG,NIGHT_SHOWERS,NIGHT_FOG,NIGHT_FOG,NIGHT_CLOUDY,NIGHT_FOG,NIGHT_MOSTLY_CLOUDY,NIGHT_MOSTLY_CLOUDY,FOG,CLOUDY,CLOUDY","Onshore,Onshore,Onshore,Onshore,Onshore,Onshore,Onshore,Onshore,Onshore,Offshore,Offshore",11
5842041f4e65fad6a77088de,2023_11_30,33.53561225884637,-117.7799,Thalia Street,2,0.1672727272727273,0.47363636363636363,18,18,"NIGHT_FOG,NIGHT_SHOWERS,NIGHT_FOG,NIGHT_FOG,NIGHT_CLOUDY,NIGHT_FOG,NIGHT_MOSTLY_CLOUDY,NIGHT_MOSTLY_CLOUDY,FOG,CLOUDY,CLOUDY","Onshore,Onshore,Onshore,Onshore,Onshore,Onshore,Onshore,Onshore,Onshore,Offshore,Offshore",11
5842041f4e65fad6a77088e3,2023_11_30,33.54268310353641,-117.7916,Rockpile,2,0.24545454545454545,0.5509090909090909,18,18,"NIGHT_FOG,NIGHT_SHOWERS,NIGHT_FOG,NIGHT_FOG,NIGHT_CLOUDY,NIGHT_FOG,NIGHT_MOSTLY_CLOUDY,NIGHT_MOSTLY_CLOUDY,FOG,CLOUDY,CLOUDY","Onshore,Onshore,Onshore,Cross-shore,Onshore,Onshore,Onshore,Onshore,Onshore,Offshore,Cross-shore",11
5842041f4e65fad6a77088e4,2023_11_30,33.7368459504689,-118.10342,"Seal Beach Pier, Southside",2,0.07545454545454545,0.3809090909090909,18,18,"NIGHT_CLEAR,NIGHT_FOG,NIGHT_CLEAR,NIGHT_FOG,NIGHT_FOG,NIGHT_FOG,NIGHT_MOSTLY_CLOUDY,NIGHT_BRIEF_SHOWERS,FOG,MOSTLY_CLOUDY,CLEAR","Cross-shore,Onshore,Onshore,Offshore,Offshore,Offshore,Offshore,Offshore,Offshore,Offshore,Offshore",11
5842041f4e65fad6a77088e5,2023_11_30,33.73933701820233,-118.117,Ray Bay,2,0.07454545454545454,0.3790909090909091,18,18,"NIGHT_FOG,NIGHT_CLEAR,NIGHT_CLEAR,NIGHT_FOG,NIGHT_FOG,NIGHT_FOG,NIGHT_FOG,NIGHT_FOG,CLEAR,CLEAR,MOSTLY_CLOUDY","Cross-shore,Onshore,Onshore,Offshore,Offshore,Offshore,Offshore,Offshore,Offshore,Offshore,Offshore",11
5842041f4e65fad6a77088e7,2023_11_30,33.728733,-118.08982,Surfside,2,0.14545454545454545,0.45,18,18,"NIGHT_CLEAR,NIGHT_FOG,NIGHT_CLEAR,NIGHT_MOSTLY_CLOUDY,NIGHT_FOG,NIGHT_MOSTLY_CLOUDY,NIGHT_MOSTLY_CLOUDY,NIGHT_FOG,FOG,CLEAR,CLEAR","Cross-shore,Onshore,Onshore,Offshore,Offshore,Offshore,Offshore,Offshore,Offshore,Offshore,Offshore",11
5842041f4e65fad6a77088e8,2023_11_30,33.68760321488161,-118.04236,Bolsa Chica State Beach,3.1818181818181817,0.6332,0.9366909090909091,17,17,"NIGHT_FOG,NIGHT_BRIEF_SHOWERS,NIGHT_BRIEF_SHOWERS,NIGHT_FOG,NIGHT_FOG,NIGHT_FOG,NIGHT_MOSTLY_CLOUDY,NIGHT_FOG,FOG,MOSTLY_CLOUDY,OVERCAST","Offshore,Cross-shore,Offshore,Onshore,Onshore,Onshore,Onshore,Onshore,Onshore,Cross-shore,Offshore",11
5842041f4e65fad6a77088ea,2023_11_30,33.66704400178788,-118.0192,North HB Streets,3,0.680169696969697,1.0387393939393939,17,17,"NIGHT_BRIEF_SHOWERS,NIGHT_MOSTLY_CLOUDY,NIGHT_FOG,NIGHT_FOG,NIGHT_MOSTLY_CLOUDY,NIGHT_FOG,NIGHT_MOSTLY_CLOUDY,NIGHT_MOSTLY_CLOUDY,MOSTLY_CLOUDY,FOG,MIST","Cross-shore,Offshore,Offshore,Onshore,Onshore,Cross-shore,Onshore,Onshore,Onshore,Offshore,Offshore",11
5842041f4e65fad6a77088ed,2023_11_30,33.65475101379567,-118.00291,Huntington Beach Pier Southside,3.272727272727273,0.7466303030303031,1.0338787878787878,17,17,"NIGHT_SHOWERS,NIGHT_MOSTLY_CLOUDY,NIGHT_FOG,NIGHT_FOG,NIGHT_FOG,NIGHT_FOG,NIGHT_FOG,NIGHT_MOSTLY_CLOUDY,MOSTLY_CLOUDY,FOG,OVERCAST","Offshore,Onshore,Offshore,Offshore,Offshore,Offshore,Offshore,Offshore,Offshore,Offshore,Offshore",11
5842041f4e65fad6a77088ee,2023_11_30,33.62778647706099,-117.95939,River Jetties,3,0.6142606060606061,0.9719212121212121,17,17,"NIGHT_SHOWERS,NIGHT_FOG,NIGHT_FOG,NIGHT_OVERCAST,NIGHT_FOG,NIGHT_FOG,NIGHT_FOG,NIGHT_FOG,MOSTLY_CLOUDY,CLEAR,CLEAR","Offshore,Cross-shore,Cross-shore,Offshore,Offshore,Offshore,Offshore,Offshore,Offshore,Offshore,Onshore",11
5842041f4e65fad6a77088f2,2023_11_30,33.605165797643664,-117.92500376701355,Newport Point,2.090909090909091,0.30363636363636365,0.6081818181818182,18,18,"NIGHT_BRIEF_SHOWERS,NIGHT_CLEAR,NIGHT_CLEAR,NIGHT_CLOUDY,NIGHT_FOG,NIGHT_FOG,NIGHT_SHOWERS,NIGHT_FOG,BRIEF_SHOWERS,MOSTLY_CLOUDY,MIST","Onshore,Cross-shore,Offshore,Onshore,Onshore,Onshore,Onshore,Onshore,Cross-shore,Offshore,Cross-shore",11
5842041f4e65fad6a77088f3,2023_11_30,33.58982984726977,-117.87713,Corona del Mar,1,0.1615181818181818,0.2523709090909091,18,18,"NIGHT_FOG,NIGHT_FOG,NIGHT_MOSTLY_CLOUDY,NIGHT_FOG,NIGHT_LIGHT_RAIN_AND_FOG,NIGHT_BRIEF_SHOWERS,NIGHT_HEAVY_SHOWERS,NIGHT_CLEAR,BRIEF_SHOWERS,CLEAR,CLOUDY","Onshore,Onshore,Cross-shore,Offshore,Offshore,Offshore,Offshore,Offshore,Offshore,Offshore,Offshore",11
5842041f4e65fad6a77088f7,2023_11_30,34.00750300824362,-118.4971783496269,Santa Monica Pier,2,0.2109090909090909,0.5154545454545455,18,18,"NIGHT_MIST,NIGHT_FOG,NIGHT_MOSTLY_CLEAR,NIGHT_MIST,NIGHT_FOG,NIGHT_FOG,NIGHT_FOG,NIGHT_SHOWERS,FOG,OVERCAST,MOSTLY_CLOUDY","Onshore,Onshore,Onshore,Onshore,Onshore,Onshore,Onshore,Onshore,Onshore,Cross-shore,Cross-shore",11
5842041f4e65fad6a77088ff,2023_11_30,33.94070283102945,-118.44321,Dockweiler Beach,2.909090909090909,0.8666765151515151,1.1768142424242425,17,17,"NIGHT_CLEAR,NIGHT_FOG,NIGHT_FOG,NIGHT_MIST,NIGHT_FOG,NIGHT_MOSTLY_CLOUDY,NIGHT_FOG,NIGHT_FOG,MOSTLY_CLOUDY,CLEAR,CLEAR","Onshore,Onshore,Onshore,Onshore,Onshore,Onshore,Onshore,Onshore,Onshore,Cross-shore,Cross-shore",11
5842041f4e65fad6a7708900,2023_11_30,33.9231846937237,-118.4341465777908,Shitpipe,2.272727272727273,0.6001515151515151,0.9795909090909091,17,17,"NIGHT_CLEAR,NIGHT_FOG,NIGHT_FOG,NIGHT_MOSTLY_CLOUDY,NIGHT_FOG,NIGHT_MOSTLY_CLOUDY,NIGHT_FOG,NIGHT_FOG,MOSTLY_CLOUDY,CLEAR,CLEAR","Onshore,Onshore,Onshore,Onshore,Onshore,Onshore,Onshore,Onshore,Onshore,Cross-shore,Cross-shore",11
5842041f4e65fad6a7708902,2023_11_30,33.9108528052242,-118.4279133138721,Hammerland,3,0.6380303030303031,1.0204242424242425,17,17,"NIGHT_CLEAR,NIGHT_FOG,NIGHT_FOG,NIGHT_MOSTLY_CLOUDY,NIGHT_FOG,NIGHT_MOSTLY_CLOUDY,NIGHT_FOG,NIGHT_FOG,MOSTLY_CLOUDY,CLEAR,CLEAR","Onshore,Onshore,Onshore,Onshore,Onshore,Onshore,Onshore,Onshore,Onshore,Cross-shore,Onshore",11
5842041f4e65fad6a7708904,2023_11_30,33.87201368173932,-118.4075151286262,Hermosa Beach,2.0154545454545456,0.49553030303030304,0.8576515151515152,17,17,"NIGHT_CLEAR,NIGHT_MOSTLY_CLEAR,NIGHT_MOSTLY_CLOUDY,NIGHT_MOSTLY_CLOUDY,NIGHT_FOG,NIGHT_FOG,NIGHT_MOSTLY_CLOUDY,NIGHT_MOSTLY_CLOUDY,FOG,CLEAR,MOSTLY_CLOUDY","Onshore,Onshore,Onshore,Onshore,Onshore,Onshore,Onshore,Onshore,Onshore,Cross-shore,Offshore",11
5842041f4e65fad6a7708906,2023_11_30,33.90129336911256,-118.42184,El Porto,3,0.938939393939394,1.2459545454545453,17,17,"NIGHT_CLEAR,NIGHT_FOG,NIGHT_FOG,NIGHT_MOSTLY_CLOUDY,NIGHT_FOG,NIGHT_CLEAR,NIGHT_MOSTLY_CLOUDY,NIGHT_FOG,MOSTLY_CLOUDY,MOSTLY_CLOUDY,MOSTLY_CLOUDY","Onshore,Onshore,Onshore,Onshore,Onshore,Onshore,Onshore,Onshore,Onshore,Cross-shore,Onshore",11
5842041f4e65fad6a7708907,2023_11_30,33.87963506431794,-118.41102,Manhattan Beach Pier,2.727272727272727,0.8318181818181818,1.1370454545454545,17,17,"NIGHT_CLEAR,NIGHT_FOG,NIGHT_FOG,NIGHT_MOSTLY_CLOUDY,NIGHT_FOG,NIGHT_CLEAR,NIGHT_MOSTLY_CLOUDY,NIGHT_FOG,MOSTLY_CLOUDY,MOSTLY_CLOUDY,MOSTLY_CLOUDY","Onshore,Onshore,Onshore,Onshore,Onshore,Onshore,Onshore,Onshore,Onshore,Cross-shore,Cross-shore",11
5842041f4e65fad6a7708914,2023_11_30,34.038053387863464,-118.5532,Sunset Point,2,0.13454545454545455,0.44181818181818183,17,17,"NIGHT_FOG,NIGHT_MIST,NIGHT_MOSTLY_CLEAR,NIGHT_MOSTLY_CLOUDY,NIGHT_FOG,NIGHT_FOG,NIGHT_BRIEF_SHOWERS,NIGHT_FOG,MOSTLY_CLOUDY,OVERCAST,MOSTLY_CLOUDY","Offshore,Offshore,Cross-shore,Offshore,Offshore,Onshore,Offshore,Offshore,Cross-shore,Offshore,Offshore",11
5842041f4e65fad6a7708920,2023_11_30,33.80930828074364,-118.3933198342649,Haggerty's,1.9090909090909092,0.22745454545454546,0.4101818181818182,18,18,"NIGHT_MOSTLY_CLOUDY,NIGHT_CLEAR,NIGHT_SHOWERS,NIGHT_FOG,NIGHT_FOG,NIGHT_MOSTLY_CLOUDY,NIGHT_MOSTLY_CLOUDY,NIGHT_FOG,FOG,MOSTLY_CLOUDY,MOSTLY_CLOUDY","Onshore,Onshore,Onshore,Onshore,Onshore,Onshore,Onshore,Onshore,Onshore,Onshore,Onshore",11
5842041f4e65fad6a7708921,2023_11_30,33.85044519861206,-118.40048,Redondo Breakwater,2.1818181818181817,0.6554545454545455,0.9627272727272727,18,18,"NIGHT_CLEAR,NIGHT_MOSTLY_CLEAR,NIGHT_MOSTLY_CLOUDY,NIGHT_MOSTLY_CLOUDY,NIGHT_FOG,NIGHT_FOG,NIGHT_MOSTLY_CLOUDY,NIGHT_MOSTLY_CLOUDY,FOG,CLEAR,MOSTLY_CLOUDY","Onshore,Onshore,Onshore,Onshore,Onshore,Onshore,Onshore,Onshore,Onshore,Cross-shore,Offshore",11
5842041f4e65fad6a7708927,2023_11_30,33.70877301002487,-118.2840112858389,Cabrillo Beach,1.9090909090909092,0.007272727272727273,0.31363636363636366,18,18,"NIGHT_BRIEF_SHOWERS,NIGHT_FOG,NIGHT_CLEAR,NIGHT_BRIEF_SHOWERS,NIGHT_MOSTLY_CLOUDY,NIGHT_MOSTLY_CLOUDY,NIGHT_MOSTLY_CLOUDY,NIGHT_MOSTLY_CLOUDY,MOSTLY_CLOUDY,FOG,FOG","Offshore,Offshore,Offshore,Cross-shore,Offshore,Cross-shore,Offshore,Offshore,Offshore,Offshore,Cross-shore",11
5842041f4e65fad6a770892c,2023_11_30,33.77209986806257,-118.4268428476672,Lunada Bay,2,0.6672727272727272,0.9727272727272727,18,18,"NIGHT_FOG,NIGHT_CLEAR,NIGHT_MOSTLY_CLOUDY,NIGHT_MOSTLY_CLOUDY,NIGHT_MOSTLY_CLOUDY,NIGHT_MOSTLY_CLOUDY,NIGHT_MOSTLY_CLOUDY,NIGHT_MOSTLY_CLOUDY,CLEAR,MOSTLY_CLOUDY,MOSTLY_CLOUDY","Cross-shore,Cross-shore,Onshore,Onshore,Onshore,Cross-shore,Cross-shore,Cross-shore,Cross-shore,Cross-shore,Cross-shore",11
5842041f4e65fad6a770892d,2023_11_30,33.79294656286144,-118.4070316699825,PV Cove,2,0.5855945454545455,0.8388536363636363,18,18,"NIGHT_MOSTLY_CLOUDY,NIGHT_CLEAR,NIGHT_SHOWERS,NIGHT_FOG,NIGHT_FOG,NIGHT_MOSTLY_CLOUDY,NIGHT_MOSTLY_CLOUDY,NIGHT_FOG,FOG,MOSTLY_CLOUDY,MOSTLY_CLOUDY","Onshore,Onshore,Onshore,Onshore,Onshore,Onshore,Onshore,Onshore,Onshore,Onshore,Onshore",11
5842041f4e65fad6a7708930,2023_11_30,34.03944902292561,-118.57539,Chart House,1,0,0.23454545454545456,17,17,"NIGHT_MOSTLY_CLEAR,NIGHT_MOSTLY_CLEAR,NIGHT_MOSTLY_CLEAR,NIGHT_FOG,NIGHT_FOG,NIGHT_BRIEF_SHOWERS,NIGHT_FOG,NIGHT_BRIEF_SHOWERS,FOG,CLEAR,MOSTLY_CLEAR","Offshore,Offshore,Offshore,Offshore,Offshore,Onshore,Offshore,Offshore,Cross-shore,Cross-shore,Offshore",11
5842041f4e65fad6a7708936,2023_11_30,34.0016731994772,-118.80456,Point Dume,1.5609090909090908,0.13266666666666665,0.4372121212121212,17,17,"NIGHT_FOG,NIGHT_CLEAR,NIGHT_MOSTLY_CLOUDY,NIGHT_CLEAR,NIGHT_MOSTLY_CLOUDY,NIGHT_MOSTLY_CLOUDY,NIGHT_CLEAR,NIGHT_CLEAR,CLEAR,CLEAR,MIST","Offshore,Cross-shore,Cross-shore,Cross-shore,Cross-shore,Cross-shore,Cross-shore,Offshore,Cross-shore,Cross-shore,Cross-shore",11
5842041f4e65fad6a7708937,2023_11_30,34.02587527588963,-118.7554939066114,Latigo Point,2,0.20727272727272728,0.5154545454545455,17,17,"NIGHT_CLEAR,NIGHT_FOG,NIGHT_FOG,NIGHT_MOSTLY_CLOUDY,NIGHT_MOSTLY_CLOUDY,NIGHT_FOG,NIGHT_MOSTLY_CLOUDY,NIGHT_CLEAR,CLEAR,CLEAR,MIST","Offshore,Cross-shore,Cross-shore,Cross-shore,Cross-shore,Cross-shore,Cross-shore,Offshore,Offshore,Onshore,Onshore",11
5842041f4e65fad6a770893f,2023_11_30,34.043762,-118.93294,Leo Carrillo,3,0.4940909090909091,0.8139848484848484,16,16,"NIGHT_FOG,NIGHT_FOG,NIGHT_FOG,NIGHT_FOG,NIGHT_MIST,NIGHT_MIST,NIGHT_FOG,NIGHT_MOSTLY_CLOUDY,MOSTLY_CLOUDY,FOG,CLEAR","Offshore,Offshore,Offshore,Offshore,Offshore,Offshore,Offshore,Offshore,Offshore,Offshore,Offshore",11
5842041f4e65fad6a7708941,2023_11_30,36.69388179265737,-121.81289,Marina State Beach,3.272727272727273,1.2627272727272727,1.4654545454545453,15,15,"NIGHT_OVERCAST,NIGHT_OVERCAST,NIGHT_MOSTLY_CLOUDY,NIGHT_MOSTLY_CLOUDY,NIGHT_MOSTLY_CLOUDY,NIGHT_OVERCAST,NIGHT_OVERCAST,NIGHT_MOSTLY_CLOUDY,NIGHT_OVERCAST,CLEAR,CLEAR","Onshore,Onshore,Onshore,Offshore,Offshore,Offshore,Offshore,Offshore,Onshore,Onshore,Onshore",11
5842041f4e65fad6a7708944,2023_11_30,34.34145077331085,-119.416999352654,Stanley's,2,0.21272727272727274,0.5172727272727273,17,17,"NIGHT_MOSTLY_CLOUDY,NIGHT_CLEAR,NIGHT_CLEAR,NIGHT_CLEAR,NIGHT_MIST,NIGHT_CLEAR,NIGHT_CLEAR,NIGHT_CLEAR,CLEAR,CLEAR,CLEAR","Offshore,Offshore,Offshore,Offshore,Offshore,Offshore,Offshore,Offshore,Offshore,Offshore,Offshore",11
5842041f4e65fad6a7708945,2023_11_30,34.35113017313915,-119.426921498899,Oil Piers,2,0.21636363636363637,0.5172727272727273,17,17,"NIGHT_MOSTLY_CLOUDY,NIGHT_CLEAR,NIGHT_CLEAR,NIGHT_CLEAR,NIGHT_MIST,NIGHT_CLEAR,NIGHT_CLEAR,NIGHT_CLEAR,CLEAR,CLEAR,CLEAR","Offshore,Offshore,Offshore,Offshore,Offshore,Offshore,Offshore,Offshore,Offshore,Offshore,Offshore",11
5842041f4e65fad6a770894c,2023_11_30,34.17876333306018,-119.2399483564372,Oxnard,2.8181818181818183,0.7136363636363636,1.0172727272727273,17,17,"NIGHT_FOG,NIGHT_FOG,NIGHT_OVERCAST,NIGHT_FOG,NIGHT_MIST,NIGHT_MOSTLY_CLOUDY,NIGHT_MOSTLY_CLOUDY,NIGHT_MOSTLY_CLOUDY,MOSTLY_CLEAR,MOSTLY_CLEAR,CLEAR","Onshore,Onshore,Onshore,Onshore,Cross-shore,Cross-shore,Offshore,Offshore,Offshore,Offshore,Offshore",11
5842041f4e65fad6a7708957,2023_11_30,34.31720331100517,-119.3882324751725,Pitas Point,2,0.25,0.5545454545454546,17,17,"NIGHT_MIST,NIGHT_MOSTLY_CLOUDY,NIGHT_MIST,NIGHT_MIST,NIGHT_CLEAR,NIGHT_CLEAR,NIGHT_CLEAR,NIGHT_MIST,CLEAR,CLEAR,CLEAR","Offshore,Offshore,Offshore,Offshore,Offshore,Offshore,Offshore,Offshore,Offshore,Offshore,Offshore",11
5842041f4e65fad6a7708959,2023_11_30,34.27851754384724,-119.316202617226,Emma Wood,2,0.2690909090909091,0.5709090909090909,17,17,"NIGHT_MIST,NIGHT_MOSTLY_CLOUDY,NIGHT_MIST,NIGHT_MIST,NIGHT_MIST,NIGHT_MIST,NIGHT_MIST,NIGHT_CLEAR,CLEAR,CLEAR,CLEAR","Offshore,Offshore,Offshore,Offshore,Offshore,Offshore,Offshore,Offshore,Offshore,Offshore,Offshore",11
5842041f4e65fad6a770895a,2023_11_30,34.35513640390276,-119.4400589884255,Mussel Shoals (aka Little Rincon),2,0.2409090909090909,0.5454545454545455,17,17,"NIGHT_MOSTLY_CLOUDY,NIGHT_MIST,NIGHT_CLEAR,NIGHT_MOSTLY_CLOUDY,NIGHT_MOSTLY_CLEAR,NIGHT_CLEAR,NIGHT_CLEAR,NIGHT_CLEAR,CLEAR,CLEAR,CLEAR","Cross-shore,Cross-shore,Cross-shore,Cross-shore,Offshore,Offshore,Offshore,Offshore,Cross-shore,Offshore,Offshore",11
5842041f4e65fad6a770895e,2023_11_30,34.28991757054902,-119.3366646794652,Summer Beach,2,0.24181818181818182,0.5472727272727274,17,17,"NIGHT_MIST,NIGHT_MOSTLY_CLOUDY,NIGHT_MIST,NIGHT_MIST,NIGHT_MIST,NIGHT_MIST,NIGHT_MIST,NIGHT_CLEAR,CLEAR,CLEAR,CLEAR","Offshore,Offshore,Offshore,Offshore,Offshore,Offshore,Offshore,Offshore,Offshore,Offshore,Offshore",11
5842041f4e65fad6a770895f,2023_11_30,34.30897456105926,-119.3582501170116,Solimar,2,0.2,0.5045454545454545,17,17,"NIGHT_MIST,NIGHT_MOSTLY_CLOUDY,NIGHT_MIST,NIGHT_MIST,NIGHT_CLEAR,NIGHT_CLEAR,NIGHT_CLEAR,NIGHT_MIST,CLEAR,CLEAR,CLEAR","Offshore,Offshore,Offshore,Offshore,Offshore,Offshore,Offshore,Offshore,Offshore,Offshore,Offshore",11
5842041f4e65fad6a7708960,2023_11_30,34.39836265281686,-119.70213,Leadbetter Point,1,0,0.2881818181818182,17,17,"NIGHT_CLEAR,NIGHT_CLEAR,NIGHT_CLEAR,NIGHT_CLEAR,NIGHT_CLEAR,NIGHT_CLEAR,NIGHT_CLEAR,NIGHT_CLEAR,CLEAR,CLEAR,CLEAR","Cross-shore,Offshore,Offshore,Offshore,Offshore,Offshore,Offshore,Offshore,Offshore,Offshore,Offshore",11
5842041f4e65fad6a7708961,2023_11_30,34.46052293893899,-120.07328,Refugio,2,0.07636363636363637,0.3809090909090909,17,17,"NIGHT_CLEAR,NIGHT_CLEAR,NIGHT_CLEAR,NIGHT_CLEAR,NIGHT_CLEAR,NIGHT_CLEAR,NIGHT_CLEAR,NIGHT_CLEAR,CLEAR,CLEAR,CLEAR","Offshore,Offshore,Offshore,Offshore,Offshore,Offshore,Offshore,Offshore,Offshore,Offshore,Offshore",11
5842041f4e65fad6a7708962,2023_11_30,34.40754276777778,-119.87639,Devereux,2.727272727272727,0.3181818181818182,0.6227272727272727,17,17,"NIGHT_CLEAR,NIGHT_CLEAR,NIGHT_CLEAR,NIGHT_CLEAR,NIGHT_CLEAR,NIGHT_CLEAR,NIGHT_CLEAR,NIGHT_CLEAR,CLEAR,CLEAR,CLEAR","Offshore,Offshore,Offshore,Offshore,Offshore,Offshore,Offshore,Offshore,Cross-shore,Offshore,Offshore",11
5842041f4e65fad6a7708963,2023_11_30,34.27479983305182,-119.3133222656776,Ventura Overhead,2,0.2872727272727273,0.5927272727272727,17,17,"NIGHT_MIST,NIGHT_MIST,NIGHT_MOSTLY_CLOUDY,NIGHT_MIST,NIGHT_MOSTLY_CLOUDY,NIGHT_MIST,NIGHT_MIST,NIGHT_CLEAR,CLEAR,MOSTLY_CLEAR,CLOUDY","Offshore,Offshore,Offshore,Offshore,Offshore,Offshore,Offshore,Offshore,Offshore,Offshore,Offshore",11
5842041f4e65fad6a7708964,2023_11_30,34.41023236011655,-119.88261,Sands,2.8181818181818183,0.33,0.6381818181818182,17,17,"NIGHT_CLEAR,NIGHT_CLEAR,NIGHT_CLEAR,NIGHT_CLEAR,NIGHT_CLEAR,NIGHT_CLEAR,NIGHT_CLEAR,NIGHT_CLEAR,CLEAR,CLEAR,CLEAR","Offshore,Cross-shore,Offshore,Offshore,Offshore,Offshore,Offshore,Offshore,Offshore,Offshore,Offshore",11
5842041f4e65fad6a7708966,2023_11_30,34.40450193869233,-119.68752,Sandspit,1,0,0.19818181818181818,17,17,"NIGHT_CLEAR,NIGHT_CLEAR,NIGHT_CLEAR,NIGHT_CLEAR,NIGHT_CLEAR,NIGHT_CLEAR,NIGHT_CLEAR,NIGHT_CLEAR,CLEAR,CLEAR,CLEAR","Cross-shore,Offshore,Offshore,Offshore,Offshore,Offshore,Offshore,Offshore,Offshore,Offshore,Offshore",11
5842041f4e65fad6a7708967,2023_11_30,34.41549098334453,-119.6375149840203,Hammond's,1,0,0.25272727272727274,17,17,"NIGHT_CLEAR,NIGHT_CLEAR,NIGHT_CLEAR,NIGHT_CLEAR,NIGHT_CLEAR,NIGHT_CLEAR,NIGHT_CLEAR,NIGHT_CLEAR,CLEAR,CLEAR,CLEAR","Offshore,Cross-shore,Offshore,Offshore,Offshore,Offshore,Offshore,Offshore,Offshore,Offshore,Offshore",11
5842041f4e65fad6a7708968,2023_11_30,34.45759322742309,-120.0220251867315,El Capitan,2,0.1318181818181818,0.4381818181818182,17,17,"NIGHT_CLEAR,NIGHT_CLEAR,NIGHT_CLEAR,NIGHT_CLEAR,NIGHT_CLEAR,NIGHT_CLEAR,NIGHT_CLEAR,NIGHT_CLEAR,CLEAR,CLEAR,CLEAR","Offshore,Offshore,Offshore,Offshore,Offshore,Offshore,Offshore,Cross-shore,Onshore,Offshore,Offshore",11
5842041f4e65fad6a770896c,2023_11_30,34.405117655616,-119.84317,Campus Point,2,0.07181818181818182,0.37636363636363634,17,17,"NIGHT_CLEAR,NIGHT_CLEAR,NIGHT_CLEAR,NIGHT_CLEAR,NIGHT_CLEAR,NIGHT_CLEAR,NIGHT_CLEAR,NIGHT_CLEAR,CLEAR,CLEAR,CLEAR","Offshore,Offshore,Offshore,Offshore,Offshore,Offshore,Offshore,Offshore,Offshore,Offshore,Offshore",11
5842041f4e65fad6a770896e,2023_11_30,34.38935162233354,-119.51955,Carpinteria State Beach,2,0.09454545454545454,0.4,17,17,"NIGHT_MOSTLY_CLEAR,NIGHT_MIST,NIGHT_MIST,NIGHT_MIST,NIGHT_MOSTLY_CLEAR,NIGHT_MOSTLY_CLEAR,NIGHT_CLEAR,NIGHT_CLEAR,CLEAR,CLEAR,CLEAR","Offshore,Cross-shore,Cross-shore,Offshore,Offshore,Offshore,Offshore,Offshore,Cross-shore,Cross-shore,Onshore",11
5842041f4e65fad6a770896f,2023_11_30,37.48296565175612,-122.4549300127824,Half Moon Bay,2.727272727272727,0.9572727272727273,1.1718181818181819,14,14,"NIGHT_CLEAR,NIGHT_CLEAR,NIGHT_CLEAR,NIGHT_CLEAR,NIGHT_CLEAR,NIGHT_CLEAR,NIGHT_CLEAR,NIGHT_CLEAR,NIGHT_CLEAR,BRIEF_SHOWERS,BRIEF_SHOWERS","Cross-shore,Cross-shore,Cross-shore,Cross-shore,Cross-shore,Cross-shore,Cross-shore,Cross-shore,Cross-shore,Cross-shore,Cross-shore",11
5842041f4e65fad6a7708970,2023_11_30,37.499,-122.471,Princeton Jetty,2,0.6963636363636364,1.0036363636363637,14,14,"NIGHT_CLEAR,NIGHT_CLEAR,NIGHT_CLEAR,NIGHT_CLEAR,NIGHT_CLEAR,NIGHT_CLEAR,NIGHT_CLEAR,NIGHT_CLEAR,NIGHT_CLEAR,BRIEF_SHOWERS,MIST","Cross-shore,Offshore,Cross-shore,Cross-shore,Cross-shore,Cross-shore,Cross-shore,Cross-shore,Cross-shore,Cross-shore,Cross-shore",11
5842041f4e65fad6a7708972,2023_11_30,37.35699547365155,-122.4069534707252,Tunitas Creek,3,1.4054545454545455,1.6745454545454546,15,15,"NIGHT_CLEAR,NIGHT_CLEAR,NIGHT_CLEAR,NIGHT_CLEAR,NIGHT_CLEAR,NIGHT_CLEAR,NIGHT_CLEAR,NIGHT_CLEAR,NIGHT_MOSTLY_CLOUDY,MOSTLY_CLOUDY,MOSTLY_CLOUDY","Offshore,Cross-shore,Offshore,Offshore,Cross-shore,Offshore,Cross-shore,Cross-shore,Cross-shore,Cross-shore,Cross-shore",11
5842041f4e65fad6a7708974,2023_11_30,37.54735589428842,-122.5161090212687,Montara,2.1818181818181817,1.11,1.32,14,14,"NIGHT_CLEAR,NIGHT_CLEAR,NIGHT_CLEAR,NIGHT_CLEAR,NIGHT_CLEAR,NIGHT_CLEAR,NIGHT_CLEAR,NIGHT_OVERCAST,NIGHT_MOSTLY_CLEAR,MOSTLY_CLOUDY,MIST","Onshore,Onshore,Onshore,Onshore,Onshore,Onshore,Onshore,Onshore,Onshore,Onshore,Onshore",11
5842041f4e65fad6a7708975,2023_11_30,34.3869373724559,-119.5142334209018,Tarpits,2,0.09636363636363636,0.40090909090909094,17,17,"NIGHT_MOSTLY_CLEAR,NIGHT_MOSTLY_CLEAR,NIGHT_MOSTLY_CLEAR,NIGHT_CLEAR,NIGHT_MOSTLY_CLEAR,NIGHT_MOSTLY_CLEAR,NIGHT_MOSTLY_CLEAR,NIGHT_CLEAR,CLEAR,CLEAR,CLEAR","Cross-shore,Onshore,Cross-shore,Offshore,Cross-shore,Offshore,Offshore,Offshore,Cross-shore,Offshore,Cross-shore",11
5842041f4e65fad6a7708976,2023_11_30,37.59881852720143,-122.50463,Pacifica / Linda Mar,1.1818181818181819,0.2277909090909091,0.5310363636363636,14,14,"NIGHT_CLEAR,NIGHT_CLEAR,NIGHT_CLEAR,NIGHT_CLEAR,NIGHT_CLEAR,NIGHT_CLEAR,NIGHT_CLEAR,NIGHT_CLOUDY,NIGHT_MOSTLY_CLOUDY,MOSTLY_CLOUDY,MIST","Onshore,Onshore,Onshore,Onshore,Onshore,Onshore,Onshore,Onshore,Onshore,Onshore,Onshore",11
5842041f4e65fad6a7708978,2023_11_30,37.59883098461164,-122.5143843582282,Pedro Point,2.272727272727273,1.0909090909090908,1.3054545454545454,14,14,"NIGHT_CLEAR,NIGHT_CLEAR,NIGHT_CLEAR,NIGHT_CLEAR,NIGHT_CLEAR,NIGHT_CLEAR,NIGHT_CLEAR,NIGHT_CLEAR,NIGHT_CLEAR,MOSTLY_CLOUDY,MIST","Onshore,Onshore,Onshore,Onshore,Onshore,Onshore,Onshore,Onshore,Onshore,Onshore,Onshore",11
5842041f4e65fad6a7708979,2023_11_30,37.61081996647663,-122.4973287570634,Rockaway,2,0.9554545454545454,1.1718181818181819,14,14,"NIGHT_CLEAR,NIGHT_CLEAR,NIGHT_CLEAR,NIGHT_CLEAR,NIGHT_CLEAR,NIGHT_CLEAR,NIGHT_CLEAR,NIGHT_CLOUDY,NIGHT_MOSTLY_CLOUDY,MOSTLY_CLOUDY,MIST","Onshore,Onshore,Onshore,Onshore,Onshore,Onshore,Onshore,Onshore,Onshore,Onshore,Onshore",11
5842041f4e65fad6a770897a,2023_11_30,37.809987384424446,-122.4751353263855,Fort Point,2.8181818181818183,0.6763636363636364,0.9845454545454545,14,14,"NIGHT_CLEAR,NIGHT_CLEAR,NIGHT_CLEAR,NIGHT_CLEAR,NIGHT_CLEAR,NIGHT_CLEAR,NIGHT_CLEAR,NIGHT_CLEAR,NIGHT_CLEAR,CLEAR,MIST","Offshore,Cross-shore,Offshore,Cross-shore,Cross-shore,Cross-shore,Cross-shore,Cross-shore,Cross-shore,Cross-shore,Cross-shore",11
5842041f4e65fad6a770897c,2023_11_30,37.63422542967464,-122.4951,Sharp Park,2.272727272727273,1.1127272727272728,1.3381818181818181,14,14,"NIGHT_CLEAR,NIGHT_CLEAR,NIGHT_CLEAR,NIGHT_CLEAR,NIGHT_CLEAR,NIGHT_CLEAR,NIGHT_CLEAR,NIGHT_CLOUDY,NIGHT_CLEAR,MOSTLY_CLOUDY,BRIEF_SHOWERS","Onshore,Onshore,Onshore,Onshore,Onshore,Onshore,Onshore,Onshore,Onshore,Onshore,Onshore",11
5842041f4e65fad6a770897d,2023_11_30,37.27313605072472,-122.4127387912554,Pescadero,2.5454545454545454,1.2845454545454547,1.5509090909090908,15,15,"NIGHT_CLEAR,NIGHT_CLEAR,NIGHT_CLEAR,NIGHT_CLEAR,NIGHT_CLEAR,NIGHT_CLEAR,NIGHT_CLEAR,NIGHT_MOSTLY_CLOUDY,NIGHT_MOSTLY_CLOUDY,OVERCAST,MIST","Cross-shore,Cross-shore,Cross-shore,Cross-shore,Cross-shore,Cross-shore,Cross-shore,Onshore,Onshore,Onshore,Onshore",11
5842041f4e65fad6a770897e,2023_11_30,37.18140279972666,-122.3926685899327,Pigeon Point,4,1.3645454545454545,1.6336363636363636,16,16,"NIGHT_CLEAR,NIGHT_CLEAR,NIGHT_CLEAR,NIGHT_CLEAR,NIGHT_CLEAR,NIGHT_CLEAR,NIGHT_CLEAR,NIGHT_CLEAR,NIGHT_MOSTLY_CLOUDY,CLOUDY,MIST","Offshore,Offshore,Offshore,Offshore,Offshore,Offshore,Offshore,Offshore,Offshore,Offshore,Offshore",11
5842041f4e65fad6a770897f,2023_11_30,37.11578956919415,-122.314699271291,Ano Nuevo,3,1.0118181818181817,1.2572727272727273,15,15,"NIGHT_CLEAR,NIGHT_CLEAR,NIGHT_CLEAR,NIGHT_CLEAR,NIGHT_CLEAR,NIGHT_CLEAR,NIGHT_CLEAR,NIGHT_CLEAR,NIGHT_MOSTLY_CLOUDY,MOSTLY_CLOUDY,MOSTLY_CLOUDY","Offshore,Offshore,Offshore,Offshore,Offshore,Offshore,Offshore,Offshore,Offshore,Offshore,Offshore",11
5842041f4e65fad6a7708980,2023_11_30,37.09520872681598,-122.2805474707768,Waddell Creek,3.3636363636363638,1.1727272727272726,1.409090909090909,15,15,"NIGHT_CLEAR,NIGHT_CLEAR,NIGHT_CLEAR,NIGHT_CLEAR,NIGHT_CLEAR,NIGHT_CLEAR,NIGHT_CLEAR,NIGHT_CLEAR,NIGHT_CLEAR,MIST,BRIEF_SHOWERS","Offshore,Offshore,Offshore,Offshore,Offshore,Offshore,Offshore,Offshore,Offshore,Offshore,Cross-shore",11
5842041f4e65fad6a7708981,2023_11_30,36.96512852130351,-122.1252825495626,Four Mile,3.090909090909091,0.98,1.2027272727272726,15,15,"NIGHT_CLEAR,NIGHT_CLEAR,NIGHT_CLEAR,NIGHT_CLEAR,NIGHT_CLEAR,NIGHT_CLEAR,NIGHT_CLEAR,NIGHT_CLEAR,NIGHT_CLEAR,CLEAR,MOSTLY_CLEAR","Offshore,Offshore,Offshore,Offshore,Offshore,Onshore,Onshore,Onshore,Offshore,Offshore,Offshore",11
5842041f4e65fad6a7708982,2023_11_30,37.04122807048655,-122.2333684729756,Scott Creek,3.4545454545454546,1.2318181818181817,1.470909090909091,15,15,"NIGHT_CLEAR,NIGHT_CLEAR,NIGHT_CLEAR,NIGHT_CLEAR,NIGHT_CLEAR,NIGHT_CLEAR,NIGHT_CLEAR,NIGHT_CLEAR,NIGHT_CLEAR,MOSTLY_CLOUDY,MOSTLY_CLOUDY","Offshore,Offshore,Offshore,Offshore,Offshore,Offshore,Offshore,Offshore,Offshore,Offshore,Offshore",11
5842041f4e65fad6a7708983,2023_11_30,37.02350229387179,-122.21908,Davenport,3.727272727272727,1.319090909090909,1.58,15,15,"NIGHT_CLEAR,NIGHT_CLEAR,NIGHT_CLEAR,NIGHT_CLEAR,NIGHT_CLEAR,NIGHT_CLEAR,NIGHT_CLEAR,NIGHT_CLEAR,NIGHT_CLEAR,MOSTLY_CLOUDY,MOSTLY_CLOUDY","Offshore,Offshore,Offshore,Offshore,Offshore,Cross-shore,Offshore,Offshore,Offshore,Offshore,Offshore",11
5842041f4e65fad6a7708986,2023_11_30,36.94905295955728,-122.0611823912244,Natural Bridges,3.3636363636363638,1.1863636363636363,1.4454545454545455,15,15,"NIGHT_CLEAR,NIGHT_CLEAR,NIGHT_CLEAR,NIGHT_CLEAR,NIGHT_CLEAR,NIGHT_CLEAR,NIGHT_CLEAR,NIGHT_OVERCAST,NIGHT_OVERCAST,CLEAR,CLEAR","Offshore,Offshore,Offshore,Offshore,Offshore,Cross-shore,Onshore,Onshore,Onshore,Offshore,Offshore",11
5842041f4e65fad6a7708987,2023_11_30,36.95154854910425,-122.0420693940968,Mitchell's Cove,3,0.9109090909090909,1.1054545454545455,15,15,"NIGHT_CLEAR,NIGHT_CLEAR,NIGHT_CLEAR,NIGHT_CLEAR,NIGHT_CLEAR,NIGHT_CLEAR,NIGHT_CLEAR,NIGHT_OVERCAST,NIGHT_OVERCAST,MOSTLY_CLEAR,CLEAR","Offshore,Offshore,Offshore,Cross-shore,Cross-shore,Onshore,Onshore,Onshore,Cross-shore,Offshore,Offshore",11
5842041f4e65fad6a770898a,2023_11_30,36.9572312370203,-121.98177,26th Ave,4,1.29,1.540909090909091,15,15,"NIGHT_CLEAR,NIGHT_CLEAR,NIGHT_CLEAR,NIGHT_CLEAR,NIGHT_CLEAR,NIGHT_CLEAR,NIGHT_CLEAR,NIGHT_CLOUDY,NIGHT_OVERCAST,CLEAR,CLEAR","Offshore,Offshore,Offshore,Cross-shore,Cross-shore,Onshore,Cross-shore,Onshore,Onshore,Cross-shore,Offshore",11
5842041f4e65fad6a770898e,2023_11_30,36.91899972819882,-121.85536,Manresa,3.090909090909091,1.24,1.479090909090909,14,14,"NIGHT_MIST,NIGHT_MIST,NIGHT_BRIEF_SHOWERS,NIGHT_MIST,NIGHT_MOSTLY_CLOUDY,NIGHT_OVERCAST,NIGHT_OVERCAST,NIGHT_OVERCAST,NIGHT_OVERCAST,CLEAR,CLEAR","Cross-shore,Cross-shore,Offshore,Offshore,Offshore,Cross-shore,Cross-shore,Cross-shore,Onshore,Onshore,Cross-shore",11
5842041f4e65fad6a7708990,2023_11_30,34.45747731928454,-120.34242,The Ranch,2.8181818181818183,0.4672727272727273,0.7709090909090909,17,17,"NIGHT_CLEAR,NIGHT_CLEAR,NIGHT_CLEAR,NIGHT_CLEAR,NIGHT_CLEAR,NIGHT_CLEAR,NIGHT_CLEAR,NIGHT_CLEAR,CLEAR,CLEAR,CLEAR","Offshore,Offshore,Offshore,Offshore,Offshore,Offshore,Offshore,Offshore,Offshore,Offshore,Offshore",11
5842041f4e65fad6a7708991,2023_11_30,34.50875036590315,-120.50348,Jalama,3,1.1181818181818182,1.3545454545454545,16,16,"NIGHT_CLEAR,NIGHT_CLEAR,NIGHT_CLEAR,NIGHT_CLEAR,NIGHT_CLEAR,NIGHT_CLEAR,NIGHT_CLEAR,NIGHT_CLEAR,NIGHT_CLEAR,CLEAR,CLEAR","Cross-shore,Cross-shore,Offshore,Offshore,Offshore,Offshore,Offshore,Offshore,Offshore,Offshore,Offshore",11
5842041f4e65fad6a7708996,2023_11_30,34.68700870220497,-120.6111611019887,Surf Beach,3,1.710909090909091,1.9672727272727273,16,16,"NIGHT_MOSTLY_CLOUDY,NIGHT_MOSTLY_CLOUDY,NIGHT_MOSTLY_CLOUDY,NIGHT_MOSTLY_CLOUDY,NIGHT_CLEAR,NIGHT_CLEAR,NIGHT_CLEAR,NIGHT_CLEAR,NIGHT_CLEAR,CLEAR,CLEAR","Onshore,Onshore,Onshore,Cross-shore,Cross-shore,Cross-shore,Cross-shore,Cross-shore,Cross-shore,Cross-shore,Cross-shore",11
5842041f4e65fad6a770899c,2023_11_30,35.5730538161116,-121.1143362345574,Moonstone,3.727272727272727,1.2772727272727273,1.5345454545454547,15,15,"NIGHT_CLEAR,NIGHT_CLEAR,NIGHT_MOSTLY_CLEAR,NIGHT_CLEAR,NIGHT_CLEAR,NIGHT_CLEAR,NIGHT_CLEAR,NIGHT_CLEAR,NIGHT_CLEAR,CLOUDY,CLEAR","Cross-shore,Offshore,Offshore,Offshore,Offshore,Offshore,Offshore,Offshore,Offshore,Onshore,Offshore",11
5842041f4e65fad6a770899d,2023_11_30,35.61533716776573,-121.1502053073914,Pico Creek,3.5454545454545454,1.2127272727272727,1.469090909090909,15,15,"NIGHT_CLEAR,NIGHT_CLEAR,NIGHT_CLEAR,NIGHT_CLEAR,NIGHT_CLEAR,NIGHT_CLEAR,NIGHT_CLEAR,NIGHT_CLEAR,NIGHT_CLEAR,CLOUDY,CLEAR","Onshore,Offshore,Offshore,Offshore,Offshore,Offshore,Offshore,Offshore,Offshore,Cross-shore,Offshore",11
5842041f4e65fad6a770899e,2023_11_30,35.56829031927379,-121.1120653023953,Santa Rosa Creek,3.5454545454545454,1.2772727272727273,1.5345454545454547,15,15,"NIGHT_MOSTLY_CLEAR,NIGHT_CLEAR,NIGHT_MOSTLY_CLEAR,NIGHT_CLEAR,NIGHT_CLEAR,NIGHT_CLEAR,NIGHT_CLEAR,NIGHT_CLEAR,NIGHT_CLEAR,OVERCAST,CLEAR","Cross-shore,Cross-shore,Cross-shore,Offshore,Offshore,Offshore,Offshore,Offshore,Offshore,Onshore,Offshore",11
5842041f4e65fad6a77089a2,2023_11_30,35.44820114936284,-120.90715,"Cayucos Pier, Southside ",3,0.42363636363636364,0.7272727272727273,16,16,"NIGHT_FOG,NIGHT_MOSTLY_CLEAR,NIGHT_CLEAR,NIGHT_CLEAR,NIGHT_CLEAR,NIGHT_CLEAR,NIGHT_CLEAR,NIGHT_CLEAR,NIGHT_CLEAR,OVERCAST,MOSTLY_CLOUDY","Offshore,Offshore,Offshore,Offshore,Offshore,Offshore,Offshore,Offshore,Offshore,Offshore,Offshore",11
5842041f4e65fad6a77089a4,2023_11_30,35.30143372628852,-120.877819239902,Cable Landing,3.6363636363636362,1.731818181818182,1.9654545454545453,16,16,"NIGHT_CLEAR,NIGHT_CLEAR,NIGHT_CLEAR,NIGHT_CLEAR,NIGHT_CLEAR,NIGHT_CLEAR,NIGHT_CLEAR,NIGHT_CLEAR,NIGHT_CLEAR,OVERCAST,OVERCAST","Offshore,Offshore,Offshore,Offshore,Offshore,Offshore,Offshore,Offshore,Offshore,Offshore,Offshore",11
5842041f4e65fad6a77089a9,2023_11_30,35.61269103500222,-121.1480725356606,San Simeon,3,0.8476363636363636,1.0264545454545455,15,15,"NIGHT_FOG,NIGHT_CLEAR,NIGHT_MOSTLY_CLEAR,NIGHT_CLEAR,NIGHT_CLEAR,NIGHT_CLEAR,NIGHT_CLEAR,NIGHT_CLEAR,NIGHT_CLEAR,OVERCAST,MOSTLY_CLEAR","Offshore,Offshore,Offshore,Offshore,Offshore,Offshore,Offshore,Offshore,Offshore,Cross-shore,Offshore",11
5842041f4e65fad6a77089ab,2023_11_30,35.1775325966252,-120.7341125142258,Avila Beach,2,0.11727272727272728,0.42363636363636364,16,16,"NIGHT_MOSTLY_CLOUDY,NIGHT_MOSTLY_CLEAR,NIGHT_CLEAR,NIGHT_CLEAR,NIGHT_CLEAR,NIGHT_CLEAR,NIGHT_CLEAR,NIGHT_CLEAR,NIGHT_CLEAR,CLEAR,CLEAR","Offshore,Offshore,Offshore,Offshore,Offshore,Offshore,Offshore,Offshore,Offshore,Offshore,Offshore",11
5842041f4e65fad6a77089ac,2023_11_30,35.13877877884115,-120.64535,Pismo Beach Pier,3,0.938469696969697,1.228,15,15,"NIGHT_MOSTLY_CLOUDY,NIGHT_MOSTLY_CLEAR,NIGHT_CLEAR,NIGHT_CLEAR,NIGHT_CLEAR,NIGHT_CLEAR,NIGHT_CLEAR,NIGHT_CLEAR,NIGHT_CLEAR,MOSTLY_CLOUDY,CLEAR","Offshore,Offshore,Offshore,Offshore,Offshore,Offshore,Offshore,Offshore,Offshore,Offshore,Offshore",11
5842041f4e65fad6a77089ad,2023_11_30,46.8907710233147,-124.12964,Westport/Olympic Peninsula,3,1.010909090909091,1.2081818181818182,11,11,"NIGHT_OVERCAST,NIGHT_OVERCAST,NIGHT_CLOUDY,NIGHT_OVERCAST,NIGHT_CLOUDY,NIGHT_OVERCAST,NIGHT_CLOUDY,NIGHT_CLEAR,NIGHT_CLEAR,BRIEF_SHOWERS_POSSIBLE,DRIZZLE","Offshore,Offshore,Offshore,Offshore,Offshore,Offshore,Offshore,Offshore,Offshore,Offshore,Offshore",11
5842041f4e65fad6a77089ae,2023_11_30,46.35185177248545,-124.06747,Long Beach Peninsula,4,1.4581818181818182,1.6745454545454546,10,10,"NIGHT_MOSTLY_CLOUDY,NIGHT_CLOUDY,NIGHT_CLEAR,NIGHT_CLOUDY,NIGHT_CLOUDY,NIGHT_OVERCAST,NIGHT_CLEAR,NIGHT_CLEAR,NIGHT_CLEAR,CLOUDY,OVERCAST","Offshore,Offshore,Offshore,Offshore,Offshore,Offshore,Offshore,Offshore,Offshore,Offshore,Offshore",11
5842041f4e65fad6a77089af,2023_11_30,47.90649175554033,-124.6370864743483,La Push,2.8181818181818183,1.2272727272727273,1.4672727272727273,11,11,"NIGHT_MOSTLY_CLOUDY,NIGHT_CLEAR,NIGHT_CLEAR,NIGHT_CLEAR,NIGHT_OVERCAST,NIGHT_DRIZZLE,NIGHT_OVERCAST,NIGHT_CLOUDY,NIGHT_BRIEF_SHOWERS_POSSIBLE,CLOUDY,LIGHT_RAIN","Cross-shore,Cross-shore,Cross-shore,Cross-shore,Cross-shore,Cross-shore,Cross-shore,Cross-shore,Cross-shore,Cross-shore,Cross-shore",11
5842041f4e65fad6a77089b0,2023_11_30,42.04368239985442,-124.26828,Brookings Jetty,2.8181818181818183,0.5688745454545454,0.8888663636363636,12,12,"NIGHT_MOSTLY_CLOUDY,NIGHT_MOSTLY_CLOUDY,NIGHT_LIGHT_RAIN,NIGHT_CLOUDY,NIGHT_MOSTLY_CLOUDY,NIGHT_DRIZZLE,NIGHT_SHOWERS,NIGHT_MIST,NIGHT_MIST,OVERCAST,OVERCAST","Onshore,Cross-shore,Onshore,Cross-shore,Cross-shore,Onshore,Onshore,Cross-shore,Cross-shore,Cross-shore,Onshore",11
5842041f4e65fad6a77089b1,2023_11_30,42.74071837900346,-124.4983727491047,Port Orford,2.1818181818181817,0.6763636363636364,0.9781818181818182,11,11,"NIGHT_MOSTLY_CLOUDY,NIGHT_OVERCAST,NIGHT_OVERCAST,NIGHT_CLOUDY,NIGHT_OVERCAST,NIGHT_MIST,NIGHT_MOSTLY_CLOUDY,NIGHT_MOSTLY_CLOUDY,NIGHT_MOSTLY_CLOUDY,CLOUDY,OVERCAST","Cross-shore,Onshore,Onshore,Onshore,Onshore,Onshore,Cross-shore,Cross-shore,Onshore,Onshore,Onshore",11
5842041f4e65fad6a77089b2,2023_11_30,44.01532689312291,-124.13865,Florence South Jetty,3.727272727272727,1.3745454545454545,1.6263636363636365,12,12,"NIGHT_OVERCAST,NIGHT_OVERCAST,NIGHT_CLOUDY,NIGHT_RAIN,NIGHT_CLEAR,NIGHT_CLEAR,NIGHT_CLOUDY,NIGHT_OVERCAST,NIGHT_CLOUDY,MOSTLY_CLOUDY,MIST","Offshore,Offshore,Offshore,Offshore,Offshore,Offshore,Offshore,Offshore,Offshore,Offshore,Cross-shore",11
5842041f4e65fad6a77089b3,2023_11_30,42.41812540774362,-124.42945,Gold Beach South Jetty,2.8181818181818183,1.069090909090909,1.3236363636363637,11,11,"NIGHT_MOSTLY_CLOUDY,NIGHT_MOSTLY_CLOUDY,NIGHT_CLEAR,NIGHT_CLOUDY,NIGHT_OVERCAST,NIGHT_DRIZZLE,NIGHT_OVERCAST,NIGHT_MIST,NIGHT_MIST,MOSTLY_CLOUDY,MOSTLY_CLOUDY","Offshore,Offshore,Cross-shore,Onshore,Onshore,Onshore,Onshore,Onshore,Onshore,Onshore,Onshore",11
5842041f4e65fad6a77089b4,2023_11_30,44.95857310226525,-124.0219017690976,Lincoln City,3.6363636363636362,1.3981818181818182,1.63,12,12,"NIGHT_MOSTLY_CLOUDY,NIGHT_OVERCAST,NIGHT_CLEAR,NIGHT_CLEAR,NIGHT_CLEAR,NIGHT_CLOUDY,NIGHT_CLOUDY,NIGHT_CLEAR,NIGHT_CLEAR,MOSTLY_CLOUDY,MOSTLY_CLOUDY","Offshore,Cross-shore,Offshore,Offshore,Offshore,Offshore,Offshore,Offshore,Offshore,Offshore,Offshore",11
5842041f4e65fad6a77089b5,2023_11_30,44.63792761362982,-124.0657,Newport,4,1.4963636363636363,1.7263636363636363,12,12,"NIGHT_BRIEF_SHOWERS,NIGHT_CLOUDY,NIGHT_CLEAR,NIGHT_CLEAR,NIGHT_CLEAR,NIGHT_CLEAR,NIGHT_CLEAR,NIGHT_CLEAR,NIGHT_CLEAR,CLEAR,MOSTLY_CLOUDY","Offshore,Offshore,Offshore,Offshore,Offshore,Offshore,Offshore,Offshore,Offshore,Offshore,Offshore",11
5842041f4e65fad6a77089b6,2023_11_30,45.61468496266301,-123.94643,Rockaway Beach,4,1.4772727272727273,1.699090909090909,12,12,"NIGHT_CLEAR,NIGHT_CLOUDY,NIGHT_CLOUDY,NIGHT_OVERCAST,NIGHT_OVERCAST,NIGHT_OVERCAST,NIGHT_CLOUDY,NIGHT_CLEAR,NIGHT_CLEAR,CLOUDY,CLEAR","Cross-shore,Offshore,Offshore,Offshore,Offshore,Offshore,Offshore,Offshore,Offshore,Offshore,Offshore",11
5842041f4e65fad6a77089b7,2023_11_30,45.20252914186085,-123.96975,Pacific City,3.3636363636363638,1.1872727272727273,1.4136363636363636,12,12,"NIGHT_MOSTLY_CLOUDY,NIGHT_CLEAR,NIGHT_CLEAR,NIGHT_CLEAR,NIGHT_CLOUDY,NIGHT_CLOUDY,NIGHT_CLEAR,NIGHT_CLEAR,NIGHT_CLEAR,CLEAR,MOSTLY_CLOUDY","Offshore,Offshore,Offshore,Offshore,Offshore,Offshore,Offshore,Offshore,Offshore,Offshore,Offshore",11
5842041f4e65fad6a77089b8,2023_11_30,45.88179930310263,-123.96681,Cannon Beach,3.4545454545454546,1.3263636363636364,1.6036363636363635,11,11,"NIGHT_MOSTLY_CLEAR,NIGHT_CLEAR,NIGHT_CLEAR,NIGHT_OVERCAST,NIGHT_OVERCAST,NIGHT_MOSTLY_CLOUDY,NIGHT_CLEAR,NIGHT_CLOUDY,NIGHT_CLEAR,CLOUDY,OVERCAST","Cross-shore,Offshore,Offshore,Offshore,Offshore,Offshore,Offshore,Offshore,Offshore,Offshore,Cross-shore",11
5842041f4e65fad6a77089ba,2023_11_30,40.02528754746774,-124.06372,Shelter Cove,2,0.31450545454545453,0.49141545454545454,13,13,"NIGHT_CLEAR,NIGHT_CLEAR,NIGHT_CLEAR,NIGHT_CLEAR,NIGHT_CLEAR,NIGHT_MOSTLY_CLOUDY,NIGHT_MOSTLY_CLOUDY,NIGHT_CLEAR,NIGHT_CLEAR,CLEAR,MOSTLY_CLOUDY","Onshore,Onshore,Cross-shore,Onshore,Onshore,Offshore,Offshore,Offshore,Cross-shore,Offshore,Cross-shore",11
5842041f4e65fad6a77089bb,2023_11_30,40.76816197136951,-124.24248,Humboldt Harbor Entrance,3,1.1181818181818182,1.3854545454545455,12,12,"NIGHT_MIST,NIGHT_MIST,NIGHT_MIST,NIGHT_CLEAR,NIGHT_MOSTLY_CLOUDY,NIGHT_MOSTLY_CLOUDY,NIGHT_MOSTLY_CLOUDY,NIGHT_CLEAR,NIGHT_MOSTLY_CLOUDY,BRIEF_SHOWERS,OVERCAST","Cross-shore,Cross-shore,Offshore,Onshore,Cross-shore,Cross-shore,Cross-shore,Cross-shore,Cross-shore,Cross-shore,Onshore",11
5842041f4e65fad6a77089bc,2023_11_30,40.76684246920174,-124.23107,North Jetty,3,1.4590909090909092,1.74,12,12,"NIGHT_MIST,NIGHT_MIST,NIGHT_OVERCAST,NIGHT_CLEAR,NIGHT_MOSTLY_CLOUDY,NIGHT_MOSTLY_CLOUDY,NIGHT_MOSTLY_CLOUDY,NIGHT_CLEAR,NIGHT_CLEAR,BRIEF_SHOWERS,MIST","Cross-shore,Cross-shore,Offshore,Cross-shore,Cross-shore,Cross-shore,Cross-shore,Cross-shore,Cross-shore,Offshore,Cross-shore",11
5842041f4e65fad6a77089bd,2023_11_30,41.02731183893966,-124.1149972888982,Westhaven,3.3636363636363638,1.7354545454545454,2.058181818181818,12,12,"NIGHT_CLEAR,NIGHT_MOSTLY_CLOUDY,NIGHT_CLEAR,NIGHT_MOSTLY_CLOUDY,NIGHT_MOSTLY_CLOUDY,NIGHT_MOSTLY_CLOUDY,NIGHT_MOSTLY_CLOUDY,NIGHT_MOSTLY_CLOUDY,NIGHT_CLEAR,MOSTLY_CLOUDY,FOG","Offshore,Offshore,Cross-shore,Offshore,Offshore,Offshore,Cross-shore,Cross-shore,Cross-shore,Offshore,Cross-shore",11
5842041f4e65fad6a77089be,2023_11_30,41.13016238153297,-124.16466,Sue-meg,3.3636363636363638,1.1218181818181818,1.3672727272727272,12,12,"NIGHT_MIST,NIGHT_MIST,NIGHT_MIST,NIGHT_OVERCAST,NIGHT_MOSTLY_CLOUDY,NIGHT_MOSTLY_CLOUDY,NIGHT_MOSTLY_CLOUDY,NIGHT_BRIEF_SHOWERS,NIGHT_FOG,MOSTLY_CLOUDY,MOSTLY_CLOUDY","Cross-shore,Cross-shore,Offshore,Offshore,Offshore,Offshore,Offshore,Offshore,Offshore,Offshore,Offshore",11
5842041f4e65fad6a77089bf,2023_11_30,37.8289474958188,-122.5376795097543,Fort Cronkite/Rodeo Beach,2.909090909090909,1.1281818181818182,1.3281818181818181,14,14,"NIGHT_CLEAR,NIGHT_CLEAR,NIGHT_CLEAR,NIGHT_CLEAR,NIGHT_CLEAR,NIGHT_CLEAR,NIGHT_CLEAR,NIGHT_CLEAR,NIGHT_CLEAR,MOSTLY_CLOUDY,MIST","Cross-shore,Cross-shore,Offshore,Cross-shore,Cross-shore,Cross-shore,Cross-shore,Cross-shore,Cross-shore,Cross-shore,Cross-shore",11
5842041f4e65fad6a77089c0,2023_11_30,41.74415759876137,-124.1771718063073,South Beach CA,2.8181818181818183,0.6027272727272727,0.9081818181818182,12,12,"NIGHT_MIST,NIGHT_MIST,NIGHT_LIGHT_RAIN,NIGHT_CLEAR,NIGHT_LIGHT_RAIN,NIGHT_CLEAR,NIGHT_DRIZZLE,NIGHT_BRIEF_SHOWERS,NIGHT_MOSTLY_CLOUDY,MOSTLY_CLOUDY,LIGHT_RAIN","Onshore,Onshore,Onshore,Onshore,Onshore,Onshore,Onshore,Onshore,Onshore,Onshore,Onshore",11
5842041f4e65fad6a77089c1,2023_11_30,37.89801283969752,-122.64519,Stinson Beach,3,0.48454545454545456,0.7927272727272727,14,14,"NIGHT_CLEAR,NIGHT_CLEAR,NIGHT_CLEAR,NIGHT_CLEAR,NIGHT_CLEAR,NIGHT_CLEAR,NIGHT_CLEAR,NIGHT_CLEAR,NIGHT_MOSTLY_CLOUDY,CLEAR,MIST","Cross-shore,Onshore,Onshore,Onshore,Cross-shore,Onshore,Cross-shore,Offshore,Cross-shore,Cross-shore,Cross-shore",11
5842041f4e65fad6a77089c2,2023_11_30,37.90514516176495,-122.68151,Bolinas,3,0.49648363636363635,0.7757545454545455,14,14,"NIGHT_CLEAR,NIGHT_CLEAR,NIGHT_CLEAR,NIGHT_CLEAR,NIGHT_CLEAR,NIGHT_CLEAR,NIGHT_CLEAR,NIGHT_MOSTLY_CLOUDY,NIGHT_MOSTLY_CLOUDY,MOSTLY_CLOUDY,MIST","Cross-shore,Onshore,Onshore,Onshore,Onshore,Onshore,Cross-shore,Cross-shore,Onshore,Onshore,Cross-shore",11
5842041f4e65fad6a77089c3,2023_11_30,38.04892513158693,-122.9892494965416,Point Reyes (north),1.5454545454545454,1.3218181818181818,1.5781818181818181,14,14,"NIGHT_CLEAR,NIGHT_CLEAR,NIGHT_CLEAR,NIGHT_CLEAR,NIGHT_CLEAR,NIGHT_CLEAR,NIGHT_MOSTLY_CLOUDY,NIGHT_MOSTLY_CLOUDY,NIGHT_CLEAR,CLEAR,MOSTLY_CLOUDY","Onshore,Onshore,Onshore,Onshore,Onshore,Onshore,Onshore,Onshore,Onshore,Onshore,Onshore",11
5842041f4e65fad6a77089c6,2023_11_30,38.31088736605785,-123.0496777333731,Doran Beach,1.8181818181818181,0.09181818181818181,0.39636363636363636,14,14,"NIGHT_CLEAR,NIGHT_CLEAR,NIGHT_CLEAR,NIGHT_CLEAR,NIGHT_CLEAR,NIGHT_CLEAR,NIGHT_CLEAR,NIGHT_CLEAR,NIGHT_CLEAR,CLEAR,MIST","Offshore,Offshore,Offshore,Offshore,Offshore,Offshore,Offshore,Offshore,Offshore,Offshore,Offshore",11
5842041f4e65fad6a77089c7,2023_11_30,38.45077228660809,-123.13008,Russian Rivermouth,3,0.9845454545454545,1.1854545454545455,14,14,"NIGHT_CLEAR,NIGHT_CLEAR,NIGHT_CLEAR,NIGHT_CLEAR,NIGHT_CLEAR,NIGHT_CLEAR,NIGHT_CLEAR,NIGHT_CLEAR,NIGHT_CLEAR,CLEAR,CLEAR","Cross-shore,Cross-shore,Cross-shore,Cross-shore,Cross-shore,Cross-shore,Cross-shore,Cross-shore,Cross-shore,Cross-shore,Cross-shore",11
5842041f4e65fad6a77089c8,2023_11_30,38.35329968518107,-123.06906,Salmon Creek,2.090909090909091,1.1818181818181819,1.4381818181818182,14,14,"NIGHT_CLEAR,NIGHT_CLEAR,NIGHT_CLEAR,NIGHT_CLEAR,NIGHT_CLEAR,NIGHT_CLEAR,NIGHT_CLEAR,NIGHT_CLEAR,NIGHT_CLEAR,MOSTLY_CLOUDY,MIST","Onshore,Onshore,Onshore,Onshore,Onshore,Onshore,Onshore,Onshore,Onshore,Onshore,Onshore",11
5842041f4e65fad6a77089c9,2023_11_30,38.6845180197959,-123.4322714291198,Black Point Beach,3,0.6818181818181818,0.9845454545454545,14,14,"NIGHT_CLEAR,NIGHT_CLEAR,NIGHT_CLEAR,NIGHT_CLEAR,NIGHT_CLEAR,NIGHT_CLEAR,NIGHT_CLEAR,NIGHT_MOSTLY_CLOUDY,NIGHT_CLEAR,CLEAR,CLEAR","Onshore,Onshore,Onshore,Onshore,Onshore,Onshore,Onshore,Onshore,Onshore,Onshore,Onshore",11
5842041f4e65fad6a77089ca,2023_11_30,43.251076,-70.59144,Ogunquit,0.5909090909090909,0.03212121212121212,0.33604242424242425,9,8,"NIGHT_CLEAR,NIGHT_CLEAR,NIGHT_CLEAR,NIGHT_CLEAR,NIGHT_CLEAR,NIGHT_CLEAR,CLEAR,CLEAR,CLEAR,CLEAR,CLEAR","Offshore,Offshore,Offshore,Offshore,Offshore,Offshore,Offshore,Offshore,Offshore,Offshore,Offshore",11
5842041f4e65fad6a77089cb,2023_11_30,41.362631366305415,-71.48006772942608,Point Judith,0.5727272727272728,0,0.2543818181818182,11,9,"NIGHT_CLEAR,NIGHT_CLEAR,NIGHT_CLEAR,NIGHT_CLEAR,NIGHT_CLEAR,NIGHT_CLEAR,CLEAR,CLEAR,CLEAR,CLEAR,CLEAR","Offshore,Offshore,Offshore,Offshore,Offshore,Offshore,Offshore,Offshore,Offshore,Offshore,Offshore",11
5842041f4e65fad6a77089cd,2023_11_30,41.422678090954726,-71.45413,Monahan's - Narragansett,1,0.10093181818181818,0.15770727272727272,11,11,"NIGHT_CLEAR,NIGHT_CLEAR,NIGHT_CLEAR,NIGHT_CLEAR,NIGHT_CLEAR,NIGHT_CLEAR,CLEAR,CLEAR,CLEAR,CLEAR,CLEAR","Offshore,Offshore,Offshore,Offshore,Offshore,Offshore,Offshore,Offshore,Offshore,Offshore,Offshore",11
5842041f4e65fad6a77089ce,2023_11_30,41.469,-71.293,Ruggles - Newport,1,0.3721981818181818,0.5815563636363636,10,10,"NIGHT_CLEAR,NIGHT_CLEAR,NIGHT_CLEAR,NIGHT_CLEAR,NIGHT_CLEAR,NIGHT_CLEAR,CLEAR,CLEAR,CLEAR,CLEAR,CLEAR","Cross-shore,Cross-shore,Cross-shore,Cross-shore,Cross-shore,Cross-shore,Cross-shore,Cross-shore,Cross-shore,Cross-shore,Cross-shore",11
5842041f4e65fad6a77089cf,2023_11_30,43.175394,-70.606351,Short Sands Beach,1,0.030000000000000002,0.3336363636363636,9,9,"NIGHT_CLEAR,NIGHT_CLEAR,NIGHT_CLEAR,NIGHT_CLEAR,NIGHT_CLEAR,NIGHT_CLEAR,CLEAR,CLEAR,CLEAR,CLEAR,CLEAR","Offshore,Offshore,Offshore,Offshore,Offshore,Offshore,Offshore,Offshore,Offshore,Offshore,Offshore",11
5842041f4e65fad6a77089d0,2023_11_30,41.487408,-71.29017,First Beach,0.5454545454545454,0,0.15454545454545454,10,10,"NIGHT_CLEAR,NIGHT_CLEAR,NIGHT_CLEAR,NIGHT_CLEAR,NIGHT_CLEAR,NIGHT_CLEAR,CLEAR,CLEAR,CLEAR,CLEAR,CLEAR","Cross-shore,Cross-shore,Cross-shore,Cross-shore,Cross-shore,Cross-shore,Cross-shore,Cross-shore,Cross-shore,Cross-shore,Cross-shore",11
5842041f4e65fad6a77089d1,2023_11_30,42.27916830233153,-70.86498,Nantasket Beach,0.5909090909090909,0,0.22355151515151517,10,9,"NIGHT_CLEAR,NIGHT_CLEAR,NIGHT_CLEAR,NIGHT_CLEAR,NIGHT_CLEAR,NIGHT_CLEAR,CLEAR,CLEAR,CLEAR,CLEAR,CLEAR","Offshore,Offshore,Offshore,Offshore,Offshore,Offshore,Offshore,Offshore,Offshore,Offshore,Offshore",11
5842041f4e65fad6a77089d2,2023_11_30,41.817,-69.935,Cape Cod,1,0,0.24454545454545454,9,9,"NIGHT_CLEAR,NIGHT_CLEAR,NIGHT_CLEAR,NIGHT_CLEAR,NIGHT_CLEAR,CLEAR,CLEAR,CLEAR,CLEAR,CLEAR,CLEAR","Offshore,Offshore,Offshore,Offshore,Offshore,Offshore,Offshore,Offshore,Offshore,Offshore,Offshore",11
5842041f4e65fad6a77089d3,2023_11_30,42.22055448975661,-70.70634873403819,Egypt Beach,1,0,0.2918181818181818,10,10,"NIGHT_CLEAR,NIGHT_CLEAR,NIGHT_CLEAR,NIGHT_CLEAR,NIGHT_CLEAR,NIGHT_CLEAR,CLEAR,CLEAR,CLEAR,CLEAR,CLEAR","Offshore,Offshore,Offshore,Offshore,Offshore,Offshore,Offshore,Offshore,Offshore,Offshore,Offshore",11
5842041f4e65fad6a77089d4,2023_11_30,41.48739647744607,-71.25723,Second Beach,1,0.14728795454545454,0.3732975,11,9,"NIGHT_CLEAR,NIGHT_CLEAR,NIGHT_CLEAR,NIGHT_CLEAR,NIGHT_CLEAR,NIGHT_CLEAR,CLEAR,CLEAR,CLEAR,CLEAR,CLEAR","Cross-shore,Cross-shore,Cross-shore,Cross-shore,Onshore,Cross-shore,Cross-shore,Cross-shore,Onshore,Onshore,Onshore",11
5842041f4e65fad6a77089d5,2023_11_30,42.964,-70.769,Fox Hill,0.5909090909090909,0.0027272727272727275,0.29801212121212123,9,8,"NIGHT_CLEAR,NIGHT_CLEAR,NIGHT_CLEAR,NIGHT_CLEAR,NIGHT_CLEAR,NIGHT_CLEAR,CLEAR,CLEAR,CLEAR,CLEAR,CLEAR","Cross-shore,Cross-shore,Cross-shore,Cross-shore,Offshore,Cross-shore,Cross-shore,Cross-shore,Cross-shore,Cross-shore,Cross-shore",11
5842041f4e65fad6a77089d6,2023_11_30,42.991359,-70.75149,Straws Point,0.5909090909090909,0,0.2866484848484849,9,8,"NIGHT_CLEAR,NIGHT_CLEAR,NIGHT_CLEAR,NIGHT_CLEAR,NIGHT_CLEAR,NIGHT_CLEAR,CLEAR,CLEAR,CLEAR,CLEAR,CLEAR","Cross-shore,Cross-shore,Cross-shore,Cross-shore,Cross-shore,Cross-shore,Cross-shore,Cross-shore,Cross-shore,Cross-shore,Cross-shore",11
5842041f4e65fad6a77089d7,2023_11_30,42.946,-70.786,Plaice Cove,0.5909090909090909,0.0027272727272727275,0.29801212121212123,9,8,"NIGHT_CLEAR,NIGHT_CLEAR,NIGHT_CLEAR,NIGHT_CLEAR,NIGHT_CLEAR,NIGHT_CLEAR,CLEAR,CLEAR,CLEAR,CLEAR,CLEAR","Offshore,Offshore,Offshore,Offshore,Offshore,Offshore,Offshore,Offshore,Offshore,Offshore,Offshore",11
5842041f4e65fad6a77089d9,2023_11_30,42.911574,-70.80831,The Main Beach,0,-0.003989363636363644,0.1634862272727273,10,8,"NIGHT_CLEAR,NIGHT_CLEAR,NIGHT_CLEAR,NIGHT_CLEAR,NIGHT_CLEAR,NIGHT_CLEAR,CLEAR,CLEAR,CLEAR,CLEAR,CLEAR","Cross-shore,Cross-shore,Cross-shore,Cross-shore,Cross-shore,Cross-shore,Cross-shore,Cross-shore,Cross-shore,Cross-shore,Cross-shore",11
5842041f4e65fad6a77089da,2023_11_30,42.97583846220203,-70.764,Sawyer's Beach,0.5909090909090909,0,0.2592242424242424,9,8,"NIGHT_CLEAR,NIGHT_CLEAR,NIGHT_CLEAR,NIGHT_CLEAR,NIGHT_CLEAR,NIGHT_CLEAR,CLEAR,CLEAR,CLEAR,CLEAR,CLEAR","Offshore,Offshore,Offshore,Offshore,Offshore,Offshore,Offshore,Offshore,Offshore,Offshore,Offshore",11
5842041f4e65fad6a77089db,2023_11_30,42.97,-70.77,Rye on the Rocks / 5-0's,0,-0.00794318181818182,0.16706681818181818,10,8,"NIGHT_CLEAR,NIGHT_CLEAR,NIGHT_CLEAR,NIGHT_CLEAR,NIGHT_CLEAR,NIGHT_CLEAR,CLEAR,CLEAR,CLEAR,CLEAR,CLEAR","Cross-shore,Cross-shore,Cross-shore,Cross-shore,Cross-shore,Cross-shore,Cross-shore,Cross-shore,Cross-shore,Cross-shore,Cross-shore",11
5842041f4e65fad6a77089dc,2023_11_30,43.55902946610303,-70.27795,Higgins Beach,0,0,0.22140909090909092,9,8,"NIGHT_CLEAR,NIGHT_CLEAR,NIGHT_CLEAR,NIGHT_CLEAR,NIGHT_CLEAR,NIGHT_CLEAR,CLEAR,CLEAR,CLEAR,CLEAR,CLEAR","Cross-shore,Cross-shore,Cross-shore,Cross-shore,Cross-shore,Cross-shore,Cross-shore,Cross-shore,Cross-shore,Cross-shore,Cross-shore",11
5842041f4e65fad6a77089dd,2023_11_30,43.302676,-70.5652,Wells Beach,0.5454545454545454,0.02,0.31975454545454546,9,8,"NIGHT_CLEAR,NIGHT_CLEAR,NIGHT_CLEAR,NIGHT_CLEAR,NIGHT_CLEAR,NIGHT_CLEAR,CLEAR,CLEAR,CLEAR,CLEAR,CLEAR","Offshore,Offshore,Offshore,Offshore,Offshore,Offshore,Offshore,Offshore,Offshore,Offshore,Offshore",11
5842041f4e65fad6a77089de,2023_11_30,43.545359,-70.30479,Scarborough Beach State Park,0.5454545454545454,0.14555848484848485,0.37059787878787875,9,8,"NIGHT_CLEAR,NIGHT_CLEAR,NIGHT_CLEAR,NIGHT_CLEAR,NIGHT_CLEAR,NIGHT_CLEAR,CLEAR,CLEAR,CLEAR,CLEAR,CLEAR","Cross-shore,Cross-shore,Cross-shore,Cross-shore,Cross-shore,Cross-shore,Cross-shore,Cross-shore,Cross-shore,Cross-shore,Cross-shore",11
5842041f4e65fad6a77089df,2023_11_30,43.514481,-70.372146,Old Orchard Beach,0,-0.002272727272727273,0.16662727272727273,9,8,"NIGHT_CLEAR,NIGHT_CLEAR,NIGHT_CLEAR,NIGHT_CLEAR,NIGHT_CLEAR,NIGHT_CLEAR,CLEAR,CLEAR,CLEAR,CLEAR,CLEAR","Cross-shore,Cross-shore,Cross-shore,Cross-shore,Cross-shore,Cross-shore,Cross-shore,Cross-shore,Cross-shore,Cross-shore,Cross-shore",11
5842041f4e65fad6a77089e0,2023_11_30,43.34711,-70.48165,Gooch's Beach,0.36363636363636365,0,0.22332424242424243,9,8,"NIGHT_CLEAR,NIGHT_CLEAR,NIGHT_CLEAR,NIGHT_CLEAR,NIGHT_CLEAR,NIGHT_CLEAR,CLEAR,CLEAR,CLEAR,CLEAR,CLEAR","Onshore,Onshore,Onshore,Onshore,Onshore,Onshore,Onshore,Onshore,Onshore,Onshore,Onshore",11
5842041f4e65fad6a77089e2,2023_11_30,40.58433,-73.62953,Lido Beach,1,0.23062727272727274,0.5339727272727273,11,8,"NIGHT_CLEAR,NIGHT_CLEAR,NIGHT_CLEAR,NIGHT_CLEAR,NIGHT_CLEAR,NIGHT_CLEAR,CLEAR,CLEAR,CLEAR,CLEAR,CLEAR","Offshore,Offshore,Offshore,Offshore,Offshore,Offshore,Offshore,Offshore,Offshore,Offshore,Cross-shore",11
5842041f4e65fad6a77089e3,2023_11_30,43.163135,-70.61689,Long Sands Beach,0,-1.1727272727272597e-4,0.16953681818181818,9,8,"NIGHT_CLEAR,NIGHT_CLEAR,NIGHT_CLEAR,NIGHT_CLEAR,NIGHT_CLEAR,NIGHT_CLEAR,CLEAR,CLEAR,CLEAR,CLEAR,CLEAR","Cross-shore,Cross-shore,Cross-shore,Cross-shore,Cross-shore,Cross-shore,Cross-shore,Cross-shore,Cross-shore,Cross-shore,Cross-shore",11
5842041f4e65fad6a77089e4,2023_11_30,40.61695351251805,-73.39376,Gilgo Beach,0.5154545454545455,0.1640151515151515,0.4678787878787879,11,8,"NIGHT_CLEAR,NIGHT_CLEAR,NIGHT_CLEAR,NIGHT_CLEAR,NIGHT_CLEAR,NIGHT_CLEAR,CLEAR,CLEAR,CLEAR,CLEAR,CLEAR","Cross-shore,Cross-shore,Cross-shore,Cross-shore,Cross-shore,Cross-shore,Cross-shore,Cross-shore,Cross-shore,Cross-shore,Cross-shore",11
5842041f4e65fad6a77089e5,2023_11_30,40.62530081928036,-73.23827,Robert Moses,0.5454545454545454,0.19272727272727272,0.4963636363636364,12,12,"NIGHT_CLEAR,NIGHT_CLEAR,NIGHT_CLEAR,NIGHT_CLEAR,NIGHT_CLEAR,NIGHT_CLEAR,CLEAR,CLEAR,CLEAR,CLEAR,CLEAR","Cross-shore,Cross-shore,Cross-shore,Cross-shore,Cross-shore,Cross-shore,Cross-shore,Cross-shore,Cross-shore,Cross-shore,Cross-shore",11
5842041f4e65fad6a77089e6,2023_11_30,40.64313317632791,-73.15727,Fire Island,0.8181818181818182,0.17909090909090908,0.48545454545454547,12,12,"NIGHT_CLEAR,NIGHT_CLEAR,NIGHT_CLEAR,NIGHT_CLEAR,NIGHT_CLEAR,NIGHT_CLEAR,CLEAR,CLEAR,CLEAR,CLEAR,CLEAR","Cross-shore,Cross-shore,Cross-shore,Cross-shore,Cross-shore,Cross-shore,Cross-shore,Cross-shore,Cross-shore,Cross-shore,Cross-shore",11
5842041f4e65fad6a77089e8,2023_11_30,40.76653118828782,-72.74579619372713,Cupsogue,1,0.2909090909090909,0.5954545454545455,12,12,"NIGHT_CLEAR,NIGHT_CLEAR,NIGHT_CLEAR,NIGHT_CLEAR,NIGHT_CLEAR,NIGHT_CLEAR,CLEAR,CLEAR,CLEAR,CLEAR,CLEAR","Cross-shore,Cross-shore,Cross-shore,Cross-shore,Cross-shore,Cross-shore,Cross-shore,Cross-shore,Cross-shore,Cross-shore,Cross-shore",11
5842041f4e65fad6a77089e9,2023_11_30,42.9376373334092,-70.79141,The Wall ,0,-0.0016633181818181762,0.1671168181818182,10,8,"NIGHT_CLEAR,NIGHT_CLEAR,NIGHT_CLEAR,NIGHT_CLEAR,NIGHT_CLEAR,NIGHT_CLEAR,CLEAR,CLEAR,CLEAR,CLEAR,CLEAR","Offshore,Offshore,Offshore,Offshore,Offshore,Offshore,Offshore,Offshore,Offshore,Offshore,Offshore",11
5842041f4e65fad6a77089ea,2023_11_30,40.887088,-72.338558,Flys,1,0.23204545454545455,0.5380303030303031,16,14,"NIGHT_CLEAR,NIGHT_CLEAR,NIGHT_CLEAR,NIGHT_CLEAR,NIGHT_CLEAR,NIGHT_CLEAR,CLEAR,CLEAR,CLEAR,CLEAR,CLEAR","Cross-shore,Cross-shore,Cross-shore,Cross-shore,Cross-shore,Cross-shore,Cross-shore,Cross-shore,Cross-shore,Cross-shore,Onshore",11
5842041f4e65fad6a77089eb,2023_11_30,41.0389266436591,-71.91068529316958,Trailer Park,0.7572727272727273,0.3048,0.6026275,11,8,"NIGHT_CLEAR,NIGHT_CLEAR,NIGHT_CLEAR,NIGHT_CLEAR,NIGHT_CLEAR,NIGHT_CLEAR,CLEAR,CLEAR,CLEAR,CLEAR,CLEAR","Cross-shore,Cross-shore,Cross-shore,Cross-shore,Cross-shore,Cross-shore,Cross-shore,Cross-shore,Cross-shore,Cross-shore,Cross-shore",11
5842041f4e65fad6a77089ec,2023_11_30,41.039505402729105,-71.9142,Ditch Plains,1,0.18120636363636364,0.2831354545454545,11,11,"NIGHT_CLEAR,NIGHT_CLEAR,NIGHT_CLEAR,NIGHT_CLEAR,NIGHT_CLEAR,NIGHT_CLEAR,CLEAR,CLEAR,CLEAR,CLEAR,CLEAR","Cross-shore,Cross-shore,Cross-shore,Cross-shore,Cross-shore,Cross-shore,Cross-shore,Cross-shore,Cross-shore,Cross-shore,Cross-shore",11
5842041f4e65fad6a77089ee,2023_11_30,40.57633275206492,-73.56895305108567,"West End, Jones Beach",0.5454545454545454,0.17386363636363636,0.4768181818181818,11,8,"NIGHT_CLEAR,NIGHT_CLEAR,NIGHT_CLEAR,NIGHT_CLEAR,NIGHT_CLEAR,NIGHT_CLEAR,CLEAR,CLEAR,CLEAR,CLEAR,CLEAR","Onshore,Onshore,Onshore,Onshore,Onshore,Onshore,Onshore,Onshore,Onshore,Onshore,Onshore",11
5842041f4e65fad6a77089f1,2023_11_30,41.038286691230795,-71.91991567611694,Poles,0.7572727272727273,0.3048,0.6093704545454546,11,8,"NIGHT_CLEAR,NIGHT_CLEAR,NIGHT_CLEAR,NIGHT_CLEAR,NIGHT_CLEAR,NIGHT_CLEAR,CLEAR,CLEAR,CLEAR,CLEAR,CLEAR","Cross-shore,Cross-shore,Cross-shore,Cross-shore,Cross-shore,Cross-shore,Cross-shore,Cross-shore,Cross-shore,Cross-shore,Cross-shore",11
5842041f4e65fad6a77089f3,2023_11_30,40.84077769766295,-72.47989493724765,The Bowl,1,0.2736363636363636,0.5772727272727273,11,11,"NIGHT_CLEAR,NIGHT_CLEAR,NIGHT_CLEAR,NIGHT_CLEAR,NIGHT_CLEAR,NIGHT_CLEAR,CLEAR,CLEAR,CLEAR,CLEAR,CLEAR","Cross-shore,Cross-shore,Cross-shore,Cross-shore,Cross-shore,Cross-shore,Cross-shore,Cross-shore,Cross-shore,Cross-shore,Onshore",11
5842041f4e65fad6a77089f4,2023_11_30,40.94235535243154,-72.19286,Main Beach,1,0.26106060606060605,0.5658333333333334,16,14,"NIGHT_CLEAR,NIGHT_CLEAR,NIGHT_CLEAR,NIGHT_CLEAR,NIGHT_CLEAR,NIGHT_CLEAR,CLEAR,CLEAR,CLEAR,CLEAR,CLEAR","Cross-shore,Cross-shore,Cross-shore,Onshore,Onshore,Onshore,Cross-shore,Cross-shore,Onshore,Onshore,Onshore",11
5842041f4e65fad6a77089f5,2023_11_30,40.58270702399518,-73.67251552079799,Laurelton Blvd.,0.43,0.011064545454545454,0.31507236363636365,11,8,"NIGHT_CLEAR,NIGHT_CLEAR,NIGHT_CLEAR,NIGHT_CLEAR,NIGHT_CLEAR,NIGHT_CLEAR,CLEAR,CLEAR,CLEAR,CLEAR,CLEAR","Offshore,Offshore,Offshore,Offshore,Offshore,Cross-shore,Offshore,Offshore,Offshore,Offshore,Cross-shore",11
5842041f4e65fad6a77089f6,2023_11_30,41.033752854071416,-71.93695522488403,Terrace,0.7572727272727273,0.3179818181818182,0.6224181818181819,11,8,"NIGHT_CLEAR,NIGHT_CLEAR,NIGHT_CLEAR,NIGHT_CLEAR,NIGHT_CLEAR,NIGHT_CLEAR,CLEAR,CLEAR,CLEAR,CLEAR,CLEAR","Cross-shore,Cross-shore,Cross-shore,Cross-shore,Cross-shore,Cross-shore,Cross-shore,Cross-shore,Cross-shore,Cross-shore,Cross-shore",11
5842041f4e65fad6a77089f7,2023_11_30,40.83372943645748,-72.50426173210144,K Road,1,0.36454545454545456,0.6681818181818182,11,11,"NIGHT_CLEAR,NIGHT_CLEAR,NIGHT_CLEAR,NIGHT_CLEAR,NIGHT_CLEAR,NIGHT_CLEAR,CLEAR,CLEAR,CLEAR,CLEAR,CLEAR","Cross-shore,Cross-shore,Cross-shore,Cross-shore,Cross-shore,Cross-shore,Cross-shore,Cross-shore,Cross-shore,Cross-shore,Cross-shore",11
5842041f4e65fad6a77089f8,2023_11_30,40.58456099581507,-73.80730032920837,84th Street,0,0.03463636363636364,0.3349818181818182,11,8,"NIGHT_CLEAR,NIGHT_CLEAR,NIGHT_CLEAR,NIGHT_CLEAR,NIGHT_CLEAR,NIGHT_CLEAR,CLEAR,CLEAR,CLEAR,CLEAR,CLEAR","Cross-shore,Cross-shore,Cross-shore,Cross-shore,Cross-shore,Cross-shore,Cross-shore,Cross-shore,Cross-shore,Cross-shore,Onshore",11
5842041f4e65fad6a77089fa,2023_11_30,40.1319,-74.02788,Sea Girt,0.6818181818181818,0,0.2456060606060606,11,8,"NIGHT_CLEAR,NIGHT_CLEAR,NIGHT_CLEAR,NIGHT_CLEAR,NIGHT_CLEAR,NIGHT_CLEAR,CLEAR,CLEAR,CLEAR,CLEAR,CLEAR","Offshore,Offshore,Offshore,Offshore,Offshore,Offshore,Offshore,Offshore,Offshore,Offshore,Offshore",11
5842041f4e65fad6a77089fb,2023_11_30,40.54698301868125,-73.9268,Breezy Point,0.18181818181818182,9.090909090909091e-4,0.2781818181818182,11,11,"NIGHT_CLEAR,NIGHT_CLEAR,NIGHT_CLEAR,NIGHT_CLEAR,NIGHT_CLEAR,NIGHT_CLEAR,CLEAR,CLEAR,CLEAR,CLEAR,CLEAR","Onshore,Onshore,Cross-shore,Cross-shore,Cross-shore,Cross-shore,Cross-shore,Cross-shore,Cross-shore,Cross-shore,Onshore",11
5842041f4e65fad6a77089fc,2023_11_30,40.152504,-74.021383,Spring Lake,0.6818181818181818,0,0.26401515151515154,11,8,"NIGHT_CLEAR,NIGHT_CLEAR,NIGHT_CLEAR,NIGHT_CLEAR,NIGHT_CLEAR,NIGHT_CLEAR,CLEAR,CLEAR,CLEAR,CLEAR,CLEAR","Offshore,Offshore,Offshore,Offshore,Offshore,Offshore,Offshore,Offshore,Offshore,Offshore,Offshore",11
5842041f4e65fad6a77089fd,2023_11_30,40.591277,-73.770792,30th - 39th Streets,0.45454545454545453,0.00909090909090909,0.2996969696969697,11,8,"NIGHT_CLEAR,NIGHT_CLEAR,NIGHT_CLEAR,NIGHT_CLEAR,NIGHT_CLEAR,NIGHT_CLEAR,CLEAR,CLEAR,CLEAR,CLEAR,CLEAR","Onshore,Onshore,Cross-shore,Cross-shore,Cross-shore,Cross-shore,Cross-shore,Cross-shore,Cross-shore,Cross-shore,Onshore",11
5842041f4e65fad6a77089fe,2023_11_30,40.18834955871439,-74.00860982500222,Avon,0.6818181818181818,0,0.26606060606060605,11,8,"NIGHT_CLEAR,NIGHT_CLEAR,NIGHT_CLEAR,NIGHT_CLEAR,NIGHT_CLEAR,NIGHT_CLEAR,CLEAR,CLEAR,CLEAR,CLEAR,CLEAR","Offshore,Offshore,Offshore,Offshore,Offshore,Offshore,Offshore,Offshore,Offshore,Offshore,Offshore",11
5842041f4e65fad6a77089ff,2023_11_30,40.1974229100932,-74.00650533798255,Bradley Beach,0.6818181818181818,0,0.260530303030303,11,8,"NIGHT_CLEAR,NIGHT_CLEAR,NIGHT_CLEAR,NIGHT_CLEAR,NIGHT_CLEAR,NIGHT_CLEAR,CLEAR,CLEAR,CLEAR,CLEAR,CLEAR","Offshore,Offshore,Offshore,Offshore,Offshore,Offshore,Offshore,Offshore,Offshore,Offshore,Offshore",11
5842041f4e65fad6a7708a01,2023_11_30,40.17202,-74.01503,"16th Ave., Belmar",0.16363636363636364,-0.0027272727272727275,0.24760000000000001,11,8,"NIGHT_CLEAR,NIGHT_CLEAR,NIGHT_CLEAR,NIGHT_CLEAR,NIGHT_CLEAR,NIGHT_CLEAR,CLEAR,CLEAR,CLEAR,CLEAR,CLEAR","Offshore,Offshore,Offshore,Offshore,Offshore,Offshore,Offshore,Offshore,Offshore,Offshore,Offshore",11
5842041f4e65fad6a7708a02,2023_11_30,40.217443,-73.99982,Asbury Park,0.6818181818181818,0,0.2578030303030303,11,8,"NIGHT_CLEAR,NIGHT_CLEAR,NIGHT_CLEAR,NIGHT_CLEAR,NIGHT_CLEAR,NIGHT_CLEAR,CLEAR,CLEAR,CLEAR,CLEAR,CLEAR","Offshore,Offshore,Offshore,Offshore,Offshore,Offshore,Offshore,Offshore,Offshore,Offshore,Offshore",11
5842041f4e65fad6a7708a03,2023_11_30,40.229841,-73.996782,Loch Arbour and Deal,0.6818181818181818,0,0.2506818181818182,11,8,"NIGHT_CLEAR,NIGHT_CLEAR,NIGHT_CLEAR,NIGHT_CLEAR,NIGHT_CLEAR,NIGHT_CLEAR,CLEAR,CLEAR,CLEAR,CLEAR,CLEAR","Offshore,Offshore,Offshore,Offshore,Offshore,Offshore,Offshore,Offshore,Offshore,Offshore,Offshore",11
5842041f4e65fad6a7708a05,2023_11_30,40.41754,-73.97935,Sandy Hook,0,0,0.06363636363636364,10,10,"NIGHT_CLEAR,NIGHT_CLEAR,NIGHT_CLEAR,NIGHT_CLEAR,NIGHT_CLEAR,NIGHT_CLEAR,CLEAR,CLEAR,CLEAR,CLEAR,CLEAR","Offshore,Offshore,Offshore,Offshore,Offshore,Offshore,Offshore,Offshore,Offshore,Offshore,Offshore",11
5842041f4e65fad6a7708a06,2023_11_30,39.36353,-74.40873,Crystals,0.30272727272727273,0.11890696969696969,0.30124689393939397,11,8,"NIGHT_CLEAR,NIGHT_CLEAR,NIGHT_CLEAR,NIGHT_CLEAR,NIGHT_CLEAR,NIGHT_CLEAR,CLEAR,CLEAR,CLEAR,CLEAR,CLEAR","Cross-shore,Cross-shore,Cross-shore,Cross-shore,Cross-shore,Cross-shore,Cross-shore,Cross-shore,Cross-shore,Offshore,Cross-shore",11
5842041f4e65fad6a7708a07,2023_11_30,39.31443,-74.51863,32nd Street,0,-0.003433590909090915,0.24055186363636366,11,8,"NIGHT_CLEAR,NIGHT_CLEAR,NIGHT_CLEAR,NIGHT_CLEAR,NIGHT_CLEAR,NIGHT_CLEAR,CLEAR,CLEAR,CLEAR,CLEAR,CLEAR","Cross-shore,Cross-shore,Cross-shore,Cross-shore,Offshore,Offshore,Cross-shore,Cross-shore,Cross-shore,Offshore,Cross-shore",11
5842041f4e65fad6a7708a08,2023_11_30,39.327688,-74.49524,Margate Pier Northside,0,-0.003433590909090915,0.24055186363636366,11,8,"NIGHT_CLEAR,NIGHT_CLEAR,NIGHT_CLEAR,NIGHT_CLEAR,NIGHT_CLEAR,NIGHT_CLEAR,CLEAR,CLEAR,CLEAR,CLEAR,CLEAR","Cross-shore,Cross-shore,Cross-shore,Cross-shore,Offshore,Offshore,Cross-shore,Cross-shore,Cross-shore,Offshore,Cross-shore",11
5842041f4e65fad6a7708a09,2023_11_30,39.336276,-74.47782,Ventnor Pier,0.6663636363636364,0.1375002272727273,0.3303015151515152,11,8,"NIGHT_CLEAR,NIGHT_CLEAR,NIGHT_CLEAR,NIGHT_CLEAR,NIGHT_CLEAR,NIGHT_CLEAR,CLEAR,CLEAR,CLEAR,CLEAR,CLEAR","Cross-shore,Cross-shore,Cross-shore,Cross-shore,Cross-shore,Cross-shore,Cross-shore,Cross-shore,Cross-shore,Offshore,Cross-shore",11
5842041f4e65fad6a7708a0a,2023_11_30,39.35929751441085,-74.41683,States Avenue,0.5909090909090909,0.11890696969696969,0.30124689393939397,11,8,"NIGHT_CLEAR,NIGHT_CLEAR,NIGHT_CLEAR,NIGHT_CLEAR,NIGHT_CLEAR,NIGHT_CLEAR,CLEAR,CLEAR,CLEAR,CLEAR,CLEAR","Cross-shore,Cross-shore,Cross-shore,Cross-shore,Cross-shore,Offshore,Cross-shore,Cross-shore,Cross-shore,Offshore,Cross-shore",11
5842041f4e65fad6a7708a0b,2023_11_30,39.37274173278517,-74.40454,Brigantine Jetty,0.6663636363636364,0.17735174242424243,0.39256318181818184,11,8,"NIGHT_CLEAR,NIGHT_CLEAR,NIGHT_CLEAR,NIGHT_CLEAR,NIGHT_CLEAR,NIGHT_CLEAR,CLEAR,CLEAR,CLEAR,CLEAR,CLEAR","Cross-shore,Cross-shore,Cross-shore,Cross-shore,Cross-shore,Cross-shore,Cross-shore,Cross-shore,Cross-shore,Cross-shore,Cross-shore",11
5842041f4e65fad6a7708a0c,2023_11_30,39.356505,-74.42263,South Carolina Avenue,0.6663636363636364,0.17735174242424243,0.39256318181818184,11,8,"NIGHT_CLEAR,NIGHT_CLEAR,NIGHT_CLEAR,NIGHT_CLEAR,NIGHT_CLEAR,NIGHT_CLEAR,CLEAR,CLEAR,CLEAR,CLEAR,CLEAR","Cross-shore,Cross-shore,Cross-shore,Cross-shore,Cross-shore,Cross-shore,Cross-shore,Cross-shore,Cross-shore,Cross-shore,Cross-shore",11
5842041f4e65fad6a7708a0d,2023_11_30,39.413485,-74.35476,14th Street North,0.13636363636363635,0,0.24522727272727274,11,8,"NIGHT_CLEAR,NIGHT_CLEAR,NIGHT_CLEAR,NIGHT_CLEAR,NIGHT_CLEAR,NIGHT_CLEAR,CLEAR,CLEAR,CLEAR,CLEAR,CLEAR","Cross-shore,Cross-shore,Offshore,Offshore,Offshore,Offshore,Offshore,Offshore,Offshore,Offshore,Cross-shore",11
5842041f4e65fad6a7708a0e,2023_11_30,39.531319,-74.263252,The Wooden Jetty,0,0,0.1831523181818182,11,8,"NIGHT_CLEAR,NIGHT_CLEAR,NIGHT_CLEAR,NIGHT_CLEAR,NIGHT_CLEAR,NIGHT_CLEAR,CLEAR,CLEAR,CLEAR,CLEAR,CLEAR","Cross-shore,Cross-shore,Cross-shore,Cross-shore,Cross-shore,Cross-shore,Cross-shore,Cross-shore,Cross-shore,Offshore,Cross-shore",11
5842041f4e65fad6a7708a0f,2023_11_30,39.552472,-74.24344,Holyoke,0,-0.003888409090909095,0.17403363636363636,11,8,"NIGHT_CLEAR,NIGHT_CLEAR,NIGHT_CLEAR,NIGHT_CLEAR,NIGHT_CLEAR,NIGHT_CLEAR,CLEAR,CLEAR,CLEAR,CLEAR,CLEAR","Cross-shore,Cross-shore,Offshore,Offshore,Offshore,Offshore,Offshore,Offshore,Offshore,Offshore,Cross-shore",11
5842041f4e65fad6a7708a10,2023_11_30,39.692364,-74.14068,Hudson Ave.,0,-0.004545454545454545,0.18338181818181817,11,8,"NIGHT_CLEAR,NIGHT_CLEAR,NIGHT_CLEAR,NIGHT_CLEAR,NIGHT_CLEAR,NIGHT_CLEAR,CLEAR,CLEAR,CLEAR,CLEAR,CLEAR","Cross-shore,Cross-shore,Cross-shore,Cross-shore,Cross-shore,Cross-shore,Cross-shore,Cross-shore,Cross-shore,Cross-shore,Cross-shore",11
