_id,date,lat,lon,name,daily_mean_swell_rating,daily_mean_wave_height_min,daily_mean_wave_height_max,daily_mean_water_temperature_max,daily_mean_water_temperature_min,weather_per_timestamp,wind_per_timestamp,n_samples_per_day
5842041f4e65fad6a77087f9,2024_05_05,37.741668,-122.51038,South Ocean Beach,1.1923076923076923,1.059425641025641,1.3062564102564103,14,14,"MIST,NIGHT_MOSTLY_CLEAR,NIGHT_MOSTLY_CLOUDY,NIGHT_MOSTLY_CLEAR,NIGHT_BRIEF_SHOWERS,NIGHT_CLEAR,NIGHT_CLEAR,CLEAR,CLEAR,CLEAR,CLEAR,CLEAR,CLEAR","Cross-shore,Onshore,Onshore,Onshore,Onshore,Onshore,Onshore,Onshore,Onshore,Onshore,Onshore,Onshore,Onshore",13
5842041f4e65fad6a7708801,2024_05_05,37.49142,-122.50428,Maverick's,NA,0.8550641025641025,1.0942358974358974,13,13,"MIST,NIGHT_CLEAR,NIGHT_CLEAR,NIGHT_MOSTLY_CLOUDY,NIGHT_MOSTLY_CLOUDY,NIGHT_MOSTLY_CLOUDY,NIGHT_MOSTLY_CLOUDY,CLEAR,CLEAR,CLEAR,CLEAR,CLEAR,CLEAR","Onshore,Cross-shore,Cross-shore,Cross-shore,Cross-shore,Offshore,Offshore,Offshore,Offshore,Offshore,Offshore,Offshore,Offshore",13
5842041f4e65fad6a7708804,2024_05_05,44.997,-124.018,Roads End,1.5384615384615385,1.623076923076923,1.926923076923077,11,11,"LIGHT_RAIN,NIGHT_LIGHT_RAIN,NIGHT_CLOUDY,NIGHT_DRIZZLE,NIGHT_LIGHT_RAIN,NIGHT_CLOUDY,OVERCAST,OVERCAST,MOSTLY_CLOUDY,MOSTLY_CLOUDY,MOSTLY_CLOUDY,LIGHT_RAIN,OVERCAST","Onshore,Onshore,Onshore,Onshore,Onshore,Onshore,Onshore,Onshore,Onshore,Onshore,Onshore,Onshore,Onshore",13
5842041f4e65fad6a7708805,2024_05_05,36.95188851423011,-122.02522,Steamer Lane,2.6153846153846154,0.7123948717948718,1.1026358974358974,14,14,"OVERCAST,NIGHT_CLEAR,NIGHT_CLEAR,NIGHT_CLEAR,NIGHT_CLEAR,NIGHT_CLEAR,NIGHT_CLEAR,MOSTLY_CLEAR,CLEAR,CLEAR,CLEAR,CLEAR,CLEAR","Offshore,Offshore,Offshore,Offshore,Offshore,Offshore,Offshore,Offshore,Cross-shore,Offshore,Offshore,Offshore,Offshore",13
5842041f4e65fad6a7708806,2024_05_05,36.95918781542251,-122.02489,Cowells,1.5,0,0.25693333333333335,14,14,"OVERCAST,NIGHT_CLEAR,NIGHT_CLEAR,NIGHT_CLEAR,NIGHT_CLEAR,NIGHT_CLEAR,NIGHT_CLEAR,MOSTLY_CLEAR,CLEAR,CLEAR,CLEAR,CLEAR,CLEAR","Offshore,Offshore,Offshore,Offshore,Offshore,Offshore,Cross-shore,Cross-shore,Offshore,Offshore,Offshore,Offshore,Offshore",13
5842041f4e65fad6a7708807,2024_05_05,36.95468082526536,-121.97234,Pleasure Point,2.8715384615384614,0.6532384615384615,0.9803333333333333,14,14,"OVERCAST,NIGHT_CLEAR,NIGHT_CLEAR,NIGHT_CLEAR,NIGHT_MOSTLY_CLEAR,NIGHT_CLEAR,NIGHT_CLEAR,MOSTLY_CLEAR,CLEAR,CLEAR,CLEAR,CLEAR,CLEAR","Offshore,Offshore,Offshore,Offshore,Offshore,Offshore,Offshore,Offshore,Offshore,Onshore,Offshore,Offshore,Cross-shore",13
5842041f4e65fad6a770880a,2024_05_05,35.37815414378748,-120.86589,Morro Bay,2.3846153846153846,0.6748846153846154,0.9691461538461539,12,12,"BRIEF_SHOWERS,NIGHT_CLEAR,NIGHT_CLEAR,NIGHT_CLEAR,NIGHT_CLEAR,NIGHT_MIST,NIGHT_CLEAR,CLEAR,CLEAR,CLEAR,CLEAR,CLEAR,CLEAR","Cross-shore,Onshore,Offshore,Offshore,Offshore,Offshore,Offshore,Onshore,Onshore,Onshore,Onshore,Onshore,Onshore",13
5842041f4e65fad6a770880b,2024_05_05,36.95782765000708,-121.96729,Jack's,1.7946153846153847,0.11897435897435897,0.4220615384615385,14,14,"OVERCAST,NIGHT_CLEAR,NIGHT_CLEAR,NIGHT_CLEAR,NIGHT_MOSTLY_CLEAR,NIGHT_CLEAR,NIGHT_CLEAR,MOSTLY_CLEAR,CLEAR,CLEAR,CLEAR,CLEAR,CLEAR","Offshore,Offshore,Offshore,Offshore,Offshore,Offshore,Offshore,Offshore,Offshore,Offshore,Offshore,Offshore,Offshore",13
5842041f4e65fad6a770880d,2024_05_05,34.29982939936656,-119.3489016603669,Gold Coast Beachbreaks,2,0.4707692307692308,0.7761538461538462,15,15,"MOSTLY_CLEAR,NIGHT_BRIEF_SHOWERS,NIGHT_MOSTLY_CLOUDY,NIGHT_MIST,NIGHT_CLEAR,NIGHT_CLEAR,NIGHT_CLEAR,CLEAR,CLEAR,CLEAR,CLEAR,CLEAR,CLEAR","Onshore,Offshore,Offshore,Offshore,Cross-shore,Cross-shore,Cross-shore,Offshore,Onshore,Onshore,Cross-shore,Onshore,Onshore",13
5842041f4e65fad6a7708811,2024_05_05,34.245076,-119.26799,Ventura Harbor,1.1023076923076922,0.8331457051282051,1.1160374358974359,14,14,"MOSTLY_CLEAR,NIGHT_BRIEF_SHOWERS,NIGHT_FOG,NIGHT_MOSTLY_CLOUDY,NIGHT_MOSTLY_CLEAR,NIGHT_CLEAR,NIGHT_CLEAR,CLEAR,CLEAR,CLEAR,CLEAR,CLEAR,CLEAR","Onshore,Onshore,Onshore,Onshore,Onshore,Onshore,Onshore,Onshore,Onshore,Onshore,Onshore,Onshore,Onshore",13
5842041f4e65fad6a7708813,2024_05_05,34.051,-118.964,County Line,1.333076923076923,0.6072025641025641,0.9431205128205128,14,14,"MIST,NIGHT_FOG,NIGHT_OVERCAST,NIGHT_MOSTLY_CLOUDY,NIGHT_MOSTLY_CLEAR,NIGHT_CLEAR,NIGHT_CLEAR,CLEAR,CLEAR,CLEAR,CLEAR,CLEAR,CLEAR","Onshore,Onshore,Onshore,Cross-shore,Onshore,Cross-shore,Cross-shore,Onshore,Onshore,Onshore,Onshore,Onshore,Onshore",13
5842041f4e65fad6a7708814,2024_05_05,34.37256264378892,-119.47797,Rincon,2.230769230769231,0.4492307692307692,0.7553846153846154,15,15,"CLEAR,NIGHT_BRIEF_SHOWERS,NIGHT_MIST,NIGHT_MIST,NIGHT_CLEAR,NIGHT_CLEAR,NIGHT_CLEAR,CLEAR,CLEAR,CLEAR,CLEAR,CLEAR,CLEAR","Cross-shore,Cross-shore,Cross-shore,Cross-shore,Cross-shore,Offshore,Cross-shore,Cross-shore,Offshore,Offshore,Offshore,Offshore,Offshore",13
5842041f4e65fad6a7708817,2024_05_05,34.03096101876324,-118.68109,Malibu Third Point,2.076923076923077,0.44769230769230767,0.7546153846153846,15,15,"MOSTLY_CLOUDY,NIGHT_CLEAR,NIGHT_FOG,NIGHT_BRIEF_SHOWERS,NIGHT_BRIEF_SHOWERS,NIGHT_CLEAR,CLEAR,CLEAR,CLEAR,CLEAR,CLEAR,CLEAR,CLEAR","Cross-shore,Offshore,Cross-shore,Cross-shore,Cross-shore,Offshore,Offshore,Onshore,Cross-shore,Cross-shore,Cross-shore,Cross-shore,Cross-shore",13
5842041f4e65fad6a7708819,2024_05_05,33.984079047970035,-118.47382,Venice Beach,0.73,0.6830179487179487,1.0191051282051282,16,16,"CLEAR,NIGHT_MOSTLY_CLOUDY,NIGHT_OVERCAST,NIGHT_DRIZZLE,NIGHT_LIGHT_RAIN,NIGHT_CLEAR,CLEAR,CLEAR,CLEAR,CLEAR,CLEAR,CLEAR,CLEAR","Cross-shore,Cross-shore,Cross-shore,Cross-shore,Cross-shore,Cross-shore,Cross-shore,Onshore,Cross-shore,Cross-shore,Onshore,Onshore,Onshore",13
5842041f4e65fad6a770881e,2024_05_05,34.037508438646746,-118.5834,Topanga Beach,2.076923076923077,0.3753435897435897,0.6791358974358974,16,16,"MOSTLY_CLOUDY,NIGHT_CLEAR,NIGHT_FOG,NIGHT_BRIEF_SHOWERS,NIGHT_LIGHT_RAIN,NIGHT_CLEAR,CLEAR,CLEAR,CLEAR,CLEAR,CLEAR,CLEAR,CLEAR","Onshore,Onshore,Onshore,Onshore,Onshore,Onshore,Cross-shore,Onshore,Cross-shore,Cross-shore,Onshore,Onshore,Onshore",13
5842041f4e65fad6a7708820,2024_05_05,33.73954373690184,-118.11414,Seal Beach Jetty,1.3846153846153846,0.2746153846153846,0.5823076923076923,16.615384615384617,16.615384615384617,"OVERCAST,NIGHT_FOG,NIGHT_CLOUDY,NIGHT_OVERCAST,NIGHT_LIGHT_RAIN,NIGHT_CLEAR,CLEAR,CLEAR,CLEAR,CLEAR,CLEAR,CLEAR,CLEAR","Onshore,Onshore,Onshore,Onshore,Onshore,Onshore,Onshore,Onshore,Onshore,Onshore,Onshore,Onshore,Onshore",13
5842041f4e65fad6a7708822,2024_05_05,33.72309983348433,-118.08078,Anderson Street,1.1276923076923078,0.5229410256410256,0.8269102564102564,15,15,"OVERCAST,NIGHT_FOG,NIGHT_CLOUDY,NIGHT_OVERCAST,NIGHT_LIGHT_RAIN,NIGHT_CLEAR,CLEAR,CLEAR,CLEAR,CLEAR,CLEAR,CLEAR,CLEAR","Onshore,Onshore,Onshore,Onshore,Onshore,Onshore,Onshore,Onshore,Onshore,Onshore,Onshore,Onshore,Onshore",13
5842041f4e65fad6a7708827,2024_05_05,33.65574085629463,-118.00397,Huntington Beach Pier Northside,1.3846153846153846,0.9443435897435897,1.3494974358974359,16,16,"MOSTLY_CLOUDY,NIGHT_OVERCAST,NIGHT_OVERCAST,NIGHT_MOSTLY_CLOUDY,NIGHT_BRIEF_SHOWERS,NIGHT_CLEAR,CLEAR,CLEAR,CLEAR,CLEAR,CLEAR,CLEAR,CLEAR","Onshore,Onshore,Onshore,Onshore,Onshore,Onshore,Onshore,Onshore,Onshore,Onshore,Onshore,Onshore,Onshore",13
5842041f4e65fad6a7708828,2024_05_05,34.272041739333,-119.29976,C St.,1.7053846153846153,0.42302564102564105,0.7282923076923077,14,14,"MIST,NIGHT_BRIEF_SHOWERS,NIGHT_MIST,NIGHT_MOSTLY_CLOUDY,NIGHT_CLEAR,NIGHT_CLEAR,NIGHT_CLEAR,CLEAR,CLEAR,CLEAR,CLEAR,CLEAR,CLEAR","Cross-shore,Cross-shore,Cross-shore,Cross-shore,Cross-shore,Cross-shore,Cross-shore,Cross-shore,Cross-shore,Cross-shore,Cross-shore,Cross-shore,Cross-shore",13
5842041f4e65fad6a770882a,2024_05_05,33.61555743705257,-117.93676,Newport Lower Jetties,1.5384615384615385,0.5886435897435898,0.9121974358974358,16,16,"MOSTLY_CLOUDY,NIGHT_OVERCAST,NIGHT_OVERCAST,NIGHT_CLEAR,NIGHT_MOSTLY_CLOUDY,NIGHT_MOSTLY_CLOUDY,CLEAR,CLEAR,CLEAR,CLEAR,CLEAR,CLEAR,CLEAR","Onshore,Onshore,Onshore,Onshore,Onshore,Cross-shore,Onshore,Cross-shore,Cross-shore,Cross-shore,Onshore,Onshore,Onshore",13
5842041f4e65fad6a770882b,2024_05_05,33.5930302087,-117.88199,The Wedge,1.3846153846153846,0.504054423076923,0.8699846794871795,16,16,"MOSTLY_CLEAR,NIGHT_OVERCAST,NIGHT_OVERCAST,NIGHT_MOSTLY_CLOUDY,NIGHT_FOG,NIGHT_MOSTLY_CLOUDY,CLEAR,CLEAR,CLEAR,CLEAR,CLEAR,CLEAR,CLEAR","Onshore,Onshore,Onshore,Cross-shore,Onshore,Cross-shore,Onshore,Cross-shore,Cross-shore,Onshore,Onshore,Onshore,Onshore",13
5842041f4e65fad6a770882e,2024_05_05,33.475793399792984,-117.72291,Salt Creek,1.3715384615384616,0.8422461538461539,1.1969564102564103,16,16,"MIST,NIGHT_FOG,NIGHT_OVERCAST,NIGHT_MOSTLY_CLOUDY,NIGHT_CLEAR,NIGHT_MOSTLY_CLOUDY,CLEAR,CLEAR,CLEAR,CLEAR,CLEAR,CLEAR,CLEAR","Onshore,Onshore,Onshore,Onshore,Onshore,Onshore,Onshore,Onshore,Onshore,Onshore,Onshore,Onshore,Onshore",13
5842041f4e65fad6a7708830,2024_05_05,33.41800974113613,-117.61952,T-Street,1.3846153846153846,0.7390410256410257,1.0271820512820513,17,17,"MIST,NIGHT_FOG,NIGHT_OVERCAST,NIGHT_MOSTLY_CLOUDY,NIGHT_MOSTLY_CLOUDY,NIGHT_CLEAR,CLEAR,MOSTLY_CLEAR,CLEAR,CLEAR,CLEAR,CLEAR,CLEAR","Onshore,Onshore,Onshore,Onshore,Onshore,Onshore,Onshore,Onshore,Onshore,Onshore,Onshore,Onshore,Onshore",13
5842041f4e65fad6a7708832,2024_05_05,33.202391008646,-117.39475,Oceanside Harbor,1.0769230769230769,0.6343128205128206,0.9816666666666667,16,16,"MOSTLY_CLEAR,NIGHT_LIGHT_RAIN_AND_FOG,NIGHT_FOG,NIGHT_OVERCAST,NIGHT_MOSTLY_CLOUDY,NIGHT_OVERCAST,MOSTLY_CLOUDY,CLEAR,CLEAR,CLEAR,CLEAR,CLEAR,CLEAR","Onshore,Onshore,Onshore,Onshore,Onshore,Onshore,Onshore,Onshore,Onshore,Onshore,Onshore,Onshore,Onshore",13
5842041f4e65fad6a7708835,2024_05_05,33.19477795952803,-117.38667,Oceanside Pier,1.1538461538461537,0.5426461538461539,0.8715205128205128,16,16,"CLEAR,NIGHT_FOG,NIGHT_FOG,NIGHT_OVERCAST,NIGHT_MOSTLY_CLOUDY,NIGHT_OVERCAST,OVERCAST,CLEAR,CLEAR,CLEAR,CLEAR,CLEAR,CLEAR","Onshore,Onshore,Onshore,Onshore,Onshore,Onshore,Onshore,Onshore,Onshore,Onshore,Onshore,Onshore,Onshore",13
5842041f4e65fad6a7708837,2024_05_05,33.14948100706,-117.35029,Tamarack,1.8461538461538463,0.5330769230769231,0.8361538461538461,17,17,"MOSTLY_CLEAR,NIGHT_FOG,NIGHT_FOG,NIGHT_OVERCAST,NIGHT_MOSTLY_CLOUDY,NIGHT_OVERCAST,LIGHT_RAIN,CLEAR,CLEAR,CLEAR,CLEAR,CLEAR,CLEAR","Onshore,Onshore,Onshore,Onshore,Onshore,Onshore,Onshore,Onshore,Onshore,Onshore,Onshore,Onshore,Onshore",13
5842041f4e65fad6a7708839,2024_05_05,32.865777159358856,-117.25614,Scripps,1.1538461538461537,0.6271820512820513,0.9420897435897436,16,16,"MIST,NIGHT_FOG,NIGHT_FOG,NIGHT_FOG,NIGHT_OVERCAST,NIGHT_LIGHT_RAIN,OVERCAST,CLEAR,CLEAR,CLEAR,CLEAR,CLEAR,MOSTLY_CLEAR","Onshore,Onshore,Onshore,Onshore,Onshore,Cross-shore,Cross-shore,Onshore,Onshore,Onshore,Onshore,Onshore,Onshore",13
5842041f4e65fad6a770883a,2024_05_05,32.813094,-117.27381,Birdrock,2,0.6269230769230769,0.9176923076923077,17,17,"BRIEF_SHOWERS,NIGHT_FOG,NIGHT_FOG,NIGHT_FOG,NIGHT_OVERCAST,NIGHT_FOG,OVERCAST,CLEAR,CLEAR,CLEAR,CLEAR,CLEAR,CLEAR","Onshore,Onshore,Onshore,Onshore,Onshore,Onshore,Onshore,Cross-shore,Cross-shore,Cross-shore,Cross-shore,Cross-shore,Cross-shore",13
5842041f4e65fad6a770883b,2024_05_05,32.877231,-117.25303,Blacks,0.9484615384615385,0.8798820512820513,1.2208333333333334,16,16,"MIST,NIGHT_FOG,NIGHT_FOG,NIGHT_FOG,NIGHT_OVERCAST,NIGHT_LIGHT_RAIN,OVERCAST,CLEAR,CLEAR,CLEAR,CLEAR,CLEAR,MOSTLY_CLEAR","Onshore,Onshore,Onshore,Onshore,Onshore,Onshore,Onshore,Onshore,Onshore,Onshore,Onshore,Onshore,Onshore",13
5842041f4e65fad6a770883c,2024_05_05,32.82978974229765,-117.28162,Windansea,1.2176923076923076,0.7933435897435898,1.0655974358974358,16,16,"MOSTLY_CLOUDY,NIGHT_FOG,NIGHT_FOG,NIGHT_FOG,NIGHT_OVERCAST,NIGHT_FOG,OVERCAST,CLEAR,CLEAR,CLEAR,CLEAR,CLEAR,CLEAR","Onshore,Onshore,Onshore,Onshore,Onshore,Onshore,Onshore,Onshore,Onshore,Onshore,Onshore,Onshore,Onshore",13
5842041f4e65fad6a770883d,2024_05_05,32.838278,-117.28396,Horseshoe,1.4615384615384615,0.8176923076923077,1.0915384615384616,17,17,"MOSTLY_CLOUDY,NIGHT_FOG,NIGHT_FOG,NIGHT_FOG,NIGHT_OVERCAST,NIGHT_FOG,OVERCAST,CLEAR,CLEAR,CLEAR,CLEAR,CLEAR,CLEAR","Onshore,Onshore,Onshore,Onshore,Onshore,Onshore,Onshore,Onshore,Onshore,Onshore,Onshore,Onshore,Onshore",13
5842041f4e65fad6a770883f,2024_05_05,32.75034717673179,-117.25337,Ocean Beach,1.2561538461538462,0.8048307692307692,1.1205717948717948,16,16,"BRIEF_SHOWERS,NIGHT_FOG,NIGHT_FOG,NIGHT_LIGHT_RAIN_AND_FOG,NIGHT_OVERCAST,NIGHT_OVERCAST,OVERCAST,CLEAR,CLEAR,CLEAR,CLEAR,CLEAR,CLEAR","Onshore,Onshore,Onshore,Offshore,Onshore,Onshore,Onshore,Onshore,Onshore,Onshore,Onshore,Onshore,Onshore",13
5842041f4e65fad6a7708840,2024_05_05,32.73693,-117.25718,Sunset Cliffs,1.5384615384615385,0.6007692307692307,0.9046153846153846,17,17,"BRIEF_SHOWERS,NIGHT_FOG,NIGHT_FOG,NIGHT_LIGHT_RAIN_AND_FOG,NIGHT_OVERCAST,NIGHT_OVERCAST,OVERCAST,CLEAR,CLEAR,CLEAR,CLEAR,CLEAR,CLEAR","Onshore,Cross-shore,Onshore,Onshore,Onshore,Cross-shore,Cross-shore,Onshore,Onshore,Onshore,Onshore,Onshore,Onshore",13
5842041f4e65fad6a7708841,2024_05_05,32.796582258728826,-117.25779,Pacific Beach,1.2561538461538462,0.7209,0.9967692307692307,16,16,"BRIEF_SHOWERS,NIGHT_FOG,NIGHT_FOG,NIGHT_FOG,NIGHT_OVERCAST,NIGHT_FOG,OVERCAST,CLEAR,CLEAR,CLEAR,CLEAR,CLEAR,CLEAR","Onshore,Onshore,Onshore,Onshore,Onshore,Onshore,Onshore,Cross-shore,Cross-shore,Cross-shore,Cross-shore,Cross-shore,Cross-shore",13
5842041f4e65fad6a7708842,2024_05_05,32.776636,-117.25514,Mission Beach,1.2561538461538462,0.7112846153846154,0.9972179487179487,16,16,"BRIEF_SHOWERS,NIGHT_FOG,NIGHT_FOG,NIGHT_FOG,NIGHT_OVERCAST,NIGHT_FOG,OVERCAST,CLEAR,CLEAR,CLEAR,CLEAR,CLEAR,CLEAR","Onshore,Onshore,Onshore,Onshore,Onshore,Onshore,Onshore,Onshore,Onshore,Onshore,Onshore,Onshore,Onshore",13
5842041f4e65fad6a7708844,2024_05_05,32.577195519016,-117.13475,Imperial Beach Pier,1.5384615384615385,0.6953846153846154,1,17,17,"MOSTLY_CLOUDY,NIGHT_FOG,NIGHT_FOG,NIGHT_LIGHT_RAIN_AND_FOG,NIGHT_CLOUDY,NIGHT_FOG,LIGHT_RAIN,CLEAR,CLEAR,CLEAR,CLEAR,CLEAR,CLEAR","Onshore,Onshore,Onshore,Onshore,Onshore,Onshore,Onshore,Onshore,Onshore,Onshore,Onshore,Onshore,Onshore",13
5842041f4e65fad6a770884a,2024_05_05,42.88678181061,-70.80843,Seabrook,0.8453846153846154,0.22820608974358975,0.48931089743589745,9,7,"CLEAR,NIGHT_MOSTLY_CLOUDY,NIGHT_MOSTLY_CLOUDY,NIGHT_MOSTLY_CLOUDY,NIGHT_MOSTLY_CLOUDY,MIST,MIST,MIST,CLEAR,DRIZZLE,BRIEF_SHOWERS_POSSIBLE,LIGHT_RAIN,LIGHT_SHOWERS_POSSIBLE","Onshore,Onshore,Onshore,Onshore,Onshore,Onshore,Onshore,Onshore,Onshore,Onshore,Onshore,Onshore,Onshore",13
5842041f4e65fad6a770884e,2024_05_05,41.434181432898335,-71.45312,Narragansett,0,-0.0047692307692307695,0.29756923076923075,10,9,"CLEAR,NIGHT_OVERCAST,NIGHT_OVERCAST,NIGHT_OVERCAST,NIGHT_DRIZZLE,OVERCAST,MIST,CLOUDY,OVERCAST,OVERCAST,OVERCAST,CLOUDY,DRIZZLE","Cross-shore,Cross-shore,Cross-shore,Cross-shore,Cross-shore,Onshore,Onshore,Onshore,Onshore,Onshore,Onshore,Onshore,Onshore",13
5842041f4e65fad6a7708850,2024_05_05,40.582703230722,-73.65247,Lincoln Blvd,0.12307692307692308,6.666666666666659e-4,0.2884646153846154,12,11,"CLEAR,NIGHT_OVERCAST,NIGHT_OVERCAST,NIGHT_CLOUDY,NIGHT_OVERCAST,MIST,MIST,MIST,DRIZZLE,DRIZZLE,DRIZZLE,RAIN,RAIN","Onshore,Onshore,Onshore,Cross-shore,Offshore,Onshore,Onshore,Onshore,Onshore,Onshore,Cross-shore,Onshore,Onshore",13
5842041f4e65fad6a7708852,2024_05_05,40.58342841721757,-73.81182,Rockaways,0.12307692307692308,0.07897641025641026,0.38057128205128204,12,11,"CLOUDY,NIGHT_OVERCAST,NIGHT_CLOUDY,NIGHT_OVERCAST,NIGHT_CLOUDY,OVERCAST,CLOUDY,MIST,OVERCAST,LIGHT_RAIN,DRIZZLE,DRIZZLE,LIGHT_RAIN","Cross-shore,Cross-shore,Cross-shore,Cross-shore,Cross-shore,Cross-shore,Cross-shore,Onshore,Cross-shore,Onshore,Onshore,Onshore,Onshore",13
5842041f4e65fad6a7708853,2024_05_05,40.330474,-73.9734,Monmouth Beach,0.8584615384615385,0.3750923076923077,0.6814256410256411,14,12,"CLEAR,NIGHT_CLOUDY,NIGHT_CLOUDY,NIGHT_CLOUDY,NIGHT_CLOUDY,CLOUDY,OVERCAST,OVERCAST,OVERCAST,OVERCAST,DRIZZLE,DRIZZLE,LIGHT_RAIN","Onshore,Onshore,Onshore,Onshore,Onshore,Onshore,Onshore,Onshore,Onshore,Onshore,Onshore,Onshore,Onshore",13
5842041f4e65fad6a7708856,2024_05_05,40.113,-74.028,Manasquan Inlet,0.6738461538461539,0.29841538461538464,0.5993692307692308,14,12,"MOSTLY_CLOUDY,NIGHT_CLEAR,NIGHT_OVERCAST,NIGHT_CLOUDY,NIGHT_OVERCAST,OVERCAST,OVERCAST,OVERCAST,OVERCAST,OVERCAST,DRIZZLE,OVERCAST,OVERCAST","Onshore,Onshore,Onshore,Onshore,Onshore,Onshore,Onshore,Onshore,Onshore,Onshore,Cross-shore,Onshore,Onshore",13
5842041f4e65fad6a7708857,2024_05_05,39.941519877445664,-74.06829,Casino Pier,0.8923076923076924,0.3749271794871795,0.6798553846153846,14,12,"OVERCAST,NIGHT_OVERCAST,NIGHT_CLOUDY,NIGHT_CLOUDY,NIGHT_CLOUDY,OVERCAST,CLOUDY,MIST,OVERCAST,OVERCAST,LIGHT_RAIN,LIGHT_RAIN,DRIZZLE","Onshore,Onshore,Onshore,Onshore,Onshore,Onshore,Onshore,Onshore,Onshore,Onshore,Onshore,Onshore,Onshore",13
5842041f4e65fad6a7708858,2024_05_05,39.28223089949212,-74.55766,North End OC,0.8923076923076924,0.3092871794871795,0.6156256410256411,14,12,"OVERCAST,NIGHT_CLOUDY,NIGHT_CLOUDY,NIGHT_CLOUDY,NIGHT_OVERCAST,MIST,MIST,MIST,CLOUDY,CLOUDY,CLOUDY,CLEAR,CLOUDY","Onshore,Onshore,Onshore,Onshore,Onshore,Onshore,Onshore,Onshore,Onshore,Onshore,Onshore,Onshore,Onshore",13
5842041f4e65fad6a770885b,2024_05_05,39.65080599934257,-74.17146,Ship Bottom,0.5076923076923077,0.44847076923076923,0.7497579487179488,14,12,"CLEAR,NIGHT_CLOUDY,NIGHT_CLOUDY,NIGHT_CLOUDY,NIGHT_OVERCAST,MIST,MIST,MIST,OVERCAST,OVERCAST,CLOUDY,OVERCAST,OVERCAST","Onshore,Onshore,Onshore,Onshore,Onshore,Onshore,Onshore,Onshore,Onshore,Onshore,Onshore,Onshore,Onshore",13
5842041f4e65fad6a7708863,2024_05_05,36.034151543144,-75.66791,Third Street,2,0.5452948717948718,0.8517564102564102,18,16,"MOSTLY_CLOUDY,NIGHT_OVERCAST,NIGHT_MOSTLY_CLOUDY,NIGHT_MOSTLY_CLOUDY,NIGHT_MOSTLY_CLOUDY,OVERCAST,MOSTLY_CLOUDY,MOSTLY_CLOUDY,OVERCAST,MOSTLY_CLOUDY,MOSTLY_CLOUDY,CLEAR,CLEAR","Cross-shore,Cross-shore,Cross-shore,Onshore,Cross-shore,Cross-shore,Cross-shore,Cross-shore,Cross-shore,Cross-shore,Onshore,Offshore,Offshore",13
5842041f4e65fad6a7708867,2024_05_05,35.605833221351425,-75.46303,S-Turns,1.4538461538461538,0.5305871794871795,0.8365589743589743,16,14,"MIST,NIGHT_MOSTLY_CLOUDY,NIGHT_CLEAR,NIGHT_CLOUDY,NIGHT_CLEAR,MIST,MOSTLY_CLOUDY,CLEAR,OVERCAST,CLEAR,CLEAR,CLEAR,CLEAR","Onshore,Onshore,Onshore,Onshore,Onshore,Onshore,Onshore,Onshore,Onshore,Onshore,Onshore,Onshore,Onshore",13
5842041f4e65fad6a770886d,2024_05_05,38.338461,-75.08117,Ocean City Boardwalk,0.8584615384615385,0.6211128205128206,0.9263487179487179,14,13,"OVERCAST,NIGHT_MIST,NIGHT_MIST,NIGHT_MIST,NIGHT_MIST,MIST,MIST,MOSTLY_CLOUDY,CLEAR,OVERCAST,CLOUDY,MOSTLY_CLOUDY,MOSTLY_CLOUDY","Onshore,Onshore,Onshore,Onshore,Onshore,Onshore,Onshore,Onshore,Cross-shore,Cross-shore,Cross-shore,Cross-shore,Cross-shore",13
5842041f4e65fad6a770886f,2024_05_05,29.844757212379562,-81.26136,A St.,1,0.20307692307692307,0.5092307692307693,24,24,"CLEAR,NIGHT_MOSTLY_CLOUDY,NIGHT_MOSTLY_CLOUDY,NIGHT_CLEAR,NIGHT_MOSTLY_CLOUDY,CLEAR,CLEAR,MOSTLY_CLEAR,CLEAR,CLEAR,MOSTLY_CLEAR,CLEAR,CLEAR","Onshore,Cross-shore,Cross-shore,Cross-shore,Cross-shore,Cross-shore,Cross-shore,Onshore,Onshore,Onshore,Onshore,Onshore,Onshore",13
5842041f4e65fad6a7708871,2024_05_05,29.069417851135093,-80.90824,New Smyrna Beach,1.0769230769230769,0.404774358974359,0.7086410256410256,25,24,"CLEAR,NIGHT_MOSTLY_CLOUDY,NIGHT_CLOUDY,NIGHT_CLEAR,NIGHT_MOSTLY_CLOUDY,MOSTLY_CLOUDY,MOSTLY_CLOUDY,CLEAR,CLEAR,CLEAR,CLEAR,CLEAR,CLEAR","Onshore,Cross-shore,Cross-shore,Cross-shore,Cross-shore,Cross-shore,Cross-shore,Onshore,Onshore,Onshore,Onshore,Onshore,Onshore",13
5842041f4e65fad6a7708872,2024_05_05,28.367707417566,-80.60171,Cocoa Beach Pier,1,0.1771897435897436,0.47964615384615383,26,24,"MOSTLY_CLOUDY,NIGHT_CLEAR,NIGHT_OVERCAST,NIGHT_MOSTLY_CLOUDY,NIGHT_CLEAR,MOSTLY_CLOUDY,MOSTLY_CLEAR,CLEAR,CLEAR,CLEAR,CLEAR,CLEAR,CLEAR","Onshore,Onshore,Onshore,Onshore,Onshore,Onshore,Onshore,Onshore,Onshore,Onshore,Onshore,Onshore,Onshore",13
5842041f4e65fad6a7708873,2024_05_05,28.091782738658846,-80.56479,Indialantic,0.833076923076923,0.0767948717948718,0.3827128205128205,26,24,"CLEAR,NIGHT_CLEAR,NIGHT_CLEAR,NIGHT_MOSTLY_CLOUDY,NIGHT_MOSTLY_CLOUDY,MOSTLY_CLEAR,MOSTLY_CLOUDY,CLEAR,CLEAR,CLEAR,CLEAR,CLEAR,CLEAR","Onshore,Onshore,Onshore,Onshore,Onshore,Onshore,Onshore,Onshore,Onshore,Onshore,Onshore,Onshore,Onshore",13
5842041f4e65fad6a7708876,2024_05_05,27.25392904143517,-80.19455,Jensen Beach,0.833076923076923,0.08166666666666667,0.3859179487179487,26,25,"CLEAR,NIGHT_CLEAR,NIGHT_MOSTLY_CLOUDY,NIGHT_SHOWERS,NIGHT_MOSTLY_CLOUDY,MOSTLY_CLOUDY,MOSTLY_CLOUDY,MOSTLY_CLOUDY,MOSTLY_CLEAR,MOSTLY_CLEAR,CLEAR,CLEAR,CLEAR","Onshore,Onshore,Onshore,Cross-shore,Onshore,Onshore,Cross-shore,Onshore,Onshore,Onshore,Onshore,Onshore,Cross-shore",13
5842041f4e65fad6a7708879,2024_05_05,26.76346795333825,-80.03607,Reef Road,0.49230769230769234,0.0992348717948718,0.40424000000000004,27,26,"CLEAR,NIGHT_CLEAR,NIGHT_MOSTLY_CLOUDY,NIGHT_CLEAR,NIGHT_MOSTLY_CLOUDY,MOSTLY_CLOUDY,MOSTLY_CLOUDY,MOSTLY_CLOUDY,MOSTLY_CLOUDY,CLEAR,CLEAR,CLEAR,MOSTLY_CLOUDY","Onshore,Onshore,Onshore,Onshore,Onshore,Onshore,Onshore,Onshore,Onshore,Onshore,Onshore,Onshore,Onshore",13
5842041f4e65fad6a770887c,2024_05_05,26.336499228484,-80.06956100463,Boca Raton Inlet,0.7176923076923077,0.11794871794871796,0.4230974358974359,27,26,"CLEAR,NIGHT_CLEAR,NIGHT_OVERCAST,NIGHT_BRIEF_SHOWERS,NIGHT_MOSTLY_CLOUDY,CLEAR,BRIEF_SHOWERS,MOSTLY_CLOUDY,CLEAR,MOSTLY_CLOUDY,CLEAR,MOSTLY_CLOUDY,MOSTLY_CLOUDY","Onshore,Onshore,Onshore,Onshore,Onshore,Onshore,Onshore,Onshore,Onshore,Onshore,Onshore,Onshore,Onshore",13
5842041f4e65fad6a770887d,2024_05_05,26.31719311695038,-80.07453,Deerfield Beach Pier,0.21153846153846154,-5.302564102564125e-4,0.30520615384615385,27,26,"MOSTLY_CLEAR,NIGHT_MOSTLY_CLOUDY,NIGHT_CLEAR,NIGHT_MOSTLY_CLOUDY,NIGHT_BRIEF_SHOWERS,MOSTLY_CLEAR,BRIEF_SHOWERS,CLEAR,CLEAR,CLEAR,CLEAR,MOSTLY_CLOUDY,MOSTLY_CLOUDY","Onshore,Onshore,Onshore,Onshore,Onshore,Onshore,Onshore,Onshore,Onshore,Onshore,Onshore,Onshore,Onshore",13
5842041f4e65fad6a7708881,2024_05_05,30.20276320866628,-85.85626528676136,"Spyglass Dr., Panama City",0.5769230769230769,0,0.2519974358974359,25.307692307692307,23.46153846153846,"CLEAR,NIGHT_CLEAR,NIGHT_CLEAR,NIGHT_CLEAR,NIGHT_CLEAR,CLEAR,CLEAR,CLEAR,CLEAR,CLEAR,CLEAR,CLEAR,CLEAR","Onshore,Cross-shore,Offshore,Offshore,Offshore,Cross-shore,Cross-shore,Onshore,Onshore,Onshore,Onshore,Onshore,Onshore",13
5842041f4e65fad6a7708884,2024_05_05,33.39000832738053,-117.59852,Cottons,1.6923076923076923,0.7986564102564103,1.1056435897435897,17,17,"MOSTLY_CLEAR,NIGHT_FOG,NIGHT_OVERCAST,NIGHT_MOSTLY_CLOUDY,NIGHT_FOG,NIGHT_MOSTLY_CLOUDY,MOSTLY_CLOUDY,CLEAR,CLEAR,CLEAR,CLEAR,CLEAR,CLEAR","Onshore,Onshore,Onshore,Onshore,Onshore,Onshore,Onshore,Onshore,Onshore,Onshore,Onshore,Onshore,Onshore",13
5842041f4e65fad6a7708885,2024_05_05,33.359416282661,-117.54168,Trails,1.6153846153846154,0.4630769230769231,0.7692307692307693,16,16,"MOSTLY_CLEAR,NIGHT_FOG,NIGHT_OVERCAST,NIGHT_MOSTLY_CLOUDY,NIGHT_MOSTLY_CLOUDY,NIGHT_BRIEF_SHOWERS,MOSTLY_CLOUDY,MOSTLY_CLEAR,CLEAR,CLEAR,CLEAR,CLEAR,CLEAR","Onshore,Cross-shore,Cross-shore,Cross-shore,Onshore,Onshore,Onshore,Cross-shore,Onshore,Onshore,Onshore,Onshore,Onshore",13
5842041f4e65fad6a7708886,2024_05_05,33.38042605929805,-117.58332,Middles,1.5515384615384615,0.5346179487179488,0.8782384615384615,17,17,"MOSTLY_CLEAR,NIGHT_FOG,NIGHT_OVERCAST,NIGHT_MOSTLY_CLOUDY,NIGHT_FOG,NIGHT_MOSTLY_CLOUDY,MOSTLY_CLOUDY,CLEAR,CLEAR,CLEAR,CLEAR,CLEAR,CLEAR","Onshore,Onshore,Onshore,Onshore,Onshore,Onshore,Onshore,Onshore,Onshore,Onshore,Onshore,Onshore,Onshore",13
5842041f4e65fad6a7708887,2024_05_05,33.38445596302903,-117.59445,Upper Trestles,1.9361538461538461,0.770323076923077,1.068976923076923,17,17,"MOSTLY_CLEAR,NIGHT_FOG,NIGHT_OVERCAST,NIGHT_MOSTLY_CLOUDY,NIGHT_FOG,NIGHT_MOSTLY_CLOUDY,MOSTLY_CLOUDY,CLEAR,CLEAR,CLEAR,CLEAR,CLEAR,CLEAR","Onshore,Cross-shore,Onshore,Onshore,Onshore,Onshore,Onshore,Onshore,Onshore,Onshore,Onshore,Onshore,Onshore",13
5842041f4e65fad6a7708889,2024_05_05,28.944414,-95.28883,Surfside,1,0.924366923076923,1.4443238461538461,23.384615384615383,23.384615384615383,"OVERCAST,NIGHT_MIST,NIGHT_MIST,NIGHT_DRIZZLE,NIGHT_MIST,CLOUDY,MIST,MIST,MIST,OVERCAST,LIGHT_RAIN,CLEAR,CLEAR","Onshore,Onshore,Onshore,Onshore,Onshore,Onshore,Onshore,Onshore,Onshore,Onshore,Onshore,Onshore,Onshore",13
5842041f4e65fad6a770888a,2024_05_05,33.38143999849023,-117.58843,Lower Trestles,1.8461538461538463,0.7966051282051282,1.1558666666666666,17,17,"MOSTLY_CLEAR,NIGHT_FOG,NIGHT_OVERCAST,NIGHT_MOSTLY_CLOUDY,NIGHT_FOG,NIGHT_MOSTLY_CLOUDY,MOSTLY_CLOUDY,CLEAR,CLEAR,CLEAR,CLEAR,CLEAR,CLEAR","Onshore,Cross-shore,Onshore,Onshore,Onshore,Onshore,Onshore,Onshore,Onshore,Onshore,Onshore,Onshore,Onshore",13
5842041f4e65fad6a770888b,2024_05_05,33.379622288757,-117.57894,Church,1.6284615384615384,0.6905153846153846,1.025225641025641,17,17,"MOSTLY_CLEAR,NIGHT_FOG,NIGHT_OVERCAST,NIGHT_MOSTLY_CLOUDY,NIGHT_FOG,NIGHT_MOSTLY_CLOUDY,MOSTLY_CLOUDY,CLEAR,CLEAR,CLEAR,CLEAR,CLEAR,CLEAR","Onshore,Onshore,Onshore,Onshore,Onshore,Onshore,Onshore,Onshore,Onshore,Onshore,Onshore,Onshore,Onshore",13
5842041f4e65fad6a770888d,2024_05_05,21.679,-158.042,Sunset Beach,3,0.9983615384615384,1.3680025641025642,26,25,"BRIEF_SHOWERS,NIGHT_CLEAR,NIGHT_OVERCAST,NIGHT_CLEAR,NIGHT_CLEAR,NIGHT_SHOWERS,NIGHT_MOSTLY_CLEAR,BRIEF_SHOWERS,SHOWERS,CLEAR,MOSTLY_CLOUDY,MOSTLY_CLOUDY,MOSTLY_CLOUDY","Cross-shore,Cross-shore,Offshore,Cross-shore,Offshore,Cross-shore,Offshore,Cross-shore,Cross-shore,Cross-shore,Onshore,Cross-shore,Cross-shore",13
5842041f4e65fad6a770888e,2024_05_05,21.670550036401,-158.0482,Rocky Point,3.013076923076923,0.9622076923076923,1.2954384615384615,26,25,"BRIEF_SHOWERS_POSSIBLE,NIGHT_OVERCAST,NIGHT_DRIZZLE,NIGHT_OVERCAST,NIGHT_CLEAR,NIGHT_BRIEF_SHOWERS_POSSIBLE,NIGHT_MOSTLY_CLEAR,MOSTLY_CLOUDY,CLEAR,CLEAR,CLEAR,BRIEF_SHOWERS,CLEAR","Cross-shore,Cross-shore,Onshore,Cross-shore,Cross-shore,Cross-shore,Cross-shore,Cross-shore,Cross-shore,Cross-shore,Cross-shore,Cross-shore,Cross-shore",13
5842041f4e65fad6a770888f,2024_05_05,21.668,-158.05,Chambers,3,0.8446153846153847,1.1053846153846154,25,25,"BRIEF_SHOWERS_POSSIBLE,NIGHT_OVERCAST,NIGHT_DRIZZLE,NIGHT_OVERCAST,NIGHT_CLEAR,NIGHT_BRIEF_SHOWERS_POSSIBLE,NIGHT_MOSTLY_CLEAR,MOSTLY_CLOUDY,CLEAR,CLEAR,CLEAR,BRIEF_SHOWERS,CLEAR","Cross-shore,Cross-shore,Cross-shore,Cross-shore,Cross-shore,Cross-shore,Cross-shore,Offshore,Cross-shore,Cross-shore,Onshore,Cross-shore,Cross-shore",13
5842041f4e65fad6a7708890,2024_05_05,21.66522,-158.0526,Pipeline,1.8207692307692307,0.8967589743589743,1.1432564102564102,26,25,"BRIEF_SHOWERS_POSSIBLE,NIGHT_OVERCAST,NIGHT_DRIZZLE,NIGHT_OVERCAST,NIGHT_CLEAR,NIGHT_BRIEF_SHOWERS_POSSIBLE,NIGHT_MOSTLY_CLEAR,MOSTLY_CLOUDY,CLEAR,CLEAR,CLEAR,BRIEF_SHOWERS,CLEAR","Cross-shore,Cross-shore,Onshore,Cross-shore,Cross-shore,Cross-shore,Cross-shore,Cross-shore,Cross-shore,Cross-shore,Cross-shore,Cross-shore,Cross-shore",13
5842041f4e65fad6a7708891,2024_05_05,21.665,-158.054,Backdoor,2.730769230769231,0.8967589743589743,1.1432564102564102,26,25,"BRIEF_SHOWERS_POSSIBLE,NIGHT_OVERCAST,NIGHT_DRIZZLE,NIGHT_OVERCAST,NIGHT_CLEAR,NIGHT_BRIEF_SHOWERS_POSSIBLE,NIGHT_MOSTLY_CLEAR,MOSTLY_CLOUDY,CLEAR,CLEAR,CLEAR,BRIEF_SHOWERS,CLEAR","Cross-shore,Cross-shore,Onshore,Cross-shore,Cross-shore,Cross-shore,Cross-shore,Cross-shore,Cross-shore,Cross-shore,Offshore,Cross-shore,Cross-shore",13
5842041f4e65fad6a7708892,2024_05_05,21.662,-158.057,Rockpile,3,1.1107692307692307,1.3423076923076924,25,25,"BRIEF_SHOWERS_POSSIBLE,NIGHT_OVERCAST,NIGHT_DRIZZLE,NIGHT_OVERCAST,NIGHT_CLEAR,NIGHT_BRIEF_SHOWERS_POSSIBLE,NIGHT_MOSTLY_CLEAR,MOSTLY_CLOUDY,CLEAR,CLEAR,CLEAR,BRIEF_SHOWERS,CLEAR","Cross-shore,Cross-shore,Onshore,Cross-shore,Cross-shore,Cross-shore,Cross-shore,Cross-shore,Cross-shore,Cross-shore,Cross-shore,Cross-shore,Cross-shore",13
5842041f4e65fad6a7708893,2024_05_05,21.65870453806827,-158.06058,Log Cabins,1.8461538461538463,0.66,0.9461538461538461,25,25,"BRIEF_SHOWERS_POSSIBLE,NIGHT_OVERCAST,NIGHT_DRIZZLE,NIGHT_OVERCAST,NIGHT_CLEAR,NIGHT_BRIEF_SHOWERS_POSSIBLE,NIGHT_MOSTLY_CLEAR,MOSTLY_CLOUDY,CLEAR,CLEAR,CLEAR,BRIEF_SHOWERS,CLEAR","Cross-shore,Cross-shore,Onshore,Cross-shore,Cross-shore,Cross-shore,Cross-shore,Cross-shore,Cross-shore,Cross-shore,Cross-shore,Cross-shore,Cross-shore",13
5842041f4e65fad6a7708894,2024_05_05,21.66203493640557,-158.05495,Off-The-Wall,3,0.9061538461538462,1.176153846153846,25,25,"BRIEF_SHOWERS_POSSIBLE,NIGHT_OVERCAST,NIGHT_DRIZZLE,NIGHT_OVERCAST,NIGHT_CLEAR,NIGHT_BRIEF_SHOWERS_POSSIBLE,NIGHT_MOSTLY_CLEAR,MOSTLY_CLOUDY,CLEAR,CLEAR,CLEAR,BRIEF_SHOWERS,CLEAR","Cross-shore,Cross-shore,Onshore,Cross-shore,Cross-shore,Cross-shore,Cross-shore,Offshore,Cross-shore,Cross-shore,Cross-shore,Cross-shore,Cross-shore",13
5842041f4e65fad6a7708895,2024_05_05,21.643,-158.067,Waimea Bay,NA,1.0636820512820513,1.468002564102564,26,25,"BRIEF_SHOWERS_POSSIBLE,NIGHT_OVERCAST,NIGHT_DRIZZLE,NIGHT_OVERCAST,NIGHT_CLEAR,NIGHT_BRIEF_SHOWERS_POSSIBLE,NIGHT_MOSTLY_CLEAR,MOSTLY_CLOUDY,CLEAR,CLEAR,CLEAR,BRIEF_SHOWERS,CLEAR","Cross-shore,Cross-shore,Cross-shore,Offshore,Offshore,Cross-shore,Offshore,Offshore,Cross-shore,Cross-shore,Onshore,Cross-shore,Cross-shore",13
5842041f4e65fad6a7708896,2024_05_05,21.622,-158.087,Hultin's,3.013076923076923,1.2067589743589744,1.5183871794871795,26,25,"MOSTLY_CLEAR,NIGHT_CLEAR,NIGHT_CLEAR,NIGHT_CLEAR,NIGHT_CLEAR,NIGHT_CLEAR,NIGHT_CLEAR,CLEAR,CLEAR,CLEAR,CLEAR,CLEAR,CLEAR","Offshore,Offshore,Offshore,Offshore,Offshore,Offshore,Offshore,Offshore,Offshore,Offshore,Offshore,Offshore,Offshore",13
5842041f4e65fad6a7708897,2024_05_05,21.623,-158.085,Jocko's,2.076923076923077,0.7430769230769231,0.99,25,25,"MOSTLY_CLEAR,NIGHT_CLEAR,NIGHT_CLEAR,NIGHT_CLEAR,NIGHT_CLEAR,NIGHT_CLEAR,NIGHT_CLEAR,CLEAR,CLEAR,CLEAR,CLEAR,CLEAR,CLEAR","Cross-shore,Cross-shore,Cross-shore,Cross-shore,Cross-shore,Cross-shore,Cross-shore,Cross-shore,Cross-shore,Cross-shore,Cross-shore,Cross-shore,Cross-shore",13
5842041f4e65fad6a7708898,2024_05_05,21.62,-158.088,Laniakea,3,0.926374358974359,1.1788333333333334,26,25,"MOSTLY_CLEAR,NIGHT_CLEAR,NIGHT_CLEAR,NIGHT_CLEAR,NIGHT_CLEAR,NIGHT_CLEAR,NIGHT_CLEAR,CLEAR,CLEAR,CLEAR,CLEAR,CLEAR,CLEAR","Cross-shore,Offshore,Cross-shore,Offshore,Offshore,Offshore,Offshore,Offshore,Offshore,Offshore,Offshore,Offshore,Cross-shore",13
5842041f4e65fad6a7708899,2024_05_05,21.625,-158.083,Chun's,1.8461538461538463,0.7838461538461539,1.0515384615384615,25,25,"MOSTLY_CLEAR,NIGHT_CLEAR,NIGHT_CLEAR,NIGHT_CLEAR,NIGHT_CLEAR,NIGHT_CLEAR,NIGHT_CLEAR,CLEAR,CLEAR,CLEAR,CLEAR,CLEAR,CLEAR","Offshore,Offshore,Offshore,Offshore,Offshore,Offshore,Offshore,Offshore,Offshore,Offshore,Offshore,Offshore,Offshore",13
5842041f4e65fad6a770889c,2024_05_05,21.286357895152136,-157.8515,South Shore - Ala Moana Park,2.3076923076923075,0.6530769230769231,0.9584615384615385,25,25,"MOSTLY_CLEAR,NIGHT_CLEAR,NIGHT_CLEAR,NIGHT_CLEAR,NIGHT_MOSTLY_CLOUDY,NIGHT_CLEAR,NIGHT_CLEAR,CLEAR,CLEAR,CLEAR,MOSTLY_CLEAR,MOSTLY_CLOUDY,CLEAR","Offshore,Offshore,Offshore,Offshore,Offshore,Offshore,Offshore,Offshore,Offshore,Offshore,Offshore,Offshore,Offshore",13
5842041f4e65fad6a770889d,2024_05_05,19.606,-155.978,Banyans,2.18,0.46895641025641027,0.7728897435897435,26,25,"CLEAR,NIGHT_CLEAR,NIGHT_MOSTLY_CLEAR,NIGHT_MOSTLY_CLEAR,NIGHT_CLEAR,NIGHT_CLEAR,NIGHT_CLEAR,MIST,CLEAR,CLEAR,CLEAR,CLEAR,CLEAR","Onshore,Onshore,Cross-shore,Cross-shore,Onshore,Cross-shore,Cross-shore,Onshore,Offshore,Cross-shore,Cross-shore,Onshore,Onshore",13
5842041f4e65fad6a770889e,2024_05_05,20.029,-155.831,Kawaihae,1.3846153846153846,0.4444,0.5548492307692308,25,25,"CLEAR,NIGHT_CLEAR,NIGHT_CLEAR,NIGHT_CLEAR,NIGHT_CLEAR,NIGHT_CLEAR,NIGHT_CLEAR,CLEAR,CLEAR,CLEAR,CLEAR,CLEAR,MOSTLY_CLEAR","Onshore,Offshore,Offshore,Offshore,Offshore,Offshore,Offshore,Offshore,Offshore,Onshore,Cross-shore,Cross-shore,Cross-shore",13
5842041f4e65fad6a770889f,2024_05_05,33.07541383424675,-117.3105,Grandview,1.3846153846153846,0.7761538461538462,1.0823076923076922,17,17,"CLEAR,NIGHT_LIGHT_RAIN_AND_FOG,NIGHT_FOG,NIGHT_OVERCAST,NIGHT_CLOUDY,NIGHT_BRIEF_SHOWERS,LIGHT_RAIN,CLEAR,CLEAR,CLEAR,CLEAR,CLEAR,CLEAR","Onshore,Onshore,Onshore,Onshore,Onshore,Onshore,Onshore,Onshore,Onshore,Onshore,Onshore,Onshore,Onshore",13
5842041f4e65fad6a77088a0,2024_05_05,33.065267421296596,-117.30577,Beacons,1.3846153846153846,0.7807692307692308,1.0884615384615384,17,17,"CLEAR,NIGHT_LIGHT_RAIN_AND_FOG,NIGHT_FOG,NIGHT_OVERCAST,NIGHT_CLOUDY,NIGHT_BRIEF_SHOWERS,LIGHT_RAIN,CLEAR,CLEAR,CLEAR,CLEAR,CLEAR,CLEAR","Onshore,Onshore,Onshore,Onshore,Onshore,Onshore,Onshore,Onshore,Onshore,Onshore,Onshore,Onshore,Onshore",13
5842041f4e65fad6a77088a2,2024_05_05,21.252,-157.805,Diamond Head,3,0.8918285897435898,1.2128833333333333,26,25,"MOSTLY_CLEAR,NIGHT_CLEAR,NIGHT_MOSTLY_CLOUDY,NIGHT_MOSTLY_CLOUDY,NIGHT_CLEAR,NIGHT_MOSTLY_CLOUDY,NIGHT_CLEAR,CLEAR,MOSTLY_CLEAR,MOSTLY_CLEAR,CLEAR,MOSTLY_CLOUDY,MOSTLY_CLOUDY","Cross-shore,Cross-shore,Cross-shore,Cross-shore,Cross-shore,Cross-shore,Cross-shore,Cross-shore,Cross-shore,Cross-shore,Cross-shore,Cross-shore,Cross-shore",13
5842041f4e65fad6a77088a3,2024_05_05,33.04694255008896,-117.29966,Moonlight State Beach,1.3846153846153846,0.7861538461538462,1.0923076923076922,17,17,"CLEAR,NIGHT_LIGHT_RAIN_AND_FOG,NIGHT_FOG,NIGHT_OVERCAST,NIGHT_CLOUDY,NIGHT_BRIEF_SHOWERS,RAIN,CLEAR,CLEAR,CLEAR,CLEAR,CLEAR,MOSTLY_CLEAR","Onshore,Onshore,Onshore,Onshore,Onshore,Onshore,Onshore,Onshore,Onshore,Onshore,Onshore,Onshore,Onshore",13
5842041f4e65fad6a77088a5,2024_05_05,33.08685865930869,-117.31532,Ponto,1.0769230769230769,0.8476923076923077,1.14,17,17,"CLEAR,NIGHT_LIGHT_RAIN_AND_FOG,NIGHT_FOG,NIGHT_OVERCAST,NIGHT_CLOUDY,NIGHT_BRIEF_SHOWERS,LIGHT_RAIN,CLEAR,CLEAR,CLEAR,CLEAR,CLEAR,CLEAR","Onshore,Onshore,Onshore,Onshore,Onshore,Onshore,Onshore,Onshore,Onshore,Onshore,Onshore,Onshore,Onshore",13
5842041f4e65fad6a77088a6,2024_05_05,33.130343587871906,-117.33668,Terra Mar Point,1.1915384615384617,0.5728384615384615,0.9208974358974359,16,16,"MOSTLY_CLEAR,NIGHT_FOG,NIGHT_FOG,NIGHT_OVERCAST,NIGHT_MOSTLY_CLOUDY,NIGHT_BRIEF_SHOWERS,HEAVY_RAIN,CLEAR,CLEAR,CLEAR,CLEAR,CLEAR,CLEAR","Onshore,Onshore,Onshore,Onshore,Onshore,Onshore,Onshore,Onshore,Onshore,Onshore,Onshore,Onshore,Onshore",13
5842041f4e65fad6a77088af,2024_05_05,32.95916304183685,-117.26963,Del Mar,1.0769230769230769,0.8030769230769231,1.0623076923076924,17,17,"MOSTLY_CLOUDY,NIGHT_FOG,NIGHT_FOG,NIGHT_DRIZZLE,NIGHT_OVERCAST,NIGHT_OVERCAST,OVERCAST,CLEAR,CLEAR,CLEAR,CLEAR,CLEAR,CLEAR","Onshore,Onshore,Onshore,Onshore,Onshore,Onshore,Cross-shore,Onshore,Onshore,Onshore,Onshore,Onshore,Onshore",13
5842041f4e65fad6a77088b0,2024_05_05,32.97527261243354,-117.2721061331305,Del Mar Rivermouth,1,0.7538461538461538,1.006923076923077,17,17,"MOSTLY_CLOUDY,NIGHT_FOG,NIGHT_FOG,NIGHT_LIGHT_RAIN,NIGHT_OVERCAST,NIGHT_DRIZZLE,OVERCAST,CLEAR,CLEAR,CLEAR,CLEAR,CLEAR,CLEAR","Onshore,Onshore,Onshore,Onshore,Onshore,Onshore,Cross-shore,Onshore,Onshore,Onshore,Onshore,Onshore,Onshore",13
5842041f4e65fad6a77088b1,2024_05_05,33.01352178146273,-117.28219,Cardiff Reef,0.9869230769230769,0.9902333333333333,1.3049333333333333,16,16,"CLEAR,NIGHT_LIGHT_RAIN_AND_FOG,NIGHT_FOG,NIGHT_OVERCAST,NIGHT_MOSTLY_CLOUDY,NIGHT_OVERCAST,LIGHT_RAIN,CLEAR,CLEAR,CLEAR,CLEAR,CLEAR,MOSTLY_CLEAR","Onshore,Onshore,Onshore,Onshore,Onshore,Onshore,Onshore,Onshore,Onshore,Onshore,Onshore,Onshore,Onshore",13
5842041f4e65fad6a77088b3,2024_05_05,33.00211185876003,-117.2811,Seaside Reef,1.1023076923076922,0.6812358974358974,1.0010076923076923,18,17,"CLEAR,NIGHT_FOG,NIGHT_FOG,NIGHT_OVERCAST,NIGHT_MOSTLY_CLOUDY,NIGHT_DRIZZLE,OVERCAST,CLEAR,CLEAR,CLEAR,CLEAR,CLEAR,CLEAR","Onshore,Onshore,Onshore,Onshore,Onshore,Onshore,Onshore,Onshore,Onshore,Onshore,Onshore,Onshore,Onshore",13
5842041f4e65fad6a77088b4,2024_05_05,33.0341859796287,-117.29552,Swami's,1.0507692307692307,0.6338,0.9604948717948718,16,16,"CLEAR,NIGHT_LIGHT_RAIN_AND_FOG,NIGHT_FOG,NIGHT_OVERCAST,NIGHT_MOSTLY_CLOUDY,NIGHT_OVERCAST,LIGHT_RAIN,CLEAR,CLEAR,CLEAR,CLEAR,CLEAR,MOSTLY_CLEAR","Onshore,Onshore,Onshore,Onshore,Onshore,Onshore,Onshore,Onshore,Onshore,Onshore,Onshore,Onshore,Onshore",13
5842041f4e65fad6a77088b7,2024_05_05,33.04569760260221,-117.2994,D Street,1.5384615384615385,0.8292307692307692,1.133076923076923,17,17,"CLEAR,NIGHT_LIGHT_RAIN_AND_FOG,NIGHT_FOG,NIGHT_OVERCAST,NIGHT_CLOUDY,NIGHT_BRIEF_SHOWERS,RAIN,CLEAR,CLEAR,CLEAR,CLEAR,CLEAR,MOSTLY_CLEAR","Onshore,Onshore,Onshore,Onshore,Onshore,Onshore,Onshore,Onshore,Onshore,Onshore,Onshore,Onshore,Onshore",13
5842041f4e65fad6a77088b8,2024_05_05,33.02090944350196,-117.28535,San Elijo State Beach,0.82,0.5775820512820513,0.893051282051282,16,16,"CLEAR,NIGHT_LIGHT_RAIN_AND_FOG,NIGHT_FOG,NIGHT_OVERCAST,NIGHT_MOSTLY_CLOUDY,NIGHT_OVERCAST,LIGHT_RAIN,CLEAR,CLEAR,CLEAR,CLEAR,CLEAR,MOSTLY_CLEAR","Onshore,Onshore,Onshore,Onshore,Onshore,Onshore,Onshore,Onshore,Onshore,Onshore,Onshore,Onshore,Onshore",13
5842041f4e65fad6a77088c2,2024_05_05,32.80662846492798,-117.26888,PB Point,1.6153846153846154,0.6592307692307692,0.9338461538461539,17,17,"BRIEF_SHOWERS,NIGHT_FOG,NIGHT_FOG,NIGHT_FOG,NIGHT_OVERCAST,NIGHT_FOG,OVERCAST,CLEAR,CLEAR,CLEAR,CLEAR,CLEAR,CLEAR","Cross-shore,Cross-shore,Cross-shore,Cross-shore,Cross-shore,Cross-shore,Onshore,Cross-shore,Cross-shore,Cross-shore,Cross-shore,Cross-shore,Cross-shore",13
5842041f4e65fad6a77088c4,2024_05_05,32.8060476681448,-117.26479,Old Man's at Tourmaline,1.4615384615384615,0.5792307692307692,0.8853846153846154,17,17,"BRIEF_SHOWERS,NIGHT_FOG,NIGHT_FOG,NIGHT_FOG,NIGHT_OVERCAST,NIGHT_FOG,OVERCAST,CLEAR,CLEAR,CLEAR,CLEAR,CLEAR,CLEAR","Cross-shore,Cross-shore,Cross-shore,Cross-shore,Onshore,Onshore,Onshore,Cross-shore,Cross-shore,Cross-shore,Cross-shore,Cross-shore,Cross-shore",13
5842041f4e65fad6a77088cb,2024_05_05,32.557056711256,-117.1327445020322,Tijuana Slough,1.5384615384615385,0.5869230769230769,0.8907692307692308,17,17,"MOSTLY_CLOUDY,NIGHT_FOG,NIGHT_FOG,NIGHT_RAIN_AND_FOG,NIGHT_CLOUDY,NIGHT_FOG,DRIZZLE,MOSTLY_CLEAR,CLEAR,CLEAR,CLEAR,CLEAR,CLEAR","Onshore,Onshore,Onshore,Onshore,Onshore,Onshore,Onshore,Onshore,Onshore,Onshore,Onshore,Onshore,Onshore",13
5842041f4e65fad6a77088cc,2024_05_05,32.863,-117.257,La Jolla Shores,1.5384615384615385,0.5961538461538461,0.9015384615384615,17,17,"MIST,NIGHT_FOG,NIGHT_FOG,NIGHT_FOG,NIGHT_OVERCAST,NIGHT_LIGHT_RAIN,OVERCAST,CLEAR,CLEAR,CLEAR,CLEAR,CLEAR,MOSTLY_CLEAR","Onshore,Onshore,Onshore,Onshore,Onshore,Cross-shore,Cross-shore,Onshore,Onshore,Onshore,Onshore,Onshore,Onshore",13
5842041f4e65fad6a77088ce,2024_05_05,32.67443657790586,-117.17421,Coronado Beach,1.5384615384615385,0.39461538461538465,0.6992307692307692,17,17,"MOSTLY_CLOUDY,NIGHT_FOG,NIGHT_FOG,NIGHT_LIGHT_RAIN_AND_FOG,NIGHT_OVERCAST,NIGHT_FOG,LIGHT_RAIN,CLEAR,CLEAR,CLEAR,CLEAR,CLEAR,CLEAR","Cross-shore,Cross-shore,Onshore,Onshore,Cross-shore,Onshore,Onshore,Cross-shore,Cross-shore,Cross-shore,Cross-shore,Cross-shore,Cross-shore",13
5842041f4e65fad6a77088cf,2024_05_05,33.40484417640326,-117.60749,San Clemente State Beach,1.3846153846153846,0.5700000000000001,0.8476923076923077,16,16,"MOSTLY_CLOUDY,NIGHT_FOG,NIGHT_OVERCAST,NIGHT_MOSTLY_CLOUDY,NIGHT_FOG,NIGHT_MOSTLY_CLOUDY,MOSTLY_CLOUDY,BRIEF_SHOWERS,CLEAR,CLEAR,CLEAR,CLEAR,CLEAR","Onshore,Onshore,Onshore,Onshore,Onshore,Onshore,Onshore,Onshore,Onshore,Onshore,Onshore,Onshore,Onshore",13
5842041f4e65fad6a77088d5,2024_05_05,33.4663042002114,-117.7168352817103,Strands,1.4361538461538461,0.8135923076923077,1.1692641025641026,16,16,"MIST,NIGHT_FOG,NIGHT_OVERCAST,NIGHT_MOSTLY_CLOUDY,NIGHT_CLEAR,NIGHT_MOSTLY_CLOUDY,CLEAR,CLEAR,CLEAR,CLEAR,CLEAR,CLEAR,CLEAR","Onshore,Onshore,Onshore,Onshore,Onshore,Onshore,Onshore,Onshore,Onshore,Onshore,Onshore,Onshore,Onshore",13
5842041f4e65fad6a77088d7,2024_05_05,33.4609858001748,-117.68535,Doheny State Beach,1.4230769230769231,0.22679487179487182,0.5332051282051282,17,17,"MOSTLY_CLOUDY,NIGHT_FOG,NIGHT_OVERCAST,NIGHT_MOSTLY_CLOUDY,NIGHT_MOSTLY_CLOUDY,NIGHT_CLEAR,MOSTLY_CLOUDY,MOSTLY_CLEAR,CLEAR,CLEAR,CLEAR,CLEAR,CLEAR","Onshore,Onshore,Onshore,Onshore,Onshore,Onshore,Onshore,Onshore,Onshore,Onshore,Onshore,Onshore,Onshore",13
5842041f4e65fad6a77088dc,2024_05_05,33.50894790083017,-117.75243,Aliso Creek,1.3846153846153846,0.5653846153846154,0.8715384615384616,16,16,"BRIEF_SHOWERS,NIGHT_FOG,NIGHT_OVERCAST,NIGHT_MOSTLY_CLOUDY,NIGHT_BRIEF_SHOWERS,NIGHT_MOSTLY_CLOUDY,CLEAR,CLEAR,CLEAR,CLEAR,CLEAR,CLEAR,CLEAR","Onshore,Onshore,Onshore,Onshore,Onshore,Onshore,Onshore,Onshore,Onshore,Onshore,Onshore,Onshore,Onshore",13
5842041f4e65fad6a77088dd,2024_05_05,33.5326591767067,-117.77764,Brooks Street,1.0769230769230769,0.4653846153846154,0.7692307692307693,16.384615384615383,16.384615384615383,"MIST,NIGHT_LIGHT_RAIN_AND_FOG,NIGHT_OVERCAST,NIGHT_MOSTLY_CLOUDY,NIGHT_MOSTLY_CLOUDY,NIGHT_MOSTLY_CLOUDY,CLEAR,CLEAR,CLEAR,CLEAR,CLEAR,CLEAR,CLEAR","Onshore,Onshore,Onshore,Onshore,Onshore,Onshore,Onshore,Onshore,Onshore,Onshore,Onshore,Onshore,Onshore",13
5842041f4e65fad6a77088de,2024_05_05,33.53561225884637,-117.7799,Thalia Street,1.3076923076923077,0.52,0.823076923076923,16.384615384615383,16.384615384615383,"MIST,NIGHT_LIGHT_RAIN_AND_FOG,NIGHT_OVERCAST,NIGHT_MOSTLY_CLOUDY,NIGHT_MOSTLY_CLOUDY,NIGHT_MOSTLY_CLOUDY,CLEAR,CLEAR,CLEAR,CLEAR,CLEAR,CLEAR,CLEAR","Onshore,Onshore,Onshore,Onshore,Onshore,Onshore,Cross-shore,Onshore,Onshore,Onshore,Onshore,Onshore,Onshore",13
5842041f4e65fad6a77088e3,2024_05_05,33.54268310353641,-117.7916,Rockpile,1.3076923076923077,0.53,0.8323076923076923,16.384615384615383,16.384615384615383,"MIST,NIGHT_LIGHT_RAIN_AND_FOG,NIGHT_OVERCAST,NIGHT_MOSTLY_CLOUDY,NIGHT_MOSTLY_CLOUDY,NIGHT_MOSTLY_CLOUDY,CLEAR,CLEAR,CLEAR,CLEAR,CLEAR,CLEAR,CLEAR","Onshore,Onshore,Cross-shore,Onshore,Onshore,Onshore,Cross-shore,Cross-shore,Cross-shore,Onshore,Onshore,Onshore,Onshore",13
5842041f4e65fad6a77088e4,2024_05_05,33.7368459504689,-118.10342,"Seal Beach Pier, Southside",1,0.12923076923076923,0.4338461538461539,16.615384615384617,16.615384615384617,"OVERCAST,NIGHT_CLOUDY,NIGHT_OVERCAST,NIGHT_OVERCAST,NIGHT_LIGHT_RAIN,NIGHT_CLEAR,CLEAR,CLEAR,CLEAR,CLEAR,CLEAR,CLEAR,CLEAR","Onshore,Onshore,Onshore,Onshore,Onshore,Onshore,Onshore,Onshore,Onshore,Onshore,Onshore,Onshore,Onshore",13
5842041f4e65fad6a77088e5,2024_05_05,33.73933701820233,-118.117,Ray Bay,1,0.23846153846153847,0.5415384615384615,16.615384615384617,16.615384615384617,"OVERCAST,NIGHT_FOG,NIGHT_CLOUDY,NIGHT_OVERCAST,NIGHT_LIGHT_RAIN,NIGHT_CLEAR,CLEAR,CLEAR,CLEAR,CLEAR,CLEAR,CLEAR,CLEAR","Onshore,Onshore,Onshore,Onshore,Onshore,Onshore,Onshore,Onshore,Onshore,Onshore,Onshore,Onshore,Onshore",13
5842041f4e65fad6a77088e7,2024_05_05,33.728733,-118.08982,Surfside,1.0769230769230769,0.29615384615384616,0.5992307692307692,16.615384615384617,16.615384615384617,"OVERCAST,NIGHT_FOG,NIGHT_CLOUDY,NIGHT_OVERCAST,NIGHT_LIGHT_RAIN,NIGHT_CLEAR,CLEAR,CLEAR,CLEAR,CLEAR,CLEAR,CLEAR,CLEAR","Onshore,Onshore,Onshore,Onshore,Onshore,Onshore,Onshore,Onshore,Onshore,Onshore,Onshore,Onshore,Onshore",13
5842041f4e65fad6a77088e8,2024_05_05,33.68760321488161,-118.04236,Bolsa Chica State Beach,1.333076923076923,0.5944794871794872,0.9017179487179487,15,15,"MOSTLY_CLOUDY,NIGHT_OVERCAST,NIGHT_OVERCAST,NIGHT_OVERCAST,NIGHT_FOG,NIGHT_CLEAR,CLEAR,CLEAR,CLEAR,CLEAR,CLEAR,CLEAR,CLEAR","Onshore,Onshore,Onshore,Onshore,Onshore,Onshore,Onshore,Onshore,Onshore,Onshore,Onshore,Onshore,Onshore",13
5842041f4e65fad6a77088ea,2024_05_05,33.66704400178788,-118.0192,North HB Streets,1.2561538461538462,0.7544794871794872,1.1154641025641026,15,15,"MOSTLY_CLOUDY,NIGHT_OVERCAST,NIGHT_OVERCAST,NIGHT_MOSTLY_CLOUDY,NIGHT_BRIEF_SHOWERS,NIGHT_CLEAR,CLEAR,CLEAR,CLEAR,CLEAR,CLEAR,CLEAR,CLEAR","Onshore,Onshore,Onshore,Onshore,Onshore,Onshore,Onshore,Onshore,Onshore,Onshore,Onshore,Onshore,Onshore",13
5842041f4e65fad6a77088ed,2024_05_05,33.65475101379567,-118.00291,Huntington Beach Pier Southside,1.3846153846153846,0.9194076923076924,1.3216128205128204,16,16,"MOSTLY_CLOUDY,NIGHT_OVERCAST,NIGHT_OVERCAST,NIGHT_MOSTLY_CLOUDY,NIGHT_BRIEF_SHOWERS,NIGHT_CLEAR,CLEAR,CLEAR,CLEAR,CLEAR,CLEAR,CLEAR,CLEAR","Onshore,Onshore,Onshore,Onshore,Onshore,Onshore,Onshore,Onshore,Onshore,Onshore,Onshore,Onshore,Onshore",13
5842041f4e65fad6a77088ee,2024_05_05,33.62778647706099,-117.95939,River Jetties,1.333076923076923,0.8831897435897436,1.1858128205128207,16,16,"MOSTLY_CLOUDY,NIGHT_OVERCAST,NIGHT_OVERCAST,NIGHT_CLEAR,NIGHT_MOSTLY_CLOUDY,NIGHT_MOSTLY_CLOUDY,CLEAR,CLEAR,CLEAR,CLEAR,CLEAR,CLEAR,CLEAR","Onshore,Onshore,Onshore,Onshore,Onshore,Onshore,Onshore,Onshore,Onshore,Onshore,Onshore,Onshore,Onshore",13
5842041f4e65fad6a77088f2,2024_05_05,33.605165797643664,-117.925,Newport Point,1.4615384615384615,0.6453846153846153,0.943076923076923,16.384615384615383,16.384615384615383,"MOSTLY_CLOUDY,NIGHT_OVERCAST,NIGHT_CLOUDY,NIGHT_CLEAR,NIGHT_CLEAR,NIGHT_MOSTLY_CLOUDY,CLEAR,CLEAR,CLEAR,CLEAR,CLEAR,CLEAR,CLEAR","Onshore,Onshore,Onshore,Onshore,Onshore,Cross-shore,Cross-shore,Cross-shore,Onshore,Onshore,Onshore,Onshore,Onshore",13
5842041f4e65fad6a77088f3,2024_05_05,33.58982984726977,-117.87713,Corona del Mar,0.9230769230769231,0.1882323076923077,0.29411384615384617,16.384615384615383,16.384615384615383,"MIST,NIGHT_OVERCAST,NIGHT_CLOUDY,NIGHT_MOSTLY_CLOUDY,NIGHT_MOSTLY_CLOUDY,NIGHT_CLEAR,CLEAR,CLEAR,CLEAR,CLEAR,CLEAR,CLEAR,CLEAR","Onshore,Onshore,Onshore,Cross-shore,Onshore,Onshore,Onshore,Onshore,Onshore,Onshore,Onshore,Onshore,Onshore",13
5842041f4e65fad6a77088f7,2024_05_05,34.00750300824362,-118.4971783496269,Santa Monica Pier,1.6153846153846154,0.5338461538461539,0.8392307692307692,16,16,"CLEAR,NIGHT_MOSTLY_CLOUDY,NIGHT_MOSTLY_CLOUDY,NIGHT_OVERCAST,NIGHT_OVERCAST,NIGHT_CLEAR,CLEAR,CLEAR,CLEAR,CLEAR,CLEAR,CLEAR,CLEAR","Onshore,Onshore,Onshore,Onshore,Onshore,Onshore,Onshore,Onshore,Onshore,Onshore,Onshore,Onshore,Onshore",13
5842041f4e65fad6a77088ff,2024_05_05,33.94070283102945,-118.44321,Dockweiler Beach,1.0507692307692307,0.8527859615384615,1.147875641025641,16,16,"CLOUDY,NIGHT_MOSTLY_CLOUDY,NIGHT_MOSTLY_CLOUDY,NIGHT_LIGHT_RAIN_AND_FOG,NIGHT_OVERCAST,NIGHT_CLEAR,CLEAR,CLEAR,CLEAR,CLEAR,CLEAR,CLEAR,CLEAR","Onshore,Onshore,Onshore,Onshore,Onshore,Onshore,Onshore,Onshore,Onshore,Onshore,Onshore,Onshore,Onshore",13
5842041f4e65fad6a7708900,2024_05_05,33.9231846937237,-118.4341465777908,Shitpipe,0.6023076923076923,0.7473128205128206,1.0957076923076923,16,16,"CLEAR,NIGHT_MOSTLY_CLOUDY,NIGHT_CLOUDY,NIGHT_LIGHT_RAIN_AND_FOG,NIGHT_OVERCAST,NIGHT_CLEAR,CLEAR,CLEAR,CLEAR,CLEAR,CLEAR,CLEAR,CLEAR","Onshore,Onshore,Onshore,Onshore,Onshore,Onshore,Onshore,Onshore,Onshore,Onshore,Onshore,Onshore,Onshore",13
5842041f4e65fad6a7708902,2024_05_05,33.9108528052242,-118.4279133138721,Hammerland,0.6407692307692308,0.8348820512820513,1.1846871794871796,16,16,"CLEAR,NIGHT_MOSTLY_CLOUDY,NIGHT_CLOUDY,NIGHT_LIGHT_RAIN_AND_FOG,NIGHT_OVERCAST,NIGHT_CLEAR,CLEAR,CLEAR,CLEAR,CLEAR,CLEAR,CLEAR,CLEAR","Onshore,Onshore,Onshore,Onshore,Onshore,Onshore,Onshore,Onshore,Onshore,Onshore,Onshore,Onshore,Onshore",13
5842041f4e65fad6a7708904,2024_05_05,33.87201368173932,-118.40752,Hermosa Beach,0.6023076923076923,0.7632102564102564,1.1354846153846154,16,16,"CLOUDY,NIGHT_OVERCAST,NIGHT_OVERCAST,NIGHT_LIGHT_RAIN,NIGHT_RAIN,NIGHT_CLEAR,CLEAR,CLEAR,CLEAR,CLEAR,CLEAR,CLEAR,CLEAR","Onshore,Onshore,Onshore,Onshore,Onshore,Onshore,Onshore,Onshore,Onshore,Onshore,Onshore,Onshore,Onshore",13
5842041f4e65fad6a7708906,2024_05_05,33.90129336911256,-118.42184,El Porto,0.7176923076923077,0.9103307692307693,1.2602,16,16,"OVERCAST,NIGHT_OVERCAST,NIGHT_OVERCAST,NIGHT_RAIN,NIGHT_OVERCAST,NIGHT_CLEAR,CLEAR,CLEAR,CLEAR,CLEAR,CLEAR,CLEAR,CLEAR","Onshore,Onshore,Onshore,Onshore,Onshore,Onshore,Onshore,Onshore,Onshore,Onshore,Onshore,Onshore,Onshore",13
5842041f4e65fad6a7708907,2024_05_05,33.87963506431794,-118.41102,Manhattan Beach Pier,0.7176923076923077,0.7896717948717948,1.1437410256410256,16,16,"OVERCAST,NIGHT_OVERCAST,NIGHT_OVERCAST,NIGHT_RAIN,NIGHT_OVERCAST,NIGHT_CLEAR,CLEAR,CLEAR,CLEAR,CLEAR,CLEAR,CLEAR,CLEAR","Onshore,Onshore,Onshore,Onshore,Onshore,Onshore,Onshore,Onshore,Onshore,Onshore,Onshore,Onshore,Onshore",13
5842041f4e65fad6a7708914,2024_05_05,34.038053387863464,-118.5532,Sunset Point,1.6153846153846154,0.30846153846153845,0.6153846153846154,16,16,"CLEAR,NIGHT_CLEAR,NIGHT_FOG,NIGHT_BRIEF_SHOWERS,NIGHT_OVERCAST,NIGHT_CLEAR,CLEAR,CLEAR,CLEAR,CLEAR,CLEAR,CLEAR,CLEAR","Onshore,Onshore,Onshore,Onshore,Onshore,Onshore,Cross-shore,Onshore,Cross-shore,Onshore,Onshore,Onshore,Onshore",13
5842041f4e65fad6a7708920,2024_05_05,33.80282,-118.39989,Haggerty's,1.0769230769230769,0.1416923076923077,0.3221538461538462,16,16,"CLOUDY,NIGHT_CLOUDY,NIGHT_MOSTLY_CLOUDY,NIGHT_RAIN,NIGHT_OVERCAST,NIGHT_CLEAR,CLEAR,CLEAR,CLEAR,CLEAR,CLEAR,CLEAR,CLEAR","Onshore,Onshore,Onshore,Onshore,Onshore,Onshore,Onshore,Onshore,Onshore,Onshore,Onshore,Onshore,Onshore",13
5842041f4e65fad6a7708921,2024_05_05,33.85044519861206,-118.40048,Redondo Breakwater,1.4615384615384615,0.8561538461538462,1.1623076923076923,15.615384615384615,15.615384615384615,"CLOUDY,NIGHT_OVERCAST,NIGHT_OVERCAST,NIGHT_LIGHT_RAIN,NIGHT_RAIN,NIGHT_CLEAR,CLEAR,CLEAR,CLEAR,CLEAR,CLEAR,CLEAR,CLEAR","Onshore,Onshore,Onshore,Onshore,Onshore,Onshore,Onshore,Onshore,Onshore,Onshore,Onshore,Onshore,Onshore",13
5842041f4e65fad6a7708927,2024_05_05,33.70877301002487,-118.2840112858389,Cabrillo Beach,1,0.16846153846153847,0.4715384615384616,16,16,"OVERCAST,NIGHT_MOSTLY_CLOUDY,NIGHT_OVERCAST,NIGHT_FOG,NIGHT_LIGHT_RAIN,NIGHT_CLEAR,CLEAR,CLEAR,CLEAR,CLEAR,CLEAR,CLEAR,CLEAR","Offshore,Cross-shore,Cross-shore,Cross-shore,Cross-shore,Offshore,Cross-shore,Cross-shore,Cross-shore,Cross-shore,Cross-shore,Cross-shore,Cross-shore",13
5842041f4e65fad6a770892c,2024_05_05,33.77209986806257,-118.4268428476672,Lunada Bay,0.8461538461538461,0.9223076923076923,1.2253846153846153,16,16,"MIST,NIGHT_CLOUDY,NIGHT_OVERCAST,NIGHT_RAIN,NIGHT_OVERCAST,NIGHT_CLEAR,CLEAR,CLEAR,CLEAR,CLEAR,CLEAR,CLEAR,CLEAR","Onshore,Onshore,Onshore,Onshore,Onshore,Onshore,Onshore,Onshore,Onshore,Onshore,Onshore,Cross-shore,Onshore",13
5842041f4e65fad6a770892d,2024_05_05,33.79294656286144,-118.40703,PV Cove,1.0769230769230769,0.8415884615384616,1.0949053846153847,16,16,"CLOUDY,NIGHT_CLOUDY,NIGHT_MOSTLY_CLOUDY,NIGHT_RAIN,NIGHT_OVERCAST,NIGHT_CLEAR,CLEAR,CLEAR,CLEAR,CLEAR,CLEAR,CLEAR,CLEAR","Onshore,Onshore,Onshore,Cross-shore,Cross-shore,Onshore,Onshore,Onshore,Onshore,Onshore,Onshore,Onshore,Onshore",13
5842041f4e65fad6a7708930,2024_05_05,34.03944902292561,-118.57539,Chart House,1.3846153846153846,0.24384615384615385,0.5484615384615384,16,16,"OVERCAST,NIGHT_MOSTLY_CLOUDY,NIGHT_FOG,NIGHT_MOSTLY_CLOUDY,NIGHT_LIGHT_RAIN,NIGHT_CLEAR,CLEAR,CLEAR,CLEAR,CLEAR,CLEAR,CLEAR,CLEAR","Cross-shore,Onshore,Onshore,Onshore,Cross-shore,Onshore,Offshore,Onshore,Offshore,Cross-shore,Onshore,Onshore,Onshore",13
5842041f4e65fad6a7708936,2024_05_05,34.0016731994772,-118.80456,Point Dume,1.3207692307692307,0.2648820512820513,0.5693153846153847,16,16,"MOSTLY_CLOUDY,NIGHT_MOSTLY_CLOUDY,NIGHT_MOSTLY_CLOUDY,NIGHT_OVERCAST,NIGHT_MOSTLY_CLOUDY,NIGHT_CLEAR,NIGHT_CLEAR,CLEAR,CLEAR,CLEAR,CLEAR,CLEAR,CLEAR","Cross-shore,Cross-shore,Cross-shore,Cross-shore,Cross-shore,Offshore,Offshore,Offshore,Cross-shore,Cross-shore,Cross-shore,Cross-shore,Cross-shore",13
5842041f4e65fad6a7708937,2024_05_05,34.02587527588963,-118.7554939066114,Latigo Point,1.6923076923076923,0.24461538461538462,0.5476923076923077,15,15,"MOSTLY_CLOUDY,NIGHT_MOSTLY_CLOUDY,NIGHT_MOSTLY_CLOUDY,NIGHT_DRIZZLE,NIGHT_BRIEF_SHOWERS,NIGHT_CLEAR,NIGHT_CLEAR,CLEAR,CLEAR,CLEAR,CLEAR,MOSTLY_CLEAR,MOSTLY_CLEAR","Cross-shore,Offshore,Cross-shore,Offshore,Onshore,Offshore,Offshore,Onshore,Onshore,Onshore,Cross-shore,Cross-shore,Cross-shore",13
5842041f4e65fad6a770893f,2024_05_05,34.043762,-118.93294,Leo Carrillo,1.1153846153846154,0.6023307692307692,0.9377358974358975,14,14,"MIST,NIGHT_MIST,NIGHT_OVERCAST,NIGHT_MIST,NIGHT_MOSTLY_CLOUDY,NIGHT_CLEAR,NIGHT_CLEAR,CLEAR,CLEAR,CLEAR,CLEAR,CLEAR,CLEAR","Cross-shore,Cross-shore,Cross-shore,Onshore,Cross-shore,Offshore,Offshore,Cross-shore,Cross-shore,Cross-shore,Cross-shore,Cross-shore,Cross-shore",13
5842041f4e65fad6a7708941,2024_05_05,36.69388179265737,-121.81289,Marina State Beach,1.9230769230769231,1.2115384615384615,1.5192307692307692,13.384615384615385,13.384615384615385,"RAIN,NIGHT_MOSTLY_CLEAR,NIGHT_MOSTLY_CLEAR,NIGHT_MOSTLY_CLOUDY,NIGHT_MOSTLY_CLOUDY,NIGHT_MOSTLY_CLEAR,NIGHT_MOSTLY_CLOUDY,MOSTLY_CLOUDY,CLEAR,CLEAR,CLEAR,CLEAR,CLEAR","Onshore,Onshore,Onshore,Onshore,Onshore,Onshore,Onshore,Onshore,Onshore,Onshore,Onshore,Onshore,Onshore",13
5842041f4e65fad6a7708944,2024_05_05,34.34145077331085,-119.416999352654,Stanley's,1.6153846153846154,0.4653846153846154,0.7676923076923077,15,15,"MOSTLY_CLEAR,NIGHT_SHOWERS,NIGHT_FOG,NIGHT_MIST,NIGHT_CLEAR,NIGHT_CLEAR,NIGHT_CLEAR,CLEAR,CLEAR,CLEAR,CLEAR,CLEAR,CLEAR","Onshore,Onshore,Onshore,Onshore,Onshore,Cross-shore,Onshore,Cross-shore,Offshore,Cross-shore,Offshore,Cross-shore,Cross-shore",13
5842041f4e65fad6a7708945,2024_05_05,34.35113017313915,-119.426921498899,Oil Piers,2.076923076923077,0.37384615384615383,0.6784615384615384,15,15,"MOSTLY_CLEAR,NIGHT_SHOWERS,NIGHT_FOG,NIGHT_MIST,NIGHT_CLEAR,NIGHT_CLEAR,NIGHT_CLEAR,CLEAR,CLEAR,CLEAR,CLEAR,CLEAR,CLEAR","Onshore,Onshore,Offshore,Cross-shore,Onshore,Cross-shore,Offshore,Offshore,Cross-shore,Cross-shore,Cross-shore,Onshore,Onshore",13
5842041f4e65fad6a770894c,2024_05_05,34.17876333306018,-119.23995,Oxnard,1,0.6892307692307692,0.9969230769230769,15,15,"MOSTLY_CLOUDY,NIGHT_FOG,NIGHT_MOSTLY_CLOUDY,NIGHT_MOSTLY_CLOUDY,NIGHT_CLEAR,NIGHT_CLEAR,NIGHT_CLEAR,CLEAR,CLEAR,CLEAR,CLEAR,CLEAR,CLEAR","Onshore,Onshore,Onshore,Onshore,Onshore,Onshore,Onshore,Onshore,Onshore,Onshore,Onshore,Onshore,Onshore",13
5842041f4e65fad6a7708957,2024_05_05,34.31720331100517,-119.3882324751725,Pitas Point,2,0.42846153846153845,0.7338461538461538,15,15,"MIST,NIGHT_BRIEF_SHOWERS,NIGHT_MIST,NIGHT_MIST,NIGHT_CLEAR,NIGHT_CLEAR,NIGHT_CLEAR,CLEAR,CLEAR,CLEAR,CLEAR,CLEAR,CLEAR","Onshore,Offshore,Offshore,Offshore,Cross-shore,Offshore,Offshore,Offshore,Cross-shore,Cross-shore,Cross-shore,Cross-shore,Cross-shore",13
5842041f4e65fad6a7708959,2024_05_05,34.27851754384724,-119.3162,Emma Wood,0.9230769230769231,0.4653846153846154,0.7676923076923077,15,15,"MIST,NIGHT_FOG,NIGHT_MIST,NIGHT_MIST,NIGHT_CLEAR,NIGHT_CLEAR,NIGHT_CLEAR,CLEAR,CLEAR,CLEAR,CLEAR,CLEAR,CLEAR","Onshore,Onshore,Onshore,Onshore,Onshore,Onshore,Onshore,Onshore,Onshore,Onshore,Cross-shore,Onshore,Onshore",13
5842041f4e65fad6a770895a,2024_05_05,34.35513640390276,-119.4400589884255,Mussel Shoals (aka Little Rincon),1.8461538461538463,0.39076923076923076,0.6984615384615385,15,15,"MOSTLY_CLEAR,NIGHT_BRIEF_SHOWERS,NIGHT_MIST,NIGHT_MIST,NIGHT_CLEAR,NIGHT_CLEAR,NIGHT_CLEAR,CLEAR,CLEAR,CLEAR,CLEAR,CLEAR,CLEAR","Onshore,Onshore,Offshore,Cross-shore,Onshore,Cross-shore,Offshore,Offshore,Cross-shore,Cross-shore,Cross-shore,Onshore,Onshore",13
5842041f4e65fad6a770895e,2024_05_05,34.28991757054902,-119.3366646794652,Summer Beach,1.0769230769230769,0.40692307692307694,0.713076923076923,15,15,"MIST,NIGHT_FOG,NIGHT_MIST,NIGHT_MIST,NIGHT_CLEAR,NIGHT_CLEAR,NIGHT_CLEAR,CLEAR,CLEAR,CLEAR,CLEAR,CLEAR,CLEAR","Onshore,Onshore,Onshore,Onshore,Onshore,Onshore,Onshore,Onshore,Onshore,Onshore,Onshore,Onshore,Onshore",13
5842041f4e65fad6a770895f,2024_05_05,34.30897456105926,-119.3582501170116,Solimar,1.8461538461538463,0.41846153846153844,0.7215384615384616,15,15,"MIST,NIGHT_BRIEF_SHOWERS,NIGHT_MIST,NIGHT_MIST,NIGHT_CLEAR,NIGHT_CLEAR,NIGHT_CLEAR,CLEAR,CLEAR,CLEAR,CLEAR,CLEAR,CLEAR","Onshore,Offshore,Offshore,Offshore,Cross-shore,Offshore,Offshore,Cross-shore,Cross-shore,Cross-shore,Cross-shore,Cross-shore,Cross-shore",13
5842041f4e65fad6a7708960,2024_05_05,34.39836265281686,-119.70213,Leadbetter Point,1.1538461538461537,0.03,0.3007692307692308,15,15,"MOSTLY_CLEAR,NIGHT_FOG,NIGHT_MOSTLY_CLEAR,NIGHT_CLEAR,NIGHT_CLEAR,NIGHT_CLEAR,NIGHT_CLEAR,CLEAR,CLEAR,CLEAR,CLEAR,CLEAR,CLEAR","Offshore,Offshore,Cross-shore,Offshore,Offshore,Offshore,Offshore,Offshore,Offshore,Cross-shore,Offshore,Offshore,Onshore",13
5842041f4e65fad6a7708961,2024_05_05,34.46052293893899,-120.07328,Refugio,1,0.045384615384615384,0.3476923076923077,14,14,"CLEAR,NIGHT_CLEAR,NIGHT_CLEAR,NIGHT_CLEAR,NIGHT_CLEAR,NIGHT_CLEAR,NIGHT_CLEAR,CLEAR,CLEAR,CLEAR,CLEAR,CLEAR,CLEAR","Offshore,Offshore,Offshore,Offshore,Offshore,Offshore,Offshore,Offshore,Offshore,Offshore,Offshore,Offshore,Offshore",13
5842041f4e65fad6a7708962,2024_05_05,34.40754276777778,-119.87639,Devereux,1.4615384615384615,0.21461538461538462,0.5184615384615384,15,15,"MIST,NIGHT_MIST,NIGHT_CLEAR,NIGHT_CLEAR,NIGHT_CLEAR,NIGHT_CLEAR,NIGHT_CLEAR,CLEAR,CLEAR,CLEAR,CLEAR,CLEAR,CLEAR","Cross-shore,Offshore,Offshore,Offshore,Offshore,Offshore,Offshore,Offshore,Offshore,Offshore,Offshore,Offshore,Offshore",13
5842041f4e65fad6a7708963,2024_05_05,34.27479983305182,-119.3133222656776,Ventura Overhead,1.1538461538461537,0.47307692307692306,0.7769230769230769,15,15,"MIST,NIGHT_BRIEF_SHOWERS,NIGHT_MIST,NIGHT_MOSTLY_CLOUDY,NIGHT_CLEAR,NIGHT_CLEAR,NIGHT_CLEAR,CLEAR,CLEAR,CLEAR,CLEAR,CLEAR,CLEAR","Onshore,Onshore,Onshore,Onshore,Onshore,Onshore,Onshore,Onshore,Onshore,Onshore,Onshore,Onshore,Onshore",13
5842041f4e65fad6a7708964,2024_05_05,34.41023236011655,-119.88261,Sands,1.0769230769230769,0.2530769230769231,0.5584615384615385,15,15,"MIST,NIGHT_MIST,NIGHT_CLEAR,NIGHT_CLEAR,NIGHT_CLEAR,NIGHT_CLEAR,NIGHT_CLEAR,CLEAR,CLEAR,CLEAR,CLEAR,CLEAR,CLEAR","Onshore,Onshore,Cross-shore,Cross-shore,Cross-shore,Cross-shore,Cross-shore,Cross-shore,Cross-shore,Cross-shore,Cross-shore,Cross-shore,Cross-shore",13
5842041f4e65fad6a7708966,2024_05_05,34.40450193869233,-119.68752,Sandspit,0.46153846153846156,0,0.18307692307692308,15,15,"MOSTLY_CLEAR,NIGHT_FOG,NIGHT_MOSTLY_CLOUDY,NIGHT_CLEAR,NIGHT_CLEAR,NIGHT_CLEAR,NIGHT_CLEAR,CLEAR,CLEAR,CLEAR,CLEAR,CLEAR,CLEAR","Cross-shore,Offshore,Offshore,Offshore,Offshore,Offshore,Offshore,Offshore,Offshore,Cross-shore,Cross-shore,Offshore,Onshore",13
5842041f4e65fad6a7708967,2024_05_05,34.41549098334453,-119.6375149840203,Hammond's,1.5384615384615385,0.06999999999999999,0.3376923076923077,15,15,"CLEAR,NIGHT_BRIEF_SHOWERS,NIGHT_MOSTLY_CLOUDY,NIGHT_CLEAR,NIGHT_CLEAR,NIGHT_CLEAR,NIGHT_CLEAR,CLEAR,CLEAR,CLEAR,CLEAR,CLEAR,CLEAR","Cross-shore,Cross-shore,Offshore,Cross-shore,Cross-shore,Offshore,Offshore,Offshore,Offshore,Offshore,Cross-shore,Cross-shore,Cross-shore",13
5842041f4e65fad6a7708968,2024_05_05,34.45759322742309,-120.02203,El Capitan,1.6923076923076923,0.12384615384615384,0.42923076923076925,15,15,"MOSTLY_CLEAR,NIGHT_BRIEF_SHOWERS,NIGHT_CLEAR,NIGHT_CLEAR,NIGHT_CLEAR,NIGHT_CLEAR,NIGHT_CLEAR,CLEAR,CLEAR,CLEAR,CLEAR,CLEAR,CLEAR","Cross-shore,Cross-shore,Offshore,Offshore,Offshore,Offshore,Offshore,Offshore,Offshore,Offshore,Offshore,Offshore,Offshore",13
5842041f4e65fad6a770896c,2024_05_05,34.405117655616,-119.84317,Campus Point,1.2307692307692308,0.11538461538461538,0.41846153846153844,15,15,"CLEAR,NIGHT_MOSTLY_CLOUDY,NIGHT_CLEAR,NIGHT_CLEAR,NIGHT_CLEAR,NIGHT_CLEAR,NIGHT_CLEAR,CLEAR,CLEAR,CLEAR,CLEAR,CLEAR,CLEAR","Cross-shore,Offshore,Offshore,Offshore,Offshore,Offshore,Offshore,Offshore,Offshore,Offshore,Offshore,Offshore,Offshore",13
5842041f4e65fad6a770896e,2024_05_05,34.38935162233354,-119.51955,Carpinteria State Beach,1.3076923076923077,0.33999999999999997,0.6446153846153846,15,15,"MIST,NIGHT_FOG,NIGHT_MIST,NIGHT_CLEAR,NIGHT_CLEAR,NIGHT_CLEAR,NIGHT_CLEAR,CLEAR,CLEAR,CLEAR,CLEAR,CLEAR,CLEAR","Onshore,Onshore,Cross-shore,Onshore,Onshore,Onshore,Onshore,Offshore,Cross-shore,Onshore,Onshore,Onshore,Offshore",13
5842041f4e65fad6a770896f,2024_05_05,37.48296565175612,-122.45493,Half Moon Bay,1.6153846153846154,0.953076923076923,1.2246153846153847,14,14,"MIST,NIGHT_MOSTLY_CLEAR,NIGHT_CLEAR,NIGHT_MOSTLY_CLOUDY,NIGHT_CLEAR,NIGHT_CLEAR,NIGHT_MOSTLY_CLOUDY,CLEAR,CLEAR,CLEAR,CLEAR,CLEAR,CLEAR","Onshore,Onshore,Onshore,Onshore,Onshore,Cross-shore,Cross-shore,Cross-shore,Cross-shore,Onshore,Cross-shore,Cross-shore,Cross-shore",13
5842041f4e65fad6a7708970,2024_05_05,37.499,-122.471,Princeton Jetty,1.6923076923076923,0.7538461538461538,1.0476923076923077,14,14,"MOSTLY_CLEAR,NIGHT_MOSTLY_CLEAR,NIGHT_CLEAR,NIGHT_MOSTLY_CLOUDY,NIGHT_MOSTLY_CLOUDY,NIGHT_MOSTLY_CLOUDY,NIGHT_MOSTLY_CLOUDY,MOSTLY_CLEAR,CLEAR,MOSTLY_CLEAR,CLEAR,CLEAR,CLEAR","Onshore,Cross-shore,Onshore,Cross-shore,Cross-shore,Cross-shore,Cross-shore,Cross-shore,Cross-shore,Cross-shore,Cross-shore,Cross-shore,Cross-shore",13
5842041f4e65fad6a7708972,2024_05_05,37.35699547365155,-122.4069534707252,Tunitas Creek,2,1.6284615384615384,1.9353846153846153,14,14,"CLEAR,NIGHT_CLEAR,NIGHT_MOSTLY_CLOUDY,NIGHT_CLEAR,NIGHT_CLEAR,NIGHT_CLEAR,NIGHT_CLEAR,CLEAR,CLEAR,CLEAR,CLEAR,CLEAR,CLEAR","Cross-shore,Onshore,Onshore,Onshore,Onshore,Cross-shore,Cross-shore,Cross-shore,Cross-shore,Cross-shore,Cross-shore,Cross-shore,Cross-shore",13
5842041f4e65fad6a7708974,2024_05_05,37.54735589428842,-122.51611,Montara,1.6153846153846154,1.42,1.726923076923077,14,14,"MOSTLY_CLEAR,NIGHT_CLEAR,NIGHT_MOSTLY_CLOUDY,NIGHT_MOSTLY_CLOUDY,NIGHT_MOSTLY_CLOUDY,NIGHT_MOSTLY_CLOUDY,NIGHT_MOSTLY_CLOUDY,MOSTLY_CLEAR,CLEAR,CLEAR,CLEAR,CLEAR,CLEAR","Cross-shore,Onshore,Onshore,Onshore,Onshore,Onshore,Onshore,Onshore,Onshore,Onshore,Onshore,Onshore,Onshore",13
5842041f4e65fad6a7708975,2024_05_05,34.3869373724559,-119.5142334209018,Tarpits,1.2307692307692308,0.30615384615384617,0.6076923076923076,15,15,"CLEAR,NIGHT_BRIEF_SHOWERS,NIGHT_FOG,NIGHT_MIST,NIGHT_CLEAR,NIGHT_CLEAR,NIGHT_CLEAR,CLEAR,CLEAR,CLEAR,CLEAR,CLEAR,CLEAR","Onshore,Onshore,Offshore,Cross-shore,Cross-shore,Cross-shore,Cross-shore,Cross-shore,Cross-shore,Cross-shore,Onshore,Onshore,Offshore",13
5842041f4e65fad6a7708976,2024_05_05,37.59881852720143,-122.50463,Linda Mar,1.6538461538461537,0.3078435897435898,0.6115717948717949,14,14,"MOSTLY_CLEAR,NIGHT_MOSTLY_CLEAR,NIGHT_CLEAR,NIGHT_MOSTLY_CLOUDY,NIGHT_MOSTLY_CLOUDY,NIGHT_MOSTLY_CLOUDY,NIGHT_MOSTLY_CLEAR,MOSTLY_CLEAR,CLEAR,CLEAR,CLEAR,CLEAR,CLEAR","Onshore,Onshore,Onshore,Onshore,Onshore,Onshore,Onshore,Onshore,Onshore,Onshore,Onshore,Onshore,Onshore",13
5842041f4e65fad6a7708978,2024_05_05,37.59883098461164,-122.5143843582282,Pedro Point,2,1.2823076923076924,1.58,14,14,"CLEAR,NIGHT_CLEAR,NIGHT_CLEAR,NIGHT_BRIEF_SHOWERS,NIGHT_MOSTLY_CLOUDY,NIGHT_MOSTLY_CLOUDY,NIGHT_CLEAR,CLEAR,CLEAR,CLEAR,CLEAR,CLEAR,CLEAR","Cross-shore,Onshore,Onshore,Onshore,Onshore,Onshore,Onshore,Onshore,Cross-shore,Onshore,Onshore,Onshore,Onshore",13
5842041f4e65fad6a7708979,2024_05_05,37.61081996647663,-122.49733,Rockaway,2.8461538461538463,1.3446153846153845,1.63,14,14,"MOSTLY_CLEAR,NIGHT_MOSTLY_CLEAR,NIGHT_CLEAR,NIGHT_MOSTLY_CLOUDY,NIGHT_MOSTLY_CLOUDY,NIGHT_MOSTLY_CLOUDY,NIGHT_MOSTLY_CLEAR,MOSTLY_CLEAR,CLEAR,CLEAR,CLEAR,CLEAR,CLEAR","Cross-shore,Cross-shore,Cross-shore,Onshore,Onshore,Onshore,Onshore,Onshore,Onshore,Onshore,Onshore,Onshore,Cross-shore",13
5842041f4e65fad6a770897a,2024_05_05,37.809987384424446,-122.47514,Fort Point,2.4615384615384617,0.8346153846153846,1.14,14,14,"MOSTLY_CLOUDY,NIGHT_CLEAR,NIGHT_MOSTLY_CLOUDY,NIGHT_MOSTLY_CLEAR,NIGHT_MOSTLY_CLOUDY,NIGHT_CLEAR,NIGHT_CLEAR,CLEAR,CLEAR,CLEAR,CLEAR,CLEAR,CLEAR","Cross-shore,Cross-shore,Cross-shore,Cross-shore,Cross-shore,Cross-shore,Cross-shore,Cross-shore,Cross-shore,Cross-shore,Cross-shore,Cross-shore,Cross-shore",13
5842041f4e65fad6a770897c,2024_05_05,37.63422542967464,-122.4951,Sharp Park,2.3846153846153846,1.44,1.7446153846153847,14,14,"MIST,NIGHT_MOSTLY_CLEAR,NIGHT_CLEAR,NIGHT_MOSTLY_CLOUDY,NIGHT_MOSTLY_CLOUDY,NIGHT_MOSTLY_CLOUDY,NIGHT_MOSTLY_CLEAR,CLEAR,CLEAR,CLEAR,CLEAR,CLEAR,CLEAR","Cross-shore,Onshore,Onshore,Onshore,Onshore,Onshore,Onshore,Onshore,Onshore,Onshore,Onshore,Onshore,Cross-shore",13
5842041f4e65fad6a770897d,2024_05_05,37.27313605072472,-122.4127387912554,Pescadero,1.5384615384615385,1.5423076923076924,1.8476923076923077,14,14,"MOSTLY_CLEAR,NIGHT_MOSTLY_CLOUDY,NIGHT_MOSTLY_CLOUDY,NIGHT_CLEAR,NIGHT_MOSTLY_CLOUDY,NIGHT_MOSTLY_CLOUDY,NIGHT_MOSTLY_CLOUDY,MOSTLY_CLOUDY,MOSTLY_CLEAR,CLEAR,CLEAR,CLEAR,CLEAR","Offshore,Onshore,Onshore,Onshore,Onshore,Onshore,Onshore,Onshore,Onshore,Onshore,Onshore,Onshore,Onshore",13
5842041f4e65fad6a770897e,2024_05_05,37.18140279972666,-122.3926685899327,Pigeon Point,3.076923076923077,1.4784615384615385,1.7607692307692309,14,14,"CLEAR,NIGHT_MOSTLY_CLOUDY,NIGHT_MOSTLY_CLOUDY,NIGHT_CLEAR,NIGHT_MOSTLY_CLOUDY,NIGHT_HEAVY_SHOWERS,NIGHT_MOSTLY_CLOUDY,CLEAR,MOSTLY_CLOUDY,CLEAR,CLEAR,CLEAR,CLEAR","Offshore,Cross-shore,Offshore,Cross-shore,Cross-shore,Offshore,Offshore,Offshore,Offshore,Offshore,Offshore,Offshore,Offshore",13
5842041f4e65fad6a770897f,2024_05_05,37.11578956919415,-122.314699271291,Ano Nuevo,2.769230769230769,0.8792307692307693,1.11,14,14,"MOSTLY_CLEAR,NIGHT_MOSTLY_CLOUDY,NIGHT_MOSTLY_CLOUDY,NIGHT_MOSTLY_CLEAR,NIGHT_CLEAR,NIGHT_CLEAR,NIGHT_CLEAR,MOSTLY_CLOUDY,MOSTLY_CLOUDY,CLEAR,CLEAR,CLEAR,CLEAR","Offshore,Offshore,Offshore,Offshore,Offshore,Offshore,Offshore,Offshore,Offshore,Offshore,Offshore,Offshore,Offshore",13
5842041f4e65fad6a7708980,2024_05_05,37.09520872681598,-122.2805474707768,Waddell Creek,2.769230769230769,1.1915384615384614,1.4792307692307691,14,14,"MOSTLY_CLOUDY,NIGHT_CLEAR,NIGHT_MOSTLY_CLOUDY,NIGHT_MOSTLY_CLEAR,NIGHT_CLEAR,NIGHT_CLEAR,NIGHT_CLEAR,CLEAR,MOSTLY_CLOUDY,CLEAR,CLEAR,CLEAR,CLEAR","Cross-shore,Onshore,Onshore,Onshore,Cross-shore,Cross-shore,Offshore,Cross-shore,Cross-shore,Cross-shore,Cross-shore,Onshore,Onshore",13
5842041f4e65fad6a7708981,2024_05_05,36.96512852130351,-122.1252825495626,Four Mile,2.4615384615384617,0.8076923076923077,1.0761538461538462,13,13,"OVERCAST,NIGHT_MOSTLY_CLEAR,NIGHT_MOSTLY_CLEAR,NIGHT_CLEAR,NIGHT_CLEAR,NIGHT_MOSTLY_CLEAR,NIGHT_MOSTLY_CLEAR,CLEAR,MOSTLY_CLEAR,CLEAR,CLEAR,CLEAR,CLEAR","Cross-shore,Offshore,Cross-shore,Offshore,Offshore,Offshore,Offshore,Offshore,Offshore,Cross-shore,Cross-shore,Cross-shore,Cross-shore",13
5842041f4e65fad6a7708982,2024_05_05,37.04122807048655,-122.23337,Scott Creek,2.6153846153846154,1.1823076923076923,1.486923076923077,13.615384615384615,13.615384615384615,"CLEAR,NIGHT_MOSTLY_CLEAR,NIGHT_MOSTLY_CLEAR,NIGHT_MOSTLY_CLEAR,NIGHT_CLEAR,NIGHT_CLEAR,NIGHT_BRIEF_SHOWERS_POSSIBLE,CLEAR,CLEAR,CLEAR,CLEAR,CLEAR,CLEAR","Cross-shore,Offshore,Offshore,Offshore,Offshore,Offshore,Offshore,Cross-shore,Cross-shore,Cross-shore,Cross-shore,Cross-shore,Cross-shore",13
5842041f4e65fad6a7708983,2024_05_05,37.02350229387179,-122.21908,Davenport,2.6923076923076925,1.1730769230769231,1.396153846153846,13,13,"MOSTLY_CLOUDY,NIGHT_CLEAR,NIGHT_MOSTLY_CLEAR,NIGHT_BRIEF_SHOWERS,NIGHT_CLEAR,NIGHT_CLEAR,NIGHT_SHOWERS,CLEAR,CLEAR,CLEAR,CLEAR,CLEAR,CLEAR","Cross-shore,Offshore,Offshore,Offshore,Offshore,Offshore,Offshore,Cross-shore,Cross-shore,Cross-shore,Cross-shore,Cross-shore,Cross-shore",13
5842041f4e65fad6a7708986,2024_05_05,36.94905295955728,-122.06118,Natural Bridges,2.8461538461538463,1.2146153846153847,1.4638461538461538,13,13,"OVERCAST,NIGHT_CLEAR,NIGHT_MOSTLY_CLEAR,NIGHT_CLEAR,NIGHT_CLEAR,NIGHT_CLEAR,NIGHT_CLEAR,MOSTLY_CLEAR,CLEAR,CLEAR,CLEAR,CLEAR,CLEAR","Cross-shore,Cross-shore,Cross-shore,Offshore,Offshore,Cross-shore,Offshore,Cross-shore,Offshore,Cross-shore,Cross-shore,Cross-shore,Cross-shore",13
5842041f4e65fad6a7708987,2024_05_05,36.95154854910425,-122.04207,Mitchell's Cove,2.6923076923076925,0.6276923076923077,0.9338461538461539,13.615384615384615,13.615384615384615,"OVERCAST,NIGHT_CLEAR,NIGHT_CLEAR,NIGHT_CLEAR,NIGHT_CLEAR,NIGHT_CLEAR,NIGHT_CLEAR,MOSTLY_CLEAR,CLEAR,CLEAR,CLEAR,CLEAR,CLEAR","Cross-shore,Offshore,Offshore,Offshore,Offshore,Offshore,Offshore,Offshore,Onshore,Offshore,Cross-shore,Cross-shore,Cross-shore",13
5842041f4e65fad6a770898a,2024_05_05,36.9572312370203,-121.98177,26th Ave,2.769230769230769,0.8861538461538462,1.0961538461538463,14,14,"OVERCAST,NIGHT_CLEAR,NIGHT_CLEAR,NIGHT_CLEAR,NIGHT_CLEAR,NIGHT_CLEAR,NIGHT_MIST,CLEAR,CLEAR,CLEAR,CLEAR,CLEAR,CLEAR","Cross-shore,Cross-shore,Onshore,Cross-shore,Onshore,Offshore,Cross-shore,Offshore,Cross-shore,Cross-shore,Cross-shore,Cross-shore,Onshore",13
5842041f4e65fad6a770898e,2024_05_05,36.91899972819882,-121.85536,Manresa,2.6923076923076925,1.0046153846153847,1.2223076923076923,14,14,"DRIZZLE,NIGHT_CLEAR,NIGHT_CLEAR,NIGHT_MOSTLY_CLEAR,NIGHT_CLEAR,NIGHT_CLEAR,NIGHT_CLEAR,CLEAR,MOSTLY_CLEAR,CLEAR,MOSTLY_CLEAR,CLEAR,CLEAR","Cross-shore,Onshore,Onshore,Onshore,Onshore,Cross-shore,Offshore,Onshore,Onshore,Onshore,Onshore,Onshore,Onshore",13
5842041f4e65fad6a7708990,2024_05_05,34.45747731928454,-120.34242,The Ranch,1.3846153846153846,0.28692307692307695,0.5923076923076923,13.615384615384615,13.615384615384615,"CLEAR,NIGHT_CLEAR,NIGHT_CLEAR,NIGHT_CLEAR,NIGHT_CLEAR,NIGHT_CLEAR,NIGHT_CLEAR,CLEAR,CLEAR,CLEAR,CLEAR,CLEAR,CLEAR","Cross-shore,Offshore,Offshore,Offshore,Offshore,Offshore,Offshore,Offshore,Offshore,Offshore,Offshore,Offshore,Offshore",13
5842041f4e65fad6a7708991,2024_05_05,34.50875036590315,-120.50348,Jalama,1.0769230769230769,0.5892307692307692,0.8923076923076922,12.615384615384615,12.615384615384615,"MIST,NIGHT_CLEAR,NIGHT_CLEAR,NIGHT_CLEAR,NIGHT_CLEAR,NIGHT_CLEAR,NIGHT_CLEAR,CLEAR,CLEAR,CLEAR,CLEAR,CLEAR,CLEAR","Onshore,Cross-shore,Cross-shore,Cross-shore,Cross-shore,Cross-shore,Cross-shore,Cross-shore,Cross-shore,Cross-shore,Cross-shore,Cross-shore,Cross-shore",13
5842041f4e65fad6a7708996,2024_05_05,34.68700870220497,-120.6111611019887,Surf Beach,1.3076923076923077,1.0976923076923077,1.403076923076923,11.615384615384615,11.615384615384615,"MIST,NIGHT_CLEAR,NIGHT_CLEAR,NIGHT_DRIZZLE,NIGHT_CLOUDY,NIGHT_CLEAR,NIGHT_CLEAR,MOSTLY_CLEAR,CLEAR,CLEAR,CLEAR,CLEAR,CLEAR","Onshore,Onshore,Onshore,Onshore,Onshore,Onshore,Onshore,Onshore,Onshore,Onshore,Onshore,Onshore,Onshore",13
5842041f4e65fad6a770899c,2024_05_05,35.5730538161116,-121.1143362345574,Moonstone,2.3076923076923075,0.7646153846153846,1.0323076923076924,10.615384615384615,10.615384615384615,"MIST,NIGHT_CLEAR,NIGHT_CLEAR,NIGHT_CLEAR,NIGHT_CLEAR,NIGHT_CLEAR,NIGHT_CLEAR,CLEAR,CLEAR,CLEAR,CLEAR,CLEAR,CLEAR","Onshore,Cross-shore,Cross-shore,Cross-shore,Cross-shore,Cross-shore,Offshore,Onshore,Onshore,Onshore,Onshore,Onshore,Onshore",13
5842041f4e65fad6a770899d,2024_05_05,35.61533716776573,-121.1502053073914,Pico Creek,2.3846153846153846,0.9046153846153846,1.1715384615384616,10.615384615384615,10.615384615384615,"LIGHT_RAIN,NIGHT_CLEAR,NIGHT_CLEAR,NIGHT_CLEAR,NIGHT_CLEAR,NIGHT_CLEAR,NIGHT_CLEAR,CLEAR,CLEAR,CLEAR,CLEAR,CLEAR,CLEAR","Cross-shore,Offshore,Cross-shore,Offshore,Offshore,Offshore,Offshore,Onshore,Onshore,Onshore,Onshore,Onshore,Onshore",13
5842041f4e65fad6a770899e,2024_05_05,35.56829031927379,-121.11207,Santa Rosa Creek,1.6923076923076923,0.7646153846153846,1.0323076923076924,10.615384615384615,10.615384615384615,"LIGHT_RAIN,NIGHT_CLEAR,NIGHT_CLEAR,NIGHT_CLEAR,NIGHT_MOSTLY_CLEAR,NIGHT_CLEAR,NIGHT_CLEAR,CLEAR,CLEAR,CLEAR,CLEAR,CLEAR,CLEAR","Onshore,Cross-shore,Cross-shore,Cross-shore,Cross-shore,Cross-shore,Offshore,Cross-shore,Cross-shore,Cross-shore,Onshore,Onshore,Cross-shore",13
5842041f4e65fad6a77089a2,2024_05_05,35.44820114936284,-120.90715,"Cayucos Pier, Southside ",1.9230769230769231,0.3030769230769231,0.6076923076923076,11,11,"MIST,NIGHT_CLEAR,NIGHT_CLEAR,NIGHT_CLEAR,NIGHT_MIST,NIGHT_CLEAR,NIGHT_CLEAR,CLEAR,MOSTLY_CLEAR,CLEAR,CLEAR,CLEAR,CLEAR","Onshore,Cross-shore,Offshore,Offshore,Offshore,Offshore,Offshore,Cross-shore,Cross-shore,Offshore,Offshore,Cross-shore,Cross-shore",13
5842041f4e65fad6a77089a4,2024_05_05,35.30143372628852,-120.877819239902,Cable Landing,2.1538461538461537,1.4230769230769231,1.7276923076923076,11,11,"BRIEF_SHOWERS,NIGHT_CLEAR,NIGHT_CLEAR,NIGHT_MOSTLY_CLOUDY,NIGHT_CLEAR,NIGHT_CLEAR,NIGHT_CLEAR,CLEAR,CLEAR,CLEAR,CLEAR,CLEAR,CLEAR","Cross-shore,Onshore,Onshore,Onshore,Onshore,Offshore,Offshore,Onshore,Onshore,Onshore,Onshore,Onshore,Onshore",13
5842041f4e65fad6a77089a9,2024_05_05,35.61269103500222,-121.14807,San Simeon,1.9230769230769231,0.56,0.7753846153846153,10.615384615384615,10.615384615384615,"DRIZZLE,NIGHT_CLEAR,NIGHT_CLEAR,NIGHT_CLEAR,NIGHT_CLEAR,NIGHT_CLEAR,NIGHT_CLEAR,CLEAR,CLEAR,CLEAR,CLEAR,CLEAR,CLEAR","Onshore,Cross-shore,Cross-shore,Cross-shore,Offshore,Offshore,Offshore,Cross-shore,Cross-shore,Cross-shore,Cross-shore,Cross-shore,Cross-shore",13
5842041f4e65fad6a77089ab,2024_05_05,35.1775325966252,-120.73411,Avila Beach,1,0.008461538461538461,0.3069230769230769,11,11,"MOSTLY_CLOUDY,NIGHT_CLEAR,NIGHT_CLEAR,NIGHT_CLEAR,NIGHT_CLEAR,NIGHT_CLEAR,NIGHT_CLEAR,CLEAR,CLEAR,CLEAR,CLEAR,CLEAR,CLEAR","Onshore,Cross-shore,Onshore,Cross-shore,Offshore,Offshore,Offshore,Offshore,Offshore,Cross-shore,Cross-shore,Cross-shore,Onshore",13
5842041f4e65fad6a77089ac,2024_05_05,35.13877877884115,-120.64535,Pismo Beach Pier,2.0384615384615383,0.4826615384615385,0.7861538461538462,12,12,"MOSTLY_CLOUDY,NIGHT_CLEAR,NIGHT_CLEAR,NIGHT_CLEAR,NIGHT_CLEAR,NIGHT_CLEAR,NIGHT_CLEAR,CLEAR,CLEAR,CLEAR,CLEAR,CLEAR,CLEAR","Cross-shore,Cross-shore,Offshore,Offshore,Onshore,Cross-shore,Onshore,Onshore,Onshore,Onshore,Cross-shore,Onshore,Onshore",13
5842041f4e65fad6a77089ad,2024_05_05,46.8907710233147,-124.12964,Westport/Olympic Peninsula,1.6153846153846154,0.9576923076923076,1.2530769230769232,12,12,"LIGHT_RAIN,NIGHT_OVERCAST,NIGHT_OVERCAST,NIGHT_OVERCAST,NIGHT_OVERCAST,NIGHT_OVERCAST,MOSTLY_CLOUDY,OVERCAST,MIST,DRIZZLE,DRIZZLE,MIST,MIST","Cross-shore,Onshore,Onshore,Onshore,Onshore,Onshore,Onshore,Onshore,Onshore,Onshore,Onshore,Onshore,Onshore",13
5842041f4e65fad6a77089ae,2024_05_05,46.35185177248545,-124.06747,Long Beach Peninsula,1.6153846153846154,1.5338461538461539,1.8192307692307692,12,12,"LIGHT_RAIN,NIGHT_LIGHT_RAIN,NIGHT_OVERCAST,NIGHT_DRIZZLE,NIGHT_OVERCAST,NIGHT_DRIZZLE,OVERCAST,OVERCAST,OVERCAST,DRIZZLE,DRIZZLE,DRIZZLE,OVERCAST","Onshore,Onshore,Onshore,Onshore,Onshore,Onshore,Onshore,Onshore,Onshore,Onshore,Onshore,Onshore,Onshore",13
5842041f4e65fad6a77089af,2024_05_05,47.90649175554033,-124.63709,La Push,2.6923076923076925,1.01,1.313076923076923,11.615384615384615,11.615384615384615,"DRIZZLE,NIGHT_MOSTLY_CLOUDY,NIGHT_MOSTLY_CLOUDY,NIGHT_MOSTLY_CLOUDY,NIGHT_CLOUDY,NIGHT_OVERCAST,OVERCAST,MIST,MIST,MIST,MIST,MIST,MIST","Cross-shore,Onshore,Onshore,Onshore,Onshore,Onshore,Onshore,Onshore,Onshore,Onshore,Onshore,Onshore,Onshore",13
5842041f4e65fad6a77089b0,2024_05_05,42.04368239985442,-124.26828,Brookings Jetty,2.3846153846153846,0.7121646153846154,1.1127576923076923,11,11,"CLEAR,NIGHT_CLEAR,NIGHT_MOSTLY_CLEAR,NIGHT_MOSTLY_CLOUDY,NIGHT_CLEAR,NIGHT_MOSTLY_CLOUDY,NIGHT_MOSTLY_CLOUDY,CLEAR,MOSTLY_CLOUDY,CLOUDY,MIST,SHOWERS,MOSTLY_CLOUDY","Cross-shore,Offshore,Cross-shore,Cross-shore,Cross-shore,Onshore,Onshore,Onshore,Onshore,Onshore,Onshore,Onshore,Onshore",13
5842041f4e65fad6a77089b1,2024_05_05,42.74071837900346,-124.4983727491047,Port Orford,2.230769230769231,0.8161538461538461,1.0592307692307692,11,11,"CLEAR,NIGHT_CLEAR,NIGHT_MOSTLY_CLOUDY,NIGHT_OVERCAST,NIGHT_CLEAR,NIGHT_MOSTLY_CLOUDY,NIGHT_MOSTLY_CLOUDY,MOSTLY_CLOUDY,MOSTLY_CLOUDY,SHOWERS,MOSTLY_CLOUDY,MOSTLY_CLOUDY,MOSTLY_CLOUDY","Offshore,Offshore,Cross-shore,Cross-shore,Cross-shore,Cross-shore,Cross-shore,Onshore,Onshore,Onshore,Onshore,Onshore,Onshore",13
5842041f4e65fad6a77089b2,2024_05_05,44.01532689312291,-124.13865,Florence South Jetty,1.0769230769230769,1.6515384615384616,1.9376923076923076,11,11,"RAIN,NIGHT_OVERCAST,NIGHT_CLOUDY,NIGHT_CLOUDY,NIGHT_CLOUDY,NIGHT_OVERCAST,NIGHT_MOSTLY_CLOUDY,MOSTLY_CLOUDY,LIGHT_RAIN,LIGHT_RAIN,RAIN,RAIN,OVERCAST","Onshore,Onshore,Onshore,Onshore,Onshore,Onshore,Onshore,Onshore,Onshore,Onshore,Onshore,Onshore,Onshore",13
5842041f4e65fad6a77089b3,2024_05_05,42.41812540774362,-124.42945,Gold Beach South Jetty,2.5384615384615383,1.2492307692307694,1.5,11,11,"CLEAR,NIGHT_MOSTLY_CLOUDY,NIGHT_MOSTLY_CLOUDY,NIGHT_MOSTLY_CLOUDY,NIGHT_MOSTLY_CLOUDY,NIGHT_MOSTLY_CLOUDY,NIGHT_MOSTLY_CLOUDY,MOSTLY_CLOUDY,MOSTLY_CLOUDY,BRIEF_SHOWERS,MOSTLY_CLOUDY,MOSTLY_CLOUDY,MOSTLY_CLEAR","Cross-shore,Cross-shore,Cross-shore,Cross-shore,Cross-shore,Onshore,Onshore,Onshore,Onshore,Onshore,Onshore,Onshore,Onshore",13
5842041f4e65fad6a77089b4,2024_05_05,44.95857310226525,-124.0219,Lincoln City,1.6153846153846154,1.5769230769230769,1.846923076923077,11,11,"LIGHT_RAIN,NIGHT_LIGHT_RAIN,NIGHT_CLOUDY,NIGHT_DRIZZLE,NIGHT_LIGHT_RAIN,NIGHT_OVERCAST,OVERCAST,OVERCAST,MOSTLY_CLOUDY,OVERCAST,BRIEF_SHOWERS,MOSTLY_CLOUDY,OVERCAST","Onshore,Onshore,Onshore,Onshore,Onshore,Onshore,Onshore,Onshore,Onshore,Onshore,Onshore,Onshore,Onshore",13
5842041f4e65fad6a77089b5,2024_05_05,44.63792761362982,-124.0657,Newport,1.8461538461538463,1.7553846153846153,2.02,12,12,"LIGHT_RAIN,NIGHT_CLOUDY,NIGHT_CLOUDY,NIGHT_CLOUDY,NIGHT_CLOUDY,NIGHT_CLOUDY,OVERCAST,OVERCAST,MOSTLY_CLOUDY,MOSTLY_CLOUDY,RAIN,DRIZZLE,OVERCAST","Onshore,Onshore,Onshore,Onshore,Onshore,Onshore,Onshore,Onshore,Onshore,Onshore,Onshore,Onshore,Onshore",13
5842041f4e65fad6a77089b6,2024_05_05,45.61468496266301,-123.94643,Rockaway Beach,2,1.6176923076923078,1.893076923076923,11,11,"LIGHT_SHOWERS_POSSIBLE,NIGHT_RAIN_AND_FOG,NIGHT_RAIN,NIGHT_LIGHT_RAIN,NIGHT_LIGHT_RAIN,NIGHT_OVERCAST,OVERCAST,BRIEF_SHOWERS,BRIEF_SHOWERS,MOSTLY_CLOUDY,MOSTLY_CLOUDY,OVERCAST,DRIZZLE","Onshore,Onshore,Onshore,Onshore,Onshore,Onshore,Onshore,Onshore,Onshore,Onshore,Onshore,Onshore,Onshore",13
5842041f4e65fad6a77089b7,2024_05_05,45.20252914186085,-123.96975,Pacific City,2,1.2961538461538462,1.5876923076923077,11.384615384615385,11.384615384615385,"LIGHT_RAIN,NIGHT_LIGHT_RAIN,NIGHT_CLOUDY,NIGHT_LIGHT_RAIN,NIGHT_LIGHT_RAIN,NIGHT_DRIZZLE,OVERCAST,LIGHT_RAIN,MOSTLY_CLOUDY,MOSTLY_CLOUDY,MOSTLY_CLOUDY,MOSTLY_CLOUDY,RAIN","Onshore,Onshore,Onshore,Onshore,Onshore,Onshore,Onshore,Onshore,Onshore,Onshore,Onshore,Onshore,Onshore",13
5842041f4e65fad6a77089b8,2024_05_05,45.88179930310263,-123.96681,Cannon Beach,1.9230769230769231,1.5,1.7676923076923077,11,11,"DRIZZLE,NIGHT_RAIN,NIGHT_RAIN,NIGHT_LIGHT_RAIN,NIGHT_LIGHT_RAIN,NIGHT_OVERCAST,LIGHT_RAIN,OVERCAST,OVERCAST,MOSTLY_CLOUDY,MOSTLY_CLOUDY,MIST,LIGHT_RAIN","Onshore,Onshore,Onshore,Onshore,Onshore,Onshore,Onshore,Onshore,Onshore,Onshore,Onshore,Onshore,Onshore",13
5842041f4e65fad6a77089ba,2024_05_05,40.02528754746774,-124.06372,Shelter Cove,2.6153846153846154,0.43319,0.67686,10,10,"CLEAR,NIGHT_CLEAR,NIGHT_CLEAR,NIGHT_CLEAR,NIGHT_CLEAR,NIGHT_CLEAR,NIGHT_CLEAR,CLEAR,CLEAR,CLEAR,CLEAR,CLEAR,CLEAR","Offshore,Offshore,Offshore,Offshore,Offshore,Offshore,Offshore,Cross-shore,Cross-shore,Cross-shore,Cross-shore,Cross-shore,Cross-shore",13
5842041f4e65fad6a77089bb,2024_05_05,40.76816197136951,-124.24248,Humboldt Harbor Entrance,3,1.533076923076923,1.8161538461538462,11,11,"CLEAR,NIGHT_MOSTLY_CLOUDY,NIGHT_MOSTLY_CLOUDY,NIGHT_MOSTLY_CLOUDY,NIGHT_MOSTLY_CLOUDY,NIGHT_MOSTLY_CLOUDY,NIGHT_MOSTLY_CLOUDY,MOSTLY_CLOUDY,CLEAR,CLEAR,CLEAR,CLEAR,CLEAR","Onshore,Offshore,Offshore,Offshore,Offshore,Offshore,Offshore,Offshore,Offshore,Offshore,Onshore,Onshore,Onshore",13
5842041f4e65fad6a77089bc,2024_05_05,40.76684246920174,-124.23107,North Jetty,3,1.8169230769230769,2.0707692307692307,11,11,"MOSTLY_CLOUDY,NIGHT_MOSTLY_CLOUDY,NIGHT_MOSTLY_CLOUDY,NIGHT_MOSTLY_CLOUDY,NIGHT_MOSTLY_CLOUDY,NIGHT_MOSTLY_CLOUDY,NIGHT_MOSTLY_CLOUDY,CLOUDY,CLEAR,CLEAR,CLEAR,CLEAR,CLEAR","Onshore,Offshore,Offshore,Offshore,Offshore,Offshore,Offshore,Offshore,Offshore,Offshore,Onshore,Onshore,Onshore",13
5842041f4e65fad6a77089be,2024_05_05,41.13016238153297,-124.16466,Sue-meg,2.5384615384615383,1.456923076923077,1.7446153846153847,11,11,"BRIEF_SHOWERS,NIGHT_FOG,NIGHT_MOSTLY_CLOUDY,NIGHT_MOSTLY_CLOUDY,NIGHT_MOSTLY_CLOUDY,NIGHT_MOSTLY_CLOUDY,NIGHT_CLEAR,MOSTLY_CLOUDY,CLEAR,CLEAR,CLEAR,MOSTLY_CLEAR,CLEAR","Onshore,Onshore,Onshore,Onshore,Onshore,Onshore,Onshore,Onshore,Offshore,Onshore,Onshore,Onshore,Onshore",13
5842041f4e65fad6a77089bf,2024_05_05,37.8289474958188,-122.53768,Fort Cronkite/Rodeo Beach,2,1.1515384615384616,1.4584615384615385,13.615384615384615,13.615384615384615,"SHOWERS,NIGHT_MOSTLY_CLEAR,NIGHT_MOSTLY_CLOUDY,NIGHT_MOSTLY_CLEAR,NIGHT_MOSTLY_CLOUDY,NIGHT_CLEAR,NIGHT_CLEAR,CLEAR,CLEAR,CLEAR,CLEAR,CLEAR,CLEAR","Onshore,Cross-shore,Cross-shore,Cross-shore,Cross-shore,Cross-shore,Cross-shore,Cross-shore,Cross-shore,Cross-shore,Cross-shore,Cross-shore,Cross-shore",13
5842041f4e65fad6a77089c0,2024_05_05,41.74415759876137,-124.17717,South Beach CA,2.6153846153846154,0.6961538461538461,0.9861538461538462,11,11,"MOSTLY_CLOUDY,NIGHT_MOSTLY_CLEAR,NIGHT_MOSTLY_CLOUDY,NIGHT_MOSTLY_CLOUDY,NIGHT_FOG,NIGHT_CLOUDY,NIGHT_MOSTLY_CLOUDY,CLEAR,CLEAR,CLEAR,CLEAR,CLEAR,MOSTLY_CLEAR","Cross-shore,Offshore,Offshore,Cross-shore,Offshore,Onshore,Onshore,Onshore,Onshore,Onshore,Onshore,Onshore,Onshore",13
5842041f4e65fad6a77089c1,2024_05_05,37.89801283969752,-122.64519,Stinson Beach,2.923076923076923,0.5392307692307692,0.8438461538461539,12.615384615384615,12.615384615384615,"MIST,NIGHT_BRIEF_SHOWERS,NIGHT_MOSTLY_CLEAR,NIGHT_BRIEF_SHOWERS,NIGHT_FOG,NIGHT_CLEAR,NIGHT_CLEAR,CLEAR,CLEAR,CLEAR,CLEAR,CLEAR,CLEAR","Offshore,Offshore,Offshore,Offshore,Offshore,Offshore,Offshore,Offshore,Offshore,Offshore,Offshore,Offshore,Offshore",13
5842041f4e65fad6a77089c2,2024_05_05,37.90514516176495,-122.68151,Bolinas,2.8461538461538463,0.5087376923076923,0.7949023076923077,12,12,"MIST,NIGHT_MOSTLY_CLOUDY,NIGHT_MOSTLY_CLEAR,NIGHT_MOSTLY_CLOUDY,NIGHT_MOSTLY_CLEAR,NIGHT_MOSTLY_CLEAR,NIGHT_CLEAR,CLEAR,CLEAR,CLEAR,CLEAR,CLEAR,CLEAR","Offshore,Cross-shore,Offshore,Cross-shore,Onshore,Cross-shore,Cross-shore,Offshore,Offshore,Offshore,Offshore,Offshore,Offshore",13
5842041f4e65fad6a77089c3,2024_05_05,38.04892513158693,-122.98925,Point Reyes (north),1,1.9046153846153846,2.1384615384615384,10,10,"CLEAR,NIGHT_MOSTLY_CLOUDY,NIGHT_MOSTLY_CLOUDY,NIGHT_MOSTLY_CLOUDY,NIGHT_BRIEF_SHOWERS,NIGHT_CLEAR,NIGHT_CLEAR,CLEAR,CLEAR,CLEAR,CLEAR,CLEAR,CLEAR","Onshore,Onshore,Onshore,Onshore,Onshore,Onshore,Onshore,Onshore,Onshore,Onshore,Onshore,Onshore,Onshore",13
5842041f4e65fad6a77089c6,2024_05_05,38.31088736605785,-123.0496777333731,Doran Beach,1.2307692307692308,0.13384615384615386,0.43846153846153846,10,10,"MOSTLY_CLEAR,NIGHT_CLEAR,NIGHT_MOSTLY_CLEAR,NIGHT_MOSTLY_CLEAR,NIGHT_CLEAR,NIGHT_CLEAR,NIGHT_CLEAR,CLEAR,CLEAR,CLEAR,CLEAR,CLEAR,CLEAR","Offshore,Offshore,Offshore,Offshore,Offshore,Offshore,Offshore,Offshore,Offshore,Offshore,Offshore,Offshore,Offshore",13
5842041f4e65fad6a77089c7,2024_05_05,38.45077228660809,-123.13008,Russian Rivermouth,2.6153846153846154,1.346153846153846,1.6507692307692308,10,10,"MOSTLY_CLEAR,NIGHT_CLEAR,NIGHT_MOSTLY_CLEAR,NIGHT_CLEAR,NIGHT_CLEAR,NIGHT_CLEAR,NIGHT_CLEAR,CLEAR,CLEAR,CLEAR,CLEAR,CLEAR,CLEAR","Onshore,Cross-shore,Onshore,Cross-shore,Cross-shore,Offshore,Cross-shore,Cross-shore,Onshore,Onshore,Onshore,Onshore,Onshore",13
5842041f4e65fad6a77089c8,2024_05_05,38.35329968518107,-123.06906,Salmon Creek,2.1538461538461537,1.5784615384615384,1.8823076923076922,10,10,"MOSTLY_CLEAR,NIGHT_MOSTLY_CLEAR,NIGHT_MOSTLY_CLEAR,NIGHT_CLEAR,NIGHT_CLEAR,NIGHT_CLEAR,NIGHT_CLEAR,CLEAR,CLEAR,CLEAR,CLEAR,CLEAR,CLEAR","Onshore,Onshore,Onshore,Onshore,Onshore,Onshore,Onshore,Onshore,Onshore,Onshore,Onshore,Onshore,Onshore",13
5842041f4e65fad6a77089c9,2024_05_05,38.6845180197959,-123.4322714291198,Black Point Beach,2.1538461538461537,0.8769230769230769,1.143846153846154,9,9,"MIST,NIGHT_MOSTLY_CLOUDY,NIGHT_CLEAR,NIGHT_CLEAR,NIGHT_CLEAR,NIGHT_CLEAR,NIGHT_CLEAR,CLEAR,CLEAR,CLEAR,CLEAR,CLEAR,CLEAR","Onshore,Onshore,Onshore,Onshore,Onshore,Onshore,Onshore,Onshore,Onshore,Onshore,Onshore,Onshore,Onshore",13
5842041f4e65fad6a77089ca,2024_05_05,43.251076,-70.59144,Ogunquit,1.166153846153846,0.21102564102564103,0.5117871794871796,9,7,"MOSTLY_CLOUDY,NIGHT_MOSTLY_CLOUDY,NIGHT_CLEAR,NIGHT_MOSTLY_CLOUDY,NIGHT_MIST,MOSTLY_CLOUDY,CLEAR,CLEAR,CLEAR,OVERCAST,DRIZZLE,LIGHT_RAIN,LIGHT_RAIN","Onshore,Onshore,Onshore,Onshore,Onshore,Onshore,Onshore,Onshore,Onshore,Onshore,Onshore,Onshore,Onshore",13
5842041f4e65fad6a77089cb,2024_05_05,41.362631366305415,-71.48007,Point Judith,0,-0.0033333333333333335,0.28510564102564107,10,9,"CLEAR,NIGHT_DRIZZLE,NIGHT_CLOUDY,NIGHT_OVERCAST,NIGHT_CLOUDY,MIST,MIST,MIST,MIST,CLOUDY,CLOUDY,BRIEF_SHOWERS_POSSIBLE,BRIEF_SHOWERS_POSSIBLE","Onshore,Onshore,Onshore,Onshore,Onshore,Onshore,Onshore,Onshore,Onshore,Onshore,Onshore,Onshore,Onshore",13
5842041f4e65fad6a77089cd,2024_05_05,41.422678090954726,-71.45413,Monahan's - Narragansett,0.5384615384615384,0.19318,0.30184153846153844,10,10,"CLEAR,NIGHT_CLOUDY,NIGHT_OVERCAST,NIGHT_OVERCAST,NIGHT_CLOUDY,CLOUDY,MIST,MIST,MIST,CLOUDY,OVERCAST,BRIEF_SHOWERS_POSSIBLE,BRIEF_SHOWERS_POSSIBLE","Onshore,Onshore,Onshore,Onshore,Onshore,Onshore,Onshore,Onshore,Onshore,Onshore,Onshore,Onshore,Onshore",13
5842041f4e65fad6a77089ce,2024_05_05,41.469,-71.293,Ruggles - Newport,0.6153846153846154,0.1875476923076923,0.2930453846153846,10,10,"CLEAR,NIGHT_CLOUDY,NIGHT_CLOUDY,NIGHT_OVERCAST,NIGHT_OVERCAST,MIST,MIST,MIST,OVERCAST,OVERCAST,OVERCAST,BRIEF_SHOWERS_POSSIBLE,LIGHT_SHOWERS_POSSIBLE","Cross-shore,Cross-shore,Cross-shore,Cross-shore,Cross-shore,Cross-shore,Cross-shore,Onshore,Onshore,Onshore,Onshore,Onshore,Onshore",13
5842041f4e65fad6a77089cf,2024_05_05,43.175394,-70.606351,Short Sands Beach,1.6153846153846154,0.2561538461538462,0.5607692307692308,8.615384615384615,8.615384615384615,"MOSTLY_CLEAR,NIGHT_MOSTLY_CLOUDY,NIGHT_CLEAR,NIGHT_CLEAR,NIGHT_CLOUDY,CLEAR,CLEAR,CLEAR,CLOUDY,OVERCAST,DRIZZLE,LIGHT_RAIN,DRIZZLE","Onshore,Onshore,Onshore,Onshore,Onshore,Onshore,Onshore,Onshore,Cross-shore,Cross-shore,Onshore,Cross-shore,Cross-shore",13
5842041f4e65fad6a77089d0,2024_05_05,41.487408,-71.29017,First Beach,0.38461538461538464,0,0.21461538461538462,10.384615384615385,10.384615384615385,"CLEAR,NIGHT_OVERCAST,NIGHT_OVERCAST,NIGHT_OVERCAST,NIGHT_OVERCAST,OVERCAST,DRIZZLE,DRIZZLE,MIST,OVERCAST,OVERCAST,DRIZZLE,LIGHT_SHOWERS_POSSIBLE","Cross-shore,Cross-shore,Cross-shore,Cross-shore,Cross-shore,Cross-shore,Onshore,Onshore,Onshore,Onshore,Onshore,Onshore,Onshore",13
5842041f4e65fad6a77089d1,2024_05_05,42.27916830233153,-70.86498,Nantasket Beach,0.6915384615384615,0.1458974358974359,0.4514974358974359,9,8,"CLEAR,NIGHT_CLOUDY,NIGHT_CLOUDY,NIGHT_MIST,NIGHT_MIST,MIST,CLEAR,CLEAR,MOSTLY_CLOUDY,CLOUDY,OVERCAST,LIGHT_RAIN,LIGHT_SHOWERS_POSSIBLE","Onshore,Cross-shore,Onshore,Onshore,Onshore,Cross-shore,Cross-shore,Cross-shore,Cross-shore,Cross-shore,Cross-shore,Offshore,Offshore",13
5842041f4e65fad6a77089d2,2024_05_05,41.817,-69.935,Cape Cod,1,0.34307692307692306,0.6453846153846153,8,8,"MOSTLY_CLOUDY,NIGHT_OVERCAST,NIGHT_CLOUDY,NIGHT_CLOUDY,NIGHT_CLOUDY,CLEAR,CLEAR,BRIEF_SHOWERS,MIST,MIST,MOSTLY_CLOUDY,MOSTLY_CLOUDY,MOSTLY_CLOUDY","Onshore,Onshore,Onshore,Onshore,Onshore,Onshore,Onshore,Onshore,Onshore,Onshore,Onshore,Cross-shore,Onshore",13
5842041f4e65fad6a77089d3,2024_05_05,42.22055448975661,-70.70634873403819,Egypt Beach,1,0.3353846153846154,0.64,8.615384615384615,8.615384615384615,"MOSTLY_CLOUDY,NIGHT_MIST,NIGHT_MIST,NIGHT_OVERCAST,NIGHT_MIST,CLEAR,CLEAR,MOSTLY_CLEAR,MOSTLY_CLOUDY,OVERCAST,OVERCAST,LIGHT_RAIN,LIGHT_SHOWERS_POSSIBLE","Onshore,Onshore,Onshore,Onshore,Onshore,Onshore,Onshore,Onshore,Onshore,Cross-shore,Cross-shore,Cross-shore,Cross-shore",13
5842041f4e65fad6a77089d4,2024_05_05,41.48739647744607,-71.25723,Second Beach,0,0.05204307692307693,0.21319987179487182,10,9,"CLEAR,NIGHT_CLOUDY,NIGHT_OVERCAST,NIGHT_OVERCAST,NIGHT_OVERCAST,MIST,MIST,MIST,MIST,CLOUDY,CLOUDY,BRIEF_SHOWERS_POSSIBLE,LIGHT_SHOWERS_POSSIBLE","Offshore,Offshore,Offshore,Offshore,Cross-shore,Cross-shore,Cross-shore,Onshore,Cross-shore,Onshore,Onshore,Onshore,Onshore",13
5842041f4e65fad6a77089d5,2024_05_05,42.964,-70.769,Fox Hill,1.2176923076923076,0.10724358974358975,0.4115615384615385,9,7,"CLEAR,NIGHT_MOSTLY_CLOUDY,NIGHT_MOSTLY_CLOUDY,NIGHT_MOSTLY_CLOUDY,NIGHT_MOSTLY_CLOUDY,MOSTLY_CLOUDY,CLEAR,MOSTLY_CLOUDY,CLEAR,DRIZZLE,DRIZZLE,LIGHT_RAIN,LIGHT_RAIN","Onshore,Onshore,Onshore,Onshore,Onshore,Onshore,Onshore,Onshore,Onshore,Onshore,Onshore,Onshore,Onshore",13
5842041f4e65fad6a77089d6,2024_05_05,42.991359,-70.75149,Straws Point,1.2176923076923076,0.13346153846153846,0.4381641025641026,9,7,"CLEAR,NIGHT_MOSTLY_CLOUDY,NIGHT_MOSTLY_CLOUDY,NIGHT_MOSTLY_CLOUDY,NIGHT_MOSTLY_CLOUDY,MOSTLY_CLOUDY,CLEAR,MOSTLY_CLOUDY,CLEAR,OVERCAST,DRIZZLE,LIGHT_RAIN,LIGHT_RAIN","Cross-shore,Onshore,Onshore,Onshore,Cross-shore,Onshore,Onshore,Onshore,Onshore,Onshore,Onshore,Onshore,Onshore",13
5842041f4e65fad6a77089d7,2024_05_05,42.946,-70.786,Plaice Cove,0.8453846153846154,0.10724358974358975,0.4115615384615385,9,7,"CLEAR,NIGHT_MOSTLY_CLOUDY,NIGHT_MOSTLY_CLOUDY,NIGHT_MOSTLY_CLOUDY,NIGHT_MOSTLY_CLOUDY,MIST,CLEAR,MOSTLY_CLOUDY,CLEAR,DRIZZLE,LIGHT_RAIN,LIGHT_RAIN,LIGHT_RAIN","Onshore,Onshore,Onshore,Onshore,Onshore,Onshore,Onshore,Onshore,Onshore,Onshore,Onshore,Onshore,Onshore",13
5842041f4e65fad6a77089d9,2024_05_05,42.911574,-70.80831,The Main Beach,0.676923076923077,0.10491294871794872,0.4181746153846154,9,7,"CLEAR,NIGHT_MOSTLY_CLOUDY,NIGHT_MOSTLY_CLOUDY,NIGHT_MOSTLY_CLOUDY,NIGHT_MOSTLY_CLOUDY,MIST,MIST,MIST,CLEAR,DRIZZLE,BRIEF_SHOWERS_POSSIBLE,LIGHT_SHOWERS_POSSIBLE,LIGHT_SHOWERS_POSSIBLE","Cross-shore,Onshore,Onshore,Onshore,Cross-shore,Cross-shore,Cross-shore,Onshore,Onshore,Onshore,Onshore,Onshore,Onshore",13
5842041f4e65fad6a77089da,2024_05_05,42.97583846220203,-70.764,Sawyer's Beach,0.7176923076923077,0.10192307692307692,0.4070102564102564,9,7,"CLEAR,NIGHT_MOSTLY_CLOUDY,NIGHT_MOSTLY_CLOUDY,NIGHT_MOSTLY_CLOUDY,NIGHT_MOSTLY_CLOUDY,MOSTLY_CLOUDY,CLEAR,MOSTLY_CLOUDY,CLEAR,DRIZZLE,DRIZZLE,LIGHT_RAIN,LIGHT_RAIN","Onshore,Onshore,Onshore,Onshore,Onshore,Onshore,Onshore,Onshore,Onshore,Onshore,Onshore,Onshore,Onshore",13
5842041f4e65fad6a77089db,2024_05_05,42.97,-70.77,Rye on the Rocks / 5-0's,0.676923076923077,0.07962102564102565,0.384418717948718,9,7,"CLEAR,NIGHT_MOSTLY_CLOUDY,NIGHT_MOSTLY_CLOUDY,NIGHT_MOSTLY_CLOUDY,NIGHT_MOSTLY_CLOUDY,MOSTLY_CLOUDY,CLEAR,MOSTLY_CLOUDY,CLEAR,DRIZZLE,DRIZZLE,LIGHT_RAIN,LIGHT_RAIN","Onshore,Onshore,Onshore,Onshore,Onshore,Onshore,Onshore,Onshore,Onshore,Onshore,Onshore,Onshore,Onshore",13
5842041f4e65fad6a77089dc,2024_05_05,43.55902946610303,-70.27795,Higgins Beach,0.07692307692307693,-0.0023076923076923044,0.3009538461538462,9,7,"CLEAR,NIGHT_MOSTLY_CLOUDY,NIGHT_CLEAR,NIGHT_MIST,NIGHT_MIST,CLEAR,MOSTLY_CLOUDY,CLEAR,DRIZZLE,CLEAR,DRIZZLE,LIGHT_RAIN,LIGHT_RAIN","Onshore,Cross-shore,Cross-shore,Cross-shore,Cross-shore,Onshore,Onshore,Onshore,Onshore,Onshore,Onshore,Onshore,Onshore",13
5842041f4e65fad6a77089dd,2024_05_05,43.302676,-70.5652,Wells Beach,1.2430769230769232,0.12198717948717949,0.4290948717948718,9,7,"MOSTLY_CLOUDY,NIGHT_MOSTLY_CLOUDY,NIGHT_CLEAR,NIGHT_CLEAR,NIGHT_MIST,MIST,MIST,MIST,CLEAR,OVERCAST,LIGHT_RAIN,LIGHT_RAIN,LIGHT_RAIN","Onshore,Onshore,Onshore,Onshore,Onshore,Onshore,Onshore,Onshore,Onshore,Onshore,Onshore,Onshore,Onshore",13
5842041f4e65fad6a77089de,2024_05_05,43.545359,-70.30479,Scarborough Beach State Park,1.0253846153846153,0.17069448717948718,0.39749570512820515,9,7,"MOSTLY_CLEAR,NIGHT_MOSTLY_CLOUDY,NIGHT_CLEAR,NIGHT_MIST,NIGHT_MIST,MIST,MIST,MIST,CLEAR,CLEAR,DRIZZLE,LIGHT_RAIN,LIGHT_RAIN","Onshore,Onshore,Onshore,Onshore,Onshore,Onshore,Onshore,Onshore,Onshore,Onshore,Onshore,Onshore,Onshore",13
5842041f4e65fad6a77089df,2024_05_05,43.514481,-70.37215,Old Orchard Beach,0.3076923076923077,0.06815897435897436,0.3643692307692308,9,7,"CLEAR,NIGHT_MOSTLY_CLOUDY,NIGHT_MIST,NIGHT_MIST,NIGHT_MIST,MIST,MIST,MIST,CLEAR,CLOUDY,CLOUDY,LIGHT_RAIN,LIGHT_RAIN","Onshore,Onshore,Onshore,Onshore,Onshore,Onshore,Onshore,Onshore,Onshore,Onshore,Onshore,Onshore,Onshore",13
5842041f4e65fad6a77089e0,2024_05_05,43.34711,-70.48165,Gooch's Beach,0.9484615384615385,0.05044871794871794,0.35400256410256414,9,7,"CLEAR,NIGHT_MOSTLY_CLOUDY,NIGHT_CLEAR,NIGHT_MIST,NIGHT_MIST,CLEAR,MOSTLY_CLEAR,CLEAR,CLEAR,CLOUDY,DRIZZLE,LIGHT_RAIN,LIGHT_RAIN","Cross-shore,Cross-shore,Cross-shore,Cross-shore,Cross-shore,Cross-shore,Onshore,Onshore,Onshore,Onshore,Onshore,Onshore,Onshore",13
5842041f4e65fad6a77089e2,2024_05_05,40.58433,-73.62953,Lido Beach,0.12307692307692308,0.043074871794871794,0.34928512820512825,12,11,"CLEAR,NIGHT_OVERCAST,NIGHT_OVERCAST,NIGHT_CLOUDY,NIGHT_CLOUDY,DRIZZLE,MIST,MIST,OVERCAST,LIGHT_RAIN,OVERCAST,LIGHT_RAIN,RAIN","Onshore,Onshore,Onshore,Onshore,Onshore,Onshore,Onshore,Cross-shore,Cross-shore,Onshore,Cross-shore,Cross-shore,Cross-shore",13
5842041f4e65fad6a77089e3,2024_05_05,43.163135,-70.61689,Long Sands Beach,0.4461538461538462,0.0639573076923077,0.36516576923076927,9,7,"CLEAR,NIGHT_CLEAR,NIGHT_CLEAR,NIGHT_CLEAR,NIGHT_OVERCAST,MIST,MIST,MIST,CLOUDY,OVERCAST,DRIZZLE,LIGHT_RAIN,BRIEF_SHOWERS_POSSIBLE","Cross-shore,Cross-shore,Cross-shore,Onshore,Cross-shore,Cross-shore,Onshore,Onshore,Onshore,Onshore,Onshore,Onshore,Onshore",13
5842041f4e65fad6a77089e4,2024_05_05,40.61695351251805,-73.39376,Gilgo Beach,0.5892307692307692,0.04935897435897436,0.35396153846153844,11,9,"CLEAR,NIGHT_CLOUDY,NIGHT_OVERCAST,NIGHT_OVERCAST,NIGHT_CLOUDY,CLOUDY,MIST,MIST,CLOUDY,CLOUDY,DRIZZLE,DRIZZLE,LIGHT_RAIN","Cross-shore,Cross-shore,Cross-shore,Cross-shore,Cross-shore,Cross-shore,Cross-shore,Cross-shore,Cross-shore,Cross-shore,Cross-shore,Cross-shore,Onshore",13
5842041f4e65fad6a77089e5,2024_05_05,40.62530081928036,-73.23827,Robert Moses,1,0.08538461538461539,0.3892307692307692,11.615384615384615,11.615384615384615,"CLEAR,NIGHT_OVERCAST,NIGHT_CLOUDY,NIGHT_OVERCAST,NIGHT_OVERCAST,MIST,OVERCAST,CLOUDY,DRIZZLE,OVERCAST,OVERCAST,OVERCAST,DRIZZLE","Cross-shore,Cross-shore,Cross-shore,Cross-shore,Cross-shore,Cross-shore,Cross-shore,Cross-shore,Cross-shore,Cross-shore,Cross-shore,Onshore,Onshore",13
5842041f4e65fad6a77089e6,2024_05_05,40.64313317632791,-73.15727,Fire Island,1,0.08076923076923077,0.3861538461538462,11.615384615384615,11.615384615384615,"CLEAR,NIGHT_OVERCAST,NIGHT_OVERCAST,NIGHT_OVERCAST,NIGHT_OVERCAST,CLOUDY,CLOUDY,MIST,CLOUDY,CLOUDY,CLOUDY,OVERCAST,MIST","Cross-shore,Cross-shore,Cross-shore,Cross-shore,Cross-shore,Cross-shore,Cross-shore,Cross-shore,Cross-shore,Onshore,Cross-shore,Onshore,Onshore",13
5842041f4e65fad6a77089e8,2024_05_05,40.76653118828782,-72.7458,Cupsogue,1,0.14153846153846153,0.4469230769230769,11,11,"CLEAR,NIGHT_OVERCAST,NIGHT_OVERCAST,NIGHT_CLOUDY,NIGHT_DRIZZLE,CLOUDY,CLOUDY,MIST,MIST,CLOUDY,CLOUDY,CLOUDY,OVERCAST","Cross-shore,Cross-shore,Cross-shore,Cross-shore,Cross-shore,Cross-shore,Cross-shore,Cross-shore,Cross-shore,Cross-shore,Cross-shore,Cross-shore,Onshore",13
5842041f4e65fad6a77089e9,2024_05_05,42.9376373334092,-70.79141,The Wall ,0.676923076923077,0.09649358974358975,0.4050146153846154,9,7,"CLEAR,NIGHT_MOSTLY_CLOUDY,NIGHT_MOSTLY_CLOUDY,NIGHT_MOSTLY_CLOUDY,NIGHT_MOSTLY_CLOUDY,MIST,MIST,MIST,CLEAR,DRIZZLE,BRIEF_SHOWERS_POSSIBLE,LIGHT_SHOWERS_POSSIBLE,LIGHT_SHOWERS_POSSIBLE","Onshore,Onshore,Onshore,Onshore,Onshore,Onshore,Onshore,Onshore,Onshore,Onshore,Onshore,Onshore,Cross-shore",13
5842041f4e65fad6a77089ea,2024_05_05,40.887088,-72.33856,Flys,1,0.1346153846153846,0.44153846153846155,10,10,"MIST,NIGHT_CLOUDY,NIGHT_OVERCAST,NIGHT_OVERCAST,NIGHT_CLOUDY,MIST,DRIZZLE,OVERCAST,MIST,DRIZZLE,CLOUDY,CLOUDY,CLOUDY","Cross-shore,Cross-shore,Cross-shore,Cross-shore,Cross-shore,Cross-shore,Cross-shore,Cross-shore,Cross-shore,Onshore,Onshore,Cross-shore,Cross-shore",13
5842041f4e65fad6a77089eb,2024_05_05,41.0389266436591,-71.91068529316958,Trailer Park,0.3384615384615385,0.08892858974358976,0.3941966666666667,11,9,"CLEAR,NIGHT_OVERCAST,NIGHT_OVERCAST,NIGHT_OVERCAST,NIGHT_OVERCAST,MIST,OVERCAST,MOSTLY_CLOUDY,MOSTLY_CLOUDY,OVERCAST,BRIEF_SHOWERS_POSSIBLE,BRIEF_SHOWERS_POSSIBLE,MOSTLY_CLOUDY","Cross-shore,Cross-shore,Cross-shore,Cross-shore,Cross-shore,Cross-shore,Cross-shore,Onshore,Onshore,Onshore,Onshore,Onshore,Onshore",13
5842041f4e65fad6a77089ec,2024_05_05,41.039505402729105,-71.9142,Ditch Plains,1,0.29174153846153844,0.4558453846153846,9,9,"BRIEF_SHOWERS_POSSIBLE,NIGHT_CLOUDY,NIGHT_OVERCAST,NIGHT_MIST,NIGHT_MIST,CLOUDY,CLOUDY,BRIEF_SHOWERS,MOSTLY_CLOUDY,OVERCAST,BRIEF_SHOWERS_POSSIBLE,BRIEF_SHOWERS_POSSIBLE,MIST","Onshore,Onshore,Onshore,Onshore,Onshore,Onshore,Onshore,Onshore,Onshore,Onshore,Onshore,Onshore,Onshore",13
5842041f4e65fad6a77089ee,2024_05_05,40.57633275206492,-73.56895305108567,"West End, Jones Beach",0.5892307692307692,0.08044871794871795,0.38537179487179485,12,11,"CLOUDY,NIGHT_OVERCAST,NIGHT_OVERCAST,NIGHT_CLOUDY,NIGHT_CLOUDY,OVERCAST,CLOUDY,OVERCAST,CLOUDY,LIGHT_RAIN,OVERCAST,LIGHT_RAIN,RAIN","Cross-shore,Cross-shore,Cross-shore,Cross-shore,Cross-shore,Cross-shore,Cross-shore,Cross-shore,Cross-shore,Cross-shore,Cross-shore,Cross-shore,Cross-shore",13
5842041f4e65fad6a77089f1,2024_05_05,41.038286691230795,-71.91991567611694,Poles,0.3384615384615385,0.0832401282051282,0.3921587179487179,11,9,"CLEAR,NIGHT_OVERCAST,NIGHT_OVERCAST,NIGHT_OVERCAST,NIGHT_OVERCAST,MIST,OVERCAST,MOSTLY_CLOUDY,MOSTLY_CLOUDY,OVERCAST,BRIEF_SHOWERS_POSSIBLE,BRIEF_SHOWERS_POSSIBLE,MOSTLY_CLOUDY","Cross-shore,Cross-shore,Cross-shore,Cross-shore,Cross-shore,Cross-shore,Cross-shore,Onshore,Onshore,Onshore,Onshore,Onshore,Onshore",13
5842041f4e65fad6a77089f3,2024_05_05,40.84077769766295,-72.47989493724765,The Bowl,1,0.12076923076923077,0.42923076923076925,10.615384615384615,10.615384615384615,"MIST,NIGHT_CLOUDY,NIGHT_CLOUDY,NIGHT_CLOUDY,NIGHT_CLOUDY,MIST,CLOUDY,MIST,MIST,LIGHT_RAIN,CLOUDY,CLOUDY,CLOUDY","Cross-shore,Cross-shore,Cross-shore,Cross-shore,Cross-shore,Cross-shore,Cross-shore,Cross-shore,Cross-shore,Cross-shore,Cross-shore,Cross-shore,Cross-shore",13
5842041f4e65fad6a77089f4,2024_05_05,40.94235535243154,-72.19286,Main Beach,0.5892307692307692,0.22101282051282053,0.526,16,14,"CLEAR,NIGHT_CLOUDY,NIGHT_OVERCAST,NIGHT_OVERCAST,NIGHT_OVERCAST,OVERCAST,OVERCAST,OVERCAST,OVERCAST,DRIZZLE,CLOUDY,CLOUDY,OVERCAST","Cross-shore,Cross-shore,Cross-shore,Cross-shore,Cross-shore,Cross-shore,Cross-shore,Cross-shore,Cross-shore,Onshore,Cross-shore,Cross-shore,Cross-shore",13
5842041f4e65fad6a77089f5,2024_05_05,40.58270702399518,-73.67251552079799,Laurelton Blvd.,0.12307692307692308,0.0016325897435897586,0.2869209230769231,12,11,"CLEAR,NIGHT_OVERCAST,NIGHT_OVERCAST,NIGHT_CLOUDY,NIGHT_OVERCAST,MIST,MIST,MIST,DRIZZLE,DRIZZLE,DRIZZLE,RAIN,RAIN","Onshore,Onshore,Onshore,Cross-shore,Offshore,Onshore,Onshore,Onshore,Onshore,Onshore,Cross-shore,Onshore,Onshore",13
5842041f4e65fad6a77089f6,2024_05_05,41.033752854071416,-71.93696,Terrace,0.3384615384615385,0.08179076923076924,0.3847446153846154,11,9,"CLEAR,NIGHT_OVERCAST,NIGHT_CLOUDY,NIGHT_OVERCAST,NIGHT_MIST,MIST,OVERCAST,MOSTLY_CLOUDY,OVERCAST,OVERCAST,DRIZZLE,LIGHT_SHOWERS_POSSIBLE,CLEAR","Cross-shore,Cross-shore,Cross-shore,Cross-shore,Cross-shore,Cross-shore,Onshore,Onshore,Onshore,Onshore,Onshore,Onshore,Onshore",13
5842041f4e65fad6a77089f7,2024_05_05,40.83372943645748,-72.50426173210144,K Road,1,0.17153846153846153,0.4746153846153846,11,11,"MIST,NIGHT_CLOUDY,NIGHT_CLOUDY,NIGHT_OVERCAST,NIGHT_CLOUDY,MIST,CLOUDY,MIST,MIST,LIGHT_RAIN,CLOUDY,MIST,MIST","Cross-shore,Cross-shore,Cross-shore,Cross-shore,Cross-shore,Cross-shore,Cross-shore,Cross-shore,Onshore,Onshore,Onshore,Onshore,Onshore",13
5842041f4e65fad6a77089f8,2024_05_05,40.58456099581507,-73.80730032920837,84th Street,0.12307692307692308,0.07484820512820513,0.38054564102564103,12,11,"CLOUDY,NIGHT_OVERCAST,NIGHT_CLOUDY,NIGHT_OVERCAST,NIGHT_CLOUDY,OVERCAST,CLOUDY,MIST,OVERCAST,LIGHT_RAIN,DRIZZLE,DRIZZLE,LIGHT_RAIN","Cross-shore,Cross-shore,Cross-shore,Cross-shore,Cross-shore,Cross-shore,Cross-shore,Onshore,Cross-shore,Cross-shore,Onshore,Onshore,Onshore",13
5842041f4e65fad6a77089fa,2024_05_05,40.1319,-74.02788,Sea Girt,0.8584615384615385,0.35220769230769233,0.6586692307692308,14,12,"MOSTLY_CLOUDY,NIGHT_CLOUDY,NIGHT_OVERCAST,NIGHT_CLOUDY,NIGHT_OVERCAST,OVERCAST,OVERCAST,OVERCAST,OVERCAST,OVERCAST,OVERCAST,DRIZZLE,DRIZZLE","Onshore,Onshore,Onshore,Onshore,Onshore,Onshore,Onshore,Onshore,Onshore,Onshore,Onshore,Onshore,Onshore",13
