_id,date,lat,lon,name,daily_mean_swell_rating,daily_mean_wave_height_min,daily_mean_wave_height_max,daily_mean_water_temperature_max,daily_mean_water_temperature_min,weather_per_timestamp,wind_per_timestamp,n_samples_per_day
5842041f4e65fad6a77087f9,2024_06_04,37.741668,-122.51038,South Ocean Beach,2.535,1.04054,1.3012785714285715,11,11,"NIGHT_MIST,NIGHT_MIST,NIGHT_CLEAR,NIGHT_CLEAR,NIGHT_CLEAR,NIGHT_MIST,MIST,MIST,MIST,MIST,MIST,MIST,MIST,MIST","Cross-shore,Cross-shore,Offshore,Offshore,Onshore,Cross-shore,Offshore,Cross-shore,Offshore,Onshore,Onshore,Onshore,Cross-shore,Cross-shore",14
5842041f4e65fad6a7708801,2024_06_04,37.49142,-122.50428,Maverick's,NA,1.4128571428571428,1.685,14,14,"NIGHT_MIST,NIGHT_MIST,NIGHT_MIST,NIGHT_MIST,NIGHT_MIST,NIGHT_CLEAR,CLEAR,CLEAR,CLEAR,CLEAR,CLEAR,CLEAR,CLEAR,CLEAR","Offshore,Offshore,Offshore,Offshore,Offshore,Offshore,Offshore,Offshore,Offshore,Offshore,Offshore,Offshore,Offshore,Offshore",14
5842041f4e65fad6a7708804,2024_06_04,44.997,-124.018,Roads End,0.42857142857142855,2.3407142857142857,2.709285714285714,11,11,"NIGHT_OVERCAST,NIGHT_OVERCAST,NIGHT_LIGHT_RAIN,NIGHT_DRIZZLE,NIGHT_OVERCAST,NIGHT_OVERCAST,OVERCAST,DRIZZLE,OVERCAST,LIGHT_RAIN,MIST,DRIZZLE,MIST,MIST","Cross-shore,Cross-shore,Cross-shore,Cross-shore,Cross-shore,Cross-shore,Cross-shore,Offshore,Cross-shore,Onshore,Cross-shore,Cross-shore,Cross-shore,Cross-shore",14
5842041f4e65fad6a7708805,2024_06_04,36.95188851423011,-122.02522,Steamer Lane,3,0.8432907142857143,1.163985,11,11,"NIGHT_CLEAR,NIGHT_CLEAR,NIGHT_CLEAR,NIGHT_CLEAR,NIGHT_CLEAR,NIGHT_CLEAR,MOSTLY_CLEAR,MOSTLY_CLOUDY,MOSTLY_CLEAR,CLEAR,CLEAR,CLEAR,CLEAR,CLEAR","Offshore,Cross-shore,Cross-shore,Offshore,Offshore,Offshore,Offshore,Offshore,Cross-shore,Onshore,Offshore,Offshore,Cross-shore,Onshore",14
5842041f4e65fad6a7708806,2024_06_04,36.95918781542251,-122.02489,Cowells,0.7978571428571428,0,0.1974857142857143,11,11,"NIGHT_CLEAR,NIGHT_CLEAR,NIGHT_CLEAR,NIGHT_CLEAR,NIGHT_CLEAR,NIGHT_CLEAR,MOSTLY_CLEAR,MOSTLY_CLOUDY,MOSTLY_CLEAR,CLEAR,CLEAR,CLEAR,CLEAR,CLEAR","Offshore,Onshore,Onshore,Offshore,Cross-shore,Offshore,Offshore,Offshore,Onshore,Onshore,Offshore,Offshore,Cross-shore,Onshore",14
5842041f4e65fad6a7708807,2024_06_04,36.95468082526536,-121.97234,Pleasure Point,3,0.86591,1.1561314285714286,11,11,"NIGHT_CLEAR,NIGHT_CLEAR,NIGHT_CLEAR,NIGHT_CLEAR,NIGHT_CLEAR,NIGHT_CLEAR,CLEAR,CLEAR,CLEAR,CLEAR,CLEAR,CLEAR,CLEAR,CLEAR","Cross-shore,Onshore,Onshore,Onshore,Onshore,Onshore,Offshore,Onshore,Onshore,Onshore,Onshore,Onshore,Onshore,Onshore",14
5842041f4e65fad6a770880a,2024_06_04,35.37815414378748,-120.86589,Morro Bay,2.892857142857143,0.8122685714285715,1.1313614285714286,11,11,"NIGHT_MOSTLY_CLEAR,NIGHT_MOSTLY_CLEAR,NIGHT_MOSTLY_CLEAR,NIGHT_MIST,NIGHT_MIST,NIGHT_CLEAR,CLEAR,CLEAR,CLEAR,CLEAR,CLEAR,CLEAR,CLEAR,CLEAR","Offshore,Offshore,Offshore,Offshore,Cross-shore,Onshore,Offshore,Cross-shore,Onshore,Onshore,Onshore,Onshore,Onshore,Onshore",14
5842041f4e65fad6a770880b,2024_06_04,36.95782765000708,-121.96729,Jack's,2.405,0.44962357142857146,0.7532978571428571,11,11,"NIGHT_CLEAR,NIGHT_CLEAR,NIGHT_CLEAR,NIGHT_CLEAR,NIGHT_CLEAR,NIGHT_CLEAR,CLEAR,CLEAR,CLEAR,CLEAR,CLEAR,CLEAR,CLEAR,CLEAR","Onshore,Onshore,Onshore,Onshore,Onshore,Cross-shore,Onshore,Onshore,Onshore,Cross-shore,Cross-shore,Cross-shore,Onshore,Onshore",14
5842041f4e65fad6a770880d,2024_06_04,34.29982939936656,-119.3489016603669,Gold Coast Beachbreaks,2,0.24285714285714285,0.5471428571428572,15.428571428571429,15.428571428571429,"NIGHT_CLEAR,NIGHT_MIST,NIGHT_MIST,NIGHT_CLEAR,NIGHT_MIST,NIGHT_MOSTLY_CLOUDY,MOSTLY_CLOUDY,MOSTLY_CLOUDY,MOSTLY_CLOUDY,MOSTLY_CLEAR,CLEAR,CLEAR,CLEAR,CLEAR","Cross-shore,Offshore,Offshore,Cross-shore,Cross-shore,Cross-shore,Offshore,Offshore,Offshore,Cross-shore,Cross-shore,Onshore,Onshore,Onshore",14
5842041f4e65fad6a7708811,2024_06_04,34.245076,-119.26799,Ventura Harbor,2.9285714285714284,0.6782428571428571,1.0465592857142858,14,14,"NIGHT_CLEAR,NIGHT_CLEAR,NIGHT_CLEAR,NIGHT_CLEAR,NIGHT_CLEAR,NIGHT_MOSTLY_CLOUDY,MOSTLY_CLOUDY,MOSTLY_CLOUDY,MOSTLY_CLOUDY,CLEAR,CLEAR,CLEAR,CLEAR,CLEAR","Offshore,Offshore,Offshore,Cross-shore,Offshore,Cross-shore,Onshore,Cross-shore,Onshore,Onshore,Onshore,Onshore,Onshore,Onshore",14
5842041f4e65fad6a7708813,2024_06_04,34.051,-118.964,County Line,2.869285714285714,0.5484907142857143,0.8530335714285714,14,14,"NIGHT_CLEAR,NIGHT_CLEAR,NIGHT_CLEAR,NIGHT_CLEAR,NIGHT_CLEAR,NIGHT_MOSTLY_CLOUDY,CLEAR,CLEAR,CLEAR,CLEAR,MOSTLY_CLEAR,MOSTLY_CLEAR,MOSTLY_CLEAR,MOSTLY_CLEAR","Offshore,Offshore,Offshore,Offshore,Offshore,Offshore,Offshore,Offshore,Offshore,Offshore,Offshore,Offshore,Cross-shore,Cross-shore",14
5842041f4e65fad6a7708814,2024_06_04,34.37256264378892,-119.47797,Rincon,2,0.195,0.5,15,15,"NIGHT_MIST,NIGHT_MIST,NIGHT_MIST,NIGHT_MIST,NIGHT_MIST,NIGHT_MIST,MIST,MIST,MOSTLY_CLOUDY,CLEAR,MIST,BRIEF_SHOWERS,BRIEF_SHOWERS,MIST","Onshore,Onshore,Onshore,Onshore,Onshore,Onshore,Onshore,Onshore,Onshore,Onshore,Cross-shore,Cross-shore,Cross-shore,Onshore",14
5842041f4e65fad6a7708817,2024_06_04,34.03096101876324,-118.68109,Malibu Third Point,2.642857142857143,0.41714285714285715,0.7207142857142856,16,16,"NIGHT_CLEAR,NIGHT_CLEAR,NIGHT_CLEAR,NIGHT_CLEAR,NIGHT_CLEAR,NIGHT_CLEAR,MIST,BRIEF_SHOWERS,MOSTLY_CLOUDY,MOSTLY_CLEAR,MOSTLY_CLEAR,CLEAR,CLEAR,CLEAR","Onshore,Onshore,Onshore,Onshore,Onshore,Cross-shore,Cross-shore,Onshore,Onshore,Cross-shore,Cross-shore,Cross-shore,Cross-shore,Cross-shore",14
5842041f4e65fad6a7708819,2024_06_04,33.984079047970035,-118.47382,Venice Beach,2.940714285714286,0.58275,0.886,17,17,"NIGHT_MOSTLY_CLEAR,NIGHT_MOSTLY_CLEAR,NIGHT_MOSTLY_CLEAR,NIGHT_MOSTLY_CLEAR,NIGHT_MOSTLY_CLOUDY,NIGHT_MOSTLY_CLOUDY,MIST,MIST,MOSTLY_CLEAR,MIST,MIST,MIST,MIST,MIST","Onshore,Onshore,Onshore,Onshore,Onshore,Cross-shore,Cross-shore,Onshore,Onshore,Cross-shore,Onshore,Onshore,Cross-shore,Cross-shore",14
5842041f4e65fad6a770881e,2024_06_04,34.037508438646746,-118.5834,Topanga Beach,3,0.46122857142857143,0.7644021428571428,15,15,"NIGHT_CLEAR,NIGHT_CLEAR,NIGHT_CLEAR,NIGHT_CLEAR,NIGHT_CLEAR,NIGHT_CLEAR,BRIEF_SHOWERS,MIST,MOSTLY_CLOUDY,MOSTLY_CLEAR,MOSTLY_CLEAR,MOSTLY_CLEAR,CLEAR,CLEAR","Offshore,Offshore,Offshore,Offshore,Offshore,Offshore,Offshore,Cross-shore,Offshore,Cross-shore,Onshore,Onshore,Onshore,Onshore",14
5842041f4e65fad6a7708820,2024_06_04,33.73954373690184,-118.11414,Seal Beach Jetty,2.5714285714285716,0.3728571428571429,0.6814285714285714,16,16,"NIGHT_CLEAR,NIGHT_CLEAR,NIGHT_CLEAR,NIGHT_CLEAR,NIGHT_MOSTLY_CLEAR,NIGHT_MOSTLY_CLEAR,MOSTLY_CLOUDY,CLOUDY,CLOUDY,MOSTLY_CLOUDY,CLEAR,CLEAR,CLEAR,CLEAR","Onshore,Onshore,Onshore,Onshore,Onshore,Onshore,Cross-shore,Onshore,Onshore,Onshore,Onshore,Onshore,Onshore,Onshore",14
5842041f4e65fad6a7708822,2024_06_04,33.72309983348433,-118.08078,Anderson Street,1.667142857142857,0.2794,0.5794835714285714,16,16,"NIGHT_CLEAR,NIGHT_CLEAR,NIGHT_MOSTLY_CLEAR,NIGHT_MOSTLY_CLEAR,NIGHT_MOSTLY_CLEAR,NIGHT_MOSTLY_CLEAR,MOSTLY_CLOUDY,OVERCAST,OVERCAST,MOSTLY_CLOUDY,MOSTLY_CLEAR,CLEAR,CLEAR,CLEAR","Onshore,Onshore,Onshore,Onshore,Onshore,Onshore,Cross-shore,Onshore,Onshore,Onshore,Onshore,Onshore,Onshore,Onshore",14
5842041f4e65fad6a7708827,2024_06_04,33.65574085629463,-118.00397,Huntington Beach Pier Northside,2.7857142857142856,0.834755,1.208292857142857,16,16,"NIGHT_CLEAR,NIGHT_CLEAR,NIGHT_CLEAR,NIGHT_CLEAR,NIGHT_CLEAR,NIGHT_CLEAR,MOSTLY_CLOUDY,MOSTLY_CLOUDY,OVERCAST,MOSTLY_CLOUDY,CLEAR,CLEAR,CLEAR,CLEAR","Onshore,Offshore,Offshore,Offshore,Cross-shore,Cross-shore,Onshore,Onshore,Onshore,Onshore,Onshore,Onshore,Onshore,Onshore",14
5842041f4e65fad6a7708828,2024_06_04,34.272041739333,-119.29976,C St.,2.822142857142857,0.38973357142857146,0.6976478571428572,14,14,"NIGHT_MIST,NIGHT_MIST,NIGHT_MIST,NIGHT_MOSTLY_CLEAR,NIGHT_MOSTLY_CLOUDY,NIGHT_MOSTLY_CLOUDY,MOSTLY_CLOUDY,MOSTLY_CLOUDY,MOSTLY_CLOUDY,MIST,MIST,BRIEF_SHOWERS,BRIEF_SHOWERS,BRIEF_SHOWERS","Offshore,Offshore,Offshore,Offshore,Offshore,Offshore,Offshore,Offshore,Offshore,Offshore,Onshore,Onshore,Onshore,Onshore",14
5842041f4e65fad6a770882a,2024_06_04,33.61555743705257,-117.93676,Newport Lower Jetties,2.6671428571428573,0.5103521428571429,0.8853192857142858,16,16,"NIGHT_CLEAR,NIGHT_CLEAR,NIGHT_CLEAR,NIGHT_CLEAR,NIGHT_CLEAR,NIGHT_MOSTLY_CLOUDY,MOSTLY_CLOUDY,MOSTLY_CLOUDY,MOSTLY_CLOUDY,MOSTLY_CLOUDY,MOSTLY_CLEAR,MOSTLY_CLEAR,CLEAR,CLEAR","Onshore,Offshore,Offshore,Cross-shore,Cross-shore,Cross-shore,Cross-shore,Onshore,Cross-shore,Offshore,Onshore,Onshore,Onshore,Onshore",14
5842041f4e65fad6a770882b,2024_06_04,33.5930302087,-117.88199,The Wedge,2.7735714285714286,1.0697521428571428,1.326852142857143,16,16,"NIGHT_CLEAR,NIGHT_CLEAR,NIGHT_CLEAR,NIGHT_CLEAR,NIGHT_CLEAR,NIGHT_MOSTLY_CLOUDY,MOSTLY_CLOUDY,MOSTLY_CLOUDY,MOSTLY_CLOUDY,MOSTLY_CLOUDY,MOSTLY_CLEAR,MOSTLY_CLEAR,MOSTLY_CLEAR,CLEAR","Onshore,Offshore,Offshore,Onshore,Offshore,Onshore,Onshore,Onshore,Onshore,Onshore,Onshore,Onshore,Onshore,Onshore",14
5842041f4e65fad6a770882e,2024_06_04,33.475793399792984,-117.72291,Salt Creek,2.9285714285714284,0.771,1.078,16,16,"NIGHT_MIST,NIGHT_MIST,NIGHT_MIST,NIGHT_MOSTLY_CLEAR,NIGHT_MOSTLY_CLOUDY,NIGHT_MOSTLY_CLOUDY,MOSTLY_CLOUDY,MOSTLY_CLOUDY,MOSTLY_CLOUDY,MIST,MIST,MIST,MIST,MIST","Onshore,Cross-shore,Cross-shore,Cross-shore,Offshore,Onshore,Onshore,Onshore,Onshore,Onshore,Onshore,Onshore,Onshore,Onshore",14
5842041f4e65fad6a7708830,2024_06_04,33.41800974113613,-117.61952,T-Street,2.6664285714285714,0.5920285714285715,0.9529192857142857,17,17,"NIGHT_CLEAR,NIGHT_CLEAR,NIGHT_MIST,NIGHT_MIST,NIGHT_MIST,NIGHT_MOSTLY_CLOUDY,MOSTLY_CLOUDY,MOSTLY_CLOUDY,MOSTLY_CLOUDY,MOSTLY_CLEAR,MIST,MIST,MIST,MIST","Onshore,Cross-shore,Cross-shore,Cross-shore,Cross-shore,Onshore,Onshore,Onshore,Onshore,Onshore,Onshore,Onshore,Onshore,Onshore",14
5842041f4e65fad6a7708832,2024_06_04,33.202391008646,-117.39475,Oceanside Harbor,2.892857142857143,0.5835235714285715,0.9596899999999999,18,17,"NIGHT_CLEAR,NIGHT_CLEAR,NIGHT_MOSTLY_CLOUDY,NIGHT_MIST,NIGHT_MIST,NIGHT_CLEAR,CLEAR,CLEAR,CLEAR,MIST,MOSTLY_CLEAR,CLEAR,CLEAR,MIST","Onshore,Onshore,Onshore,Onshore,Cross-shore,Onshore,Onshore,Onshore,Onshore,Onshore,Onshore,Onshore,Onshore,Onshore",14
5842041f4e65fad6a7708835,2024_06_04,33.19477795952803,-117.38667,Oceanside Pier,2.7735714285714286,0.5392714285714286,0.9194092857142857,18,17,"NIGHT_CLEAR,NIGHT_CLEAR,NIGHT_MOSTLY_CLOUDY,NIGHT_MOSTLY_CLOUDY,NIGHT_OVERCAST,NIGHT_MOSTLY_CLOUDY,MOSTLY_CLOUDY,MOSTLY_CLOUDY,MOSTLY_CLOUDY,MIST,MOSTLY_CLEAR,CLEAR,CLEAR,CLEAR","Onshore,Onshore,Onshore,Onshore,Onshore,Onshore,Onshore,Onshore,Onshore,Onshore,Onshore,Onshore,Onshore,Onshore",14
5842041f4e65fad6a7708837,2024_06_04,33.14948100706,-117.35029,Tamarack,2.857142857142857,0.6664285714285715,0.9707142857142856,18,18,"NIGHT_CLEAR,NIGHT_CLEAR,NIGHT_MIST,NIGHT_MIST,NIGHT_DRIZZLE,NIGHT_CLEAR,CLEAR,CLEAR,CLEAR,MIST,MOSTLY_CLEAR,CLEAR,MIST,MIST","Cross-shore,Onshore,Onshore,Cross-shore,Onshore,Onshore,Onshore,Cross-shore,Offshore,Onshore,Onshore,Onshore,Onshore,Onshore",14
5842041f4e65fad6a7708839,2024_06_04,32.865777159358856,-117.25614,Scripps,2.7142857142857144,0.5492407142857143,0.86,17,17,"NIGHT_CLEAR,NIGHT_CLEAR,NIGHT_CLEAR,NIGHT_MIST,NIGHT_MIST,NIGHT_CLEAR,CLEAR,CLEAR,CLEAR,MIST,MOSTLY_CLEAR,CLEAR,MIST,MIST","Cross-shore,Cross-shore,Cross-shore,Offshore,Offshore,Cross-shore,Offshore,Cross-shore,Cross-shore,Onshore,Onshore,Onshore,Onshore,Onshore",14
5842041f4e65fad6a770883a,2024_06_04,32.813094,-117.27381,Birdrock,2.7142857142857144,0.5914285714285714,0.8964285714285715,18,18,"NIGHT_BRIEF_SHOWERS,NIGHT_MOSTLY_CLOUDY,NIGHT_MOSTLY_CLOUDY,NIGHT_MOSTLY_CLOUDY,NIGHT_MOSTLY_CLOUDY,NIGHT_MOSTLY_CLEAR,MOSTLY_CLOUDY,MOSTLY_CLOUDY,MOSTLY_CLOUDY,MOSTLY_CLOUDY,MOSTLY_CLEAR,CLEAR,CLEAR,CLEAR","Onshore,Onshore,Onshore,Cross-shore,Onshore,Onshore,Onshore,Onshore,Onshore,Onshore,Onshore,Onshore,Onshore,Onshore",14
5842041f4e65fad6a770883b,2024_06_04,32.877231,-117.25303,Blacks,2.7857142857142856,0.7575907142857143,1.0917,17,17,"NIGHT_CLEAR,NIGHT_CLEAR,NIGHT_CLEAR,NIGHT_MIST,NIGHT_MIST,NIGHT_CLEAR,CLEAR,CLEAR,CLEAR,MIST,MOSTLY_CLEAR,CLEAR,MIST,MIST","Onshore,Onshore,Onshore,Onshore,Cross-shore,Onshore,Cross-shore,Onshore,Onshore,Onshore,Onshore,Onshore,Onshore,Onshore",14
5842041f4e65fad6a770883c,2024_06_04,32.82978974229765,-117.28162,Windansea,2.8214285714285716,0.7206285714285714,1.07435,17,17,"NIGHT_MOSTLY_CLOUDY,NIGHT_CLEAR,NIGHT_CLEAR,NIGHT_CLEAR,NIGHT_MOSTLY_CLOUDY,NIGHT_CLEAR,MOSTLY_CLOUDY,MOSTLY_CLOUDY,MOSTLY_CLOUDY,MOSTLY_CLOUDY,CLEAR,MOSTLY_CLEAR,MOSTLY_CLEAR,MOSTLY_CLEAR","Cross-shore,Cross-shore,Cross-shore,Cross-shore,Cross-shore,Onshore,Cross-shore,Cross-shore,Onshore,Onshore,Onshore,Onshore,Onshore,Onshore",14
5842041f4e65fad6a770883d,2024_06_04,32.838278,-117.28396,Horseshoe,3,0.7528571428571429,1.0592857142857142,18,18,"NIGHT_MOSTLY_CLOUDY,NIGHT_CLEAR,NIGHT_CLEAR,NIGHT_CLEAR,NIGHT_MOSTLY_CLOUDY,NIGHT_CLEAR,MOSTLY_CLOUDY,MOSTLY_CLOUDY,MOSTLY_CLOUDY,MOSTLY_CLOUDY,CLEAR,MOSTLY_CLEAR,MOSTLY_CLEAR,MOSTLY_CLEAR","Cross-shore,Cross-shore,Cross-shore,Cross-shore,Cross-shore,Onshore,Cross-shore,Onshore,Onshore,Onshore,Onshore,Onshore,Onshore,Onshore",14
5842041f4e65fad6a770883f,2024_06_04,32.75034717673179,-117.25337,Ocean Beach,2.892857142857143,0.6322328571428572,1.0065214285714286,17,17,"NIGHT_CLEAR,NIGHT_MOSTLY_CLOUDY,NIGHT_MOSTLY_CLOUDY,NIGHT_CLOUDY,NIGHT_MIST,NIGHT_CLEAR,CLEAR,CLEAR,CLEAR,MOSTLY_CLOUDY,MOSTLY_CLOUDY,CLEAR,CLEAR,MIST","Cross-shore,Cross-shore,Cross-shore,Cross-shore,Offshore,Cross-shore,Cross-shore,Cross-shore,Cross-shore,Cross-shore,Cross-shore,Cross-shore,Onshore,Cross-shore",14
5842041f4e65fad6a7708840,2024_06_04,32.73693,-117.25718,Sunset Cliffs,2,0.5892857142857143,0.8942857142857142,18,18,"NIGHT_MOSTLY_CLOUDY,NIGHT_MOSTLY_CLOUDY,NIGHT_OVERCAST,NIGHT_OVERCAST,NIGHT_OVERCAST,NIGHT_MOSTLY_CLOUDY,MOSTLY_CLOUDY,MOSTLY_CLOUDY,MOSTLY_CLOUDY,MOSTLY_CLOUDY,MOSTLY_CLOUDY,CLEAR,CLEAR,CLEAR","Cross-shore,Cross-shore,Cross-shore,Cross-shore,Cross-shore,Cross-shore,Cross-shore,Cross-shore,Cross-shore,Cross-shore,Cross-shore,Cross-shore,Onshore,Onshore",14
5842041f4e65fad6a7708841,2024_06_04,32.796582258728826,-117.25779,Pacific Beach,2.559285714285714,0.6080142857142857,0.9202021428571429,17,17,"NIGHT_MIST,NIGHT_CLEAR,NIGHT_MOSTLY_CLOUDY,NIGHT_MOSTLY_CLOUDY,NIGHT_MOSTLY_CLOUDY,NIGHT_CLEAR,CLEAR,CLEAR,MOSTLY_CLOUDY,MOSTLY_CLOUDY,MOSTLY_CLEAR,MIST,MIST,MIST","Onshore,Onshore,Onshore,Cross-shore,Onshore,Onshore,Cross-shore,Onshore,Onshore,Onshore,Onshore,Onshore,Onshore,Onshore",14
5842041f4e65fad6a7708842,2024_06_04,32.776636,-117.25514,Mission Beach,2.690714285714286,0.6718235714285714,0.9814528571428571,17,17,"NIGHT_MIST,NIGHT_CLEAR,NIGHT_MOSTLY_CLOUDY,NIGHT_MOSTLY_CLOUDY,NIGHT_MOSTLY_CLOUDY,NIGHT_CLEAR,CLEAR,CLEAR,MOSTLY_CLOUDY,MOSTLY_CLOUDY,MOSTLY_CLEAR,MIST,MIST,MIST","Cross-shore,Onshore,Onshore,Cross-shore,Onshore,Cross-shore,Cross-shore,Onshore,Onshore,Cross-shore,Onshore,Onshore,Onshore,Onshore",14
5842041f4e65fad6a7708844,2024_06_04,32.577195519016,-117.13475,Imperial Beach Pier,2.5,0.6728571428571428,0.98,18,18,"NIGHT_CLEAR,NIGHT_MOSTLY_CLOUDY,NIGHT_MIST,NIGHT_MIST,NIGHT_CLOUDY,NIGHT_CLEAR,MOSTLY_CLOUDY,MOSTLY_CLOUDY,MOSTLY_CLOUDY,MOSTLY_CLOUDY,MOSTLY_CLOUDY,MOSTLY_CLEAR,CLEAR,CLEAR","Onshore,Onshore,Onshore,Onshore,Onshore,Onshore,Onshore,Onshore,Onshore,Onshore,Onshore,Onshore,Onshore,Onshore",14
5842041f4e65fad6a770884a,2024_06_04,42.88678181061,-70.80843,Seabrook,0.44,0.07302214285714285,0.3009664285714286,14.5,12.5,"NIGHT_MIST,NIGHT_MIST,NIGHT_MIST,NIGHT_MIST,MIST,MIST,MIST,MIST,MIST,BRIEF_SHOWERS_POSSIBLE,BRIEF_SHOWERS_POSSIBLE,MIST,MIST,MIST","Onshore,Onshore,Cross-shore,Cross-shore,Cross-shore,Cross-shore,Onshore,Onshore,Onshore,Onshore,Onshore,Onshore,Onshore,Onshore",14
5842041f4e65fad6a770884e,2024_06_04,41.434181432898335,-71.45312,Narragansett,0,0,0.24141928571428573,16,14,"NIGHT_MIST,NIGHT_CLEAR,NIGHT_MIST,NIGHT_MIST,MIST,MIST,MOSTLY_CLEAR,CLEAR,CLEAR,CLEAR,CLEAR,CLEAR,CLEAR,CLEAR","Cross-shore,Offshore,Offshore,Cross-shore,Cross-shore,Onshore,Onshore,Onshore,Onshore,Onshore,Onshore,Onshore,Onshore,Onshore",14
5842041f4e65fad6a7708850,2024_06_04,40.582703230722,-73.65247,Lincoln Blvd,0,-0.005,0.258905,17.5,16,"NIGHT_MIST,NIGHT_MIST,NIGHT_MIST,NIGHT_MIST,MIST,BRIEF_SHOWERS_POSSIBLE,MIST,MIST,BRIEF_SHOWERS_POSSIBLE,MIST,MIST,MIST,MIST,CLEAR","Onshore,Cross-shore,Onshore,Offshore,Cross-shore,Cross-shore,Cross-shore,Cross-shore,Onshore,Onshore,Cross-shore,Cross-shore,Offshore,Onshore",14
5842041f4e65fad6a7708852,2024_06_04,40.58342841721757,-73.81182,Rockaways,0,-0.004047857142857143,0.29872857142857145,17.5,16,"NIGHT_MIST,NIGHT_MIST,NIGHT_MIST,NIGHT_MIST,MIST,CLEAR,BRIEF_SHOWERS,MIST,CLEAR,CLEAR,CLEAR,CLEAR,CLEAR,CLEAR","Cross-shore,Cross-shore,Cross-shore,Cross-shore,Cross-shore,Cross-shore,Cross-shore,Cross-shore,Onshore,Onshore,Onshore,Onshore,Onshore,Cross-shore",14
5842041f4e65fad6a7708853,2024_06_04,40.330474,-73.9734,Monmouth Beach,0.4757142857142857,0.016726428571428573,0.24005,16,15,"NIGHT_MIST,NIGHT_MIST,NIGHT_MIST,NIGHT_CLEAR,MIST,MIST,BRIEF_SHOWERS,MIST,MIST,MIST,MIST,MIST,MIST,MIST","Onshore,Onshore,Onshore,Onshore,Onshore,Onshore,Onshore,Onshore,Onshore,Onshore,Onshore,Onshore,Onshore,Onshore",14
5842041f4e65fad6a7708856,2024_06_04,40.113,-74.028,Manasquan Inlet,0,-5.95e-4,0.26883785714285713,16,15,"NIGHT_MIST,NIGHT_MIST,NIGHT_MIST,NIGHT_MIST,MIST,CLEAR,BRIEF_SHOWERS,MOSTLY_CLOUDY,CLEAR,CLEAR,CLEAR,CLEAR,CLEAR,CLEAR","Onshore,Offshore,Onshore,Onshore,Cross-shore,Onshore,Onshore,Onshore,Onshore,Onshore,Onshore,Onshore,Onshore,Onshore",14
5842041f4e65fad6a7708857,2024_06_04,39.941519877445664,-74.06829,Casino Pier,0.13142857142857145,-0.0017857142857142857,0.301705,16,15,"NIGHT_MIST,NIGHT_MIST,NIGHT_MIST,NIGHT_MIST,MIST,MIST,MIST,MIST,MIST,MIST,MIST,MIST,MIST,MIST","Onshore,Onshore,Onshore,Onshore,Onshore,Onshore,Onshore,Onshore,Onshore,Onshore,Onshore,Onshore,Onshore,Onshore",14
5842041f4e65fad6a7708858,2024_06_04,39.28223089949212,-74.55766,North End OC,0.36857142857142855,0.06192357142857143,0.3652957142857143,16,15,"NIGHT_MIST,NIGHT_MIST,NIGHT_MIST,NIGHT_MIST,MIST,MIST,MIST,MIST,MIST,CLEAR,MIST,BRIEF_SHOWERS_POSSIBLE,BRIEF_SHOWERS_POSSIBLE,BRIEF_SHOWERS","Cross-shore,Cross-shore,Cross-shore,Onshore,Onshore,Cross-shore,Onshore,Onshore,Onshore,Onshore,Cross-shore,Onshore,Onshore,Onshore",14
5842041f4e65fad6a770885b,2024_06_04,39.65080599934257,-74.17146,Ship Bottom,0.5,-0.0015471428571428572,0.26812357142857146,16,15,"NIGHT_MIST,NIGHT_MIST,NIGHT_MIST,NIGHT_MIST,MIST,MIST,BRIEF_SHOWERS,BRIEF_SHOWERS,BRIEF_SHOWERS,MIST,MIST,MIST,MIST,MIST","Onshore,Onshore,Cross-shore,Onshore,Onshore,Onshore,Onshore,Onshore,Offshore,Onshore,Onshore,Onshore,Onshore,Onshore",14
5842041f4e65fad6a7708863,2024_06_04,36.034151543144,-75.66791,Third Street,0.8085714285714286,0.008631428571428571,0.22055,19,16,"NIGHT_CLEAR,NIGHT_CLEAR,NIGHT_CLEAR,NIGHT_CLEAR,MOSTLY_CLOUDY,CLEAR,CLEAR,CLEAR,CLEAR,CLEAR,CLEAR,CLEAR,CLEAR,CLEAR","Offshore,Offshore,Offshore,Offshore,Offshore,Offshore,Offshore,Offshore,Cross-shore,Onshore,Onshore,Onshore,Onshore,Cross-shore",14
5842041f4e65fad6a7708867,2024_06_04,35.605833221351425,-75.46303,S-Turns,0.8685714285714285,0.0020235714285714284,0.30384785714285717,21,19,"NIGHT_CLEAR,NIGHT_CLEAR,NIGHT_CLEAR,NIGHT_MOSTLY_CLEAR,MOSTLY_CLEAR,MOSTLY_CLOUDY,CLEAR,CLEAR,CLEAR,CLEAR,CLEAR,MOSTLY_CLEAR,CLEAR,CLEAR","Offshore,Offshore,Offshore,Offshore,Offshore,Offshore,Offshore,Offshore,Offshore,Offshore,Cross-shore,Cross-shore,Cross-shore,Cross-shore",14
5842041f4e65fad6a770886d,2024_06_04,38.338461,-75.08117,Ocean City Boardwalk,0,-0.001667142857142857,0.30551428571428574,20,18,"NIGHT_CLEAR,NIGHT_CLEAR,NIGHT_CLEAR,NIGHT_CLEAR,MIST,MIST,MIST,BRIEF_SHOWERS_POSSIBLE,BRIEF_SHOWERS,BRIEF_SHOWERS,BRIEF_SHOWERS,BRIEF_SHOWERS,BRIEF_SHOWERS,BRIEF_SHOWERS","Offshore,Offshore,Onshore,Cross-shore,Onshore,Onshore,Onshore,Onshore,Onshore,Onshore,Onshore,Onshore,Onshore,Onshore",14
5842041f4e65fad6a770886f,2024_06_04,29.844757212379562,-81.26136,A St.,1.3571428571428572,0.24,0.5442857142857144,27,27,"NIGHT_CLEAR,NIGHT_CLEAR,NIGHT_MOSTLY_CLEAR,NIGHT_MOSTLY_CLEAR,NIGHT_MOSTLY_CLEAR,CLEAR,CLEAR,MOSTLY_CLOUDY,MOSTLY_CLOUDY,CLEAR,CLEAR,CLEAR,CLEAR,CLEAR","Onshore,Onshore,Onshore,Onshore,Onshore,Onshore,Onshore,Onshore,Onshore,Onshore,Onshore,Onshore,Onshore,Onshore",14
5842041f4e65fad6a7708871,2024_06_04,29.069417851135093,-80.90824,New Smyrna Beach,1.94,0.6082428571428572,0.9701142857142857,26,25,"NIGHT_MOSTLY_CLOUDY,NIGHT_MOSTLY_CLOUDY,NIGHT_MOSTLY_CLOUDY,NIGHT_BRIEF_SHOWERS,NIGHT_CLEAR,MOSTLY_CLOUDY,CLEAR,MOSTLY_CLOUDY,MOSTLY_CLOUDY,CLEAR,MOSTLY_CLEAR,CLEAR,CLEAR,CLEAR","Onshore,Onshore,Onshore,Onshore,Onshore,Onshore,Onshore,Onshore,Onshore,Onshore,Onshore,Onshore,Onshore,Onshore",14
5842041f4e65fad6a7708872,2024_06_04,28.367707417566,-80.60171,Cocoa Beach Pier,1.1764285714285714,0.305705,0.6112428571428572,28,26,"NIGHT_OVERCAST,NIGHT_OVERCAST,NIGHT_MOSTLY_CLOUDY,NIGHT_CLEAR,NIGHT_MOSTLY_CLOUDY,MOSTLY_CLEAR,MOSTLY_CLOUDY,MOSTLY_CLOUDY,CLEAR,CLEAR,CLEAR,MOSTLY_CLEAR,MOSTLY_CLOUDY,CLEAR","Onshore,Onshore,Onshore,Onshore,Onshore,Onshore,Onshore,Onshore,Onshore,Onshore,Onshore,Onshore,Onshore,Onshore",14
5842041f4e65fad6a7708873,2024_06_04,28.091782738658846,-80.56479,Indialantic,1,0.2866807142857143,0.5902664285714285,28,26,"NIGHT_OVERCAST,NIGHT_MOSTLY_CLOUDY,NIGHT_MOSTLY_CLOUDY,NIGHT_CLEAR,NIGHT_CLEAR,MOSTLY_CLOUDY,MOSTLY_CLOUDY,MOSTLY_CLOUDY,MOSTLY_CLOUDY,MOSTLY_CLEAR,CLEAR,CLEAR,CLEAR,BRIEF_SHOWERS_POSSIBLE","Onshore,Onshore,Onshore,Onshore,Onshore,Onshore,Onshore,Onshore,Onshore,Onshore,Onshore,Onshore,Onshore,Onshore",14
5842041f4e65fad6a7708876,2024_06_04,27.25392904143517,-80.19455,Jensen Beach,0.8571428571428571,0.11103142857142857,0.41823642857142856,28,26,"NIGHT_MOSTLY_CLOUDY,NIGHT_CLEAR,NIGHT_MOSTLY_CLEAR,NIGHT_CLEAR,NIGHT_MOSTLY_CLEAR,FOG,MOSTLY_CLEAR,CLEAR,MIST,CLEAR,MOSTLY_CLEAR,CLEAR,SHOWERS,CLEAR","Onshore,Onshore,Onshore,Onshore,Cross-shore,Offshore,Cross-shore,Cross-shore,Onshore,Onshore,Onshore,Onshore,Onshore,Onshore",14
5842041f4e65fad6a7708879,2024_06_04,26.76346795333825,-80.03607,Reef Road,0,-0.003905,0.2491607142857143,29,27,"NIGHT_MOSTLY_CLOUDY,NIGHT_MOSTLY_CLOUDY,NIGHT_MOSTLY_CLEAR,NIGHT_CLEAR,NIGHT_SHOWERS,MOSTLY_CLEAR,MIST,CLEAR,CLEAR,MOSTLY_CLEAR,CLEAR,MOSTLY_CLEAR,CLEAR,CLEAR","Onshore,Onshore,Onshore,Onshore,Onshore,Cross-shore,Cross-shore,Cross-shore,Onshore,Cross-shore,Onshore,Onshore,Onshore,Onshore",14
5842041f4e65fad6a770887c,2024_06_04,26.336499228484,-80.06956100463,Boca Raton Inlet,0.5714285714285714,0,0.2742407142857143,28,27,"NIGHT_OVERCAST,NIGHT_CLEAR,NIGHT_CLEAR,NIGHT_CLEAR,NIGHT_CLEAR,FOG,MOSTLY_CLOUDY,MOSTLY_CLOUDY,SHOWERS,MOSTLY_CLEAR,MOSTLY_CLEAR,CLEAR,CLEAR,CLEAR","Onshore,Onshore,Onshore,Onshore,Onshore,Onshore,Cross-shore,Cross-shore,Onshore,Onshore,Onshore,Onshore,Onshore,Onshore",14
5842041f4e65fad6a770887d,2024_06_04,26.31719311695038,-80.07453,Deerfield Beach Pier,0,-9.007142857142857e-4,0.20623142857142857,28,27,"NIGHT_MOSTLY_CLOUDY,NIGHT_MOSTLY_CLOUDY,NIGHT_CLEAR,NIGHT_MOSTLY_CLOUDY,NIGHT_MOSTLY_CLOUDY,MOSTLY_CLOUDY,MOSTLY_CLOUDY,CLEAR,LIGHT_SHOWERS_POSSIBLE,CLEAR,MOSTLY_CLEAR,MOSTLY_CLEAR,CLEAR,CLEAR","Onshore,Onshore,Onshore,Onshore,Onshore,Onshore,Cross-shore,Cross-shore,Onshore,Onshore,Onshore,Onshore,Onshore,Onshore",14
5842041f4e65fad6a7708881,2024_06_04,30.20276320866628,-85.85626528676136,"Spyglass Dr., Panama City",0,0,0.21260214285714285,29,28,"NIGHT_CLEAR,NIGHT_CLEAR,NIGHT_CLEAR,NIGHT_CLEAR,NIGHT_CLEAR,CLEAR,CLEAR,CLEAR,CLEAR,CLEAR,CLEAR,CLEAR,MOSTLY_CLEAR,CLEAR","Onshore,Onshore,Onshore,Onshore,Onshore,Cross-shore,Cross-shore,Cross-shore,Onshore,Onshore,Onshore,Onshore,Onshore,Onshore",14
5842041f4e65fad6a7708884,2024_06_04,33.39000832738053,-117.59852,Cottons,3,0.9432621428571428,1.2443235714285714,17,17,"NIGHT_MIST,NIGHT_MIST,NIGHT_MIST,NIGHT_MIST,NIGHT_BRIEF_SHOWERS,NIGHT_MOSTLY_CLOUDY,MOSTLY_CLOUDY,MOSTLY_CLOUDY,MOSTLY_CLOUDY,MOSTLY_CLEAR,MOSTLY_CLEAR,MOSTLY_CLEAR,CLEAR,CLEAR","Offshore,Cross-shore,Offshore,Offshore,Offshore,Offshore,Offshore,Offshore,Offshore,Cross-shore,Cross-shore,Cross-shore,Onshore,Onshore",14
5842041f4e65fad6a7708885,2024_06_04,33.359416282661,-117.54168,Trails,2.642857142857143,0.4542857142857143,0.7592857142857143,18,18,"NIGHT_MIST,NIGHT_MIST,NIGHT_MIST,NIGHT_MIST,NIGHT_BRIEF_SHOWERS,NIGHT_MOSTLY_CLOUDY,MOSTLY_CLOUDY,MOSTLY_CLOUDY,MOSTLY_CLOUDY,MOSTLY_CLEAR,MOSTLY_CLEAR,MOSTLY_CLEAR,CLEAR,CLEAR","Cross-shore,Cross-shore,Offshore,Offshore,Offshore,Onshore,Offshore,Offshore,Offshore,Cross-shore,Onshore,Onshore,Onshore,Onshore",14
5842041f4e65fad6a7708886,2024_06_04,33.38042605929805,-117.58332,Middles,3,0.8807621428571428,1.134905,17,17,"NIGHT_MIST,NIGHT_MIST,NIGHT_MIST,NIGHT_MIST,NIGHT_BRIEF_SHOWERS,NIGHT_MOSTLY_CLOUDY,MOSTLY_CLOUDY,MOSTLY_CLOUDY,MOSTLY_CLOUDY,MOSTLY_CLEAR,MOSTLY_CLEAR,MOSTLY_CLEAR,CLEAR,CLEAR","Offshore,Cross-shore,Cross-shore,Offshore,Cross-shore,Cross-shore,Offshore,Offshore,Offshore,Cross-shore,Cross-shore,Cross-shore,Onshore,Onshore",14
5842041f4e65fad6a7708887,2024_06_04,33.38445596302903,-117.59445,Upper Trestles,3.0714285714285716,0.9299285714285714,1.2272407142857142,17,17,"NIGHT_MIST,NIGHT_MIST,NIGHT_MIST,NIGHT_MIST,NIGHT_BRIEF_SHOWERS,NIGHT_MOSTLY_CLOUDY,MOSTLY_CLOUDY,MOSTLY_CLOUDY,MOSTLY_CLOUDY,MOSTLY_CLEAR,MOSTLY_CLEAR,MOSTLY_CLEAR,CLEAR,CLEAR","Offshore,Cross-shore,Cross-shore,Offshore,Cross-shore,Cross-shore,Offshore,Offshore,Offshore,Cross-shore,Onshore,Cross-shore,Onshore,Onshore",14
5842041f4e65fad6a7708889,2024_06_04,28.944414,-95.28883,Surfside,1,0.981335,1.5333350000000001,28,28,"NIGHT_OVERCAST,NIGHT_DRIZZLE,NIGHT_LIGHT_RAIN,NIGHT_MIST,NIGHT_MOSTLY_CLOUDY,NIGHT_CLOUDY,MIST,MOSTLY_CLOUDY,DRIZZLE,MOSTLY_CLOUDY,MOSTLY_CLEAR,MOSTLY_CLEAR,MOSTLY_CLOUDY,CLEAR","Onshore,Onshore,Onshore,Offshore,Offshore,Onshore,Onshore,Onshore,Onshore,Onshore,Onshore,Onshore,Onshore,Onshore",14
5842041f4e65fad6a770888a,2024_06_04,33.38143999849023,-117.58843,Lower Trestles,3.0357142857142856,0.9783735714285714,1.3308335714285715,17,17,"NIGHT_MIST,NIGHT_MIST,NIGHT_MIST,NIGHT_MIST,NIGHT_BRIEF_SHOWERS,NIGHT_MOSTLY_CLOUDY,MOSTLY_CLOUDY,MOSTLY_CLOUDY,MOSTLY_CLOUDY,MOSTLY_CLEAR,MOSTLY_CLEAR,MOSTLY_CLEAR,CLEAR,CLEAR","Offshore,Cross-shore,Cross-shore,Offshore,Cross-shore,Cross-shore,Offshore,Offshore,Offshore,Cross-shore,Onshore,Cross-shore,Onshore,Onshore",14
5842041f4e65fad6a770888b,2024_06_04,33.379622288757,-117.57894,Church,3,0.8948092857142858,1.1385357142857142,17,17,"NIGHT_MIST,NIGHT_MIST,NIGHT_MIST,NIGHT_MIST,NIGHT_BRIEF_SHOWERS,NIGHT_MOSTLY_CLOUDY,MOSTLY_CLOUDY,MOSTLY_CLOUDY,MOSTLY_CLOUDY,MOSTLY_CLEAR,MOSTLY_CLEAR,MOSTLY_CLEAR,CLEAR,CLEAR","Offshore,Cross-shore,Cross-shore,Offshore,Cross-shore,Cross-shore,Offshore,Offshore,Offshore,Cross-shore,Cross-shore,Cross-shore,Onshore,Onshore",14
5842041f4e65fad6a770888d,2024_06_04,21.679,-158.042,Sunset Beach,2.762142857142857,1.0073050000000001,1.3729285714285715,26,25,"NIGHT_SHOWERS,NIGHT_BRIEF_SHOWERS,NIGHT_BRIEF_SHOWERS,NIGHT_BRIEF_SHOWERS,NIGHT_MOSTLY_CLOUDY,NIGHT_LIGHT_SHOWERS_POSSIBLE,NIGHT_CLEAR,NIGHT_MOSTLY_CLOUDY,NIGHT_BRIEF_SHOWERS,CLEAR,BRIEF_SHOWERS,CLEAR,CLEAR,BRIEF_SHOWERS","Cross-shore,Cross-shore,Cross-shore,Cross-shore,Offshore,Cross-shore,Offshore,Offshore,Cross-shore,Cross-shore,Cross-shore,Cross-shore,Cross-shore,Cross-shore",14
5842041f4e65fad6a770888e,2024_06_04,21.670550036401,-158.0482,Rocky Point,3,0.9856378571428571,1.3542378571428573,26,25,"NIGHT_CLEAR,NIGHT_CLEAR,NIGHT_BRIEF_SHOWERS_POSSIBLE,NIGHT_SHOWERS,NIGHT_BRIEF_SHOWERS,NIGHT_BRIEF_SHOWERS,NIGHT_BRIEF_SHOWERS,NIGHT_BRIEF_SHOWERS,NIGHT_SHOWERS,MOSTLY_CLEAR,BRIEF_SHOWERS,SHOWERS,SHOWERS,CLEAR","Cross-shore,Cross-shore,Cross-shore,Cross-shore,Cross-shore,Cross-shore,Cross-shore,Cross-shore,Cross-shore,Cross-shore,Cross-shore,Cross-shore,Cross-shore,Cross-shore",14
5842041f4e65fad6a770888f,2024_06_04,21.668,-158.05,Chambers,3,1.0314285714285714,1.2292857142857143,24,24,"NIGHT_CLEAR,NIGHT_CLEAR,NIGHT_BRIEF_SHOWERS_POSSIBLE,NIGHT_SHOWERS,NIGHT_BRIEF_SHOWERS,NIGHT_BRIEF_SHOWERS,NIGHT_BRIEF_SHOWERS,NIGHT_BRIEF_SHOWERS,NIGHT_SHOWERS,MOSTLY_CLEAR,BRIEF_SHOWERS,SHOWERS,SHOWERS,CLEAR","Cross-shore,Cross-shore,Cross-shore,Onshore,Cross-shore,Cross-shore,Cross-shore,Cross-shore,Cross-shore,Cross-shore,Cross-shore,Cross-shore,Cross-shore,Cross-shore",14
5842041f4e65fad6a7708890,2024_06_04,21.66522,-158.0526,Pipeline,2,0.9388521428571428,1.1472,26,25,"NIGHT_CLEAR,NIGHT_CLEAR,NIGHT_BRIEF_SHOWERS_POSSIBLE,NIGHT_SHOWERS,NIGHT_BRIEF_SHOWERS,NIGHT_BRIEF_SHOWERS,NIGHT_BRIEF_SHOWERS,NIGHT_BRIEF_SHOWERS,NIGHT_SHOWERS,MOSTLY_CLEAR,BRIEF_SHOWERS,SHOWERS,SHOWERS,CLEAR","Cross-shore,Cross-shore,Cross-shore,Cross-shore,Cross-shore,Cross-shore,Cross-shore,Cross-shore,Cross-shore,Cross-shore,Cross-shore,Cross-shore,Cross-shore,Cross-shore",14
5842041f4e65fad6a7708891,2024_06_04,21.665,-158.054,Backdoor,2.8685714285714288,0.9388521428571428,1.1472,26,25,"NIGHT_CLEAR,NIGHT_CLEAR,NIGHT_BRIEF_SHOWERS_POSSIBLE,NIGHT_SHOWERS,NIGHT_BRIEF_SHOWERS,NIGHT_BRIEF_SHOWERS,NIGHT_BRIEF_SHOWERS,NIGHT_BRIEF_SHOWERS,NIGHT_SHOWERS,MOSTLY_CLEAR,BRIEF_SHOWERS,SHOWERS,SHOWERS,CLEAR","Cross-shore,Cross-shore,Cross-shore,Cross-shore,Cross-shore,Cross-shore,Cross-shore,Cross-shore,Cross-shore,Cross-shore,Cross-shore,Cross-shore,Cross-shore,Cross-shore",14
5842041f4e65fad6a7708892,2024_06_04,21.662,-158.057,Rockpile,3,1.102142857142857,1.3742857142857143,24,24,"NIGHT_CLEAR,NIGHT_CLEAR,NIGHT_BRIEF_SHOWERS_POSSIBLE,NIGHT_SHOWERS,NIGHT_BRIEF_SHOWERS,NIGHT_BRIEF_SHOWERS,NIGHT_BRIEF_SHOWERS,NIGHT_BRIEF_SHOWERS,NIGHT_SHOWERS,MOSTLY_CLEAR,BRIEF_SHOWERS,SHOWERS,SHOWERS,CLEAR","Cross-shore,Cross-shore,Cross-shore,Cross-shore,Cross-shore,Cross-shore,Cross-shore,Cross-shore,Cross-shore,Cross-shore,Cross-shore,Cross-shore,Cross-shore,Cross-shore",14
5842041f4e65fad6a7708893,2024_06_04,21.65870453806827,-158.06058,Log Cabins,1.7857142857142858,0.7357142857142857,1.0335714285714286,24,24,"NIGHT_CLEAR,NIGHT_CLEAR,NIGHT_BRIEF_SHOWERS_POSSIBLE,NIGHT_SHOWERS,NIGHT_BRIEF_SHOWERS,NIGHT_BRIEF_SHOWERS,NIGHT_BRIEF_SHOWERS,NIGHT_BRIEF_SHOWERS,NIGHT_SHOWERS,MOSTLY_CLEAR,BRIEF_SHOWERS,SHOWERS,SHOWERS,CLEAR","Cross-shore,Cross-shore,Cross-shore,Cross-shore,Cross-shore,Cross-shore,Cross-shore,Cross-shore,Cross-shore,Cross-shore,Cross-shore,Cross-shore,Cross-shore,Cross-shore",14
5842041f4e65fad6a7708894,2024_06_04,21.66203493640557,-158.05495,Off-The-Wall,3,1.0064285714285715,1.2971428571428572,24,24,"NIGHT_CLEAR,NIGHT_CLEAR,NIGHT_BRIEF_SHOWERS_POSSIBLE,NIGHT_SHOWERS,NIGHT_BRIEF_SHOWERS,NIGHT_BRIEF_SHOWERS,NIGHT_BRIEF_SHOWERS,NIGHT_BRIEF_SHOWERS,NIGHT_SHOWERS,MOSTLY_CLEAR,BRIEF_SHOWERS,SHOWERS,SHOWERS,CLEAR","Cross-shore,Cross-shore,Cross-shore,Onshore,Cross-shore,Cross-shore,Cross-shore,Cross-shore,Cross-shore,Cross-shore,Cross-shore,Cross-shore,Cross-shore,Cross-shore",14
5842041f4e65fad6a7708895,2024_06_04,21.643,-158.067,Waimea Bay,NA,1.1102807142857143,1.4269764285714286,26,25,"NIGHT_CLEAR,NIGHT_CLEAR,NIGHT_BRIEF_SHOWERS_POSSIBLE,NIGHT_SHOWERS,NIGHT_BRIEF_SHOWERS,NIGHT_BRIEF_SHOWERS,NIGHT_BRIEF_SHOWERS,NIGHT_BRIEF_SHOWERS,NIGHT_SHOWERS,MOSTLY_CLEAR,BRIEF_SHOWERS,SHOWERS,SHOWERS,CLEAR","Cross-shore,Offshore,Offshore,Cross-shore,Offshore,Cross-shore,Offshore,Offshore,Cross-shore,Offshore,Offshore,Cross-shore,Offshore,Offshore",14
5842041f4e65fad6a7708896,2024_06_04,21.622,-158.087,Hultin's,3.44,1.2144478571428572,1.5600714285714286,26,25,"NIGHT_CLEAR,NIGHT_BRIEF_SHOWERS,NIGHT_CLEAR,NIGHT_BRIEF_SHOWERS,NIGHT_BRIEF_SHOWERS_POSSIBLE,NIGHT_CLEAR,NIGHT_CLEAR,NIGHT_CLEAR,NIGHT_CLEAR,CLEAR,CLEAR,CLEAR,CLEAR,CLEAR","Offshore,Offshore,Offshore,Offshore,Offshore,Offshore,Offshore,Offshore,Offshore,Offshore,Offshore,Offshore,Offshore,Offshore",14
5842041f4e65fad6a7708897,2024_06_04,21.623,-158.085,Jocko's,2.357142857142857,0.8428571428571429,1.0642857142857143,24.428571428571427,24.428571428571427,"NIGHT_CLEAR,NIGHT_BRIEF_SHOWERS,NIGHT_CLEAR,NIGHT_BRIEF_SHOWERS,NIGHT_BRIEF_SHOWERS_POSSIBLE,NIGHT_CLEAR,NIGHT_CLEAR,NIGHT_CLEAR,NIGHT_CLEAR,CLEAR,CLEAR,CLEAR,CLEAR,CLEAR","Onshore,Onshore,Onshore,Onshore,Onshore,Onshore,Cross-shore,Cross-shore,Onshore,Cross-shore,Cross-shore,Cross-shore,Cross-shore,Cross-shore",14
5842041f4e65fad6a7708898,2024_06_04,21.62,-158.088,Laniakea,3,0.9344478571428572,1.1934571428571428,26,25,"NIGHT_CLEAR,NIGHT_BRIEF_SHOWERS,NIGHT_CLEAR,NIGHT_BRIEF_SHOWERS,NIGHT_BRIEF_SHOWERS_POSSIBLE,NIGHT_CLEAR,NIGHT_CLEAR,NIGHT_CLEAR,NIGHT_CLEAR,CLEAR,CLEAR,CLEAR,CLEAR,CLEAR","Cross-shore,Cross-shore,Cross-shore,Cross-shore,Cross-shore,Cross-shore,Offshore,Offshore,Cross-shore,Offshore,Offshore,Offshore,Offshore,Offshore",14
5842041f4e65fad6a7708899,2024_06_04,21.625,-158.083,Chun's,2.2857142857142856,0.8357142857142857,1.0685714285714287,24.428571428571427,24.428571428571427,"NIGHT_CLEAR,NIGHT_BRIEF_SHOWERS,NIGHT_CLEAR,NIGHT_BRIEF_SHOWERS,NIGHT_BRIEF_SHOWERS_POSSIBLE,NIGHT_CLEAR,NIGHT_CLEAR,NIGHT_CLEAR,NIGHT_CLEAR,CLEAR,CLEAR,CLEAR,CLEAR,CLEAR","Offshore,Offshore,Offshore,Offshore,Offshore,Offshore,Offshore,Offshore,Offshore,Offshore,Offshore,Offshore,Offshore,Offshore",14
5842041f4e65fad6a770889c,2024_06_04,21.286357895152136,-157.8515,South Shore - Ala Moana Park,4,1.312857142857143,1.5692857142857144,26,26,"NIGHT_MOSTLY_CLOUDY,NIGHT_MOSTLY_CLOUDY,NIGHT_CLEAR,NIGHT_BRIEF_SHOWERS_POSSIBLE,NIGHT_CLEAR,NIGHT_CLEAR,NIGHT_MOSTLY_CLOUDY,NIGHT_CLEAR,NIGHT_CLEAR,CLEAR,BRIEF_SHOWERS,MOSTLY_CLEAR,CLEAR,CLEAR","Offshore,Offshore,Offshore,Offshore,Offshore,Offshore,Offshore,Offshore,Offshore,Offshore,Offshore,Offshore,Offshore,Offshore",14
5842041f4e65fad6a770889d,2024_06_04,19.606,-155.978,Banyans,3.1314285714285712,0.9913521428571429,1.296195,26,25,"NIGHT_CLEAR,NIGHT_CLEAR,NIGHT_CLEAR,NIGHT_CLEAR,NIGHT_CLEAR,NIGHT_CLEAR,NIGHT_CLEAR,NIGHT_CLEAR,NIGHT_CLEAR,CLEAR,CLEAR,CLEAR,CLEAR,CLEAR","Onshore,Cross-shore,Cross-shore,Cross-shore,Cross-shore,Onshore,Cross-shore,Cross-shore,Cross-shore,Onshore,Onshore,Onshore,Onshore,Onshore",14
5842041f4e65fad6a770889e,2024_06_04,20.029,-155.831,Kawaihae,2,0.4444,0.5835885714285715,26,26,"NIGHT_CLEAR,NIGHT_CLEAR,NIGHT_CLEAR,NIGHT_MOSTLY_CLEAR,NIGHT_CLEAR,NIGHT_CLEAR,NIGHT_CLEAR,NIGHT_CLEAR,NIGHT_CLEAR,MOSTLY_CLOUDY,MOSTLY_CLEAR,CLEAR,CLEAR,CLEAR","Offshore,Offshore,Offshore,Offshore,Offshore,Offshore,Offshore,Offshore,Offshore,Offshore,Onshore,Onshore,Onshore,Onshore",14
5842041f4e65fad6a770889f,2024_06_04,33.07541383424675,-117.3105,Grandview,2.7142857142857144,0.58,0.8857142857142857,18,18,"NIGHT_CLEAR,NIGHT_MIST,NIGHT_MIST,NIGHT_MIST,NIGHT_MIST,NIGHT_CLEAR,MOSTLY_CLOUDY,MOSTLY_CLOUDY,MOSTLY_CLOUDY,MOSTLY_CLOUDY,MOSTLY_CLEAR,CLEAR,CLEAR,MIST","Onshore,Onshore,Onshore,Onshore,Onshore,Onshore,Onshore,Onshore,Onshore,Onshore,Onshore,Onshore,Onshore,Onshore",14
5842041f4e65fad6a77088a0,2024_06_04,33.065267421296596,-117.30577,Beacons,2.9285714285714284,0.5628571428571428,0.8678571428571429,18,18,"NIGHT_CLEAR,NIGHT_MIST,NIGHT_MIST,NIGHT_MIST,NIGHT_MIST,NIGHT_CLEAR,MOSTLY_CLOUDY,MOSTLY_CLOUDY,MOSTLY_CLOUDY,MOSTLY_CLOUDY,MOSTLY_CLEAR,CLEAR,CLEAR,MIST","Onshore,Onshore,Onshore,Onshore,Onshore,Onshore,Onshore,Onshore,Onshore,Onshore,Onshore,Onshore,Onshore,Onshore",14
5842041f4e65fad6a77088a2,2024_06_04,21.252,-157.805,Diamond Head,3,1.3462242857142857,1.7443307142857143,26,25,"NIGHT_MOSTLY_CLOUDY,NIGHT_MOSTLY_CLOUDY,NIGHT_BRIEF_SHOWERS,NIGHT_MOSTLY_CLOUDY,NIGHT_CLEAR,NIGHT_MOSTLY_CLOUDY,NIGHT_MOSTLY_CLOUDY,NIGHT_CLEAR,NIGHT_CLEAR,MOSTLY_CLOUDY,MOSTLY_CLOUDY,MOSTLY_CLEAR,CLEAR,MOSTLY_CLEAR","Cross-shore,Cross-shore,Cross-shore,Cross-shore,Cross-shore,Cross-shore,Cross-shore,Cross-shore,Cross-shore,Cross-shore,Cross-shore,Cross-shore,Cross-shore,Cross-shore",14
5842041f4e65fad6a77088a3,2024_06_04,33.04694255008896,-117.29966,Moonlight State Beach,2.857142857142857,0.5864285714285714,0.8921428571428571,18,18,"NIGHT_CLEAR,NIGHT_MIST,NIGHT_MIST,NIGHT_MIST,NIGHT_MIST,NIGHT_CLEAR,CLEAR,MOSTLY_CLOUDY,MOSTLY_CLOUDY,MOSTLY_CLOUDY,MOSTLY_CLEAR,CLEAR,MIST,MIST","Onshore,Onshore,Onshore,Onshore,Onshore,Onshore,Onshore,Onshore,Onshore,Onshore,Onshore,Onshore,Onshore,Onshore",14
5842041f4e65fad6a77088a5,2024_06_04,33.08685865930869,-117.31532,Ponto,2.642857142857143,0.6821428571428572,0.9871428571428572,18,18,"NIGHT_CLEAR,NIGHT_MIST,NIGHT_MIST,NIGHT_MIST,NIGHT_MIST,NIGHT_CLEAR,MOSTLY_CLOUDY,MOSTLY_CLOUDY,MOSTLY_CLOUDY,MOSTLY_CLOUDY,MOSTLY_CLEAR,CLEAR,CLEAR,MIST","Cross-shore,Onshore,Cross-shore,Cross-shore,Cross-shore,Cross-shore,Cross-shore,Onshore,Cross-shore,Offshore,Onshore,Onshore,Onshore,Onshore",14
5842041f4e65fad6a77088a6,2024_06_04,33.130343587871906,-117.33668,Terra Mar Point,2.7857142857142856,0.566295,0.9407357142857142,18,17,"NIGHT_CLEAR,NIGHT_MOSTLY_CLOUDY,NIGHT_OVERCAST,NIGHT_MOSTLY_CLOUDY,NIGHT_MOSTLY_CLOUDY,NIGHT_MOSTLY_CLEAR,MOSTLY_CLOUDY,MOSTLY_CLOUDY,MOSTLY_CLOUDY,MIST,MOSTLY_CLEAR,CLEAR,CLEAR,CLEAR","Cross-shore,Onshore,Onshore,Cross-shore,Onshore,Onshore,Onshore,Cross-shore,Offshore,Onshore,Onshore,Onshore,Onshore,Onshore",14
5842041f4e65fad6a77088af,2024_06_04,32.95916304183685,-117.26963,Del Mar,2.5714285714285716,0.6957142857142857,0.9992857142857143,18,18,"NIGHT_MIST,NIGHT_MIST,NIGHT_MIST,NIGHT_MIST,NIGHT_MIST,NIGHT_CLEAR,CLEAR,CLEAR,CLEAR,MOSTLY_CLOUDY,CLEAR,MOSTLY_CLEAR,MIST,MIST","Onshore,Onshore,Onshore,Onshore,Onshore,Cross-shore,Offshore,Onshore,Cross-shore,Cross-shore,Cross-shore,Cross-shore,Cross-shore,Onshore",14
5842041f4e65fad6a77088b0,2024_06_04,32.97527261243354,-117.2721061331305,Del Mar Rivermouth,1.9285714285714286,0.655,0.9585714285714286,18,18,"NIGHT_MIST,NIGHT_MIST,NIGHT_MIST,NIGHT_MIST,NIGHT_MIST,NIGHT_CLEAR,CLEAR,CLEAR,CLEAR,MOSTLY_CLOUDY,CLEAR,CLEAR,MIST,MIST","Onshore,Onshore,Onshore,Onshore,Onshore,Cross-shore,Cross-shore,Onshore,Cross-shore,Cross-shore,Cross-shore,Cross-shore,Cross-shore,Onshore",14
5842041f4e65fad6a77088b1,2024_06_04,33.01352178146273,-117.28219,Cardiff Reef,2.405,0.5732,0.9509571428571428,18,17,"NIGHT_MIST,NIGHT_MIST,NIGHT_MIST,NIGHT_MIST,NIGHT_MIST,NIGHT_CLEAR,CLEAR,CLEAR,MOSTLY_CLOUDY,MOSTLY_CLOUDY,MOSTLY_CLEAR,CLEAR,CLEAR,MIST","Cross-shore,Onshore,Onshore,Cross-shore,Onshore,Onshore,Onshore,Cross-shore,Onshore,Cross-shore,Onshore,Onshore,Onshore,Onshore",14
5842041f4e65fad6a77088b3,2024_06_04,33.00211185876003,-117.2811,Seaside Reef,2.5357142857142856,0.6059378571428572,0.9858378571428571,18,17,"NIGHT_MIST,NIGHT_MIST,NIGHT_MIST,NIGHT_MIST,NIGHT_MIST,NIGHT_CLEAR,MOSTLY_CLEAR,MOSTLY_CLOUDY,MOSTLY_CLOUDY,MIST,MOSTLY_CLEAR,CLEAR,MIST,MIST","Onshore,Onshore,Onshore,Onshore,Onshore,Onshore,Cross-shore,Onshore,Onshore,Onshore,Onshore,Onshore,Onshore,Onshore",14
5842041f4e65fad6a77088b4,2024_06_04,33.0341859796287,-117.29552,Swami's,2.75,0.5880214285714286,0.8946807142857143,18,17,"NIGHT_MIST,NIGHT_MIST,NIGHT_MIST,NIGHT_MIST,NIGHT_MIST,NIGHT_CLEAR,CLEAR,CLEAR,MOSTLY_CLOUDY,MOSTLY_CLOUDY,MOSTLY_CLEAR,CLEAR,CLEAR,MIST","Onshore,Onshore,Onshore,Onshore,Onshore,Cross-shore,Onshore,Onshore,Onshore,Onshore,Onshore,Onshore,Onshore,Onshore",14
5842041f4e65fad6a77088b7,2024_06_04,33.04569760260221,-117.2994,D Street,3,0.6228571428571429,0.9271428571428572,18,18,"NIGHT_CLEAR,NIGHT_MIST,NIGHT_MIST,NIGHT_MIST,NIGHT_MIST,NIGHT_CLEAR,CLEAR,MOSTLY_CLOUDY,MOSTLY_CLOUDY,MOSTLY_CLOUDY,MOSTLY_CLEAR,CLEAR,MIST,MIST","Onshore,Onshore,Onshore,Onshore,Onshore,Onshore,Onshore,Onshore,Onshore,Onshore,Onshore,Onshore,Onshore,Onshore",14
5842041f4e65fad6a77088b8,2024_06_04,33.02090944350196,-117.28535,San Elijo State Beach,2.6664285714285714,0.47355714285714284,0.8534571428571428,18,17,"NIGHT_MIST,NIGHT_MIST,NIGHT_MIST,NIGHT_MIST,NIGHT_MIST,NIGHT_CLEAR,CLEAR,CLEAR,MOSTLY_CLOUDY,MOSTLY_CLOUDY,MOSTLY_CLEAR,CLEAR,CLEAR,MIST","Cross-shore,Onshore,Onshore,Cross-shore,Onshore,Onshore,Onshore,Cross-shore,Onshore,Onshore,Onshore,Onshore,Onshore,Onshore",14
5842041f4e65fad6a77088c2,2024_06_04,32.80662846492798,-117.26888,PB Point,2.7142857142857144,0.6014285714285714,0.905,18,18,"NIGHT_BRIEF_SHOWERS,NIGHT_MOSTLY_CLOUDY,NIGHT_MOSTLY_CLOUDY,NIGHT_MOSTLY_CLOUDY,NIGHT_MOSTLY_CLOUDY,NIGHT_MOSTLY_CLEAR,MOSTLY_CLOUDY,MOSTLY_CLOUDY,MOSTLY_CLOUDY,MOSTLY_CLOUDY,MOSTLY_CLEAR,CLEAR,CLEAR,CLEAR","Onshore,Onshore,Onshore,Onshore,Onshore,Onshore,Onshore,Onshore,Onshore,Onshore,Onshore,Onshore,Onshore,Onshore",14
5842041f4e65fad6a77088c4,2024_06_04,32.8060476681448,-117.26479,Old Man's at Tourmaline,2.642857142857143,0.45357142857142857,0.7571428571428571,18,18,"NIGHT_BRIEF_SHOWERS,NIGHT_MOSTLY_CLOUDY,NIGHT_MOSTLY_CLOUDY,NIGHT_MOSTLY_CLOUDY,NIGHT_MOSTLY_CLOUDY,NIGHT_MOSTLY_CLEAR,MOSTLY_CLOUDY,MOSTLY_CLOUDY,MOSTLY_CLOUDY,MOSTLY_CLOUDY,MOSTLY_CLEAR,CLEAR,CLEAR,CLEAR","Onshore,Onshore,Onshore,Onshore,Onshore,Onshore,Onshore,Onshore,Onshore,Onshore,Onshore,Onshore,Onshore,Onshore",14
5842041f4e65fad6a77088cb,2024_06_04,32.557056711256,-117.1327445020322,Tijuana Slough,2.4285714285714284,0.5514285714285714,0.8571428571428572,18,18,"NIGHT_MOSTLY_CLOUDY,NIGHT_MIST,NIGHT_MIST,NIGHT_MIST,NIGHT_MIST,NIGHT_MOSTLY_CLOUDY,CLEAR,CLEAR,CLEAR,MIST,MOSTLY_CLOUDY,MOSTLY_CLEAR,MOSTLY_CLOUDY,MIST","Onshore,Onshore,Onshore,Onshore,Onshore,Onshore,Onshore,Onshore,Onshore,Onshore,Onshore,Onshore,Onshore,Onshore",14
5842041f4e65fad6a77088cc,2024_06_04,32.863,-117.257,La Jolla Shores,2.7857142857142856,0.5828571428571429,0.8878571428571429,18,18,"NIGHT_CLEAR,NIGHT_CLEAR,NIGHT_CLEAR,NIGHT_MIST,NIGHT_MIST,NIGHT_CLEAR,CLEAR,CLEAR,CLEAR,MIST,MOSTLY_CLEAR,CLEAR,MIST,MIST","Cross-shore,Cross-shore,Cross-shore,Offshore,Offshore,Cross-shore,Offshore,Cross-shore,Cross-shore,Onshore,Onshore,Onshore,Onshore,Cross-shore",14
5842041f4e65fad6a77088ce,2024_06_04,32.67443657790586,-117.17421,Coronado Beach,3,0.9307142857142857,1.1364285714285716,18,18,"NIGHT_MIST,NIGHT_MOSTLY_CLOUDY,NIGHT_OVERCAST,NIGHT_MIST,NIGHT_CLOUDY,NIGHT_MOSTLY_CLOUDY,MOSTLY_CLOUDY,MOSTLY_CLOUDY,MOSTLY_CLOUDY,MOSTLY_CLOUDY,MOSTLY_CLOUDY,MOSTLY_CLEAR,CLEAR,CLEAR","Onshore,Onshore,Onshore,Onshore,Onshore,Onshore,Onshore,Onshore,Onshore,Onshore,Onshore,Onshore,Onshore,Onshore",14
5842041f4e65fad6a77088cf,2024_06_04,33.40484417640326,-117.60749,San Clemente State Beach,2.7142857142857144,0.4992857142857143,0.8042857142857143,17,17,"NIGHT_MIST,NIGHT_MIST,NIGHT_MOSTLY_CLEAR,NIGHT_MIST,NIGHT_MIST,NIGHT_MOSTLY_CLOUDY,MOSTLY_CLOUDY,MOSTLY_CLOUDY,MOSTLY_CLOUDY,MOSTLY_CLEAR,CLEAR,CLEAR,CLEAR,CLEAR","Onshore,Cross-shore,Cross-shore,Cross-shore,Cross-shore,Onshore,Onshore,Onshore,Onshore,Onshore,Onshore,Onshore,Onshore,Onshore",14
5842041f4e65fad6a77088d5,2024_06_04,33.4663042002114,-117.7168352817103,Strands,2.857142857142857,0.7442142857142857,1.0477621428571429,16,16,"NIGHT_MIST,NIGHT_MIST,NIGHT_MIST,NIGHT_MOSTLY_CLEAR,NIGHT_MOSTLY_CLOUDY,NIGHT_MOSTLY_CLOUDY,MOSTLY_CLOUDY,MOSTLY_CLOUDY,MOSTLY_CLOUDY,MIST,MIST,MIST,MIST,MIST","Onshore,Onshore,Cross-shore,Cross-shore,Cross-shore,Onshore,Onshore,Onshore,Onshore,Onshore,Onshore,Onshore,Onshore,Onshore",14
5842041f4e65fad6a77088d7,2024_06_04,33.4609858001748,-117.68535,Doheny State Beach,2,0.23711928571428573,0.5426907142857142,17,17,"NIGHT_CLEAR,NIGHT_CLEAR,NIGHT_MOSTLY_CLEAR,NIGHT_MOSTLY_CLEAR,NIGHT_MOSTLY_CLOUDY,NIGHT_MOSTLY_CLOUDY,MOSTLY_CLOUDY,MOSTLY_CLOUDY,MOSTLY_CLOUDY,MOSTLY_CLEAR,MOSTLY_CLEAR,MOSTLY_CLEAR,MOSTLY_CLEAR,CLEAR","Onshore,Onshore,Cross-shore,Cross-shore,Cross-shore,Onshore,Onshore,Onshore,Onshore,Onshore,Onshore,Onshore,Onshore,Onshore",14
5842041f4e65fad6a77088dc,2024_06_04,33.50894790083017,-117.75243,Aliso Creek,2.7857142857142856,0.4664285714285714,0.7728571428571429,17,17,"NIGHT_OVERCAST,NIGHT_MIST,NIGHT_MIST,NIGHT_MIST,NIGHT_MOSTLY_CLOUDY,NIGHT_MOSTLY_CLOUDY,MOSTLY_CLOUDY,MOSTLY_CLOUDY,MOSTLY_CLOUDY,MIST,MIST,MIST,MIST,MIST","Onshore,Onshore,Cross-shore,Cross-shore,Cross-shore,Onshore,Onshore,Onshore,Onshore,Onshore,Onshore,Onshore,Onshore,Onshore",14
5842041f4e65fad6a77088dd,2024_06_04,33.5326591767067,-117.77764,Brooks Street,2.4285714285714284,0.3742857142857143,0.6792857142857143,17,17,"NIGHT_CLEAR,NIGHT_MOSTLY_CLOUDY,NIGHT_MIST,NIGHT_MIST,NIGHT_MIST,NIGHT_MOSTLY_CLOUDY,MOSTLY_CLOUDY,MOSTLY_CLOUDY,MOSTLY_CLOUDY,MIST,MIST,MIST,MIST,MIST","Onshore,Onshore,Cross-shore,Cross-shore,Cross-shore,Onshore,Onshore,Cross-shore,Onshore,Onshore,Onshore,Onshore,Onshore,Onshore",14
5842041f4e65fad6a77088de,2024_06_04,33.53561225884637,-117.7799,Thalia Street,2.7857142857142856,0.34714285714285714,0.6528571428571429,17,17,"NIGHT_CLEAR,NIGHT_MOSTLY_CLOUDY,NIGHT_MIST,NIGHT_MIST,NIGHT_MIST,NIGHT_MOSTLY_CLOUDY,MOSTLY_CLOUDY,MOSTLY_CLOUDY,MOSTLY_CLOUDY,MIST,MIST,MIST,MIST,MIST","Onshore,Onshore,Cross-shore,Cross-shore,Onshore,Onshore,Onshore,Cross-shore,Onshore,Onshore,Onshore,Onshore,Onshore,Onshore",14
5842041f4e65fad6a77088e3,2024_06_04,33.54268310353641,-117.7916,Rockpile,2.7857142857142856,0.3742857142857143,0.6792857142857143,17,17,"NIGHT_CLEAR,NIGHT_MOSTLY_CLOUDY,NIGHT_MIST,NIGHT_MIST,NIGHT_MIST,NIGHT_MOSTLY_CLOUDY,MOSTLY_CLOUDY,MOSTLY_CLOUDY,MOSTLY_CLOUDY,MIST,MIST,MIST,MIST,MIST","Onshore,Onshore,Cross-shore,Cross-shore,Onshore,Onshore,Onshore,Cross-shore,Onshore,Onshore,Onshore,Onshore,Onshore,Onshore",14
5842041f4e65fad6a77088e4,2024_06_04,33.7368459504689,-118.10342,"Seal Beach Pier, Southside",2.4285714285714284,0.3678571428571429,0.6721428571428572,16,16,"NIGHT_MIST,NIGHT_MIST,NIGHT_MIST,NIGHT_MIST,NIGHT_MIST,NIGHT_MOSTLY_CLEAR,BRIEF_SHOWERS,OVERCAST,OVERCAST,MOSTLY_CLOUDY,MIST,MIST,MIST,MIST","Onshore,Onshore,Onshore,Onshore,Cross-shore,Onshore,Onshore,Onshore,Onshore,Onshore,Onshore,Onshore,Onshore,Onshore",14
5842041f4e65fad6a77088e5,2024_06_04,33.73933701820233,-118.117,Ray Bay,2.4285714285714284,0.41285714285714287,0.7178571428571429,16,16,"NIGHT_CLEAR,NIGHT_CLEAR,NIGHT_CLEAR,NIGHT_CLEAR,NIGHT_MOSTLY_CLEAR,NIGHT_MOSTLY_CLEAR,MOSTLY_CLOUDY,CLOUDY,CLOUDY,MOSTLY_CLOUDY,CLEAR,CLEAR,CLEAR,CLEAR","Onshore,Onshore,Onshore,Onshore,Cross-shore,Cross-shore,Cross-shore,Onshore,Onshore,Onshore,Onshore,Onshore,Onshore,Onshore",14
5842041f4e65fad6a77088e7,2024_06_04,33.728733,-118.08982,Surfside,1,0,0.28785714285714287,16,16,"NIGHT_CLEAR,NIGHT_CLEAR,NIGHT_MOSTLY_CLEAR,NIGHT_MOSTLY_CLEAR,NIGHT_MOSTLY_CLEAR,NIGHT_MOSTLY_CLEAR,MOSTLY_CLOUDY,OVERCAST,OVERCAST,MOSTLY_CLOUDY,MOSTLY_CLEAR,CLEAR,CLEAR,CLEAR","Onshore,Onshore,Onshore,Onshore,Onshore,Onshore,Onshore,Onshore,Onshore,Onshore,Onshore,Onshore,Onshore,Onshore",14
5842041f4e65fad6a77088e8,2024_06_04,33.68760321488161,-118.04236,Bolsa Chica State Beach,2.5835714285714286,0.5369,0.8463878571428571,16,16,"NIGHT_CLEAR,NIGHT_CLEAR,NIGHT_CLEAR,NIGHT_CLEAR,NIGHT_MOSTLY_CLOUDY,NIGHT_MOSTLY_CLOUDY,MOSTLY_CLOUDY,MOSTLY_CLOUDY,OVERCAST,MOSTLY_CLOUDY,CLEAR,CLEAR,CLEAR,CLEAR","Onshore,Onshore,Onshore,Onshore,Onshore,Onshore,Onshore,Onshore,Onshore,Onshore,Onshore,Onshore,Onshore,Onshore",14
5842041f4e65fad6a77088ea,2024_06_04,33.66704400178788,-118.0192,North HB Streets,2.7857142857142856,0.7832664285714286,1.090255,16,16,"NIGHT_CLEAR,NIGHT_CLEAR,NIGHT_CLEAR,NIGHT_CLEAR,NIGHT_CLEAR,NIGHT_CLEAR,MOSTLY_CLOUDY,MOSTLY_CLOUDY,OVERCAST,MOSTLY_CLOUDY,CLEAR,CLEAR,CLEAR,CLEAR","Onshore,Offshore,Offshore,Offshore,Cross-shore,Offshore,Onshore,Onshore,Cross-shore,Cross-shore,Onshore,Onshore,Onshore,Onshore",14
5842041f4e65fad6a77088ed,2024_06_04,33.65475101379567,-118.00291,Huntington Beach Pier Southside,2.7857142857142856,0.8142785714285714,1.1742714285714286,16,16,"NIGHT_CLEAR,NIGHT_CLEAR,NIGHT_CLEAR,NIGHT_CLEAR,NIGHT_CLEAR,NIGHT_CLEAR,MOSTLY_CLOUDY,MOSTLY_CLOUDY,OVERCAST,MOSTLY_CLOUDY,CLEAR,CLEAR,CLEAR,CLEAR","Onshore,Offshore,Cross-shore,Cross-shore,Cross-shore,Cross-shore,Cross-shore,Onshore,Onshore,Onshore,Onshore,Onshore,Onshore,Onshore",14
5842041f4e65fad6a77088ee,2024_06_04,33.62778647706099,-117.95939,River Jetties,2.9285714285714284,0.7961835714285714,1.1733785714285714,16,16,"NIGHT_CLEAR,NIGHT_CLEAR,NIGHT_CLEAR,NIGHT_CLEAR,NIGHT_CLEAR,NIGHT_MOSTLY_CLOUDY,MOSTLY_CLOUDY,MOSTLY_CLOUDY,MOSTLY_CLOUDY,MOSTLY_CLOUDY,MOSTLY_CLEAR,MOSTLY_CLEAR,CLEAR,CLEAR","Onshore,Onshore,Onshore,Cross-shore,Onshore,Onshore,Cross-shore,Onshore,Onshore,Onshore,Cross-shore,Onshore,Onshore,Onshore",14
5842041f4e65fad6a77088f2,2024_06_04,33.605165797643664,-117.925,Newport Point,1.9285714285714286,0.2707142857142857,0.5778571428571428,17,17,"NIGHT_MIST,NIGHT_MIST,NIGHT_MIST,NIGHT_BRIEF_SHOWERS,NIGHT_MIST,NIGHT_MOSTLY_CLOUDY,MOSTLY_CLOUDY,CLEAR,CLEAR,MIST,MIST,MIST,MIST,MIST","Onshore,Onshore,Onshore,Onshore,Onshore,Onshore,Onshore,Onshore,Onshore,Onshore,Onshore,Onshore,Onshore,Onshore",14
5842041f4e65fad6a77088f3,2024_06_04,33.58982984726977,-117.87713,Corona del Mar,2.7142857142857144,0.43714285714285717,0.7414285714285714,17,17,"NIGHT_MOSTLY_CLOUDY,NIGHT_MIST,NIGHT_MIST,NIGHT_MIST,NIGHT_BRIEF_SHOWERS,NIGHT_MOSTLY_CLOUDY,MOSTLY_CLOUDY,MOSTLY_CLOUDY,MOSTLY_CLOUDY,MIST,MIST,MIST,MIST,MIST","Onshore,Offshore,Offshore,Onshore,Offshore,Onshore,Cross-shore,Cross-shore,Cross-shore,Cross-shore,Onshore,Cross-shore,Cross-shore,Onshore",14
5842041f4e65fad6a77088f7,2024_06_04,34.00750300824362,-118.4971783496269,Santa Monica Pier,2.5,0.40785714285714286,0.7142857142857143,16,16,"NIGHT_CLEAR,NIGHT_CLEAR,NIGHT_CLEAR,NIGHT_CLEAR,NIGHT_CLEAR,NIGHT_CLEAR,MOSTLY_CLOUDY,MIST,MOSTLY_CLEAR,MOSTLY_CLEAR,MOSTLY_CLEAR,MOSTLY_CLEAR,CLEAR,CLEAR","Onshore,Onshore,Offshore,Offshore,Offshore,Onshore,Onshore,Onshore,Onshore,Onshore,Onshore,Onshore,Onshore,Onshore",14
5842041f4e65fad6a77088ff,2024_06_04,33.94070283102945,-118.44321,Dockweiler Beach,2.7142857142857144,0.608345,0.9712592857142858,17,17,"NIGHT_MOSTLY_CLOUDY,NIGHT_MOSTLY_CLEAR,NIGHT_MOSTLY_CLEAR,NIGHT_MOSTLY_CLEAR,NIGHT_MOSTLY_CLOUDY,NIGHT_MOSTLY_CLOUDY,MOSTLY_CLOUDY,MIST,MOSTLY_CLEAR,MIST,MIST,MIST,MIST,MIST","Onshore,Onshore,Offshore,Cross-shore,Offshore,Onshore,Onshore,Onshore,Onshore,Onshore,Onshore,Onshore,Onshore,Onshore",14
5842041f4e65fad6a7708900,2024_06_04,33.9231846937237,-118.4341465777908,Shitpipe,2.607142857142857,0.6560835714285714,1.0186407142857143,17,17,"NIGHT_MOSTLY_CLOUDY,NIGHT_MOSTLY_CLEAR,NIGHT_MOSTLY_CLEAR,NIGHT_MOSTLY_CLEAR,NIGHT_MOSTLY_CLOUDY,NIGHT_MOSTLY_CLOUDY,MOSTLY_CLOUDY,MIST,MOSTLY_CLEAR,MIST,MIST,MIST,MIST,MIST","Onshore,Onshore,Offshore,Offshore,Offshore,Onshore,Onshore,Onshore,Onshore,Onshore,Onshore,Onshore,Onshore,Onshore",14
5842041f4e65fad6a7708902,2024_06_04,33.9108528052242,-118.4279133138721,Hammerland,2.7857142857142856,0.6560835714285714,1.0186407142857143,17,17,"NIGHT_MOSTLY_CLOUDY,NIGHT_MOSTLY_CLEAR,NIGHT_MOSTLY_CLEAR,NIGHT_MOSTLY_CLEAR,NIGHT_MOSTLY_CLOUDY,NIGHT_MOSTLY_CLOUDY,MOSTLY_CLOUDY,MIST,MOSTLY_CLEAR,MIST,MIST,MIST,MIST,MIST","Onshore,Onshore,Offshore,Offshore,Offshore,Onshore,Onshore,Onshore,Onshore,Onshore,Onshore,Onshore,Onshore,Onshore",14
5842041f4e65fad6a7708904,2024_06_04,33.87201368173932,-118.40752,Hermosa Beach,2.5835714285714286,0.44551214285714286,0.8149407142857142,17,17,"NIGHT_CLEAR,NIGHT_CLEAR,NIGHT_MOSTLY_CLEAR,NIGHT_MOSTLY_CLEAR,NIGHT_CLEAR,NIGHT_CLEAR,MOSTLY_CLOUDY,MIST,MOSTLY_CLOUDY,MIST,MIST,MIST,MIST,MIST","Onshore,Onshore,Offshore,Offshore,Offshore,Onshore,Onshore,Cross-shore,Cross-shore,Onshore,Onshore,Onshore,Onshore,Onshore",14
5842041f4e65fad6a7708906,2024_06_04,33.90129336911256,-118.42184,El Porto,2.857142857142857,0.6560835714285714,1.0186407142857143,17,17,"NIGHT_MOSTLY_CLOUDY,NIGHT_MOSTLY_CLEAR,NIGHT_MOSTLY_CLEAR,NIGHT_MOSTLY_CLEAR,NIGHT_MOSTLY_CLOUDY,NIGHT_CLEAR,MOSTLY_CLOUDY,MIST,MOSTLY_CLOUDY,MIST,MIST,MIST,MIST,MIST","Onshore,Onshore,Offshore,Offshore,Offshore,Onshore,Onshore,Cross-shore,Onshore,Onshore,Onshore,Onshore,Onshore,Onshore",14
5842041f4e65fad6a7708907,2024_06_04,33.87963506431794,-118.41102,Manhattan Beach Pier,2.7857142857142856,0.6203092857142857,0.9886071428571428,17,17,"NIGHT_MOSTLY_CLOUDY,NIGHT_MOSTLY_CLEAR,NIGHT_MOSTLY_CLEAR,NIGHT_MOSTLY_CLEAR,NIGHT_MOSTLY_CLOUDY,NIGHT_CLEAR,MOSTLY_CLOUDY,MIST,MOSTLY_CLOUDY,MIST,MIST,MIST,MIST,MIST","Onshore,Onshore,Offshore,Offshore,Offshore,Onshore,Onshore,Cross-shore,Onshore,Onshore,Onshore,Onshore,Onshore,Onshore",14
5842041f4e65fad6a7708914,2024_06_04,34.038053387863464,-118.5532,Sunset Point,2.2857142857142856,0.2792857142857143,0.5821428571428572,16,16,"NIGHT_CLEAR,NIGHT_CLEAR,NIGHT_CLEAR,NIGHT_CLEAR,NIGHT_CLEAR,NIGHT_MOSTLY_CLOUDY,MIST,BRIEF_SHOWERS,MOSTLY_CLOUDY,MOSTLY_CLEAR,CLEAR,CLEAR,CLEAR,CLEAR","Offshore,Offshore,Offshore,Offshore,Offshore,Cross-shore,Offshore,Offshore,Offshore,Onshore,Onshore,Onshore,Cross-shore,Cross-shore",14
5842041f4e65fad6a7708920,2024_06_04,33.80282,-118.39989,Haggerty's,2.5,0.36342857142857143,0.6062857142857143,16,16,"NIGHT_MOSTLY_CLOUDY,NIGHT_CLEAR,NIGHT_CLEAR,NIGHT_CLEAR,NIGHT_CLEAR,NIGHT_MOSTLY_CLOUDY,MOSTLY_CLOUDY,MOSTLY_CLOUDY,MOSTLY_CLOUDY,CLEAR,MIST,MIST,MIST,MIST","Cross-shore,Onshore,Offshore,Cross-shore,Offshore,Onshore,Onshore,Cross-shore,Offshore,Offshore,Offshore,Offshore,Offshore,Onshore",14
5842041f4e65fad6a7708921,2024_06_04,33.85044519861206,-118.40048,Redondo Breakwater,2.7857142857142856,0.5078571428571429,0.8128571428571428,16,16,"NIGHT_CLEAR,NIGHT_CLEAR,NIGHT_MOSTLY_CLEAR,NIGHT_MOSTLY_CLEAR,NIGHT_CLEAR,NIGHT_CLEAR,MOSTLY_CLOUDY,MIST,MOSTLY_CLOUDY,MIST,MIST,MIST,MIST,MIST","Onshore,Onshore,Offshore,Offshore,Offshore,Onshore,Onshore,Cross-shore,Cross-shore,Onshore,Onshore,Onshore,Onshore,Onshore",14
5842041f4e65fad6a7708927,2024_06_04,33.70877301002487,-118.2840112858389,Cabrillo Beach,2.357142857142857,0.2842857142857143,0.5892857142857143,16,16,"NIGHT_CLEAR,NIGHT_MOSTLY_CLEAR,NIGHT_MOSTLY_CLEAR,NIGHT_CLEAR,NIGHT_CLEAR,NIGHT_MOSTLY_CLEAR,MOSTLY_CLOUDY,MOSTLY_CLOUDY,MOSTLY_CLOUDY,MOSTLY_CLOUDY,CLEAR,CLEAR,CLEAR,CLEAR","Offshore,Onshore,Onshore,Onshore,Onshore,Offshore,Onshore,Offshore,Onshore,Cross-shore,Cross-shore,Offshore,Offshore,Offshore",14
5842041f4e65fad6a770892c,2024_06_04,33.77209986806257,-118.4268428476672,Lunada Bay,1.7857142857142858,0.5442857142857143,0.8485714285714285,16,16,"NIGHT_CLEAR,NIGHT_CLEAR,NIGHT_CLEAR,NIGHT_CLEAR,NIGHT_CLEAR,NIGHT_CLEAR,MOSTLY_CLOUDY,MOSTLY_CLOUDY,MOSTLY_CLOUDY,MIST,MIST,MIST,MIST,MIST","Onshore,Onshore,Offshore,Cross-shore,Cross-shore,Onshore,Cross-shore,Offshore,Offshore,Onshore,Onshore,Onshore,Onshore,Onshore",14
5842041f4e65fad6a770892d,2024_06_04,33.79294656286144,-118.40703,PV Cove,2.642857142857143,0.4542857142857143,0.7578571428571429,16,16,"NIGHT_MOSTLY_CLOUDY,NIGHT_CLEAR,NIGHT_CLEAR,NIGHT_CLEAR,NIGHT_CLEAR,NIGHT_MOSTLY_CLOUDY,MOSTLY_CLOUDY,MOSTLY_CLOUDY,MOSTLY_CLOUDY,CLEAR,MIST,MIST,MIST,MIST","Cross-shore,Offshore,Cross-shore,Offshore,Offshore,Onshore,Onshore,Cross-shore,Onshore,Onshore,Onshore,Onshore,Onshore,Onshore",14
5842041f4e65fad6a7708930,2024_06_04,34.03944902292561,-118.57539,Chart House,0.7142857142857143,0,0.16785714285714287,16,16,"NIGHT_CLEAR,NIGHT_CLEAR,NIGHT_CLEAR,NIGHT_CLEAR,NIGHT_CLEAR,NIGHT_MOSTLY_CLEAR,MIST,BRIEF_SHOWERS,MOSTLY_CLEAR,MOSTLY_CLEAR,CLEAR,MOSTLY_CLEAR,CLEAR,CLEAR","Offshore,Offshore,Offshore,Offshore,Offshore,Offshore,Offshore,Offshore,Offshore,Onshore,Onshore,Cross-shore,Cross-shore,Cross-shore",14
5842041f4e65fad6a7708936,2024_06_04,34.0016731994772,-118.80456,Point Dume,1.9642857142857142,0.40581214285714284,0.7089264285714285,14,14,"NIGHT_CLEAR,NIGHT_CLEAR,NIGHT_CLEAR,NIGHT_CLEAR,NIGHT_CLEAR,NIGHT_MOSTLY_CLOUDY,MIST,MOSTLY_CLOUDY,MIST,CLEAR,MOSTLY_CLEAR,MOSTLY_CLEAR,CLEAR,CLEAR","Cross-shore,Cross-shore,Cross-shore,Cross-shore,Cross-shore,Onshore,Onshore,Onshore,Onshore,Cross-shore,Cross-shore,Cross-shore,Cross-shore,Cross-shore",14
5842041f4e65fad6a7708937,2024_06_04,34.02587527588963,-118.7554939066114,Latigo Point,2.7142857142857144,0.395,0.6985714285714285,16,16,"NIGHT_CLEAR,NIGHT_CLEAR,NIGHT_CLEAR,NIGHT_CLEAR,NIGHT_CLEAR,NIGHT_MOSTLY_CLOUDY,MIST,MOSTLY_CLOUDY,BRIEF_SHOWERS,MIST,MOSTLY_CLEAR,MOSTLY_CLEAR,CLEAR,CLEAR","Offshore,Offshore,Offshore,Offshore,Offshore,Onshore,Offshore,Offshore,Cross-shore,Cross-shore,Onshore,Onshore,Onshore,Onshore",14
5842041f4e65fad6a770893f,2024_06_04,34.043762,-118.93294,Leo Carrillo,2.940714285714286,0.5837878571428572,0.8898192857142857,14,14,"NIGHT_CLEAR,NIGHT_CLEAR,NIGHT_CLEAR,NIGHT_CLEAR,NIGHT_CLEAR,NIGHT_MOSTLY_CLOUDY,MOSTLY_CLOUDY,MOSTLY_CLOUDY,MIST,MIST,MIST,MIST,MIST,MIST","Offshore,Offshore,Offshore,Offshore,Offshore,Offshore,Offshore,Offshore,Offshore,Offshore,Cross-shore,Cross-shore,Onshore,Onshore",14
5842041f4e65fad6a7708941,2024_06_04,36.69388179265737,-121.81289,Marina State Beach,2.642857142857143,0.95,1.2557142857142858,13.571428571428571,13.571428571428571,"NIGHT_MIST,NIGHT_MIST,NIGHT_MIST,NIGHT_MIST,NIGHT_MIST,NIGHT_MIST,MIST,MIST,MOSTLY_CLEAR,CLEAR,CLEAR,CLEAR,CLEAR,CLEAR","Onshore,Onshore,Onshore,Onshore,Onshore,Onshore,Onshore,Onshore,Onshore,Onshore,Onshore,Onshore,Onshore,Onshore",14
5842041f4e65fad6a7708944,2024_06_04,34.34145077331085,-119.416999352654,Stanley's,2,0.14285714285714285,0.4464285714285714,15,15,"NIGHT_CLEAR,NIGHT_CLEAR,NIGHT_CLEAR,NIGHT_CLEAR,NIGHT_MIST,NIGHT_MIST,MIST,CLEAR,CLEAR,MOSTLY_CLEAR,MOSTLY_CLEAR,CLEAR,CLEAR,CLEAR","Offshore,Cross-shore,Cross-shore,Cross-shore,Cross-shore,Cross-shore,Offshore,Offshore,Onshore,Onshore,Onshore,Onshore,Onshore,Onshore",14
5842041f4e65fad6a7708945,2024_06_04,34.35113017313915,-119.426921498899,Oil Piers,2,0.14285714285714285,0.4464285714285714,15,15,"NIGHT_CLEAR,NIGHT_CLEAR,NIGHT_CLEAR,NIGHT_CLEAR,NIGHT_MIST,NIGHT_MIST,MIST,CLEAR,CLEAR,MOSTLY_CLEAR,MOSTLY_CLEAR,CLEAR,CLEAR,CLEAR","Offshore,Offshore,Offshore,Offshore,Offshore,Offshore,Offshore,Offshore,Cross-shore,Offshore,Onshore,Onshore,Onshore,Onshore",14
5842041f4e65fad6a770894c,2024_06_04,34.17876333306018,-119.23995,Oxnard,2.7142857142857144,0.6278571428571429,0.9307142857142857,16,16,"NIGHT_CLEAR,NIGHT_CLEAR,NIGHT_CLEAR,NIGHT_CLEAR,NIGHT_CLEAR,NIGHT_OVERCAST,OVERCAST,OVERCAST,MOSTLY_CLOUDY,CLEAR,CLEAR,CLEAR,CLEAR,CLEAR","Cross-shore,Cross-shore,Onshore,Onshore,Onshore,Onshore,Cross-shore,Onshore,Onshore,Onshore,Onshore,Onshore,Onshore,Onshore",14
5842041f4e65fad6a7708957,2024_06_04,34.31720331100517,-119.3882324751725,Pitas Point,2.2142857142857144,0.26571428571428574,0.5714285714285714,15.428571428571429,15.428571428571429,"NIGHT_MIST,NIGHT_MIST,NIGHT_MIST,NIGHT_MIST,NIGHT_MIST,NIGHT_MOSTLY_CLOUDY,MOSTLY_CLOUDY,MOSTLY_CLOUDY,MOSTLY_CLOUDY,MIST,MIST,MIST,BRIEF_SHOWERS,MIST","Offshore,Offshore,Offshore,Offshore,Offshore,Offshore,Cross-shore,Offshore,Offshore,Offshore,Offshore,Onshore,Onshore,Onshore",14
5842041f4e65fad6a7708959,2024_06_04,34.27851754384724,-119.3162,Emma Wood,2.7142857142857144,0.43357142857142855,0.7392857142857143,15.428571428571429,15.428571428571429,"NIGHT_MIST,NIGHT_CLEAR,NIGHT_CLEAR,NIGHT_CLEAR,NIGHT_MIST,NIGHT_MOSTLY_CLOUDY,MOSTLY_CLOUDY,MOSTLY_CLOUDY,MOSTLY_CLOUDY,MIST,MIST,MIST,MIST,BRIEF_SHOWERS","Offshore,Offshore,Offshore,Offshore,Offshore,Offshore,Offshore,Offshore,Offshore,Cross-shore,Onshore,Onshore,Onshore,Onshore",14
5842041f4e65fad6a770895a,2024_06_04,34.35513640390276,-119.4400589884255,Mussel Shoals (aka Little Rincon),2,0.1707142857142857,0.47500000000000003,15,15,"NIGHT_MIST,NIGHT_MIST,NIGHT_MIST,NIGHT_MIST,NIGHT_MIST,NIGHT_MIST,MIST,MIST,MOSTLY_CLOUDY,MIST,MIST,MIST,MIST,MIST","Offshore,Offshore,Offshore,Offshore,Offshore,Offshore,Offshore,Offshore,Cross-shore,Offshore,Onshore,Onshore,Onshore,Onshore",14
5842041f4e65fad6a770895e,2024_06_04,34.28991757054902,-119.3366646794652,Summer Beach,2,0.24285714285714285,0.5471428571428572,15.428571428571429,15.428571428571429,"NIGHT_MIST,NIGHT_CLEAR,NIGHT_CLEAR,NIGHT_CLEAR,NIGHT_MIST,NIGHT_MOSTLY_CLOUDY,MOSTLY_CLOUDY,MOSTLY_CLOUDY,MOSTLY_CLOUDY,MIST,MIST,MIST,MIST,BRIEF_SHOWERS","Offshore,Offshore,Offshore,Offshore,Offshore,Offshore,Offshore,Offshore,Offshore,Onshore,Onshore,Onshore,Onshore,Onshore",14
5842041f4e65fad6a770895f,2024_06_04,34.30897456105926,-119.3582501170116,Solimar,2,0.24285714285714285,0.5471428571428572,15.428571428571429,15.428571428571429,"NIGHT_MIST,NIGHT_MIST,NIGHT_MIST,NIGHT_MIST,NIGHT_MIST,NIGHT_MOSTLY_CLOUDY,MOSTLY_CLOUDY,MOSTLY_CLOUDY,MOSTLY_CLOUDY,MIST,MIST,MIST,BRIEF_SHOWERS,MIST","Offshore,Offshore,Offshore,Offshore,Offshore,Offshore,Cross-shore,Offshore,Offshore,Offshore,Offshore,Onshore,Onshore,Onshore",14
5842041f4e65fad6a7708960,2024_06_04,34.39836265281686,-119.70213,Leadbetter Point,1,0,0.17142857142857143,15,15,"NIGHT_MIST,NIGHT_MIST,NIGHT_MIST,NIGHT_MIST,NIGHT_MIST,NIGHT_MIST,MIST,MOSTLY_CLOUDY,MOSTLY_CLOUDY,MOSTLY_CLOUDY,MOSTLY_CLOUDY,CLEAR,CLEAR,CLEAR","Cross-shore,Onshore,Offshore,Offshore,Cross-shore,Offshore,Onshore,Offshore,Offshore,Offshore,Onshore,Onshore,Cross-shore,Cross-shore",14
5842041f4e65fad6a7708961,2024_06_04,34.46052293893899,-120.07328,Refugio,2,0.12285714285714286,0.42714285714285716,14,14,"NIGHT_CLEAR,NIGHT_CLEAR,NIGHT_CLEAR,NIGHT_CLEAR,NIGHT_CLEAR,NIGHT_CLEAR,CLEAR,CLEAR,MOSTLY_CLOUDY,MOSTLY_CLEAR,CLEAR,CLEAR,CLEAR,CLEAR","Cross-shore,Onshore,Cross-shore,Offshore,Offshore,Cross-shore,Cross-shore,Offshore,Cross-shore,Offshore,Onshore,Onshore,Onshore,Onshore",14
5842041f4e65fad6a7708962,2024_06_04,34.40754276777778,-119.87639,Devereux,2,0.11,0.41428571428571426,15,15,"NIGHT_MIST,NIGHT_MIST,NIGHT_MIST,NIGHT_MIST,NIGHT_MIST,NIGHT_CLEAR,MIST,MIST,MOSTLY_CLOUDY,BRIEF_SHOWERS,BRIEF_SHOWERS,BRIEF_SHOWERS,BRIEF_SHOWERS,BRIEF_SHOWERS","Onshore,Onshore,Onshore,Onshore,Onshore,Onshore,Onshore,Onshore,Onshore,Onshore,Onshore,Onshore,Cross-shore,Cross-shore",14
5842041f4e65fad6a7708963,2024_06_04,34.27479983305182,-119.3133222656776,Ventura Overhead,2.7857142857142856,0.43357142857142855,0.7392857142857143,15.428571428571429,15.428571428571429,"NIGHT_MIST,NIGHT_MIST,NIGHT_MIST,NIGHT_MOSTLY_CLEAR,NIGHT_MOSTLY_CLOUDY,NIGHT_MOSTLY_CLOUDY,MOSTLY_CLOUDY,MOSTLY_CLOUDY,MOSTLY_CLOUDY,MIST,MIST,BRIEF_SHOWERS,BRIEF_SHOWERS,BRIEF_SHOWERS","Offshore,Offshore,Offshore,Offshore,Offshore,Offshore,Offshore,Offshore,Offshore,Cross-shore,Onshore,Onshore,Onshore,Onshore",14
5842041f4e65fad6a7708964,2024_06_04,34.41023236011655,-119.88261,Sands,2,0.09,0.39357142857142857,15,15,"NIGHT_MIST,NIGHT_MIST,NIGHT_MIST,NIGHT_MIST,NIGHT_MIST,NIGHT_CLEAR,MIST,MIST,MOSTLY_CLOUDY,BRIEF_SHOWERS,BRIEF_SHOWERS,BRIEF_SHOWERS,BRIEF_SHOWERS,BRIEF_SHOWERS","Cross-shore,Cross-shore,Offshore,Offshore,Cross-shore,Offshore,Onshore,Cross-shore,Cross-shore,Onshore,Onshore,Onshore,Onshore,Onshore",14
5842041f4e65fad6a7708966,2024_06_04,34.40450193869233,-119.68752,Sandspit,1,0,0.17142857142857143,15,15,"NIGHT_CLEAR,NIGHT_MOSTLY_CLEAR,NIGHT_MOSTLY_CLEAR,NIGHT_MOSTLY_CLEAR,NIGHT_MOSTLY_CLEAR,NIGHT_MOSTLY_CLOUDY,MOSTLY_CLOUDY,MOSTLY_CLOUDY,MOSTLY_CLOUDY,MOSTLY_CLOUDY,MOSTLY_CLEAR,CLEAR,CLEAR,CLEAR","Cross-shore,Onshore,Offshore,Offshore,Cross-shore,Offshore,Onshore,Offshore,Offshore,Offshore,Onshore,Onshore,Onshore,Onshore",14
5842041f4e65fad6a7708967,2024_06_04,34.41549098334453,-119.6375149840203,Hammond's,1.2857142857142858,0.004285714285714286,0.29285714285714287,15,15,"NIGHT_BRIEF_SHOWERS,NIGHT_BRIEF_SHOWERS,NIGHT_BRIEF_SHOWERS,NIGHT_BRIEF_SHOWERS,NIGHT_BRIEF_SHOWERS,NIGHT_MIST,BRIEF_SHOWERS,MIST,MIST,MIST,MOSTLY_CLEAR,CLEAR,CLEAR,CLEAR","Cross-shore,Offshore,Offshore,Offshore,Offshore,Offshore,Cross-shore,Cross-shore,Onshore,Onshore,Onshore,Onshore,Onshore,Onshore",14
5842041f4e65fad6a7708968,2024_06_04,34.45759322742309,-120.02203,El Capitan,2,0.12285714285714286,0.43,14,14,"NIGHT_CLEAR,NIGHT_CLEAR,NIGHT_CLEAR,NIGHT_CLEAR,NIGHT_MIST,NIGHT_MOSTLY_CLOUDY,MIST,MOSTLY_CLOUDY,MOSTLY_CLOUDY,MOSTLY_CLEAR,CLEAR,CLEAR,CLEAR,CLEAR","Cross-shore,Cross-shore,Cross-shore,Offshore,Offshore,Onshore,Cross-shore,Offshore,Cross-shore,Onshore,Onshore,Onshore,Onshore,Onshore",14
5842041f4e65fad6a770896c,2024_06_04,34.405117655616,-119.84317,Campus Point,2,0.09,0.39357142857142857,15,15,"NIGHT_CLEAR,NIGHT_CLEAR,NIGHT_CLEAR,NIGHT_CLEAR,NIGHT_CLEAR,NIGHT_CLEAR,CLEAR,CLEAR,CLEAR,CLEAR,CLEAR,CLEAR,CLEAR,CLEAR","Onshore,Onshore,Onshore,Onshore,Onshore,Onshore,Onshore,Onshore,Onshore,Onshore,Onshore,Onshore,Onshore,Onshore",14
5842041f4e65fad6a770896e,2024_06_04,34.38935162233354,-119.51955,Carpinteria State Beach,2,0.17214285714285715,0.47714285714285715,15,15,"NIGHT_MIST,NIGHT_MIST,NIGHT_MIST,NIGHT_MIST,NIGHT_MIST,NIGHT_MIST,MIST,MIST,MOSTLY_CLOUDY,MOSTLY_CLOUDY,MIST,MIST,MIST,BRIEF_SHOWERS","Offshore,Offshore,Offshore,Offshore,Offshore,Offshore,Offshore,Offshore,Offshore,Cross-shore,Onshore,Onshore,Onshore,Onshore",14
5842041f4e65fad6a770896f,2024_06_04,37.48296565175612,-122.45493,Half Moon Bay,2.9285714285714284,1.0442857142857143,1.3057142857142856,14,14,"NIGHT_MIST,NIGHT_BRIEF_SHOWERS,NIGHT_MIST,NIGHT_CLEAR,NIGHT_CLEAR,NIGHT_MOSTLY_CLEAR,MIST,CLEAR,CLEAR,CLEAR,CLEAR,CLEAR,CLEAR,CLEAR","Cross-shore,Offshore,Offshore,Offshore,Offshore,Offshore,Offshore,Offshore,Offshore,Offshore,Onshore,Onshore,Onshore,Onshore",14
5842041f4e65fad6a7708970,2024_06_04,37.499,-122.471,Princeton Jetty,2.9285714285714284,0.8078571428571428,1.0564285714285715,14,14,"NIGHT_MIST,NIGHT_MIST,NIGHT_MIST,NIGHT_CLEAR,NIGHT_CLEAR,NIGHT_CLEAR,CLEAR,CLEAR,CLEAR,CLEAR,CLEAR,CLEAR,CLEAR,CLEAR","Cross-shore,Offshore,Offshore,Offshore,Offshore,Offshore,Offshore,Offshore,Offshore,Offshore,Offshore,Cross-shore,Cross-shore,Cross-shore",14
5842041f4e65fad6a7708972,2024_06_04,37.35699547365155,-122.4069534707252,Tunitas Creek,3,1.7878571428571428,2.0407142857142855,14,14,"NIGHT_MIST,NIGHT_MIST,NIGHT_MIST,NIGHT_BRIEF_SHOWERS,NIGHT_MIST,NIGHT_MIST,MIST,MIST,MIST,MIST,MIST,MIST,MIST,MIST","Cross-shore,Cross-shore,Cross-shore,Cross-shore,Cross-shore,Cross-shore,Cross-shore,Cross-shore,Cross-shore,Cross-shore,Cross-shore,Cross-shore,Cross-shore,Cross-shore",14
5842041f4e65fad6a7708974,2024_06_04,37.54735589428842,-122.51611,Montara,2.7142857142857144,1.4935714285714285,1.782857142857143,14,14,"NIGHT_MIST,NIGHT_MIST,NIGHT_MOSTLY_CLOUDY,NIGHT_CLEAR,NIGHT_MIST,NIGHT_MIST,MIST,MIST,MIST,CLEAR,CLEAR,CLEAR,CLEAR,CLEAR","Onshore,Onshore,Cross-shore,Onshore,Onshore,Cross-shore,Onshore,Onshore,Onshore,Onshore,Onshore,Onshore,Onshore,Onshore",14
5842041f4e65fad6a7708975,2024_06_04,34.3869373724559,-119.5142334209018,Tarpits,2,0.18857142857142856,0.49357142857142855,15,15,"NIGHT_MIST,NIGHT_MIST,NIGHT_MIST,NIGHT_MOSTLY_CLEAR,NIGHT_MIST,NIGHT_MOSTLY_CLOUDY,MIST,MOSTLY_CLOUDY,MOSTLY_CLOUDY,MOSTLY_CLOUDY,CLEAR,CLEAR,CLEAR,CLEAR","Offshore,Offshore,Offshore,Offshore,Offshore,Offshore,Offshore,Cross-shore,Offshore,Cross-shore,Onshore,Onshore,Onshore,Onshore",14
5842041f4e65fad6a7708976,2024_06_04,37.59881852720143,-122.50463,Linda Mar,2.8214285714285716,0.48012857142857146,0.782745,11,11,"NIGHT_BRIEF_SHOWERS,NIGHT_MIST,NIGHT_MIST,NIGHT_MIST,NIGHT_BRIEF_SHOWERS,NIGHT_MIST,MIST,MIST,MIST,CLEAR,MIST,MIST,MIST,MIST","Onshore,Onshore,Cross-shore,Onshore,Onshore,Onshore,Onshore,Onshore,Cross-shore,Onshore,Onshore,Onshore,Onshore,Onshore",14
5842041f4e65fad6a7708978,2024_06_04,37.59883098461164,-122.5143843582282,Pedro Point,2.857142857142857,1.4442857142857144,1.7478571428571428,14,14,"NIGHT_MIST,NIGHT_MIST,NIGHT_MOSTLY_CLEAR,NIGHT_CLEAR,NIGHT_MIST,NIGHT_MIST,MIST,MIST,MIST,MIST,CLEAR,CLEAR,CLEAR,CLEAR","Onshore,Onshore,Cross-shore,Onshore,Onshore,Onshore,Onshore,Onshore,Cross-shore,Onshore,Onshore,Onshore,Onshore,Onshore",14
5842041f4e65fad6a7708979,2024_06_04,37.61081996647663,-122.49733,Rockaway,2.857142857142857,1.42,1.7085714285714286,14,14,"NIGHT_BRIEF_SHOWERS,NIGHT_MIST,NIGHT_MIST,NIGHT_MIST,NIGHT_BRIEF_SHOWERS,NIGHT_MIST,MIST,MIST,MIST,CLEAR,MIST,MIST,MIST,MIST","Cross-shore,Onshore,Onshore,Onshore,Onshore,Onshore,Onshore,Onshore,Onshore,Onshore,Cross-shore,Onshore,Onshore,Onshore",14
5842041f4e65fad6a770897a,2024_06_04,37.809987384424446,-122.47514,Fort Point,2.642857142857143,0.89,1.0892857142857142,15,15,"NIGHT_MIST,NIGHT_MIST,NIGHT_MIST,NIGHT_CLEAR,NIGHT_CLEAR,NIGHT_MIST,MIST,CLEAR,CLEAR,CLEAR,MIST,MIST,MIST,MIST","Onshore,Onshore,Onshore,Onshore,Onshore,Onshore,Onshore,Onshore,Onshore,Offshore,Onshore,Cross-shore,Onshore,Cross-shore",14
5842041f4e65fad6a770897c,2024_06_04,37.63422542967464,-122.4951,Sharp Park,2.7857142857142856,1.5864285714285713,1.8635714285714287,14,14,"NIGHT_MIST,NIGHT_MIST,NIGHT_MIST,NIGHT_MIST,NIGHT_MIST,NIGHT_MIST,MIST,MIST,MIST,MIST,MIST,MIST,MIST,MIST","Cross-shore,Onshore,Onshore,Onshore,Onshore,Onshore,Onshore,Onshore,Onshore,Onshore,Cross-shore,Onshore,Onshore,Onshore",14
5842041f4e65fad6a770897d,2024_06_04,37.27313605072472,-122.4127387912554,Pescadero,2.9285714285714284,1.6564285714285714,1.9442857142857142,13.571428571428571,13.571428571428571,"NIGHT_MIST,NIGHT_MIST,NIGHT_MIST,NIGHT_MIST,NIGHT_MIST,NIGHT_MIST,MIST,MIST,MIST,MIST,CLEAR,CLEAR,CLEAR,CLEAR","Cross-shore,Cross-shore,Cross-shore,Onshore,Onshore,Cross-shore,Cross-shore,Cross-shore,Cross-shore,Cross-shore,Onshore,Onshore,Onshore,Onshore",14
5842041f4e65fad6a770897e,2024_06_04,37.18140279972666,-122.3926685899327,Pigeon Point,3.9285714285714284,1.6171428571428572,1.897857142857143,13,13,"NIGHT_MIST,NIGHT_MIST,NIGHT_MIST,NIGHT_BRIEF_SHOWERS,NIGHT_BRIEF_SHOWERS,NIGHT_MIST,MIST,MIST,MIST,MIST,MIST,CLEAR,CLEAR,CLEAR","Offshore,Offshore,Offshore,Offshore,Offshore,Offshore,Offshore,Offshore,Offshore,Offshore,Offshore,Offshore,Offshore,Offshore",14
5842041f4e65fad6a770897f,2024_06_04,37.11578956919415,-122.314699271291,Ano Nuevo,3.857142857142857,1.0592857142857142,1.3192857142857144,13,13,"NIGHT_CLEAR,NIGHT_BRIEF_SHOWERS,NIGHT_CLEAR,NIGHT_CLEAR,NIGHT_CLEAR,NIGHT_CLEAR,CLEAR,CLEAR,CLEAR,CLEAR,CLEAR,CLEAR,CLEAR,CLEAR","Offshore,Offshore,Offshore,Offshore,Offshore,Offshore,Offshore,Offshore,Offshore,Offshore,Offshore,Offshore,Offshore,Offshore",14
5842041f4e65fad6a7708980,2024_06_04,37.09520872681598,-122.2805474707768,Waddell Creek,3,1.3607142857142858,1.6292857142857142,13,13,"NIGHT_CLEAR,NIGHT_CLEAR,NIGHT_CLEAR,NIGHT_CLEAR,NIGHT_MIST,NIGHT_CLEAR,CLEAR,CLEAR,CLEAR,CLEAR,CLEAR,CLEAR,CLEAR,CLEAR","Cross-shore,Offshore,Offshore,Cross-shore,Offshore,Offshore,Offshore,Offshore,Offshore,Cross-shore,Cross-shore,Cross-shore,Cross-shore,Cross-shore",14
5842041f4e65fad6a7708981,2024_06_04,36.96512852130351,-122.1252825495626,Four Mile,3,0.8164285714285714,1.062857142857143,13,13,"NIGHT_CLEAR,NIGHT_CLEAR,NIGHT_CLEAR,NIGHT_CLEAR,NIGHT_MIST,NIGHT_CLEAR,CLEAR,CLEAR,MIST,MIST,MIST,MIST,MIST,CLEAR","Cross-shore,Offshore,Onshore,Offshore,Offshore,Offshore,Offshore,Offshore,Onshore,Onshore,Cross-shore,Cross-shore,Cross-shore,Onshore",14
5842041f4e65fad6a7708982,2024_06_04,37.04122807048655,-122.23337,Scott Creek,3,1.45,1.7357142857142858,13,13,"NIGHT_CLEAR,NIGHT_CLEAR,NIGHT_CLEAR,NIGHT_MIST,NIGHT_MIST,NIGHT_CLEAR,MIST,CLEAR,MIST,MIST,CLEAR,CLEAR,CLEAR,CLEAR","Cross-shore,Cross-shore,Offshore,Offshore,Offshore,Offshore,Offshore,Onshore,Cross-shore,Cross-shore,Cross-shore,Cross-shore,Cross-shore,Cross-shore",14
5842041f4e65fad6a7708983,2024_06_04,37.02350229387179,-122.21908,Davenport,3.5714285714285716,1.5292857142857144,1.8264285714285715,13,13,"NIGHT_CLEAR,NIGHT_CLEAR,NIGHT_MIST,NIGHT_MIST,NIGHT_MIST,NIGHT_MIST,MIST,MIST,MIST,MIST,MIST,MIST,MIST,CLEAR","Cross-shore,Cross-shore,Offshore,Onshore,Offshore,Offshore,Offshore,Offshore,Cross-shore,Cross-shore,Onshore,Cross-shore,Cross-shore,Cross-shore",14
5842041f4e65fad6a7708986,2024_06_04,36.94905295955728,-122.06118,Natural Bridges,3,1.3592857142857144,1.6242857142857143,13.571428571428571,13.571428571428571,"NIGHT_CLEAR,NIGHT_CLEAR,NIGHT_CLEAR,NIGHT_CLEAR,NIGHT_CLEAR,NIGHT_MOSTLY_CLEAR,MIST,MOSTLY_CLOUDY,MOSTLY_CLOUDY,CLEAR,CLEAR,CLEAR,CLEAR,CLEAR","Cross-shore,Offshore,Cross-shore,Cross-shore,Offshore,Cross-shore,Cross-shore,Onshore,Cross-shore,Onshore,Onshore,Onshore,Onshore,Onshore",14
5842041f4e65fad6a7708987,2024_06_04,36.95154854910425,-122.04207,Mitchell's Cove,3,1.042857142857143,1.262142857142857,13.571428571428571,13.571428571428571,"NIGHT_CLEAR,NIGHT_CLEAR,NIGHT_CLEAR,NIGHT_CLEAR,NIGHT_CLEAR,NIGHT_CLEAR,MOSTLY_CLEAR,MOSTLY_CLOUDY,MOSTLY_CLEAR,CLEAR,CLEAR,CLEAR,CLEAR,CLEAR","Offshore,Cross-shore,Onshore,Cross-shore,Onshore,Onshore,Onshore,Onshore,Onshore,Onshore,Onshore,Onshore,Onshore,Onshore",14
5842041f4e65fad6a770898a,2024_06_04,36.9572312370203,-121.98177,26th Ave,3.0714285714285716,1.3314285714285714,1.5935714285714286,13.571428571428571,13.571428571428571,"NIGHT_CLEAR,NIGHT_CLEAR,NIGHT_CLEAR,NIGHT_CLEAR,NIGHT_CLEAR,NIGHT_CLEAR,CLEAR,CLEAR,CLEAR,CLEAR,CLEAR,CLEAR,CLEAR,CLEAR","Cross-shore,Cross-shore,Offshore,Offshore,Offshore,Cross-shore,Onshore,Offshore,Cross-shore,Onshore,Onshore,Onshore,Onshore,Cross-shore",14
5842041f4e65fad6a770898e,2024_06_04,36.91899972819882,-121.85536,Manresa,2.7142857142857144,0.6571428571428571,0.9342857142857143,14,14,"NIGHT_CLEAR,NIGHT_MIST,NIGHT_BRIEF_SHOWERS,NIGHT_MIST,NIGHT_MIST,NIGHT_MOSTLY_CLEAR,BRIEF_SHOWERS,MOSTLY_CLOUDY,MOSTLY_CLOUDY,MIST,MIST,MIST,MIST,MIST","Onshore,Cross-shore,Cross-shore,Cross-shore,Cross-shore,Onshore,Onshore,Onshore,Onshore,Onshore,Onshore,Onshore,Onshore,Onshore",14
5842041f4e65fad6a7708990,2024_06_04,34.45747731928454,-120.34242,The Ranch,2.4285714285714284,0.41285714285714287,0.7178571428571429,14,14,"NIGHT_CLEAR,NIGHT_CLEAR,NIGHT_CLEAR,NIGHT_CLEAR,NIGHT_CLEAR,NIGHT_CLEAR,CLEAR,CLEAR,CLEAR,CLEAR,MOSTLY_CLEAR,MOSTLY_CLEAR,MOSTLY_CLEAR,CLEAR","Offshore,Offshore,Cross-shore,Onshore,Onshore,Onshore,Onshore,Onshore,Onshore,Cross-shore,Onshore,Onshore,Onshore,Onshore",14
5842041f4e65fad6a7708991,2024_06_04,34.50875036590315,-120.50348,Jalama,2.7142857142857144,1.0042857142857142,1.2407142857142857,13,13,"NIGHT_CLEAR,NIGHT_CLEAR,NIGHT_CLEAR,NIGHT_CLEAR,NIGHT_CLEAR,NIGHT_CLEAR,CLEAR,CLEAR,CLEAR,CLEAR,MIST,MIST,MIST,CLEAR","Offshore,Offshore,Offshore,Offshore,Offshore,Offshore,Offshore,Offshore,Offshore,Offshore,Onshore,Onshore,Onshore,Cross-shore",14
5842041f4e65fad6a7708996,2024_06_04,34.68700870220497,-120.6111611019887,Surf Beach,1.7142857142857142,1.4778571428571428,1.782857142857143,13,13,"NIGHT_BRIEF_SHOWERS,NIGHT_MIST,NIGHT_BRIEF_SHOWERS,NIGHT_MIST,NIGHT_MIST,NIGHT_BRIEF_SHOWERS,BRIEF_SHOWERS,MIST,MIST,CLEAR,MIST,MIST,MIST,MIST","Onshore,Onshore,Onshore,Onshore,Onshore,Onshore,Onshore,Onshore,Onshore,Onshore,Onshore,Onshore,Onshore,Onshore",14
5842041f4e65fad6a770899c,2024_06_04,35.5730538161116,-121.1143362345574,Moonstone,3,1.0150000000000001,1.2885714285714287,13,13,"NIGHT_CLEAR,NIGHT_CLEAR,NIGHT_MIST,NIGHT_MIST,NIGHT_MIST,NIGHT_CLEAR,MIST,CLEAR,MIST,MIST,MIST,MIST,CLEAR,CLEAR","Cross-shore,Cross-shore,Cross-shore,Cross-shore,Cross-shore,Cross-shore,Cross-shore,Cross-shore,Onshore,Onshore,Onshore,Onshore,Onshore,Onshore",14
5842041f4e65fad6a770899d,2024_06_04,35.61533716776573,-121.1502053073914,Pico Creek,2.857142857142857,1.2621428571428572,1.4964285714285714,13,13,"NIGHT_CLEAR,NIGHT_CLEAR,NIGHT_CLEAR,NIGHT_CLEAR,NIGHT_CLEAR,NIGHT_CLEAR,MIST,MIST,MIST,CLEAR,CLEAR,CLEAR,CLEAR,CLEAR","Onshore,Onshore,Offshore,Cross-shore,Offshore,Offshore,Offshore,Cross-shore,Offshore,Onshore,Onshore,Onshore,Onshore,Onshore",14
5842041f4e65fad6a770899e,2024_06_04,35.56829031927379,-121.11207,Santa Rosa Creek,2.5714285714285716,1.0150000000000001,1.2885714285714287,13,13,"NIGHT_CLEAR,NIGHT_MIST,NIGHT_MIST,NIGHT_MIST,NIGHT_MIST,NIGHT_MIST,MIST,MIST,MIST,MIST,MIST,MIST,MIST,MIST","Cross-shore,Cross-shore,Onshore,Onshore,Onshore,Onshore,Onshore,Onshore,Onshore,Onshore,Onshore,Onshore,Onshore,Onshore",14
5842041f4e65fad6a77089a2,2024_06_04,35.44820114936284,-120.90715,"Cayucos Pier, Southside ",2.142857142857143,0.2557142857142857,0.5607142857142857,13,13,"NIGHT_CLEAR,NIGHT_CLEAR,NIGHT_MOSTLY_CLEAR,NIGHT_MIST,NIGHT_MIST,NIGHT_CLEAR,CLEAR,CLEAR,CLEAR,CLEAR,CLEAR,CLEAR,CLEAR,CLEAR","Offshore,Offshore,Offshore,Offshore,Offshore,Offshore,Offshore,Offshore,Offshore,Offshore,Onshore,Onshore,Onshore,Onshore",14
5842041f4e65fad6a77089a4,2024_06_04,35.30143372628852,-120.877819239902,Cable Landing,2,1.7807142857142857,2.037857142857143,13,13,"NIGHT_MIST,NIGHT_MIST,NIGHT_MIST,NIGHT_MIST,NIGHT_MIST,NIGHT_MIST,MIST,MIST,MIST,MIST,MIST,MIST,BRIEF_SHOWERS_POSSIBLE,BRIEF_SHOWERS_POSSIBLE","Onshore,Onshore,Onshore,Onshore,Onshore,Onshore,Onshore,Onshore,Onshore,Onshore,Onshore,Onshore,Onshore,Onshore",14
5842041f4e65fad6a77089a9,2024_06_04,35.61269103500222,-121.14807,San Simeon,3,0.8755,1.0475,13,13,"NIGHT_CLEAR,NIGHT_CLEAR,NIGHT_CLEAR,NIGHT_CLEAR,NIGHT_CLEAR,NIGHT_CLEAR,CLEAR,CLEAR,CLEAR,CLEAR,CLEAR,CLEAR,CLEAR,CLEAR","Offshore,Offshore,Offshore,Offshore,Offshore,Offshore,Offshore,Offshore,Offshore,Cross-shore,Onshore,Onshore,Onshore,Onshore",14
5842041f4e65fad6a77089ab,2024_06_04,35.1775325966252,-120.73411,Avila Beach,1.7142857142857142,0.18214285714285713,0.48642857142857143,13,13,"NIGHT_CLEAR,NIGHT_CLEAR,NIGHT_CLEAR,NIGHT_CLEAR,NIGHT_CLEAR,NIGHT_CLEAR,CLEAR,CLEAR,CLEAR,CLEAR,CLEAR,CLEAR,CLEAR,CLEAR","Offshore,Offshore,Cross-shore,Cross-shore,Cross-shore,Offshore,Offshore,Cross-shore,Offshore,Offshore,Offshore,Offshore,Cross-shore,Cross-shore",14
5842041f4e65fad6a77089ac,2024_06_04,35.13877877884115,-120.64535,Pismo Beach Pier,2.8214285714285716,0.6805978571428571,1.050452142857143,11,11,"NIGHT_CLEAR,NIGHT_CLEAR,NIGHT_CLEAR,NIGHT_CLEAR,NIGHT_CLEAR,NIGHT_CLEAR,CLEAR,CLEAR,CLEAR,CLEAR,CLEAR,CLEAR,CLEAR,CLEAR","Offshore,Offshore,Offshore,Onshore,Offshore,Onshore,Offshore,Offshore,Onshore,Onshore,Onshore,Onshore,Onshore,Onshore",14
5842041f4e65fad6a77089ad,2024_06_04,46.8907710233147,-124.12964,Westport/Olympic Peninsula,0.6428571428571429,2.1021428571428573,2.3514285714285714,12.428571428571429,12.428571428571429,"NIGHT_RAIN,NIGHT_RAIN,NIGHT_DRIZZLE,NIGHT_LIGHT_RAIN,NIGHT_RAIN,NIGHT_HEAVY_RAIN,OVERCAST,DRIZZLE,OVERCAST,DRIZZLE,OVERCAST,LIGHT_RAIN,MOSTLY_CLOUDY,CLEAR","Cross-shore,Onshore,Onshore,Onshore,Onshore,Onshore,Onshore,Onshore,Onshore,Onshore,Onshore,Onshore,Onshore,Onshore",14
5842041f4e65fad6a77089ae,2024_06_04,46.35185177248545,-124.06747,Long Beach Peninsula,0.35714285714285715,2.644285714285714,2.8442857142857143,13,13,"NIGHT_LIGHT_RAIN,NIGHT_DRIZZLE,NIGHT_LIGHT_RAIN,NIGHT_LIGHT_RAIN,NIGHT_LIGHT_RAIN,NIGHT_RAIN,LIGHT_RAIN,MIST,OVERCAST,DRIZZLE,MIST,LIGHT_RAIN,CLEAR,CLEAR","Cross-shore,Cross-shore,Cross-shore,Cross-shore,Cross-shore,Cross-shore,Onshore,Onshore,Onshore,Onshore,Onshore,Onshore,Onshore,Onshore",14
5842041f4e65fad6a77089af,2024_06_04,47.90649175554033,-124.63709,La Push,1.2142857142857142,2.3207142857142857,2.592142857142857,11,11,"NIGHT_LIGHT_RAIN,NIGHT_RAIN,NIGHT_RAIN,NIGHT_LIGHT_RAIN,NIGHT_LIGHT_RAIN,NIGHT_MIST,BRIEF_SHOWERS,MIST,MOSTLY_CLOUDY,CLEAR,MOSTLY_CLOUDY,CLEAR,MOSTLY_CLEAR,CLEAR","Cross-shore,Cross-shore,Cross-shore,Cross-shore,Cross-shore,Onshore,Onshore,Onshore,Onshore,Onshore,Onshore,Onshore,Onshore,Onshore",14
5842041f4e65fad6a77089b0,2024_06_04,42.04368239985442,-124.26828,Brookings Jetty,3,0.8892607142857143,1.38947,9.142857142857142,9.142857142857142,"NIGHT_MIST,NIGHT_MIST,NIGHT_MIST,NIGHT_MIST,NIGHT_MOSTLY_CLEAR,NIGHT_CLEAR,CLEAR,CLEAR,CLEAR,CLEAR,MIST,MIST,MIST,MIST","Cross-shore,Cross-shore,Cross-shore,Offshore,Cross-shore,Cross-shore,Offshore,Offshore,Onshore,Onshore,Onshore,Onshore,Onshore,Onshore",14
5842041f4e65fad6a77089b1,2024_06_04,42.74071837900346,-124.4983727491047,Port Orford,1.5714285714285714,1.25,1.497142857142857,9.571428571428571,9.571428571428571,"NIGHT_MOSTLY_CLEAR,NIGHT_CLEAR,NIGHT_CLEAR,NIGHT_MOSTLY_CLEAR,NIGHT_MOSTLY_CLEAR,NIGHT_MOSTLY_CLEAR,MOSTLY_CLOUDY,MOSTLY_CLOUDY,MOSTLY_CLOUDY,CLEAR,MOSTLY_CLOUDY,MOSTLY_CLOUDY,MOSTLY_CLOUDY,MOSTLY_CLOUDY","Onshore,Onshore,Onshore,Onshore,Onshore,Onshore,Onshore,Onshore,Onshore,Onshore,Onshore,Onshore,Onshore,Onshore",14
5842041f4e65fad6a77089b2,2024_06_04,44.01532689312291,-124.13865,Florence South Jetty,2,2.4214285714285713,2.6185714285714288,11,11,"NIGHT_MOSTLY_CLOUDY,NIGHT_DRIZZLE,NIGHT_OVERCAST,NIGHT_OVERCAST,NIGHT_OVERCAST,NIGHT_OVERCAST,OVERCAST,OVERCAST,OVERCAST,OVERCAST,OVERCAST,OVERCAST,DRIZZLE,OVERCAST","Cross-shore,Cross-shore,Cross-shore,Cross-shore,Cross-shore,Cross-shore,Cross-shore,Cross-shore,Cross-shore,Cross-shore,Onshore,Onshore,Onshore,Onshore",14
5842041f4e65fad6a77089b3,2024_06_04,42.41812540774362,-124.42945,Gold Beach South Jetty,2,1.7492857142857143,2.0385714285714287,9.571428571428571,9.571428571428571,"NIGHT_CLEAR,NIGHT_CLEAR,NIGHT_MOSTLY_CLEAR,NIGHT_MOSTLY_CLEAR,NIGHT_CLEAR,NIGHT_CLEAR,CLEAR,MOSTLY_CLEAR,CLEAR,CLEAR,CLEAR,CLEAR,MOSTLY_CLEAR,MOSTLY_CLOUDY","Onshore,Onshore,Onshore,Onshore,Onshore,Onshore,Onshore,Onshore,Onshore,Onshore,Onshore,Onshore,Onshore,Onshore",14
5842041f4e65fad6a77089b4,2024_06_04,44.95857310226525,-124.0219,Lincoln City,0.42857142857142855,2.3664285714285715,2.6142857142857143,11,11,"NIGHT_OVERCAST,NIGHT_OVERCAST,NIGHT_OVERCAST,NIGHT_OVERCAST,NIGHT_OVERCAST,NIGHT_LIGHT_RAIN,DRIZZLE,LIGHT_RAIN,LIGHT_RAIN,DRIZZLE,LIGHT_RAIN,LIGHT_RAIN,MIST,DRIZZLE","Cross-shore,Cross-shore,Cross-shore,Cross-shore,Cross-shore,Cross-shore,Cross-shore,Cross-shore,Cross-shore,Cross-shore,Cross-shore,Cross-shore,Cross-shore,Cross-shore",14
5842041f4e65fad6a77089b5,2024_06_04,44.63792761362982,-124.0657,Newport,1.2857142857142858,2.5021428571428572,2.795,11,11,"NIGHT_OVERCAST,NIGHT_DRIZZLE,NIGHT_DRIZZLE,NIGHT_OVERCAST,NIGHT_LIGHT_RAIN,NIGHT_OVERCAST,OVERCAST,LIGHT_RAIN,DRIZZLE,LIGHT_RAIN,LIGHT_RAIN,DRIZZLE,DRIZZLE,LIGHT_RAIN","Cross-shore,Cross-shore,Onshore,Cross-shore,Cross-shore,Cross-shore,Cross-shore,Onshore,Cross-shore,Cross-shore,Cross-shore,Cross-shore,Cross-shore,Cross-shore",14
5842041f4e65fad6a77089b6,2024_06_04,45.61468496266301,-123.94643,Rockaway Beach,0.42857142857142855,2.485,2.75,12,12,"NIGHT_DRIZZLE,NIGHT_LIGHT_RAIN,NIGHT_LIGHT_RAIN,NIGHT_OVERCAST,NIGHT_OVERCAST,NIGHT_LIGHT_RAIN,DRIZZLE,DRIZZLE,OVERCAST,LIGHT_RAIN,LIGHT_RAIN,MIST,DRIZZLE,DRIZZLE","Cross-shore,Cross-shore,Cross-shore,Cross-shore,Cross-shore,Cross-shore,Cross-shore,Cross-shore,Cross-shore,Cross-shore,Cross-shore,Cross-shore,Cross-shore,Cross-shore",14
5842041f4e65fad6a77089b7,2024_06_04,45.20252914186085,-123.96975,Pacific City,1,2.1992857142857143,2.492142857142857,11.571428571428571,11.571428571428571,"NIGHT_LIGHT_RAIN,NIGHT_OVERCAST,NIGHT_OVERCAST,NIGHT_OVERCAST,NIGHT_OVERCAST,NIGHT_RAIN,DRIZZLE,LIGHT_RAIN,LIGHT_RAIN,LIGHT_RAIN,RAIN,LIGHT_RAIN,MIST,LIGHT_RAIN","Onshore,Onshore,Onshore,Onshore,Onshore,Onshore,Onshore,Onshore,Onshore,Onshore,Onshore,Onshore,Onshore,Onshore",14
5842041f4e65fad6a77089b8,2024_06_04,45.88179930310263,-123.96681,Cannon Beach,0.42857142857142855,2.5664285714285713,2.8635714285714284,12,12,"NIGHT_HEAVY_RAIN,NIGHT_RAIN,NIGHT_RAIN,NIGHT_RAIN,NIGHT_LIGHT_RAIN,NIGHT_RAIN,LIGHT_RAIN,DRIZZLE,LIGHT_RAIN,LIGHT_RAIN,MIST,MIST,DRIZZLE,LIGHT_RAIN","Cross-shore,Onshore,Onshore,Onshore,Onshore,Onshore,Onshore,Onshore,Onshore,Onshore,Onshore,Onshore,Onshore,Onshore",14
5842041f4e65fad6a77089ba,2024_06_04,40.02528754746774,-124.06372,Shelter Cove,2.5,0.40641642857142857,0.635025,10,10,"NIGHT_CLEAR,NIGHT_CLEAR,NIGHT_CLEAR,NIGHT_CLEAR,NIGHT_CLEAR,NIGHT_CLEAR,CLEAR,CLEAR,CLEAR,CLEAR,CLEAR,CLEAR,CLEAR,CLEAR","Offshore,Offshore,Offshore,Offshore,Offshore,Offshore,Offshore,Offshore,Offshore,Offshore,Offshore,Offshore,Offshore,Offshore",14
5842041f4e65fad6a77089bb,2024_06_04,40.76816197136951,-124.24248,Humboldt Harbor Entrance,3.357142857142857,2,2.2199999999999998,11.571428571428571,11.571428571428571,"NIGHT_MIST,NIGHT_MIST,NIGHT_MIST,NIGHT_MIST,NIGHT_MIST,NIGHT_MIST,CLEAR,CLEAR,CLEAR,CLEAR,CLEAR,CLEAR,CLEAR,CLEAR","Offshore,Offshore,Onshore,Offshore,Offshore,Offshore,Offshore,Offshore,Offshore,Offshore,Onshore,Onshore,Onshore,Onshore",14
5842041f4e65fad6a77089bc,2024_06_04,40.76684246920174,-124.23107,North Jetty,3.2142857142857144,2.392857142857143,2.6635714285714287,11.571428571428571,11.571428571428571,"NIGHT_CLEAR,NIGHT_CLEAR,NIGHT_CLEAR,NIGHT_CLEAR,NIGHT_CLEAR,NIGHT_CLEAR,CLEAR,CLEAR,CLEAR,CLEAR,MIST,MIST,MIST,MIST","Offshore,Offshore,Onshore,Offshore,Offshore,Cross-shore,Offshore,Offshore,Offshore,Onshore,Onshore,Onshore,Onshore,Onshore",14
5842041f4e65fad6a77089be,2024_06_04,41.13016238153297,-124.16466,Sue-meg,3.2142857142857144,2.0357142857142856,2.3085714285714287,11.142857142857142,11.142857142857142,"NIGHT_CLEAR,NIGHT_MIST,NIGHT_MIST,NIGHT_MIST,NIGHT_CLEAR,NIGHT_CLEAR,CLEAR,CLEAR,CLEAR,CLEAR,CLEAR,CLEAR,CLEAR,CLEAR","Offshore,Cross-shore,Offshore,Cross-shore,Cross-shore,Offshore,Offshore,Offshore,Onshore,Onshore,Onshore,Cross-shore,Cross-shore,Cross-shore",14
5842041f4e65fad6a77089bf,2024_06_04,37.8289474958188,-122.53768,Fort Cronkite/Rodeo Beach,2.7142857142857144,1.0707142857142857,1.275,14,14,"NIGHT_CLEAR,NIGHT_CLEAR,NIGHT_CLEAR,NIGHT_CLEAR,NIGHT_CLEAR,NIGHT_CLEAR,CLEAR,CLEAR,CLEAR,CLEAR,CLEAR,CLEAR,CLEAR,CLEAR","Cross-shore,Onshore,Onshore,Onshore,Onshore,Onshore,Onshore,Onshore,Onshore,Onshore,Onshore,Cross-shore,Onshore,Cross-shore",14
5842041f4e65fad6a77089c0,2024_06_04,41.74415759876137,-124.17717,South Beach CA,3.0714285714285716,1.032857142857143,1.2721428571428572,9.142857142857142,9.142857142857142,"NIGHT_CLEAR,NIGHT_CLEAR,NIGHT_MOSTLY_CLEAR,NIGHT_CLEAR,NIGHT_CLEAR,NIGHT_CLEAR,CLEAR,CLEAR,CLEAR,CLEAR,CLEAR,CLEAR,CLEAR,CLEAR","Cross-shore,Onshore,Onshore,Offshore,Offshore,Cross-shore,Cross-shore,Onshore,Onshore,Cross-shore,Cross-shore,Cross-shore,Cross-shore,Cross-shore",14
5842041f4e65fad6a77089c1,2024_06_04,37.89801283969752,-122.64519,Stinson Beach,2.857142857142857,0.5607142857142857,0.8657142857142858,14,14,"NIGHT_CLEAR,NIGHT_CLEAR,NIGHT_CLEAR,NIGHT_CLEAR,NIGHT_CLEAR,NIGHT_CLEAR,CLEAR,CLEAR,CLEAR,CLEAR,CLEAR,CLEAR,CLEAR,CLEAR","Onshore,Onshore,Offshore,Offshore,Offshore,Cross-shore,Offshore,Onshore,Offshore,Offshore,Offshore,Cross-shore,Onshore,Onshore",14
5842041f4e65fad6a77089c2,2024_06_04,37.90514516176495,-122.68151,Bolinas,2.857142857142857,0.5912278571428571,0.9237928571428572,13,13,"NIGHT_CLEAR,NIGHT_CLEAR,NIGHT_CLEAR,NIGHT_CLEAR,NIGHT_CLEAR,NIGHT_CLEAR,CLEAR,CLEAR,CLEAR,CLEAR,CLEAR,CLEAR,CLEAR,CLEAR","Cross-shore,Offshore,Offshore,Cross-shore,Offshore,Cross-shore,Offshore,Cross-shore,Offshore,Offshore,Offshore,Offshore,Cross-shore,Cross-shore",14
5842041f4e65fad6a77089c3,2024_06_04,38.04892513158693,-122.98925,Point Reyes (north),1.5714285714285714,1.9821428571428572,2.297142857142857,11,11,"NIGHT_MIST,NIGHT_MIST,NIGHT_CLEAR,NIGHT_CLEAR,NIGHT_CLEAR,NIGHT_CLEAR,MIST,MIST,MIST,CLEAR,MIST,MIST,CLEAR,CLEAR","Onshore,Onshore,Onshore,Onshore,Onshore,Onshore,Onshore,Onshore,Onshore,Onshore,Onshore,Onshore,Onshore,Onshore",14
5842041f4e65fad6a77089c6,2024_06_04,38.31088736605785,-123.0496777333731,Doran Beach,1.7857142857142858,0.10428571428571429,0.41000000000000003,11,11,"NIGHT_CLEAR,NIGHT_CLEAR,NIGHT_CLEAR,NIGHT_CLEAR,NIGHT_CLEAR,NIGHT_CLEAR,CLEAR,CLEAR,CLEAR,CLEAR,CLEAR,CLEAR,CLEAR,CLEAR","Offshore,Offshore,Offshore,Offshore,Offshore,Offshore,Offshore,Offshore,Offshore,Offshore,Offshore,Offshore,Offshore,Offshore",14
5842041f4e65fad6a77089c7,2024_06_04,38.45077228660809,-123.13008,Russian Rivermouth,2.9285714285714284,1.2478571428571428,1.51,11,11,"NIGHT_CLEAR,NIGHT_CLEAR,NIGHT_CLEAR,NIGHT_CLEAR,NIGHT_CLEAR,NIGHT_CLEAR,CLEAR,CLEAR,CLEAR,CLEAR,CLEAR,CLEAR,CLEAR,CLEAR","Cross-shore,Offshore,Offshore,Offshore,Offshore,Offshore,Cross-shore,Cross-shore,Cross-shore,Cross-shore,Cross-shore,Cross-shore,Cross-shore,Cross-shore",14
5842041f4e65fad6a77089c8,2024_06_04,38.35329968518107,-123.06906,Salmon Creek,2.7142857142857144,1.6992857142857143,2.0100000000000002,11,11,"NIGHT_MIST,NIGHT_MIST,NIGHT_MIST,NIGHT_MIST,NIGHT_MIST,NIGHT_MIST,MIST,MIST,MIST,MIST,MIST,MIST,CLEAR,CLEAR","Cross-shore,Onshore,Onshore,Onshore,Cross-shore,Onshore,Onshore,Onshore,Offshore,Onshore,Onshore,Onshore,Onshore,Onshore",14
5842041f4e65fad6a77089c9,2024_06_04,38.6845180197959,-123.4322714291198,Black Point Beach,3,0.96,1.147142857142857,10,10,"NIGHT_CLEAR,NIGHT_CLEAR,NIGHT_CLEAR,NIGHT_CLEAR,NIGHT_CLEAR,NIGHT_CLEAR,CLEAR,CLEAR,CLEAR,CLEAR,CLEAR,CLEAR,CLEAR,CLEAR","Onshore,Onshore,Onshore,Onshore,Onshore,Onshore,Onshore,Onshore,Onshore,Onshore,Onshore,Onshore,Onshore,Onshore",14
5842041f4e65fad6a77089ca,2024_06_04,43.251076,-70.59144,Ogunquit,0.5828571428571429,0,0.2927642857142857,14.5,12.5,"NIGHT_MIST,NIGHT_MIST,NIGHT_MIST,NIGHT_MIST,MIST,MIST,CLEAR,CLEAR,CLEAR,CLEAR,CLEAR,CLEAR,CLEAR,CLEAR","Cross-shore,Cross-shore,Offshore,Offshore,Cross-shore,Cross-shore,Onshore,Onshore,Onshore,Onshore,Onshore,Onshore,Onshore,Onshore",14
5842041f4e65fad6a77089cb,2024_06_04,41.362631366305415,-71.48007,Point Judith,0,0,0.15144785714285716,16,14,"NIGHT_MIST,NIGHT_MIST,NIGHT_MIST,NIGHT_MIST,MIST,MIST,MIST,MIST,MIST,CLEAR,MIST,MIST,MIST,CLEAR","Onshore,Onshore,Onshore,Onshore,Onshore,Onshore,Onshore,Onshore,Onshore,Onshore,Onshore,Onshore,Onshore,Cross-shore",14
5842041f4e65fad6a77089cd,2024_06_04,41.422678090954726,-71.45413,Monahan's - Narragansett,0.7142857142857143,0.10211857142857143,0.1595592857142857,16,16,"NIGHT_MIST,NIGHT_MIST,NIGHT_MIST,NIGHT_MIST,MIST,MIST,CLEAR,CLEAR,CLEAR,MIST,MIST,MIST,MIST,CLEAR","Onshore,Onshore,Onshore,Onshore,Onshore,Onshore,Onshore,Onshore,Onshore,Onshore,Onshore,Onshore,Onshore,Onshore",14
5842041f4e65fad6a77089ce,2024_06_04,41.469,-71.293,Ruggles - Newport,1.6428571428571428,0.2698435714285714,0.42163214285714284,17,17,"NIGHT_CLEAR,NIGHT_CLEAR,NIGHT_CLEAR,NIGHT_CLEAR,CLEAR,MIST,CLEAR,CLEAR,CLEAR,CLEAR,MIST,MIST,CLEAR,MIST","Cross-shore,Cross-shore,Cross-shore,Cross-shore,Cross-shore,Cross-shore,Onshore,Onshore,Onshore,Onshore,Onshore,Onshore,Onshore,Onshore",14
5842041f4e65fad6a77089cf,2024_06_04,43.175394,-70.606351,Short Sands Beach,1,0,0.24142857142857144,14,14,"NIGHT_CLEAR,NIGHT_CLEAR,NIGHT_CLEAR,NIGHT_CLEAR,MOSTLY_CLEAR,MIST,MOSTLY_CLOUDY,CLEAR,CLEAR,CLEAR,CLEAR,CLEAR,CLEAR,CLEAR","Onshore,Cross-shore,Cross-shore,Cross-shore,Cross-shore,Cross-shore,Onshore,Onshore,Onshore,Onshore,Cross-shore,Cross-shore,Cross-shore,Cross-shore",14
5842041f4e65fad6a77089d0,2024_06_04,41.487408,-71.29017,First Beach,1,0,0.17142857142857143,17,17,"NIGHT_CLEAR,NIGHT_CLEAR,NIGHT_CLEAR,NIGHT_CLEAR,CLEAR,MIST,CLEAR,CLEAR,CLEAR,CLEAR,CLEAR,CLEAR,CLEAR,CLEAR","Cross-shore,Cross-shore,Cross-shore,Cross-shore,Cross-shore,Onshore,Onshore,Onshore,Onshore,Onshore,Onshore,Onshore,Onshore,Onshore",14
5842041f4e65fad6a77089d1,2024_06_04,42.27916830233153,-70.86498,Nantasket Beach,0.3092857142857143,0,0.19290714285714286,15,13.5,"NIGHT_CLEAR,NIGHT_CLEAR,NIGHT_MOSTLY_CLEAR,NIGHT_CLEAR,CLEAR,MIST,MIST,MIST,MIST,MIST,MIST,MIST,MIST,CLEAR","Cross-shore,Cross-shore,Onshore,Onshore,Onshore,Onshore,Onshore,Onshore,Onshore,Onshore,Cross-shore,Cross-shore,Cross-shore,Cross-shore",14
5842041f4e65fad6a77089d2,2024_06_04,41.817,-69.935,Cape Cod,0.5714285714285714,0,0.24285714285714285,14,14,"NIGHT_MOSTLY_CLOUDY,NIGHT_CLEAR,NIGHT_CLEAR,NIGHT_CLEAR,CLEAR,MIST,MIST,CLEAR,CLEAR,MIST,MIST,MIST,MIST,MIST","Onshore,Onshore,Onshore,Onshore,Onshore,Onshore,Onshore,Onshore,Onshore,Onshore,Onshore,Onshore,Onshore,Onshore",14
5842041f4e65fad6a77089d3,2024_06_04,42.22055448975661,-70.70634873403819,Egypt Beach,0.42857142857142855,0,0.2621428571428572,15.571428571428571,15.571428571428571,"NIGHT_MOSTLY_CLEAR,NIGHT_MOSTLY_CLEAR,NIGHT_CLEAR,NIGHT_CLEAR,CLEAR,MIST,MIST,MIST,MIST,MIST,MIST,MIST,CLEAR,CLEAR","Onshore,Onshore,Onshore,Onshore,Onshore,Onshore,Onshore,Onshore,Onshore,Onshore,Onshore,Onshore,Onshore,Onshore",14
5842041f4e65fad6a77089d4,2024_06_04,41.48739647744607,-71.25723,Second Beach,0.5585714285714286,0.06865857142857143,0.2007142857142857,16,14,"NIGHT_CLEAR,NIGHT_CLEAR,NIGHT_CLEAR,NIGHT_CLEAR,CLEAR,CLEAR,CLEAR,CLEAR,MIST,CLEAR,MIST,MIST,CLEAR,MIST","Offshore,Offshore,Offshore,Offshore,Offshore,Cross-shore,Cross-shore,Cross-shore,Onshore,Cross-shore,Onshore,Onshore,Onshore,Onshore",14
5842041f4e65fad6a77089d5,2024_06_04,42.964,-70.769,Fox Hill,0.5828571428571429,0,0.2619314285714286,14.5,12.5,"NIGHT_MIST,NIGHT_MIST,NIGHT_MIST,NIGHT_MIST,MIST,MIST,CLEAR,CLEAR,CLEAR,CLEAR,CLEAR,CLEAR,CLEAR,CLEAR","Onshore,Cross-shore,Cross-shore,Cross-shore,Cross-shore,Cross-shore,Onshore,Onshore,Onshore,Onshore,Onshore,Onshore,Onshore,Onshore",14
5842041f4e65fad6a77089d6,2024_06_04,42.991359,-70.75149,Straws Point,0.5828571428571429,0,0.27026428571428573,14.5,12.5,"NIGHT_MOSTLY_CLEAR,NIGHT_MIST,NIGHT_MIST,NIGHT_MOSTLY_CLEAR,MIST,CLEAR,CLEAR,CLEAR,CLEAR,CLEAR,CLEAR,CLEAR,CLEAR,CLEAR","Cross-shore,Cross-shore,Cross-shore,Offshore,Offshore,Offshore,Cross-shore,Onshore,Onshore,Onshore,Onshore,Onshore,Onshore,Onshore",14
5842041f4e65fad6a77089d7,2024_06_04,42.946,-70.786,Plaice Cove,0.5828571428571429,0,0.2619314285714286,14.5,12.5,"NIGHT_MOSTLY_CLEAR,NIGHT_MIST,NIGHT_MIST,NIGHT_MIST,MIST,MIST,CLEAR,CLEAR,CLEAR,MIST,MIST,MOSTLY_CLEAR,MIST,MIST","Onshore,Onshore,Cross-shore,Cross-shore,Cross-shore,Cross-shore,Onshore,Onshore,Onshore,Onshore,Onshore,Onshore,Onshore,Onshore",14
5842041f4e65fad6a77089d9,2024_06_04,42.911574,-70.80831,The Main Beach,0,-0.0025628571428571428,0.19919571428571428,14.5,12,"NIGHT_MIST,NIGHT_MIST,NIGHT_MIST,NIGHT_MIST,MIST,MIST,MIST,MIST,MIST,MIST,MIST,MIST,MIST,MIST","Cross-shore,Cross-shore,Offshore,Offshore,Offshore,Offshore,Cross-shore,Cross-shore,Onshore,Onshore,Onshore,Onshore,Onshore,Onshore",14
5842041f4e65fad6a77089da,2024_06_04,42.97583846220203,-70.764,Sawyer's Beach,0.5828571428571429,0,0.2572285714285714,14.5,12.5,"NIGHT_MIST,NIGHT_MIST,NIGHT_MIST,NIGHT_MIST,MIST,MIST,CLEAR,CLEAR,CLEAR,CLEAR,CLEAR,CLEAR,CLEAR,CLEAR","Onshore,Cross-shore,Cross-shore,Cross-shore,Cross-shore,Cross-shore,Onshore,Onshore,Onshore,Onshore,Onshore,Onshore,Onshore,Onshore",14
5842041f4e65fad6a77089db,2024_06_04,42.97,-70.77,Rye on the Rocks / 5-0's,0,0,0.20495642857142857,14.5,12,"NIGHT_MIST,NIGHT_MIST,NIGHT_MIST,NIGHT_MIST,MIST,MIST,CLEAR,CLEAR,CLEAR,CLEAR,CLEAR,CLEAR,CLEAR,CLEAR","Cross-shore,Cross-shore,Cross-shore,Cross-shore,Offshore,Cross-shore,Onshore,Onshore,Onshore,Onshore,Onshore,Onshore,Onshore,Onshore",14
5842041f4e65fad6a77089dc,2024_06_04,43.55902946610303,-70.27795,Higgins Beach,0.14285714285714285,0,0.14,14.5,13,"NIGHT_MIST,NIGHT_MIST,NIGHT_MOSTLY_CLOUDY,NIGHT_MOSTLY_CLOUDY,MOSTLY_CLOUDY,CLEAR,MOSTLY_CLOUDY,MOSTLY_CLEAR,MOSTLY_CLEAR,MOSTLY_CLEAR,CLEAR,CLEAR,CLEAR,MOSTLY_CLEAR","Offshore,Offshore,Offshore,Offshore,Offshore,Offshore,Onshore,Onshore,Onshore,Onshore,Onshore,Onshore,Onshore,Onshore",14
5842041f4e65fad6a77089dd,2024_06_04,43.302676,-70.5652,Wells Beach,0.5828571428571429,0,0.2746092857142857,14.5,12.5,"NIGHT_MIST,NIGHT_MIST,NIGHT_MIST,NIGHT_MIST,MIST,MIST,CLEAR,MIST,MIST,MIST,MIST,MIST,MIST,MIST","Cross-shore,Cross-shore,Offshore,Offshore,Cross-shore,Cross-shore,Onshore,Onshore,Onshore,Onshore,Onshore,Onshore,Onshore,Onshore",14
5842041f4e65fad6a77089de,2024_06_04,43.545359,-70.30479,Scarborough Beach State Park,0.7257142857142858,0.07292571428571429,0.30081785714285714,14.5,12.5,"NIGHT_MIST,NIGHT_CLEAR,NIGHT_MOSTLY_CLOUDY,NIGHT_MOSTLY_CLOUDY,MOSTLY_CLOUDY,CLEAR,MIST,MIST,MIST,MIST,MIST,MIST,MIST,MIST","Cross-shore,Offshore,Offshore,Offshore,Offshore,Offshore,Onshore,Onshore,Onshore,Onshore,Onshore,Onshore,Onshore,Onshore",14
5842041f4e65fad6a77089df,2024_06_04,43.514481,-70.37215,Old Orchard Beach,0,0,0.2243757142857143,14.5,13,"NIGHT_MIST,NIGHT_MIST,NIGHT_MIST,NIGHT_MIST,MIST,MIST,MIST,MIST,CLEAR,MIST,MOSTLY_CLEAR,CLEAR,CLEAR,CLEAR","Cross-shore,Offshore,Offshore,Offshore,Offshore,Offshore,Onshore,Onshore,Onshore,Onshore,Onshore,Onshore,Onshore,Onshore",14
5842041f4e65fad6a77089e0,2024_06_04,43.34711,-70.48165,Gooch's Beach,0.4164285714285714,0,0.17010285714285714,14.5,13,"NIGHT_MIST,NIGHT_MIST,NIGHT_MIST,NIGHT_MIST,MIST,CLEAR,MOSTLY_CLEAR,MOSTLY_CLEAR,MOSTLY_CLEAR,CLEAR,CLEAR,CLEAR,CLEAR,CLEAR","Offshore,Offshore,Offshore,Offshore,Offshore,Offshore,Cross-shore,Onshore,Onshore,Onshore,Onshore,Onshore,Onshore,Onshore",14
5842041f4e65fad6a77089e2,2024_06_04,40.58433,-73.62953,Lido Beach,0,-0.004642857142857143,0.2965857142857143,17.5,16,"NIGHT_MIST,NIGHT_BRIEF_SHOWERS_POSSIBLE,NIGHT_MIST,NIGHT_MIST,MIST,MIST,BRIEF_SHOWERS,BRIEF_SHOWERS_POSSIBLE,MIST,MIST,MIST,CLEAR,MIST,CLEAR","Onshore,Onshore,Onshore,Cross-shore,Cross-shore,Cross-shore,Cross-shore,Cross-shore,Onshore,Onshore,Cross-shore,Cross-shore,Cross-shore,Onshore",14
5842041f4e65fad6a77089e3,2024_06_04,43.163135,-70.61689,Long Sands Beach,0,-0.00422,0.21837928571428572,14.5,13,"NIGHT_MIST,NIGHT_MIST,NIGHT_MIST,NIGHT_MIST,MIST,MIST,MIST,MIST,MIST,BRIEF_SHOWERS_POSSIBLE,MIST,MIST,MIST,MIST","Cross-shore,Offshore,Offshore,Offshore,Offshore,Offshore,Cross-shore,Cross-shore,Onshore,Onshore,Onshore,Onshore,Onshore,Onshore",14
5842041f4e65fad6a77089e4,2024_06_04,40.61695351251805,-73.39376,Gilgo Beach,0.4878571428571429,0.017142857142857144,0.26540714285714284,17,14,"NIGHT_MIST,NIGHT_MIST,NIGHT_MIST,NIGHT_MIST,MIST,MIST,MIST,MIST,MIST,CLEAR,CLEAR,CLEAR,CLEAR,CLEAR","Cross-shore,Cross-shore,Cross-shore,Cross-shore,Cross-shore,Cross-shore,Cross-shore,Cross-shore,Cross-shore,Cross-shore,Cross-shore,Cross-shore,Cross-shore,Cross-shore",14
5842041f4e65fad6a77089e5,2024_06_04,40.62530081928036,-73.23827,Robert Moses,0.5714285714285714,0,0.28500000000000003,18.571428571428573,18.571428571428573,"NIGHT_MIST,NIGHT_MIST,NIGHT_MIST,NIGHT_MIST,MIST,MIST,MIST,MIST,MIST,CLEAR,CLEAR,CLEAR,CLEAR,CLEAR","Cross-shore,Cross-shore,Cross-shore,Cross-shore,Cross-shore,Cross-shore,Cross-shore,Cross-shore,Cross-shore,Cross-shore,Cross-shore,Cross-shore,Cross-shore,Cross-shore",14
5842041f4e65fad6a77089e6,2024_06_04,40.64313317632791,-73.15727,Fire Island,0.5714285714285714,0,0.28785714285714287,18,18,"NIGHT_MIST,NIGHT_MIST,NIGHT_MIST,NIGHT_MIST,MIST,MIST,MIST,MIST,MIST,CLEAR,CLEAR,CLEAR,CLEAR,CLEAR","Cross-shore,Cross-shore,Cross-shore,Cross-shore,Cross-shore,Cross-shore,Cross-shore,Cross-shore,Cross-shore,Cross-shore,Cross-shore,Cross-shore,Cross-shore,Cross-shore",14
5842041f4e65fad6a77089e8,2024_06_04,40.76653118828782,-72.7458,Cupsogue,1,0.12142857142857143,0.425,17,17,"NIGHT_MIST,NIGHT_MIST,NIGHT_MIST,NIGHT_MIST,CLEAR,CLEAR,CLEAR,MIST,CLEAR,CLEAR,CLEAR,CLEAR,CLEAR,CLEAR","Cross-shore,Cross-shore,Cross-shore,Cross-shore,Cross-shore,Cross-shore,Cross-shore,Cross-shore,Cross-shore,Cross-shore,Cross-shore,Cross-shore,Cross-shore,Cross-shore",14
5842041f4e65fad6a77089e9,2024_06_04,42.9376373334092,-70.79141,The Wall ,0,-9.928571428571428e-4,0.20164785714285716,14.5,12,"NIGHT_MIST,NIGHT_MIST,NIGHT_MIST,NIGHT_MIST,MIST,MIST,MIST,MIST,MIST,MIST,MIST,MIST,MIST,MIST","Onshore,Onshore,Onshore,Onshore,Onshore,Onshore,Onshore,Onshore,Onshore,Onshore,Onshore,Onshore,Onshore,Onshore",14
5842041f4e65fad6a77089ea,2024_06_04,40.887088,-72.33856,Flys,1.3571428571428572,0.08142857142857143,0.38571428571428573,16.571428571428573,16.571428571428573,"NIGHT_MIST,NIGHT_MIST,NIGHT_MIST,NIGHT_MIST,MIST,MIST,MIST,MIST,CLEAR,CLEAR,MIST,MIST,MIST,MIST","Offshore,Offshore,Offshore,Offshore,Cross-shore,Cross-shore,Cross-shore,Cross-shore,Cross-shore,Cross-shore,Cross-shore,Cross-shore,Cross-shore,Cross-shore",14
5842041f4e65fad6a77089eb,2024_06_04,41.0389266436591,-71.91068529316958,Trailer Park,0.8457142857142858,0,0.30442142857142857,17,14,"NIGHT_MIST,NIGHT_CLEAR,NIGHT_CLEAR,NIGHT_CLEAR,CLEAR,CLEAR,CLEAR,CLEAR,CLEAR,CLEAR,CLEAR,CLEAR,CLEAR,CLEAR","Cross-shore,Offshore,Cross-shore,Cross-shore,Cross-shore,Cross-shore,Cross-shore,Cross-shore,Cross-shore,Cross-shore,Cross-shore,Cross-shore,Cross-shore,Onshore",14
5842041f4e65fad6a77089ec,2024_06_04,41.039505402729105,-71.9142,Ditch Plains,1.2142857142857142,0.21964357142857144,0.34319500000000003,15.571428571428571,15.571428571428571,"NIGHT_MIST,NIGHT_MIST,NIGHT_MIST,NIGHT_MIST,MIST,CLEAR,CLEAR,CLEAR,CLEAR,MIST,MIST,MIST,MIST,CLEAR","Cross-shore,Cross-shore,Cross-shore,Cross-shore,Onshore,Onshore,Onshore,Onshore,Onshore,Cross-shore,Onshore,Onshore,Onshore,Onshore",14
5842041f4e65fad6a77089ee,2024_06_04,40.57633275206492,-73.56895305108567,"West End, Jones Beach",0.6542857142857142,0.025297857142857143,0.3297285714285714,17.5,16,"NIGHT_MIST,NIGHT_MIST,NIGHT_CLEAR,NIGHT_CLOUDY,MIST,MIST,MIST,MIST,MIST,CLEAR,CLEAR,CLEAR,CLEAR,CLEAR","Offshore,Offshore,Offshore,Offshore,Offshore,Cross-shore,Cross-shore,Cross-shore,Cross-shore,Cross-shore,Cross-shore,Cross-shore,Cross-shore,Cross-shore",14
5842041f4e65fad6a77089f1,2024_06_04,41.038286691230795,-71.91991567611694,Poles,0.8457142857142858,0,0.2959007142857143,17,14,"NIGHT_MIST,NIGHT_CLEAR,NIGHT_CLEAR,NIGHT_CLEAR,CLEAR,CLEAR,CLEAR,CLEAR,CLEAR,CLEAR,CLEAR,CLEAR,CLEAR,CLEAR","Cross-shore,Offshore,Cross-shore,Cross-shore,Cross-shore,Cross-shore,Cross-shore,Cross-shore,Cross-shore,Cross-shore,Cross-shore,Cross-shore,Onshore,Onshore",14
