_id,date,lat,lon,name,daily_mean_swell_rating,daily_mean_wave_height_min,daily_mean_wave_height_max,daily_mean_water_temperature_max,daily_mean_water_temperature_min,weather_per_timestamp,wind_per_timestamp,n_samples_per_day
5842041f4e65fad6a77087f9,2024_03_08,37.741668,-122.51038,South Ocean Beach,3,1.2609333333333335,1.8944333333333334,14,14,CLEAR,Offshore,1
5842041f4e65fad6a7708801,2024_03_08,37.49142,-122.50428,Maverick's,NA,1.24,1.48,13,13,CLEAR,Offshore,1
5842041f4e65fad6a7708804,2024_03_08,44.997,-124.018,Roads End,4,1.31,1.61,10,10,CLEAR,Offshore,1
5842041f4e65fad6a7708805,2024_03_08,36.95188851423011,-122.02522,Steamer Lane,2.83,0.8657000000000001,1.1709333333333334,14,14,CLEAR,Offshore,1
5842041f4e65fad6a7708806,2024_03_08,36.95918781542251,-122.02489,Cowells,1,0,0.15803333333333333,14,14,CLEAR,Cross-shore,1
5842041f4e65fad6a7708807,2024_03_08,36.95468082526536,-121.97234,Pleasure Point,3,0.5829666666666666,1.0179,14,14,CLEAR,Onshore,1
5842041f4e65fad6a770880a,2024_03_08,35.37815414378748,-120.86589,Morro Bay,3,0.8823666666666666,1.3273,14,14,CLEAR,Offshore,1
5842041f4e65fad6a770880b,2024_03_08,36.95782765000708,-121.9672887511276,Jack's,1,-0.012499999999999983,0.1622,14,14,CLEAR,Onshore,1
5842041f4e65fad6a770880d,2024_03_08,34.29982939936656,-119.3489016603669,Gold Coast Beachbreaks,2,0.16,0.46,14,14,CLEAR,Cross-shore,1
5842041f4e65fad6a7708811,2024_03_08,34.245076,-119.26799,Ventura Harbor,3,0.9144,1.3716,14,14,CLEAR,Onshore,1
5842041f4e65fad6a7708813,2024_03_08,34.051,-118.964,County Line,2.83,0.5588000000000001,0.8732,15,15,CLEAR,Offshore,1
5842041f4e65fad6a7708814,2024_03_08,34.37256264378892,-119.47797,Rincon,2,0.22,0.52,14,14,CLEAR,Offshore,1
5842041f4e65fad6a7708817,2024_03_08,34.03096101876324,-118.68109,Malibu Third Point,2,0.17,0.47,15,15,CLEAR,Cross-shore,1
5842041f4e65fad6a7708819,2024_03_08,33.984079047970035,-118.47381591796875,Venice Beach,2.83,0.5704666666666667,1.0053999999999998,14,14,MIST,Offshore,1
5842041f4e65fad6a770881e,2024_03_08,34.037508438646746,-118.58339846155594,Topanga Beach,2,0.2677333333333333,0.5821333333333334,15,15,CLEAR,Cross-shore,1
5842041f4e65fad6a7708820,2024_03_08,33.73954373690184,-118.11414,Seal Beach Jetty,2,0.19,0.5,15,15,MOSTLY_CLOUDY,Offshore,1
5842041f4e65fad6a7708822,2024_03_08,33.72309983348433,-118.08078,Anderson Street,2,0.28,0.58,15,15,MOSTLY_CLOUDY,Offshore,1
5842041f4e65fad6a7708827,2024_03_08,33.65574085629463,-118.00397,Huntington Beach Pier Northside,3,0.8598666666666667,1.1451000000000002,15,15,MOSTLY_CLOUDY,Offshore,1
5842041f4e65fad6a7708828,2024_03_08,34.272041739333,-119.2997646331,C St.,2,0.3048,0.6096,14,14,CLEAR,Offshore,1
5842041f4e65fad6a770882a,2024_03_08,33.61555743705257,-117.93676,Newport Lower Jetties,2,0.5504666666666667,0.8556999999999999,15,15,MOSTLY_CLOUDY,Offshore,1
5842041f4e65fad6a770882b,2024_03_08,33.5930302087,-117.88199,The Wedge,2,0.28714,0.72328,15,15,MOSTLY_CLOUDY,Offshore,1
5842041f4e65fad6a770882c,2024_03_08,33.60577342582,-117.9315376281,Newport Beach Pier,3,0.5721333333333334,1.0162333333333333,15,15,MOSTLY_CLOUDY,Onshore,1
5842041f4e65fad6a770882e,2024_03_08,33.475793399792984,-117.72291,Salt Creek,3,0.8290333333333334,1.2639666666666665,15,15,MOSTLY_CLOUDY,Cross-shore,1
5842041f4e65fad6a7708830,2024_03_08,33.41800974113613,-117.61952,T-Street,2,0.5279666666666667,0.9820666666666666,16,16,MOSTLY_CLOUDY,Onshore,1
5842041f4e65fad6a7708832,2024_03_08,33.202391008646,-117.39475,Oceanside Harbor,2,0.8482000000000001,1.2831333333333335,16,16,MOSTLY_CLOUDY,Offshore,1
5842041f4e65fad6a7708835,2024_03_08,33.19477795952803,-117.38667,Oceanside Pier,2,0.8415333333333332,1.1467666666666667,16,16,MOSTLY_CLOUDY,Offshore,1
5842041f4e65fad6a7708837,2024_03_08,33.14948100706,-117.35029,Tamarack,3,0.46,0.77,16,16,CLEAR,Offshore,1
5842041f4e65fad6a7708839,2024_03_08,32.865777159358856,-117.25614295356122,Scripps,2.83,1.1592666666666667,1.4486666666666665,16,16,CLEAR,Offshore,1
5842041f4e65fad6a770883a,2024_03_08,32.813094,-117.27381,Birdrock,3,0.99,1.3,16,16,CLEAR,Offshore,1
5842041f4e65fad6a770883b,2024_03_08,32.877231,-117.25303,Blacks,2.17,1.1651,1.7380666666666666,16,16,CLEAR,Onshore,1
5842041f4e65fad6a770883c,2024_03_08,32.82978974229765,-117.28161740727381,Windansea,1.33,1.1200999999999999,1.3645,15,15,CLEAR,Offshore,1
5842041f4e65fad6a770883d,2024_03_08,32.838278,-117.28396,Horseshoe,4,1.24,1.48,16,16,CLEAR,Offshore,1
5842041f4e65fad6a770883f,2024_03_08,32.75034717673179,-117.25337,Ocean Beach,2,1.1751000000000003,1.467,15,15,CLEAR,Offshore,1
5842041f4e65fad6a7708840,2024_03_08,32.73693,-117.25718,Sunset Cliffs,3,1.26,1.51,16,16,CLEAR,Offshore,1
5842041f4e65fad6a7708841,2024_03_08,32.796582258728826,-117.25779,Pacific Beach,2.17,1.1684333333333334,1.4495,15,15,CLEAR,Offshore,1
5842041f4e65fad6a7708842,2024_03_08,32.776636,-117.25514,Mission Beach,2,1.1684333333333334,1.4595,15,15,CLEAR,Offshore,1
5842041f4e65fad6a7708844,2024_03_08,32.577195519016,-117.13475,Imperial Beach Pier,3,1.43,1.71,15,15,CLEAR,Offshore,1
5842041f4e65fad6a770884a,2024_03_08,42.88678181061,-70.80843,Seabrook,2,1.1950695,1.7085496666666666,4,3,"NIGHT_CLEAR,NIGHT_CLEAR,NIGHT_CLEAR,NIGHT_CLEAR,NIGHT_CLEAR,CLEAR,CLEAR,CLEAR,CLEAR,CLEAR","Cross-shore,Cross-shore,Cross-shore,Cross-shore,Cross-shore,Cross-shore,Cross-shore,Cross-shore,Cross-shore,Cross-shore",10
5842041f4e65fad6a770884e,2024_03_08,41.434181432898335,-71.45312118111178,Narragansett,1.9,0.5610318181818181,0.8624751515151515,6,4,"NIGHT_CLEAR,NIGHT_CLEAR,NIGHT_CLEAR,NIGHT_CLEAR,NIGHT_CLEAR,CLEAR,CLEAR,CLEAR,CLEAR,CLEAR","Offshore,Offshore,Offshore,Offshore,Offshore,Offshore,Offshore,Offshore,Offshore,Offshore",10
5842041f4e65fad6a7708850,2024_03_08,40.582703230722,-73.65247,Lincoln Blvd,3,0.6762533333333334,1.0220453333333333,7,6,"NIGHT_CLEAR,NIGHT_CLEAR,NIGHT_CLEAR,NIGHT_CLEAR,NIGHT_MIST,CLEAR,MIST,CLEAR,CLEAR,CLEAR","Offshore,Offshore,Offshore,Offshore,Offshore,Offshore,Offshore,Offshore,Offshore,Offshore",10
5842041f4e65fad6a7708852,2024_03_08,40.58342841721757,-73.81182,Rockaways,3.32,0.8381633333333333,1.1554900000000001,7,6,"NIGHT_CLEAR,NIGHT_CLEAR,NIGHT_CLEAR,NIGHT_CLEAR,NIGHT_CLEAR,CLEAR,MIST,CLEAR,CLEAR,CLEAR","Offshore,Offshore,Offshore,Offshore,Offshore,Offshore,Offshore,Offshore,Offshore,Offshore",10
5842041f4e65fad6a7708853,2024_03_08,40.330474,-73.9734,Monmouth Beach,1.85,0.8911033333333334,1.15961,7,6,"NIGHT_CLEAR,NIGHT_CLEAR,NIGHT_CLEAR,NIGHT_CLEAR,NIGHT_CLEAR,CLEAR,CLEAR,CLEAR,CLEAR,CLEAR","Cross-shore,Cross-shore,Offshore,Offshore,Offshore,Cross-shore,Cross-shore,Cross-shore,Cross-shore,Cross-shore",10
5842041f4e65fad6a7708856,2024_03_08,40.113,-74.028,Manasquan Inlet,1.333,0.9432699999999999,1.2436133333333332,7,6,"NIGHT_CLEAR,NIGHT_CLEAR,NIGHT_CLEAR,NIGHT_CLEAR,NIGHT_CLEAR,CLEAR,CLEAR,CLEAR,CLEAR,CLEAR","Cross-shore,Cross-shore,Cross-shore,Offshore,Cross-shore,Cross-shore,Cross-shore,Cross-shore,Cross-shore,Cross-shore",10
5842041f4e65fad6a7708857,2024_03_08,39.941519877445664,-74.06829,Casino Pier,1.226,1.0669433333333334,1.36995,7,6,"NIGHT_CLEAR,NIGHT_CLEAR,NIGHT_CLEAR,NIGHT_CLEAR,NIGHT_CLEAR,CLEAR,CLEAR,CLEAR,CLEAR,CLEAR","Cross-shore,Cross-shore,Offshore,Offshore,Offshore,Offshore,Cross-shore,Cross-shore,Cross-shore,Cross-shore",10
5842041f4e65fad6a7708858,2024_03_08,39.28223089949212,-74.55766,North End OC,2,0.7921366666666667,1.1223266666666667,7.2,6,"NIGHT_CLEAR,NIGHT_CLEAR,NIGHT_CLEAR,NIGHT_CLEAR,NIGHT_CLEAR,CLEAR,CLEAR,CLEAR,CLEAR,CLEAR","Offshore,Offshore,Offshore,Offshore,Offshore,Offshore,Cross-shore,Cross-shore,Cross-shore,Cross-shore",10
5842041f4e65fad6a770885b,2024_03_08,39.65080599934257,-74.17146,Ship Bottom,1.908,0.96422,1.3901666666666668,7.2,6,"NIGHT_CLEAR,NIGHT_CLEAR,NIGHT_CLEAR,NIGHT_CLEAR,NIGHT_CLEAR,CLEAR,CLEAR,CLEAR,CLEAR,CLEAR","Offshore,Offshore,Offshore,Offshore,Offshore,Offshore,Offshore,Cross-shore,Cross-shore,Cross-shore",10
5842041f4e65fad6a7708863,2024_03_08,36.034151543144,-75.66791,Third Street,1.317,0.8385533333333333,1.11696,10.6,8.8,"NIGHT_CLEAR,NIGHT_CLEAR,NIGHT_CLEAR,NIGHT_OVERCAST,NIGHT_OVERCAST,OVERCAST,OVERCAST,OVERCAST,OVERCAST,CLEAR","Onshore,Onshore,Onshore,Onshore,Onshore,Onshore,Onshore,Onshore,Onshore,Onshore",10
5842041f4e65fad6a7708867,2024_03_08,35.605833221351425,-75.46303,S-Turns,0.5,0.9962613333333333,1.438556,11,9,"NIGHT_MIST,NIGHT_CLEAR,NIGHT_CLEAR,NIGHT_MIST,NIGHT_MIST,MIST,MIST,DRIZZLE,DRIZZLE,MOSTLY_CLOUDY","Cross-shore,Cross-shore,Cross-shore,Onshore,Onshore,Onshore,Cross-shore,Cross-shore,Onshore,Onshore",10
5842041f4e65fad6a770886d,2024_03_08,38.338461,-75.08117,Ocean City Boardwalk,1.383,0.96729,1.29981,8,7,"NIGHT_CLEAR,NIGHT_CLEAR,NIGHT_CLEAR,NIGHT_CLEAR,NIGHT_CLEAR,CLEAR,CLEAR,CLEAR,CLEAR,CLEAR","Onshore,Onshore,Onshore,Onshore,Onshore,Onshore,Onshore,Onshore,Onshore,Onshore",10
5842041f4e65fad6a770886f,2024_03_08,29.844757212379562,-81.26136,A St.,2.3,0.446,0.753,17,17,"NIGHT_CLEAR,NIGHT_CLEAR,NIGHT_MIST,NIGHT_MIST,NIGHT_MIST,MIST,MIST,CLEAR,CLEAR,MIST","Cross-shore,Cross-shore,Cross-shore,Onshore,Onshore,Onshore,Onshore,Onshore,Onshore,Onshore",10
5842041f4e65fad6a7708871,2024_03_08,29.069417851135093,-80.90824,New Smyrna Beach,2.636,0.9053833333333333,1.3053633333333332,19,17,"NIGHT_MIST,NIGHT_MIST,NIGHT_CLOUDY,NIGHT_CLOUDY,NIGHT_MIST,MOSTLY_CLOUDY,BRIEF_SHOWERS,MIST,MIST,MIST","Onshore,Onshore,Onshore,Onshore,Onshore,Onshore,Onshore,Onshore,Onshore,Onshore",10
5842041f4e65fad6a7708872,2024_03_08,28.367707417566,-80.60171,Cocoa Beach Pier,2,0.5703,0.8736999999999999,21,20,"NIGHT_CLEAR,NIGHT_MIST,NIGHT_MIST,NIGHT_MIST,NIGHT_MIST,MOSTLY_CLOUDY,MOSTLY_CLOUDY,MOSTLY_CLOUDY,BRIEF_SHOWERS,CLEAR","Onshore,Onshore,Onshore,Onshore,Onshore,Onshore,Onshore,Onshore,Onshore,Onshore",10
5842041f4e65fad6a7708873,2024_03_08,28.091782738658846,-80.56479,Indialantic,2.6,0.72423,1.02864,21,20,"NIGHT_MIST,NIGHT_MIST,NIGHT_MIST,NIGHT_BRIEF_SHOWERS,NIGHT_MIST,CLEAR,MIST,MIST,MOSTLY_CLOUDY,CLEAR","Cross-shore,Cross-shore,Onshore,Onshore,Onshore,Onshore,Onshore,Onshore,Onshore,Onshore",10
5842041f4e65fad6a7708876,2024_03_08,27.25392904143517,-80.19455,Jensen Beach,1.917,0.4524,0.7561,23,22,"NIGHT_MIST,NIGHT_MIST,NIGHT_MIST,NIGHT_MOSTLY_CLOUDY,NIGHT_MOSTLY_CLOUDY,MIST,MOSTLY_CLOUDY,MOSTLY_CLOUDY,CLEAR,MIST","Offshore,Cross-shore,Onshore,Offshore,Onshore,Offshore,Cross-shore,Cross-shore,Cross-shore,Onshore",10
5842041f4e65fad6a7708879,2024_03_08,26.76346795333825,-80.0360655784607,Reef Road,0,-0.003166666666666659,0.17392666666666667,24,23,"NIGHT_MIST,NIGHT_MIST,NIGHT_MIST,NIGHT_FOG,NIGHT_MIST,MIST,MIST,MIST,MOSTLY_CLOUDY,CLEAR","Offshore,Offshore,Offshore,Offshore,Offshore,Offshore,Offshore,Offshore,Cross-shore,Onshore",10
5842041f4e65fad6a770887c,2024_03_08,26.336499228484,-80.06956100463,Boca Raton Inlet,1.25,0.045000000000000005,0.34918,25,23,"NIGHT_MIST,NIGHT_CLEAR,NIGHT_CLEAR,NIGHT_CLEAR,NIGHT_CLEAR,MIST,CLEAR,CLEAR,CLEAR,CLEAR","Cross-shore,Offshore,Cross-shore,Cross-shore,Offshore,Offshore,Offshore,Offshore,Cross-shore,Onshore",10
5842041f4e65fad6a770887d,2024_03_08,26.31719311695038,-80.07452525176168,Deerfield Beach Pier,0,-0.0010266666666666675,0.15291333333333335,25,23,"NIGHT_CLEAR,NIGHT_CLEAR,NIGHT_BRIEF_SHOWERS_POSSIBLE,NIGHT_MIST,NIGHT_MIST,BRIEF_SHOWERS_POSSIBLE,BRIEF_SHOWERS_POSSIBLE,CLEAR,CLEAR,CLEAR","Cross-shore,Offshore,Offshore,Cross-shore,Offshore,Offshore,Offshore,Offshore,Onshore,Onshore",10
5842041f4e65fad6a7708881,2024_03_08,30.20276320866628,-85.85626528676136,"Spyglass Dr., Panama City",0.367,-0.0042,0.18573800000000001,19,18,"NIGHT_CLEAR,NIGHT_CLEAR,NIGHT_CLEAR,NIGHT_MIST,NIGHT_MIST,NIGHT_CLEAR,CLEAR,CLEAR,CLEAR,CLEAR","Cross-shore,Cross-shore,Cross-shore,Offshore,Cross-shore,Cross-shore,Offshore,Cross-shore,Cross-shore,Cross-shore",10
5842041f4e65fad6a7708884,2024_03_08,33.39000832738053,-117.59852,Cottons,2,0.6779666666666667,0.9923666666666667,16,16,MOSTLY_CLOUDY,Cross-shore,1
5842041f4e65fad6a7708885,2024_03_08,33.359416282661,-117.54167901405711,Trails,3,0.51,0.81,15,15,MOSTLY_CLOUDY,Offshore,1
5842041f4e65fad6a7708886,2024_03_08,33.38042605929805,-117.58332,Middles,2.83,0.5604666666666667,0.8556999999999999,16,16,MOSTLY_CLOUDY,Offshore,1
5842041f4e65fad6a7708887,2024_03_08,33.38445596302903,-117.59445,Upper Trestles,2,0.5488000000000001,0.8540333333333333,16,16,MOSTLY_CLOUDY,Offshore,1
5842041f4e65fad6a7708889,2024_03_08,28.944414,-95.28883,Surfside,2,0.77278,1.20746,18,18,MIST,Onshore,1
5842041f4e65fad6a770888a,2024_03_08,33.38143999849023,-117.58843,Lower Trestles,2.83,0.5679666666666667,0.8732000000000002,16,16,MOSTLY_CLOUDY,Offshore,1
5842041f4e65fad6a770888b,2024_03_08,33.379622288757,-117.57894,Church,2.83,0.5663000000000001,0.8715333333333333,16,16,MOSTLY_CLOUDY,Offshore,1
5842041f4e65fad6a770888d,2024_03_08,21.679,-158.042,Sunset Beach,3,0.989,1.181,26,25,"NIGHT_MOSTLY_CLOUDY,NIGHT_BRIEF_SHOWERS,NIGHT_CLEAR,NIGHT_MOSTLY_CLEAR,NIGHT_MOSTLY_CLOUDY,NIGHT_BRIEF_SHOWERS,NIGHT_BRIEF_SHOWERS,NIGHT_LIGHT_RAIN,NIGHT_BRIEF_SHOWERS,NIGHT_CLEAR","Cross-shore,Cross-shore,Cross-shore,Cross-shore,Offshore,Offshore,Offshore,Offshore,Offshore,Offshore",10
5842041f4e65fad6a770888e,2024_03_08,21.670550036401,-158.0482,Rocky Point,3,1.0230000000000001,1.276,26,25,"NIGHT_MOSTLY_CLOUDY,NIGHT_CLEAR,NIGHT_CLEAR,NIGHT_MOSTLY_CLEAR,NIGHT_CLEAR,NIGHT_CLEAR,NIGHT_CLEAR,NIGHT_DRIZZLE,NIGHT_CLEAR,NIGHT_CLEAR","Cross-shore,Cross-shore,Cross-shore,Cross-shore,Cross-shore,Cross-shore,Cross-shore,Cross-shore,Cross-shore,Cross-shore",10
5842041f4e65fad6a770888f,2024_03_08,21.668,-158.05,Chambers,3,0.86,1.107,24,24,"NIGHT_MOSTLY_CLOUDY,NIGHT_CLEAR,NIGHT_CLEAR,NIGHT_MOSTLY_CLEAR,NIGHT_CLEAR,NIGHT_CLEAR,NIGHT_CLEAR,NIGHT_DRIZZLE,NIGHT_CLEAR,NIGHT_CLEAR","Cross-shore,Cross-shore,Cross-shore,Cross-shore,Offshore,Cross-shore,Cross-shore,Cross-shore,Cross-shore,Cross-shore",10
5842041f4e65fad6a7708890,2024_03_08,21.66522,-158.0526,Pipeline,1.3,0.782,1.048,26,25,"NIGHT_MOSTLY_CLOUDY,NIGHT_CLEAR,NIGHT_CLEAR,NIGHT_MOSTLY_CLEAR,NIGHT_CLEAR,NIGHT_CLEAR,NIGHT_CLEAR,NIGHT_DRIZZLE,NIGHT_CLEAR,NIGHT_CLEAR","Cross-shore,Cross-shore,Cross-shore,Cross-shore,Cross-shore,Cross-shore,Cross-shore,Cross-shore,Cross-shore,Cross-shore",10
5842041f4e65fad6a7708891,2024_03_08,21.665,-158.054,Backdoor,3,0.782,1.048,26,25,"NIGHT_MOSTLY_CLOUDY,NIGHT_CLEAR,NIGHT_CLEAR,NIGHT_MOSTLY_CLEAR,NIGHT_CLEAR,NIGHT_CLEAR,NIGHT_CLEAR,NIGHT_DRIZZLE,NIGHT_CLEAR,NIGHT_CLEAR","Cross-shore,Cross-shore,Cross-shore,Cross-shore,Cross-shore,Cross-shore,Cross-shore,Cross-shore,Cross-shore,Cross-shore",10
5842041f4e65fad6a7708892,2024_03_08,21.662,-158.057,Rockpile,3,1.015,1.224,24,24,"NIGHT_MOSTLY_CLOUDY,NIGHT_CLEAR,NIGHT_CLEAR,NIGHT_MOSTLY_CLEAR,NIGHT_CLEAR,NIGHT_CLEAR,NIGHT_CLEAR,NIGHT_DRIZZLE,NIGHT_CLEAR,NIGHT_CLEAR","Cross-shore,Cross-shore,Cross-shore,Cross-shore,Cross-shore,Cross-shore,Cross-shore,Cross-shore,Cross-shore,Cross-shore",10
5842041f4e65fad6a7708893,2024_03_08,21.65870453806827,-158.06058,Log Cabins,2.2,0.732,1.0230000000000001,24,24,"NIGHT_MOSTLY_CLOUDY,NIGHT_CLEAR,NIGHT_CLEAR,NIGHT_MOSTLY_CLEAR,NIGHT_CLEAR,NIGHT_CLEAR,NIGHT_CLEAR,NIGHT_DRIZZLE,NIGHT_CLEAR,NIGHT_CLEAR","Cross-shore,Cross-shore,Cross-shore,Cross-shore,Cross-shore,Cross-shore,Cross-shore,Cross-shore,Cross-shore,Cross-shore",10
5842041f4e65fad6a7708894,2024_03_08,21.66203493640557,-158.05495,Off-The-Wall,3,0.996,1.202,24,24,"NIGHT_MOSTLY_CLOUDY,NIGHT_CLEAR,NIGHT_CLEAR,NIGHT_MOSTLY_CLEAR,NIGHT_CLEAR,NIGHT_CLEAR,NIGHT_CLEAR,NIGHT_DRIZZLE,NIGHT_CLEAR,NIGHT_CLEAR","Cross-shore,Cross-shore,Cross-shore,Cross-shore,Cross-shore,Cross-shore,Cross-shore,Cross-shore,Cross-shore,Cross-shore",10
5842041f4e65fad6a7708895,2024_03_08,21.643,-158.067,Waimea Bay,NA,0.971,1.174,26,25,"NIGHT_MOSTLY_CLOUDY,NIGHT_CLEAR,NIGHT_CLEAR,NIGHT_MOSTLY_CLEAR,NIGHT_CLEAR,NIGHT_CLEAR,NIGHT_CLEAR,NIGHT_DRIZZLE,NIGHT_CLEAR,NIGHT_CLEAR","Cross-shore,Offshore,Offshore,Cross-shore,Offshore,Offshore,Offshore,Offshore,Offshore,Offshore",10
5842041f4e65fad6a7708896,2024_03_08,21.622,-158.087,Hultin's,2.6,0.981,1.184,26,25,"NIGHT_MOSTLY_CLOUDY,NIGHT_CLEAR,NIGHT_MOSTLY_CLOUDY,NIGHT_CLEAR,NIGHT_CLEAR,NIGHT_MOSTLY_CLOUDY,NIGHT_MOSTLY_CLOUDY,NIGHT_CLEAR,NIGHT_CLEAR,NIGHT_CLEAR","Offshore,Offshore,Offshore,Offshore,Offshore,Offshore,Offshore,Offshore,Offshore,Offshore",10
5842041f4e65fad6a7708897,2024_03_08,21.623,-158.085,Jocko's,2,0.716,1.02,24,24,"NIGHT_MOSTLY_CLOUDY,NIGHT_CLEAR,NIGHT_CLEAR,NIGHT_CLEAR,NIGHT_CLEAR,NIGHT_MOSTLY_CLOUDY,NIGHT_MOSTLY_CLOUDY,NIGHT_CLEAR,NIGHT_CLEAR,NIGHT_CLEAR","Onshore,Onshore,Onshore,Onshore,Onshore,Onshore,Onshore,Onshore,Onshore,Onshore",10
5842041f4e65fad6a7708898,2024_03_08,21.62,-158.088,Laniakea,2,0.908,1.114,26,25,"NIGHT_MOSTLY_CLOUDY,NIGHT_CLEAR,NIGHT_MOSTLY_CLOUDY,NIGHT_CLEAR,NIGHT_CLEAR,NIGHT_MOSTLY_CLOUDY,NIGHT_MOSTLY_CLOUDY,NIGHT_CLEAR,NIGHT_CLEAR,NIGHT_CLEAR","Cross-shore,Cross-shore,Cross-shore,Cross-shore,Cross-shore,Cross-shore,Cross-shore,Cross-shore,Cross-shore,Cross-shore",10
5842041f4e65fad6a7708899,2024_03_08,21.625,-158.083,Chun's,2.3,0.891,1.11,24,24,"NIGHT_MOSTLY_CLOUDY,NIGHT_CLEAR,NIGHT_MOSTLY_CLOUDY,NIGHT_CLEAR,NIGHT_CLEAR,NIGHT_MOSTLY_CLOUDY,NIGHT_MOSTLY_CLOUDY,NIGHT_CLEAR,NIGHT_CLEAR,NIGHT_CLEAR","Cross-shore,Cross-shore,Offshore,Cross-shore,Cross-shore,Cross-shore,Cross-shore,Cross-shore,Offshore,Offshore",10
5842041f4e65fad6a770889c,2024_03_08,21.286357895152136,-157.8515,South Shore - Ala Moana Park,1,0.226,0.529,24.5,24.5,"NIGHT_CLEAR,NIGHT_BRIEF_SHOWERS_POSSIBLE,NIGHT_CLEAR,NIGHT_CLEAR,NIGHT_CLEAR,NIGHT_CLEAR,NIGHT_CLEAR,NIGHT_CLEAR,NIGHT_CLEAR,NIGHT_CLEAR","Offshore,Offshore,Offshore,Offshore,Offshore,Offshore,Offshore,Offshore,Offshore,Offshore",10
5842041f4e65fad6a770889d,2024_03_08,19.606,-155.978,Banyans,2.7,0.32,0.625,26,25,"NIGHT_CLEAR,NIGHT_CLEAR,NIGHT_CLEAR,NIGHT_FOG,NIGHT_OVERCAST,NIGHT_OVERCAST,NIGHT_MIST,NIGHT_CLEAR,NIGHT_CLEAR,NIGHT_CLEAR","Cross-shore,Onshore,Cross-shore,Onshore,Onshore,Onshore,Onshore,Offshore,Offshore,Cross-shore",10
5842041f4e65fad6a770889e,2024_03_08,20.029,-155.831,Kawaihae,1.9,0.4444,0.661058,25,25,"NIGHT_MOSTLY_CLOUDY,NIGHT_MOSTLY_CLOUDY,NIGHT_CLEAR,NIGHT_OVERCAST,NIGHT_CLEAR,NIGHT_CLEAR,NIGHT_MOSTLY_CLOUDY,NIGHT_CLEAR,NIGHT_CLEAR,NIGHT_CLEAR","Offshore,Offshore,Offshore,Offshore,Offshore,Offshore,Offshore,Offshore,Offshore,Offshore",10
5842041f4e65fad6a770889f,2024_03_08,33.07541383424675,-117.3105,Grandview,3,0.99,1.17,16,16,CLEAR,Offshore,1
5842041f4e65fad6a77088a0,2024_03_08,33.065267421296596,-117.30577,Beacons,3,0.99,1.17,16,16,CLEAR,Offshore,1
5842041f4e65fad6a77088a2,2024_03_08,21.252,-157.805,Diamond Head,2,0.46702,0.7880750000000001,26,25,"NIGHT_CLEAR,NIGHT_CLEAR,NIGHT_CLEAR,NIGHT_CLEAR,NIGHT_CLEAR,NIGHT_CLEAR,NIGHT_CLEAR,NIGHT_CLEAR,NIGHT_CLEAR,NIGHT_CLEAR","Offshore,Offshore,Cross-shore,Offshore,Offshore,Offshore,Offshore,Offshore,Offshore,Offshore",10
5842041f4e65fad6a77088a3,2024_03_08,33.04694255008896,-117.29966,Moonlight State Beach,3,0.96,1.15,16,16,CLEAR,Offshore,1
5842041f4e65fad6a77088a5,2024_03_08,33.08685865930869,-117.31532,Ponto,4,1.16,1.38,16,16,CLEAR,Offshore,1
5842041f4e65fad6a77088a6,2024_03_08,33.130343587871906,-117.33667796442558,Terra Mar Point,2,0.9315333333333333,1.3664666666666667,16,16,CLEAR,Offshore,1
5842041f4e65fad6a77088af,2024_03_08,32.95916304183685,-117.26963,Del Mar,3,1.01,1.31,16,16,MOSTLY_CLEAR,Offshore,1
5842041f4e65fad6a77088b0,2024_03_08,32.97527261243354,-117.2721061331305,Del Mar Rivermouth,4,1.16,1.39,16,16,CLEAR,Offshore,1
5842041f4e65fad6a77088b1,2024_03_08,33.01352178146273,-117.28219,Cardiff Reef,2,1.1451000000000002,1.4278333333333335,16,16,MOSTLY_CLEAR,Offshore,1
5842041f4e65fad6a77088b3,2024_03_08,33.00211185876003,-117.2811,Seaside Reef,2,1.1167666666666667,1.3978333333333333,16,16,MOSTLY_CLEAR,Offshore,1
5842041f4e65fad6a77088b4,2024_03_08,33.0341859796287,-117.29552,Swami's,2,0.7665333333333334,1.2848000000000002,16,16,MOSTLY_CLEAR,Offshore,1
5842041f4e65fad6a77088b7,2024_03_08,33.04569760260221,-117.2994,D Street,3,1.24,1.39,16,16,CLEAR,Offshore,1
5842041f4e65fad6a77088b8,2024_03_08,33.02090944350196,-117.28535,San Elijo State Beach,2,0.8123666666666667,1.387,16,16,MOSTLY_CLEAR,Offshore,1
5842041f4e65fad6a77088c2,2024_03_08,32.80662846492798,-117.2688764333725,PB Point,3,1.31,1.43,16,16,CLEAR,Offshore,1
5842041f4e65fad6a77088c4,2024_03_08,32.8060476681448,-117.26479,Old Man's at Tourmaline,3,0.72,1.02,16,16,CLEAR,Offshore,1
5842041f4e65fad6a77088cb,2024_03_08,32.557056711256,-117.1327445020322,Tijuana Slough,3,0.98,1.17,15,15,CLEAR,Offshore,1
5842041f4e65fad6a77088cc,2024_03_08,32.863,-117.257,La Jolla Shores,3,1.02,1.22,16,16,CLEAR,Offshore,1
5842041f4e65fad6a77088ce,2024_03_08,32.67443657790586,-117.17421316238693,Coronado Beach,3,0.51,0.81,15,15,CLEAR,Offshore,1
5842041f4e65fad6a77088cf,2024_03_08,33.40484417640326,-117.60749,San Clemente State Beach,3,0.65,0.95,15,15,MOSTLY_CLOUDY,Onshore,1
5842041f4e65fad6a77088d5,2024_03_08,33.4663042002114,-117.7168352817103,Strands,3,0.8207,1.2648,15,15,MOSTLY_CLOUDY,Cross-shore,1
5842041f4e65fad6a77088d7,2024_03_08,33.4609858001748,-117.68535,Doheny State Beach,0,-0.014166666666666675,0.15053333333333332,16,16,MOSTLY_CLOUDY,Offshore,1
5842041f4e65fad6a77088dc,2024_03_08,33.50894790083017,-117.75243,Aliso Creek,2,0.46,0.77,15,15,MOSTLY_CLOUDY,Cross-shore,1
5842041f4e65fad6a77088dd,2024_03_08,33.5326591767067,-117.77764,Brooks Street,2,0.33,0.64,15,15,MOSTLY_CLOUDY,Onshore,1
5842041f4e65fad6a77088de,2024_03_08,33.53561225884637,-117.7799,Thalia Street,3,0.36,0.66,15,15,MOSTLY_CLOUDY,Onshore,1
5842041f4e65fad6a77088e3,2024_03_08,33.54268310353641,-117.7916,Rockpile,3,0.34,0.65,15,15,MOSTLY_CLOUDY,Onshore,1
5842041f4e65fad6a77088e4,2024_03_08,33.7368459504689,-118.10342,"Seal Beach Pier, Southside",2,0.05,0.36,15,15,MOSTLY_CLOUDY,Offshore,1
5842041f4e65fad6a77088e5,2024_03_08,33.73933701820233,-118.117,Ray Bay,1,0,0.3,15,15,MOSTLY_CLOUDY,Offshore,1
5842041f4e65fad6a77088e7,2024_03_08,33.728733,-118.08982,Surfside,2,0.13,0.43,15,15,MOSTLY_CLOUDY,Offshore,1
5842041f4e65fad6a77088e8,2024_03_08,33.68760321488161,-118.04236,Bolsa Chica State Beach,2,0.2702333333333334,0.5746333333333333,15,15,MOSTLY_CLOUDY,Offshore,1
5842041f4e65fad6a77088ea,2024_03_08,33.66704400178788,-118.0192,North HB Streets,2.17,0.4246333333333333,0.8490333333333333,15,15,MOSTLY_CLOUDY,Cross-shore,1
5842041f4e65fad6a77088ed,2024_03_08,33.65475101379567,-118.00291,Huntington Beach Pier Southside,3,0.7140333333333333,1.2681333333333331,15,15,MOSTLY_CLOUDY,Offshore,1
5842041f4e65fad6a77088ee,2024_03_08,33.62778647706099,-117.95939,River Jetties,2,0.7313000000000001,1.1762333333333335,15,15,MOSTLY_CLOUDY,Offshore,1
5842041f4e65fad6a77088f2,2024_03_08,33.605165797643664,-117.92500376701355,Newport Point,2,0.21,0.52,15,15,MOSTLY_CLOUDY,Onshore,1
5842041f4e65fad6a77088f3,2024_03_08,33.58982984726977,-117.87713,Corona del Mar,1,0.12602,0.1969,15,15,MOSTLY_CLOUDY,Offshore,1
5842041f4e65fad6a77088f7,2024_03_08,34.00750300824362,-118.4971783496269,Santa Monica Pier,2,0.3,0.6,15,15,CLEAR,Offshore,1
5842041f4e65fad6a77088ff,2024_03_08,33.94070283102945,-118.44321,Dockweiler Beach,2.83,0.8832833333333333,1.1727075,14,14,MIST,Offshore,1
5842041f4e65fad6a7708900,2024_03_08,33.9231846937237,-118.4341465777908,Shitpipe,2.83,0.8598666666666666,1.1642666666666668,14,14,MIST,Offshore,1
5842041f4e65fad6a7708902,2024_03_08,33.9108528052242,-118.4279133138721,Hammerland,2.83,0.8423666666666666,1.417,14,14,MIST,Offshore,1
5842041f4e65fad6a7708904,2024_03_08,33.87201368173932,-118.4075151286262,Hermosa Beach,2.83,0.8348666666666666,1.2789666666666666,14,14,MIST,Offshore,1
5842041f4e65fad6a7708906,2024_03_08,33.90129336911256,-118.42184,El Porto,2.83,0.8648666666666666,1.4403333333333332,14,14,CLEAR,Offshore,1
5842041f4e65fad6a7708907,2024_03_08,33.87963506431794,-118.41102,Manhattan Beach Pier,2.83,0.8723666666666666,1.2881333333333331,14,14,CLEAR,Offshore,1
5842041f4e65fad6a7708914,2024_03_08,34.038053387863464,-118.5532,Sunset Point,2,0.15,0.46,15,15,CLEAR,Cross-shore,1
5842041f4e65fad6a7708920,2024_03_08,33.80930828074364,-118.3933198342649,Haggerty's,2,0.192,0.372,15,15,CLEAR,Offshore,1
5842041f4e65fad6a7708921,2024_03_08,33.85044519861206,-118.40048,Redondo Breakwater,3,0.69,0.99,15,15,MIST,Offshore,1
5842041f4e65fad6a7708927,2024_03_08,33.70877301002487,-118.2840112858389,Cabrillo Beach,2,0.04,0.35,15,15,MOSTLY_CLOUDY,Cross-shore,1
5842041f4e65fad6a770892c,2024_03_08,33.77209986806257,-118.4268428476672,Lunada Bay,2,0.67,0.97,15,15,CLEAR,Cross-shore,1
5842041f4e65fad6a770892d,2024_03_08,33.79294656286144,-118.4070316699825,PV Cove,3,0.70277,0.96057,15,15,CLEAR,Offshore,1
5842041f4e65fad6a7708930,2024_03_08,34.03944902292561,-118.57539,Chart House,2,0.06,0.37,15,15,CLEAR,Onshore,1
5842041f4e65fad6a7708936,2024_03_08,34.0016731994772,-118.80456,Point Dume,1,-0.0075,0.2969,15,15,CLEAR,Onshore,1
5842041f4e65fad6a7708937,2024_03_08,34.02587527588963,-118.7554939066114,Latigo Point,2,0.03,0.34,15,15,CLEAR,Cross-shore,1
5842041f4e65fad6a770893f,2024_03_08,34.043762,-118.93294,Leo Carrillo,2.83,0.5588000000000001,0.8732,15,15,CLEAR,Offshore,1
5842041f4e65fad6a7708941,2024_03_08,36.69388179265737,-121.81289,Marina State Beach,4,1.25,1.56,13,13,CLEAR,Offshore,1
5842041f4e65fad6a7708944,2024_03_08,34.34145077331085,-119.416999352654,Stanley's,2,0.19,0.5,14,14,CLEAR,Offshore,1
5842041f4e65fad6a7708945,2024_03_08,34.35113017313915,-119.426921498899,Oil Piers,2,0.12,0.42,14,14,CLEAR,Offshore,1
5842041f4e65fad6a770894c,2024_03_08,34.17876333306018,-119.2399483564372,Oxnard,3,0.46,0.77,14,14,CLEAR,Offshore,1
5842041f4e65fad6a7708957,2024_03_08,34.31720331100517,-119.3882324751725,Pitas Point,2,0.18,0.49,14,14,CLEAR,Cross-shore,1
5842041f4e65fad6a7708959,2024_03_08,34.27851754384724,-119.316202617226,Emma Wood,2,0.17,0.48,14,14,CLEAR,Offshore,1
5842041f4e65fad6a770895a,2024_03_08,34.35513640390276,-119.4400589884255,Mussel Shoals (aka Little Rincon),2,0.17,0.48,14,14,CLEAR,Offshore,1
5842041f4e65fad6a770895e,2024_03_08,34.28991757054902,-119.3366646794652,Summer Beach,2,0.09,0.39,14,14,CLEAR,Offshore,1
5842041f4e65fad6a770895f,2024_03_08,34.30897456105926,-119.3582501170116,Solimar,2,0.11,0.41,14,14,CLEAR,Cross-shore,1
5842041f4e65fad6a7708960,2024_03_08,34.39836265281686,-119.70213,Leadbetter Point,1,0,0.22,14,14,CLEAR,Offshore,1
5842041f4e65fad6a7708961,2024_03_08,34.46052293893899,-120.07328,Refugio,1,0,0.25,14,14,CLEAR,Onshore,1
5842041f4e65fad6a7708962,2024_03_08,34.40754276777778,-119.87639,Devereux,2,0.15,0.46,14,14,CLEAR,Cross-shore,1
5842041f4e65fad6a7708963,2024_03_08,34.27479983305182,-119.3133222656776,Ventura Overhead,2,0.19,0.49,14,14,CLEAR,Offshore,1
5842041f4e65fad6a7708964,2024_03_08,34.41023236011655,-119.88261,Sands,2,0.22,0.53,14,14,CLEAR,Offshore,1
5842041f4e65fad6a7708966,2024_03_08,34.40450193869233,-119.68752,Sandspit,1,0,0.14,14,14,CLEAR,Offshore,1
5842041f4e65fad6a7708967,2024_03_08,34.41549098334453,-119.6375149840203,Hammond's,1,0,0.21,14,14,CLEAR,Offshore,1
5842041f4e65fad6a7708968,2024_03_08,34.45759322742309,-120.0220251867315,El Capitan,2,0.03,0.33,14,14,CLEAR,Onshore,1
5842041f4e65fad6a770896c,2024_03_08,34.405117655616,-119.84317,Campus Point,2,0.01,0.32,14,14,CLEAR,Cross-shore,1
5842041f4e65fad6a770896e,2024_03_08,34.38935162233354,-119.51955,Carpinteria State Beach,2,0.06,0.36,14,14,CLEAR,Offshore,1
5842041f4e65fad6a770896f,2024_03_08,37.48296565175612,-122.4549300127824,Half Moon Bay,3,0.73,1.03,13,13,CLEAR,Offshore,1
5842041f4e65fad6a7708970,2024_03_08,37.499,-122.471,Princeton Jetty,3,0.56,0.86,13,13,CLEAR,Offshore,1
5842041f4e65fad6a7708972,2024_03_08,37.35699547365155,-122.4069534707252,Tunitas Creek,3,1.62,1.74,13,13,CLEAR,Offshore,1
5842041f4e65fad6a7708974,2024_03_08,37.54735589428842,-122.5161090212687,Montara,3,1.01,1.31,13,13,CLEAR,Offshore,1
5842041f4e65fad6a7708975,2024_03_08,34.3869373724559,-119.5142334209018,Tarpits,2,0.05,0.36,14,14,CLEAR,Cross-shore,1
5842041f4e65fad6a7708976,2024_03_08,37.59881852720143,-122.50463,Pacifica / Linda Mar,2.83,0.5613,0.8565333333333334,14,14,CLEAR,Offshore,1
5842041f4e65fad6a7708978,2024_03_08,37.59883098461164,-122.5143843582282,Pedro Point,3,1.08,1.38,13,13,CLEAR,Offshore,1
5842041f4e65fad6a7708979,2024_03_08,37.61081996647663,-122.4973287570634,Rockaway,3,1.03,1.34,13,13,CLEAR,Offshore,1
5842041f4e65fad6a770897a,2024_03_08,37.809987384424446,-122.4751353263855,Fort Point,3,0.61,0.91,13,13,CLEAR,Cross-shore,1
5842041f4e65fad6a770897c,2024_03_08,37.63422542967464,-122.4951,Sharp Park,3,1.14,1.45,13,13,CLEAR,Offshore,1
5842041f4e65fad6a770897d,2024_03_08,37.27313605072472,-122.4127387912554,Pescadero,3,1.36,1.67,13,13,CLEAR,Offshore,1
5842041f4e65fad6a770897e,2024_03_08,37.18140279972666,-122.3926685899327,Pigeon Point,4,1.28,1.58,13,13,CLEAR,Offshore,1
5842041f4e65fad6a770897f,2024_03_08,37.11578956919415,-122.314699271291,Ano Nuevo,3,0.73,1.04,13,13,CLEAR,Cross-shore,1
5842041f4e65fad6a7708980,2024_03_08,37.09520872681598,-122.2805474707768,Waddell Creek,3,0.9,1.21,13,13,CLEAR,Cross-shore,1
5842041f4e65fad6a7708981,2024_03_08,36.96512852130351,-122.1252825495626,Four Mile,3,0.97,1.12,13,13,CLEAR,Cross-shore,1
5842041f4e65fad6a7708982,2024_03_08,37.04122807048655,-122.2333684729756,Scott Creek,3,1.35,1.38,13,13,CLEAR,Onshore,1
5842041f4e65fad6a7708983,2024_03_08,37.02350229387179,-122.21908,Davenport,3,0.99,1.29,13,13,CLEAR,Onshore,1
5842041f4e65fad6a7708986,2024_03_08,36.94905295955728,-122.0611823912244,Natural Bridges,3,0.92,1.22,13,13,CLEAR,Offshore,1
5842041f4e65fad6a7708987,2024_03_08,36.95154854910425,-122.0420693940968,Mitchell's Cove,3,0.33,0.64,13,13,CLEAR,Cross-shore,1
5842041f4e65fad6a770898a,2024_03_08,36.9572312370203,-121.98177,26th Ave,3,0.57,0.87,13,13,CLEAR,Offshore,1
5842041f4e65fad6a770898e,2024_03_08,36.91899972819882,-121.85536,Manresa,3,0.99,1.11,13,13,CLEAR,Offshore,1
5842041f4e65fad6a7708990,2024_03_08,34.45747731928454,-120.34242,The Ranch,2,0.16,0.47,14,14,CLEAR,Offshore,1
5842041f4e65fad6a7708991,2024_03_08,34.50875036590315,-120.50348,Jalama,3,0.62,0.92,14,14,CLEAR,Offshore,1
5842041f4e65fad6a7708996,2024_03_08,34.68700870220497,-120.6111611019887,Surf Beach,3,1.87,2.18,14,14,CLEAR,Cross-shore,1
5842041f4e65fad6a770899c,2024_03_08,35.5730538161116,-121.1143362345574,Moonstone,3,1.06,1.27,14,14,CLEAR,Offshore,1
5842041f4e65fad6a770899d,2024_03_08,35.61533716776573,-121.1502053073914,Pico Creek,3,0.94,1.24,14,14,CLEAR,Offshore,1
5842041f4e65fad6a770899e,2024_03_08,35.56829031927379,-121.1120653023953,Santa Rosa Creek,4,1.06,1.27,14,14,CLEAR,Offshore,1
5842041f4e65fad6a77089a2,2024_03_08,35.44820114936284,-120.90715,"Cayucos Pier, Southside ",2,0.44,0.75,14,14,CLEAR,Offshore,1
5842041f4e65fad6a77089a4,2024_03_08,35.30143372628852,-120.877819239902,Cable Landing,4,1.99,2.29,14,14,CLEAR,Offshore,1
5842041f4e65fad6a77089a9,2024_03_08,35.61269103500222,-121.1480725356606,San Simeon,3,0.525,0.735,14,14,CLEAR,Offshore,1
5842041f4e65fad6a77089ab,2024_03_08,35.1775325966252,-120.7341125142258,Avila Beach,1,0,0.17,14,14,CLEAR,Offshore,1
5842041f4e65fad6a77089ac,2024_03_08,35.13877877884115,-120.64535,Pismo Beach Pier,2.17,0.7548666666666666,1.3089666666666666,14,14,CLEAR,Cross-shore,1
5842041f4e65fad6a77089ad,2024_03_08,46.8907710233147,-124.12964,Westport/Olympic Peninsula,3,1.125,1.393,8,8,"NIGHT_CLEAR,NIGHT_MOSTLY_CLOUDY,NIGHT_OVERCAST,NIGHT_OVERCAST,NIGHT_CLEAR,NIGHT_CLOUDY,NIGHT_CLOUDY,NIGHT_DRIZZLE,LIGHT_SHOWERS_POSSIBLE,OVERCAST","Cross-shore,Cross-shore,Offshore,Offshore,Offshore,Offshore,Offshore,Offshore,Offshore,Offshore",10
5842041f4e65fad6a77089ae,2024_03_08,46.35185177248545,-124.06747,Long Beach Peninsula,3.5,1.766,2.001,9,9,"NIGHT_CLEAR,NIGHT_MOSTLY_CLEAR,NIGHT_MOSTLY_CLOUDY,NIGHT_CLEAR,NIGHT_CLEAR,NIGHT_CLEAR,NIGHT_CLOUDY,NIGHT_CLEAR,CLEAR,CLOUDY","Offshore,Offshore,Offshore,Offshore,Offshore,Offshore,Offshore,Offshore,Offshore,Offshore",10
5842041f4e65fad6a77089af,2024_03_08,47.90649175554033,-124.6370864743483,La Push,1,1.381,1.643,8,8,"NIGHT_CLOUDY,NIGHT_OVERCAST,NIGHT_OVERCAST,NIGHT_OVERCAST,NIGHT_DRIZZLE,NIGHT_DRIZZLE,NIGHT_LIGHT_RAIN,NIGHT_LIGHT_RAIN,LIGHT_RAIN,CLOUDY","Cross-shore,Cross-shore,Cross-shore,Cross-shore,Cross-shore,Cross-shore,Cross-shore,Cross-shore,Cross-shore,Cross-shore",10
5842041f4e65fad6a77089b0,2024_03_08,42.04368239985442,-124.26828,Brookings Jetty,3,0.66355,1.0368,11,11,CLEAR,Offshore,1
5842041f4e65fad6a77089b1,2024_03_08,42.74071837900346,-124.4983727491047,Port Orford,3,0.63,0.93,11,11,CLEAR,Onshore,1
5842041f4e65fad6a77089b2,2024_03_08,44.01532689312291,-124.13865,Florence South Jetty,4,1.61,1.72,11,11,CLEAR,Offshore,1
5842041f4e65fad6a77089b3,2024_03_08,42.41812540774362,-124.42945,Gold Beach South Jetty,3,1.04,1.34,11,11,CLEAR,Onshore,1
5842041f4e65fad6a77089b4,2024_03_08,44.95857310226525,-124.0219017690976,Lincoln City,4,1.35,1.65,10,10,CLEAR,Offshore,1
5842041f4e65fad6a77089b5,2024_03_08,44.63792761362982,-124.0657,Newport,4,1.65,1.76,10,10,CLEAR,Offshore,1
5842041f4e65fad6a77089b6,2024_03_08,45.61468496266301,-123.94643,Rockaway Beach,4,1.7890000000000001,2.009,9,9,"NIGHT_CLEAR,NIGHT_CLEAR,NIGHT_CLEAR,NIGHT_CLEAR,NIGHT_CLEAR,NIGHT_CLEAR,NIGHT_CLEAR,NIGHT_CLEAR,CLEAR,CLEAR","Offshore,Offshore,Offshore,Offshore,Offshore,Offshore,Offshore,Offshore,Offshore,Offshore",10
5842041f4e65fad6a77089b7,2024_03_08,45.20252914186085,-123.96975,Pacific City,3.5,1.302,1.583,10,10,"NIGHT_CLEAR,NIGHT_CLEAR,NIGHT_CLEAR,NIGHT_CLEAR,NIGHT_CLEAR,NIGHT_CLEAR,NIGHT_CLEAR,NIGHT_CLEAR,CLEAR,CLEAR","Offshore,Offshore,Offshore,Offshore,Offshore,Offshore,Offshore,Offshore,Offshore,Offshore",10
5842041f4e65fad6a77089b8,2024_03_08,45.88179930310263,-123.96681,Cannon Beach,3,1.613,1.873,9,9,"NIGHT_CLEAR,NIGHT_CLEAR,NIGHT_CLEAR,NIGHT_CLEAR,NIGHT_CLEAR,NIGHT_CLEAR,NIGHT_CLEAR,NIGHT_CLEAR,CLEAR,CLEAR","Offshore,Offshore,Offshore,Offshore,Offshore,Offshore,Offshore,Offshore,Offshore,Offshore",10
5842041f4e65fad6a77089ba,2024_03_08,40.02528754746774,-124.06372,Shelter Cove,2,0.3132,0.48937,12,12,CLEAR,Cross-shore,1
5842041f4e65fad6a77089bb,2024_03_08,40.76816197136951,-124.24248,Humboldt Harbor Entrance,3,1.35,1.61,11,11,CLEAR,Cross-shore,1
5842041f4e65fad6a77089bc,2024_03_08,40.76684246920174,-124.23107,North Jetty,3,1.97,2.19,11,11,CLEAR,Offshore,1
5842041f4e65fad6a77089bd,2024_03_08,41.02731183893966,-124.1149972888982,Westhaven,4,2.12,2.35,11,11,CLEAR,Offshore,1
5842041f4e65fad6a77089be,2024_03_08,41.13016238153297,-124.16466,Sue-meg,4,1.45,1.74,11,11,CLEAR,Offshore,1
5842041f4e65fad6a77089bf,2024_03_08,37.8289474958188,-122.5376795097543,Fort Cronkite/Rodeo Beach,3,0.96,1.15,13,13,CLEAR,Offshore,1
5842041f4e65fad6a77089c0,2024_03_08,41.74415759876137,-124.17717,South Beach CA,2,0.43,0.73,11,11,CLEAR,Cross-shore,1
5842041f4e65fad6a77089c1,2024_03_08,37.89801283969752,-122.64519,Stinson Beach,2,0.22,0.52,13,13,CLEAR,Cross-shore,1
5842041f4e65fad6a77089c2,2024_03_08,37.90514516176495,-122.68151,Bolinas,2,0.28313,0.4424,13,13,CLEAR,Cross-shore,1
5842041f4e65fad6a77089c3,2024_03_08,38.04892513158693,-122.9892494965416,Point Reyes (north),3,1.45,1.73,13,13,CLEAR,Cross-shore,1
5842041f4e65fad6a77089c6,2024_03_08,38.31088736605785,-123.0496777333731,Doran Beach,1,0,0.29,13,13,CLEAR,Cross-shore,1
5842041f4e65fad6a77089c7,2024_03_08,38.45077228660809,-123.13008,Russian Rivermouth,3,1.06,1.27,13,13,CLEAR,Onshore,1
5842041f4e65fad6a77089c8,2024_03_08,38.35329968518107,-123.06906,Salmon Creek,3,1.06,1.36,13,13,CLEAR,Offshore,1
5842041f4e65fad6a77089c9,2024_03_08,38.6845180197959,-123.4322714291198,Black Point Beach,3,0.42,0.72,13,13,CLEAR,Offshore,1
5842041f4e65fad6a77089ca,2024_03_08,43.251076,-70.59144,Ogunquit,2.35,1.5341666666666667,1.8435000000000001,4,3,"NIGHT_CLEAR,NIGHT_CLEAR,NIGHT_CLEAR,NIGHT_CLEAR,NIGHT_CLEAR,CLEAR,CLEAR,CLEAR,CLEAR,CLEAR","Cross-shore,Cross-shore,Cross-shore,Cross-shore,Cross-shore,Cross-shore,Cross-shore,Cross-shore,Cross-shore,Cross-shore",10
5842041f4e65fad6a77089cb,2024_03_08,41.362631366305415,-71.48006772942608,Point Judith,0.736,0.5360333333333334,0.9308333333333333,6,4,"NIGHT_CLEAR,NIGHT_CLEAR,NIGHT_CLEAR,NIGHT_CLEAR,NIGHT_CLEAR,CLEAR,CLEAR,CLEAR,CLEAR,CLEAR","Onshore,Onshore,Onshore,Onshore,Onshore,Onshore,Cross-shore,Cross-shore,Cross-shore,Onshore",10
5842041f4e65fad6a77089cd,2024_03_08,41.422678090954726,-71.45413,Monahan's - Narragansett,0.7,0.46763499999999997,0.730679,5.5,5.5,"NIGHT_CLEAR,NIGHT_CLEAR,NIGHT_CLEAR,NIGHT_CLEAR,NIGHT_CLEAR,CLEAR,CLEAR,CLEAR,CLEAR,CLEAR","Cross-shore,Cross-shore,Cross-shore,Cross-shore,Cross-shore,Cross-shore,Cross-shore,Cross-shore,Cross-shore,Cross-shore",10
5842041f4e65fad6a77089ce,2024_03_08,41.469,-71.293,Ruggles - Newport,2.5,0.606457,0.947589,5.5,5.5,"NIGHT_CLEAR,NIGHT_CLEAR,NIGHT_CLEAR,NIGHT_CLEAR,NIGHT_CLEAR,CLEAR,CLEAR,CLEAR,CLEAR,CLEAR","Offshore,Offshore,Offshore,Offshore,Offshore,Offshore,Offshore,Offshore,Offshore,Offshore",10
5842041f4e65fad6a77089cf,2024_03_08,43.175394,-70.606351,Short Sands Beach,2,1.294,1.599,5,5,"NIGHT_CLEAR,NIGHT_CLEAR,NIGHT_CLEAR,NIGHT_CLEAR,NIGHT_CLEAR,CLEAR,CLEAR,CLEAR,CLEAR,CLEAR","Cross-shore,Cross-shore,Cross-shore,Cross-shore,Cross-shore,Cross-shore,Cross-shore,Cross-shore,Cross-shore,Cross-shore",10
5842041f4e65fad6a77089d0,2024_03_08,41.487408,-71.29017,First Beach,1.9,0.39,0.6950000000000001,5,5,"NIGHT_CLEAR,NIGHT_CLEAR,NIGHT_CLEAR,NIGHT_CLEAR,NIGHT_CLEAR,CLEAR,CLEAR,CLEAR,CLEAR,CLEAR","Offshore,Offshore,Offshore,Offshore,Offshore,Offshore,Offshore,Offshore,Offshore,Offshore",10
5842041f4e65fad6a77089d1,2024_03_08,42.27916830233153,-70.86498,Nantasket Beach,1,1.2356666666666667,1.6176666666666666,4,3,"NIGHT_CLEAR,NIGHT_CLEAR,NIGHT_CLEAR,NIGHT_CLEAR,NIGHT_CLEAR,CLEAR,CLEAR,CLEAR,CLEAR,CLEAR","Onshore,Onshore,Onshore,Onshore,Onshore,Onshore,Onshore,Onshore,Onshore,Onshore",10
5842041f4e65fad6a77089d2,2024_03_08,41.817,-69.935,Cape Cod,0,2.54,2.8,5,5,"NIGHT_CLEAR,NIGHT_CLEAR,NIGHT_CLEAR,NIGHT_CLEAR,NIGHT_CLEAR,CLEAR,CLEAR,CLEAR,CLEAR,CLEAR","Cross-shore,Cross-shore,Cross-shore,Cross-shore,Cross-shore,Cross-shore,Cross-shore,Cross-shore,Cross-shore,Cross-shore",10
5842041f4e65fad6a77089d3,2024_03_08,42.22055448975661,-70.70634873403819,Egypt Beach,0.1,1.703,2.02,4,4,"NIGHT_CLEAR,NIGHT_CLEAR,NIGHT_CLEAR,NIGHT_CLEAR,NIGHT_CLEAR,CLEAR,CLEAR,CLEAR,CLEAR,CLEAR","Onshore,Onshore,Onshore,Onshore,Onshore,Onshore,Onshore,Onshore,Cross-shore,Cross-shore",10
5842041f4e65fad6a77089d4,2024_03_08,41.48739647744607,-71.25723,Second Beach,1.55,0.3582385,0.615309,6,4,"NIGHT_CLEAR,NIGHT_CLEAR,NIGHT_CLEAR,NIGHT_CLEAR,NIGHT_CLEAR,CLEAR,CLEAR,CLEAR,CLEAR,CLEAR","Offshore,Offshore,Offshore,Offshore,Offshore,Offshore,Offshore,Offshore,Offshore,Offshore",10
5842041f4e65fad6a77089d5,2024_03_08,42.964,-70.769,Fox Hill,2.1,0.9271666666666667,1.2076666666666667,4,3,"NIGHT_CLEAR,NIGHT_CLEAR,NIGHT_CLEAR,NIGHT_CLEAR,NIGHT_CLEAR,CLEAR,CLEAR,CLEAR,CLEAR,CLEAR","Offshore,Offshore,Offshore,Offshore,Offshore,Offshore,Offshore,Offshore,Offshore,Offshore",10
5842041f4e65fad6a77089d6,2024_03_08,42.991359,-70.75149,Straws Point,2.95,1.3478333333333334,1.6476666666666666,4,3,"NIGHT_CLEAR,NIGHT_CLEAR,NIGHT_CLEAR,NIGHT_CLEAR,NIGHT_CLEAR,CLEAR,CLEAR,CLEAR,CLEAR,CLEAR","Offshore,Offshore,Offshore,Offshore,Offshore,Offshore,Offshore,Offshore,Offshore,Offshore",10
5842041f4e65fad6a77089d7,2024_03_08,42.946,-70.786,Plaice Cove,1.65,0.9271666666666667,1.2076666666666667,4,3,"NIGHT_CLEAR,NIGHT_CLEAR,NIGHT_CLEAR,NIGHT_CLEAR,NIGHT_CLEAR,CLEAR,CLEAR,CLEAR,CLEAR,CLEAR","Cross-shore,Cross-shore,Cross-shore,Cross-shore,Cross-shore,Cross-shore,Cross-shore,Cross-shore,Cross-shore,Cross-shore",10
5842041f4e65fad6a77089d9,2024_03_08,42.911574,-70.80831,The Main Beach,2.417,0.9615178333333334,1.4706255000000001,4,3,"NIGHT_CLEAR,NIGHT_CLEAR,NIGHT_CLEAR,NIGHT_CLEAR,NIGHT_CLEAR,CLEAR,CLEAR,CLEAR,CLEAR,CLEAR","Offshore,Offshore,Offshore,Offshore,Offshore,Offshore,Offshore,Offshore,Offshore,Offshore",10
5842041f4e65fad6a77089da,2024_03_08,42.97583846220203,-70.764,Sawyer's Beach,2.65,1.0343333333333333,1.2978333333333334,4,3,"NIGHT_CLEAR,NIGHT_CLEAR,NIGHT_CLEAR,NIGHT_CLEAR,NIGHT_CLEAR,CLEAR,CLEAR,CLEAR,CLEAR,CLEAR","Cross-shore,Offshore,Offshore,Offshore,Cross-shore,Cross-shore,Cross-shore,Cross-shore,Cross-shore,Offshore",10
5842041f4e65fad6a77089db,2024_03_08,42.97,-70.77,Rye on the Rocks / 5-0's,2.017,0.9197606666666668,1.3104601666666666,4,3,"NIGHT_CLEAR,NIGHT_CLEAR,NIGHT_CLEAR,NIGHT_CLEAR,NIGHT_CLEAR,CLEAR,CLEAR,CLEAR,CLEAR,CLEAR","Offshore,Offshore,Offshore,Offshore,Offshore,Offshore,Offshore,Offshore,Offshore,Offshore",10
5842041f4e65fad6a77089dc,2024_03_08,43.55902946610303,-70.27795,Higgins Beach,2.98,0.5521666666666667,0.9216666666666666,4,3,"NIGHT_CLEAR,NIGHT_CLEAR,NIGHT_CLEAR,NIGHT_CLEAR,NIGHT_CLEAR,CLEAR,CLEAR,CLEAR,CLEAR,CLEAR","Offshore,Offshore,Offshore,Offshore,Offshore,Offshore,Offshore,Offshore,Offshore,Offshore",10
5842041f4e65fad6a77089dd,2024_03_08,43.302676,-70.5652,Wells Beach,2.15,0.9826666666666667,1.2521666666666667,4,3,"NIGHT_CLEAR,NIGHT_CLEAR,NIGHT_CLEAR,NIGHT_CLEAR,NIGHT_CLEAR,CLEAR,CLEAR,CLEAR,CLEAR,CLEAR","Cross-shore,Cross-shore,Cross-shore,Cross-shore,Cross-shore,Cross-shore,Cross-shore,Cross-shore,Cross-shore,Cross-shore",10
5842041f4e65fad6a77089de,2024_03_08,43.545359,-70.30479,Scarborough Beach State Park,2.583,0.9621963333333334,1.3446803333333333,4,3,"NIGHT_CLEAR,NIGHT_CLEAR,NIGHT_CLEAR,NIGHT_CLEAR,NIGHT_CLEAR,CLEAR,CLEAR,CLEAR,CLEAR,CLEAR","Offshore,Offshore,Offshore,Offshore,Offshore,Offshore,Offshore,Offshore,Offshore,Offshore",10
5842041f4e65fad6a77089df,2024_03_08,43.514481,-70.372146,Old Orchard Beach,2.82,0.6908799999999999,1.00954,4,3,"NIGHT_CLEAR,NIGHT_CLEAR,NIGHT_CLEAR,NIGHT_CLEAR,NIGHT_CLEAR,CLEAR,CLEAR,CLEAR,CLEAR,CLEAR","Offshore,Offshore,Offshore,Offshore,Offshore,Offshore,Offshore,Offshore,Offshore,Offshore",10
5842041f4e65fad6a77089e0,2024_03_08,43.34711,-70.48165,Gooch's Beach,3.35,0.6565,1.0253333333333332,4,3,"NIGHT_CLEAR,NIGHT_CLEAR,NIGHT_CLEAR,NIGHT_CLEAR,NIGHT_CLEAR,CLEAR,CLEAR,CLEAR,CLEAR,CLEAR","Offshore,Offshore,Offshore,Offshore,Offshore,Offshore,Offshore,Offshore,Offshore,Offshore",10
5842041f4e65fad6a77089e2,2024_03_08,40.58433,-73.62953,Lido Beach,3,0.74582,1.10386,7,6,"NIGHT_CLEAR,NIGHT_CLEAR,NIGHT_CLEAR,NIGHT_CLEAR,NIGHT_CLEAR,CLEAR,CLEAR,CLEAR,CLEAR,CLEAR","Offshore,Offshore,Offshore,Offshore,Offshore,Offshore,Offshore,Offshore,Offshore,Offshore",10
5842041f4e65fad6a77089e3,2024_03_08,43.163135,-70.61689,Long Sands Beach,2.82,0.7553108833333333,1.0866713333333333,4,3,"NIGHT_CLEAR,NIGHT_CLEAR,NIGHT_CLEAR,NIGHT_CLEAR,NIGHT_CLEAR,CLEAR,CLEAR,CLEAR,CLEAR,CLEAR","Offshore,Offshore,Offshore,Offshore,Offshore,Offshore,Offshore,Offshore,Offshore,Offshore",10
5842041f4e65fad6a77089e4,2024_03_08,40.61695351251805,-73.39376,Gilgo Beach,2.8,0.7095,1.0178333333333334,5,4,"NIGHT_CLEAR,NIGHT_CLEAR,NIGHT_CLEAR,NIGHT_CLEAR,NIGHT_CLEAR,CLEAR,CLEAR,CLEAR,CLEAR,CLEAR","Offshore,Offshore,Offshore,Offshore,Offshore,Offshore,Offshore,Offshore,Offshore,Offshore",10
5842041f4e65fad6a77089e5,2024_03_08,40.62530081928036,-73.23827,Robert Moses,2.2,0.573,0.878,6,6,"NIGHT_CLEAR,NIGHT_CLEAR,NIGHT_CLEAR,NIGHT_CLEAR,NIGHT_CLEAR,CLEAR,CLEAR,CLEAR,CLEAR,CLEAR","Offshore,Offshore,Offshore,Offshore,Offshore,Offshore,Offshore,Offshore,Offshore,Offshore",10
5842041f4e65fad6a77089e6,2024_03_08,40.64313317632791,-73.15727,Fire Island,2.3,0.58,0.885,6,6,"NIGHT_CLEAR,NIGHT_CLEAR,NIGHT_CLEAR,NIGHT_CLEAR,NIGHT_CLEAR,CLEAR,CLEAR,CLEAR,CLEAR,CLEAR","Offshore,Offshore,Offshore,Offshore,Offshore,Offshore,Offshore,Offshore,Offshore,Offshore",10
5842041f4e65fad6a77089e8,2024_03_08,40.76653118828782,-72.74579619372713,Cupsogue,3.3,1.084,1.322,6,6,"NIGHT_CLEAR,NIGHT_CLEAR,NIGHT_CLEAR,NIGHT_CLEAR,NIGHT_CLEAR,CLEAR,CLEAR,CLEAR,CLEAR,CLEAR","Offshore,Offshore,Offshore,Offshore,Offshore,Offshore,Offshore,Offshore,Offshore,Offshore",10
5842041f4e65fad6a77089e9,2024_03_08,42.9376373334092,-70.79141,The Wall ,1.919,1.2140085,1.8651411666666666,4,3,"NIGHT_CLEAR,NIGHT_CLEAR,NIGHT_CLEAR,NIGHT_CLEAR,NIGHT_CLEAR,CLEAR,CLEAR,CLEAR,CLEAR,CLEAR","Cross-shore,Cross-shore,Cross-shore,Cross-shore,Cross-shore,Cross-shore,Cross-shore,Cross-shore,Cross-shore,Cross-shore",10
5842041f4e65fad6a77089ea,2024_03_08,40.887088,-72.33856,Flys,3,0.963,1.187,6,6,"NIGHT_CLEAR,NIGHT_CLEAR,NIGHT_CLEAR,NIGHT_CLEAR,NIGHT_CLEAR,CLEAR,CLEAR,CLEAR,CLEAR,CLEAR","Offshore,Offshore,Offshore,Offshore,Offshore,Offshore,Offshore,Offshore,Offshore,Offshore",10
5842041f4e65fad6a77089eb,2024_03_08,41.0389266436591,-71.91068529316958,Trailer Park,3.184,0.9452370666666666,1.2346169833333334,5,4,"NIGHT_CLEAR,NIGHT_CLEAR,NIGHT_CLEAR,NIGHT_CLEAR,NIGHT_CLEAR,CLEAR,CLEAR,CLEAR,CLEAR,CLEAR","Offshore,Offshore,Offshore,Offshore,Offshore,Offshore,Offshore,Offshore,Offshore,Offshore",10
5842041f4e65fad6a77089ec,2024_03_08,41.039505402729105,-71.9142,Ditch Plains,3,0.746841,1.166937,5.5,5.5,"NIGHT_CLEAR,NIGHT_CLEAR,NIGHT_CLEAR,NIGHT_CLEAR,NIGHT_CLEAR,CLEAR,CLEAR,CLEAR,CLEAR,CLEAR","Offshore,Offshore,Offshore,Offshore,Offshore,Offshore,Offshore,Offshore,Offshore,Offshore",10
5842041f4e65fad6a77089ee,2024_03_08,40.57633275206492,-73.56895305108567,"West End, Jones Beach",3,0.6588333333333334,1.0276666666666667,7,6,"NIGHT_CLEAR,NIGHT_CLEAR,NIGHT_CLEAR,NIGHT_CLEAR,NIGHT_CLEAR,CLEAR,CLEAR,CLEAR,CLEAR,CLEAR","Offshore,Offshore,Offshore,Offshore,Offshore,Offshore,Offshore,Offshore,Offshore,Offshore",10
5842041f4e65fad6a77089f1,2024_03_08,41.038286691230795,-71.91991567611694,Poles,3.184,0.8759304666666666,1.1831216833333333,5,4,"NIGHT_CLEAR,NIGHT_CLEAR,NIGHT_CLEAR,NIGHT_CLEAR,NIGHT_CLEAR,CLEAR,CLEAR,CLEAR,CLEAR,CLEAR","Offshore,Offshore,Offshore,Offshore,Offshore,Offshore,Offshore,Offshore,Offshore,Offshore",10
5842041f4e65fad6a77089f3,2024_03_08,40.84077769766295,-72.47989493724765,The Bowl,3,0.952,1.178,6,6,"NIGHT_CLEAR,NIGHT_CLEAR,NIGHT_CLEAR,NIGHT_CLEAR,NIGHT_CLEAR,CLEAR,CLEAR,CLEAR,CLEAR,CLEAR","Offshore,Offshore,Offshore,Offshore,Offshore,Offshore,Offshore,Offshore,Offshore,Offshore",10
5842041f4e65fad6a77089f4,2024_03_08,40.94235535243154,-72.19286,Main Beach,2.6,0.8508333333333333,1.1131666666666666,13,12,"NIGHT_CLEAR,NIGHT_CLEAR,NIGHT_CLEAR,NIGHT_CLEAR,NIGHT_CLEAR,CLEAR,CLEAR,CLEAR,CLEAR,CLEAR","Offshore,Offshore,Offshore,Offshore,Offshore,Offshore,Offshore,Offshore,Offshore,Offshore",10
5842041f4e65fad6a77089f5,2024_03_08,40.58270702399518,-73.67251552079799,Laurelton Blvd.,3,0.6795535166666666,0.96144515,7,6,"NIGHT_CLEAR,NIGHT_CLEAR,NIGHT_CLEAR,NIGHT_CLEAR,NIGHT_MIST,CLEAR,MIST,CLEAR,CLEAR,CLEAR","Offshore,Offshore,Offshore,Offshore,Offshore,Offshore,Offshore,Offshore,Offshore,Offshore",10
5842041f4e65fad6a77089f6,2024_03_08,41.033752854071416,-71.93695522488403,Terrace,3.117,0.8070133333333334,1.1118566666666667,5,4,"NIGHT_CLEAR,NIGHT_CLEAR,NIGHT_CLEAR,NIGHT_CLEAR,NIGHT_CLEAR,CLEAR,CLEAR,CLEAR,CLEAR,CLEAR","Offshore,Offshore,Offshore,Offshore,Offshore,Offshore,Offshore,Offshore,Offshore,Offshore",10
5842041f4e65fad6a77089f7,2024_03_08,40.83372943645748,-72.50426173210144,K Road,3.4,1.097,1.362,6,6,"NIGHT_CLEAR,NIGHT_CLEAR,NIGHT_CLEAR,NIGHT_CLEAR,NIGHT_CLEAR,CLEAR,CLEAR,CLEAR,CLEAR,CLEAR","Offshore,Offshore,Offshore,Offshore,Offshore,Offshore,Offshore,Offshore,Offshore,Offshore",10
5842041f4e65fad6a77089f8,2024_03_08,40.58456099581507,-73.80730032920837,84th Street,3.32,0.87203,1.1671566666666668,7,6,"NIGHT_CLEAR,NIGHT_CLEAR,NIGHT_CLEAR,NIGHT_CLEAR,NIGHT_CLEAR,CLEAR,MIST,CLEAR,CLEAR,CLEAR","Offshore,Offshore,Offshore,Offshore,Offshore,Offshore,Offshore,Offshore,Offshore,Offshore",10
5842041f4e65fad6a77089fa,2024_03_08,40.1319,-74.02788,Sea Girt,2.266,1.0239366666666667,1.36803,7,6,"NIGHT_CLEAR,NIGHT_CLEAR,NIGHT_CLEAR,NIGHT_CLEAR,NIGHT_CLEAR,CLEAR,CLEAR,CLEAR,CLEAR,CLEAR","Cross-shore,Cross-shore,Cross-shore,Cross-shore,Cross-shore,Cross-shore,Onshore,Onshore,Onshore,Onshore",10
5842041f4e65fad6a77089fb,2024_03_08,40.54698301868125,-73.9268,Breezy Point,3,0.612,0.917,6.5,6.5,"NIGHT_CLEAR,NIGHT_CLEAR,NIGHT_CLEAR,NIGHT_MIST,NIGHT_CLEAR,CLEAR,CLEAR,CLEAR,CLEAR,CLEAR","Offshore,Offshore,Offshore,Offshore,Offshore,Offshore,Offshore,Offshore,Offshore,Offshore",10
5842041f4e65fad6a77089fc,2024_03_08,40.152504,-74.021383,Spring Lake,2.183,0.97802,1.2742766666666667,7,6,"NIGHT_CLEAR,NIGHT_CLEAR,NIGHT_CLEAR,NIGHT_CLEAR,NIGHT_CLEAR,CLEAR,CLEAR,CLEAR,CLEAR,CLEAR","Cross-shore,Cross-shore,Cross-shore,Cross-shore,Cross-shore,Cross-shore,Onshore,Onshore,Onshore,Onshore",10
5842041f4e65fad6a77089fd,2024_03_08,40.591277,-73.770792,30th - 39th Streets,3,0.5803333333333334,0.8886666666666667,7,6,"NIGHT_CLEAR,NIGHT_CLEAR,NIGHT_CLEAR,NIGHT_MIST,NIGHT_CLEAR,CLEAR,CLEAR,CLEAR,CLEAR,CLEAR","Offshore,Offshore,Offshore,Offshore,Offshore,Offshore,Offshore,Offshore,Offshore,Offshore",10
5842041f4e65fad6a77089fe,2024_03_08,40.18834955871439,-74.00860982500222,Avon,2.2,1.0461033333333334,1.3319433333333333,7,6,"NIGHT_CLEAR,NIGHT_CLEAR,NIGHT_CLEAR,NIGHT_CLEAR,NIGHT_CLEAR,CLEAR,CLEAR,CLEAR,CLEAR,CLEAR","Cross-shore,Cross-shore,Cross-shore,Cross-shore,Cross-shore,Cross-shore,Onshore,Onshore,Onshore,Onshore",10
5842041f4e65fad6a77089ff,2024_03_08,40.1974229100932,-74.00650533798255,Bradley Beach,2.1,0.9799366666666667,1.2512766666666666,7,6,"NIGHT_CLEAR,NIGHT_CLEAR,NIGHT_CLEAR,NIGHT_CLEAR,NIGHT_CLEAR,CLEAR,CLEAR,CLEAR,CLEAR,CLEAR","Cross-shore,Onshore,Cross-shore,Cross-shore,Cross-shore,Cross-shore,Onshore,Onshore,Onshore,Onshore",10
5842041f4e65fad6a7708a01,2024_03_08,40.17202,-74.01503,"16th Ave., Belmar",1.317,0.9698533333333333,1.2356933333333333,7,6,"NIGHT_CLEAR,NIGHT_CLEAR,NIGHT_CLEAR,NIGHT_CLEAR,NIGHT_CLEAR,CLEAR,CLEAR,CLEAR,CLEAR,CLEAR","Cross-shore,Onshore,Cross-shore,Cross-shore,Cross-shore,Cross-shore,Onshore,Onshore,Onshore,Onshore",10
5842041f4e65fad6a7708a02,2024_03_08,40.217443,-73.99982,Asbury Park,2.083,0.9674366666666667,1.23961,7,6,"NIGHT_CLEAR,NIGHT_CLEAR,NIGHT_CLEAR,NIGHT_CLEAR,NIGHT_CLEAR,CLEAR,CLEAR,CLEAR,CLEAR,CLEAR","Cross-shore,Cross-shore,Cross-shore,Cross-shore,Cross-shore,Cross-shore,Onshore,Onshore,Onshore,Onshore",10
5842041f4e65fad6a7708a03,2024_03_08,40.229841,-73.996782,Loch Arbour and Deal,2.317,0.98077,1.2766933333333335,7,6,"NIGHT_CLEAR,NIGHT_CLEAR,NIGHT_CLEAR,NIGHT_CLEAR,NIGHT_CLEAR,CLEAR,CLEAR,CLEAR,CLEAR,CLEAR","Cross-shore,Cross-shore,Offshore,Offshore,Offshore,Cross-shore,Cross-shore,Cross-shore,Cross-shore,Cross-shore",10
5842041f4e65fad6a7708a05,2024_03_08,40.41754,-73.97935,Sandy Hook,1.8,0.334,0.639,6.5,6.5,"NIGHT_CLEAR,NIGHT_CLEAR,NIGHT_CLEAR,NIGHT_CLEAR,NIGHT_CLEAR,CLEAR,CLEAR,CLEAR,CLEAR,CLEAR","Cross-shore,Cross-shore,Cross-shore,Offshore,Offshore,Cross-shore,Cross-shore,Cross-shore,Cross-shore,Cross-shore",10
5842041f4e65fad6a7708a06,2024_03_08,39.36353,-74.40873,Crystals,2.6,0.7999413333333333,1.2864205,7.2,6,"NIGHT_CLEAR,NIGHT_CLEAR,NIGHT_CLEAR,NIGHT_CLEAR,NIGHT_CLEAR,CLEAR,CLEAR,CLEAR,CLEAR,CLEAR","Offshore,Offshore,Offshore,Offshore,Offshore,Offshore,Offshore,Offshore,Offshore,Cross-shore",10
5842041f4e65fad6a7708a07,2024_03_08,39.31443,-74.51863,32nd Street,1.867,0.78450875,1.1407018333333334,7.2,6,"NIGHT_CLEAR,NIGHT_CLEAR,NIGHT_CLEAR,NIGHT_CLEAR,NIGHT_CLEAR,CLEAR,CLEAR,CLEAR,CLEAR,CLEAR","Offshore,Offshore,Offshore,Offshore,Offshore,Offshore,Offshore,Cross-shore,Cross-shore,Cross-shore",10
5842041f4e65fad6a7708a08,2024_03_08,39.327688,-74.49524,Margate Pier Northside,1.867,0.78450875,1.1407018333333334,7.2,6,"NIGHT_CLEAR,NIGHT_CLEAR,NIGHT_CLEAR,NIGHT_CLEAR,NIGHT_CLEAR,CLEAR,CLEAR,CLEAR,CLEAR,CLEAR","Offshore,Offshore,Offshore,Offshore,Offshore,Offshore,Offshore,Cross-shore,Cross-shore,Cross-shore",10
5842041f4e65fad6a7708a09,2024_03_08,39.336276,-74.47782,Ventnor Pier,2.417,0.7689098333333333,1.2379345,7.2,6,"NIGHT_CLEAR,NIGHT_CLEAR,NIGHT_CLEAR,NIGHT_CLEAR,NIGHT_CLEAR,CLEAR,CLEAR,CLEAR,CLEAR,CLEAR","Offshore,Offshore,Offshore,Offshore,Offshore,Offshore,Offshore,Offshore,Offshore,Cross-shore",10
5842041f4e65fad6a7708a0a,2024_03_08,39.35929751441085,-74.41683,States Avenue,2.6,0.7999413333333333,1.2864205,7,6,"NIGHT_CLEAR,NIGHT_CLEAR,NIGHT_CLEAR,NIGHT_CLEAR,NIGHT_CLEAR,CLEAR,CLEAR,CLEAR,CLEAR,CLEAR","Offshore,Offshore,Offshore,Offshore,Offshore,Offshore,Offshore,Offshore,Offshore,Cross-shore",10
5842041f4e65fad6a7708a0b,2024_03_08,39.37274173278517,-74.40454,Brigantine Jetty,2.517,0.7625865000000001,1.2280549166666668,7.2,6,"NIGHT_CLEAR,NIGHT_CLEAR,NIGHT_CLEAR,NIGHT_CLEAR,NIGHT_CLEAR,CLEAR,CLEAR,CLEAR,CLEAR,CLEAR","Offshore,Offshore,Offshore,Offshore,Offshore,Offshore,Offshore,Offshore,Offshore,Offshore",10
5842041f4e65fad6a7708a0c,2024_03_08,39.356505,-74.42263,South Carolina Avenue,2.617,0.7627375,1.2282909166666667,7.2,6,"NIGHT_CLEAR,NIGHT_CLEAR,NIGHT_CLEAR,NIGHT_CLEAR,NIGHT_CLEAR,CLEAR,CLEAR,CLEAR,CLEAR,CLEAR","Offshore,Offshore,Offshore,Offshore,Offshore,Offshore,Offshore,Offshore,Offshore,Offshore",10
5842041f4e65fad6a7708a0d,2024_03_08,39.413485,-74.35476,14th Street North,2.6,0.90602,1.3287833333333334,7.2,6,"NIGHT_CLEAR,NIGHT_CLEAR,NIGHT_CLEAR,NIGHT_CLEAR,NIGHT_CLEAR,CLEAR,CLEAR,CLEAR,CLEAR,CLEAR","Offshore,Offshore,Offshore,Offshore,Offshore,Offshore,Offshore,Cross-shore,Cross-shore,Cross-shore",10
5842041f4e65fad6a7708a0e,2024_03_08,39.531319,-74.263252,The Wooden Jetty,1.875,0.9482755,1.3230845,7.2,6,"NIGHT_CLEAR,NIGHT_CLEAR,NIGHT_CLEAR,NIGHT_CLEAR,NIGHT_CLEAR,CLEAR,CLEAR,CLEAR,CLEAR,CLEAR","Offshore,Offshore,Offshore,Offshore,Offshore,Offshore,Offshore,Cross-shore,Offshore,Offshore",10
5842041f4e65fad6a7708a0f,2024_03_08,39.552472,-74.24344,Holyoke,1.908,0.8105246666666667,1.2981941666666668,7.2,6,"NIGHT_CLEAR,NIGHT_CLEAR,NIGHT_CLEAR,NIGHT_CLEAR,NIGHT_CLEAR,CLEAR,CLEAR,CLEAR,CLEAR,CLEAR","Offshore,Offshore,Offshore,Offshore,Offshore,Offshore,Offshore,Cross-shore,Cross-shore,Cross-shore",10
5842041f4e65fad6a7708a10,2024_03_08,39.692364,-74.14068,Hudson Ave.,1.875,1.09006,1.4120833333333334,7.2,6,"NIGHT_CLEAR,NIGHT_CLEAR,NIGHT_CLEAR,NIGHT_CLEAR,NIGHT_CLEAR,CLEAR,CLEAR,CLEAR,CLEAR,CLEAR","Offshore,Offshore,Offshore,Offshore,Offshore,Offshore,Offshore,Offshore,Offshore,Offshore",10
5842041f4e65fad6a7708a11,2024_03_08,39.79614,-74.09248,Island Beach State Park,2.2,1.24886,1.5227,7,6,"NIGHT_CLEAR,NIGHT_CLEAR,NIGHT_CLEAR,NIGHT_CLEAR,NIGHT_CLEAR,CLEAR,CLEAR,CLEAR,CLEAR,CLEAR","Cross-shore,Cross-shore,Cross-shore,Offshore,Offshore,Offshore,Cross-shore,Cross-shore,Cross-shore,Cross-shore",10
5842041f4e65fad6a7708a12,2024_03_08,39.91813588078152,-74.07527,Seaside Park,2.1,1.1086933333333333,1.4053666666666667,7,6,"NIGHT_CLEAR,NIGHT_CLEAR,NIGHT_CLEAR,NIGHT_CLEAR,NIGHT_CLEAR,CLEAR,CLEAR,CLEAR,CLEAR,CLEAR","Cross-shore,Cross-shore,Cross-shore,Offshore,Offshore,Offshore,Cross-shore,Cross-shore,Cross-shore,Cross-shore",10
5842041f4e65fad6a7708a14,2024_03_08,39.946638,-74.06884,Seaside Heights,2.4,1.1166033333333334,1.5393666666666668,7,6,"NIGHT_CLEAR,NIGHT_CLEAR,NIGHT_CLEAR,NIGHT_CLEAR,NIGHT_CLEAR,CLEAR,CLEAR,CLEAR,CLEAR,CLEAR","Cross-shore,Cross-shore,Offshore,Offshore,Offshore,Offshore,Cross-shore,Cross-shore,Cross-shore,Cross-shore",10
5842041f4e65fad6a7708a15,2024_03_08,39.95745637606704,-74.06736,Ortley Beach,2.217,0.9816866666666667,1.4299533333333332,7,6,"NIGHT_CLEAR,NIGHT_CLEAR,NIGHT_CLEAR,NIGHT_CLEAR,NIGHT_CLEAR,CLEAR,CLEAR,CLEAR,CLEAR,CLEAR","Cross-shore,Cross-shore,Offshore,Offshore,Offshore,Offshore,Cross-shore,Cross-shore,Cross-shore,Cross-shore",10
5842041f4e65fad6a7708a16,2024_03_08,39.98313468342945,-74.06265685577506,Lavallette,2.217,1.0101866666666666,1.47512,7,6,"NIGHT_CLEAR,NIGHT_CLEAR,NIGHT_CLEAR,NIGHT_CLEAR,NIGHT_CLEAR,CLEAR,CLEAR,CLEAR,CLEAR,CLEAR","Cross-shore,Cross-shore,Cross-shore,Offshore,Offshore,Offshore,Cross-shore,Cross-shore,Cross-shore,Cross-shore",10
5842041f4e65fad6a7708a17,2024_03_08,40.0699319967757,-74.04144910856634,Bay Head,2.2,0.9951866666666667,1.46712,7,6,"NIGHT_CLEAR,NIGHT_CLEAR,NIGHT_CLEAR,NIGHT_CLEAR,NIGHT_CLEAR,CLEAR,CLEAR,CLEAR,CLEAR,CLEAR","Cross-shore,Cross-shore,Offshore,Offshore,Offshore,Cross-shore,Cross-shore,Cross-shore,Cross-shore,Cross-shore",10
5842041f4e65fad6a7708a18,2024_03_08,40.094041,-74.034859,Jenkinson's,2.534,1.05227,1.5073699999999999,7,6,"NIGHT_CLEAR,NIGHT_CLEAR,NIGHT_CLEAR,NIGHT_CLEAR,NIGHT_CLEAR,CLEAR,CLEAR,CLEAR,CLEAR,CLEAR","Offshore,Offshore,Offshore,Offshore,Offshore,Offshore,Cross-shore,Cross-shore,Cross-shore,Cross-shore",10
5842041f4e65fad6a7708a1a,2024_03_08,38.148058,-75.17704,Assateague,1.233,1.03654,1.35106,8,7,"NIGHT_CLEAR,NIGHT_CLEAR,NIGHT_CLEAR,NIGHT_CLEAR,NIGHT_CLEAR,CLEAR,CLEAR,CLEAR,CLEAR,CLEAR","Cross-shore,Cross-shore,Cross-shore,Cross-shore,Cross-shore,Cross-shore,Cross-shore,Cross-shore,Cross-shore,Cross-shore",10
5842041f4e65fad6a7708a1b,2024_03_08,38.33889038664497,-75.08017670566352,North End to Ocean City Inlet,1.4,1.03404,1.36181,8,7,"NIGHT_CLEAR,NIGHT_CLEAR,NIGHT_CLEAR,NIGHT_CLEAR,NIGHT_CLEAR,CLEAR,CLEAR,CLEAR,CLEAR,CLEAR","Onshore,Onshore,Onshore,Onshore,Onshore,Onshore,Onshore,Onshore,Onshore,Onshore",10
5842041f4e65fad6a7708a1c,2024_03_08,38.603993,-75.06271,Indian River Inlet,1.05,0.81495425,1.2533635,8,7,"NIGHT_CLEAR,NIGHT_CLEAR,NIGHT_CLEAR,NIGHT_CLEAR,NIGHT_CLEAR,CLEAR,CLEAR,CLEAR,CLEAR,CLEAR","Cross-shore,Cross-shore,Cross-shore,Cross-shore,Cross-shore,Cross-shore,Cross-shore,Cross-shore,Onshore,Onshore",10
5842041f4e65fad6a7708a1d,2024_03_08,38.460477,-75.052069,Fenwick Island,1.083,0.77129,1.13056,8,7,"NIGHT_CLEAR,NIGHT_CLEAR,NIGHT_CLEAR,NIGHT_CLEAR,NIGHT_CLEAR,CLEAR,CLEAR,CLEAR,CLEAR,CLEAR","Onshore,Onshore,Onshore,Onshore,Onshore,Onshore,Onshore,Onshore,Onshore,Onshore",10
5842041f4e65fad6a7708a1e,2024_03_08,38.538767,-75.05619,Bethany Beach,1.05,0.81600425,1.2550029999999999,8,7,"NIGHT_CLEAR,NIGHT_CLEAR,NIGHT_CLEAR,NIGHT_CLEAR,NIGHT_CLEAR,CLEAR,CLEAR,CLEAR,CLEAR,CLEAR","Cross-shore,Cross-shore,Cross-shore,Cross-shore,Cross-shore,Cross-shore,Cross-shore,Cross-shore,Onshore,Onshore",10
5842041f4e65fad6a7708a1f,2024_03_08,38.697657,-75.075951,Dewey Beach,1.683,0.90679,1.21356,8,7,"NIGHT_CLEAR,NIGHT_CLEAR,NIGHT_CLEAR,NIGHT_CLEAR,NIGHT_CLEAR,CLEAR,CLEAR,CLEAR,CLEAR,CLEAR","Onshore,Onshore,Onshore,Onshore,Onshore,Onshore,Onshore,Onshore,Onshore,Onshore",10
5842041f4e65fad6a7708a20,2024_03_08,38.75034741676525,-75.08194,Gordons Pond,1.883,0.72329725,1.1101505,8,7,"NIGHT_CLEAR,NIGHT_CLEAR,NIGHT_CLEAR,NIGHT_CLEAR,NIGHT_CLEAR,CLEAR,CLEAR,CLEAR,CLEAR,CLEAR","Cross-shore,Cross-shore,Cross-shore,Cross-shore,Cross-shore,Cross-shore,Cross-shore,Cross-shore,Onshore,Onshore",10
5842041f4e65fad6a7708a21,2024_03_08,38.767837,-75.082841,Naval Jetties,1.483,0.90279,1.21206,8,7,"NIGHT_CLEAR,NIGHT_CLEAR,NIGHT_CLEAR,NIGHT_CLEAR,NIGHT_CLEAR,CLEAR,CLEAR,CLEAR,CLEAR,CLEAR","Onshore,Onshore,Onshore,Onshore,Onshore,Onshore,Onshore,Onshore,Onshore,Onshore",10
5842041f4e65fad6a7708a22,2024_03_08,36.81735875786576,-75.96624,Camp Pendleton,0.863,0.6111666666666666,0.9161666666666667,9,8,"NIGHT_CLEAR,NIGHT_CLEAR,NIGHT_CLEAR,NIGHT_MIST,NIGHT_MIST,MIST,CLEAR,CLEAR,CLEAR,MIST","Cross-shore,Onshore,Onshore,Onshore,Onshore,Onshore,Onshore,Onshore,Onshore,Onshore",10
5842041f4e65fad6a7708a23,2024_03_08,36.9102212316428,-75.98732471466064,North End,1,0.2866666666666667,0.5905,9,8,"NIGHT_CLEAR,NIGHT_CLEAR,NIGHT_CLEAR,NIGHT_CLEAR,NIGHT_CLEAR,CLEAR,CLEAR,CLEAR,CLEAR,MOSTLY_CLEAR","Onshore,Onshore,Onshore,Onshore,Onshore,Onshore,Onshore,Onshore,Onshore,Onshore",10
5842041f4e65fad6a7708a24,2024_03_08,36.737117517621314,-75.93923719853362,Sandbridge Beach,1.25,0.5896666666666667,0.894,9,8,"NIGHT_CLEAR,NIGHT_CLEAR,NIGHT_CLEAR,NIGHT_MIST,NIGHT_MIST,MIST,CLEAR,CLEAR,CLEAR,MOSTLY_CLOUDY","Cross-shore,Onshore,Onshore,Onshore,Onshore,Onshore,Onshore,Onshore,Onshore,Onshore",10
5842041f4e65fad6a7708a26,2024_03_08,36.818257440557794,-75.96666,Croatan to Pendleton,0.78,0.4736666666666667,0.7796666666666667,9,8,"NIGHT_CLEAR,NIGHT_CLEAR,NIGHT_CLEAR,NIGHT_MIST,NIGHT_MIST,MIST,CLEAR,CLEAR,CLEAR,MIST","Cross-shore,Onshore,Onshore,Onshore,Onshore,Onshore,Onshore,Onshore,Onshore,Onshore",10
5842041f4e65fad6a7708a27,2024_03_08,36.84318777204769,-75.9719,South End,1.283,0.42916666666666664,0.732,9,8,"NIGHT_CLEAR,NIGHT_CLEAR,NIGHT_CLEAR,NIGHT_MIST,NIGHT_MIST,CLEAR,CLEAR,CLEAR,CLEAR,MOSTLY_CLOUDY","Onshore,Onshore,Onshore,Onshore,Onshore,Onshore,Onshore,Onshore,Onshore,Onshore",10
5842041f4e65fad6a7708a28,2024_03_08,37.08612627584661,-75.976121638199,Fishermans Island,1.3,0.2332,0.3548,9,9,"NIGHT_CLEAR,NIGHT_CLEAR,NIGHT_CLOUDY,NIGHT_CLEAR,NIGHT_CLEAR,CLEAR,CLEAR,CLEAR,CLEAR,CLEAR","Cross-shore,Cross-shore,Cross-shore,Cross-shore,Cross-shore,Cross-shore,Cross-shore,Cross-shore,Cross-shore,Cross-shore",10
5842041f4e65fad6a7708a38,2024_03_08,35.254619418229026,-75.52074,Cape Hatteras Lighthouse,0.48,0.9512207833333334,1.3340725333333332,12.8,11.8,"NIGHT_CLEAR,NIGHT_CLEAR,NIGHT_CLEAR,NIGHT_MIST,NIGHT_MIST,MIST,MIST,BRIEF_SHOWERS,DRIZZLE,MOSTLY_CLOUDY","Cross-shore,Cross-shore,Cross-shore,Cross-shore,Cross-shore,Cross-shore,Cross-shore,Cross-shore,Cross-shore,Cross-shore",10
5842041f4e65fad6a7708a3a,2024_03_08,35.54572934093336,-75.46477,Waves and Salvo,1.05,0.9362199999999999,1.2529133333333333,11.8,10.8,"NIGHT_CLEAR,NIGHT_CLOUDY,NIGHT_CLEAR,NIGHT_MIST,NIGHT_MIST,MIST,MIST,MIST,MIST,MOSTLY_CLOUDY","Cross-shore,Cross-shore,Cross-shore,Cross-shore,Cross-shore,Cross-shore,Cross-shore,Cross-shore,Cross-shore,Cross-shore",10
5842041f4e65fad6a7708a3b,2024_03_08,35.22565892751075,-75.63606,Frisco,2.3,0.73988,1.0575066666666666,13.8,12.8,"NIGHT_CLEAR,NIGHT_CLEAR,NIGHT_MOSTLY_CLOUDY,NIGHT_CLOUDY,NIGHT_CLOUDY,CLOUDY,MIST,MIST,MIST,CLEAR","Offshore,Offshore,Offshore,Offshore,Offshore,Offshore,Offshore,Offshore,Offshore,Offshore",10
5842041f4e65fad6a7708a3c,2024_03_08,35.13086,-75.90591,Ocracoke,1.4,0.670319,1.047371,12.5,12.5,"NIGHT_CLEAR,NIGHT_CLEAR,NIGHT_BRIEF_SHOWERS,NIGHT_MIST,NIGHT_MIST,MIST,MIST,MIST,MIST,CLEAR","Offshore,Offshore,Offshore,Offshore,Cross-shore,Offshore,Offshore,Offshore,Offshore,Offshore",10
5842041f4e65fad6a7708a3d,2024_03_08,35.34721340158342,-75.50084,Avon Pier,0.44,0.9059780000000001,1.4644253333333332,12.8,11.8,"NIGHT_CLEAR,NIGHT_CLEAR,NIGHT_CLEAR,NIGHT_OVERCAST,NIGHT_OVERCAST,OVERCAST,MIST,MIST,DRIZZLE,CLEAR","Cross-shore,Cross-shore,Cross-shore,Cross-shore,Cross-shore,Cross-shore,Cross-shore,Cross-shore,Cross-shore,Cross-shore",10
5842041f4e65fad6a7708a3f,2024_03_08,35.71680821253768,-75.49243,Pea Island,1.1,0.799,1.104,10,10,"NIGHT_FOG,NIGHT_CLOUDY,NIGHT_CLEAR,NIGHT_OVERCAST,NIGHT_OVERCAST,OVERCAST,MIST,MIST,OVERCAST,CLEAR","Cross-shore,Cross-shore,Onshore,Onshore,Onshore,Onshore,Onshore,Onshore,Onshore,Onshore",10
5842041f4e65fad6a7708a40,2024_03_08,35.97427620657821,-75.62984,Nags Head Pier,1.18,0.8853366666666667,1.1542266666666667,10.6,8.8,"NIGHT_OVERCAST,NIGHT_CLEAR,NIGHT_CLEAR,NIGHT_OVERCAST,NIGHT_OVERCAST,OVERCAST,MIST,OVERCAST,OVERCAST,CLEAR","Onshore,Onshore,Onshore,Onshore,Onshore,Onshore,Onshore,Onshore,Onshore,Onshore",10
5842041f4e65fad6a7708a41,2024_03_08,36.0439998039079,-75.67288,Avalon Pier,1.467,0.93147,1.1847933333333334,10.6,8.8,"NIGHT_CLEAR,NIGHT_CLEAR,NIGHT_CLOUDY,NIGHT_OVERCAST,NIGHT_OVERCAST,OVERCAST,OVERCAST,OVERCAST,OVERCAST,CLEAR","Onshore,Onshore,Onshore,Onshore,Onshore,Onshore,Onshore,Onshore,Onshore,Onshore",10
5842041f4e65fad6a7708a42,2024_03_08,36.03043116489792,-75.66413,First Street,1.5,0.90692,1.21581,10.6,8.8,"NIGHT_CLEAR,NIGHT_CLEAR,NIGHT_CLOUDY,NIGHT_OVERCAST,NIGHT_OVERCAST,OVERCAST,OVERCAST,OVERCAST,OVERCAST,CLEAR","Cross-shore,Cross-shore,Onshore,Onshore,Onshore,Onshore,Cross-shore,Onshore,Onshore,Onshore",10
5842041f4e65fad6a7708a43,2024_03_08,36.06829910590498,-75.6899,Old Station/Laundromats,1.467,0.82947,1.13471,10.6,8.8,"NIGHT_CLOUDY,NIGHT_CLEAR,NIGHT_CLEAR,NIGHT_OVERCAST,NIGHT_OVERCAST,OVERCAST,MIST,MIST,CLOUDY,CLEAR","Cross-shore,Cross-shore,Onshore,Onshore,Onshore,Onshore,Cross-shore,Onshore,Onshore,Onshore",10
5842041f4e65fad6a7708a44,2024_03_08,36.10126676607491,-75.71107462163894,Kitty Hawk Pier,1.5,0.85217,1.1788100000000001,10.6,8.8,"NIGHT_OVERCAST,NIGHT_CLEAR,NIGHT_CLOUDY,NIGHT_OVERCAST,NIGHT_OVERCAST,OVERCAST,MIST,MIST,CLOUDY,CLEAR","Cross-shore,Cross-shore,Onshore,Onshore,Onshore,Onshore,Cross-shore,Onshore,Onshore,Onshore",10
5842041f4e65fad6a7708a45,2024_03_08,36.18220630068973,-75.75013580649097,Duck Pier,1.1,0.5965633333333333,0.9020533333333334,9.8,8.8,"NIGHT_CLOUDY,NIGHT_CLEAR,NIGHT_CLEAR,NIGHT_CLOUDY,NIGHT_MIST,MIST,MIST,MIST,MIST,MIST","Cross-shore,Cross-shore,Onshore,Onshore,Onshore,Onshore,Cross-shore,Onshore,Onshore,Onshore",10
5842041f4e65fad6a7708a46,2024_03_08,36.37660668125033,-75.82409701687456,Corolla,1,0.60623,0.9098033333333333,9.8,8.8,"NIGHT_CLEAR,NIGHT_CLEAR,NIGHT_CLEAR,NIGHT_CLOUDY,NIGHT_MIST,MIST,MIST,MIST,MIST,MIST","Cross-shore,Cross-shore,Onshore,Onshore,Onshore,Onshore,Cross-shore,Onshore,Onshore,Onshore",10
5842041f4e65fad6a7708a47,2024_03_08,33.90373404124834,-78.08241431707907,Oak Island,1.4,0.267,0.5720000000000001,13.5,13.5,"NIGHT_CLEAR,NIGHT_CLEAR,NIGHT_CLEAR,NIGHT_CLEAR,NIGHT_CLEAR,CLEAR,MOSTLY_CLOUDY,CLEAR,CLEAR,CLEAR","Offshore,Offshore,Offshore,Offshore,Offshore,Offshore,Offshore,Offshore,Offshore,Offshore",10
5842041f4e65fad6a7708a48,2024_03_08,33.91108837766468,-78.29653,South Brunswick Beaches,1.6,0.272926,0.426442,14,14,"NIGHT_MIST,NIGHT_MOSTLY_CLOUDY,NIGHT_CLEAR,NIGHT_MIST,NIGHT_CLEAR,CLEAR,CLEAR,CLEAR,CLEAR,CLEAR","Offshore,Cross-shore,Offshore,Offshore,Offshore,Offshore,Offshore,Cross-shore,Cross-shore,Offshore",10
5842041f4e65fad6a7708a49,2024_03_08,34.05683595651973,-77.88128,Carolina Beach Pier,0.983,0.6005133333333333,0.9081533333333334,14,13,"NIGHT_CLEAR,NIGHT_CLEAR,NIGHT_CLEAR,NIGHT_CLEAR,NIGHT_CLEAR,CLEAR,CLEAR,CLEAR,CLEAR,CLEAR","Onshore,Onshore,Onshore,Onshore,Onshore,Onshore,Onshore,Onshore,Onshore,Onshore",10
5842041f4e65fad6a7708a4a,2024_03_08,33.96841191816696,-77.9180242565498,Fort Fisher,1.05,0.6572633333333333,0.9603200000000001,14,13,"NIGHT_CLEAR,NIGHT_CLEAR,NIGHT_CLEAR,NIGHT_CLEAR,NIGHT_CLEAR,CLEAR,CLEAR,CLEAR,CLEAR,CLEAR","Onshore,Onshore,Onshore,Onshore,Onshore,Onshore,Onshore,Onshore,Onshore,Onshore",10
5842041f4e65fad6a7708a4b,2024_03_08,34.46776662988774,-77.47083191635772,Topsail Beach,1.4,0.4816566666666667,0.7888966666666667,14,13,"NIGHT_CLEAR,NIGHT_CLEAR,NIGHT_CLEAR,NIGHT_MIST,NIGHT_MIST,CLEAR,CLEAR,CLEAR,CLEAR,CLEAR","Offshore,Offshore,Cross-shore,Cross-shore,Cross-shore,Cross-shore,Cross-shore,Cross-shore,Cross-shore,Cross-shore",10
5842041f4e65fad6a7708a4c,2024_03_08,34.69270354752445,-76.82854854446575,Iron Steamer,1.87,0.2975513333333334,0.6013513333333333,14,13,"NIGHT_CLEAR,NIGHT_CLEAR,NIGHT_CLEAR,NIGHT_CLEAR,NIGHT_CLEAR,CLEAR,CLEAR,CLEAR,CLEAR,CLEAR","Offshore,Offshore,Offshore,Offshore,Offshore,Offshore,Offshore,Offshore,Offshore,Offshore",10
5842041f4e65fad6a7708a4f,2024_03_08,30.85132684893727,-81.42283496231143,Cumberland Island,1.8,0.42,0.726,16.5,16.5,"NIGHT_MIST,NIGHT_MIST,NIGHT_MIST,NIGHT_MIST,NIGHT_MIST,MIST,MIST,MIST,MIST,MOSTLY_CLOUDY","Cross-shore,Cross-shore,Onshore,Onshore,Onshore,Cross-shore,Cross-shore,Cross-shore,Cross-shore,Onshore",10
5842041f4e65fad6a7708a50,2024_03_08,34.686741128540874,-76.47516712138378,Cape Lookout National Seashore,0.7,0.6739999999999999,0.978,12,12,"NIGHT_CLEAR,NIGHT_CLEAR,NIGHT_CLEAR,NIGHT_CLEAR,NIGHT_CLEAR,MOSTLY_CLEAR,CLEAR,MOSTLY_CLEAR,CLEAR,CLEAR","Cross-shore,Cross-shore,Cross-shore,Cross-shore,Cross-shore,Cross-shore,Cross-shore,Cross-shore,Cross-shore,Cross-shore",10
5842041f4e65fad6a7708a51,2024_03_08,31.10585419260024,-81.40422767604812,Jekyll Island,1,0.192,0.495,15.5,15.5,"NIGHT_MIST,NIGHT_MIST,NIGHT_MIST,NIGHT_DRIZZLE,NIGHT_MIST,MIST,MIST,MIST,CLEAR,MIST","Onshore,Onshore,Onshore,Onshore,Onshore,Onshore,Onshore,Onshore,Onshore,Onshore",10
5842041f4e65fad6a7708a52,2024_03_08,31.16212806376699,-81.32512426500224,Harbor Marker Buoys,1.5,0.45,0.757,15.5,15.5,"NIGHT_MIST,NIGHT_MIST,NIGHT_MIST,NIGHT_MIST,NIGHT_MIST,DRIZZLE,MIST,CLOUDY,MOSTLY_CLOUDY,MIST","Cross-shore,Cross-shore,Onshore,Onshore,Onshore,Onshore,Cross-shore,Onshore,Cross-shore,Onshore",10
5842041f4e65fad6a7708a53,2024_03_08,31.20076299997009,-81.32629,Sea Island,1.9,0.438,0.742,15.5,15.5,"NIGHT_MIST,NIGHT_MIST,NIGHT_MIST,NIGHT_MIST,NIGHT_OVERCAST,MIST,MIST,CLOUDY,MOSTLY_CLOUDY,CLEAR","Cross-shore,Cross-shore,Cross-shore,Cross-shore,Onshore,Cross-shore,Cross-shore,Cross-shore,Cross-shore,Cross-shore",10
5842041f4e65fad6a7708a54,2024_03_08,31.13553222995767,-81.38457634790909,St. Simons Island,2,0.393,0.698,15.5,15.5,"NIGHT_MIST,NIGHT_MIST,NIGHT_MIST,NIGHT_MIST,NIGHT_MIST,MIST,MIST,CLEAR,MOSTLY_CLOUDY,MOSTLY_CLOUDY","Cross-shore,Cross-shore,Cross-shore,Cross-shore,Cross-shore,Cross-shore,Cross-shore,Cross-shore,Cross-shore,Cross-shore",10
5842041f4e65fad6a7708a55,2024_03_08,31.33550077186516,-81.28383377408417,Wolf Island,1.9,0.314,0.62,15.5,15.5,"NIGHT_MIST,NIGHT_MIST,NIGHT_MIST,NIGHT_MIST,NIGHT_MIST,MIST,MIST,CLEAR,MOSTLY_CLEAR,MIST","Onshore,Onshore,Cross-shore,Onshore,Onshore,Onshore,Onshore,Onshore,Cross-shore,Onshore",10
5842041f4e65fad6a7708a56,2024_03_08,31.2704493877174,-81.27324039152315,Little St. Simons Island,2,0.403,0.71,15.5,15.5,"NIGHT_MIST,NIGHT_MIST,NIGHT_MIST,NIGHT_MIST,NIGHT_MIST,MIST,MIST,CLOUDY,MOSTLY_CLOUDY,MIST","Onshore,Onshore,Onshore,Onshore,Onshore,Onshore,Onshore,Onshore,Onshore,Onshore",10
5842041f4e65fad6a7708a57,2024_03_08,31.39261761368919,-81.26190520231917,Sapelo Island,2,0.37,0.677,15.5,15.5,"NIGHT_MIST,NIGHT_MIST,NIGHT_MIST,NIGHT_MIST,NIGHT_MIST,DRIZZLE,MOSTLY_CLOUDY,MOSTLY_CLOUDY,SHOWERS,BRIEF_SHOWERS","Cross-shore,Cross-shore,Cross-shore,Onshore,Onshore,Onshore,Onshore,Onshore,Cross-shore,Onshore",10
5842041f4e65fad6a7708a58,2024_03_08,34.42458783809001,-77.54492,Surf City Pier,1.5,0.49899000000000004,0.80248,14,13,"NIGHT_CLEAR,NIGHT_CLEAR,NIGHT_CLEAR,NIGHT_CLEAR,NIGHT_CLEAR,CLEAR,CLEAR,CLEAR,CLEAR,CLEAR","Cross-shore,Cross-shore,Cross-shore,Cross-shore,Cross-shore,Cross-shore,Cross-shore,Cross-shore,Cross-shore,Cross-shore",10
5842041f4e65fad6a7708a59,2024_03_08,31.4231993614213,-81.24725340591522,Cabretta Island,2,0.391,0.698,15,15,"NIGHT_CLEAR,NIGHT_MIST,NIGHT_MIST,NIGHT_MIST,NIGHT_DRIZZLE,MIST,MOSTLY_CLOUDY,CLEAR,MIST,MOSTLY_CLOUDY","Cross-shore,Cross-shore,Onshore,Onshore,Onshore,Onshore,Onshore,Cross-shore,Cross-shore,Cross-shore",10
5842041f4e65fad6a7708a5a,2024_03_08,31.46684389030369,-81.2100056410468,Blackbeard Island,2,0.369,0.675,15,15,"NIGHT_CLEAR,NIGHT_OVERCAST,NIGHT_MIST,NIGHT_MIST,NIGHT_DRIZZLE,DRIZZLE,MOSTLY_CLOUDY,MIST,CLEAR,MOSTLY_CLOUDY","Cross-shore,Cross-shore,Onshore,Onshore,Onshore,Cross-shore,Cross-shore,Cross-shore,Cross-shore,Cross-shore",10
5842041f4e65fad6a7708a5b,2024_03_08,31.85953587631629,-80.99031310336719,Wassaw Island/South End,1.3,0.07200000000000001,0.376,15,15,"NIGHT_MIST,NIGHT_MIST,NIGHT_MIST,NIGHT_BRIEF_SHOWERS,NIGHT_MIST,MIST,MIST,MIST,MIST,MIST","Cross-shore,Cross-shore,Cross-shore,Onshore,Onshore,Onshore,Cross-shore,Cross-shore,Cross-shore,Cross-shore",10
5842041f4e65fad6a7708a5c,2024_03_08,31.62535662342983,-81.13328352167974,St. Catherines Island,1.9,0.382,0.688,15,15,"NIGHT_MIST,NIGHT_MIST,NIGHT_MOSTLY_CLOUDY,NIGHT_MIST,NIGHT_MIST,DRIZZLE,MIST,MOSTLY_CLOUDY,MOSTLY_CLEAR,MOSTLY_CLOUDY","Onshore,Onshore,Onshore,Onshore,Onshore,Onshore,Onshore,Onshore,Cross-shore,Cross-shore",10
5842041f4e65fad6a7708a5d,2024_03_08,31.76502169596568,-81.07655443806622,Ossabaw Island,1.8,0.299,0.604,15,15,"NIGHT_MIST,NIGHT_MIST,NIGHT_MIST,NIGHT_CLEAR,NIGHT_MIST,MIST,MIST,MIST,CLEAR,CLEAR","Cross-shore,Cross-shore,Cross-shore,Onshore,Onshore,Onshore,Onshore,Cross-shore,Cross-shore,Cross-shore",10
5842041f4e65fad6a7708a5e,2024_03_08,31.90593619092352,-80.93589231700857,Wassaw Island/North End,1.7,0.527,0.831,15,15,"NIGHT_MIST,NIGHT_MIST,NIGHT_MIST,NIGHT_MIST,NIGHT_MIST,MIST,MIST,MIST,CLEAR,MIST","Cross-shore,Cross-shore,Cross-shore,Cross-shore,Onshore,Onshore,Cross-shore,Cross-shore,Cross-shore,Cross-shore",10
5842041f4e65fad6a7708a5f,2024_03_08,31.96738675414547,-80.86977980706155,Little Tybee Island,1.7,0.437,0.745,15,15,"NIGHT_MIST,NIGHT_MIST,NIGHT_MIST,NIGHT_MIST,NIGHT_MIST,MIST,MOSTLY_CLOUDY,MOSTLY_CLOUDY,MOSTLY_CLOUDY,MOSTLY_CLOUDY","Cross-shore,Cross-shore,Cross-shore,Onshore,Onshore,Onshore,Cross-shore,Cross-shore,Cross-shore,Cross-shore",10
5842041f4e65fad6a7708a60,2024_03_08,31.9812255780179,-80.84773973467009,South Tybee Sandbars,1.8,0.365,0.67,15,15,"NIGHT_MIST,NIGHT_MIST,NIGHT_MIST,NIGHT_MIST,NIGHT_MIST,MIST,MOSTLY_CLOUDY,MOSTLY_CLOUDY,MOSTLY_CLOUDY,MOSTLY_CLOUDY","Onshore,Cross-shore,Onshore,Onshore,Onshore,Onshore,Cross-shore,Onshore,Onshore,Onshore",10
5842041f4e65fad6a7708a61,2024_03_08,32.01226,-80.83983,Sugar Shack,1.8,0.29000000000000004,0.595,15,15,"NIGHT_MIST,NIGHT_MIST,NIGHT_MIST,NIGHT_MIST,NIGHT_MIST,MIST,MIST,MIST,MIST,MIST","Onshore,Onshore,Onshore,Onshore,Onshore,Onshore,Onshore,Onshore,Onshore,Onshore",10
5842041f4e65fad6a7708a62,2024_03_08,31.98722842396969,-80.84773,18th St. Jetty,1.7,0.488567,0.763385,15,15,"NIGHT_MIST,NIGHT_MIST,NIGHT_MIST,NIGHT_MIST,NIGHT_MIST,MIST,MIST,MIST,BRIEF_SHOWERS,BRIEF_SHOWERS_POSSIBLE","Onshore,Onshore,Onshore,Onshore,Onshore,Onshore,Onshore,Onshore,Onshore,Onshore",10
5842041f4e65fad6a7708a64,2024_03_08,34.013473721006676,-77.8991,"Alabama Ave., Kure Beach",1.4,0.5609999999999999,0.866,13.5,13.5,"NIGHT_CLEAR,NIGHT_CLEAR,NIGHT_CLEAR,NIGHT_CLEAR,NIGHT_CLEAR,CLEAR,CLEAR,CLEAR,CLEAR,CLEAR","Cross-shore,Onshore,Onshore,Onshore,Onshore,Onshore,Onshore,Onshore,Onshore,Onshore",10
5842041f4e65fad6a7708a65,2024_03_08,34.20859853336924,-77.79293,"C Street, Wrightsville Beach",0.983,0.5854466666666667,0.9057866666666666,14,13,"NIGHT_CLEAR,NIGHT_CLEAR,NIGHT_CLEAR,NIGHT_CLEAR,NIGHT_CLEAR,CLEAR,CLEAR,CLEAR,CLEAR,CLEAR","Onshore,Cross-shore,Cross-shore,Cross-shore,Cross-shore,Cross-shore,Cross-shore,Onshore,Onshore,Cross-shore",10
5842041f4e65fad6a7708a66,2024_03_08,32.831,-79.71,Dewees Island,1.4,0.402,0.706,14,14,"NIGHT_MIST,NIGHT_MIST,NIGHT_MIST,NIGHT_MIST,NIGHT_OVERCAST,OVERCAST,OVERCAST,DRIZZLE,OVERCAST,OVERCAST","Onshore,Cross-shore,Onshore,Cross-shore,Cross-shore,Onshore,Onshore,Onshore,Cross-shore,Cross-shore",10
5842041f4e65fad6a7708a67,2024_03_08,33.82924423172106,-78.62813,Cherry Grove Pier,1.1,0.17091666666666666,0.4771166666666667,14,14,"NIGHT_CLEAR,NIGHT_CLEAR,NIGHT_CLEAR,NIGHT_MIST,NIGHT_MIST,CLEAR,CLEAR,CLEAR,CLEAR,CLEAR","Cross-shore,Cross-shore,Cross-shore,Cross-shore,Cross-shore,Cross-shore,Cross-shore,Cross-shore,Cross-shore,Cross-shore",10
5842041f4e65fad6a7708a69,2024_03_08,34.27197439666496,-77.74050223196774,Figure Eight and Shell Islands,1.15,0.6674466666666666,0.9802866666666666,14,13,"NIGHT_CLEAR,NIGHT_CLEAR,NIGHT_CLEAR,NIGHT_CLEAR,NIGHT_CLEAR,CLEAR,CLEAR,CLEAR,CLEAR,CLEAR","Cross-shore,Cross-shore,Cross-shore,Cross-shore,Cross-shore,Cross-shore,Cross-shore,Cross-shore,Cross-shore,Cross-shore",10
5842041f4e65fad6a7708a6b,2024_03_08,33.49041958261793,-79.07666070599386,North End,1.3,0.424,0.728,14.5,14.5,"NIGHT_MOSTLY_CLEAR,NIGHT_MOSTLY_CLOUDY,NIGHT_CLEAR,NIGHT_MIST,NIGHT_CLEAR,OVERCAST,CLEAR,CLEAR,CLEAR,MOSTLY_CLOUDY","Cross-shore,Cross-shore,Cross-shore,Cross-shore,Cross-shore,Cross-shore,Cross-shore,Cross-shore,Cross-shore,Cross-shore",10
5842041f4e65fad6a7708a6c,2024_03_08,33.39537062495087,-79.13835037835189,The South End,1.3,0.398,0.703,15,15,"NIGHT_MOSTLY_CLOUDY,NIGHT_MIST,NIGHT_CLEAR,NIGHT_MIST,NIGHT_MIST,MIST,CLEAR,CLEAR,CLEAR,CLEAR","Onshore,Onshore,Onshore,Cross-shore,Onshore,Onshore,Onshore,Onshore,Onshore,Cross-shore",10
5842041f4e65fad6a7708a6d,2024_03_08,33.29001727666697,-79.17190003352977,North Island,1.4,0.517,0.821,15,15,"NIGHT_MOSTLY_CLOUDY,NIGHT_MOSTLY_CLEAR,NIGHT_CLEAR,NIGHT_MIST,NIGHT_MOSTLY_CLOUDY,OVERCAST,MIST,CLEAR,CLEAR,OVERCAST","Onshore,Onshore,Onshore,Onshore,Onshore,Onshore,Onshore,Onshore,Onshore,Onshore",10
5842041f4e65fad6a7708a6e,2024_03_08,32.90929771158952,-79.57810400297359,Bull Island,1.2,0.371,0.679,14,14,"NIGHT_CLEAR,NIGHT_MOSTLY_CLOUDY,NIGHT_MOSTLY_CLOUDY,NIGHT_MOSTLY_CLOUDY,NIGHT_OVERCAST,MOSTLY_CLOUDY,MIST,OVERCAST,OVERCAST,MOSTLY_CLOUDY","Onshore,Onshore,Onshore,Cross-shore,Cross-shore,Cross-shore,Cross-shore,Cross-shore,Cross-shore,Cross-shore",10
5842041f4e65fad6a7708a6f,2024_03_08,31.99153112815895,-80.84543050470074,Tybee Island Pier,1.3,0.041,0.345,15,15,"NIGHT_MIST,NIGHT_MIST,NIGHT_MIST,NIGHT_MIST,NIGHT_MIST,MIST,MOSTLY_CLOUDY,MOSTLY_CLOUDY,MOSTLY_CLOUDY,OVERCAST","Onshore,Cross-shore,Onshore,Onshore,Onshore,Onshore,Cross-shore,Onshore,Onshore,Onshore",10
5842041f4e65fad6a7708a70,2024_03_08,33.03478144356316,-79.35021028265125,Cape Romain,1.3,0.585,0.887,15,15,"NIGHT_MOSTLY_CLOUDY,NIGHT_MOSTLY_CLOUDY,NIGHT_MIST,NIGHT_MOSTLY_CLEAR,NIGHT_MOSTLY_CLOUDY,CLOUDY,MIST,CLOUDY,CLEAR,MIST","Onshore,Onshore,Onshore,Onshore,Onshore,Onshore,Onshore,Onshore,Onshore,Onshore",10
5842041f4e65fad6a7708a71,2024_03_08,33.43231073271028,-79.11789,The Pier,1.2,0.430617,0.672839,15,15,"NIGHT_MIST,NIGHT_MIST,NIGHT_MIST,NIGHT_MIST,NIGHT_MIST,MIST,CLEAR,CLEAR,CLEAR,CLEAR","Onshore,Onshore,Onshore,Onshore,Onshore,Onshore,Onshore,Onshore,Onshore,Onshore",10
5842041f4e65fad6a7708a72,2024_03_08,33.45423621397969,-79.10497798178424,South Litchfield,1.4,0.451,0.752,15,15,"NIGHT_MOSTLY_CLOUDY,NIGHT_CLEAR,NIGHT_CLEAR,NIGHT_MIST,NIGHT_MIST,OVERCAST,CLEAR,CLEAR,MOSTLY_CLOUDY,MOSTLY_CLOUDY","Onshore,Onshore,Onshore,Onshore,Onshore,Onshore,Onshore,Onshore,Onshore,Cross-shore",10
5842041f4e65fad6a7708a73,2024_03_08,34.19316590251396,-77.8045,Crystal Pier,1,0.47819666666666666,0.7959533333333333,14,13,"NIGHT_CLEAR,NIGHT_CLEAR,NIGHT_CLEAR,NIGHT_CLEAR,NIGHT_CLEAR,CLEAR,CLEAR,CLEAR,CLEAR,CLEAR","Onshore,Cross-shore,Onshore,Cross-shore,Onshore,Onshore,Onshore,Onshore,Onshore,Cross-shore",10
5842041f4e65fad6a7708a74,2024_03_08,33.68628680045124,-78.883460274301,Myrtle Beach,1.3,0.24983333333333335,0.5551166666666667,14.5,14.5,"NIGHT_MIST,NIGHT_MIST,NIGHT_OVERCAST,NIGHT_MIST,NIGHT_CLOUDY,MOSTLY_CLEAR,CLEAR,CLEAR,CLEAR,CLEAR","Cross-shore,Cross-shore,Cross-shore,Cross-shore,Cross-shore,Cross-shore,Cross-shore,Cross-shore,Cross-shore,Cross-shore",10
5842041f4e65fad6a7708a75,2024_03_08,32.66166297145973,-79.91951806398808,10th Street,1.8,0.493,0.799,15,15,"NIGHT_MIST,NIGHT_MIST,NIGHT_MIST,NIGHT_MIST,NIGHT_MIST,BRIEF_SHOWERS,MOSTLY_CLOUDY,MOSTLY_CLOUDY,BRIEF_SHOWERS,OVERCAST","Cross-shore,Cross-shore,Onshore,Cross-shore,Cross-shore,Cross-shore,Onshore,Cross-shore,Cross-shore,Cross-shore",10
5842041f4e65fad6a7708a76,2024_03_08,33.16729555197199,-79.19829236867845,South Island,1.2,0.572,0.877,15,15,"NIGHT_CLEAR,NIGHT_CLEAR,NIGHT_MOSTLY_CLOUDY,NIGHT_CLEAR,NIGHT_CLEAR,CLOUDY,MIST,CLEAR,CLEAR,MIST","Onshore,Onshore,Onshore,Onshore,Onshore,Onshore,Onshore,Onshore,Onshore,Onshore",10
5842041f4e65fad6a7708a77,2024_03_08,32.595,-80.088,Kiawah Island/Seabrook Island,1.9,0.338,0.644,15,15,"NIGHT_MIST,NIGHT_MIST,NIGHT_MIST,NIGHT_CLEAR,NIGHT_MIST,FOG,LIGHT_RAIN,MOSTLY_CLEAR,MIST,MIST","Offshore,Offshore,Offshore,Offshore,Offshore,Offshore,Offshore,Cross-shore,Offshore,Cross-shore",10
5842041f4e65fad6a7708a78,2024_03_08,32.51356930575787,-80.28223,Edisto Beach,1.7,0.443329,0.692702,15,15,"NIGHT_MIST,NIGHT_MIST,NIGHT_MIST,NIGHT_MIST,NIGHT_MIST,MIST,MIST,CLEAR,BRIEF_SHOWERS,MIST","Cross-shore,Cross-shore,Cross-shore,Cross-shore,Cross-shore,Cross-shore,Cross-shore,Cross-shore,Cross-shore,Cross-shore",10
5842041f4e65fad6a7708a79,2024_03_08,32.366270751262,-80.43911,Hunting Island,1.8,0.45957,0.718078,15,15,"NIGHT_MIST,NIGHT_MIST,NIGHT_MIST,NIGHT_MIST,NIGHT_MIST,MIST,MIST,BRIEF_SHOWERS,MOSTLY_CLOUDY,MIST","Onshore,Onshore,Onshore,Onshore,Onshore,Onshore,Onshore,Onshore,Onshore,Onshore",10
5842041f4e65fad6a7708a7a,2024_03_08,32.65337734408365,-79.93983,Folly Beach Pier,1.75,0.31289333333333336,0.6163366666666668,16,14,"NIGHT_CLEAR,NIGHT_CLEAR,NIGHT_MOSTLY_CLEAR,NIGHT_CLEAR,NIGHT_MIST,BRIEF_SHOWERS,MOSTLY_CLOUDY,BRIEF_SHOWERS,MOSTLY_CLOUDY,OVERCAST","Offshore,Cross-shore,Cross-shore,Offshore,Offshore,Cross-shore,Cross-shore,Cross-shore,Cross-shore,Cross-shore",10
5842041f4e65fad6a7708a7b,2024_03_08,33.41209545530049,-79.13026341393126,South Jetty,1.3,0.398,0.703,15,15,"NIGHT_MOSTLY_CLOUDY,NIGHT_MOSTLY_CLEAR,NIGHT_CLEAR,NIGHT_MIST,NIGHT_MOSTLY_CLOUDY,OVERCAST,CLEAR,CLEAR,MOSTLY_CLOUDY,BRIEF_SHOWERS","Onshore,Onshore,Onshore,Onshore,Onshore,Onshore,Onshore,Onshore,Onshore,Cross-shore",10
5842041f4e65fad6a7708a7c,2024_03_08,32.31115640606869,-80.48564,Fripp Island,1.7,0.47349,0.739829,15,15,"NIGHT_MIST,NIGHT_MIST,NIGHT_MIST,NIGHT_MIST,NIGHT_MIST,MIST,MIST,MIST,MIST,MIST","Offshore,Offshore,Offshore,Cross-shore,Cross-shore,Offshore,Offshore,Cross-shore,Cross-shore,Cross-shore",10
5842041f4e65fad6a7708a7d,2024_03_08,32.14365226036034,-80.74402,Hilton Head Island,1,0,0.201,15,15,"NIGHT_MOSTLY_CLOUDY,NIGHT_OVERCAST,NIGHT_CLEAR,NIGHT_CLEAR,NIGHT_CLEAR,MIST,MIST,CLEAR,OVERCAST,OVERCAST","Cross-shore,Cross-shore,Cross-shore,Onshore,Onshore,Onshore,Cross-shore,Cross-shore,Cross-shore,Cross-shore",10
5842041f4e65fad6a7708a7e,2024_03_08,29.70405364733744,-81.22426004725459,Matanzas Inlet,2,0.28500000000000003,0.591,17,17,"NIGHT_MIST,NIGHT_MIST,NIGHT_MIST,NIGHT_FOG,NIGHT_FOG,FOG,MOSTLY_CLEAR,MOSTLY_CLOUDY,MOSTLY_CLOUDY,MOSTLY_CLOUDY","Cross-shore,Onshore,Onshore,Onshore,Onshore,Onshore,Onshore,Onshore,Onshore,Onshore",10
5842041f4e65fad6a7708a81,2024_03_08,29.76878537149042,-81.25109,Crescent Beach,2,0.333,0.637,17,17,"NIGHT_MOSTLY_CLOUDY,NIGHT_CLEAR,NIGHT_CLEAR,NIGHT_FOG,NIGHT_FOG,FOG,MIST,MOSTLY_CLEAR,MOSTLY_CLOUDY,MOSTLY_CLOUDY","Cross-shore,Onshore,Onshore,Onshore,Onshore,Onshore,Onshore,Onshore,Onshore,Onshore",10
5842041f4e65fad6a7708a82,2024_03_08,32.80251718689188,-79.73221919500764,Wild Dunes,1.4,0.493,0.796,14,14,"NIGHT_CLEAR,NIGHT_MOSTLY_CLEAR,NIGHT_MOSTLY_CLOUDY,NIGHT_MIST,NIGHT_CLOUDY,CLOUDY,MIST,MIST,MIST,CLOUDY","Cross-shore,Cross-shore,Cross-shore,Cross-shore,Cross-shore,Cross-shore,Cross-shore,Cross-shore,Cross-shore,Cross-shore",10
5842041f4e65fad6a7708a84,2024_03_08,32.75733539419244,-79.83258856064796,Bert's Bar,1.4,0.177,0.482,14,14,"NIGHT_MIST,NIGHT_MIST,NIGHT_MOSTLY_CLOUDY,NIGHT_MOSTLY_CLOUDY,NIGHT_MIST,BRIEF_SHOWERS,OVERCAST,OVERCAST,DRIZZLE,OVERCAST","Cross-shore,Cross-shore,Cross-shore,Cross-shore,Cross-shore,Cross-shore,Cross-shore,Cross-shore,Cross-shore,Cross-shore",10
5842041f4e65fad6a7708a85,2024_03_08,32.66829212943039,-79.90735,Washout,1.467,0.3423963636363636,0.6479054545454546,16,14,"NIGHT_CLEAR,NIGHT_CLEAR,NIGHT_MOSTLY_CLOUDY,NIGHT_CLEAR,NIGHT_MOSTLY_CLOUDY,MOSTLY_CLOUDY,MOSTLY_CLOUDY,BRIEF_SHOWERS,MOSTLY_CLOUDY,OVERCAST","Cross-shore,Cross-shore,Cross-shore,Cross-shore,Cross-shore,Cross-shore,Cross-shore,Cross-shore,Cross-shore,Cross-shore",10
5842041f4e65fad6a7708a86,2024_03_08,32.78452968219067,-79.78540233488354,The Pier/Windjammer,1.7,0.503,0.81,14,14,"NIGHT_MIST,NIGHT_MIST,NIGHT_MIST,NIGHT_MIST,NIGHT_MIST,OVERCAST,OVERCAST,MIST,OVERCAST,OVERCAST","Cross-shore,Cross-shore,Cross-shore,Cross-shore,Cross-shore,Cross-shore,Cross-shore,Cross-shore,Cross-shore,Cross-shore",10
5842041f4e65fad6a7708a87,2024_03_08,29.86618162637438,-81.2662150259608,Anastasia Park (The Entrance),1.9,0.247,0.551,17,17,"NIGHT_CLEAR,NIGHT_CLEAR,NIGHT_MOSTLY_CLOUDY,NIGHT_MIST,NIGHT_MIST,MIST,MIST,CLEAR,CLEAR,MIST","Cross-shore,Onshore,Onshore,Onshore,Onshore,Onshore,Onshore,Onshore,Onshore,Onshore",10
5842041f4e65fad6a7708a89,2024_03_08,29.89149785916623,-81.2723223244215,Blowholes,1.567,0.3081966666666667,0.6147266666666666,23,21,"NIGHT_MIST,NIGHT_MIST,NIGHT_MIST,NIGHT_MIST,NIGHT_MIST,MIST,MIST,MOSTLY_CLEAR,CLEAR,MIST","Cross-shore,Onshore,Onshore,Onshore,Onshore,Onshore,Onshore,Onshore,Onshore,Onshore",10
5842041f4e65fad6a7708a8a,2024_03_08,30.16227112983666,-81.35502907491218,Crossroads,1.567,0.36194666666666664,0.6634766666666667,23,21,"NIGHT_MIST,NIGHT_MIST,NIGHT_BRIEF_SHOWERS_POSSIBLE,NIGHT_MIST,NIGHT_MIST,MIST,MIST,MIST,MIST,MIST","Cross-shore,Cross-shore,Cross-shore,Onshore,Onshore,Onshore,Onshore,Onshore,Onshore,Onshore",10
5842041f4e65fad6a7708a8b,2024_03_08,30.19308537587637,-81.36314247820911,Sawgrass,1.567,0.37753000000000003,0.6849766666666667,23,21,"NIGHT_CLEAR,NIGHT_CLEAR,NIGHT_CLEAR,NIGHT_MIST,NIGHT_DRIZZLE,CLOUDY,MOSTLY_CLOUDY,OVERCAST,MOSTLY_CLOUDY,MOSTLY_CLOUDY","Cross-shore,Cross-shore,Cross-shore,Onshore,Onshore,Onshore,Onshore,Onshore,Onshore,Onshore",10
5842041f4e65fad6a7708a8c,2024_03_08,30.34696027700899,-81.39451,18th Street,2,0.6017710000000001,0.94027,17,17,"NIGHT_MIST,NIGHT_MIST,NIGHT_MIST,NIGHT_MIST,NIGHT_CLEAR,MIST,MIST,MIST,MIST,MIST","Onshore,Cross-shore,Onshore,Onshore,Onshore,Onshore,Onshore,Onshore,Onshore,Onshore",10
5842041f4e65fad6a7708a8d,2024_03_08,30.381793,-81.39686,Mayport Poles,1.9,0.505,0.809,17,17,"NIGHT_MIST,NIGHT_MIST,NIGHT_MOSTLY_CLOUDY,NIGHT_MIST,NIGHT_MOSTLY_CLOUDY,MIST,MOSTLY_CLOUDY,OVERCAST,CLOUDY,CLEAR","Cross-shore,Cross-shore,Cross-shore,Onshore,Onshore,Onshore,Onshore,Onshore,Onshore,Onshore",10
5842041f4e65fad6a7708a8e,2024_03_08,30.390516,-81.395591,Blue Roofs,2,0.471,0.778,17,17,"NIGHT_MIST,NIGHT_MIST,NIGHT_MIST,NIGHT_MIST,NIGHT_MOSTLY_CLOUDY,MIST,MOSTLY_CLOUDY,OVERCAST,CLOUDY,CLEAR","Cross-shore,Cross-shore,Onshore,Onshore,Onshore,Onshore,Onshore,Onshore,Onshore,Onshore",10
5842041f4e65fad6a7708a8f,2024_03_08,30.40517712722211,-81.40074116169004,Huguenot Park (North Jetty),2,0.414,0.72,17,17,"NIGHT_MIST,NIGHT_MIST,NIGHT_MOSTLY_CLOUDY,NIGHT_MIST,NIGHT_MOSTLY_CLOUDY,MIST,MOSTLY_CLOUDY,OVERCAST,CLOUDY,CLEAR","Onshore,Onshore,Onshore,Onshore,Onshore,Onshore,Onshore,Onshore,Onshore,Onshore",10
5842041f4e65fad6a7708a90,2024_03_08,30.47788918872762,-81.41055821335078,Talbot Island,1.937,0.4864255666666667,0.7925978166666666,17.2,16,"NIGHT_CLEAR,NIGHT_CLEAR,NIGHT_MOSTLY_CLOUDY,NIGHT_MIST,NIGHT_MOSTLY_CLOUDY,CLEAR,MOSTLY_CLOUDY,OVERCAST,CLOUDY,MOSTLY_CLOUDY","Cross-shore,Cross-shore,Onshore,Onshore,Onshore,Onshore,Onshore,Onshore,Onshore,Onshore",10
5842041f4e65fad6a7708a91,2024_03_08,30.66753984549761,-81.42983,Main Beach,1.7,0.509,0.816,17,17,"NIGHT_MIST,NIGHT_MIST,NIGHT_MIST,NIGHT_MOSTLY_CLOUDY,NIGHT_MOSTLY_CLOUDY,CLEAR,MIST,MIST,MIST,MOSTLY_CLOUDY","Cross-shore,Cross-shore,Cross-shore,Onshore,Cross-shore,Onshore,Onshore,Onshore,Cross-shore,Onshore",10
5842041f4e65fad6a7708a92,2024_03_08,30.69983581209126,-81.42483,Ft. Clinch State Park,1.7,0.689,0.995,17,17,"NIGHT_MIST,NIGHT_MIST,NIGHT_MIST,NIGHT_CLEAR,NIGHT_MOSTLY_CLOUDY,MOSTLY_CLOUDY,BRIEF_SHOWERS,MIST,MIST,MOSTLY_CLOUDY","Onshore,Onshore,Cross-shore,Onshore,Onshore,Onshore,Onshore,Onshore,Cross-shore,Onshore",10
5842041f4e65fad6a7708a93,2024_03_08,30.62059700777582,-81.437252942757425,Amelia Pier,1.8,0.423,0.729,17,17,"NIGHT_MOSTLY_CLOUDY,NIGHT_MOSTLY_CLOUDY,NIGHT_OVERCAST,NIGHT_MOSTLY_CLOUDY,NIGHT_CLEAR,MOSTLY_CLOUDY,MOSTLY_CLOUDY,MOSTLY_CLOUDY,OVERCAST,MOSTLY_CLOUDY","Cross-shore,Onshore,Cross-shore,Onshore,Onshore,Onshore,Onshore,Onshore,Onshore,Onshore",10
5842041f4e65fad6a7708a95,2024_03_08,28.95125170929067,-80.83837,Bethune Beach,1.7,0.46499999999999997,0.768,18.5,18.5,"NIGHT_CLEAR,NIGHT_MOSTLY_CLEAR,NIGHT_MIST,NIGHT_DRIZZLE,NIGHT_BRIEF_SHOWERS,BRIEF_SHOWERS,MIST,MIST,MIST,BRIEF_SHOWERS","Onshore,Onshore,Onshore,Onshore,Onshore,Onshore,Onshore,Onshore,Onshore,Onshore",10
5842041f4e65fad6a7708a96,2024_03_08,29.03874288905362,-80.8933424949646,Flagler Ave.,1.8,0.43483333333333335,0.7428333333333333,23,22,"NIGHT_CLEAR,NIGHT_MOSTLY_CLEAR,NIGHT_MOSTLY_CLOUDY,NIGHT_CLOUDY,NIGHT_BRIEF_SHOWERS,CLEAR,MIST,MIST,MOSTLY_CLOUDY,BRIEF_SHOWERS","Onshore,Onshore,Onshore,Onshore,Onshore,Onshore,Onshore,Onshore,Onshore,Onshore",10
5842041f4e65fad6a7708a98,2024_03_08,30.332297686992757,-81.39319,Atlantic Beach,1.9,0.5758300000000001,0.899734,17,17,"NIGHT_MIST,NIGHT_MIST,NIGHT_MIST,NIGHT_MIST,NIGHT_CLEAR,MIST,MIST,MIST,MIST,MIST","Onshore,Cross-shore,Cross-shore,Onshore,Onshore,Onshore,Onshore,Onshore,Onshore,Onshore",10
5842041f4e65fad6a7708a99,2024_03_08,29.87530059952514,-81.26757958498874,Middles,1.55,0.2766966666666667,0.58331,23,21,"NIGHT_MIST,NIGHT_MIST,NIGHT_MIST,NIGHT_MIST,NIGHT_MIST,MIST,MIST,MOSTLY_CLEAR,CLEAR,MIST","Cross-shore,Onshore,Onshore,Onshore,Onshore,Onshore,Onshore,Onshore,Onshore,Onshore",10
5842041f4e65fad6a7708a9a,2024_03_08,29.146475528378218,-80.96347,Sunglow Pier,2,0.40800000000000003,0.713,18,18,"NIGHT_MIST,NIGHT_MIST,NIGHT_MIST,NIGHT_CLOUDY,NIGHT_CLOUDY,MIST,SHOWERS,MIST,MIST,SHOWERS","Onshore,Onshore,Onshore,Onshore,Onshore,Onshore,Onshore,Onshore,Onshore,Onshore",10
5842041f4e65fad6a7708a9b,2024_03_08,30.02251238001095,-81.32183077344881,Gate Station,1.567,0.30503,0.6096433333333333,23,21,"NIGHT_CLEAR,NIGHT_CLEAR,NIGHT_CLEAR,NIGHT_FOG,NIGHT_FOG,MIST,MOSTLY_CLOUDY,CLEAR,CLEAR,MOSTLY_CLOUDY","Cross-shore,Cross-shore,Onshore,Onshore,Onshore,Onshore,Onshore,Onshore,Onshore,Onshore",10
5842041f4e65fad6a7708a9c,2024_03_08,29.33976495417899,-81.0606,Bicentennial Park,2,0.352,0.656,17.5,17.5,"NIGHT_MIST,NIGHT_LIGHT_RAIN,NIGHT_SHOWERS,NIGHT_MIST,NIGHT_CLOUDY,OVERCAST,CLOUDY,BRIEF_SHOWERS_POSSIBLE,MIST,MIST","Onshore,Onshore,Onshore,Onshore,Onshore,Onshore,Onshore,Onshore,Onshore,Onshore",10
5842041f4e65fad6a7708a9d,2024_03_08,29.08257353385602,-80.92136998257725,Ponce Inlet,2.517,0.6049666666666667,0.9885666666666667,19,17,"NIGHT_MOSTLY_CLEAR,NIGHT_CLEAR,NIGHT_MOSTLY_CLOUDY,NIGHT_OVERCAST,NIGHT_BRIEF_SHOWERS,MOSTLY_CLOUDY,MOSTLY_CLOUDY,MIST,MOSTLY_CLOUDY,MIST","Onshore,Onshore,Onshore,Onshore,Onshore,Onshore,Onshore,Onshore,Onshore,Onshore",10
5842041f4e65fad6a7708a9f,2024_03_08,27.862962005874696,-80.44668,Sebastian Inlet,2,0.6089921666666667,0.9795724166666666,21,21,"NIGHT_MIST,NIGHT_MIST,NIGHT_MIST,NIGHT_MIST,NIGHT_MIST,CLOUDY,OVERCAST,OVERCAST,OVERCAST,MIST","Onshore,Onshore,Onshore,Onshore,Onshore,Onshore,Onshore,Onshore,Onshore,Onshore",10
5842041f4e65fad6a7708aa0,2024_03_08,30.292626880836885,-81.38579,Jacksonville Beach Pier,1.97,0.48477800000000004,0.790178,17.2,16,"NIGHT_MIST,NIGHT_MIST,NIGHT_MIST,NIGHT_MIST,NIGHT_MOSTLY_CLOUDY,MOSTLY_CLOUDY,CLOUDY,OVERCAST,OVERCAST,MOSTLY_CLOUDY","Onshore,Onshore,Onshore,Onshore,Onshore,Onshore,Onshore,Onshore,Onshore,Onshore",10
5842041f4e65fad6a7708aa1,2024_03_08,29.22878213864532,-81.00551,Main Street North,2,0.528913,0.697907,18,18,"NIGHT_FOG,NIGHT_FOG,NIGHT_MOSTLY_CLOUDY,NIGHT_FOG,NIGHT_OVERCAST,OVERCAST,MOSTLY_CLOUDY,CLEAR,CLEAR,MOSTLY_CLOUDY","Onshore,Onshore,Onshore,Onshore,Onshore,Onshore,Onshore,Onshore,Onshore,Onshore",10
5842041f4e65fad6a7708aa2,2024_03_08,29.21860397328164,-81.0019,Daytona Beach,2,0.384,0.6910000000000001,18,18,"NIGHT_FOG,NIGHT_FOG,NIGHT_MOSTLY_CLOUDY,NIGHT_FOG,NIGHT_OVERCAST,OVERCAST,MOSTLY_CLOUDY,CLEAR,CLEAR,MOSTLY_CLOUDY","Onshore,Onshore,Onshore,Onshore,Onshore,Onshore,Onshore,Onshore,Onshore,Onshore",10
5842041f4e65fad6a7708aa3,2024_03_08,27.47531255634912,-80.28914,Ft. Pierce Inlet,2.375,0.6050166666666666,0.9811066666666667,23,22,"NIGHT_CLEAR,NIGHT_CLEAR,NIGHT_CLEAR,NIGHT_OVERCAST,NIGHT_MIST,OVERCAST,CLEAR,OVERCAST,MOSTLY_CLOUDY,CLEAR","Onshore,Onshore,Onshore,Cross-shore,Offshore,Offshore,Offshore,Onshore,Onshore,Onshore",10
5842041f4e65fad6a7708aa4,2024_03_08,29.29239875585548,-81.0386,Ormond Beach,2,0.481,0.788,17.5,17.5,"NIGHT_MOSTLY_CLOUDY,NIGHT_HEAVY_SHOWERS,NIGHT_BRIEF_SHOWERS,NIGHT_FOG,NIGHT_DRIZZLE,OVERCAST,DRIZZLE,MOSTLY_CLEAR,CLEAR,MOSTLY_CLOUDY","Onshore,Onshore,Onshore,Onshore,Onshore,Onshore,Onshore,Onshore,Onshore,Onshore",10
5842041f4e65fad6a7708aa5,2024_03_08,29.91629441498523,-81.28801,Vilano,1.6,0.295,0.598,17,17,"NIGHT_MIST,NIGHT_MIST,NIGHT_MIST,NIGHT_MIST,NIGHT_MIST,MIST,MIST,CLEAR,MOSTLY_CLOUDY,MIST","Cross-shore,Cross-shore,Onshore,Onshore,Onshore,Onshore,Onshore,Onshore,Onshore,Onshore",10
5842041f4e65fad6a7708aa6,2024_03_08,27.876230736320828,-80.4551,Spanish House,2.55,0.72957,1.03498,21,20,"NIGHT_MIST,NIGHT_MIST,NIGHT_MIST,NIGHT_MIST,NIGHT_MIST,MIST,OVERCAST,CLOUDY,OVERCAST,MIST","Onshore,Onshore,Onshore,Onshore,Onshore,Onshore,Onshore,Onshore,Onshore,Onshore",10
5842041f4e65fad6a7708aa7,2024_03_08,28.64397251741012,-80.62328519781694,Playalinda,2.6,0.61,0.915,19,19,"NIGHT_MOSTLY_CLOUDY,NIGHT_MOSTLY_CLEAR,NIGHT_MIST,NIGHT_FOG,NIGHT_MOSTLY_CLOUDY,MOSTLY_CLOUDY,CLEAR,MIST,BRIEF_SHOWERS,MIST","Onshore,Onshore,Onshore,Onshore,Onshore,Onshore,Onshore,Onshore,Onshore,Onshore",10
5842041f4e65fad6a7708aa8,2024_03_08,28.406142,-80.588858,Jetty Park,2,0.286,0.591,19.5,19.5,"NIGHT_MOSTLY_CLOUDY,NIGHT_CLEAR,NIGHT_CLEAR,NIGHT_CLEAR,NIGHT_MIST,MOSTLY_CLOUDY,CLEAR,MOSTLY_CLEAR,MIST,MIST","Onshore,Onshore,Cross-shore,Onshore,Cross-shore,Cross-shore,Onshore,Onshore,Onshore,Onshore",10
5842041f4e65fad6a7708aa9,2024_03_08,28.49083243010974,-80.58001715986319,Kennedy Space Center,2,0.588,0.892,19.5,19.5,"NIGHT_CLEAR,NIGHT_CLEAR,NIGHT_MIST,NIGHT_BRIEF_SHOWERS,NIGHT_MIST,CLEAR,CLEAR,CLEAR,MOSTLY_CLOUDY,MIST","Onshore,Onshore,Onshore,Onshore,Onshore,Onshore,Onshore,Onshore,Onshore,Onshore",10
5842041f4e65fad6a7708aab,2024_03_08,28.336757013024314,-80.60568,Lori Wilson Park,2.55,0.68432,1.05256,21,20,"NIGHT_CLEAR,NIGHT_MIST,NIGHT_MIST,NIGHT_MIST,NIGHT_MIST,MOSTLY_CLOUDY,MOSTLY_CLOUDY,MOSTLY_CLOUDY,MOSTLY_CLOUDY,CLEAR","Onshore,Onshore,Onshore,Onshore,Onshore,Onshore,Onshore,Onshore,Onshore,Onshore",10
5842041f4e65fad6a7708aad,2024_03_08,27.76388821683801,-80.3962958234027,Wabasso,3,0.692,1,22,22,"NIGHT_MIST,NIGHT_MIST,NIGHT_FOG,NIGHT_OVERCAST,NIGHT_OVERCAST,OVERCAST,OVERCAST,OVERCAST,OVERCAST,CLEAR","Onshore,Onshore,Cross-shore,Cross-shore,Onshore,Onshore,Onshore,Onshore,Onshore,Onshore",10
5842041f4e65fad6a7708aae,2024_03_08,27.521583322459,-80.30987620353699,P.V. Martin's,2.35,0.56532,0.94006,22,21,"NIGHT_CLEAR,NIGHT_CLEAR,NIGHT_MOSTLY_CLOUDY,NIGHT_MIST,NIGHT_OVERCAST,OVERCAST,OVERCAST,DRIZZLE,MOSTLY_CLOUDY,CLEAR","Offshore,Cross-shore,Cross-shore,Cross-shore,Cross-shore,Offshore,Offshore,Cross-shore,Cross-shore,Onshore",10
5842041f4e65fad6a7708aaf,2024_03_08,27.644996047720046,-80.35242676734924,Riomar,2,0.56832,0.94006,22,21,"NIGHT_CLEAR,NIGHT_CLEAR,NIGHT_OVERCAST,NIGHT_OVERCAST,NIGHT_MIST,MIST,OVERCAST,OVERCAST,CLOUDY,MIST","Onshore,Onshore,Cross-shore,Cross-shore,Cross-shore,Cross-shore,Cross-shore,Cross-shore,Cross-shore,Onshore",10
5842041f4e65fad6a7708ab1,2024_03_08,27.670121806659253,-80.36026954650879,Vero Pier,2.6,0.7848200000000001,1.15856,22,21,"NIGHT_MIST,NIGHT_MIST,NIGHT_MIST,NIGHT_OVERCAST,NIGHT_OVERCAST,MIST,OVERCAST,OVERCAST,OVERCAST,CLEAR","Cross-shore,Onshore,Onshore,Cross-shore,Cross-shore,Cross-shore,Onshore,Onshore,Onshore,Onshore",10
5842041f4e65fad6a7708ab2,2024_03_08,28.047705032021486,-80.54680109024048,Spessard Holland,2,0.7118220000000001,1.0537583333333334,21,20,"NIGHT_MIST,NIGHT_BRIEF_SHOWERS,NIGHT_MIST,NIGHT_DRIZZLE,NIGHT_MIST,MIST,BRIEF_SHOWERS,MIST,MOSTLY_CLOUDY,MIST","Cross-shore,Cross-shore,Onshore,Onshore,Onshore,Onshore,Cross-shore,Cross-shore,Onshore,Onshore",10
5842041f4e65fad6a7708ab7,2024_03_08,28.135426226217064,-80.57895541191101,The Radisson,2.6,0.74882,1.06206,21,20,"NIGHT_MIST,NIGHT_MIST,NIGHT_MIST,NIGHT_MIST,NIGHT_DRIZZLE,MOSTLY_CLOUDY,CLEAR,MOSTLY_CLOUDY,MOSTLY_CLOUDY,CLEAR","Onshore,Cross-shore,Cross-shore,Onshore,Onshore,Onshore,Onshore,Onshore,Onshore,Onshore",10
5842041f4e65fad6a7708ab8,2024_03_08,28.26664623907351,-80.60448467731476,Picnic Tables,3,0.854,1.1589999999999998,20,20,"NIGHT_CLEAR,NIGHT_MOSTLY_CLEAR,NIGHT_FOG,NIGHT_MOSTLY_CLOUDY,NIGHT_MOSTLY_CLOUDY,MOSTLY_CLOUDY,MOSTLY_CLOUDY,MOSTLY_CLOUDY,CLEAR,CLEAR","Onshore,Onshore,Onshore,Onshore,Onshore,Onshore,Onshore,Onshore,Onshore,Offshore",10
5842041f4e65fad6a7708ab9,2024_03_08,28.200840983180232,-80.59493,Perkins,2.6,0.94032,1.16848,21,20,"NIGHT_MOSTLY_CLEAR,NIGHT_MOSTLY_CLEAR,NIGHT_MOSTLY_CLEAR,NIGHT_MOSTLY_CLOUDY,NIGHT_MOSTLY_CLOUDY,MIST,MOSTLY_CLOUDY,MOSTLY_CLOUDY,MOSTLY_CLOUDY,CLEAR","Onshore,Onshore,Onshore,Onshore,Onshore,Onshore,Onshore,Onshore,Onshore,Offshore",10
5842041f4e65fad6a7708aba,2024_03_08,28.185652556759443,-80.59154,RC's,2.716,0.73543,1.1270900000000001,21,20,"NIGHT_MOSTLY_CLEAR,NIGHT_MOSTLY_CLEAR,NIGHT_MOSTLY_CLOUDY,NIGHT_MIST,NIGHT_FOG,FOG,MOSTLY_CLOUDY,MOSTLY_CLOUDY,CLEAR,CLEAR","Cross-shore,Onshore,Cross-shore,Cross-shore,Cross-shore,Cross-shore,Cross-shore,Onshore,Onshore,Onshore",10
5842041f4e65fad6a7708abc,2024_03_08,28.252541991968208,-80.60269,2nd Light,3,0.812,1.119,20,20,"NIGHT_CLEAR,NIGHT_MOSTLY_CLEAR,NIGHT_MOSTLY_CLEAR,NIGHT_MOSTLY_CLOUDY,NIGHT_MOSTLY_CLOUDY,MOSTLY_CLOUDY,MOSTLY_CLOUDY,MOSTLY_CLOUDY,CLEAR,CLEAR","Onshore,Onshore,Onshore,Onshore,Onshore,Onshore,Onshore,Onshore,Onshore,Cross-shore",10
5842041f4e65fad6a7708abd,2024_03_08,27.901611308716447,-80.4697,Bonsteel Park,2.6,0.65582,0.96123,21,20,"NIGHT_MIST,NIGHT_MIST,NIGHT_MIST,NIGHT_MIST,NIGHT_MIST,OVERCAST,OVERCAST,MIST,MIST,MIST","Onshore,Onshore,Onshore,Onshore,Onshore,Onshore,Onshore,Onshore,Onshore,Onshore",10
5842041f4e65fad6a7708abe,2024_03_08,28.2423394657007,-80.60104,Hangar's Beach,2.6,0.8573200000000001,1.03298,21,20,"NIGHT_MIST,NIGHT_MOSTLY_CLEAR,NIGHT_MOSTLY_CLOUDY,NIGHT_MIST,NIGHT_MOSTLY_CLOUDY,MOSTLY_CLOUDY,MOSTLY_CLOUDY,MOSTLY_CLOUDY,CLEAR,CLEAR","Onshore,Onshore,Onshore,Onshore,Onshore,Onshore,Onshore,Onshore,Onshore,Onshore",10
5842041f4e65fad6a7708abf,2024_03_08,27.34018197146798,-80.23278,Walton Rocks,1.967,0.6039,0.9121,23,22,"NIGHT_MOSTLY_CLOUDY,NIGHT_MIST,NIGHT_MIST,NIGHT_MOSTLY_CLOUDY,NIGHT_MOSTLY_CLOUDY,MOSTLY_CLOUDY,MOSTLY_CLOUDY,MOSTLY_CLOUDY,MOSTLY_CLOUDY,MIST","Offshore,Cross-shore,Cross-shore,Offshore,Offshore,Cross-shore,Cross-shore,Cross-shore,Cross-shore,Onshore",10
5842041f4e65fad6a7708ac0,2024_03_08,25.80407401902198,-80.1222227290161,30th Street,1,0,0.252,25,25,"NIGHT_CLEAR,NIGHT_CLEAR,NIGHT_CLEAR,NIGHT_MOSTLY_CLOUDY,NIGHT_MOSTLY_CLOUDY,CLOUDY,MOSTLY_CLOUDY,MOSTLY_CLOUDY,MOSTLY_CLOUDY,CLOUDY","Offshore,Offshore,Offshore,Cross-shore,Offshore,Offshore,Offshore,Cross-shore,Onshore,Onshore",10
5842041f4e65fad6a7708ac1,2024_03_08,25.76570280215999,-80.12983304957051,South Beach,0,0,0.15373333333333333,25,23,"NIGHT_CLEAR,NIGHT_CLEAR,NIGHT_CLEAR,NIGHT_MOSTLY_CLOUDY,NIGHT_CLEAR,CLEAR,CLEAR,CLEAR,CLEAR,MOSTLY_CLOUDY","Offshore,Offshore,Offshore,Cross-shore,Offshore,Offshore,Offshore,Onshore,Onshore,Cross-shore",10
5842041f4e65fad6a7708ac2,2024_03_08,26.058022412197,-80.10873562327671,Dania Pier,2,0.048,0.353,25,25,"NIGHT_MIST,NIGHT_MIST,NIGHT_MIST,NIGHT_MIST,NIGHT_MIST,MIST,MIST,CLOUDY,CLOUDY,CLEAR","Offshore,Offshore,Offshore,Offshore,Offshore,Offshore,Offshore,Offshore,Cross-shore,Onshore",10
5842041f4e65fad6a7708ac3,2024_03_08,26.04825428257198,-80.11153150137932,Franklin Street,1,0,0.294,25,25,"NIGHT_MIST,NIGHT_MIST,NIGHT_MIST,NIGHT_MIST,NIGHT_MIST,MIST,MIST,CLOUDY,CLOUDY,CLEAR","Offshore,Offshore,Offshore,Cross-shore,Offshore,Offshore,Offshore,Offshore,Cross-shore,Onshore",10
5842041f4e65fad6a7708ac4,2024_03_08,26.09086461141498,-80.10728410144065,John Lloyd State Park,1,0,0.286,25,25,"NIGHT_MIST,NIGHT_MIST,NIGHT_MIST,NIGHT_MIST,NIGHT_MIST,MIST,MIST,MOSTLY_CLOUDY,CLOUDY,CLEAR","Offshore,Offshore,Offshore,Cross-shore,Offshore,Offshore,Offshore,Offshore,Cross-shore,Onshore",10
5842041f4e65fad6a7708ac5,2024_03_08,26.0971397396683,-80.10298876028907,Spoils,1,0.042,0.346,25,25,"NIGHT_CLEAR,NIGHT_CLEAR,NIGHT_MIST,NIGHT_MIST,NIGHT_MIST,MIST,MIST,CLEAR,CLEAR,CLEAR","Cross-shore,Offshore,Offshore,Cross-shore,Offshore,Offshore,Offshore,Offshore,Onshore,Onshore",10
5842041f4e65fad6a7708ac6,2024_03_08,26.18920557475824,-80.09224470008016,Commercial Pier,2,0.114,0.42,25,25,"NIGHT_CLEAR,NIGHT_CLEAR,NIGHT_MIST,NIGHT_MIST,NIGHT_MIST,MIST,MIST,MOSTLY_CLOUDY,MOSTLY_CLOUDY,CLEAR","Cross-shore,Offshore,Offshore,Cross-shore,Offshore,Offshore,Offshore,Offshore,Cross-shore,Onshore",10
5842041f4e65fad6a7708ac7,2024_03_08,28.289851576629342,-80.6063,16th St. South,2.583,0.5740700000000001,0.94806,21,20,"NIGHT_CLEAR,NIGHT_MIST,NIGHT_MOSTLY_CLEAR,NIGHT_MOSTLY_CLOUDY,NIGHT_MOSTLY_CLOUDY,MOSTLY_CLOUDY,MOSTLY_CLOUDY,MOSTLY_CLOUDY,CLEAR,MOSTLY_CLEAR","Onshore,Onshore,Onshore,Onshore,Onshore,Onshore,Onshore,Onshore,Onshore,Cross-shore",10
5842041f4e65fad6a7708ac8,2024_03_08,26.23467460139735,-80.08739675534814,Pompano Pier,0.5,0,0.15684,25,23,"NIGHT_CLEAR,NIGHT_CLEAR,NIGHT_MIST,NIGHT_MIST,NIGHT_MIST,MIST,MIST,CLEAR,CLEAR,CLEAR","Cross-shore,Offshore,Offshore,Cross-shore,Offshore,Offshore,Offshore,Offshore,Cross-shore,Onshore",10
5842041f4e65fad6a7708acb,2024_03_08,26.44179551370651,-80.05928855229453,Atlantic Dunes Park,0,-0.0014759999999999968,0.15192400000000003,25,23,"NIGHT_MIST,NIGHT_MIST,NIGHT_MIST,NIGHT_MIST,NIGHT_MIST,MIST,MIST,CLEAR,CLEAR,CLEAR","Offshore,Offshore,Offshore,Cross-shore,Offshore,Offshore,Offshore,Offshore,Onshore,Onshore",10
