_id,date,lat,lon,name,daily_mean_swell_rating,daily_mean_wave_height_min,daily_mean_wave_height_max,daily_mean_water_temperature_max,daily_mean_water_temperature_min,weather_per_timestamp,wind_per_timestamp,n_samples_per_day
5842041f4e65fad6a77087f9,2024_02_17,37.741668,-122.51038,South Ocean Beach,3.166923076923077,1.1052307692307692,1.5022179487179488,14,14,"CLEAR,CLEAR,CLEAR,NIGHT_CLEAR,NIGHT_CLEAR,NIGHT_CLEAR,NIGHT_CLEAR,NIGHT_CLEAR,NIGHT_CLOUDY,NIGHT_CLOUDY,NIGHT_CLOUDY,NIGHT_CLEAR,NIGHT_OVERCAST","Offshore,Cross-shore,Cross-shore,Offshore,Offshore,Offshore,Offshore,Offshore,Offshore,Offshore,Offshore,Offshore,Offshore",13
5842041f4e65fad6a7708801,2024_02_17,37.49142,-122.50428,Maverick's,NA,1.343846153846154,1.5792307692307692,13,13,"MIST,CLEAR,MIST,NIGHT_CLEAR,NIGHT_CLEAR,NIGHT_CLEAR,NIGHT_CLOUDY,NIGHT_CLOUDY,NIGHT_CLOUDY,NIGHT_OVERCAST,NIGHT_MOSTLY_CLOUDY,NIGHT_CLEAR,NIGHT_OVERCAST","Onshore,Onshore,Onshore,Cross-shore,Onshore,Onshore,Onshore,Onshore,Onshore,Onshore,Onshore,Onshore,Onshore",13
5842041f4e65fad6a7708804,2024_02_17,44.997,-124.018,Roads End,3.6923076923076925,1.8746153846153846,2.2153846153846155,11,11,"CLEAR,CLEAR,CLEAR,NIGHT_CLEAR,NIGHT_OVERCAST,NIGHT_CLOUDY,NIGHT_CLEAR,NIGHT_CLEAR,NIGHT_CLEAR,NIGHT_CLEAR,NIGHT_CLEAR,NIGHT_CLEAR,NIGHT_MOSTLY_CLOUDY","Offshore,Offshore,Offshore,Offshore,Offshore,Offshore,Offshore,Offshore,Offshore,Offshore,Offshore,Offshore,Offshore",13
5842041f4e65fad6a7708805,2024_02_17,36.95188851423011,-122.02522,Steamer Lane,3.1415384615384614,0.8046538461538462,1.1524999999999999,14,14,"CLEAR,CLEAR,CLEAR,NIGHT_MIST,NIGHT_CLEAR,NIGHT_CLEAR,NIGHT_MIST,NIGHT_MIST,NIGHT_OVERCAST,NIGHT_MOSTLY_CLOUDY,NIGHT_MIST,NIGHT_MIST,NIGHT_CLEAR","Onshore,Cross-shore,Onshore,Onshore,Offshore,Cross-shore,Cross-shore,Cross-shore,Offshore,Offshore,Offshore,Offshore,Offshore",13
5842041f4e65fad6a7708806,2024_02_17,36.95918781542251,-122.02489,Cowells,1.4492307692307693,0.04032051282051282,0.31758974358974357,14,14,"CLEAR,CLEAR,CLEAR,NIGHT_MIST,NIGHT_CLEAR,NIGHT_CLEAR,NIGHT_MIST,NIGHT_MIST,NIGHT_OVERCAST,NIGHT_MOSTLY_CLOUDY,NIGHT_MIST,NIGHT_MIST,NIGHT_CLEAR","Cross-shore,Cross-shore,Cross-shore,Cross-shore,Cross-shore,Onshore,Offshore,Cross-shore,Cross-shore,Cross-shore,Offshore,Cross-shore,Offshore",13
5842041f4e65fad6a7708807,2024_02_17,36.95468082526536,-121.97234,Pleasure Point,3.1415384615384614,0.6756538461538462,1.1097435897435899,14,14,"CLEAR,CLEAR,CLEAR,NIGHT_CLEAR,NIGHT_CLEAR,NIGHT_CLEAR,NIGHT_CLEAR,NIGHT_MIST,NIGHT_CLEAR,NIGHT_MOSTLY_CLOUDY,NIGHT_MOSTLY_CLOUDY,NIGHT_OVERCAST,NIGHT_CLEAR","Cross-shore,Cross-shore,Onshore,Onshore,Offshore,Offshore,Onshore,Onshore,Onshore,Onshore,Cross-shore,Onshore,Cross-shore",13
5842041f4e65fad6a770880a,2024_02_17,35.37815414378748,-120.86589,Morro Bay,3,0.7658153846153847,1.2077615384615386,14,14,"CLEAR,CLEAR,CLEAR,NIGHT_CLEAR,NIGHT_MIST,NIGHT_MOSTLY_CLOUDY,NIGHT_MOSTLY_CLOUDY,NIGHT_MOSTLY_CLOUDY,NIGHT_MIST,NIGHT_MOSTLY_CLOUDY,NIGHT_MOSTLY_CLOUDY,NIGHT_MIST,NIGHT_MIST","Onshore,Onshore,Onshore,Onshore,Cross-shore,Onshore,Offshore,Offshore,Offshore,Offshore,Offshore,Offshore,Offshore",13
5842041f4e65fad6a770880b,2024_02_17,36.95782765000708,-121.9672887511276,Jack's,2.230769230769231,0.26271794871794873,0.569025641025641,14,14,"CLEAR,CLEAR,CLEAR,NIGHT_CLEAR,NIGHT_CLEAR,NIGHT_CLEAR,NIGHT_CLEAR,NIGHT_MIST,NIGHT_CLEAR,NIGHT_MOSTLY_CLOUDY,NIGHT_MOSTLY_CLOUDY,NIGHT_OVERCAST,NIGHT_CLEAR","Cross-shore,Cross-shore,Onshore,Onshore,Offshore,Cross-shore,Onshore,Onshore,Onshore,Onshore,Onshore,Onshore,Cross-shore",13
5842041f4e65fad6a770880d,2024_02_17,34.29982939936656,-119.3489016603669,Gold Coast Beachbreaks,2,0.2169230769230769,0.52,15,15,"MOSTLY_CLEAR,OVERCAST,MIST,NIGHT_MIST,NIGHT_MIST,NIGHT_MIST,NIGHT_MIST,NIGHT_MOSTLY_CLOUDY,NIGHT_MOSTLY_CLOUDY,NIGHT_OVERCAST,NIGHT_OVERCAST,NIGHT_MOSTLY_CLOUDY,NIGHT_MOSTLY_CLOUDY","Onshore,Onshore,Onshore,Cross-shore,Cross-shore,Cross-shore,Cross-shore,Cross-shore,Cross-shore,Offshore,Offshore,Cross-shore,Offshore",13
5842041f4e65fad6a7708811,2024_02_17,34.245076,-119.26799,Ventura Harbor,2.7946153846153847,0.9017853846153846,1.3128711538461537,14,14,"CLEAR,OVERCAST,MOSTLY_CLOUDY,NIGHT_MIST,NIGHT_MIST,NIGHT_MIST,NIGHT_MIST,NIGHT_MOSTLY_CLOUDY,NIGHT_MOSTLY_CLOUDY,NIGHT_OVERCAST,NIGHT_OVERCAST,NIGHT_MOSTLY_CLOUDY,NIGHT_MOSTLY_CLOUDY","Onshore,Onshore,Onshore,Onshore,Onshore,Onshore,Cross-shore,Offshore,Offshore,Offshore,Offshore,Offshore,Offshore",13
5842041f4e65fad6a7708813,2024_02_17,34.051,-118.964,County Line,2.5384615384615383,0.4798307692307693,0.7857076923076923,15,15,"MOSTLY_CLOUDY,MOSTLY_CLOUDY,CLEAR,NIGHT_CLEAR,NIGHT_CLEAR,NIGHT_CLEAR,NIGHT_CLEAR,NIGHT_CLEAR,NIGHT_CLEAR,NIGHT_CLEAR,NIGHT_MOSTLY_CLOUDY,NIGHT_MOSTLY_CLOUDY,NIGHT_MOSTLY_CLOUDY","Onshore,Onshore,Onshore,Onshore,Onshore,Offshore,Offshore,Offshore,Cross-shore,Offshore,Offshore,Offshore,Offshore",13
5842041f4e65fad6a7708814,2024_02_17,34.37256264378892,-119.47797,Rincon,2,0.21307692307692308,0.5184615384615384,15,15,"CLEAR,CLEAR,CLEAR,NIGHT_MIST,NIGHT_MOSTLY_CLEAR,NIGHT_MOSTLY_CLOUDY,NIGHT_MIST,NIGHT_MOSTLY_CLOUDY,NIGHT_MOSTLY_CLOUDY,NIGHT_MOSTLY_CLOUDY,NIGHT_MOSTLY_CLOUDY,NIGHT_MOSTLY_CLOUDY,NIGHT_MOSTLY_CLOUDY","Cross-shore,Cross-shore,Cross-shore,Cross-shore,Cross-shore,Cross-shore,Cross-shore,Cross-shore,Onshore,Onshore,Onshore,Onshore,Onshore",13
5842041f4e65fad6a7708817,2024_02_17,34.03096101876324,-118.68109,Malibu Third Point,2,0.2592307692307692,0.5638461538461539,15,15,"MOSTLY_CLEAR,MOSTLY_CLOUDY,CLEAR,NIGHT_CLEAR,NIGHT_CLEAR,NIGHT_CLEAR,NIGHT_CLEAR,NIGHT_CLEAR,NIGHT_CLEAR,NIGHT_CLEAR,NIGHT_MOSTLY_CLOUDY,NIGHT_OVERCAST,NIGHT_OVERCAST","Cross-shore,Offshore,Offshore,Offshore,Offshore,Offshore,Cross-shore,Cross-shore,Cross-shore,Cross-shore,Cross-shore,Onshore,Onshore",13
5842041f4e65fad6a7708819,2024_02_17,33.984079047970035,-118.47381591796875,Venice Beach,2.4615384615384617,0.6280153846153846,0.9769692307692308,14,14,"BRIEF_SHOWERS_POSSIBLE,MIST,MIST,NIGHT_CLEAR,NIGHT_CLEAR,NIGHT_MIST,NIGHT_MIST,NIGHT_MIST,NIGHT_BRIEF_SHOWERS,NIGHT_BRIEF_SHOWERS,NIGHT_DRIZZLE,NIGHT_MIST,NIGHT_MIST","Onshore,Onshore,Onshore,Onshore,Onshore,Onshore,Onshore,Onshore,Onshore,Onshore,Onshore,Onshore,Offshore",13
5842041f4e65fad6a770881e,2024_02_17,34.037508438646746,-118.58339846155594,Topanga Beach,2,0.2651076923076923,0.5706,15,15,"MOSTLY_CLEAR,MOSTLY_CLOUDY,CLEAR,NIGHT_MIST,NIGHT_CLEAR,NIGHT_CLEAR,NIGHT_CLEAR,NIGHT_MIST,NIGHT_CLEAR,NIGHT_CLEAR,NIGHT_MOSTLY_CLOUDY,NIGHT_MIST,NIGHT_MIST","Onshore,Onshore,Onshore,Onshore,Offshore,Offshore,Offshore,Offshore,Offshore,Offshore,Offshore,Offshore,Offshore",13
5842041f4e65fad6a7708820,2024_02_17,33.73954373690184,-118.11414,Seal Beach Jetty,1.9230769230769231,0.2323076923076923,0.5361538461538462,15,15,"CLEAR,CLEAR,CLEAR,NIGHT_CLEAR,NIGHT_MOSTLY_CLOUDY,NIGHT_CLOUDY,NIGHT_OVERCAST,NIGHT_MIST,NIGHT_MIST,NIGHT_OVERCAST,NIGHT_OVERCAST,NIGHT_MIST,NIGHT_MIST","Onshore,Onshore,Onshore,Onshore,Onshore,Cross-shore,Cross-shore,Cross-shore,Cross-shore,Offshore,Offshore,Offshore,Offshore",13
5842041f4e65fad6a7708822,2024_02_17,33.72309983348433,-118.08078,Anderson Street,1.6923076923076923,0.24307692307692308,0.5492307692307692,15,15,"MOSTLY_CLEAR,MOSTLY_CLEAR,CLEAR,NIGHT_CLEAR,NIGHT_MOSTLY_CLOUDY,NIGHT_MOSTLY_CLOUDY,NIGHT_OVERCAST,NIGHT_OVERCAST,NIGHT_OVERCAST,NIGHT_OVERCAST,NIGHT_OVERCAST,NIGHT_MIST,NIGHT_MIST","Onshore,Onshore,Onshore,Onshore,Onshore,Cross-shore,Cross-shore,Cross-shore,Offshore,Offshore,Offshore,Offshore,Offshore",13
5842041f4e65fad6a7708827,2024_02_17,33.65574085629463,-118.00397,Huntington Beach Pier Northside,2.5384615384615383,0.7584102564102564,1.0722948717948717,14,14,"MOSTLY_CLOUDY,MOSTLY_CLOUDY,MOSTLY_CLEAR,NIGHT_MOSTLY_CLOUDY,NIGHT_MOSTLY_CLOUDY,NIGHT_MOSTLY_CLOUDY,NIGHT_MOSTLY_CLOUDY,NIGHT_OVERCAST,NIGHT_OVERCAST,NIGHT_OVERCAST,NIGHT_OVERCAST,NIGHT_MIST,NIGHT_MIST","Onshore,Onshore,Onshore,Onshore,Onshore,Onshore,Onshore,Cross-shore,Cross-shore,Cross-shore,Cross-shore,Offshore,Offshore",13
5842041f4e65fad6a7708828,2024_02_17,34.272041739333,-119.2997646331,C St.,3,0.5999384615384615,0.9254307692307693,14,14,"CLEAR,CLOUDY,MOSTLY_CLOUDY,NIGHT_MOSTLY_CLOUDY,NIGHT_MIST,NIGHT_CLEAR,NIGHT_MOSTLY_CLOUDY,NIGHT_MOSTLY_CLOUDY,NIGHT_MOSTLY_CLOUDY,NIGHT_MIST,NIGHT_MIST,NIGHT_CLEAR,NIGHT_MOSTLY_CLOUDY","Onshore,Offshore,Onshore,Cross-shore,Cross-shore,Cross-shore,Cross-shore,Offshore,Cross-shore,Cross-shore,Cross-shore,Offshore,Offshore",13
5842041f4e65fad6a770882a,2024_02_17,33.61555743705257,-117.93676,Newport Lower Jetties,2.230769230769231,0.4003076923076923,0.7568205128205128,15,15,"MOSTLY_CLOUDY,MOSTLY_CLOUDY,MOSTLY_CLOUDY,NIGHT_MOSTLY_CLOUDY,NIGHT_MOSTLY_CLOUDY,NIGHT_MIST,NIGHT_MOSTLY_CLOUDY,NIGHT_MIST,NIGHT_OVERCAST,NIGHT_OVERCAST,NIGHT_OVERCAST,NIGHT_MIST,NIGHT_MIST","Onshore,Onshore,Onshore,Cross-shore,Cross-shore,Cross-shore,Cross-shore,Offshore,Offshore,Offshore,Cross-shore,Offshore,Offshore",13
5842041f4e65fad6a770882b,2024_02_17,33.5930302087,-117.88199,The Wedge,2,0.38671,0.8152738461538461,15,15,"MOSTLY_CLOUDY,MOSTLY_CLEAR,MOSTLY_CLOUDY,NIGHT_BRIEF_SHOWERS,NIGHT_MIST,NIGHT_MIST,NIGHT_MIST,NIGHT_MIST,NIGHT_MIST,NIGHT_MIST,NIGHT_MIST,NIGHT_MIST,NIGHT_MIST","Onshore,Onshore,Onshore,Cross-shore,Cross-shore,Cross-shore,Cross-shore,Offshore,Offshore,Offshore,Offshore,Offshore,Offshore",13
5842041f4e65fad6a770882c,2024_02_17,33.60577342582,-117.9315376281,Newport Beach Pier,2.076923076923077,0.39274358974358975,0.6947564102564102,15,15,"CLEAR,CLEAR,MIST,NIGHT_MIST,NIGHT_MOSTLY_CLOUDY,NIGHT_MIST,NIGHT_MOSTLY_CLOUDY,NIGHT_MIST,NIGHT_MIST,NIGHT_CLOUDY,NIGHT_CLOUDY,NIGHT_MIST,NIGHT_MIST","Cross-shore,Cross-shore,Cross-shore,Cross-shore,Cross-shore,Cross-shore,Cross-shore,Cross-shore,Cross-shore,Cross-shore,Cross-shore,Cross-shore,Cross-shore",13
5842041f4e65fad6a770882e,2024_02_17,33.475793399792984,-117.72291,Salt Creek,3,0.7308846153846154,1.0250897435897435,14,14,"CLEAR,CLEAR,CLEAR,NIGHT_CLEAR,NIGHT_CLEAR,NIGHT_DRIZZLE,NIGHT_MIST,NIGHT_MIST,NIGHT_MIST,NIGHT_MIST,NIGHT_MIST,NIGHT_MIST,NIGHT_MIST","Onshore,Onshore,Onshore,Onshore,Onshore,Onshore,Onshore,Onshore,Onshore,Onshore,Onshore,Onshore,Onshore",13
5842041f4e65fad6a7708830,2024_02_17,33.41800974113613,-117.61952,T-Street,2.1538461538461537,0.608897435897436,0.9575897435897436,14,14,"MOSTLY_CLOUDY,CLEAR,CLEAR,NIGHT_BRIEF_SHOWERS,NIGHT_MIST,NIGHT_MIST,NIGHT_MIST,NIGHT_MIST,NIGHT_MIST,NIGHT_OVERCAST,NIGHT_MIST,NIGHT_MIST,NIGHT_MIST","Cross-shore,Cross-shore,Cross-shore,Cross-shore,Cross-shore,Cross-shore,Cross-shore,Cross-shore,Cross-shore,Cross-shore,Cross-shore,Onshore,Onshore",13
5842041f4e65fad6a7708832,2024_02_17,33.202391008646,-117.39475,Oceanside Harbor,2.6153846153846154,0.5811666666666667,1.0221794871794871,15,15,"CLEAR,MOSTLY_CLOUDY,MOSTLY_CLOUDY,NIGHT_MOSTLY_CLOUDY,NIGHT_CLOUDY,NIGHT_CLOUDY,NIGHT_MIST,NIGHT_MIST,NIGHT_MIST,NIGHT_MIST,NIGHT_MIST,NIGHT_OVERCAST,NIGHT_MIST","Onshore,Onshore,Onshore,Onshore,Onshore,Onshore,Onshore,Onshore,Onshore,Cross-shore,Cross-shore,Onshore,Onshore",13
5842041f4e65fad6a7708835,2024_02_17,33.19477795952803,-117.38667,Oceanside Pier,2.6923076923076925,0.5360384615384615,0.9406923076923076,15,15,"CLEAR,MOSTLY_CLOUDY,MOSTLY_CLOUDY,NIGHT_MOSTLY_CLOUDY,NIGHT_MIST,NIGHT_OVERCAST,NIGHT_MIST,NIGHT_OVERCAST,NIGHT_MIST,NIGHT_OVERCAST,NIGHT_OVERCAST,NIGHT_OVERCAST,NIGHT_OVERCAST","Onshore,Onshore,Onshore,Onshore,Onshore,Onshore,Onshore,Onshore,Onshore,Cross-shore,Cross-shore,Offshore,Onshore",13
5842041f4e65fad6a7708837,2024_02_17,33.14948100706,-117.35029,Tamarack,2.6923076923076925,0.39615384615384613,0.7,15,15,"CLEAR,CLEAR,CLOUDY,NIGHT_OVERCAST,NIGHT_MIST,NIGHT_MIST,NIGHT_MIST,NIGHT_MIST,NIGHT_MIST,NIGHT_MIST,NIGHT_MIST,NIGHT_OVERCAST,NIGHT_CLOUDY","Onshore,Onshore,Onshore,Cross-shore,Onshore,Onshore,Onshore,Cross-shore,Cross-shore,Cross-shore,Cross-shore,Offshore,Cross-shore",13
5842041f4e65fad6a7708839,2024_02_17,32.865777159358856,-117.25614295356122,Scripps,2.7823076923076924,0.8514615384615385,1.1111153846153847,14,14,"MIST,MIST,OVERCAST,NIGHT_OVERCAST,NIGHT_MIST,NIGHT_MIST,NIGHT_MIST,NIGHT_MIST,NIGHT_MIST,NIGHT_MIST,NIGHT_MIST,NIGHT_MIST,NIGHT_MIST","Onshore,Onshore,Onshore,Onshore,Onshore,Onshore,Onshore,Onshore,Onshore,Onshore,Onshore,Onshore,Onshore",13
5842041f4e65fad6a770883a,2024_02_17,32.813094,-117.27381,Birdrock,3,1.0207692307692309,1.2623076923076924,15,15,"MOSTLY_CLOUDY,MOSTLY_CLOUDY,MIST,NIGHT_MIST,NIGHT_OVERCAST,NIGHT_MIST,NIGHT_OVERCAST,NIGHT_MIST,NIGHT_MIST,NIGHT_MIST,NIGHT_MIST,NIGHT_MIST,NIGHT_MIST","Cross-shore,Cross-shore,Cross-shore,Cross-shore,Cross-shore,Cross-shore,Onshore,Onshore,Onshore,Offshore,Offshore,Cross-shore,Offshore",13
5842041f4e65fad6a770883b,2024_02_17,32.877231,-117.25303,Blacks,3.09,1.1047692307692307,1.4558076923076924,14,14,"MIST,MIST,OVERCAST,NIGHT_OVERCAST,NIGHT_MIST,NIGHT_MIST,NIGHT_MIST,NIGHT_MIST,NIGHT_MIST,NIGHT_MIST,NIGHT_MIST,NIGHT_MIST,NIGHT_MIST","Onshore,Onshore,Onshore,Onshore,Onshore,Onshore,Onshore,Onshore,Onshore,Onshore,Onshore,Onshore,Onshore",13
5842041f4e65fad6a770883c,2024_02_17,32.82978974229765,-117.28161740727381,Windansea,3,1.0139615384615384,1.3000769230769231,14,14,"MOSTLY_CLOUDY,MIST,MIST,NIGHT_MIST,NIGHT_MIST,NIGHT_MIST,NIGHT_MIST,NIGHT_MIST,NIGHT_MIST,NIGHT_MIST,NIGHT_MIST,NIGHT_MIST,NIGHT_MIST","Onshore,Onshore,Onshore,Onshore,Onshore,Cross-shore,Cross-shore,Cross-shore,Cross-shore,Cross-shore,Cross-shore,Onshore,Onshore",13
5842041f4e65fad6a770883d,2024_02_17,32.838278,-117.28396,Horseshoe,3,1.1453846153846154,1.386153846153846,15,15,"MOSTLY_CLOUDY,MIST,MIST,NIGHT_MIST,NIGHT_MIST,NIGHT_MIST,NIGHT_MIST,NIGHT_MIST,NIGHT_MIST,NIGHT_MIST,NIGHT_MIST,NIGHT_MIST,NIGHT_MIST","Onshore,Onshore,Onshore,Onshore,Cross-shore,Onshore,Onshore,Onshore,Onshore,Offshore,Onshore,Onshore,Offshore",13
5842041f4e65fad6a770883f,2024_02_17,32.75034717673179,-117.25337,Ocean Beach,2.9746153846153844,1.1507307692307693,1.415576923076923,14,14,"MOSTLY_CLOUDY,MOSTLY_CLOUDY,OVERCAST,NIGHT_MIST,NIGHT_MIST,NIGHT_MIST,NIGHT_MIST,NIGHT_CLOUDY,NIGHT_CLOUDY,NIGHT_MIST,NIGHT_MIST,NIGHT_MIST,NIGHT_MIST","Onshore,Onshore,Onshore,Onshore,Cross-shore,Cross-shore,Cross-shore,Cross-shore,Cross-shore,Onshore,Cross-shore,Cross-shore,Onshore",13
5842041f4e65fad6a7708840,2024_02_17,32.73693,-117.25718,Sunset Cliffs,3,1.0446153846153845,1.2784615384615385,15,15,"MOSTLY_CLOUDY,MOSTLY_CLOUDY,MIST,NIGHT_MIST,NIGHT_MIST,NIGHT_MIST,NIGHT_MIST,NIGHT_MIST,NIGHT_MIST,NIGHT_MIST,NIGHT_MIST,NIGHT_MIST,NIGHT_MIST","Onshore,Onshore,Onshore,Onshore,Cross-shore,Cross-shore,Cross-shore,Cross-shore,Cross-shore,Onshore,Cross-shore,Cross-shore,Onshore",13
5842041f4e65fad6a7708841,2024_02_17,32.796582258728826,-117.25779,Pacific Beach,3,0.9276153846153846,1.2252692307692308,14,14,"MOSTLY_CLOUDY,MOSTLY_CLOUDY,MIST,NIGHT_MIST,NIGHT_MIST,NIGHT_MIST,NIGHT_OVERCAST,NIGHT_OVERCAST,NIGHT_OVERCAST,NIGHT_MIST,NIGHT_MIST,NIGHT_MIST,NIGHT_MIST","Cross-shore,Cross-shore,Cross-shore,Cross-shore,Cross-shore,Onshore,Onshore,Onshore,Onshore,Offshore,Cross-shore,Cross-shore,Offshore",13
5842041f4e65fad6a7708842,2024_02_17,32.776636,-117.25514,Mission Beach,3,0.9687692307692307,1.2602692307692307,14,14,"MOSTLY_CLOUDY,MOSTLY_CLOUDY,MIST,NIGHT_MIST,NIGHT_MIST,NIGHT_MIST,NIGHT_OVERCAST,NIGHT_OVERCAST,NIGHT_OVERCAST,NIGHT_MIST,NIGHT_MIST,NIGHT_MIST,NIGHT_MIST","Onshore,Onshore,Onshore,Onshore,Cross-shore,Onshore,Onshore,Onshore,Onshore,Cross-shore,Onshore,Onshore,Offshore",13
5842041f4e65fad6a7708844,2024_02_17,32.577195519016,-117.13475,Imperial Beach Pier,2.769230769230769,1.1084615384615384,1.3415384615384616,15,15,"MOSTLY_CLOUDY,MOSTLY_CLOUDY,OVERCAST,NIGHT_OVERCAST,NIGHT_MIST,NIGHT_MIST,NIGHT_MIST,NIGHT_MIST,NIGHT_MIST,NIGHT_MIST,NIGHT_MIST,NIGHT_MIST,NIGHT_MIST","Onshore,Onshore,Onshore,Onshore,Onshore,Onshore,Cross-shore,Cross-shore,Onshore,Onshore,Onshore,Onshore,Onshore",13
5842041f4e65fad6a770884a,2024_02_17,42.88678181061,-70.80843,Seabrook,0.9164285714285714,0.0973104761904762,0.22461761904761907,4,3,"NIGHT_CLEAR,NIGHT_CLEAR,NIGHT_CLEAR,NIGHT_CLEAR,NIGHT_CLEAR,NIGHT_CLEAR,NIGHT_CLEAR,NIGHT_CLEAR,NIGHT_CLEAR,NIGHT_CLEAR,NIGHT_CLEAR,NIGHT_CLEAR,NIGHT_CLEAR,CLEAR","Offshore,Offshore,Offshore,Offshore,Offshore,Offshore,Offshore,Offshore,Offshore,Offshore,Offshore,Offshore,Offshore,Offshore",14
5842041f4e65fad6a770884e,2024_02_17,41.434181432898335,-71.45312118111178,Narragansett,0.9285714285714286,0,0.2636428571428572,5,4,"NIGHT_CLEAR,NIGHT_CLEAR,NIGHT_CLEAR,NIGHT_CLEAR,NIGHT_CLEAR,NIGHT_CLEAR,NIGHT_CLEAR,NIGHT_CLEAR,NIGHT_CLEAR,NIGHT_CLEAR,NIGHT_CLEAR,NIGHT_CLEAR,NIGHT_CLEAR,CLEAR","Offshore,Offshore,Offshore,Offshore,Offshore,Offshore,Offshore,Offshore,Offshore,Offshore,Cross-shore,Cross-shore,Cross-shore,Offshore",14
5842041f4e65fad6a7708850,2024_02_17,40.582703230722,-73.65247,Lincoln Blvd,0.9285714285714286,-0.01892857142857142,0.27971428571428575,5,4,"NIGHT_CLEAR,NIGHT_CLEAR,NIGHT_CLEAR,NIGHT_CLEAR,NIGHT_CLEAR,NIGHT_CLEAR,NIGHT_CLEAR,NIGHT_CLEAR,NIGHT_BRIEF_SNOW_SHOWERS,NIGHT_BRIEF_SNOW_SHOWERS,NIGHT_BRIEF_SNOW_SHOWERS,NIGHT_BRIEF_SNOW_SHOWERS,NIGHT_BRIEF_SNOW_SHOWERS,FOG","Onshore,Onshore,Offshore,Offshore,Offshore,Offshore,Offshore,Onshore,Offshore,Offshore,Offshore,Offshore,Offshore,Offshore",14
5842041f4e65fad6a7708852,2024_02_17,40.58342841721757,-73.81182,Rockaways,0.6664285714285715,-0.025,0.2611428571428572,5,4,"NIGHT_CLEAR,NIGHT_CLEAR,NIGHT_CLEAR,NIGHT_CLEAR,NIGHT_CLEAR,NIGHT_CLEAR,NIGHT_CLEAR,NIGHT_CLEAR,NIGHT_BRIEF_SNOW_SHOWERS,NIGHT_BRIEF_SNOW_SHOWERS,NIGHT_BRIEF_SNOW_SHOWERS,NIGHT_BRIEF_SNOW_SHOWERS,NIGHT_FOG,FOG","Offshore,Offshore,Offshore,Offshore,Offshore,Offshore,Offshore,Cross-shore,Offshore,Offshore,Cross-shore,Cross-shore,Cross-shore,Offshore",14
5842041f4e65fad6a7708853,2024_02_17,40.330474,-73.9734,Monmouth Beach,0.7857142857142857,-0.029880952380952383,0.20223809523809522,6,5,"NIGHT_CLEAR,NIGHT_CLEAR,NIGHT_CLEAR,NIGHT_CLEAR,NIGHT_CLEAR,NIGHT_CLEAR,NIGHT_CLEAR,NIGHT_CLEAR,NIGHT_SNOW,NIGHT_BRIEF_SNOW_SHOWERS,NIGHT_BRIEF_SNOW_SHOWERS,NIGHT_BRIEF_SNOW_SHOWERS,NIGHT_BRIEF_SNOW_SHOWERS,SNOW","Offshore,Offshore,Offshore,Offshore,Cross-shore,Onshore,Onshore,Onshore,Onshore,Onshore,Onshore,Onshore,Onshore,Onshore",14
5842041f4e65fad6a7708856,2024_02_17,40.113,-74.028,Manasquan Inlet,0.8571428571428571,0,0.21525714285714287,6,5,"NIGHT_CLEAR,NIGHT_CLEAR,NIGHT_CLEAR,NIGHT_CLEAR,NIGHT_CLEAR,NIGHT_CLEAR,NIGHT_CLEAR,NIGHT_CLOUDY,NIGHT_OVERCAST,NIGHT_CLEAR,NIGHT_BRIEF_SNOW_FLURRIES,NIGHT_BRIEF_SNOW_SHOWERS,NIGHT_BRIEF_SNOW_SHOWERS,FOG","Offshore,Offshore,Offshore,Offshore,Offshore,Onshore,Onshore,Onshore,Onshore,Onshore,Onshore,Onshore,Onshore,Onshore",14
5842041f4e65fad6a7708857,2024_02_17,39.941519877445664,-74.06829,Casino Pier,0.3092857142857143,-0.007857142857142858,0.22685714285714287,6,5,"NIGHT_CLEAR,NIGHT_CLEAR,NIGHT_CLEAR,NIGHT_CLEAR,NIGHT_CLEAR,NIGHT_CLEAR,NIGHT_OVERCAST,NIGHT_CLEAR,NIGHT_OVERCAST,NIGHT_CLEAR,NIGHT_BRIEF_SNOW_FLURRIES,NIGHT_BRIEF_SNOW_SHOWERS,NIGHT_BRIEF_HEAVY_SNOW_SHOWERS,LIGHT_SNOW","Offshore,Offshore,Offshore,Offshore,Offshore,Onshore,Onshore,Onshore,Cross-shore,Onshore,Onshore,Onshore,Onshore,Onshore",14
5842041f4e65fad6a7708858,2024_02_17,39.28223089949212,-74.55766,North End OC,0.6664285714285715,0.0525,0.3350714285714286,6,5,"NIGHT_CLEAR,NIGHT_CLEAR,NIGHT_CLEAR,NIGHT_CLEAR,NIGHT_CLEAR,NIGHT_CLEAR,NIGHT_CLEAR,NIGHT_CLOUDY,NIGHT_OVERCAST,NIGHT_SNOW,NIGHT_HEAVY_SNOW,NIGHT_BRIEF_SNOW_SHOWERS,NIGHT_HEAVY_SNOW,OVERCAST","Offshore,Offshore,Offshore,Offshore,Onshore,Onshore,Onshore,Onshore,Onshore,Onshore,Cross-shore,Cross-shore,Cross-shore,Cross-shore",14
5842041f4e65fad6a770885b,2024_02_17,39.65080599934257,-74.17146,Ship Bottom,0.9285714285714286,-0.011071428571428572,0.2299,6,5,"NIGHT_CLEAR,NIGHT_CLEAR,NIGHT_CLEAR,NIGHT_CLEAR,NIGHT_CLEAR,NIGHT_CLEAR,NIGHT_CLEAR,NIGHT_CLEAR,NIGHT_OVERCAST,NIGHT_CLEAR,NIGHT_BRIEF_SNOW_SHOWERS,NIGHT_BRIEF_HEAVY_SNOW_SHOWERS,NIGHT_SNOW,LIGHT_SNOW","Offshore,Offshore,Offshore,Offshore,Offshore,Onshore,Onshore,Onshore,Onshore,Onshore,Onshore,Cross-shore,Cross-shore,Cross-shore",14
5842041f4e65fad6a7708863,2024_02_17,36.034151543144,-75.66791,Third Street,1,0.20952380952380953,0.5143714285714286,7,6,"NIGHT_CLEAR,NIGHT_OVERCAST,NIGHT_CLEAR,NIGHT_CLEAR,NIGHT_CLEAR,NIGHT_CLEAR,NIGHT_CLEAR,NIGHT_CLEAR,NIGHT_CLOUDY,NIGHT_CLEAR,NIGHT_CLEAR,NIGHT_CLEAR,NIGHT_CLEAR,CLEAR","Onshore,Onshore,Onshore,Onshore,Cross-shore,Cross-shore,Cross-shore,Cross-shore,Cross-shore,Cross-shore,Offshore,Offshore,Offshore,Offshore",14
5842041f4e65fad6a7708867,2024_02_17,35.605833221351425,-75.46303,S-Turns,1,0.281752380952381,0.5875523809523809,9,8,"NIGHT_CLEAR,NIGHT_CLOUDY,NIGHT_CLOUDY,NIGHT_CLEAR,NIGHT_CLEAR,NIGHT_CLEAR,NIGHT_CLEAR,NIGHT_CLEAR,NIGHT_CLEAR,NIGHT_CLEAR,NIGHT_CLEAR,NIGHT_CLEAR,NIGHT_CLEAR,CLEAR","Onshore,Onshore,Onshore,Onshore,Onshore,Onshore,Onshore,Onshore,Cross-shore,Cross-shore,Cross-shore,Offshore,Offshore,Offshore",14
5842041f4e65fad6a770886d,2024_02_17,38.338461,-75.08117,Ocean City Boardwalk,0.25,-0.1331095238095238,0.14817857142857147,7,5,"NIGHT_CLEAR,NIGHT_CLEAR,NIGHT_CLEAR,NIGHT_CLEAR,NIGHT_CLEAR,NIGHT_MOSTLY_CLOUDY,NIGHT_CLEAR,NIGHT_OVERCAST,NIGHT_OVERCAST,NIGHT_OVERCAST,NIGHT_OVERCAST,NIGHT_RAIN,NIGHT_LIGHT_RAIN,OVERCAST","Offshore,Offshore,Onshore,Onshore,Onshore,Onshore,Onshore,Onshore,Onshore,Onshore,Onshore,Cross-shore,Onshore,Onshore",14
5842041f4e65fad6a770886f,2024_02_17,29.844757212379562,-81.26136,A St.,1,0.002142857142857143,0.27785714285714286,15.928571428571429,15.928571428571429,"MIST,NIGHT_OVERCAST,NIGHT_CLEAR,NIGHT_CLEAR,NIGHT_CLEAR,NIGHT_CLEAR,NIGHT_CLEAR,NIGHT_CLOUDY,NIGHT_CLEAR,NIGHT_CLEAR,NIGHT_MOSTLY_CLOUDY,NIGHT_OVERCAST,NIGHT_OVERCAST,NIGHT_CLOUDY","Onshore,Onshore,Cross-shore,Offshore,Offshore,Offshore,Offshore,Offshore,Offshore,Offshore,Offshore,Offshore,Offshore,Offshore",14
5842041f4e65fad6a7708871,2024_02_17,29.069417851135093,-80.90824,New Smyrna Beach,2.012142857142857,0.7425428571428572,1.119052380952381,17,16,"OVERCAST,NIGHT_OVERCAST,NIGHT_MOSTLY_CLOUDY,NIGHT_CLEAR,NIGHT_CLEAR,NIGHT_CLEAR,NIGHT_CLEAR,NIGHT_CLEAR,NIGHT_CLEAR,NIGHT_CLEAR,NIGHT_CLEAR,NIGHT_CLEAR,NIGHT_MOSTLY_CLOUDY,NIGHT_OVERCAST","Offshore,Offshore,Offshore,Offshore,Offshore,Offshore,Offshore,Offshore,Offshore,Offshore,Offshore,Offshore,Offshore,Cross-shore",14
5842041f4e65fad6a7708872,2024_02_17,28.367707417566,-80.60171,Cocoa Beach Pier,1.3928571428571428,0.13496666666666668,0.4369571428571429,18,17,"CLEAR,NIGHT_CLEAR,NIGHT_CLEAR,NIGHT_CLEAR,NIGHT_CLEAR,NIGHT_CLEAR,NIGHT_CLEAR,NIGHT_CLEAR,NIGHT_CLEAR,NIGHT_CLEAR,NIGHT_CLEAR,NIGHT_CLEAR,NIGHT_MOSTLY_CLEAR,MOSTLY_CLOUDY","Onshore,Cross-shore,Cross-shore,Cross-shore,Cross-shore,Offshore,Offshore,Offshore,Offshore,Offshore,Offshore,Offshore,Offshore,Offshore",14
5842041f4e65fad6a7708873,2024_02_17,28.091782738658846,-80.56479,Indialantic,1.9285714285714286,0.21991428571428573,0.5600285714285714,19,18,"CLEAR,NIGHT_MOSTLY_CLOUDY,NIGHT_OVERCAST,NIGHT_CLEAR,NIGHT_CLEAR,NIGHT_CLEAR,NIGHT_CLEAR,NIGHT_CLOUDY,NIGHT_CLEAR,NIGHT_CLEAR,NIGHT_CLEAR,NIGHT_CLEAR,NIGHT_CLEAR,CLEAR","Onshore,Onshore,Onshore,Cross-shore,Offshore,Offshore,Offshore,Offshore,Offshore,Offshore,Offshore,Offshore,Offshore,Offshore",14
5842041f4e65fad6a7708876,2024_02_17,27.25392904143517,-80.19455,Jensen Beach,1.8807142857142858,0.2799142857142857,0.6193142857142857,22,20,"MOSTLY_CLEAR,NIGHT_CLEAR,NIGHT_CLEAR,NIGHT_OVERCAST,NIGHT_CLEAR,NIGHT_CLEAR,NIGHT_CLEAR,NIGHT_CLEAR,NIGHT_CLEAR,NIGHT_CLEAR,NIGHT_CLEAR,NIGHT_CLEAR,NIGHT_CLEAR,CLEAR","Onshore,Cross-shore,Cross-shore,Cross-shore,Offshore,Offshore,Offshore,Offshore,Offshore,Offshore,Offshore,Offshore,Offshore,Offshore",14
5842041f4e65fad6a7708879,2024_02_17,26.76346795333825,-80.0360655784607,Reef Road,1.7142857142857142,0.29174285714285714,0.5949142857142857,23,22,"CLEAR,NIGHT_CLEAR,NIGHT_CLEAR,NIGHT_CLEAR,NIGHT_CLEAR,NIGHT_CLEAR,NIGHT_CLEAR,NIGHT_CLEAR,NIGHT_CLEAR,NIGHT_CLEAR,NIGHT_CLEAR,NIGHT_CLEAR,NIGHT_CLEAR,CLEAR","Cross-shore,Cross-shore,Cross-shore,Cross-shore,Cross-shore,Offshore,Offshore,Offshore,Offshore,Offshore,Offshore,Offshore,Offshore,Offshore",14
5842041f4e65fad6a770887c,2024_02_17,26.336499228484,-80.06956100463,Boca Raton Inlet,0.9521428571428572,0.020714285714285713,0.3253142857142857,24,22,"CLEAR,NIGHT_CLEAR,NIGHT_CLEAR,NIGHT_CLEAR,NIGHT_CLEAR,NIGHT_CLEAR,NIGHT_OVERCAST,NIGHT_CLEAR,NIGHT_CLEAR,NIGHT_CLEAR,NIGHT_CLEAR,NIGHT_CLEAR,NIGHT_CLEAR,CLEAR","Onshore,Onshore,Cross-shore,Cross-shore,Cross-shore,Cross-shore,Cross-shore,Cross-shore,Offshore,Offshore,Offshore,Cross-shore,Cross-shore,Cross-shore",14
5842041f4e65fad6a770887d,2024_02_17,26.31719311695038,-80.07452525176168,Deerfield Beach Pier,0,0.002959047619047619,0.15402261904761905,24,23,"CLEAR,NIGHT_CLEAR,NIGHT_CLEAR,NIGHT_CLEAR,NIGHT_CLEAR,NIGHT_CLEAR,NIGHT_CLOUDY,NIGHT_CLEAR,NIGHT_CLEAR,NIGHT_CLEAR,NIGHT_CLEAR,NIGHT_CLEAR,NIGHT_CLEAR,CLEAR","Onshore,Onshore,Cross-shore,Cross-shore,Cross-shore,Cross-shore,Cross-shore,Offshore,Offshore,Offshore,Offshore,Cross-shore,Cross-shore,Offshore",14
5842041f4e65fad6a7708881,2024_02_17,30.20276320866628,-85.85626528676136,"Spyglass Dr., Panama City",0,0,0.05432857142857143,16,15,"CLEAR,NIGHT_CLEAR,NIGHT_LIGHT_RAIN,NIGHT_BRIEF_SHOWERS_POSSIBLE,NIGHT_OVERCAST,NIGHT_CLEAR,NIGHT_CLEAR,NIGHT_CLOUDY,NIGHT_LIGHT_SHOWERS_POSSIBLE,NIGHT_OVERCAST,NIGHT_LIGHT_RAIN,NIGHT_FOG,NIGHT_DRIZZLE,NIGHT_FOG","Cross-shore,Offshore,Offshore,Cross-shore,Onshore,Onshore,Onshore,Onshore,Onshore,Onshore,Onshore,Onshore,Onshore,Onshore",14
5842041f4e65fad6a7708884,2024_02_17,33.39000832738053,-117.59852,Cottons,3,0.7248846153846153,1.030551282051282,14,14,"MOSTLY_CLOUDY,MOSTLY_CLEAR,MOSTLY_CLEAR,NIGHT_MOSTLY_CLOUDY,NIGHT_MOSTLY_CLOUDY,NIGHT_MIST,NIGHT_MIST,NIGHT_MIST,NIGHT_MIST,NIGHT_MIST,NIGHT_MIST,NIGHT_MIST,NIGHT_FOG","Onshore,Onshore,Onshore,Onshore,Onshore,Offshore,Cross-shore,Cross-shore,Offshore,Cross-shore,Cross-shore,Cross-shore,Cross-shore",13
5842041f4e65fad6a7708885,2024_02_17,33.359416282661,-117.54167901405711,Trails,2.769230769230769,0.5330769230769231,0.8369230769230769,15,15,"MOSTLY_CLOUDY,MOSTLY_CLEAR,MOSTLY_CLOUDY,NIGHT_MOSTLY_CLOUDY,NIGHT_MOSTLY_CLOUDY,NIGHT_MIST,NIGHT_MIST,NIGHT_MIST,NIGHT_MIST,NIGHT_MIST,NIGHT_MIST,NIGHT_MIST,NIGHT_MIST","Onshore,Onshore,Onshore,Onshore,Cross-shore,Onshore,Offshore,Offshore,Offshore,Offshore,Offshore,Offshore,Offshore",13
5842041f4e65fad6a7708886,2024_02_17,33.38042605929805,-117.58332,Middles,2.897692307692308,0.5005641025641026,0.8091794871794872,14,14,"MOSTLY_CLOUDY,MOSTLY_CLEAR,MOSTLY_CLEAR,NIGHT_MOSTLY_CLOUDY,NIGHT_MIST,NIGHT_MIST,NIGHT_MIST,NIGHT_MIST,NIGHT_MIST,NIGHT_MIST,NIGHT_MIST,NIGHT_MIST,NIGHT_FOG","Onshore,Onshore,Onshore,Onshore,Onshore,Offshore,Onshore,Cross-shore,Offshore,Offshore,Offshore,Offshore,Offshore",13
5842041f4e65fad6a7708887,2024_02_17,33.38445596302903,-117.59445,Upper Trestles,3,0.8257179487179488,1.1094615384615385,14,14,"MOSTLY_CLOUDY,MOSTLY_CLEAR,MOSTLY_CLEAR,NIGHT_MOSTLY_CLOUDY,NIGHT_MIST,NIGHT_MIST,NIGHT_MIST,NIGHT_MIST,NIGHT_MIST,NIGHT_MIST,NIGHT_MIST,NIGHT_MIST,NIGHT_FOG","Onshore,Onshore,Onshore,Onshore,Onshore,Offshore,Onshore,Offshore,Offshore,Offshore,Offshore,Offshore,Offshore",13
5842041f4e65fad6a7708889,2024_02_17,28.944414,-95.28883,Surfside,1,0.18191307692307693,0.28423692307692305,15,15,"OVERCAST,OVERCAST,NIGHT_FOG,NIGHT_MIST,NIGHT_MIST,NIGHT_MIST,NIGHT_CLOUDY,NIGHT_MIST,NIGHT_MIST,NIGHT_MIST,NIGHT_OVERCAST,NIGHT_CLOUDY,NIGHT_OVERCAST","Offshore,Offshore,Cross-shore,Onshore,Onshore,Onshore,Offshore,Offshore,Offshore,Offshore,Offshore,Offshore,Offshore",13
5842041f4e65fad6a770888a,2024_02_17,33.38143999849023,-117.58843,Lower Trestles,3,0.8248205128205128,1.078051282051282,14,14,"MOSTLY_CLOUDY,MOSTLY_CLEAR,MOSTLY_CLEAR,NIGHT_MOSTLY_CLOUDY,NIGHT_MIST,NIGHT_MIST,NIGHT_MIST,NIGHT_MIST,NIGHT_MIST,NIGHT_MIST,NIGHT_MIST,NIGHT_MIST,NIGHT_FOG","Onshore,Onshore,Onshore,Onshore,Onshore,Offshore,Onshore,Offshore,Offshore,Offshore,Offshore,Offshore,Offshore",13
5842041f4e65fad6a770888b,2024_02_17,33.379622288757,-117.57894,Church,2.9492307692307693,0.5507564102564103,0.8809102564102564,14,14,"MOSTLY_CLOUDY,MOSTLY_CLEAR,MOSTLY_CLEAR,NIGHT_MOSTLY_CLOUDY,NIGHT_MOSTLY_CLOUDY,NIGHT_MIST,NIGHT_MIST,NIGHT_MIST,NIGHT_MIST,NIGHT_MIST,NIGHT_MIST,NIGHT_MIST,NIGHT_FOG","Onshore,Onshore,Onshore,Onshore,Onshore,Cross-shore,Onshore,Offshore,Offshore,Cross-shore,Cross-shore,Offshore,Cross-shore",13
5842041f4e65fad6a770888d,2024_02_17,21.679,-158.042,Sunset Beach,2.5,4.487666666666667,5.382142857142857,26,25,"MOSTLY_CLEAR,CLEAR,MOSTLY_CLEAR,MOSTLY_CLOUDY,MOSTLY_CLEAR,MOSTLY_CLOUDY,NIGHT_MOSTLY_CLOUDY,NIGHT_MOSTLY_CLEAR,NIGHT_MOSTLY_CLEAR,NIGHT_MOSTLY_CLOUDY,NIGHT_CLEAR,NIGHT_MOSTLY_CLOUDY,NIGHT_MOSTLY_CLOUDY,NIGHT_MOSTLY_CLOUDY","Cross-shore,Cross-shore,Cross-shore,Cross-shore,Cross-shore,Cross-shore,Offshore,Offshore,Cross-shore,Cross-shore,Cross-shore,Cross-shore,Cross-shore,Cross-shore",14
5842041f4e65fad6a770888e,2024_02_17,21.670550036401,-158.0482,Rocky Point,2.4164285714285714,4.241952380952381,5.127857142857143,26,25,"MOSTLY_CLEAR,MOSTLY_CLEAR,MOSTLY_CLEAR,MOSTLY_CLEAR,MOSTLY_CLEAR,MOSTLY_CLOUDY,NIGHT_MOSTLY_CLOUDY,NIGHT_CLEAR,NIGHT_CLEAR,NIGHT_MOSTLY_CLOUDY,NIGHT_CLEAR,NIGHT_CLEAR,NIGHT_MOSTLY_CLOUDY,NIGHT_MOSTLY_CLOUDY","Onshore,Cross-shore,Cross-shore,Cross-shore,Cross-shore,Cross-shore,Cross-shore,Cross-shore,Cross-shore,Cross-shore,Cross-shore,Cross-shore,Cross-shore,Cross-shore",14
5842041f4e65fad6a770888f,2024_02_17,21.668,-158.05,Chambers,2.0714285714285716,3.9778571428571428,4.7542857142857144,24,24,"MOSTLY_CLEAR,MOSTLY_CLEAR,MOSTLY_CLEAR,MOSTLY_CLEAR,MOSTLY_CLEAR,MOSTLY_CLOUDY,NIGHT_MOSTLY_CLOUDY,NIGHT_CLEAR,NIGHT_CLEAR,NIGHT_MOSTLY_CLOUDY,NIGHT_CLEAR,NIGHT_CLEAR,NIGHT_MOSTLY_CLOUDY,NIGHT_MOSTLY_CLOUDY","Onshore,Onshore,Cross-shore,Onshore,Cross-shore,Cross-shore,Cross-shore,Cross-shore,Cross-shore,Cross-shore,Cross-shore,Cross-shore,Onshore,Onshore",14
5842041f4e65fad6a7708890,2024_02_17,21.66522,-158.0526,Pipeline,2.690714285714286,3.983857142857143,4.816428571428571,26,25,"MOSTLY_CLEAR,MOSTLY_CLEAR,MOSTLY_CLEAR,MOSTLY_CLEAR,MOSTLY_CLEAR,MOSTLY_CLOUDY,NIGHT_MOSTLY_CLOUDY,NIGHT_CLEAR,NIGHT_CLEAR,NIGHT_MOSTLY_CLOUDY,NIGHT_CLEAR,NIGHT_CLEAR,NIGHT_MOSTLY_CLOUDY,NIGHT_MOSTLY_CLOUDY","Onshore,Cross-shore,Cross-shore,Cross-shore,Cross-shore,Cross-shore,Cross-shore,Cross-shore,Cross-shore,Cross-shore,Cross-shore,Cross-shore,Cross-shore,Cross-shore",14
5842041f4e65fad6a7708891,2024_02_17,21.665,-158.054,Backdoor,2.487857142857143,3.9752857142857145,4.8064285714285715,26,25,"MOSTLY_CLEAR,MOSTLY_CLEAR,MOSTLY_CLEAR,MOSTLY_CLEAR,CLEAR,MOSTLY_CLOUDY,NIGHT_MOSTLY_CLOUDY,NIGHT_CLEAR,NIGHT_CLEAR,NIGHT_MOSTLY_CLOUDY,NIGHT_CLEAR,NIGHT_CLEAR,NIGHT_MOSTLY_CLOUDY,NIGHT_MOSTLY_CLOUDY","Onshore,Cross-shore,Cross-shore,Cross-shore,Cross-shore,Cross-shore,Cross-shore,Cross-shore,Cross-shore,Cross-shore,Cross-shore,Cross-shore,Cross-shore,Cross-shore",14
5842041f4e65fad6a7708892,2024_02_17,21.662,-158.057,Rockpile,1.9285714285714286,4.415,5.276428571428571,24,24,"MOSTLY_CLEAR,MOSTLY_CLEAR,MOSTLY_CLEAR,MOSTLY_CLEAR,MOSTLY_CLEAR,MOSTLY_CLOUDY,NIGHT_MOSTLY_CLOUDY,NIGHT_CLEAR,NIGHT_CLEAR,NIGHT_MOSTLY_CLOUDY,NIGHT_CLEAR,NIGHT_CLEAR,NIGHT_MOSTLY_CLOUDY,NIGHT_MOSTLY_CLOUDY","Onshore,Onshore,Cross-shore,Cross-shore,Cross-shore,Cross-shore,Cross-shore,Cross-shore,Cross-shore,Cross-shore,Cross-shore,Cross-shore,Cross-shore,Cross-shore",14
5842041f4e65fad6a7708893,2024_02_17,21.65870453806827,-158.06058,Log Cabins,2.357142857142857,3.4978571428571428,4.1778571428571425,24,24,"MOSTLY_CLEAR,MOSTLY_CLEAR,MOSTLY_CLEAR,MOSTLY_CLEAR,CLEAR,MOSTLY_CLOUDY,NIGHT_MOSTLY_CLOUDY,NIGHT_CLEAR,NIGHT_CLEAR,NIGHT_MOSTLY_CLOUDY,NIGHT_CLEAR,NIGHT_CLEAR,NIGHT_MOSTLY_CLOUDY,NIGHT_MOSTLY_CLOUDY","Onshore,Cross-shore,Cross-shore,Cross-shore,Cross-shore,Cross-shore,Cross-shore,Offshore,Cross-shore,Cross-shore,Cross-shore,Cross-shore,Cross-shore,Cross-shore",14
5842041f4e65fad6a7708894,2024_02_17,21.66203493640557,-158.05495,Off-The-Wall,2.142857142857143,4.47,5.322857142857143,24,24,"MOSTLY_CLEAR,MOSTLY_CLEAR,MOSTLY_CLEAR,MOSTLY_CLEAR,MOSTLY_CLEAR,MOSTLY_CLOUDY,NIGHT_MOSTLY_CLOUDY,NIGHT_CLEAR,NIGHT_CLEAR,NIGHT_MOSTLY_CLOUDY,NIGHT_CLEAR,NIGHT_CLEAR,NIGHT_MOSTLY_CLOUDY,NIGHT_MOSTLY_CLOUDY","Onshore,Cross-shore,Cross-shore,Onshore,Cross-shore,Cross-shore,Cross-shore,Cross-shore,Cross-shore,Cross-shore,Cross-shore,Cross-shore,Cross-shore,Cross-shore",14
5842041f4e65fad6a7708895,2024_02_17,21.643,-158.067,Waimea Bay,NA,4.5377857142857145,5.428690476190476,26,25,"MOSTLY_CLEAR,MOSTLY_CLEAR,MOSTLY_CLEAR,MOSTLY_CLEAR,MOSTLY_CLEAR,MOSTLY_CLOUDY,NIGHT_MOSTLY_CLOUDY,NIGHT_CLEAR,NIGHT_CLEAR,NIGHT_MOSTLY_CLOUDY,NIGHT_CLEAR,NIGHT_CLEAR,NIGHT_MOSTLY_CLOUDY,NIGHT_MOSTLY_CLOUDY","Cross-shore,Cross-shore,Cross-shore,Cross-shore,Cross-shore,Cross-shore,Offshore,Offshore,Offshore,Cross-shore,Cross-shore,Cross-shore,Cross-shore,Cross-shore",14
5842041f4e65fad6a7708896,2024_02_17,21.622,-158.087,Hultin's,1.9878571428571428,4.615523809523809,5.487738095238095,26,25,"CLEAR,CLEAR,CLEAR,CLEAR,CLEAR,CLEAR,NIGHT_CLEAR,NIGHT_CLEAR,NIGHT_CLEAR,NIGHT_CLEAR,NIGHT_CLEAR,NIGHT_CLEAR,NIGHT_CLEAR,NIGHT_CLEAR","Cross-shore,Cross-shore,Cross-shore,Cross-shore,Cross-shore,Cross-shore,Cross-shore,Cross-shore,Cross-shore,Cross-shore,Cross-shore,Cross-shore,Cross-shore,Cross-shore",14
5842041f4e65fad6a7708897,2024_02_17,21.623,-158.085,Jocko's,1.5714285714285714,3.6228571428571428,4.3,24,24,"CLEAR,CLEAR,CLEAR,CLEAR,CLEAR,CLEAR,NIGHT_CLEAR,NIGHT_CLEAR,NIGHT_CLEAR,NIGHT_CLEAR,NIGHT_CLEAR,NIGHT_CLEAR,NIGHT_CLEAR,NIGHT_CLEAR","Onshore,Onshore,Onshore,Onshore,Onshore,Onshore,Onshore,Onshore,Onshore,Onshore,Onshore,Onshore,Onshore,Onshore",14
5842041f4e65fad6a7708898,2024_02_17,21.62,-158.088,Laniakea,1.9878571428571428,3.6467619047619046,4.362376190476191,26,25,"CLEAR,CLEAR,CLEAR,CLEAR,CLEAR,CLEAR,NIGHT_CLEAR,NIGHT_CLEAR,NIGHT_CLEAR,NIGHT_CLEAR,NIGHT_CLEAR,NIGHT_CLEAR,NIGHT_CLEAR,NIGHT_CLEAR","Cross-shore,Cross-shore,Cross-shore,Cross-shore,Cross-shore,Cross-shore,Cross-shore,Cross-shore,Cross-shore,Cross-shore,Cross-shore,Cross-shore,Cross-shore,Cross-shore",14
5842041f4e65fad6a7708899,2024_02_17,21.625,-158.083,Chun's,1.8571428571428572,3.6407142857142856,4.347857142857142,24,24,"CLEAR,CLEAR,CLEAR,CLEAR,CLEAR,CLEAR,NIGHT_CLEAR,NIGHT_CLEAR,NIGHT_CLEAR,NIGHT_CLEAR,NIGHT_CLEAR,NIGHT_CLEAR,NIGHT_CLEAR,NIGHT_CLEAR","Cross-shore,Cross-shore,Cross-shore,Cross-shore,Cross-shore,Cross-shore,Cross-shore,Cross-shore,Cross-shore,Cross-shore,Cross-shore,Cross-shore,Cross-shore,Cross-shore",14
5842041f4e65fad6a770889c,2024_02_17,21.286357895152136,-157.8515,South Shore - Ala Moana Park,2,0.4564285714285714,0.7614285714285715,24,24,"CLEAR,CLEAR,CLEAR,LIGHT_SHOWERS_POSSIBLE,CLEAR,BRIEF_SHOWERS_POSSIBLE,NIGHT_CLEAR,NIGHT_SHOWERS,NIGHT_CLEAR,NIGHT_CLEAR,NIGHT_CLEAR,NIGHT_CLEAR,NIGHT_CLEAR,NIGHT_CLEAR","Offshore,Offshore,Offshore,Offshore,Offshore,Offshore,Offshore,Offshore,Offshore,Offshore,Offshore,Offshore,Offshore,Offshore",14
5842041f4e65fad6a770889d,2024_02_17,19.606,-155.978,Banyans,3.762142857142857,1.9683142857142857,2.407514285714286,26,25,"CLEAR,CLEAR,CLEAR,CLEAR,CLEAR,CLEAR,NIGHT_CLEAR,NIGHT_CLEAR,NIGHT_CLEAR,NIGHT_CLEAR,NIGHT_CLEAR,NIGHT_CLEAR,NIGHT_MOSTLY_CLEAR,NIGHT_CLEAR","Onshore,Onshore,Cross-shore,Onshore,Cross-shore,Cross-shore,Cross-shore,Cross-shore,Cross-shore,Cross-shore,Cross-shore,Cross-shore,Offshore,Cross-shore",14
5842041f4e65fad6a770889e,2024_02_17,20.029,-155.831,Kawaihae,3,0.9471271428571428,1.338137142857143,25,25,"MOSTLY_CLEAR,CLEAR,MOSTLY_CLEAR,MOSTLY_CLEAR,MOSTLY_CLEAR,MOSTLY_CLEAR,NIGHT_MOSTLY_CLEAR,NIGHT_CLEAR,NIGHT_CLEAR,NIGHT_CLEAR,NIGHT_CLEAR,NIGHT_MOSTLY_CLEAR,NIGHT_MOSTLY_CLEAR,NIGHT_CLEAR","Offshore,Offshore,Offshore,Offshore,Offshore,Offshore,Offshore,Offshore,Offshore,Offshore,Offshore,Offshore,Offshore,Offshore",14
5842041f4e65fad6a770889f,2024_02_17,33.07541383424675,-117.3105,Grandview,2.6923076923076925,0.7823076923076923,1.0323076923076924,15,15,"MOSTLY_CLOUDY,CLEAR,CLEAR,NIGHT_CLOUDY,NIGHT_MIST,NIGHT_MIST,NIGHT_MIST,NIGHT_MIST,NIGHT_MIST,NIGHT_MIST,NIGHT_MIST,NIGHT_MIST,NIGHT_MIST","Onshore,Onshore,Onshore,Onshore,Offshore,Onshore,Onshore,Onshore,Onshore,Cross-shore,Cross-shore,Onshore,Cross-shore",13
5842041f4e65fad6a77088a0,2024_02_17,33.065267421296596,-117.30577,Beacons,2.923076923076923,0.7276923076923077,0.9969230769230769,15,15,"MOSTLY_CLOUDY,CLEAR,CLEAR,NIGHT_CLOUDY,NIGHT_MIST,NIGHT_MIST,NIGHT_MIST,NIGHT_MIST,NIGHT_MIST,NIGHT_MIST,NIGHT_MIST,NIGHT_MIST,NIGHT_MIST","Onshore,Onshore,Onshore,Onshore,Offshore,Onshore,Onshore,Onshore,Onshore,Cross-shore,Cross-shore,Onshore,Cross-shore",13
5842041f4e65fad6a77088a2,2024_02_17,21.252,-157.805,Diamond Head,3,0.6895069047619048,1.0340019047619047,26,25,"CLEAR,CLEAR,CLEAR,CLEAR,CLEAR,CLEAR,NIGHT_CLEAR,NIGHT_CLEAR,NIGHT_CLEAR,NIGHT_CLEAR,NIGHT_CLEAR,NIGHT_CLEAR,NIGHT_CLEAR,NIGHT_CLEAR","Offshore,Offshore,Offshore,Offshore,Offshore,Offshore,Offshore,Offshore,Offshore,Offshore,Offshore,Offshore,Offshore,Offshore",14
5842041f4e65fad6a77088a3,2024_02_17,33.04694255008896,-117.29966,Moonlight State Beach,2.769230769230769,0.7592307692307693,1.0176923076923077,15,15,"MOSTLY_CLOUDY,CLOUDY,CLEAR,NIGHT_CLOUDY,NIGHT_MIST,NIGHT_MIST,NIGHT_MIST,NIGHT_CLOUDY,NIGHT_OVERCAST,NIGHT_MIST,NIGHT_MIST,NIGHT_MIST,NIGHT_MIST","Onshore,Onshore,Onshore,Onshore,Onshore,Onshore,Onshore,Onshore,Cross-shore,Onshore,Cross-shore,Offshore,Cross-shore",13
5842041f4e65fad6a77088a5,2024_02_17,33.08685865930869,-117.31532,Ponto,2.6923076923076925,0.9961538461538462,1.2492307692307691,15,15,"MOSTLY_CLOUDY,CLEAR,CLEAR,NIGHT_CLOUDY,NIGHT_MIST,NIGHT_MIST,NIGHT_MIST,NIGHT_MIST,NIGHT_MIST,NIGHT_MIST,NIGHT_MIST,NIGHT_MIST,NIGHT_MIST","Onshore,Onshore,Onshore,Onshore,Onshore,Onshore,Onshore,Onshore,Onshore,Onshore,Cross-shore,Offshore,Cross-shore",13
5842041f4e65fad6a77088a6,2024_02_17,33.130343587871906,-117.33667796442558,Terra Mar Point,3,0.5497564102564103,0.9607692307692307,15,15,"MOSTLY_CLOUDY,OVERCAST,OVERCAST,NIGHT_OVERCAST,NIGHT_MIST,NIGHT_MIST,NIGHT_MIST,NIGHT_OVERCAST,NIGHT_MIST,NIGHT_MIST,NIGHT_MIST,NIGHT_OVERCAST,NIGHT_OVERCAST","Onshore,Onshore,Onshore,Cross-shore,Onshore,Onshore,Onshore,Onshore,Onshore,Onshore,Cross-shore,Cross-shore,Onshore",13
5842041f4e65fad6a77088af,2024_02_17,32.95916304183685,-117.26963,Del Mar,3,0.9823076923076923,1.2153846153846153,15,15,"CLOUDY,CLOUDY,CLOUDY,NIGHT_CLOUDY,NIGHT_MIST,NIGHT_MIST,NIGHT_CLOUDY,NIGHT_CLOUDY,NIGHT_CLOUDY,NIGHT_MIST,NIGHT_MIST,NIGHT_CLOUDY,NIGHT_MIST","Onshore,Onshore,Onshore,Onshore,Cross-shore,Cross-shore,Cross-shore,Onshore,Onshore,Onshore,Onshore,Onshore,Onshore",13
5842041f4e65fad6a77088b0,2024_02_17,32.97527261243354,-117.2721061331305,Del Mar Rivermouth,3,1.0592307692307692,1.2861538461538462,15,15,"CLOUDY,CLOUDY,CLOUDY,NIGHT_CLOUDY,NIGHT_MIST,NIGHT_OVERCAST,NIGHT_CLOUDY,NIGHT_OVERCAST,NIGHT_OVERCAST,NIGHT_OVERCAST,NIGHT_OVERCAST,NIGHT_OVERCAST,NIGHT_MIST","Onshore,Onshore,Onshore,Onshore,Cross-shore,Cross-shore,Cross-shore,Onshore,Onshore,Onshore,Onshore,Onshore,Onshore",13
5842041f4e65fad6a77088b1,2024_02_17,33.01352178146273,-117.28219,Cardiff Reef,3,0.826551282051282,1.1529358974358974,15,15,"CLOUDY,CLOUDY,CLOUDY,NIGHT_CLOUDY,NIGHT_MIST,NIGHT_MIST,NIGHT_MIST,NIGHT_MIST,NIGHT_MIST,NIGHT_MIST,NIGHT_MIST,NIGHT_MIST,NIGHT_MIST","Onshore,Onshore,Onshore,Cross-shore,Cross-shore,Onshore,Cross-shore,Cross-shore,Cross-shore,Cross-shore,Cross-shore,Onshore,Onshore",13
5842041f4e65fad6a77088b3,2024_02_17,33.00211185876003,-117.2811,Seaside Reef,3,0.8985384615384615,1.2080641025641026,15,15,"CLOUDY,CLOUDY,CLOUDY,NIGHT_CLOUDY,NIGHT_CLOUDY,NIGHT_MIST,NIGHT_CLOUDY,NIGHT_MIST,NIGHT_MIST,NIGHT_MIST,NIGHT_MIST,NIGHT_OVERCAST,NIGHT_MIST","Onshore,Onshore,Onshore,Cross-shore,Cross-shore,Onshore,Cross-shore,Cross-shore,Cross-shore,Cross-shore,Cross-shore,Onshore,Onshore",13
5842041f4e65fad6a77088b4,2024_02_17,33.0341859796287,-117.29552,Swami's,2.9492307692307693,0.8155897435897436,1.1394102564102564,15,15,"CLOUDY,CLOUDY,CLOUDY,NIGHT_CLOUDY,NIGHT_MIST,NIGHT_MIST,NIGHT_MIST,NIGHT_MIST,NIGHT_MIST,NIGHT_MIST,NIGHT_MIST,NIGHT_MIST,NIGHT_MIST","Onshore,Onshore,Onshore,Onshore,Onshore,Onshore,Onshore,Onshore,Cross-shore,Onshore,Cross-shore,Cross-shore,Cross-shore",13
5842041f4e65fad6a77088b7,2024_02_17,33.04569760260221,-117.2994,D Street,2.769230769230769,0.8776923076923077,1.1453846153846154,15,15,"MOSTLY_CLOUDY,CLOUDY,CLEAR,NIGHT_CLOUDY,NIGHT_MIST,NIGHT_MIST,NIGHT_MIST,NIGHT_CLOUDY,NIGHT_OVERCAST,NIGHT_MIST,NIGHT_MIST,NIGHT_MIST,NIGHT_MIST","Onshore,Onshore,Onshore,Onshore,Onshore,Onshore,Onshore,Onshore,Cross-shore,Onshore,Cross-shore,Offshore,Cross-shore",13
5842041f4e65fad6a77088b8,2024_02_17,33.02090944350196,-117.28535,San Elijo State Beach,3,0.5905897435897436,0.9513974358974359,15,15,"CLOUDY,CLOUDY,CLOUDY,NIGHT_CLOUDY,NIGHT_OVERCAST,NIGHT_MIST,NIGHT_MIST,NIGHT_MIST,NIGHT_MIST,NIGHT_MIST,NIGHT_MIST,NIGHT_MIST,NIGHT_MIST","Onshore,Onshore,Onshore,Cross-shore,Cross-shore,Onshore,Cross-shore,Cross-shore,Cross-shore,Cross-shore,Cross-shore,Onshore,Onshore",13
5842041f4e65fad6a77088c2,2024_02_17,32.80662846492798,-117.2688764333725,PB Point,3,0.9661538461538461,1.2115384615384615,15,15,"MOSTLY_CLOUDY,MOSTLY_CLOUDY,MIST,NIGHT_MIST,NIGHT_MIST,NIGHT_MIST,NIGHT_OVERCAST,NIGHT_MIST,NIGHT_MIST,NIGHT_MIST,NIGHT_MIST,NIGHT_MIST,NIGHT_MIST","Cross-shore,Offshore,Cross-shore,Cross-shore,Offshore,Cross-shore,Cross-shore,Onshore,Cross-shore,Cross-shore,Cross-shore,Cross-shore,Offshore",13
5842041f4e65fad6a77088c4,2024_02_17,32.8060476681448,-117.26479,Old Man's at Tourmaline,2.8461538461538463,0.6384615384615384,0.94,15,15,"MOSTLY_CLOUDY,MOSTLY_CLOUDY,MIST,NIGHT_MIST,NIGHT_OVERCAST,NIGHT_MIST,NIGHT_OVERCAST,NIGHT_MIST,NIGHT_MIST,NIGHT_MIST,NIGHT_MIST,NIGHT_MIST,NIGHT_MIST","Cross-shore,Cross-shore,Cross-shore,Cross-shore,Offshore,Cross-shore,Cross-shore,Onshore,Cross-shore,Offshore,Cross-shore,Cross-shore,Offshore",13
5842041f4e65fad6a77088cb,2024_02_17,32.557056711256,-117.1327445020322,Tijuana Slough,2.1538461538461537,0.5707692307692308,0.8753846153846154,15,15,"MOSTLY_CLOUDY,MOSTLY_CLOUDY,OVERCAST,NIGHT_OVERCAST,NIGHT_MIST,NIGHT_MIST,NIGHT_MIST,NIGHT_MIST,NIGHT_MIST,NIGHT_MIST,NIGHT_MIST,NIGHT_MIST,NIGHT_MIST","Onshore,Onshore,Onshore,Onshore,Cross-shore,Cross-shore,Cross-shore,Cross-shore,Cross-shore,Cross-shore,Cross-shore,Cross-shore,Cross-shore",13
5842041f4e65fad6a77088cc,2024_02_17,32.863,-117.257,La Jolla Shores,2.769230769230769,0.7892307692307692,1.0384615384615385,15,15,"MIST,MIST,OVERCAST,NIGHT_OVERCAST,NIGHT_MIST,NIGHT_MIST,NIGHT_MIST,NIGHT_MIST,NIGHT_MIST,NIGHT_MIST,NIGHT_MIST,NIGHT_MIST,NIGHT_MIST","Onshore,Onshore,Onshore,Onshore,Onshore,Onshore,Onshore,Onshore,Onshore,Onshore,Onshore,Onshore,Onshore",13
5842041f4e65fad6a77088ce,2024_02_17,32.67443657790586,-117.17421316238693,Coronado Beach,2.923076923076923,0.48538461538461536,0.79,15,15,"MOSTLY_CLOUDY,CLOUDY,CLOUDY,NIGHT_CLOUDY,NIGHT_MIST,NIGHT_MIST,NIGHT_MIST,NIGHT_MIST,NIGHT_MIST,NIGHT_MIST,NIGHT_MIST,NIGHT_MIST,NIGHT_MIST","Cross-shore,Cross-shore,Cross-shore,Offshore,Offshore,Offshore,Offshore,Offshore,Offshore,Offshore,Offshore,Offshore,Offshore",13
5842041f4e65fad6a77088cf,2024_02_17,33.40484417640326,-117.60749,San Clemente State Beach,2.6923076923076925,0.5961538461538461,0.89,15,15,"MOSTLY_CLOUDY,CLEAR,MOSTLY_CLEAR,NIGHT_MOSTLY_CLOUDY,NIGHT_MOSTLY_CLOUDY,NIGHT_MIST,NIGHT_MIST,NIGHT_DRIZZLE,NIGHT_MIST,NIGHT_MIST,NIGHT_MIST,NIGHT_MIST,NIGHT_MIST","Onshore,Cross-shore,Cross-shore,Cross-shore,Cross-shore,Cross-shore,Onshore,Onshore,Onshore,Onshore,Cross-shore,Onshore,Onshore",13
5842041f4e65fad6a77088d5,2024_02_17,33.4663042002114,-117.7168352817103,Strands,2.6153846153846154,0.7125512820512822,1.0472692307692308,14,14,"CLEAR,CLEAR,CLEAR,NIGHT_CLEAR,NIGHT_MOSTLY_CLOUDY,NIGHT_DRIZZLE,NIGHT_MIST,NIGHT_MIST,NIGHT_MIST,NIGHT_MIST,NIGHT_MIST,NIGHT_MIST,NIGHT_MIST","Onshore,Onshore,Cross-shore,Cross-shore,Cross-shore,Cross-shore,Onshore,Onshore,Onshore,Onshore,Onshore,Onshore,Onshore",13
5842041f4e65fad6a77088d7,2024_02_17,33.4609858001748,-117.68535,Doheny State Beach,2,0.08506410256410256,0.38784615384615384,14,14,"CLEAR,CLEAR,CLEAR,NIGHT_MIST,NIGHT_MIST,NIGHT_MIST,NIGHT_MIST,NIGHT_DRIZZLE,NIGHT_DRIZZLE,NIGHT_MIST,NIGHT_MIST,NIGHT_MIST,NIGHT_MIST","Onshore,Onshore,Onshore,Cross-shore,Cross-shore,Cross-shore,Offshore,Offshore,Offshore,Offshore,Offshore,Offshore,Offshore",13
5842041f4e65fad6a77088dc,2024_02_17,33.50894790083017,-117.75243,Aliso Creek,2.1538461538461537,0.3976923076923077,0.7023076923076923,15,15,"CLEAR,CLEAR,CLEAR,NIGHT_MOSTLY_CLOUDY,NIGHT_CLOUDY,NIGHT_MIST,NIGHT_MIST,NIGHT_MIST,NIGHT_MIST,NIGHT_MIST,NIGHT_MIST,NIGHT_MIST,NIGHT_MIST","Cross-shore,Cross-shore,Cross-shore,Cross-shore,Cross-shore,Cross-shore,Cross-shore,Cross-shore,Cross-shore,Cross-shore,Cross-shore,Onshore,Onshore",13
5842041f4e65fad6a77088dd,2024_02_17,33.5326591767067,-117.77764,Brooks Street,2,0.22923076923076924,0.5346153846153846,15,15,"CLEAR,CLEAR,MIST,NIGHT_MIST,NIGHT_OVERCAST,NIGHT_MIST,NIGHT_MIST,NIGHT_MIST,NIGHT_MIST,NIGHT_MIST,NIGHT_MIST,NIGHT_MIST,NIGHT_MIST","Cross-shore,Cross-shore,Cross-shore,Cross-shore,Cross-shore,Cross-shore,Cross-shore,Cross-shore,Cross-shore,Cross-shore,Cross-shore,Onshore,Onshore",13
5842041f4e65fad6a77088de,2024_02_17,33.53561225884637,-117.7799,Thalia Street,2,0.2853846153846154,0.5915384615384616,15,15,"CLEAR,CLEAR,MIST,NIGHT_MIST,NIGHT_OVERCAST,NIGHT_MIST,NIGHT_MIST,NIGHT_MIST,NIGHT_MIST,NIGHT_MIST,NIGHT_MIST,NIGHT_MIST,NIGHT_MIST","Cross-shore,Cross-shore,Cross-shore,Cross-shore,Cross-shore,Cross-shore,Cross-shore,Cross-shore,Cross-shore,Cross-shore,Cross-shore,Onshore,Onshore",13
5842041f4e65fad6a77088e3,2024_02_17,33.54268310353641,-117.7916,Rockpile,2,0.3269230769230769,0.6323076923076923,15,15,"CLEAR,CLEAR,MIST,NIGHT_MIST,NIGHT_OVERCAST,NIGHT_MIST,NIGHT_MIST,NIGHT_MIST,NIGHT_MIST,NIGHT_MIST,NIGHT_MIST,NIGHT_MIST,NIGHT_MIST","Cross-shore,Cross-shore,Cross-shore,Cross-shore,Cross-shore,Cross-shore,Cross-shore,Cross-shore,Cross-shore,Cross-shore,Cross-shore,Onshore,Onshore",13
5842041f4e65fad6a77088e4,2024_02_17,33.7368459504689,-118.10342,"Seal Beach Pier, Southside",1.6923076923076923,0.10461538461538462,0.40923076923076923,15,15,"CLEAR,CLEAR,CLEAR,NIGHT_MOSTLY_CLOUDY,NIGHT_MOSTLY_CLOUDY,NIGHT_MOSTLY_CLOUDY,NIGHT_CLOUDY,NIGHT_OVERCAST,NIGHT_MIST,NIGHT_OVERCAST,NIGHT_OVERCAST,NIGHT_MIST,NIGHT_MIST","Onshore,Onshore,Onshore,Onshore,Onshore,Offshore,Cross-shore,Cross-shore,Offshore,Offshore,Offshore,Cross-shore,Offshore",13
5842041f4e65fad6a77088e5,2024_02_17,33.73933701820233,-118.117,Ray Bay,1.6923076923076923,0.09692307692307692,0.40307692307692305,15,15,"CLEAR,CLEAR,CLEAR,NIGHT_CLEAR,NIGHT_MOSTLY_CLOUDY,NIGHT_CLOUDY,NIGHT_OVERCAST,NIGHT_MIST,NIGHT_MIST,NIGHT_OVERCAST,NIGHT_OVERCAST,NIGHT_MIST,NIGHT_MIST","Onshore,Onshore,Onshore,Onshore,Onshore,Cross-shore,Cross-shore,Cross-shore,Offshore,Offshore,Offshore,Offshore,Offshore",13
5842041f4e65fad6a77088e7,2024_02_17,33.728733,-118.08982,Surfside,1.6153846153846154,0.21307692307692308,0.5176923076923077,15,15,"MOSTLY_CLEAR,MOSTLY_CLEAR,CLEAR,NIGHT_CLEAR,NIGHT_MOSTLY_CLOUDY,NIGHT_MOSTLY_CLOUDY,NIGHT_OVERCAST,NIGHT_OVERCAST,NIGHT_OVERCAST,NIGHT_OVERCAST,NIGHT_OVERCAST,NIGHT_MIST,NIGHT_MIST","Onshore,Onshore,Onshore,Onshore,Onshore,Cross-shore,Cross-shore,Cross-shore,Offshore,Offshore,Offshore,Cross-shore,Offshore",13
5842041f4e65fad6a77088e8,2024_02_17,33.68760321488161,-118.04236,Bolsa Chica State Beach,2.769230769230769,0.4801153846153846,0.8832307692307692,14,14,"MOSTLY_CLOUDY,MOSTLY_CLOUDY,MOSTLY_CLEAR,NIGHT_MOSTLY_CLOUDY,NIGHT_MOSTLY_CLOUDY,NIGHT_MIST,NIGHT_MIST,NIGHT_MIST,NIGHT_MIST,NIGHT_MIST,NIGHT_MIST,NIGHT_MIST,NIGHT_MIST","Onshore,Onshore,Onshore,Onshore,Cross-shore,Cross-shore,Cross-shore,Cross-shore,Cross-shore,Cross-shore,Onshore,Onshore,Onshore",13
5842041f4e65fad6a77088ea,2024_02_17,33.66704400178788,-118.0192,North HB Streets,3,0.6439871794871795,1.0328076923076923,14,14,"CLEAR,CLEAR,CLEAR,NIGHT_MOSTLY_CLOUDY,NIGHT_MIST,NIGHT_MIST,NIGHT_MOSTLY_CLOUDY,NIGHT_OVERCAST,NIGHT_OVERCAST,NIGHT_OVERCAST,NIGHT_MIST,NIGHT_MIST,NIGHT_DRIZZLE","Onshore,Onshore,Onshore,Onshore,Cross-shore,Cross-shore,Cross-shore,Cross-shore,Cross-shore,Cross-shore,Cross-shore,Cross-shore,Cross-shore",13
5842041f4e65fad6a77088ed,2024_02_17,33.65475101379567,-118.00291,Huntington Beach Pier Southside,2.5384615384615383,0.678025641025641,1.0703717948717948,14,14,"MOSTLY_CLOUDY,MOSTLY_CLOUDY,MOSTLY_CLEAR,NIGHT_MOSTLY_CLOUDY,NIGHT_MOSTLY_CLOUDY,NIGHT_MOSTLY_CLOUDY,NIGHT_MOSTLY_CLOUDY,NIGHT_OVERCAST,NIGHT_OVERCAST,NIGHT_OVERCAST,NIGHT_OVERCAST,NIGHT_MIST,NIGHT_MIST","Onshore,Onshore,Onshore,Onshore,Onshore,Onshore,Onshore,Cross-shore,Cross-shore,Cross-shore,Offshore,Offshore,Offshore",13
5842041f4e65fad6a77088ee,2024_02_17,33.62778647706099,-117.95939,River Jetties,2.603076923076923,0.5586410256410257,0.919448717948718,15,15,"MOSTLY_CLOUDY,MOSTLY_CLOUDY,MOSTLY_CLOUDY,NIGHT_MOSTLY_CLOUDY,NIGHT_MOSTLY_CLOUDY,NIGHT_MIST,NIGHT_MOSTLY_CLOUDY,NIGHT_MIST,NIGHT_OVERCAST,NIGHT_OVERCAST,NIGHT_OVERCAST,NIGHT_MIST,NIGHT_MIST","Onshore,Onshore,Onshore,Onshore,Onshore,Onshore,Onshore,Cross-shore,Offshore,Offshore,Offshore,Offshore,Offshore",13
5842041f4e65fad6a77088f2,2024_02_17,33.605165797643664,-117.92500376701355,Newport Point,2.076923076923077,0.38846153846153847,0.6923076923076923,15,15,"CLEAR,CLEAR,MIST,NIGHT_MIST,NIGHT_MOSTLY_CLOUDY,NIGHT_MIST,NIGHT_MOSTLY_CLOUDY,NIGHT_MIST,NIGHT_MIST,NIGHT_CLOUDY,NIGHT_CLOUDY,NIGHT_MIST,NIGHT_MIST","Cross-shore,Cross-shore,Cross-shore,Cross-shore,Cross-shore,Cross-shore,Cross-shore,Cross-shore,Cross-shore,Cross-shore,Cross-shore,Cross-shore,Cross-shore",13
5842041f4e65fad6a77088f3,2024_02_17,33.58982984726977,-117.87713,Corona del Mar,1.3076923076923077,0.18901615384615383,0.2953353846153846,15,15,"CLEAR,CLEAR,MIST,NIGHT_MIST,NIGHT_MIST,NIGHT_MIST,NIGHT_MIST,NIGHT_MIST,NIGHT_MIST,NIGHT_MIST,NIGHT_MIST,NIGHT_MIST,NIGHT_MIST","Onshore,Onshore,Onshore,Onshore,Onshore,Onshore,Onshore,Offshore,Offshore,Offshore,Offshore,Offshore,Offshore",13
5842041f4e65fad6a77088f7,2024_02_17,34.00750300824362,-118.4971783496269,Santa Monica Pier,1.7692307692307692,0.24692307692307694,0.5515384615384615,15,15,"CLEAR,CLEAR,CLEAR,NIGHT_CLEAR,NIGHT_MOSTLY_CLOUDY,NIGHT_MOSTLY_CLOUDY,NIGHT_BRIEF_SHOWERS,NIGHT_MIST,NIGHT_MIST,NIGHT_BRIEF_SHOWERS,NIGHT_BRIEF_SHOWERS,NIGHT_MIST,NIGHT_DRIZZLE","Onshore,Onshore,Onshore,Onshore,Onshore,Onshore,Onshore,Offshore,Offshore,Offshore,Offshore,Onshore,Onshore",13
5842041f4e65fad6a77088ff,2024_02_17,33.94070283102945,-118.44321,Dockweiler Beach,2.7946153846153847,0.802431923076923,1.173253076923077,14,14,"MIST,MIST,MIST,NIGHT_MOSTLY_CLOUDY,NIGHT_MIST,NIGHT_MIST,NIGHT_MIST,NIGHT_MIST,NIGHT_OVERCAST,NIGHT_CLOUDY,NIGHT_CLOUDY,NIGHT_OVERCAST,NIGHT_MIST","Onshore,Onshore,Onshore,Onshore,Onshore,Onshore,Onshore,Onshore,Cross-shore,Cross-shore,Cross-shore,Onshore,Onshore",13
5842041f4e65fad6a7708900,2024_02_17,33.9231846937237,-118.4341465777908,Shitpipe,2.3076923076923075,0.5445538461538462,0.9786153846153847,14,14,"MIST,MOSTLY_CLOUDY,MIST,NIGHT_MOSTLY_CLOUDY,NIGHT_CLEAR,NIGHT_MIST,NIGHT_MIST,NIGHT_MOSTLY_CLOUDY,NIGHT_OVERCAST,NIGHT_OVERCAST,NIGHT_MIST,NIGHT_MIST,NIGHT_MIST","Onshore,Onshore,Onshore,Onshore,Onshore,Onshore,Onshore,Onshore,Onshore,Onshore,Cross-shore,Onshore,Onshore",13
5842041f4e65fad6a7708902,2024_02_17,33.9108528052242,-118.4279133138721,Hammerland,2.2946153846153847,0.7223538461538461,1.0305384615384616,14,14,"MIST,MOSTLY_CLOUDY,MIST,NIGHT_MOSTLY_CLOUDY,NIGHT_MIST,NIGHT_MIST,NIGHT_MIST,NIGHT_MOSTLY_CLOUDY,NIGHT_OVERCAST,NIGHT_OVERCAST,NIGHT_MIST,NIGHT_MIST,NIGHT_MIST","Onshore,Onshore,Onshore,Onshore,Onshore,Onshore,Onshore,Onshore,Onshore,Onshore,Cross-shore,Onshore,Onshore",13
5842041f4e65fad6a7708904,2024_02_17,33.87201368173932,-118.4075151286262,Hermosa Beach,2.2176923076923076,0.4740615384615385,0.8428769230769231,14,14,"MIST,MIST,MIST,NIGHT_MIST,NIGHT_MIST,NIGHT_MIST,NIGHT_MIST,NIGHT_MIST,NIGHT_CLOUDY,NIGHT_MIST,NIGHT_MIST,NIGHT_MIST,NIGHT_MIST","Onshore,Onshore,Onshore,Onshore,Onshore,Onshore,Onshore,Onshore,Onshore,Onshore,Onshore,Onshore,Onshore",13
5842041f4e65fad6a7708906,2024_02_17,33.90129336911256,-118.42184,El Porto,2.3715384615384614,0.8908153846153847,1.1836153846153847,14,14,"MIST,MIST,MIST,NIGHT_MOSTLY_CLOUDY,NIGHT_MIST,NIGHT_MIST,NIGHT_MIST,NIGHT_MIST,NIGHT_MIST,NIGHT_MIST,NIGHT_MIST,NIGHT_MIST,NIGHT_MIST","Onshore,Onshore,Onshore,Onshore,Onshore,Onshore,Onshore,Onshore,Onshore,Onshore,Onshore,Onshore,Onshore",13
5842041f4e65fad6a7708907,2024_02_17,33.87963506431794,-118.41102,Manhattan Beach Pier,2.2946153846153847,0.7657076923076923,1.1172153846153847,14,14,"MIST,MIST,MIST,NIGHT_MOSTLY_CLOUDY,NIGHT_MIST,NIGHT_MIST,NIGHT_MIST,NIGHT_MIST,NIGHT_MIST,NIGHT_MIST,NIGHT_MIST,NIGHT_MIST,NIGHT_MIST","Onshore,Onshore,Onshore,Onshore,Onshore,Onshore,Onshore,Onshore,Onshore,Onshore,Onshore,Onshore,Onshore",13
5842041f4e65fad6a7708914,2024_02_17,34.038053387863464,-118.5532,Sunset Point,1.6923076923076923,0.16230769230769232,0.46615384615384614,15,15,"CLEAR,CLEAR,CLEAR,NIGHT_CLEAR,NIGHT_CLEAR,NIGHT_CLEAR,NIGHT_MIST,NIGHT_MIST,NIGHT_MIST,NIGHT_MIST,NIGHT_MIST,NIGHT_MIST,NIGHT_MIST","Onshore,Onshore,Onshore,Onshore,Onshore,Offshore,Offshore,Offshore,Offshore,Offshore,Offshore,Offshore,Offshore",13
5842041f4e65fad6a7708920,2024_02_17,33.80930828074364,-118.3933198342649,Haggerty's,2,0.19015384615384615,0.37246153846153846,15,15,"MIST,MIST,MIST,NIGHT_MIST,NIGHT_MOSTLY_CLOUDY,NIGHT_DRIZZLE,NIGHT_DRIZZLE,NIGHT_MIST,NIGHT_MIST,NIGHT_MIST,NIGHT_MIST,NIGHT_MIST,NIGHT_MIST","Onshore,Onshore,Onshore,Onshore,Onshore,Onshore,Onshore,Onshore,Onshore,Onshore,Onshore,Onshore,Onshore",13
5842041f4e65fad6a7708921,2024_02_17,33.85044519861206,-118.40048,Redondo Breakwater,2.6153846153846154,0.6807692307692308,0.9484615384615385,15,15,"MIST,MIST,MIST,NIGHT_MIST,NIGHT_MIST,NIGHT_MIST,NIGHT_MIST,NIGHT_MIST,NIGHT_CLOUDY,NIGHT_MIST,NIGHT_MIST,NIGHT_MIST,NIGHT_MIST","Onshore,Onshore,Onshore,Onshore,Onshore,Onshore,Onshore,Onshore,Onshore,Onshore,Onshore,Onshore,Onshore",13
5842041f4e65fad6a7708927,2024_02_17,33.70877301002487,-118.2840112858389,Cabrillo Beach,2,0.03461538461538462,0.3392307692307692,15,15,"MOSTLY_CLOUDY,CLEAR,CLEAR,NIGHT_MIST,NIGHT_CLEAR,NIGHT_CLEAR,NIGHT_CLEAR,NIGHT_MIST,NIGHT_CLEAR,NIGHT_CLEAR,NIGHT_OVERCAST,NIGHT_OVERCAST,NIGHT_OVERCAST","Offshore,Offshore,Offshore,Offshore,Offshore,Offshore,Offshore,Offshore,Offshore,Cross-shore,Cross-shore,Offshore,Offshore",13
5842041f4e65fad6a770892c,2024_02_17,33.77209986806257,-118.4268428476672,Lunada Bay,1.6923076923076923,0.61,0.8953846153846153,15,15,"MOSTLY_CLOUDY,MIST,MOSTLY_CLOUDY,NIGHT_MIST,NIGHT_CLEAR,NIGHT_MIST,NIGHT_MIST,NIGHT_MIST,NIGHT_MIST,NIGHT_MIST,NIGHT_MIST,NIGHT_MIST,NIGHT_DRIZZLE","Onshore,Cross-shore,Onshore,Onshore,Onshore,Onshore,Onshore,Onshore,Onshore,Onshore,Onshore,Onshore,Onshore",13
5842041f4e65fad6a770892d,2024_02_17,33.79294656286144,-118.4070316699825,PV Cove,2.1538461538461537,0.6452015384615385,0.9010784615384615,15,15,"MIST,MIST,MIST,NIGHT_MIST,NIGHT_MOSTLY_CLOUDY,NIGHT_DRIZZLE,NIGHT_DRIZZLE,NIGHT_MIST,NIGHT_MIST,NIGHT_MIST,NIGHT_MIST,NIGHT_MIST,NIGHT_MIST","Onshore,Onshore,Onshore,Onshore,Onshore,Onshore,Onshore,Onshore,Onshore,Onshore,Onshore,Onshore,Onshore",13
5842041f4e65fad6a7708930,2024_02_17,34.03944902292561,-118.57539,Chart House,1,0.0015384615384615385,0.28384615384615386,15,15,"MOSTLY_CLEAR,CLEAR,CLEAR,NIGHT_CLEAR,NIGHT_CLEAR,NIGHT_MOSTLY_CLEAR,NIGHT_MOSTLY_CLEAR,NIGHT_MIST,NIGHT_MIST,NIGHT_MOSTLY_CLOUDY,NIGHT_MIST,NIGHT_FOG,NIGHT_FOG","Onshore,Cross-shore,Cross-shore,Cross-shore,Onshore,Offshore,Offshore,Cross-shore,Offshore,Offshore,Offshore,Offshore,Offshore",13
5842041f4e65fad6a7708936,2024_02_17,34.0016731994772,-118.80456,Point Dume,1.9230769230769231,0.08692307692307692,0.3935692307692308,15,15,"MOSTLY_CLEAR,CLEAR,CLEAR,NIGHT_CLEAR,NIGHT_CLEAR,NIGHT_CLEAR,NIGHT_CLEAR,NIGHT_CLEAR,NIGHT_CLEAR,NIGHT_CLEAR,NIGHT_MOSTLY_CLOUDY,NIGHT_MIST,NIGHT_MIST","Cross-shore,Cross-shore,Cross-shore,Offshore,Offshore,Offshore,Offshore,Cross-shore,Onshore,Onshore,Onshore,Onshore,Onshore",13
5842041f4e65fad6a7708937,2024_02_17,34.02587527588963,-118.7554939066114,Latigo Point,2,0.20692307692307693,0.5115384615384615,15,15,"CLEAR,CLEAR,CLEAR,NIGHT_CLEAR,NIGHT_CLEAR,NIGHT_CLEAR,NIGHT_CLEAR,NIGHT_CLEAR,NIGHT_CLEAR,NIGHT_CLEAR,NIGHT_CLEAR,NIGHT_MIST,NIGHT_MIST","Cross-shore,Cross-shore,Cross-shore,Offshore,Offshore,Offshore,Offshore,Offshore,Offshore,Cross-shore,Cross-shore,Cross-shore,Cross-shore",13
5842041f4e65fad6a770893f,2024_02_17,34.043762,-118.93294,Leo Carrillo,2.5384615384615383,0.44675384615384617,0.7491692307692308,15,15,"MOSTLY_CLEAR,CLEAR,CLEAR,NIGHT_CLEAR,NIGHT_CLEAR,NIGHT_CLEAR,NIGHT_CLEAR,NIGHT_CLEAR,NIGHT_CLEAR,NIGHT_CLEAR,NIGHT_CLEAR,NIGHT_MOSTLY_CLOUDY,NIGHT_MOSTLY_CLOUDY","Cross-shore,Cross-shore,Cross-shore,Cross-shore,Offshore,Offshore,Offshore,Offshore,Offshore,Offshore,Offshore,Offshore,Offshore",13
5842041f4e65fad6a7708941,2024_02_17,36.69388179265737,-121.81289,Marina State Beach,3,0.9715384615384616,1.1776923076923076,13,13,"CLEAR,CLEAR,CLEAR,NIGHT_MIST,NIGHT_MIST,NIGHT_MIST,NIGHT_MIST,NIGHT_MOSTLY_CLOUDY,NIGHT_MOSTLY_CLOUDY,NIGHT_MOSTLY_CLOUDY,NIGHT_MIST,NIGHT_MIST,NIGHT_MIST","Onshore,Onshore,Onshore,Offshore,Onshore,Onshore,Cross-shore,Offshore,Offshore,Offshore,Offshore,Offshore,Cross-shore",13
5842041f4e65fad6a7708944,2024_02_17,34.34145077331085,-119.416999352654,Stanley's,2,0.19230769230769232,0.5007692307692307,15,15,"BRIEF_SHOWERS,BRIEF_SHOWERS,MIST,NIGHT_MIST,NIGHT_MIST,NIGHT_MIST,NIGHT_MIST,NIGHT_MOSTLY_CLOUDY,NIGHT_MOSTLY_CLOUDY,NIGHT_MOSTLY_CLOUDY,NIGHT_MOSTLY_CLOUDY,NIGHT_MOSTLY_CLOUDY,NIGHT_MOSTLY_CLOUDY","Onshore,Onshore,Onshore,Onshore,Onshore,Onshore,Onshore,Cross-shore,Onshore,Onshore,Cross-shore,Offshore,Offshore",13
5842041f4e65fad6a7708945,2024_02_17,34.35113017313915,-119.426921498899,Oil Piers,2,0.19538461538461538,0.5007692307692307,15,15,"BRIEF_SHOWERS,BRIEF_SHOWERS,MIST,NIGHT_MIST,NIGHT_MIST,NIGHT_MIST,NIGHT_MIST,NIGHT_MOSTLY_CLOUDY,NIGHT_MOSTLY_CLOUDY,NIGHT_MOSTLY_CLOUDY,NIGHT_MOSTLY_CLOUDY,NIGHT_MOSTLY_CLOUDY,NIGHT_MOSTLY_CLOUDY","Cross-shore,Cross-shore,Cross-shore,Cross-shore,Cross-shore,Cross-shore,Cross-shore,Cross-shore,Onshore,Onshore,Cross-shore,Offshore,Offshore",13
5842041f4e65fad6a770894c,2024_02_17,34.17876333306018,-119.2399483564372,Oxnard,2.3846153846153846,0.6976923076923077,0.9638461538461538,15,15,"CLEAR,CLEAR,MIST,NIGHT_MOSTLY_CLOUDY,NIGHT_OVERCAST,NIGHT_MIST,NIGHT_MIST,NIGHT_MIST,NIGHT_MIST,NIGHT_MIST,NIGHT_MIST,NIGHT_MOSTLY_CLOUDY,NIGHT_MOSTLY_CLOUDY","Onshore,Onshore,Onshore,Onshore,Onshore,Onshore,Onshore,Cross-shore,Onshore,Onshore,Onshore,Offshore,Cross-shore",13
5842041f4e65fad6a7708957,2024_02_17,34.31720331100517,-119.3882324751725,Pitas Point,2,0.22230769230769232,0.5307692307692308,15,15,"MIST,DRIZZLE,MOSTLY_CLEAR,NIGHT_MOSTLY_CLOUDY,NIGHT_MIST,NIGHT_BRIEF_SHOWERS,NIGHT_MIST,NIGHT_MIST,NIGHT_MOSTLY_CLOUDY,NIGHT_MIST,NIGHT_OVERCAST,NIGHT_MOSTLY_CLOUDY,NIGHT_MOSTLY_CLOUDY","Onshore,Onshore,Cross-shore,Cross-shore,Offshore,Offshore,Offshore,Offshore,Offshore,Offshore,Offshore,Offshore,Offshore",13
5842041f4e65fad6a7708959,2024_02_17,34.27851754384724,-119.316202617226,Emma Wood,2,0.21076923076923076,0.5161538461538462,15,15,"CLEAR,MIST,MIST,NIGHT_MOSTLY_CLOUDY,NIGHT_MIST,NIGHT_MIST,NIGHT_MOSTLY_CLOUDY,NIGHT_MIST,NIGHT_OVERCAST,NIGHT_MIST,NIGHT_OVERCAST,NIGHT_MOSTLY_CLOUDY,NIGHT_MOSTLY_CLOUDY","Onshore,Offshore,Onshore,Onshore,Onshore,Onshore,Onshore,Cross-shore,Onshore,Onshore,Onshore,Offshore,Offshore",13
5842041f4e65fad6a770895a,2024_02_17,34.35513640390276,-119.4400589884255,Mussel Shoals (aka Little Rincon),2,0.2153846153846154,0.5207692307692308,15,15,"BRIEF_SHOWERS,MOSTLY_CLOUDY,MOSTLY_CLEAR,NIGHT_MIST,NIGHT_MIST,NIGHT_MIST,NIGHT_MIST,NIGHT_MOSTLY_CLOUDY,NIGHT_MOSTLY_CLOUDY,NIGHT_MOSTLY_CLOUDY,NIGHT_MOSTLY_CLOUDY,NIGHT_MOSTLY_CLOUDY,NIGHT_MOSTLY_CLOUDY","Cross-shore,Cross-shore,Cross-shore,Cross-shore,Cross-shore,Cross-shore,Cross-shore,Cross-shore,Onshore,Onshore,Onshore,Cross-shore,Cross-shore",13
5842041f4e65fad6a770895e,2024_02_17,34.28991757054902,-119.3366646794652,Summer Beach,2,0.17846153846153845,0.48384615384615387,15,15,"CLEAR,MIST,MIST,NIGHT_MOSTLY_CLOUDY,NIGHT_MIST,NIGHT_MIST,NIGHT_MOSTLY_CLOUDY,NIGHT_MIST,NIGHT_OVERCAST,NIGHT_MIST,NIGHT_OVERCAST,NIGHT_MOSTLY_CLOUDY,NIGHT_MOSTLY_CLOUDY","Cross-shore,Offshore,Onshore,Onshore,Onshore,Onshore,Onshore,Onshore,Onshore,Onshore,Onshore,Offshore,Offshore",13
5842041f4e65fad6a770895f,2024_02_17,34.30897456105926,-119.3582501170116,Solimar,2,0.16,0.4646153846153846,15,15,"MIST,DRIZZLE,MOSTLY_CLEAR,NIGHT_MOSTLY_CLOUDY,NIGHT_MIST,NIGHT_BRIEF_SHOWERS,NIGHT_MIST,NIGHT_MIST,NIGHT_MOSTLY_CLOUDY,NIGHT_MIST,NIGHT_OVERCAST,NIGHT_MOSTLY_CLOUDY,NIGHT_MOSTLY_CLOUDY","Onshore,Onshore,Cross-shore,Cross-shore,Offshore,Offshore,Offshore,Offshore,Cross-shore,Offshore,Offshore,Offshore,Offshore",13
5842041f4e65fad6a7708960,2024_02_17,34.39836265281686,-119.70213,Leadbetter Point,1,0,0.23846153846153847,14,14,"MOSTLY_CLEAR,MOSTLY_CLEAR,MOSTLY_CLEAR,NIGHT_MOSTLY_CLOUDY,NIGHT_MOSTLY_CLOUDY,NIGHT_MIST,NIGHT_MOSTLY_CLOUDY,NIGHT_MOSTLY_CLOUDY,NIGHT_MOSTLY_CLOUDY,NIGHT_MOSTLY_CLOUDY,NIGHT_MIST,NIGHT_MOSTLY_CLOUDY,NIGHT_MOSTLY_CLOUDY","Cross-shore,Cross-shore,Cross-shore,Cross-shore,Offshore,Offshore,Offshore,Offshore,Offshore,Cross-shore,Cross-shore,Offshore,Onshore",13
5842041f4e65fad6a7708961,2024_02_17,34.46052293893899,-120.07328,Refugio,1.5384615384615385,0.00923076923076923,0.30923076923076925,14,14,"MOSTLY_CLOUDY,MOSTLY_CLEAR,CLEAR,NIGHT_CLEAR,NIGHT_CLEAR,NIGHT_CLEAR,NIGHT_CLEAR,NIGHT_CLEAR,NIGHT_CLEAR,NIGHT_CLEAR,NIGHT_CLEAR,NIGHT_CLEAR,NIGHT_CLEAR","Offshore,Offshore,Offshore,Offshore,Offshore,Offshore,Offshore,Offshore,Offshore,Offshore,Cross-shore,Offshore,Offshore",13
5842041f4e65fad6a7708962,2024_02_17,34.40754276777778,-119.87639,Devereux,1.7692307692307692,0.21153846153846154,0.5153846153846154,14,14,"MIST,MOSTLY_CLEAR,MOSTLY_CLOUDY,NIGHT_CLEAR,NIGHT_CLEAR,NIGHT_CLEAR,NIGHT_MOSTLY_CLEAR,NIGHT_MOSTLY_CLEAR,NIGHT_MIST,NIGHT_MIST,NIGHT_MIST,NIGHT_MOSTLY_CLOUDY,NIGHT_MOSTLY_CLOUDY","Cross-shore,Cross-shore,Cross-shore,Cross-shore,Cross-shore,Cross-shore,Onshore,Onshore,Onshore,Onshore,Onshore,Onshore,Onshore",13
5842041f4e65fad6a7708963,2024_02_17,34.27479983305182,-119.3133222656776,Ventura Overhead,2,0.23615384615384616,0.54,15,15,"CLEAR,CLOUDY,MOSTLY_CLOUDY,NIGHT_MOSTLY_CLOUDY,NIGHT_MIST,NIGHT_CLEAR,NIGHT_MOSTLY_CLOUDY,NIGHT_MOSTLY_CLOUDY,NIGHT_MOSTLY_CLOUDY,NIGHT_MIST,NIGHT_MIST,NIGHT_CLEAR,NIGHT_MOSTLY_CLOUDY","Cross-shore,Offshore,Onshore,Onshore,Onshore,Onshore,Onshore,Onshore,Onshore,Onshore,Onshore,Cross-shore,Offshore",13
5842041f4e65fad6a7708964,2024_02_17,34.41023236011655,-119.88261,Sands,2,0.24076923076923076,0.5446153846153846,14,14,"MIST,MOSTLY_CLEAR,MOSTLY_CLOUDY,NIGHT_CLEAR,NIGHT_CLEAR,NIGHT_CLEAR,NIGHT_MOSTLY_CLEAR,NIGHT_MOSTLY_CLEAR,NIGHT_MIST,NIGHT_MIST,NIGHT_MIST,NIGHT_MOSTLY_CLOUDY,NIGHT_MOSTLY_CLOUDY","Onshore,Onshore,Onshore,Onshore,Onshore,Onshore,Cross-shore,Offshore,Offshore,Offshore,Offshore,Offshore,Cross-shore",13
5842041f4e65fad6a7708966,2024_02_17,34.40450193869233,-119.68752,Sandspit,1,0,0.1676923076923077,14,14,"MOSTLY_CLEAR,MOSTLY_CLOUDY,MOSTLY_CLEAR,NIGHT_MIST,NIGHT_MIST,NIGHT_MIST,NIGHT_MOSTLY_CLOUDY,NIGHT_MOSTLY_CLOUDY,NIGHT_MOSTLY_CLOUDY,NIGHT_MOSTLY_CLOUDY,NIGHT_BRIEF_SHOWERS,NIGHT_BRIEF_SHOWERS,NIGHT_BRIEF_SHOWERS","Cross-shore,Cross-shore,Cross-shore,Cross-shore,Offshore,Offshore,Offshore,Offshore,Offshore,Offshore,Cross-shore,Offshore,Cross-shore",13
5842041f4e65fad6a7708967,2024_02_17,34.41549098334453,-119.6375149840203,Hammond's,1.6923076923076923,0,0.2323076923076923,14,14,"MOSTLY_CLEAR,MOSTLY_CLOUDY,MOSTLY_CLEAR,NIGHT_MOSTLY_CLOUDY,NIGHT_MOSTLY_CLOUDY,NIGHT_MOSTLY_CLOUDY,NIGHT_MOSTLY_CLOUDY,NIGHT_MOSTLY_CLOUDY,NIGHT_BRIEF_SHOWERS,NIGHT_MOSTLY_CLOUDY,NIGHT_MOSTLY_CLOUDY,NIGHT_MOSTLY_CLOUDY,NIGHT_MOSTLY_CLOUDY","Onshore,Cross-shore,Cross-shore,Cross-shore,Cross-shore,Cross-shore,Onshore,Onshore,Onshore,Onshore,Onshore,Onshore,Onshore",13
5842041f4e65fad6a7708968,2024_02_17,34.45759322742309,-120.0220251867315,El Capitan,2,0.056923076923076923,0.3607692307692308,14,14,"MOSTLY_CLOUDY,MOSTLY_CLEAR,MOSTLY_CLOUDY,NIGHT_CLEAR,NIGHT_CLEAR,NIGHT_CLEAR,NIGHT_CLEAR,NIGHT_CLEAR,NIGHT_CLEAR,NIGHT_CLEAR,NIGHT_CLEAR,NIGHT_CLEAR,NIGHT_CLEAR","Cross-shore,Cross-shore,Cross-shore,Offshore,Offshore,Offshore,Offshore,Cross-shore,Cross-shore,Cross-shore,Cross-shore,Offshore,Offshore",13
5842041f4e65fad6a770896c,2024_02_17,34.405117655616,-119.84317,Campus Point,1.6923076923076923,0.019230769230769232,0.3192307692307692,14,14,"CLEAR,MOSTLY_CLEAR,MOSTLY_CLOUDY,NIGHT_MOSTLY_CLEAR,NIGHT_MOSTLY_CLOUDY,NIGHT_MIST,NIGHT_CLEAR,NIGHT_CLEAR,NIGHT_CLEAR,NIGHT_CLEAR,NIGHT_CLEAR,NIGHT_MOSTLY_CLOUDY,NIGHT_MOSTLY_CLOUDY","Cross-shore,Cross-shore,Cross-shore,Cross-shore,Cross-shore,Cross-shore,Onshore,Onshore,Onshore,Onshore,Onshore,Onshore,Onshore",13
5842041f4e65fad6a770896e,2024_02_17,34.38935162233354,-119.51955,Carpinteria State Beach,2,0.03923076923076923,0.34307692307692306,15,15,"MIST,MOSTLY_CLOUDY,MOSTLY_CLEAR,NIGHT_MOSTLY_CLOUDY,NIGHT_MOSTLY_CLEAR,NIGHT_MOSTLY_CLOUDY,NIGHT_CLEAR,NIGHT_MOSTLY_CLOUDY,NIGHT_MOSTLY_CLOUDY,NIGHT_MOSTLY_CLOUDY,NIGHT_MOSTLY_CLOUDY,NIGHT_MOSTLY_CLOUDY,NIGHT_MOSTLY_CLOUDY","Onshore,Onshore,Onshore,Onshore,Offshore,Offshore,Offshore,Offshore,Offshore,Offshore,Offshore,Offshore,Offshore",13
5842041f4e65fad6a770896f,2024_02_17,37.48296565175612,-122.4549300127824,Half Moon Bay,2.769230769230769,0.8830769230769231,1.1507692307692308,13,13,"MIST,MIST,MIST,NIGHT_MIST,NIGHT_CLEAR,NIGHT_CLEAR,NIGHT_CLOUDY,NIGHT_OVERCAST,NIGHT_OVERCAST,NIGHT_OVERCAST,NIGHT_MOSTLY_CLOUDY,NIGHT_CLEAR,NIGHT_OVERCAST","Onshore,Onshore,Onshore,Offshore,Onshore,Cross-shore,Cross-shore,Cross-shore,Cross-shore,Onshore,Cross-shore,Cross-shore,Onshore",13
5842041f4e65fad6a7708970,2024_02_17,37.499,-122.471,Princeton Jetty,2.4615384615384617,0.68,0.9676923076923076,13,13,"CLEAR,CLEAR,CLEAR,NIGHT_CLEAR,NIGHT_MIST,NIGHT_CLEAR,NIGHT_CLEAR,NIGHT_OVERCAST,NIGHT_OVERCAST,NIGHT_OVERCAST,NIGHT_CLEAR,NIGHT_OVERCAST,NIGHT_DRIZZLE","Onshore,Onshore,Onshore,Offshore,Onshore,Onshore,Onshore,Onshore,Onshore,Onshore,Onshore,Cross-shore,Onshore",13
5842041f4e65fad6a7708972,2024_02_17,37.35699547365155,-122.4069534707252,Tunitas Creek,3,1.2638461538461538,1.5215384615384615,13,13,"CLEAR,CLEAR,CLEAR,NIGHT_CLEAR,NIGHT_CLEAR,NIGHT_CLEAR,NIGHT_CLEAR,NIGHT_CLEAR,NIGHT_CLEAR,NIGHT_CLOUDY,NIGHT_MOSTLY_CLOUDY,NIGHT_CLEAR,NIGHT_MOSTLY_CLOUDY","Onshore,Onshore,Cross-shore,Cross-shore,Cross-shore,Cross-shore,Cross-shore,Cross-shore,Cross-shore,Cross-shore,Cross-shore,Cross-shore,Cross-shore",13
5842041f4e65fad6a7708974,2024_02_17,37.54735589428842,-122.5161090212687,Montara,3.1538461538461537,1.0792307692307692,1.3169230769230769,13,13,"CLEAR,CLEAR,CLEAR,NIGHT_CLEAR,NIGHT_CLEAR,NIGHT_CLEAR,NIGHT_OVERCAST,NIGHT_OVERCAST,NIGHT_CLOUDY,NIGHT_OVERCAST,NIGHT_OVERCAST,NIGHT_CLEAR,NIGHT_OVERCAST","Cross-shore,Offshore,Offshore,Offshore,Offshore,Offshore,Offshore,Offshore,Offshore,Offshore,Offshore,Offshore,Offshore",13
5842041f4e65fad6a7708975,2024_02_17,34.3869373724559,-119.5142334209018,Tarpits,2,0.04461538461538462,0.3484615384615385,15,15,"CLEAR,CLEAR,MOSTLY_CLEAR,NIGHT_MOSTLY_CLOUDY,NIGHT_MIST,NIGHT_FOG,NIGHT_MOSTLY_CLOUDY,NIGHT_MOSTLY_CLOUDY,NIGHT_MOSTLY_CLOUDY,NIGHT_MOSTLY_CLOUDY,NIGHT_MOSTLY_CLOUDY,NIGHT_MOSTLY_CLOUDY,NIGHT_MOSTLY_CLOUDY","Onshore,Cross-shore,Cross-shore,Cross-shore,Offshore,Offshore,Offshore,Offshore,Offshore,Offshore,Offshore,Offshore,Cross-shore",13
5842041f4e65fad6a7708976,2024_02_17,37.59881852720143,-122.50463,Pacifica / Linda Mar,2.2953846153846156,0.2556025641025641,0.5621025641025641,14,14,"CLEAR,CLEAR,CLEAR,NIGHT_CLEAR,NIGHT_CLEAR,NIGHT_CLEAR,NIGHT_CLEAR,NIGHT_CLEAR,NIGHT_CLEAR,NIGHT_CLOUDY,NIGHT_CLEAR,NIGHT_CLEAR,NIGHT_CLOUDY","Onshore,Cross-shore,Offshore,Offshore,Cross-shore,Offshore,Offshore,Offshore,Offshore,Offshore,Offshore,Offshore,Cross-shore",13
5842041f4e65fad6a7708978,2024_02_17,37.59883098461164,-122.5143843582282,Pedro Point,3.1538461538461537,1.0369230769230768,1.2192307692307693,13,13,"CLEAR,CLEAR,CLEAR,NIGHT_CLEAR,NIGHT_CLEAR,NIGHT_CLEAR,NIGHT_CLEAR,NIGHT_CLEAR,NIGHT_CLOUDY,NIGHT_CLOUDY,NIGHT_CLOUDY,NIGHT_CLEAR,NIGHT_OVERCAST","Cross-shore,Offshore,Offshore,Offshore,Offshore,Offshore,Offshore,Offshore,Offshore,Offshore,Offshore,Offshore,Offshore",13
5842041f4e65fad6a7708979,2024_02_17,37.61081996647663,-122.4973287570634,Rockaway,3,1.043076923076923,1.2592307692307692,13,13,"CLEAR,CLEAR,CLEAR,NIGHT_CLEAR,NIGHT_CLEAR,NIGHT_CLEAR,NIGHT_CLEAR,NIGHT_CLEAR,NIGHT_CLEAR,NIGHT_CLOUDY,NIGHT_CLEAR,NIGHT_CLEAR,NIGHT_CLOUDY","Onshore,Cross-shore,Offshore,Offshore,Cross-shore,Offshore,Offshore,Cross-shore,Offshore,Cross-shore,Offshore,Offshore,Cross-shore",13
5842041f4e65fad6a770897a,2024_02_17,37.809987384424446,-122.4751353263855,Fort Point,2.8461538461538463,0.5884615384615385,0.8746153846153847,13,13,"CLEAR,CLEAR,CLOUDY,NIGHT_CLEAR,NIGHT_CLEAR,NIGHT_CLEAR,NIGHT_CLEAR,NIGHT_CLEAR,NIGHT_CLEAR,NIGHT_OVERCAST,NIGHT_CLOUDY,NIGHT_CLOUDY,NIGHT_OVERCAST","Offshore,Cross-shore,Cross-shore,Offshore,Onshore,Onshore,Onshore,Onshore,Onshore,Onshore,Onshore,Onshore,Onshore",13
5842041f4e65fad6a770897c,2024_02_17,37.63422542967464,-122.4951,Sharp Park,3,1.0976923076923077,1.396923076923077,13,13,"CLEAR,CLEAR,CLEAR,NIGHT_CLEAR,NIGHT_CLEAR,NIGHT_CLEAR,NIGHT_CLEAR,NIGHT_CLEAR,NIGHT_CLEAR,NIGHT_CLOUDY,NIGHT_CLEAR,NIGHT_CLEAR,NIGHT_CLOUDY","Onshore,Onshore,Cross-shore,Offshore,Onshore,Cross-shore,Offshore,Cross-shore,Offshore,Cross-shore,Offshore,Offshore,Cross-shore",13
5842041f4e65fad6a770897d,2024_02_17,37.27313605072472,-122.4127387912554,Pescadero,3,1.0707692307692307,1.3576923076923078,13,13,"CLEAR,CLEAR,CLEAR,NIGHT_CLEAR,NIGHT_CLEAR,NIGHT_CLEAR,NIGHT_OVERCAST,NIGHT_CLOUDY,NIGHT_CLEAR,NIGHT_CLEAR,NIGHT_MOSTLY_CLOUDY,NIGHT_MOSTLY_CLOUDY,NIGHT_CLOUDY","Cross-shore,Cross-shore,Cross-shore,Cross-shore,Offshore,Offshore,Offshore,Offshore,Offshore,Offshore,Offshore,Offshore,Offshore",13
5842041f4e65fad6a770897e,2024_02_17,37.18140279972666,-122.3926685899327,Pigeon Point,2.769230769230769,1.1476923076923076,1.426153846153846,13,13,"CLEAR,CLEAR,CLEAR,NIGHT_CLEAR,NIGHT_CLEAR,NIGHT_CLEAR,NIGHT_CLOUDY,NIGHT_CLOUDY,NIGHT_OVERCAST,NIGHT_CLOUDY,NIGHT_OVERCAST,NIGHT_MOSTLY_CLOUDY,NIGHT_CLEAR","Onshore,Onshore,Onshore,Onshore,Onshore,Onshore,Onshore,Onshore,Onshore,Onshore,Onshore,Onshore,Onshore",13
5842041f4e65fad6a770897f,2024_02_17,37.11578956919415,-122.314699271291,Ano Nuevo,2.1538461538461537,0.8892307692307693,1.1453846153846154,13,13,"CLEAR,CLEAR,CLEAR,NIGHT_CLEAR,NIGHT_CLEAR,NIGHT_CLEAR,NIGHT_CLOUDY,NIGHT_CLEAR,NIGHT_CLOUDY,NIGHT_MOSTLY_CLOUDY,NIGHT_OVERCAST,NIGHT_MOSTLY_CLOUDY,NIGHT_MOSTLY_CLOUDY","Onshore,Onshore,Onshore,Onshore,Onshore,Onshore,Onshore,Onshore,Onshore,Onshore,Onshore,Onshore,Onshore",13
5842041f4e65fad6a7708980,2024_02_17,37.09520872681598,-122.2805474707768,Waddell Creek,3,0.9915384615384616,1.1984615384615385,13,13,"CLEAR,CLEAR,CLEAR,NIGHT_CLEAR,NIGHT_CLEAR,NIGHT_CLEAR,NIGHT_OVERCAST,NIGHT_OVERCAST,NIGHT_OVERCAST,NIGHT_BRIEF_SHOWERS,NIGHT_OVERCAST,NIGHT_MOSTLY_CLOUDY,NIGHT_MOSTLY_CLOUDY","Onshore,Onshore,Cross-shore,Cross-shore,Cross-shore,Cross-shore,Cross-shore,Cross-shore,Cross-shore,Cross-shore,Cross-shore,Cross-shore,Cross-shore",13
5842041f4e65fad6a7708981,2024_02_17,36.96512852130351,-122.1252825495626,Four Mile,3.076923076923077,0.8892307692307693,1.1546153846153846,13,13,"CLEAR,CLEAR,CLEAR,NIGHT_CLEAR,NIGHT_CLEAR,NIGHT_CLEAR,NIGHT_CLEAR,NIGHT_CLOUDY,NIGHT_MIST,NIGHT_MIST,NIGHT_MIST,NIGHT_OVERCAST,NIGHT_CLEAR","Onshore,Onshore,Onshore,Cross-shore,Offshore,Offshore,Cross-shore,Cross-shore,Cross-shore,Cross-shore,Cross-shore,Cross-shore,Cross-shore",13
5842041f4e65fad6a7708982,2024_02_17,37.04122807048655,-122.2333684729756,Scott Creek,3,1.0069230769230768,1.2123076923076923,13,13,"CLEAR,CLEAR,CLEAR,NIGHT_CLEAR,NIGHT_CLEAR,NIGHT_CLEAR,NIGHT_CLOUDY,NIGHT_OVERCAST,NIGHT_CLOUDY,NIGHT_DRIZZLE,NIGHT_OVERCAST,NIGHT_MOSTLY_CLOUDY,NIGHT_BRIEF_SHOWERS","Onshore,Onshore,Cross-shore,Cross-shore,Offshore,Offshore,Cross-shore,Cross-shore,Cross-shore,Cross-shore,Offshore,Cross-shore,Cross-shore",13
5842041f4e65fad6a7708983,2024_02_17,37.02350229387179,-122.21908,Davenport,3,1.0523076923076924,1.2976923076923077,13,13,"CLEAR,CLEAR,CLEAR,NIGHT_CLEAR,NIGHT_CLEAR,NIGHT_CLEAR,NIGHT_CLOUDY,NIGHT_CLOUDY,NIGHT_OVERCAST,NIGHT_MOSTLY_CLOUDY,NIGHT_OVERCAST,NIGHT_OVERCAST,NIGHT_MOSTLY_CLOUDY","Onshore,Onshore,Cross-shore,Cross-shore,Offshore,Offshore,Cross-shore,Cross-shore,Cross-shore,Cross-shore,Offshore,Cross-shore,Cross-shore",13
5842041f4e65fad6a7708986,2024_02_17,36.94905295955728,-122.0611823912244,Natural Bridges,3,0.8884615384615385,1.1107692307692307,13,13,"CLEAR,CLEAR,CLEAR,NIGHT_CLEAR,NIGHT_CLEAR,NIGHT_CLEAR,NIGHT_CLEAR,NIGHT_MIST,NIGHT_MIST,NIGHT_MIST,NIGHT_MIST,NIGHT_OVERCAST,NIGHT_MOSTLY_CLOUDY","Onshore,Onshore,Onshore,Cross-shore,Cross-shore,Offshore,Cross-shore,Cross-shore,Cross-shore,Offshore,Offshore,Cross-shore,Offshore",13
5842041f4e65fad6a7708987,2024_02_17,36.95154854910425,-122.0420693940968,Mitchell's Cove,3,0.576923076923077,0.8792307692307693,13,13,"CLEAR,CLEAR,CLEAR,NIGHT_MIST,NIGHT_CLEAR,NIGHT_CLEAR,NIGHT_MIST,NIGHT_MIST,NIGHT_OVERCAST,NIGHT_MOSTLY_CLOUDY,NIGHT_MIST,NIGHT_MIST,NIGHT_CLEAR","Onshore,Cross-shore,Onshore,Onshore,Onshore,Cross-shore,Onshore,Onshore,Onshore,Cross-shore,Cross-shore,Cross-shore,Offshore",13
5842041f4e65fad6a770898a,2024_02_17,36.9572312370203,-121.98177,26th Ave,3,0.9223076923076923,1.116153846153846,13,13,"CLEAR,CLEAR,CLEAR,NIGHT_MIST,NIGHT_MOSTLY_CLOUDY,NIGHT_MOSTLY_CLOUDY,NIGHT_MOSTLY_CLOUDY,NIGHT_MIST,NIGHT_OVERCAST,NIGHT_MOSTLY_CLOUDY,NIGHT_MIST,NIGHT_CLOUDY,NIGHT_MOSTLY_CLOUDY","Onshore,Onshore,Cross-shore,Offshore,Cross-shore,Offshore,Offshore,Cross-shore,Cross-shore,Offshore,Offshore,Offshore,Offshore",13
5842041f4e65fad6a770898e,2024_02_17,36.91899972819882,-121.85536,Manresa,3.1538461538461537,1.0292307692307692,1.2546153846153847,13,13,"CLEAR,CLEAR,CLEAR,NIGHT_CLEAR,NIGHT_CLEAR,NIGHT_MOSTLY_CLOUDY,NIGHT_MOSTLY_CLOUDY,NIGHT_MIST,NIGHT_MIST,NIGHT_MIST,NIGHT_CLEAR,NIGHT_CLEAR,NIGHT_CLEAR","Onshore,Onshore,Onshore,Offshore,Onshore,Cross-shore,Offshore,Cross-shore,Offshore,Offshore,Offshore,Offshore,Offshore",13
5842041f4e65fad6a7708990,2024_02_17,34.45747731928454,-120.34242,The Ranch,2.6923076923076925,0.33692307692307694,0.6430769230769231,14,14,"OVERCAST,CLEAR,CLEAR,NIGHT_CLEAR,NIGHT_CLEAR,NIGHT_CLEAR,NIGHT_CLEAR,NIGHT_CLEAR,NIGHT_CLEAR,NIGHT_CLEAR,NIGHT_CLEAR,NIGHT_CLEAR,NIGHT_CLEAR","Cross-shore,Cross-shore,Offshore,Offshore,Offshore,Offshore,Offshore,Offshore,Offshore,Offshore,Offshore,Offshore,Offshore",13
5842041f4e65fad6a7708991,2024_02_17,34.50875036590315,-120.50348,Jalama,3,0.7776923076923077,1.0384615384615385,14,14,"CLEAR,CLEAR,CLEAR,NIGHT_CLEAR,NIGHT_CLEAR,NIGHT_CLEAR,NIGHT_CLEAR,NIGHT_CLEAR,NIGHT_CLEAR,NIGHT_CLEAR,NIGHT_CLEAR,NIGHT_CLEAR,NIGHT_CLEAR","Onshore,Onshore,Cross-shore,Cross-shore,Cross-shore,Offshore,Offshore,Offshore,Offshore,Offshore,Offshore,Offshore,Offshore",13
5842041f4e65fad6a7708996,2024_02_17,34.68700870220497,-120.6111611019887,Surf Beach,3.076923076923077,1.3,1.5469230769230768,14,14,"MIST,MIST,MIST,NIGHT_MIST,NIGHT_MIST,NIGHT_MIST,NIGHT_MIST,NIGHT_MIST,NIGHT_CLOUDY,NIGHT_OVERCAST,NIGHT_OVERCAST,NIGHT_MIST,NIGHT_MIST","Onshore,Onshore,Onshore,Onshore,Onshore,Onshore,Onshore,Cross-shore,Cross-shore,Offshore,Offshore,Offshore,Offshore",13
5842041f4e65fad6a770899c,2024_02_17,35.5730538161116,-121.1143362345574,Moonstone,3,0.9107692307692308,1.1553846153846155,14,14,"CLEAR,CLEAR,CLEAR,NIGHT_CLEAR,NIGHT_MIST,NIGHT_CLEAR,NIGHT_CLEAR,NIGHT_CLEAR,NIGHT_CLEAR,NIGHT_MOSTLY_CLOUDY,NIGHT_MOSTLY_CLOUDY,NIGHT_CLEAR,NIGHT_CLEAR","Onshore,Onshore,Onshore,Onshore,Onshore,Onshore,Offshore,Offshore,Offshore,Offshore,Offshore,Offshore,Offshore",13
5842041f4e65fad6a770899d,2024_02_17,35.61533716776573,-121.1502053073914,Pico Creek,3,0.7746153846153846,1.0315384615384615,14,14,"CLEAR,CLEAR,CLEAR,NIGHT_CLEAR,NIGHT_MIST,NIGHT_CLEAR,NIGHT_CLEAR,NIGHT_CLEAR,NIGHT_MIST,NIGHT_CLEAR,NIGHT_MOSTLY_CLOUDY,NIGHT_CLEAR,NIGHT_CLEAR","Onshore,Onshore,Onshore,Onshore,Onshore,Cross-shore,Onshore,Onshore,Offshore,Offshore,Offshore,Offshore,Offshore",13
5842041f4e65fad6a770899e,2024_02_17,35.56829031927379,-121.1120653023953,Santa Rosa Creek,3,0.9107692307692308,1.1553846153846155,14,14,"CLEAR,CLEAR,CLEAR,NIGHT_CLEAR,NIGHT_MIST,NIGHT_MOSTLY_CLOUDY,NIGHT_CLEAR,NIGHT_CLEAR,NIGHT_MIST,NIGHT_MOSTLY_CLOUDY,NIGHT_MOSTLY_CLOUDY,NIGHT_CLEAR,NIGHT_CLEAR","Onshore,Cross-shore,Cross-shore,Cross-shore,Onshore,Cross-shore,Cross-shore,Offshore,Offshore,Offshore,Offshore,Offshore,Offshore",13
5842041f4e65fad6a77089a2,2024_02_17,35.44820114936284,-120.90715,"Cayucos Pier, Southside ",2,0.29384615384615387,0.6,14,14,"CLEAR,CLEAR,CLEAR,NIGHT_CLEAR,NIGHT_MIST,NIGHT_CLEAR,NIGHT_MOSTLY_CLOUDY,NIGHT_MOSTLY_CLOUDY,NIGHT_MIST,NIGHT_MIST,NIGHT_MIST,NIGHT_MIST,NIGHT_MIST","Cross-shore,Cross-shore,Cross-shore,Onshore,Onshore,Onshore,Cross-shore,Offshore,Offshore,Offshore,Offshore,Offshore,Offshore",13
5842041f4e65fad6a77089a4,2024_02_17,35.30143372628852,-120.877819239902,Cable Landing,3.076923076923077,1.2723076923076924,1.5076923076923077,14,14,"BRIEF_SHOWERS_POSSIBLE,BRIEF_SHOWERS_POSSIBLE,MIST,NIGHT_CLEAR,NIGHT_MIST,NIGHT_MOSTLY_CLOUDY,NIGHT_MOSTLY_CLOUDY,NIGHT_MOSTLY_CLOUDY,NIGHT_MIST,NIGHT_MIST,NIGHT_MIST,NIGHT_MIST,NIGHT_MOSTLY_CLOUDY","Onshore,Onshore,Onshore,Onshore,Onshore,Onshore,Onshore,Offshore,Offshore,Offshore,Offshore,Offshore,Offshore",13
5842041f4e65fad6a77089a9,2024_02_17,35.61269103500222,-121.1480725356606,San Simeon,2.8461538461538463,0.5793846153846154,0.7495384615384616,14,14,"CLEAR,CLEAR,CLEAR,NIGHT_CLEAR,NIGHT_MIST,NIGHT_CLEAR,NIGHT_CLEAR,NIGHT_MOSTLY_CLOUDY,NIGHT_CLOUDY,NIGHT_MOSTLY_CLOUDY,NIGHT_MOSTLY_CLOUDY,NIGHT_MIST,NIGHT_CLEAR","Onshore,Cross-shore,Cross-shore,Cross-shore,Cross-shore,Cross-shore,Cross-shore,Cross-shore,Offshore,Offshore,Offshore,Offshore,Offshore",13
5842041f4e65fad6a77089ab,2024_02_17,35.1775325966252,-120.7341125142258,Avila Beach,2,0.02,0.3253846153846154,14,14,"CLEAR,CLEAR,CLEAR,NIGHT_CLEAR,NIGHT_CLEAR,NIGHT_CLEAR,NIGHT_CLEAR,NIGHT_CLEAR,NIGHT_CLEAR,NIGHT_MOSTLY_CLOUDY,NIGHT_MOSTLY_CLOUDY,NIGHT_CLEAR,NIGHT_CLEAR","Onshore,Onshore,Offshore,Offshore,Offshore,Offshore,Offshore,Offshore,Offshore,Offshore,Offshore,Offshore,Offshore",13
5842041f4e65fad6a77089ac,2024_02_17,35.13877877884115,-120.64535,Pismo Beach Pier,3,0.7277384615384616,1.0833589743589744,14,14,"CLEAR,CLEAR,CLEAR,NIGHT_CLEAR,NIGHT_CLEAR,NIGHT_CLEAR,NIGHT_MIST,NIGHT_MIST,NIGHT_MOSTLY_CLOUDY,NIGHT_MOSTLY_CLOUDY,NIGHT_MOSTLY_CLOUDY,NIGHT_MIST,NIGHT_MIST","Cross-shore,Cross-shore,Cross-shore,Onshore,Cross-shore,Offshore,Cross-shore,Cross-shore,Cross-shore,Cross-shore,Cross-shore,Cross-shore,Cross-shore",13
5842041f4e65fad6a77089ad,2024_02_17,46.8907710233147,-124.12964,Westport/Olympic Peninsula,2.357142857142857,1.6064285714285713,1.9578571428571427,10,10,"CLEAR,CLEAR,CLOUDY,NIGHT_CLEAR,NIGHT_CLEAR,NIGHT_CLEAR,NIGHT_CLEAR,NIGHT_CLEAR,NIGHT_CLEAR,NIGHT_CLEAR,NIGHT_CLEAR,NIGHT_CLEAR,NIGHT_CLEAR,NIGHT_BRIEF_SHOWERS_POSSIBLE","Offshore,Offshore,Offshore,Offshore,Offshore,Offshore,Offshore,Offshore,Offshore,Offshore,Offshore,Offshore,Offshore,Offshore",14
5842041f4e65fad6a77089ae,2024_02_17,46.35185177248545,-124.06747,Long Beach Peninsula,2.5714285714285716,1.87,2.257142857142857,10,10,"CLEAR,CLEAR,CLEAR,NIGHT_CLEAR,NIGHT_CLEAR,NIGHT_CLEAR,NIGHT_CLEAR,NIGHT_CLEAR,NIGHT_CLEAR,NIGHT_CLEAR,NIGHT_CLEAR,NIGHT_CLOUDY,NIGHT_BRIEF_SHOWERS_POSSIBLE,NIGHT_LIGHT_SHOWERS_POSSIBLE","Offshore,Offshore,Offshore,Offshore,Offshore,Offshore,Offshore,Offshore,Offshore,Offshore,Offshore,Offshore,Offshore,Offshore",14
5842041f4e65fad6a77089af,2024_02_17,47.90649175554033,-124.6370864743483,La Push,3.5714285714285716,1.5214285714285714,1.8457142857142856,9.071428571428571,9.071428571428571,"CLEAR,CLEAR,CLEAR,NIGHT_CLEAR,NIGHT_CLEAR,NIGHT_CLEAR,NIGHT_CLEAR,NIGHT_CLEAR,NIGHT_CLEAR,NIGHT_CLEAR,NIGHT_CLEAR,NIGHT_CLEAR,NIGHT_CLEAR,NIGHT_CLOUDY","Offshore,Offshore,Offshore,Offshore,Offshore,Offshore,Offshore,Offshore,Offshore,Offshore,Offshore,Offshore,Offshore,Offshore",14
5842041f4e65fad6a77089b0,2024_02_17,42.04368239985442,-124.26828,Brookings Jetty,3,1.6445753846153846,2.5696484615384616,11,11,"CLOUDY,CLOUDY,CLOUDY,NIGHT_CLEAR,NIGHT_CLEAR,NIGHT_OVERCAST,NIGHT_OVERCAST,NIGHT_OVERCAST,NIGHT_OVERCAST,NIGHT_CLOUDY,NIGHT_OVERCAST,NIGHT_OVERCAST,NIGHT_OVERCAST","Onshore,Cross-shore,Cross-shore,Cross-shore,Cross-shore,Cross-shore,Offshore,Offshore,Cross-shore,Cross-shore,Onshore,Cross-shore,Cross-shore",13
5842041f4e65fad6a77089b1,2024_02_17,42.74071837900346,-124.4983727491047,Port Orford,1.8461538461538463,2.796153846153846,3.187692307692308,12,12,"CLEAR,CLEAR,CLOUDY,NIGHT_CLEAR,NIGHT_CLEAR,NIGHT_CLOUDY,NIGHT_OVERCAST,NIGHT_OVERCAST,NIGHT_CLOUDY,NIGHT_CLOUDY,NIGHT_LIGHT_SHOWERS_POSSIBLE,NIGHT_LIGHT_SHOWERS_POSSIBLE,NIGHT_OVERCAST","Onshore,Onshore,Onshore,Onshore,Onshore,Onshore,Onshore,Onshore,Onshore,Onshore,Onshore,Onshore,Onshore",13
5842041f4e65fad6a77089b2,2024_02_17,44.01532689312291,-124.13865,Florence South Jetty,3.3846153846153846,2.3915384615384614,2.8230769230769233,11,11,"CLEAR,CLEAR,CLEAR,NIGHT_CLEAR,NIGHT_CLEAR,NIGHT_CLEAR,NIGHT_CLEAR,NIGHT_OVERCAST,NIGHT_CLEAR,NIGHT_CLEAR,NIGHT_CLEAR,NIGHT_CLEAR,NIGHT_CLEAR","Offshore,Offshore,Offshore,Offshore,Offshore,Offshore,Offshore,Offshore,Offshore,Offshore,Offshore,Offshore,Offshore",13
5842041f4e65fad6a77089b3,2024_02_17,42.41812540774362,-124.42945,Gold Beach South Jetty,1.6153846153846154,3.21,3.7623076923076924,12,12,"CLEAR,CLEAR,CLEAR,NIGHT_CLEAR,NIGHT_CLEAR,NIGHT_CLEAR,NIGHT_OVERCAST,NIGHT_OVERCAST,NIGHT_CLEAR,NIGHT_CLOUDY,NIGHT_CLEAR,NIGHT_LIGHT_RAIN,NIGHT_LIGHT_SHOWERS_POSSIBLE","Onshore,Onshore,Onshore,Onshore,Onshore,Onshore,Onshore,Onshore,Onshore,Onshore,Onshore,Onshore,Onshore",13
5842041f4e65fad6a77089b4,2024_02_17,44.95857310226525,-124.0219017690976,Lincoln City,3.769230769230769,1.8276923076923077,2.1953846153846155,11,11,"CLEAR,CLEAR,CLEAR,NIGHT_CLEAR,NIGHT_CLEAR,NIGHT_CLOUDY,NIGHT_CLOUDY,NIGHT_CLEAR,NIGHT_CLEAR,NIGHT_CLEAR,NIGHT_CLEAR,NIGHT_CLEAR,NIGHT_MOSTLY_CLOUDY","Offshore,Offshore,Offshore,Offshore,Offshore,Offshore,Offshore,Offshore,Offshore,Offshore,Offshore,Offshore,Offshore",13
5842041f4e65fad6a77089b5,2024_02_17,44.63792761362982,-124.0657,Newport,3,2.3723076923076922,2.8415384615384616,11,11,"CLEAR,CLEAR,CLEAR,NIGHT_CLEAR,NIGHT_CLOUDY,NIGHT_CLEAR,NIGHT_CLEAR,NIGHT_BRIEF_SHOWERS_POSSIBLE,NIGHT_CLEAR,NIGHT_MOSTLY_CLOUDY,NIGHT_CLEAR,NIGHT_CLOUDY,NIGHT_CLEAR","Offshore,Offshore,Offshore,Offshore,Offshore,Offshore,Offshore,Offshore,Offshore,Offshore,Offshore,Offshore,Offshore",13
5842041f4e65fad6a77089b6,2024_02_17,45.61468496266301,-123.94643,Rockaway Beach,2.7857142857142856,1.9635714285714285,2.3657142857142857,11,11,"CLEAR,CLEAR,CLEAR,NIGHT_CLEAR,NIGHT_CLEAR,NIGHT_CLOUDY,NIGHT_CLOUDY,NIGHT_CLEAR,NIGHT_CLEAR,NIGHT_CLEAR,NIGHT_CLEAR,NIGHT_CLEAR,NIGHT_CLEAR,NIGHT_CLEAR","Offshore,Offshore,Offshore,Offshore,Offshore,Offshore,Offshore,Offshore,Offshore,Offshore,Offshore,Offshore,Offshore,Offshore",14
5842041f4e65fad6a77089b7,2024_02_17,45.20252914186085,-123.96975,Pacific City,3,1.9807142857142859,2.3485714285714288,11,11,"CLEAR,CLEAR,CLOUDY,NIGHT_CLEAR,NIGHT_CLEAR,NIGHT_CLEAR,NIGHT_CLEAR,NIGHT_CLEAR,NIGHT_CLEAR,NIGHT_CLEAR,NIGHT_CLOUDY,NIGHT_CLEAR,NIGHT_CLEAR,NIGHT_MOSTLY_CLOUDY","Offshore,Offshore,Offshore,Offshore,Offshore,Offshore,Offshore,Offshore,Offshore,Offshore,Offshore,Offshore,Offshore,Offshore",14
5842041f4e65fad6a77089b8,2024_02_17,45.88179930310263,-123.96681,Cannon Beach,1.8571428571428572,1.9335714285714285,2.3264285714285715,10,10,"CLEAR,CLEAR,CLOUDY,NIGHT_CLEAR,NIGHT_CLEAR,NIGHT_CLEAR,NIGHT_CLEAR,NIGHT_CLEAR,NIGHT_CLEAR,NIGHT_CLEAR,NIGHT_CLEAR,NIGHT_BRIEF_SHOWERS_POSSIBLE,NIGHT_CLEAR,NIGHT_BRIEF_SHOWERS_POSSIBLE","Offshore,Offshore,Offshore,Offshore,Offshore,Offshore,Offshore,Offshore,Offshore,Offshore,Offshore,Offshore,Offshore,Offshore",14
5842041f4e65fad6a77089ba,2024_02_17,40.02528754746774,-124.06372,Shelter Cove,1.6923076923076923,0.8878069230769231,1.387199230769231,12,12,"CLEAR,CLEAR,CLEAR,NIGHT_CLEAR,NIGHT_CLOUDY,NIGHT_CLEAR,NIGHT_MOSTLY_CLEAR,NIGHT_CLOUDY,NIGHT_OVERCAST,NIGHT_CLOUDY,NIGHT_LIGHT_RAIN,NIGHT_LIGHT_RAIN,NIGHT_HEAVY_RAIN","Onshore,Onshore,Onshore,Onshore,Onshore,Onshore,Onshore,Onshore,Onshore,Onshore,Onshore,Onshore,Onshore",13
5842041f4e65fad6a77089bb,2024_02_17,40.76816197136951,-124.24248,Humboldt Harbor Entrance,2.4615384615384617,2.0738461538461537,2.4738461538461536,12,12,"CLEAR,CLEAR,OVERCAST,NIGHT_CLOUDY,NIGHT_OVERCAST,NIGHT_CLEAR,NIGHT_CLOUDY,NIGHT_OVERCAST,NIGHT_MOSTLY_CLOUDY,NIGHT_MOSTLY_CLOUDY,NIGHT_LIGHT_RAIN,NIGHT_OVERCAST,NIGHT_RAIN","Onshore,Cross-shore,Cross-shore,Cross-shore,Cross-shore,Cross-shore,Offshore,Offshore,Cross-shore,Cross-shore,Cross-shore,Cross-shore,Cross-shore",13
5842041f4e65fad6a77089bc,2024_02_17,40.76684246920174,-124.23107,North Jetty,3,1.74,2.0992307692307692,12,12,"CLEAR,CLEAR,CLEAR,NIGHT_CLOUDY,NIGHT_CLEAR,NIGHT_CLEAR,NIGHT_CLEAR,NIGHT_CLOUDY,NIGHT_MOSTLY_CLOUDY,NIGHT_MOSTLY_CLOUDY,NIGHT_LIGHT_SHOWERS_POSSIBLE,NIGHT_OVERCAST,NIGHT_LIGHT_RAIN","Cross-shore,Cross-shore,Cross-shore,Cross-shore,Cross-shore,Cross-shore,Offshore,Offshore,Offshore,Cross-shore,Cross-shore,Offshore,Cross-shore",13
5842041f4e65fad6a77089bd,2024_02_17,41.02731183893966,-124.1149972888982,Westhaven,2.8461538461538463,2.4692307692307693,2.9292307692307693,12,12,"CLOUDY,CLEAR,CLEAR,NIGHT_CLEAR,NIGHT_CLEAR,NIGHT_CLEAR,NIGHT_CLEAR,NIGHT_OVERCAST,NIGHT_OVERCAST,NIGHT_OVERCAST,NIGHT_CLOUDY,NIGHT_OVERCAST,NIGHT_DRIZZLE","Onshore,Cross-shore,Cross-shore,Offshore,Offshore,Cross-shore,Cross-shore,Cross-shore,Cross-shore,Cross-shore,Cross-shore,Cross-shore,Cross-shore",13
5842041f4e65fad6a77089be,2024_02_17,41.13016238153297,-124.16466,Sue-meg,3.1538461538461537,2.3884615384615384,2.8207692307692307,12,12,"CLEAR,CLEAR,CLEAR,NIGHT_CLEAR,NIGHT_CLEAR,NIGHT_CLOUDY,NIGHT_CLEAR,NIGHT_CLOUDY,NIGHT_CLEAR,NIGHT_OVERCAST,NIGHT_CLOUDY,NIGHT_OVERCAST,NIGHT_LIGHT_RAIN","Cross-shore,Cross-shore,Cross-shore,Offshore,Cross-shore,Cross-shore,Offshore,Offshore,Offshore,Cross-shore,Offshore,Offshore,Offshore",13
5842041f4e65fad6a77089bf,2024_02_17,37.8289474958188,-122.5376795097543,Fort Cronkite/Rodeo Beach,3,1.1753846153846155,1.4638461538461538,13,13,"CLEAR,CLEAR,CLEAR,NIGHT_CLEAR,NIGHT_CLEAR,NIGHT_CLEAR,NIGHT_CLEAR,NIGHT_CLEAR,NIGHT_CLEAR,NIGHT_OVERCAST,NIGHT_CLEAR,NIGHT_CLOUDY,NIGHT_DRIZZLE","Cross-shore,Onshore,Onshore,Offshore,Onshore,Onshore,Cross-shore,Onshore,Cross-shore,Onshore,Cross-shore,Cross-shore,Onshore",13
5842041f4e65fad6a77089c0,2024_02_17,41.74415759876137,-124.17717,South Beach CA,2.3846153846153846,2.5930769230769233,2.9815384615384617,12,12,"CLEAR,CLEAR,CLEAR,NIGHT_CLEAR,NIGHT_CLEAR,NIGHT_CLOUDY,NIGHT_CLOUDY,NIGHT_CLOUDY,NIGHT_DRIZZLE,NIGHT_OVERCAST,NIGHT_OVERCAST,NIGHT_CLEAR,NIGHT_OVERCAST","Onshore,Onshore,Onshore,Offshore,Onshore,Onshore,Onshore,Onshore,Onshore,Onshore,Onshore,Onshore,Onshore",13
5842041f4e65fad6a77089c1,2024_02_17,37.89801283969752,-122.64519,Stinson Beach,3,0.44461538461538463,0.7484615384615384,13,13,"CLEAR,CLEAR,CLEAR,NIGHT_CLEAR,NIGHT_MIST,NIGHT_CLEAR,NIGHT_CLEAR,NIGHT_CLEAR,NIGHT_CLOUDY,NIGHT_OVERCAST,NIGHT_LIGHT_RAIN,NIGHT_OVERCAST,NIGHT_RAIN_AND_FOG","Onshore,Onshore,Onshore,Onshore,Onshore,Onshore,Onshore,Onshore,Onshore,Onshore,Onshore,Onshore,Onshore",13
5842041f4e65fad6a77089c2,2024_02_17,37.90514516176495,-122.68151,Bolinas,3,0.5194915384615385,0.8117053846153847,13,13,"CLEAR,CLEAR,CLEAR,NIGHT_CLEAR,NIGHT_CLEAR,NIGHT_CLEAR,NIGHT_CLEAR,NIGHT_OVERCAST,NIGHT_OVERCAST,NIGHT_LIGHT_RAIN,NIGHT_LIGHT_RAIN,NIGHT_BRIEF_SHOWERS,NIGHT_RAIN","Cross-shore,Onshore,Cross-shore,Onshore,Offshore,Onshore,Onshore,Onshore,Onshore,Cross-shore,Cross-shore,Onshore,Onshore",13
5842041f4e65fad6a77089c3,2024_02_17,38.04892513158693,-122.9892494965416,Point Reyes (north),4,1.5138461538461538,1.7669230769230768,13,13,"CLEAR,CLEAR,CLEAR,NIGHT_MOSTLY_CLOUDY,NIGHT_CLEAR,NIGHT_CLEAR,NIGHT_CLEAR,NIGHT_OVERCAST,NIGHT_MOSTLY_CLOUDY,NIGHT_CLOUDY,NIGHT_CLEAR,NIGHT_OVERCAST,NIGHT_OVERCAST","Offshore,Offshore,Offshore,Offshore,Offshore,Offshore,Offshore,Offshore,Offshore,Offshore,Offshore,Offshore,Offshore",13
5842041f4e65fad6a77089c6,2024_02_17,38.31088736605785,-123.0496777333731,Doran Beach,1.5384615384615385,0.21923076923076923,0.5246153846153846,13,13,"CLEAR,CLEAR,CLEAR,NIGHT_CLEAR,NIGHT_CLEAR,NIGHT_CLEAR,NIGHT_OVERCAST,NIGHT_CLOUDY,NIGHT_MOSTLY_CLOUDY,NIGHT_CLOUDY,NIGHT_OVERCAST,NIGHT_OVERCAST,NIGHT_DRIZZLE","Onshore,Onshore,Onshore,Onshore,Onshore,Onshore,Onshore,Onshore,Onshore,Onshore,Onshore,Onshore,Onshore",13
5842041f4e65fad6a77089c7,2024_02_17,38.45077228660809,-123.13008,Russian Rivermouth,3,1.2876923076923077,1.5861538461538462,13,13,"CLEAR,CLEAR,CLEAR,NIGHT_CLEAR,NIGHT_CLEAR,NIGHT_CLEAR,NIGHT_MOSTLY_CLOUDY,NIGHT_OVERCAST,NIGHT_LIGHT_RAIN,NIGHT_OVERCAST,NIGHT_OVERCAST,NIGHT_OVERCAST,NIGHT_FOG","Cross-shore,Cross-shore,Cross-shore,Offshore,Cross-shore,Offshore,Offshore,Cross-shore,Cross-shore,Offshore,Offshore,Cross-shore,Cross-shore",13
5842041f4e65fad6a77089c8,2024_02_17,38.35329968518107,-123.06906,Salmon Creek,3.1538461538461537,1.2592307692307692,1.5292307692307692,13,13,"CLEAR,CLEAR,CLEAR,NIGHT_CLEAR,NIGHT_CLOUDY,NIGHT_CLEAR,NIGHT_CLOUDY,NIGHT_OVERCAST,NIGHT_DRIZZLE,NIGHT_CLOUDY,NIGHT_CLOUDY,NIGHT_RAIN,NIGHT_OVERCAST","Cross-shore,Offshore,Offshore,Offshore,Offshore,Offshore,Offshore,Offshore,Offshore,Offshore,Offshore,Offshore,Offshore",13
5842041f4e65fad6a77089c9,2024_02_17,38.6845180197959,-123.4322714291198,Black Point Beach,3.6153846153846154,1.4184615384615384,1.7153846153846155,12,12,"CLEAR,CLEAR,CLEAR,NIGHT_CLEAR,NIGHT_CLEAR,NIGHT_OVERCAST,NIGHT_CLEAR,NIGHT_CLOUDY,NIGHT_MOSTLY_CLOUDY,NIGHT_CLOUDY,NIGHT_OVERCAST,NIGHT_OVERCAST,NIGHT_LIGHT_RAIN","Offshore,Offshore,Offshore,Offshore,Offshore,Offshore,Offshore,Offshore,Offshore,Offshore,Offshore,Offshore,Offshore",13
5842041f4e65fad6a77089ca,2024_02_17,43.251076,-70.59144,Ogunquit,0.4878571428571429,0,0.18542857142857144,4,3,"NIGHT_CLEAR,NIGHT_CLEAR,NIGHT_CLEAR,NIGHT_CLEAR,NIGHT_CLEAR,NIGHT_CLEAR,NIGHT_CLEAR,NIGHT_CLEAR,NIGHT_CLEAR,NIGHT_CLEAR,NIGHT_CLEAR,NIGHT_CLEAR,NIGHT_CLEAR,CLEAR","Offshore,Offshore,Offshore,Offshore,Offshore,Offshore,Offshore,Offshore,Offshore,Offshore,Offshore,Offshore,Offshore,Offshore",14
5842041f4e65fad6a77089cb,2024_02_17,41.362631366305415,-71.48006772942608,Point Judith,0.7142857142857143,0,0.20900000000000002,5,4,"NIGHT_CLEAR,NIGHT_CLEAR,NIGHT_CLEAR,NIGHT_CLEAR,NIGHT_CLEAR,NIGHT_CLEAR,NIGHT_CLEAR,NIGHT_CLEAR,NIGHT_CLEAR,NIGHT_CLEAR,NIGHT_CLEAR,NIGHT_CLEAR,NIGHT_CLEAR,BRIEF_SNOW_FLURRIES","Offshore,Offshore,Offshore,Offshore,Offshore,Offshore,Offshore,Offshore,Offshore,Offshore,Offshore,Onshore,Cross-shore,Cross-shore",14
5842041f4e65fad6a77089cd,2024_02_17,41.422678090954726,-71.45413,Monahan's - Narragansett,0,0.016143571428571427,0.025224285714285713,5,5,"NIGHT_CLEAR,NIGHT_CLEAR,NIGHT_CLEAR,NIGHT_CLEAR,NIGHT_CLEAR,NIGHT_CLEAR,NIGHT_CLEAR,NIGHT_CLEAR,NIGHT_CLEAR,NIGHT_CLEAR,NIGHT_CLEAR,NIGHT_CLEAR,NIGHT_CLEAR,BRIEF_SNOW_FLURRIES","Offshore,Offshore,Offshore,Offshore,Offshore,Offshore,Offshore,Offshore,Offshore,Offshore,Offshore,Offshore,Offshore,Offshore",14
5842041f4e65fad6a77089ce,2024_02_17,41.469,-71.293,Ruggles - Newport,1.0714285714285714,0.33328,0.52075,5,5,"NIGHT_CLEAR,NIGHT_CLEAR,NIGHT_CLEAR,NIGHT_CLEAR,NIGHT_CLEAR,NIGHT_CLEAR,NIGHT_CLEAR,NIGHT_CLEAR,NIGHT_CLEAR,NIGHT_CLEAR,NIGHT_CLEAR,NIGHT_CLEAR,NIGHT_CLEAR,CLEAR","Cross-shore,Cross-shore,Offshore,Offshore,Offshore,Offshore,Offshore,Offshore,Offshore,Offshore,Cross-shore,Cross-shore,Cross-shore,Cross-shore",14
5842041f4e65fad6a77089cf,2024_02_17,43.175394,-70.606351,Short Sands Beach,0,0,0.12285714285714286,3.9285714285714284,3.9285714285714284,"NIGHT_CLEAR,NIGHT_CLEAR,NIGHT_CLEAR,NIGHT_CLEAR,NIGHT_CLEAR,NIGHT_CLEAR,NIGHT_CLEAR,NIGHT_CLEAR,NIGHT_CLEAR,NIGHT_CLEAR,NIGHT_CLEAR,NIGHT_CLEAR,NIGHT_CLEAR,CLEAR","Offshore,Offshore,Offshore,Offshore,Offshore,Offshore,Offshore,Offshore,Offshore,Offshore,Offshore,Offshore,Offshore,Offshore",14
5842041f4e65fad6a77089d0,2024_02_17,41.487408,-71.29017,First Beach,1,0,0.20142857142857143,5,5,"NIGHT_CLEAR,NIGHT_CLEAR,NIGHT_CLEAR,NIGHT_CLEAR,NIGHT_CLEAR,NIGHT_CLEAR,NIGHT_CLEAR,NIGHT_CLEAR,NIGHT_CLEAR,NIGHT_CLEAR,NIGHT_CLEAR,NIGHT_CLEAR,NIGHT_CLEAR,CLEAR","Offshore,Offshore,Offshore,Offshore,Offshore,Offshore,Offshore,Offshore,Offshore,Offshore,Cross-shore,Cross-shore,Cross-shore,Cross-shore",14
5842041f4e65fad6a77089d1,2024_02_17,42.27916830233153,-70.86498,Nantasket Beach,0.4878571428571429,0,0.17763809523809526,4,3,"NIGHT_CLEAR,NIGHT_CLEAR,NIGHT_CLEAR,NIGHT_CLEAR,NIGHT_CLEAR,NIGHT_CLEAR,NIGHT_CLEAR,NIGHT_CLEAR,NIGHT_CLEAR,NIGHT_CLEAR,NIGHT_CLEAR,NIGHT_CLEAR,NIGHT_CLEAR,CLEAR","Cross-shore,Cross-shore,Cross-shore,Cross-shore,Cross-shore,Cross-shore,Cross-shore,Cross-shore,Cross-shore,Cross-shore,Offshore,Offshore,Offshore,Offshore",14
5842041f4e65fad6a77089d2,2024_02_17,41.817,-69.935,Cape Cod,2,0.4035714285714286,0.7085714285714285,4,4,"NIGHT_CLEAR,NIGHT_CLEAR,NIGHT_CLEAR,NIGHT_CLEAR,NIGHT_CLEAR,NIGHT_CLEAR,NIGHT_CLEAR,NIGHT_CLEAR,NIGHT_CLEAR,NIGHT_CLEAR,NIGHT_CLEAR,NIGHT_CLEAR,NIGHT_CLEAR,CLEAR","Offshore,Offshore,Offshore,Offshore,Offshore,Offshore,Offshore,Offshore,Offshore,Offshore,Offshore,Cross-shore,Offshore,Cross-shore",14
5842041f4e65fad6a77089d3,2024_02_17,42.22055448975661,-70.70634873403819,Egypt Beach,1,0.025714285714285714,0.30357142857142855,4,4,"NIGHT_CLEAR,NIGHT_CLEAR,NIGHT_CLEAR,NIGHT_CLEAR,NIGHT_CLEAR,NIGHT_CLEAR,NIGHT_CLEAR,NIGHT_CLEAR,NIGHT_CLEAR,NIGHT_CLEAR,NIGHT_CLEAR,NIGHT_CLEAR,NIGHT_CLEAR,CLEAR","Offshore,Offshore,Offshore,Offshore,Offshore,Offshore,Offshore,Offshore,Offshore,Offshore,Offshore,Offshore,Offshore,Offshore",14
5842041f4e65fad6a77089d4,2024_02_17,41.48739647744607,-71.25723,Second Beach,0.9878571428571429,0.15103333333333332,0.3085597619047619,5,4,"NIGHT_CLEAR,NIGHT_CLEAR,NIGHT_CLEAR,NIGHT_CLEAR,NIGHT_CLEAR,NIGHT_CLEAR,NIGHT_CLEAR,NIGHT_CLEAR,NIGHT_CLEAR,NIGHT_CLEAR,NIGHT_CLEAR,NIGHT_CLEAR,NIGHT_CLEAR,CLEAR","Cross-shore,Cross-shore,Cross-shore,Cross-shore,Cross-shore,Cross-shore,Cross-shore,Cross-shore,Cross-shore,Offshore,Cross-shore,Onshore,Onshore,Cross-shore",14
5842041f4e65fad6a77089d5,2024_02_17,42.964,-70.769,Fox Hill,0.345,0,0.14757142857142858,4,3,"NIGHT_CLEAR,NIGHT_CLEAR,NIGHT_CLEAR,NIGHT_CLEAR,NIGHT_CLEAR,NIGHT_CLEAR,NIGHT_CLEAR,NIGHT_CLEAR,NIGHT_CLEAR,NIGHT_CLEAR,NIGHT_CLEAR,NIGHT_CLEAR,NIGHT_CLEAR,CLEAR","Offshore,Offshore,Offshore,Offshore,Offshore,Offshore,Offshore,Offshore,Offshore,Offshore,Offshore,Offshore,Cross-shore,Cross-shore",14
5842041f4e65fad6a77089d6,2024_02_17,42.991359,-70.75149,Straws Point,0.345,-0.002023809523809524,0.16173809523809524,4,3,"NIGHT_CLEAR,NIGHT_CLEAR,NIGHT_CLEAR,NIGHT_CLEAR,NIGHT_CLEAR,NIGHT_CLEAR,NIGHT_CLEAR,NIGHT_CLEAR,NIGHT_CLEAR,NIGHT_CLEAR,NIGHT_CLEAR,NIGHT_CLEAR,NIGHT_CLEAR,CLEAR","Offshore,Offshore,Offshore,Offshore,Offshore,Offshore,Offshore,Offshore,Offshore,Offshore,Offshore,Cross-shore,Cross-shore,Cross-shore",14
5842041f4e65fad6a77089d7,2024_02_17,42.946,-70.786,Plaice Cove,0.345,0,0.14757142857142858,4,3,"NIGHT_CLEAR,NIGHT_CLEAR,NIGHT_CLEAR,NIGHT_CLEAR,NIGHT_CLEAR,NIGHT_CLEAR,NIGHT_CLEAR,NIGHT_CLEAR,NIGHT_CLEAR,NIGHT_CLEAR,NIGHT_CLEAR,NIGHT_CLEAR,NIGHT_CLEAR,CLEAR","Offshore,Offshore,Offshore,Offshore,Offshore,Offshore,Offshore,Offshore,Offshore,Offshore,Offshore,Offshore,Offshore,Offshore",14
5842041f4e65fad6a77089d9,2024_02_17,42.911574,-70.80831,The Main Beach,0.6664285714285715,0.04773142857142857,0.15622464285714285,4,3,"NIGHT_CLEAR,NIGHT_CLEAR,NIGHT_CLEAR,NIGHT_CLEAR,NIGHT_CLEAR,NIGHT_CLEAR,NIGHT_CLEAR,NIGHT_CLEAR,NIGHT_CLEAR,NIGHT_CLEAR,NIGHT_CLEAR,NIGHT_CLEAR,NIGHT_CLEAR,CLEAR","Offshore,Offshore,Offshore,Offshore,Offshore,Offshore,Offshore,Offshore,Offshore,Offshore,Offshore,Cross-shore,Cross-shore,Cross-shore",14
5842041f4e65fad6a77089da,2024_02_17,42.97583846220203,-70.764,Sawyer's Beach,0.2735714285714286,0,0.13697619047619047,4,3,"NIGHT_CLEAR,NIGHT_CLEAR,NIGHT_CLEAR,NIGHT_CLEAR,NIGHT_CLEAR,NIGHT_CLEAR,NIGHT_CLEAR,NIGHT_CLEAR,NIGHT_CLEAR,NIGHT_CLEAR,NIGHT_CLEAR,NIGHT_CLEAR,NIGHT_CLEAR,CLEAR","Offshore,Offshore,Offshore,Offshore,Offshore,Offshore,Offshore,Offshore,Offshore,Offshore,Offshore,Offshore,Offshore,Offshore",14
5842041f4e65fad6a77089db,2024_02_17,42.97,-70.77,Rye on the Rocks / 5-0's,0.6664285714285715,0.07818571428571429,0.18451785714285715,4,3,"NIGHT_CLEAR,NIGHT_CLEAR,NIGHT_CLEAR,NIGHT_CLEAR,NIGHT_CLEAR,NIGHT_CLEAR,NIGHT_CLEAR,NIGHT_CLEAR,NIGHT_CLEAR,NIGHT_CLEAR,NIGHT_CLEAR,NIGHT_CLEAR,NIGHT_CLEAR,CLEAR","Offshore,Offshore,Offshore,Offshore,Offshore,Offshore,Offshore,Offshore,Offshore,Offshore,Offshore,Cross-shore,Cross-shore,Cross-shore",14
5842041f4e65fad6a77089dc,2024_02_17,43.55902946610303,-70.27795,Higgins Beach,0.7142857142857143,0,0.2041857142857143,4,3,"NIGHT_CLEAR,NIGHT_CLEAR,NIGHT_CLEAR,NIGHT_CLEAR,NIGHT_CLEAR,NIGHT_CLEAR,NIGHT_CLEAR,NIGHT_CLEAR,NIGHT_CLEAR,NIGHT_CLEAR,NIGHT_CLEAR,NIGHT_CLEAR,NIGHT_CLEAR,CLEAR","Offshore,Offshore,Offshore,Offshore,Offshore,Offshore,Cross-shore,Cross-shore,Offshore,Offshore,Offshore,Cross-shore,Cross-shore,Cross-shore",14
5842041f4e65fad6a77089dd,2024_02_17,43.302676,-70.5652,Wells Beach,0.21428571428571427,0,0.14459523809523808,4,3,"NIGHT_CLEAR,NIGHT_CLEAR,NIGHT_CLEAR,NIGHT_CLEAR,NIGHT_CLEAR,NIGHT_CLEAR,NIGHT_CLEAR,NIGHT_CLEAR,NIGHT_CLEAR,NIGHT_CLEAR,NIGHT_CLEAR,NIGHT_CLEAR,NIGHT_CLEAR,CLEAR","Offshore,Offshore,Offshore,Offshore,Offshore,Offshore,Offshore,Offshore,Offshore,Offshore,Offshore,Offshore,Offshore,Offshore",14
5842041f4e65fad6a77089de,2024_02_17,43.545359,-70.30479,Scarborough Beach State Park,0.7735714285714286,0.07875047619047619,0.19562000000000002,4,3,"NIGHT_CLEAR,NIGHT_CLEAR,NIGHT_CLEAR,NIGHT_CLEAR,NIGHT_CLEAR,NIGHT_CLEAR,NIGHT_CLEAR,NIGHT_CLEAR,NIGHT_CLEAR,NIGHT_CLEAR,NIGHT_CLEAR,NIGHT_CLEAR,NIGHT_CLEAR,CLEAR","Offshore,Offshore,Offshore,Offshore,Offshore,Offshore,Offshore,Offshore,Offshore,Offshore,Offshore,Cross-shore,Cross-shore,Cross-shore",14
5842041f4e65fad6a77089df,2024_02_17,43.514481,-70.372146,Old Orchard Beach,0.2621428571428571,0,0.097,4,3,"NIGHT_CLEAR,NIGHT_CLEAR,NIGHT_CLEAR,NIGHT_CLEAR,NIGHT_CLEAR,NIGHT_CLEAR,NIGHT_CLEAR,NIGHT_CLEAR,NIGHT_CLEAR,NIGHT_CLEAR,NIGHT_CLEAR,NIGHT_CLEAR,NIGHT_CLEAR,CLEAR","Offshore,Offshore,Offshore,Offshore,Offshore,Offshore,Offshore,Offshore,Offshore,Offshore,Offshore,Offshore,Cross-shore,Cross-shore",14
5842041f4e65fad6a77089e0,2024_02_17,43.34711,-70.48165,Gooch's Beach,0.2735714285714286,0,0.1285904761904762,4,3,"NIGHT_CLEAR,NIGHT_CLEAR,NIGHT_CLEAR,NIGHT_CLEAR,NIGHT_CLEAR,NIGHT_CLEAR,NIGHT_CLEAR,NIGHT_CLEAR,NIGHT_CLEAR,NIGHT_CLEAR,NIGHT_CLEAR,NIGHT_CLEAR,NIGHT_CLEAR,CLEAR","Offshore,Cross-shore,Cross-shore,Offshore,Cross-shore,Cross-shore,Cross-shore,Cross-shore,Cross-shore,Cross-shore,Offshore,Cross-shore,Cross-shore,Onshore",14
5842041f4e65fad6a77089e2,2024_02_17,40.58433,-73.62953,Lido Beach,0.7378571428571429,-0.018928571428571433,0.28364285714285714,5,4,"NIGHT_CLEAR,NIGHT_CLEAR,NIGHT_CLEAR,NIGHT_CLEAR,NIGHT_CLEAR,NIGHT_CLEAR,NIGHT_CLEAR,NIGHT_CLEAR,NIGHT_BRIEF_SNOW_SHOWERS,NIGHT_BRIEF_SNOW_SHOWERS,NIGHT_BRIEF_SNOW_SHOWERS,NIGHT_BRIEF_SNOW_SHOWERS,NIGHT_BRIEF_SNOW_SHOWERS,FOG","Onshore,Cross-shore,Offshore,Offshore,Cross-shore,Offshore,Offshore,Onshore,Offshore,Offshore,Offshore,Offshore,Offshore,Offshore",14
5842041f4e65fad6a77089e3,2024_02_17,43.163135,-70.61689,Long Sands Beach,0.1307142857142857,0.03714214285714285,0.13967892857142858,4,3,"NIGHT_CLEAR,NIGHT_CLEAR,NIGHT_CLEAR,NIGHT_CLEAR,NIGHT_CLEAR,NIGHT_CLEAR,NIGHT_CLEAR,NIGHT_CLEAR,NIGHT_CLEAR,NIGHT_CLEAR,NIGHT_CLEAR,NIGHT_CLEAR,NIGHT_CLEAR,CLEAR","Offshore,Offshore,Offshore,Offshore,Offshore,Offshore,Offshore,Offshore,Offshore,Offshore,Offshore,Cross-shore,Cross-shore,Cross-shore",14
