_id,date,lat,lon,name,daily_mean_swell_rating,daily_mean_wave_height_min,daily_mean_wave_height_max,daily_mean_water_temperature_max,daily_mean_water_temperature_min,weather_per_timestamp,wind_per_timestamp,n_samples_per_day
5842041f4e65fad6a77087f9,2024_04_09,37.741668,-122.51038,South Ocean Beach,2.576923076923077,1.1515282051282052,1.5171153846153846,14,14,"NIGHT_MIST,NIGHT_MIST,NIGHT_MIST,NIGHT_MIST,NIGHT_MIST,NIGHT_MIST,MIST,MIST,MIST,MIST,MIST,MIST,MIST","Offshore,Offshore,Offshore,Offshore,Offshore,Cross-shore,Offshore,Offshore,Cross-shore,Onshore,Onshore,Onshore,Onshore",13
5842041f4e65fad6a7708801,2024_04_09,37.49142,-122.50428,Maverick's,NA,1.716923076923077,2.0523076923076924,13,13,"NIGHT_MIST,NIGHT_MIST,NIGHT_MOSTLY_CLOUDY,NIGHT_MOSTLY_CLOUDY,NIGHT_MOSTLY_CLOUDY,NIGHT_MOSTLY_CLOUDY,MOSTLY_CLOUDY,MOSTLY_CLOUDY,CLEAR,CLEAR,MIST,MIST,MIST","Offshore,Offshore,Onshore,Onshore,Cross-shore,Cross-shore,Offshore,Offshore,Onshore,Onshore,Cross-shore,Cross-shore,Cross-shore",13
5842041f4e65fad6a7708804,2024_04_09,44.997,-124.018,Roads End,2,2.3423076923076924,2.6538461538461537,11,11,"NIGHT_MIST,NIGHT_OVERCAST,NIGHT_OVERCAST,NIGHT_OVERCAST,NIGHT_OVERCAST,NIGHT_OVERCAST,MOSTLY_CLOUDY,MIST,MIST,MOSTLY_CLOUDY,MOSTLY_CLOUDY,MOSTLY_CLOUDY,MOSTLY_CLOUDY","Cross-shore,Onshore,Onshore,Onshore,Onshore,Onshore,Onshore,Onshore,Onshore,Onshore,Onshore,Onshore,Onshore",13
5842041f4e65fad6a7708805,2024_04_09,36.95188851423011,-122.02522,Steamer Lane,2.576923076923077,0.6387307692307692,0.9929538461538462,14,14,"NIGHT_CLEAR,NIGHT_CLEAR,NIGHT_CLEAR,NIGHT_CLEAR,NIGHT_CLEAR,NIGHT_CLEAR,CLEAR,CLEAR,CLEAR,CLEAR,CLEAR,CLEAR,CLEAR","Offshore,Offshore,Cross-shore,Offshore,Offshore,Offshore,Offshore,Offshore,Cross-shore,Cross-shore,Cross-shore,Offshore,Offshore",13
5842041f4e65fad6a7708806,2024_04_09,36.95918781542251,-122.02489,Cowells,0.8592307692307692,0,0.22141538461538463,14,14,"NIGHT_CLEAR,NIGHT_CLEAR,NIGHT_CLEAR,NIGHT_CLEAR,NIGHT_CLEAR,NIGHT_CLEAR,CLEAR,CLEAR,CLEAR,CLEAR,CLEAR,CLEAR,CLEAR","Offshore,Offshore,Onshore,Offshore,Offshore,Cross-shore,Cross-shore,Cross-shore,Cross-shore,Offshore,Offshore,Cross-shore,Offshore",13
5842041f4e65fad6a7708807,2024_04_09,36.95468082526536,-121.97234,Pleasure Point,2.6153846153846154,0.6325128205128205,0.9385769230769231,14,14,"NIGHT_CLEAR,NIGHT_MOSTLY_CLOUDY,NIGHT_CLEAR,NIGHT_CLEAR,NIGHT_CLEAR,NIGHT_CLEAR,CLEAR,CLEAR,CLEAR,CLEAR,CLEAR,CLEAR,CLEAR","Onshore,Offshore,Offshore,Offshore,Offshore,Offshore,Offshore,Onshore,Onshore,Onshore,Onshore,Onshore,Onshore",13
5842041f4e65fad6a770880a,2024_04_09,35.37815414378748,-120.86589,Morro Bay,2.6284615384615386,0.8136025641025642,1.122025641025641,12,12,"NIGHT_CLEAR,NIGHT_CLEAR,NIGHT_CLEAR,NIGHT_CLEAR,NIGHT_CLEAR,NIGHT_CLEAR,CLEAR,CLEAR,CLEAR,CLEAR,CLEAR,CLEAR,CLEAR","Offshore,Cross-shore,Onshore,Cross-shore,Cross-shore,Cross-shore,Cross-shore,Cross-shore,Cross-shore,Cross-shore,Onshore,Onshore,Onshore",13
5842041f4e65fad6a770880b,2024_04_09,36.95782765000708,-121.96729,Jack's,1.8461538461538463,0.1135897435897436,0.39564615384615387,14,14,"NIGHT_CLEAR,NIGHT_MOSTLY_CLOUDY,NIGHT_CLEAR,NIGHT_CLEAR,NIGHT_CLEAR,NIGHT_CLEAR,CLEAR,CLEAR,CLEAR,CLEAR,CLEAR,CLEAR,CLEAR","Onshore,Cross-shore,Offshore,Offshore,Offshore,Offshore,Offshore,Onshore,Cross-shore,Cross-shore,Cross-shore,Cross-shore,Cross-shore",13
5842041f4e65fad6a770880d,2024_04_09,34.29982939936656,-119.3489016603669,Gold Coast Beachbreaks,2,0.17076923076923078,0.4776923076923077,13.692307692307692,13.692307692307692,"NIGHT_CLEAR,NIGHT_CLEAR,NIGHT_CLEAR,NIGHT_CLEAR,NIGHT_CLEAR,NIGHT_CLEAR,CLEAR,CLEAR,CLEAR,CLEAR,CLEAR,CLEAR,CLEAR","Cross-shore,Cross-shore,Offshore,Cross-shore,Cross-shore,Cross-shore,Offshore,Cross-shore,Onshore,Cross-shore,Onshore,Onshore,Onshore",13
5842041f4e65fad6a7708811,2024_04_09,34.245076,-119.26799,Ventura Harbor,2.5384615384615383,0.6877648717948718,1.0332832692307692,12,12,"NIGHT_CLEAR,NIGHT_CLEAR,NIGHT_CLEAR,NIGHT_CLEAR,NIGHT_CLEAR,NIGHT_CLEAR,CLEAR,CLEAR,CLEAR,CLEAR,CLEAR,CLEAR,CLEAR","Offshore,Offshore,Offshore,Cross-shore,Cross-shore,Offshore,Offshore,Offshore,Onshore,Onshore,Onshore,Onshore,Onshore",13
5842041f4e65fad6a7708813,2024_04_09,34.051,-118.964,County Line,1.9361538461538461,0.38227435897435896,0.6861205128205128,13,13,"NIGHT_CLEAR,NIGHT_CLEAR,NIGHT_CLEAR,NIGHT_CLEAR,NIGHT_CLEAR,NIGHT_CLEAR,CLEAR,CLEAR,CLEAR,CLEAR,CLEAR,CLEAR,CLEAR","Offshore,Offshore,Offshore,Offshore,Offshore,Offshore,Offshore,Offshore,Offshore,Offshore,Offshore,Cross-shore,Onshore",13
5842041f4e65fad6a7708814,2024_04_09,34.37256264378892,-119.47797,Rincon,2,0.14153846153846156,0.44384615384615383,13.692307692307692,13.692307692307692,"NIGHT_CLEAR,NIGHT_CLEAR,NIGHT_CLEAR,NIGHT_CLEAR,NIGHT_CLEAR,NIGHT_CLEAR,CLEAR,CLEAR,CLEAR,CLEAR,CLEAR,CLEAR,CLEAR","Offshore,Offshore,Offshore,Offshore,Offshore,Offshore,Offshore,Onshore,Cross-shore,Cross-shore,Cross-shore,Cross-shore,Cross-shore",13
5842041f4e65fad6a7708817,2024_04_09,34.03096101876324,-118.68109,Malibu Third Point,1.5384615384615385,0.2815384615384615,0.5861538461538461,13.307692307692308,13.307692307692308,"NIGHT_CLEAR,NIGHT_CLEAR,NIGHT_CLEAR,NIGHT_CLEAR,NIGHT_CLEAR,NIGHT_CLEAR,CLEAR,CLEAR,CLEAR,CLEAR,CLEAR,CLEAR,CLEAR","Offshore,Offshore,Offshore,Offshore,Offshore,Offshore,Offshore,Offshore,Cross-shore,Onshore,Onshore,Onshore,Onshore",13
5842041f4e65fad6a7708819,2024_04_09,33.984079047970035,-118.47382,Venice Beach,2.243846153846154,0.4143564102564103,0.720574358974359,14,14,"NIGHT_CLEAR,NIGHT_CLEAR,NIGHT_CLEAR,NIGHT_CLEAR,NIGHT_CLEAR,NIGHT_CLEAR,CLEAR,CLEAR,CLEAR,CLEAR,MIST,MIST,MIST","Offshore,Offshore,Offshore,Cross-shore,Cross-shore,Cross-shore,Onshore,Cross-shore,Cross-shore,Cross-shore,Onshore,Onshore,Onshore",13
5842041f4e65fad6a770881e,2024_04_09,34.037508438646746,-118.5834,Topanga Beach,1.1276923076923078,0.15730769230769232,0.3887974358974359,14,14,"NIGHT_CLEAR,NIGHT_CLEAR,NIGHT_CLEAR,NIGHT_CLEAR,NIGHT_CLEAR,NIGHT_CLEAR,CLEAR,CLEAR,CLEAR,CLEAR,CLEAR,CLEAR,CLEAR","Offshore,Offshore,Offshore,Offshore,Offshore,Offshore,Offshore,Cross-shore,Cross-shore,Onshore,Onshore,Onshore,Onshore",13
5842041f4e65fad6a7708820,2024_04_09,33.73954373690184,-118.11414,Seal Beach Jetty,2,0.15846153846153846,0.46384615384615385,14,14,"NIGHT_CLEAR,NIGHT_CLEAR,NIGHT_CLEAR,NIGHT_CLEAR,NIGHT_CLEAR,NIGHT_CLEAR,CLEAR,CLEAR,CLEAR,CLEAR,CLEAR,CLEAR,CLEAR","Offshore,Offshore,Offshore,Offshore,Offshore,Offshore,Offshore,Cross-shore,Onshore,Onshore,Onshore,Onshore,Onshore",13
5842041f4e65fad6a7708822,2024_04_09,33.72309983348433,-118.08078,Anderson Street,1.7307692307692308,0.19355897435897437,0.49965384615384617,14,14,"NIGHT_CLEAR,NIGHT_CLEAR,NIGHT_CLEAR,NIGHT_CLEAR,NIGHT_CLEAR,NIGHT_CLEAR,CLEAR,CLEAR,CLEAR,CLEAR,CLEAR,CLEAR,CLEAR","Offshore,Offshore,Offshore,Offshore,Offshore,Offshore,Offshore,Offshore,Onshore,Onshore,Onshore,Onshore,Onshore",13
5842041f4e65fad6a7708827,2024_04_09,33.65574085629463,-118.00397,Huntington Beach Pier Northside,2.140769230769231,0.6410358974358974,0.9495820512820513,14,14,"NIGHT_CLEAR,NIGHT_MIST,NIGHT_CLEAR,NIGHT_CLEAR,NIGHT_CLEAR,NIGHT_CLEAR,CLEAR,CLEAR,CLEAR,CLEAR,CLEAR,CLEAR,CLEAR","Onshore,Offshore,Offshore,Offshore,Onshore,Offshore,Offshore,Offshore,Cross-shore,Cross-shore,Onshore,Onshore,Onshore",13
5842041f4e65fad6a7708828,2024_04_09,34.272041739333,-119.29976,C St.,2.743846153846154,0.3456897435897436,0.6538153846153846,12,12,"NIGHT_CLEAR,NIGHT_CLEAR,NIGHT_CLEAR,NIGHT_CLEAR,NIGHT_CLEAR,NIGHT_CLEAR,CLEAR,CLEAR,CLEAR,CLEAR,CLEAR,CLEAR,CLEAR","Cross-shore,Offshore,Offshore,Offshore,Offshore,Offshore,Offshore,Cross-shore,Onshore,Onshore,Onshore,Cross-shore,Cross-shore",13
5842041f4e65fad6a770882a,2024_04_09,33.61555743705257,-117.93676,Newport Lower Jetties,2.076923076923077,0.2899358974358974,0.5974410256410256,14,14,"NIGHT_MIST,NIGHT_CLEAR,NIGHT_CLEAR,NIGHT_CLEAR,NIGHT_CLEAR,NIGHT_CLEAR,CLEAR,CLEAR,CLEAR,CLEAR,CLEAR,CLEAR,CLEAR","Cross-shore,Cross-shore,Cross-shore,Cross-shore,Offshore,Offshore,Offshore,Onshore,Onshore,Onshore,Onshore,Onshore,Onshore",13
5842041f4e65fad6a770882b,2024_04_09,33.5930302087,-117.88199,The Wedge,2.09,0.5289351282051282,0.9223585256410256,14,14,"NIGHT_MIST,NIGHT_CLEAR,NIGHT_CLEAR,NIGHT_CLEAR,NIGHT_MIST,NIGHT_MIST,MIST,CLEAR,CLEAR,CLEAR,CLEAR,CLEAR,CLEAR","Offshore,Offshore,Offshore,Offshore,Offshore,Offshore,Offshore,Offshore,Offshore,Offshore,Onshore,Onshore,Cross-shore",13
5842041f4e65fad6a770882c,2024_04_09,33.60577342582,-117.9315376281,Newport Beach Pier,1.986923076923077,0.2907692307692308,0.5960948717948718,14,14,"NIGHT_MIST,NIGHT_CLEAR,NIGHT_CLEAR,NIGHT_CLEAR,NIGHT_CLEAR,NIGHT_CLEAR,CLEAR,CLEAR,CLEAR,CLEAR,MIST,MIST,MIST","Onshore,Onshore,Onshore,Onshore,Cross-shore,Offshore,Offshore,Offshore,Offshore,Cross-shore,Onshore,Onshore,Onshore",13
5842041f4e65fad6a770882e,2024_04_09,33.475793399792984,-117.72291,Salt Creek,2.8076923076923075,0.6450102564102564,1.0195692307692308,13,13,"NIGHT_CLEAR,NIGHT_CLEAR,NIGHT_CLEAR,NIGHT_CLEAR,NIGHT_CLEAR,NIGHT_CLEAR,CLEAR,CLEAR,CLEAR,CLEAR,MIST,MIST,MIST","Offshore,Offshore,Offshore,Cross-shore,Onshore,Cross-shore,Offshore,Onshore,Onshore,Onshore,Onshore,Onshore,Onshore",13
5842041f4e65fad6a7708830,2024_04_09,33.41800974113613,-117.61952,T-Street,2.743076923076923,0.6417410256410256,0.9493102564102565,14,14,"NIGHT_CLEAR,NIGHT_CLEAR,NIGHT_CLEAR,NIGHT_CLEAR,NIGHT_CLEAR,NIGHT_CLEAR,CLEAR,CLEAR,CLEAR,MIST,MIST,MIST,MIST","Offshore,Offshore,Offshore,Offshore,Offshore,Offshore,Offshore,Offshore,Onshore,Onshore,Onshore,Onshore,Onshore",13
5842041f4e65fad6a7708832,2024_04_09,33.202391008646,-117.39475,Oceanside Harbor,2.602307692307692,0.6437076923076923,0.9571410256410257,14,14,"NIGHT_CLEAR,NIGHT_CLEAR,NIGHT_CLEAR,NIGHT_MIST,NIGHT_CLEAR,NIGHT_CLEAR,CLEAR,CLEAR,CLEAR,CLEAR,CLEAR,CLEAR,CLEAR","Offshore,Offshore,Offshore,Offshore,Offshore,Offshore,Offshore,Offshore,Onshore,Onshore,Onshore,Onshore,Onshore",13
5842041f4e65fad6a7708835,2024_04_09,33.19477795952803,-117.38667,Oceanside Pier,2.6923076923076925,0.4726871794871795,0.7912641025641025,14,14,"NIGHT_CLEAR,NIGHT_CLEAR,NIGHT_MIST,NIGHT_MIST,NIGHT_MIST,NIGHT_CLEAR,CLEAR,CLEAR,CLEAR,CLEAR,CLEAR,CLEAR,CLEAR","Offshore,Offshore,Offshore,Offshore,Offshore,Offshore,Offshore,Offshore,Cross-shore,Onshore,Onshore,Onshore,Onshore",13
5842041f4e65fad6a7708837,2024_04_09,33.14948100706,-117.35029,Tamarack,2.6923076923076925,0.4330769230769231,0.7392307692307692,15,15,"NIGHT_CLEAR,NIGHT_CLEAR,NIGHT_MIST,NIGHT_MIST,NIGHT_MIST,NIGHT_MIST,MIST,MIST,CLEAR,CLEAR,CLEAR,CLEAR,CLEAR","Offshore,Offshore,Offshore,Offshore,Offshore,Offshore,Offshore,Offshore,Offshore,Onshore,Onshore,Onshore,Onshore",13
5842041f4e65fad6a7708839,2024_04_09,32.865777159358856,-117.25614,Scripps,2.602307692307692,0.755,1.0636358974358975,16,16,"NIGHT_CLEAR,NIGHT_CLEAR,NIGHT_CLEAR,NIGHT_CLEAR,NIGHT_CLEAR,NIGHT_CLEAR,CLEAR,CLEAR,CLEAR,MIST,MIST,BRIEF_SHOWERS_POSSIBLE,BRIEF_SHOWERS_POSSIBLE","Onshore,Cross-shore,Offshore,Offshore,Offshore,Offshore,Offshore,Onshore,Onshore,Onshore,Onshore,Onshore,Onshore",13
5842041f4e65fad6a770883a,2024_04_09,32.813094,-117.27381,Birdrock,2.8461538461538463,0.6746153846153846,0.98,15,15,"NIGHT_CLEAR,NIGHT_CLEAR,NIGHT_CLEAR,NIGHT_MIST,NIGHT_CLEAR,NIGHT_CLEAR,CLEAR,CLEAR,CLEAR,CLEAR,CLEAR,CLEAR,CLEAR","Offshore,Offshore,Offshore,Offshore,Offshore,Offshore,Offshore,Offshore,Onshore,Onshore,Cross-shore,Cross-shore,Cross-shore",13
5842041f4e65fad6a770883b,2024_04_09,32.877231,-117.25303,Blacks,3,0.9135794871794872,1.1939,16,16,"NIGHT_CLEAR,NIGHT_CLEAR,NIGHT_CLEAR,NIGHT_CLEAR,NIGHT_CLEAR,NIGHT_CLEAR,CLEAR,CLEAR,CLEAR,MIST,MIST,BRIEF_SHOWERS_POSSIBLE,BRIEF_SHOWERS_POSSIBLE","Onshore,Cross-shore,Cross-shore,Offshore,Offshore,Cross-shore,Cross-shore,Onshore,Onshore,Onshore,Onshore,Onshore,Onshore",13
5842041f4e65fad6a770883c,2024_04_09,32.82978974229765,-117.28162,Windansea,2.3076923076923075,0.6466666666666667,1.0051410256410256,15,15,"NIGHT_CLEAR,NIGHT_CLEAR,NIGHT_MIST,NIGHT_MIST,NIGHT_CLEAR,NIGHT_CLEAR,CLEAR,CLEAR,CLEAR,CLEAR,CLEAR,CLEAR,CLEAR","Cross-shore,Offshore,Offshore,Offshore,Offshore,Offshore,Offshore,Onshore,Onshore,Onshore,Onshore,Onshore,Onshore",13
5842041f4e65fad6a770883d,2024_04_09,32.838278,-117.28396,Horseshoe,2.8461538461538463,0.7515384615384615,1.0553846153846154,15,15,"NIGHT_CLEAR,NIGHT_CLEAR,NIGHT_MIST,NIGHT_MIST,NIGHT_CLEAR,NIGHT_CLEAR,CLEAR,CLEAR,CLEAR,CLEAR,CLEAR,CLEAR,CLEAR","Cross-shore,Offshore,Offshore,Offshore,Offshore,Offshore,Offshore,Onshore,Onshore,Onshore,Onshore,Onshore,Onshore",13
5842041f4e65fad6a770883f,2024_04_09,32.75034717673179,-117.25337,Ocean Beach,2.923076923076923,0.895951282051282,1.1744769230769232,15,15,"NIGHT_CLEAR,NIGHT_CLEAR,NIGHT_MIST,NIGHT_MIST,NIGHT_MIST,NIGHT_MIST,CLEAR,CLEAR,CLEAR,CLEAR,MIST,MIST,BRIEF_SHOWERS_POSSIBLE","Cross-shore,Offshore,Offshore,Offshore,Offshore,Offshore,Offshore,Offshore,Cross-shore,Onshore,Onshore,Onshore,Onshore",13
5842041f4e65fad6a7708840,2024_04_09,32.73693,-117.25718,Sunset Cliffs,2.076923076923077,0.6946153846153846,0.9976923076923077,15,15,"NIGHT_CLEAR,NIGHT_MIST,NIGHT_CLEAR,NIGHT_MIST,NIGHT_MIST,NIGHT_MIST,MOSTLY_CLOUDY,MOSTLY_CLEAR,CLEAR,CLEAR,CLEAR,CLEAR,CLEAR","Cross-shore,Offshore,Offshore,Offshore,Offshore,Offshore,Offshore,Offshore,Cross-shore,Onshore,Onshore,Onshore,Onshore",13
5842041f4e65fad6a7708841,2024_04_09,32.796582258728826,-117.25779,Pacific Beach,2.756923076923077,0.6893589743589743,1.0532641025641025,15,15,"NIGHT_CLEAR,NIGHT_CLEAR,NIGHT_CLEAR,NIGHT_MIST,NIGHT_MIST,NIGHT_MIST,MIST,CLEAR,CLEAR,CLEAR,CLEAR,CLEAR,CLEAR","Offshore,Offshore,Offshore,Offshore,Offshore,Offshore,Offshore,Offshore,Cross-shore,Onshore,Cross-shore,Cross-shore,Cross-shore",13
5842041f4e65fad6a7708842,2024_04_09,32.776636,-117.25514,Mission Beach,2.6792307692307693,0.6663461538461538,1.0332000000000001,15,15,"NIGHT_CLEAR,NIGHT_CLEAR,NIGHT_CLEAR,NIGHT_MIST,NIGHT_MIST,NIGHT_MIST,MIST,CLEAR,CLEAR,CLEAR,CLEAR,CLEAR,CLEAR","Offshore,Offshore,Offshore,Offshore,Offshore,Offshore,Offshore,Offshore,Onshore,Onshore,Onshore,Onshore,Onshore",13
5842041f4e65fad6a7708844,2024_04_09,32.577195519016,-117.13475,Imperial Beach Pier,2.8461538461538463,0.7423076923076923,1.0269230769230768,15,15,"NIGHT_CLEAR,NIGHT_CLEAR,NIGHT_CLEAR,NIGHT_MIST,NIGHT_CLEAR,NIGHT_CLEAR,MIST,CLEAR,CLEAR,CLEAR,CLEAR,CLEAR,CLEAR","Onshore,Cross-shore,Offshore,Offshore,Offshore,Offshore,Offshore,Offshore,Offshore,Onshore,Onshore,Onshore,Onshore",13
5842041f4e65fad6a770884a,2024_04_09,42.88678181061,-70.80843,Seabrook,1.6538461538461537,0.4791397435897436,0.7791833333333333,5.153846153846154,4,"NIGHT_CLEAR,NIGHT_CLEAR,NIGHT_CLEAR,CLEAR,CLEAR,CLEAR,CLEAR,CLEAR,CLEAR,MIST,MIST,MIST,MIST","Offshore,Offshore,Offshore,Cross-shore,Cross-shore,Cross-shore,Cross-shore,Cross-shore,Onshore,Onshore,Onshore,Onshore,Onshore",13
5842041f4e65fad6a770884e,2024_04_09,41.434181432898335,-71.45312,Narragansett,0.823076923076923,0.06428461538461538,0.36773846153846157,6.153846153846154,5.153846153846154,"NIGHT_MOSTLY_CLOUDY,NIGHT_CLEAR,NIGHT_CLEAR,CLEAR,CLEAR,CLEAR,CLEAR,CLEAR,CLEAR,CLEAR,CLEAR,CLEAR,CLEAR","Cross-shore,Offshore,Offshore,Offshore,Offshore,Offshore,Offshore,Offshore,Onshore,Onshore,Onshore,Onshore,Onshore",13
5842041f4e65fad6a7708850,2024_04_09,40.582703230722,-73.65247,Lincoln Blvd,1,0.002179487179487182,0.30813333333333337,8,7,"NIGHT_CLEAR,NIGHT_CLEAR,NIGHT_CLEAR,CLEAR,CLEAR,CLEAR,CLEAR,CLEAR,CLEAR,CLEAR,CLEAR,CLEAR,CLEAR","Onshore,Onshore,Onshore,Onshore,Cross-shore,Cross-shore,Offshore,Offshore,Onshore,Onshore,Onshore,Onshore,Offshore",13
5842041f4e65fad6a7708852,2024_04_09,40.58342841721757,-73.81182,Rockaways,2.2884615384615383,0.46994871794871795,0.8059794871794872,8,7,"NIGHT_MOSTLY_CLEAR,NIGHT_CLEAR,NIGHT_CLEAR,CLEAR,CLEAR,CLEAR,CLEAR,CLEAR,CLEAR,CLEAR,CLEAR,CLEAR,CLEAR","Onshore,Onshore,Onshore,Onshore,Cross-shore,Offshore,Offshore,Offshore,Onshore,Onshore,Onshore,Onshore,Onshore",13
5842041f4e65fad6a7708853,2024_04_09,40.330474,-73.9734,Monmouth Beach,2.076923076923077,0.41649743589743593,0.7702435897435898,8,7,"NIGHT_MOSTLY_CLEAR,NIGHT_CLEAR,NIGHT_CLEAR,CLEAR,CLEAR,CLEAR,CLEAR,CLEAR,CLEAR,CLEAR,CLEAR,CLEAR,CLEAR","Offshore,Cross-shore,Cross-shore,Offshore,Offshore,Offshore,Offshore,Cross-shore,Onshore,Onshore,Onshore,Onshore,Onshore",13
5842041f4e65fad6a7708856,2024_04_09,40.113,-74.028,Manasquan Inlet,2.4038461538461537,0.4810974358974359,0.7855769230769231,8,7,"NIGHT_CLEAR,NIGHT_CLEAR,NIGHT_CLEAR,CLEAR,CLEAR,CLEAR,CLEAR,CLEAR,CLEAR,CLEAR,CLEAR,CLEAR,CLEAR","Offshore,Cross-shore,Offshore,Offshore,Offshore,Offshore,Onshore,Cross-shore,Onshore,Onshore,Onshore,Onshore,Cross-shore",13
5842041f4e65fad6a7708857,2024_04_09,39.941519877445664,-74.06829,Casino Pier,3.210769230769231,0.7802923076923077,1.1039897435897437,8,7,"NIGHT_CLEAR,NIGHT_CLEAR,NIGHT_CLEAR,CLEAR,CLEAR,CLEAR,CLEAR,CLEAR,CLEAR,CLEAR,CLEAR,CLEAR,CLEAR","Cross-shore,Cross-shore,Cross-shore,Offshore,Offshore,Offshore,Offshore,Offshore,Onshore,Onshore,Onshore,Onshore,Onshore",13
5842041f4e65fad6a7708858,2024_04_09,39.28223089949212,-74.55766,North End OC,2.4546153846153844,0.6646641025641026,0.9711307692307692,8,7,"NIGHT_CLEAR,NIGHT_CLEAR,NIGHT_MIST,MIST,MIST,MIST,CLEAR,CLEAR,MIST,MIST,MIST,MIST,MIST","Onshore,Cross-shore,Cross-shore,Offshore,Offshore,Offshore,Offshore,Offshore,Onshore,Onshore,Onshore,Onshore,Onshore",13
5842041f4e65fad6a770885b,2024_04_09,39.65080599934257,-74.17146,Ship Bottom,2.2246153846153844,0.7205871794871795,1.0746179487179488,8,7,"NIGHT_CLEAR,NIGHT_CLEAR,NIGHT_MIST,CLEAR,CLEAR,CLEAR,CLEAR,CLEAR,CLEAR,CLEAR,CLEAR,CLEAR,CLEAR","Cross-shore,Offshore,Offshore,Offshore,Offshore,Offshore,Cross-shore,Cross-shore,Onshore,Onshore,Onshore,Cross-shore,Cross-shore",13
5842041f4e65fad6a7708863,2024_04_09,36.034151543144,-75.66791,Third Street,3.1538461538461537,0.9195589743589744,1.3140820512820512,12,10,"NIGHT_MOSTLY_CLOUDY,NIGHT_CLEAR,NIGHT_MOSTLY_CLOUDY,MOSTLY_CLOUDY,CLEAR,CLEAR,CLEAR,CLEAR,CLEAR,CLEAR,CLEAR,CLEAR,CLEAR","Offshore,Offshore,Offshore,Offshore,Offshore,Offshore,Offshore,Offshore,Offshore,Offshore,Offshore,Offshore,Offshore",13
5842041f4e65fad6a7708867,2024_04_09,35.605833221351425,-75.46303,S-Turns,3.629230769230769,1.2591717948717949,1.7556794871794872,14,13,"NIGHT_MOSTLY_CLOUDY,NIGHT_MOSTLY_CLEAR,NIGHT_CLEAR,CLEAR,MOSTLY_CLOUDY,MOSTLY_CLEAR,MOSTLY_CLOUDY,CLEAR,CLEAR,CLEAR,CLEAR,CLEAR,CLEAR","Offshore,Offshore,Offshore,Offshore,Offshore,Offshore,Offshore,Offshore,Offshore,Offshore,Offshore,Offshore,Offshore",13
5842041f4e65fad6a770886d,2024_04_09,38.338461,-75.08117,Ocean City Boardwalk,2.493846153846154,0.8055333333333333,1.1903435897435897,9.153846153846153,8.076923076923077,"NIGHT_CLEAR,NIGHT_CLEAR,NIGHT_CLEAR,CLEAR,CLEAR,CLEAR,CLEAR,CLEAR,CLEAR,CLEAR,CLEAR,CLEAR,CLEAR","Offshore,Offshore,Offshore,Offshore,Offshore,Offshore,Offshore,Onshore,Cross-shore,Cross-shore,Offshore,Cross-shore,Cross-shore",13
5842041f4e65fad6a770886f,2024_04_09,29.844757212379562,-81.26136,A St.,1.2307692307692308,0.35846153846153844,0.6646153846153846,19,19,"NIGHT_CLEAR,NIGHT_CLEAR,NIGHT_CLEAR,NIGHT_MOSTLY_CLEAR,CLEAR,MOSTLY_CLOUDY,MOSTLY_CLOUDY,CLEAR,CLEAR,CLEAR,CLEAR,CLEAR,CLOUDY","Onshore,Onshore,Onshore,Onshore,Onshore,Cross-shore,Onshore,Onshore,Onshore,Onshore,Onshore,Onshore,Onshore",13
5842041f4e65fad6a7708871,2024_04_09,29.069417851135093,-80.90824,New Smyrna Beach,1.2307692307692308,0.7394923076923077,1.0865538461538462,20.076923076923077,19.076923076923077,"NIGHT_CLEAR,NIGHT_CLEAR,NIGHT_CLEAR,NIGHT_CLEAR,MOSTLY_CLOUDY,MOSTLY_CLOUDY,CLOUDY,CLEAR,CLEAR,CLEAR,MOSTLY_CLOUDY,CLEAR,CLOUDY","Onshore,Onshore,Onshore,Onshore,Onshore,Cross-shore,Cross-shore,Cross-shore,Cross-shore,Cross-shore,Onshore,Onshore,Onshore",13
5842041f4e65fad6a7708872,2024_04_09,28.367707417566,-80.60171,Cocoa Beach Pier,1,0.4602666666666667,0.7625846153846154,24,23,"NIGHT_MOSTLY_CLOUDY,NIGHT_CLOUDY,NIGHT_MOSTLY_CLOUDY,NIGHT_MOSTLY_CLEAR,MOSTLY_CLOUDY,MOSTLY_CLOUDY,CLEAR,OVERCAST,MOSTLY_CLOUDY,CLEAR,CLEAR,CLEAR,CLEAR","Onshore,Onshore,Onshore,Onshore,Onshore,Onshore,Onshore,Onshore,Onshore,Onshore,Onshore,Onshore,Onshore",13
5842041f4e65fad6a7708873,2024_04_09,28.091782738658846,-80.56479,Indialantic,1,0.5968153846153846,0.903876923076923,24,23,"NIGHT_MOSTLY_CLOUDY,NIGHT_MOSTLY_CLOUDY,NIGHT_CLOUDY,NIGHT_CLOUDY,CLEAR,CLEAR,CLEAR,CLEAR,CLEAR,CLEAR,CLEAR,CLEAR,CLEAR","Onshore,Onshore,Onshore,Onshore,Onshore,Onshore,Onshore,Onshore,Onshore,Onshore,Onshore,Onshore,Onshore",13
5842041f4e65fad6a7708876,2024_04_09,27.25392904143517,-80.19455,Jensen Beach,1,0.6230769230769231,1.0276923076923077,24,23,"NIGHT_OVERCAST,NIGHT_CLEAR,NIGHT_MOSTLY_CLOUDY,NIGHT_MOSTLY_CLOUDY,CLOUDY,BRIEF_SHOWERS,MOSTLY_CLOUDY,CLEAR,CLEAR,MOSTLY_CLEAR,MOSTLY_CLOUDY,CLEAR,CLEAR","Onshore,Onshore,Onshore,Onshore,Onshore,Onshore,Onshore,Onshore,Onshore,Onshore,Onshore,Onshore,Onshore",13
5842041f4e65fad6a7708879,2024_04_09,26.76346795333825,-80.0360655784607,Reef Road,1.3923076923076922,0.638628717948718,1.0287758974358974,26,24,"NIGHT_MOSTLY_CLOUDY,NIGHT_MOSTLY_CLOUDY,NIGHT_MOSTLY_CLOUDY,NIGHT_BRIEF_SHOWERS,MOSTLY_CLOUDY,MOSTLY_CLOUDY,MOSTLY_CLOUDY,MOSTLY_CLOUDY,MOSTLY_CLOUDY,BRIEF_SHOWERS,MOSTLY_CLOUDY,MOSTLY_CLOUDY,CLEAR","Onshore,Onshore,Onshore,Onshore,Onshore,Onshore,Onshore,Onshore,Onshore,Onshore,Onshore,Onshore,Onshore",13
5842041f4e65fad6a770887c,2024_04_09,26.336499228484,-80.06956100463,Boca Raton Inlet,0.7561538461538462,0.4042307692307692,0.7087179487179487,26,24,"NIGHT_MOSTLY_CLOUDY,NIGHT_CLEAR,NIGHT_MOSTLY_CLOUDY,NIGHT_MOSTLY_CLOUDY,BRIEF_SHOWERS,MOSTLY_CLOUDY,MOSTLY_CLOUDY,MOSTLY_CLOUDY,MOSTLY_CLOUDY,MOSTLY_CLOUDY,MOSTLY_CLOUDY,CLEAR,MOSTLY_CLOUDY","Onshore,Onshore,Onshore,Onshore,Onshore,Onshore,Onshore,Onshore,Onshore,Onshore,Onshore,Onshore,Onshore",13
5842041f4e65fad6a770887d,2024_04_09,26.31719311695038,-80.07453,Deerfield Beach Pier,1,0.399380641025641,0.6430973076923077,26,24,"NIGHT_MOSTLY_CLOUDY,NIGHT_CLEAR,NIGHT_MOSTLY_CLOUDY,NIGHT_MOSTLY_CLOUDY,MOSTLY_CLOUDY,MOSTLY_CLOUDY,MOSTLY_CLOUDY,MOSTLY_CLEAR,MOSTLY_CLOUDY,MOSTLY_CLOUDY,MOSTLY_CLOUDY,MOSTLY_CLOUDY,BRIEF_SHOWERS","Onshore,Onshore,Onshore,Onshore,Onshore,Onshore,Onshore,Onshore,Onshore,Onshore,Onshore,Onshore,Onshore",13
5842041f4e65fad6a7708881,2024_04_09,30.20276320866628,-85.85626528676136,"Spyglass Dr., Panama City",1.3076923076923077,0.2980128205128205,0.599625641025641,19,18,"NIGHT_CLEAR,NIGHT_CLEAR,NIGHT_CLEAR,NIGHT_CLEAR,CLEAR,CLEAR,CLEAR,CLEAR,OVERCAST,CLEAR,CLEAR,CLEAR,MOSTLY_CLOUDY","Cross-shore,Cross-shore,Cross-shore,Cross-shore,Cross-shore,Cross-shore,Cross-shore,Cross-shore,Onshore,Onshore,Onshore,Cross-shore,Onshore",13
5842041f4e65fad6a7708884,2024_04_09,33.39000832738053,-117.59852,Cottons,2.3846153846153846,0.5572179487179487,0.8619820512820513,14,14,"NIGHT_CLEAR,NIGHT_CLEAR,NIGHT_CLEAR,NIGHT_CLEAR,NIGHT_CLEAR,NIGHT_CLEAR,CLEAR,CLEAR,CLEAR,CLEAR,CLEAR,CLEAR,CLEAR","Cross-shore,Cross-shore,Cross-shore,Cross-shore,Cross-shore,Cross-shore,Cross-shore,Offshore,Cross-shore,Onshore,Onshore,Onshore,Onshore",13
5842041f4e65fad6a7708885,2024_04_09,33.359416282661,-117.54167901405711,Trails,2.6153846153846154,0.38846153846153847,0.6907692307692308,14,14,"NIGHT_CLEAR,NIGHT_CLEAR,NIGHT_CLEAR,NIGHT_CLEAR,NIGHT_CLEAR,NIGHT_CLEAR,CLEAR,CLEAR,CLEAR,CLEAR,CLEAR,CLEAR,CLEAR","Offshore,Offshore,Offshore,Offshore,Offshore,Cross-shore,Cross-shore,Offshore,Onshore,Onshore,Cross-shore,Onshore,Onshore",13
5842041f4e65fad6a7708886,2024_04_09,33.38042605929805,-117.58332,Middles,2.6792307692307693,0.45224871794871796,0.779274358974359,14,14,"NIGHT_CLEAR,NIGHT_CLEAR,NIGHT_CLEAR,NIGHT_CLEAR,NIGHT_CLEAR,NIGHT_CLEAR,CLEAR,CLEAR,CLEAR,CLEAR,CLEAR,CLEAR,CLEAR","Offshore,Offshore,Offshore,Offshore,Offshore,Offshore,Offshore,Offshore,Onshore,Onshore,Onshore,Onshore,Onshore",13
5842041f4e65fad6a7708887,2024_04_09,33.38445596302903,-117.59445,Upper Trestles,2.3846153846153846,0.5926025641025641,0.8987769230769231,14,14,"NIGHT_CLEAR,NIGHT_CLEAR,NIGHT_CLEAR,NIGHT_CLEAR,NIGHT_CLEAR,NIGHT_CLEAR,CLEAR,CLEAR,CLEAR,CLEAR,CLEAR,CLEAR,CLEAR","Offshore,Offshore,Offshore,Offshore,Offshore,Offshore,Offshore,Offshore,Onshore,Onshore,Onshore,Onshore,Onshore",13
5842041f4e65fad6a7708889,2024_04_09,28.944414,-95.28883,Surfside,1.7692307692307692,1.3221238461538463,2.0658207692307693,21.692307692307693,21.692307692307693,"NIGHT_CLEAR,NIGHT_OVERCAST,NIGHT_MIST,NIGHT_MIST,MIST,MIST,MIST,MOSTLY_CLOUDY,DRIZZLE,MIST,DRIZZLE,MIST,MIST","Onshore,Onshore,Onshore,Onshore,Onshore,Onshore,Onshore,Onshore,Onshore,Onshore,Onshore,Onshore,Onshore",13
5842041f4e65fad6a770888a,2024_04_09,33.38143999849023,-117.58843,Lower Trestles,2.8461538461538463,0.642574358974359,0.9665871794871794,14,14,"NIGHT_CLEAR,NIGHT_CLEAR,NIGHT_CLEAR,NIGHT_CLEAR,NIGHT_CLEAR,NIGHT_CLEAR,CLEAR,CLEAR,CLEAR,CLEAR,CLEAR,CLEAR,CLEAR","Offshore,Offshore,Offshore,Offshore,Offshore,Offshore,Offshore,Offshore,Onshore,Onshore,Onshore,Onshore,Onshore",13
5842041f4e65fad6a770888b,2024_04_09,33.379622288757,-117.57894,Church,2.602307692307692,0.45532564102564105,0.7815179487179488,14,14,"NIGHT_CLEAR,NIGHT_CLEAR,NIGHT_CLEAR,NIGHT_CLEAR,NIGHT_CLEAR,NIGHT_CLEAR,CLEAR,CLEAR,CLEAR,CLEAR,CLEAR,CLEAR,CLEAR","Offshore,Offshore,Offshore,Offshore,Offshore,Cross-shore,Offshore,Offshore,Cross-shore,Onshore,Onshore,Onshore,Onshore",13
5842041f4e65fad6a770888d,2024_04_09,21.679,-158.042,Sunset Beach,3.6792307692307693,1.2874153846153846,1.7208,26,25,"NIGHT_BRIEF_SHOWERS,NIGHT_MOSTLY_CLOUDY,NIGHT_MOSTLY_CLOUDY,NIGHT_MOSTLY_CLOUDY,NIGHT_CLEAR,NIGHT_MOSTLY_CLOUDY,NIGHT_MOSTLY_CLEAR,NIGHT_SHOWERS,BRIEF_SHOWERS,CLEAR,MOSTLY_CLEAR,BRIEF_SHOWERS,MOSTLY_CLEAR","Cross-shore,Cross-shore,Cross-shore,Cross-shore,Offshore,Offshore,Offshore,Offshore,Offshore,Offshore,Offshore,Offshore,Offshore",13
5842041f4e65fad6a770888e,2024_04_09,21.670550036401,-158.0482,Rocky Point,3.3846153846153846,1.114723076923077,1.4880461538461538,26,25,"NIGHT_CLEAR,NIGHT_MOSTLY_CLOUDY,NIGHT_MOSTLY_CLOUDY,NIGHT_BRIEF_SHOWERS,NIGHT_BRIEF_SHOWERS,NIGHT_MOSTLY_CLOUDY,NIGHT_SHOWERS,NIGHT_SHOWERS,CLEAR,BRIEF_SHOWERS,CLEAR,CLEAR,CLEAR","Cross-shore,Cross-shore,Cross-shore,Cross-shore,Cross-shore,Cross-shore,Cross-shore,Offshore,Cross-shore,Cross-shore,Offshore,Offshore,Cross-shore",13
5842041f4e65fad6a770888f,2024_04_09,21.668,-158.05,Chambers,3.3846153846153846,1.2707692307692309,1.5184615384615385,24,24,"NIGHT_CLEAR,NIGHT_MOSTLY_CLOUDY,NIGHT_MOSTLY_CLOUDY,NIGHT_BRIEF_SHOWERS,NIGHT_BRIEF_SHOWERS,NIGHT_MOSTLY_CLOUDY,NIGHT_SHOWERS,NIGHT_SHOWERS,CLEAR,BRIEF_SHOWERS,CLEAR,CLEAR,CLEAR","Cross-shore,Cross-shore,Cross-shore,Cross-shore,Cross-shore,Cross-shore,Offshore,Offshore,Cross-shore,Cross-shore,Cross-shore,Offshore,Cross-shore",13
5842041f4e65fad6a7708890,2024_04_09,21.66522,-158.0526,Pipeline,2.7053846153846153,1.4604923076923078,1.8711230769230769,26,25,"NIGHT_CLEAR,NIGHT_MOSTLY_CLOUDY,NIGHT_MOSTLY_CLOUDY,NIGHT_BRIEF_SHOWERS,NIGHT_BRIEF_SHOWERS,NIGHT_MOSTLY_CLOUDY,NIGHT_SHOWERS,NIGHT_SHOWERS,CLEAR,BRIEF_SHOWERS,CLEAR,CLEAR,CLEAR","Cross-shore,Cross-shore,Cross-shore,Cross-shore,Cross-shore,Cross-shore,Cross-shore,Offshore,Cross-shore,Cross-shore,Offshore,Offshore,Cross-shore",13
5842041f4e65fad6a7708891,2024_04_09,21.665,-158.054,Backdoor,3.6792307692307693,1.4604923076923078,1.8711230769230769,26,25,"NIGHT_CLEAR,NIGHT_MOSTLY_CLOUDY,NIGHT_MOSTLY_CLOUDY,NIGHT_BRIEF_SHOWERS,NIGHT_BRIEF_SHOWERS,NIGHT_MOSTLY_CLOUDY,NIGHT_SHOWERS,NIGHT_SHOWERS,CLEAR,BRIEF_SHOWERS,CLEAR,CLEAR,CLEAR","Cross-shore,Cross-shore,Cross-shore,Cross-shore,Cross-shore,Cross-shore,Cross-shore,Offshore,Cross-shore,Cross-shore,Cross-shore,Offshore,Cross-shore",13
5842041f4e65fad6a7708892,2024_04_09,21.662,-158.057,Rockpile,3.4615384615384617,1.2707692307692309,1.5346153846153847,24,24,"NIGHT_CLEAR,NIGHT_MOSTLY_CLOUDY,NIGHT_MOSTLY_CLOUDY,NIGHT_BRIEF_SHOWERS,NIGHT_BRIEF_SHOWERS,NIGHT_MOSTLY_CLOUDY,NIGHT_SHOWERS,NIGHT_SHOWERS,CLEAR,BRIEF_SHOWERS,CLEAR,CLEAR,CLEAR","Cross-shore,Cross-shore,Cross-shore,Cross-shore,Cross-shore,Cross-shore,Offshore,Offshore,Cross-shore,Cross-shore,Offshore,Offshore,Offshore",13
5842041f4e65fad6a7708893,2024_04_09,21.65870453806827,-158.06058,Log Cabins,3.076923076923077,1.0446153846153847,1.263076923076923,24,24,"NIGHT_CLEAR,NIGHT_MOSTLY_CLOUDY,NIGHT_MOSTLY_CLOUDY,NIGHT_BRIEF_SHOWERS,NIGHT_BRIEF_SHOWERS,NIGHT_MOSTLY_CLOUDY,NIGHT_SHOWERS,NIGHT_SHOWERS,CLEAR,BRIEF_SHOWERS,CLEAR,CLEAR,CLEAR","Cross-shore,Cross-shore,Cross-shore,Cross-shore,Cross-shore,Cross-shore,Cross-shore,Offshore,Cross-shore,Cross-shore,Cross-shore,Offshore,Cross-shore",13
5842041f4e65fad6a7708894,2024_04_09,21.66203493640557,-158.05495,Off-The-Wall,3.6153846153846154,1.3292307692307692,1.5946153846153845,24,24,"NIGHT_CLEAR,NIGHT_MOSTLY_CLOUDY,NIGHT_MOSTLY_CLOUDY,NIGHT_BRIEF_SHOWERS,NIGHT_BRIEF_SHOWERS,NIGHT_MOSTLY_CLOUDY,NIGHT_SHOWERS,NIGHT_SHOWERS,CLEAR,BRIEF_SHOWERS,CLEAR,CLEAR,CLEAR","Cross-shore,Cross-shore,Cross-shore,Cross-shore,Cross-shore,Cross-shore,Cross-shore,Offshore,Cross-shore,Cross-shore,Offshore,Offshore,Offshore",13
5842041f4e65fad6a7708895,2024_04_09,21.643,-158.067,Waimea Bay,NA,1.3785692307692308,1.8315692307692308,26,25,"NIGHT_CLEAR,NIGHT_MOSTLY_CLOUDY,NIGHT_MOSTLY_CLOUDY,NIGHT_BRIEF_SHOWERS,NIGHT_BRIEF_SHOWERS,NIGHT_MOSTLY_CLOUDY,NIGHT_SHOWERS,NIGHT_SHOWERS,CLEAR,BRIEF_SHOWERS,CLEAR,CLEAR,CLEAR","Offshore,Offshore,Offshore,Cross-shore,Offshore,Offshore,Offshore,Offshore,Offshore,Offshore,Offshore,Offshore,Cross-shore",13
5842041f4e65fad6a7708896,2024_04_09,21.622,-158.087,Hultin's,4,1.6874153846153845,2.145738461538462,26,25,"NIGHT_CLEAR,NIGHT_CLEAR,NIGHT_CLEAR,NIGHT_CLEAR,NIGHT_CLEAR,NIGHT_CLEAR,NIGHT_CLEAR,NIGHT_CLEAR,CLEAR,CLEAR,CLEAR,CLEAR,CLEAR","Offshore,Offshore,Offshore,Offshore,Offshore,Offshore,Offshore,Offshore,Offshore,Offshore,Offshore,Offshore,Offshore",13
5842041f4e65fad6a7708897,2024_04_09,21.623,-158.085,Jocko's,3,1.07,1.3353846153846154,24,24,"NIGHT_CLEAR,NIGHT_CLEAR,NIGHT_CLEAR,NIGHT_CLEAR,NIGHT_CLEAR,NIGHT_CLEAR,NIGHT_CLEAR,NIGHT_CLEAR,CLEAR,CLEAR,CLEAR,CLEAR,CLEAR","Cross-shore,Cross-shore,Onshore,Onshore,Onshore,Onshore,Onshore,Onshore,Cross-shore,Cross-shore,Cross-shore,Cross-shore,Cross-shore",13
5842041f4e65fad6a7708898,2024_04_09,21.62,-158.088,Laniakea,3.3846153846153846,1.089723076923077,1.3233076923076923,26,25,"NIGHT_CLEAR,NIGHT_CLEAR,NIGHT_CLEAR,NIGHT_CLEAR,NIGHT_CLEAR,NIGHT_CLEAR,NIGHT_CLEAR,NIGHT_CLEAR,CLEAR,CLEAR,CLEAR,CLEAR,CLEAR","Offshore,Offshore,Cross-shore,Cross-shore,Cross-shore,Cross-shore,Cross-shore,Cross-shore,Offshore,Offshore,Offshore,Offshore,Offshore",13
5842041f4e65fad6a7708899,2024_04_09,21.625,-158.083,Chun's,3.1538461538461537,1.1692307692307693,1.43,24,24,"NIGHT_CLEAR,NIGHT_CLEAR,NIGHT_CLEAR,NIGHT_CLEAR,NIGHT_CLEAR,NIGHT_CLEAR,NIGHT_CLEAR,NIGHT_CLEAR,CLEAR,CLEAR,CLEAR,CLEAR,CLEAR","Offshore,Offshore,Offshore,Offshore,Offshore,Offshore,Offshore,Offshore,Offshore,Offshore,Offshore,Offshore,Offshore",13
5842041f4e65fad6a770889c,2024_04_09,21.286357895152136,-157.8515,South Shore - Ala Moana Park,2,0.5638461538461539,0.8684615384615385,24,24,"NIGHT_CLEAR,NIGHT_CLEAR,NIGHT_MOSTLY_CLOUDY,NIGHT_CLEAR,NIGHT_BRIEF_SHOWERS,NIGHT_CLEAR,NIGHT_CLEAR,NIGHT_MOSTLY_CLOUDY,CLEAR,CLEAR,CLEAR,CLEAR,MOSTLY_CLOUDY","Offshore,Offshore,Offshore,Offshore,Offshore,Offshore,Offshore,Offshore,Offshore,Offshore,Offshore,Offshore,Offshore",13
5842041f4e65fad6a770889d,2024_04_09,19.606,-155.978,Banyans,2.730769230769231,0.42835384615384614,0.7760615384615385,26,25,"NIGHT_MOSTLY_CLEAR,NIGHT_MOSTLY_CLOUDY,NIGHT_CLEAR,NIGHT_CLEAR,NIGHT_CLEAR,NIGHT_CLEAR,NIGHT_CLEAR,NIGHT_MOSTLY_CLEAR,CLEAR,CLEAR,CLEAR,CLEAR,CLEAR","Onshore,Onshore,Offshore,Offshore,Cross-shore,Cross-shore,Cross-shore,Cross-shore,Cross-shore,Onshore,Onshore,Onshore,Onshore",13
5842041f4e65fad6a770889e,2024_04_09,20.029,-155.831,Kawaihae,2,0.4444,0.5370984615384615,24,24,"NIGHT_MOSTLY_CLEAR,NIGHT_MOSTLY_CLEAR,NIGHT_MOSTLY_CLEAR,NIGHT_MOSTLY_CLOUDY,NIGHT_BRIEF_SHOWERS,NIGHT_FOG,NIGHT_MOSTLY_CLOUDY,NIGHT_MOSTLY_CLEAR,MOSTLY_CLEAR,MOSTLY_CLEAR,MOSTLY_CLEAR,MOSTLY_CLEAR,MOSTLY_CLEAR","Offshore,Offshore,Onshore,Onshore,Onshore,Onshore,Onshore,Onshore,Offshore,Onshore,Onshore,Onshore,Onshore",13
5842041f4e65fad6a770889f,2024_04_09,33.07541383424675,-117.3105,Grandview,2.6153846153846154,0.6553846153846153,0.96,15,15,"NIGHT_CLEAR,NIGHT_CLEAR,NIGHT_CLEAR,NIGHT_CLEAR,NIGHT_CLEAR,NIGHT_CLEAR,CLEAR,CLEAR,CLEAR,CLEAR,CLEAR,CLEAR,CLEAR","Offshore,Offshore,Offshore,Offshore,Offshore,Offshore,Offshore,Onshore,Onshore,Onshore,Onshore,Onshore,Onshore",13
5842041f4e65fad6a77088a0,2024_04_09,33.065267421296596,-117.30577,Beacons,2.769230769230769,0.6223076923076923,0.926923076923077,15,15,"NIGHT_CLEAR,NIGHT_CLEAR,NIGHT_CLEAR,NIGHT_CLEAR,NIGHT_CLEAR,NIGHT_CLEAR,CLEAR,CLEAR,CLEAR,CLEAR,CLEAR,CLEAR,CLEAR","Offshore,Offshore,Offshore,Offshore,Offshore,Offshore,Offshore,Onshore,Onshore,Onshore,Onshore,Onshore,Onshore",13
5842041f4e65fad6a77088a2,2024_04_09,21.252,-157.805,Diamond Head,3,0.7984169230769231,1.157983076923077,26,25,"NIGHT_CLEAR,NIGHT_CLEAR,NIGHT_MOSTLY_CLOUDY,NIGHT_MOSTLY_CLOUDY,NIGHT_BRIEF_SHOWERS,NIGHT_BRIEF_SHOWERS,NIGHT_MOSTLY_CLOUDY,NIGHT_MOSTLY_CLOUDY,CLEAR,MOSTLY_CLOUDY,MOSTLY_CLOUDY,MOSTLY_CLOUDY,MOSTLY_CLOUDY","Cross-shore,Cross-shore,Cross-shore,Cross-shore,Cross-shore,Cross-shore,Cross-shore,Cross-shore,Cross-shore,Cross-shore,Cross-shore,Cross-shore,Cross-shore",13
5842041f4e65fad6a77088a3,2024_04_09,33.04694255008896,-117.29966,Moonlight State Beach,2.6153846153846154,0.6369230769230769,0.9423076923076923,15,15,"NIGHT_CLEAR,NIGHT_CLEAR,NIGHT_CLEAR,NIGHT_CLEAR,NIGHT_CLEAR,NIGHT_CLEAR,CLEAR,CLEAR,CLEAR,CLEAR,CLEAR,CLEAR,CLEAR","Offshore,Offshore,Offshore,Offshore,Offshore,Offshore,Offshore,Offshore,Onshore,Onshore,Onshore,Onshore,Onshore",13
5842041f4e65fad6a77088a5,2024_04_09,33.08685865930869,-117.31532,Ponto,2.6153846153846154,0.7923076923076923,1.0984615384615384,15,15,"NIGHT_CLEAR,NIGHT_CLEAR,NIGHT_CLEAR,NIGHT_CLEAR,NIGHT_CLEAR,NIGHT_CLEAR,CLEAR,CLEAR,CLEAR,CLEAR,CLEAR,CLEAR,CLEAR","Offshore,Offshore,Offshore,Offshore,Offshore,Offshore,Offshore,Offshore,Onshore,Onshore,Onshore,Onshore,Onshore",13
5842041f4e65fad6a77088a6,2024_04_09,33.130343587871906,-117.33668,Terra Mar Point,2.602307692307692,0.555023076923077,0.8683923076923077,14,14,"NIGHT_CLEAR,NIGHT_CLEAR,NIGHT_MIST,NIGHT_MIST,NIGHT_CLEAR,NIGHT_MIST,CLEAR,CLEAR,CLEAR,CLEAR,CLEAR,CLEAR,CLEAR","Offshore,Offshore,Offshore,Offshore,Offshore,Offshore,Offshore,Offshore,Cross-shore,Onshore,Onshore,Onshore,Onshore",13
5842041f4e65fad6a77088af,2024_04_09,32.95916304183685,-117.26963,Del Mar,2.6923076923076925,0.7930769230769231,1.0984615384615384,15,15,"NIGHT_CLEAR,NIGHT_CLEAR,NIGHT_MIST,NIGHT_MIST,NIGHT_MIST,NIGHT_MIST,MIST,CLEAR,CLEAR,MIST,MIST,MIST,MIST","Offshore,Offshore,Offshore,Offshore,Offshore,Offshore,Offshore,Offshore,Onshore,Onshore,Onshore,Onshore,Onshore",13
5842041f4e65fad6a77088b0,2024_04_09,32.97527261243354,-117.2721061331305,Del Mar Rivermouth,2.6153846153846154,0.7138461538461539,1.0207692307692309,15,15,"NIGHT_CLEAR,NIGHT_CLEAR,NIGHT_MIST,NIGHT_MIST,NIGHT_MIST,NIGHT_MIST,MIST,CLEAR,CLEAR,MIST,MIST,MIST,MIST","Offshore,Offshore,Offshore,Offshore,Offshore,Offshore,Offshore,Offshore,Onshore,Onshore,Onshore,Onshore,Onshore",13
5842041f4e65fad6a77088b1,2024_04_09,33.01352178146273,-117.28219,Cardiff Reef,2.6792307692307693,0.7764333333333333,1.1432615384615383,14,14,"NIGHT_CLEAR,NIGHT_MIST,NIGHT_CLEAR,NIGHT_CLEAR,NIGHT_CLEAR,NIGHT_CLEAR,CLEAR,CLEAR,CLEAR,CLEAR,CLEAR,CLEAR,CLEAR","Offshore,Offshore,Offshore,Offshore,Offshore,Offshore,Offshore,Offshore,Cross-shore,Onshore,Onshore,Onshore,Cross-shore",13
5842041f4e65fad6a77088b3,2024_04_09,33.00211185876003,-117.2811,Seaside Reef,2.6792307692307693,0.6286128205128205,0.9981333333333333,14,14,"NIGHT_CLEAR,NIGHT_CLEAR,NIGHT_CLEAR,NIGHT_CLEAR,NIGHT_CLEAR,NIGHT_CLEAR,CLEAR,CLEAR,CLEAR,CLEAR,MIST,MIST,MIST","Offshore,Offshore,Offshore,Offshore,Offshore,Offshore,Offshore,Offshore,Onshore,Onshore,Onshore,Onshore,Cross-shore",13
5842041f4e65fad6a77088b4,2024_04_09,33.0341859796287,-117.29552,Swami's,2.602307692307692,0.6811769230769231,0.9879666666666667,14,14,"NIGHT_CLEAR,NIGHT_MIST,NIGHT_CLEAR,NIGHT_CLEAR,NIGHT_CLEAR,NIGHT_CLEAR,CLEAR,CLEAR,CLEAR,CLEAR,CLEAR,CLEAR,CLEAR","Offshore,Offshore,Offshore,Offshore,Offshore,Offshore,Offshore,Offshore,Onshore,Onshore,Onshore,Onshore,Onshore",13
5842041f4e65fad6a77088b7,2024_04_09,33.04569760260221,-117.2994,D Street,2.6923076923076925,0.71,1.0138461538461538,15,15,"NIGHT_CLEAR,NIGHT_CLEAR,NIGHT_CLEAR,NIGHT_CLEAR,NIGHT_CLEAR,NIGHT_CLEAR,CLEAR,CLEAR,CLEAR,CLEAR,CLEAR,CLEAR,CLEAR","Offshore,Offshore,Offshore,Offshore,Offshore,Offshore,Offshore,Offshore,Onshore,Onshore,Onshore,Onshore,Onshore",13
5842041f4e65fad6a77088b8,2024_04_09,33.02090944350196,-117.28535,San Elijo State Beach,2.602307692307692,0.5654076923076923,0.9342230769230769,14,14,"NIGHT_CLEAR,NIGHT_MIST,NIGHT_CLEAR,NIGHT_CLEAR,NIGHT_CLEAR,NIGHT_CLEAR,CLEAR,CLEAR,CLEAR,CLEAR,CLEAR,CLEAR,CLEAR","Offshore,Offshore,Offshore,Offshore,Offshore,Offshore,Offshore,Offshore,Cross-shore,Onshore,Onshore,Onshore,Cross-shore",13
5842041f4e65fad6a77088c2,2024_04_09,32.80662846492798,-117.2688764333725,PB Point,2.6923076923076925,0.6915384615384615,0.9969230769230769,15,15,"NIGHT_CLEAR,NIGHT_CLEAR,NIGHT_CLEAR,NIGHT_MIST,NIGHT_CLEAR,NIGHT_CLEAR,CLEAR,CLEAR,CLEAR,CLEAR,CLEAR,CLEAR,CLEAR","Cross-shore,Cross-shore,Cross-shore,Cross-shore,Cross-shore,Cross-shore,Offshore,Cross-shore,Cross-shore,Cross-shore,Cross-shore,Cross-shore,Cross-shore",13
5842041f4e65fad6a77088c4,2024_04_09,32.8060476681448,-117.26479,Old Man's at Tourmaline,2.6923076923076925,0.5738461538461539,0.8784615384615385,15,15,"NIGHT_CLEAR,NIGHT_CLEAR,NIGHT_CLEAR,NIGHT_MIST,NIGHT_CLEAR,NIGHT_CLEAR,CLEAR,CLEAR,CLEAR,CLEAR,CLEAR,CLEAR,CLEAR","Cross-shore,Cross-shore,Cross-shore,Cross-shore,Cross-shore,Cross-shore,Offshore,Offshore,Cross-shore,Cross-shore,Cross-shore,Cross-shore,Cross-shore",13
5842041f4e65fad6a77088cb,2024_04_09,32.557056711256,-117.1327445020322,Tijuana Slough,2.6923076923076925,0.6284615384615385,0.9346153846153846,15,15,"NIGHT_CLEAR,NIGHT_CLEAR,NIGHT_CLEAR,NIGHT_CLEAR,NIGHT_CLEAR,NIGHT_CLEAR,CLEAR,CLEAR,CLEAR,CLEAR,CLEAR,CLEAR,CLEAR","Onshore,Cross-shore,Offshore,Offshore,Offshore,Offshore,Offshore,Offshore,Offshore,Onshore,Onshore,Onshore,Onshore",13
5842041f4e65fad6a77088cc,2024_04_09,32.863,-117.257,La Jolla Shores,2.6153846153846154,0.6523076923076924,0.9561538461538461,15,15,"NIGHT_CLEAR,NIGHT_CLEAR,NIGHT_CLEAR,NIGHT_CLEAR,NIGHT_CLEAR,NIGHT_CLEAR,CLEAR,CLEAR,CLEAR,MIST,MIST,BRIEF_SHOWERS_POSSIBLE,BRIEF_SHOWERS_POSSIBLE","Onshore,Cross-shore,Offshore,Offshore,Offshore,Offshore,Offshore,Onshore,Onshore,Onshore,Onshore,Onshore,Onshore",13
5842041f4e65fad6a77088ce,2024_04_09,32.67443657790586,-117.17421316238693,Coronado Beach,2.769230769230769,0.3984615384615385,0.7053846153846154,15,15,"NIGHT_CLEAR,NIGHT_CLEAR,NIGHT_CLEAR,NIGHT_CLEAR,NIGHT_CLEAR,NIGHT_CLEAR,CLEAR,CLEAR,CLEAR,CLEAR,CLEAR,CLEAR,CLEAR","Offshore,Offshore,Cross-shore,Cross-shore,Cross-shore,Offshore,Offshore,Offshore,Cross-shore,Cross-shore,Cross-shore,Cross-shore,Cross-shore",13
5842041f4e65fad6a77088cf,2024_04_09,33.40484417640326,-117.60749,San Clemente State Beach,2.6153846153846154,0.4546153846153846,0.76,14,14,"NIGHT_CLEAR,NIGHT_CLEAR,NIGHT_CLEAR,NIGHT_CLEAR,NIGHT_CLEAR,NIGHT_CLEAR,CLEAR,CLEAR,CLEAR,CLEAR,CLEAR,CLEAR,CLEAR","Offshore,Offshore,Offshore,Offshore,Offshore,Offshore,Offshore,Offshore,Onshore,Onshore,Onshore,Onshore,Onshore",13
5842041f4e65fad6a77088d5,2024_04_09,33.4663042002114,-117.7168352817103,Strands,2.756153846153846,0.6302025641025641,1.004825641025641,13,13,"NIGHT_CLEAR,NIGHT_CLEAR,NIGHT_CLEAR,NIGHT_CLEAR,NIGHT_CLEAR,NIGHT_CLEAR,CLEAR,CLEAR,CLEAR,CLEAR,MIST,MIST,MIST","Offshore,Offshore,Cross-shore,Cross-shore,Onshore,Cross-shore,Cross-shore,Onshore,Onshore,Onshore,Onshore,Onshore,Onshore",13
5842041f4e65fad6a77088d7,2024_04_09,33.4609858001748,-117.68535,Doheny State Beach,1.7561538461538462,0.037243589743589746,0.3394923076923077,14,14,"NIGHT_CLEAR,NIGHT_CLEAR,NIGHT_CLEAR,NIGHT_CLEAR,NIGHT_CLEAR,NIGHT_CLEAR,CLEAR,CLEAR,CLEAR,CLEAR,CLEAR,CLEAR,CLEAR","Offshore,Offshore,Offshore,Offshore,Offshore,Offshore,Offshore,Cross-shore,Onshore,Onshore,Onshore,Onshore,Onshore",13
5842041f4e65fad6a77088dc,2024_04_09,33.50894790083017,-117.75243,Aliso Creek,2.4615384615384617,0.4392307692307692,0.7446153846153846,14,14,"NIGHT_CLEAR,NIGHT_MIST,NIGHT_MIST,NIGHT_MOSTLY_CLEAR,NIGHT_CLEAR,NIGHT_CLEAR,CLEAR,CLEAR,MIST,MIST,BRIEF_SHOWERS,BRIEF_SHOWERS,MIST","Offshore,Offshore,Offshore,Offshore,Offshore,Offshore,Offshore,Onshore,Onshore,Onshore,Onshore,Onshore,Onshore",13
5842041f4e65fad6a77088dd,2024_04_09,33.5326591767067,-117.77764,Brooks Street,2.5384615384615383,0.3223076923076923,0.6276923076923077,14,14,"NIGHT_CLEAR,NIGHT_CLEAR,NIGHT_MIST,NIGHT_CLEAR,NIGHT_CLEAR,NIGHT_CLEAR,CLEAR,MIST,CLEAR,MIST,BRIEF_SHOWERS_POSSIBLE,BRIEF_SHOWERS_POSSIBLE,MIST","Offshore,Offshore,Offshore,Offshore,Offshore,Offshore,Offshore,Onshore,Onshore,Onshore,Onshore,Onshore,Onshore",13
5842041f4e65fad6a77088de,2024_04_09,33.53561225884637,-117.7799,Thalia Street,2.6923076923076925,0.37153846153846154,0.6761538461538461,14,14,"NIGHT_CLEAR,NIGHT_CLEAR,NIGHT_MIST,NIGHT_CLEAR,NIGHT_CLEAR,NIGHT_CLEAR,CLEAR,MIST,CLEAR,MIST,BRIEF_SHOWERS_POSSIBLE,BRIEF_SHOWERS_POSSIBLE,MIST","Offshore,Offshore,Offshore,Offshore,Offshore,Offshore,Offshore,Onshore,Onshore,Onshore,Onshore,Onshore,Onshore",13
5842041f4e65fad6a77088e3,2024_04_09,33.54268310353641,-117.7916,Rockpile,2.8461538461538463,0.4153846153846154,0.7207692307692307,14,14,"NIGHT_CLEAR,NIGHT_CLEAR,NIGHT_MIST,NIGHT_CLEAR,NIGHT_CLEAR,NIGHT_CLEAR,CLEAR,MIST,CLEAR,MIST,BRIEF_SHOWERS_POSSIBLE,BRIEF_SHOWERS_POSSIBLE,MIST","Offshore,Offshore,Offshore,Offshore,Offshore,Offshore,Offshore,Onshore,Onshore,Onshore,Onshore,Onshore,Onshore",13
5842041f4e65fad6a77088e4,2024_04_09,33.7368459504689,-118.10342,"Seal Beach Pier, Southside",1.3846153846153846,0.012307692307692308,0.3030769230769231,14,14,"NIGHT_CLEAR,NIGHT_CLEAR,NIGHT_CLEAR,NIGHT_MIST,NIGHT_MIST,NIGHT_CLEAR,CLEAR,CLEAR,CLEAR,CLEAR,CLEAR,MIST,MIST","Offshore,Offshore,Offshore,Offshore,Offshore,Offshore,Offshore,Cross-shore,Onshore,Onshore,Onshore,Onshore,Onshore",13
5842041f4e65fad6a77088e5,2024_04_09,33.73933701820233,-118.117,Ray Bay,1.7692307692307692,0.056923076923076923,0.35923076923076924,14,14,"NIGHT_CLEAR,NIGHT_CLEAR,NIGHT_CLEAR,NIGHT_CLEAR,NIGHT_CLEAR,NIGHT_CLEAR,CLEAR,CLEAR,CLEAR,CLEAR,CLEAR,CLEAR,CLEAR","Offshore,Offshore,Offshore,Offshore,Offshore,Offshore,Offshore,Onshore,Onshore,Onshore,Onshore,Onshore,Onshore",13
5842041f4e65fad6a77088e7,2024_04_09,33.728733,-118.08982,Surfside,1.8461538461538463,0.09923076923076923,0.40384615384615385,14,14,"NIGHT_CLEAR,NIGHT_CLEAR,NIGHT_CLEAR,NIGHT_CLEAR,NIGHT_CLEAR,NIGHT_CLEAR,CLEAR,CLEAR,CLEAR,CLEAR,CLEAR,CLEAR,CLEAR","Offshore,Offshore,Offshore,Offshore,Offshore,Offshore,Offshore,Cross-shore,Onshore,Onshore,Onshore,Onshore,Onshore",13
5842041f4e65fad6a77088e8,2024_04_09,33.68760321488161,-118.04236,Bolsa Chica State Beach,1.8592307692307692,0.38170000000000004,0.6839487179487179,14,14,"NIGHT_CLEAR,NIGHT_CLEAR,NIGHT_CLEAR,NIGHT_CLEAR,NIGHT_CLEAR,NIGHT_CLEAR,CLEAR,CLEAR,CLEAR,CLEAR,CLEAR,CLEAR,CLEAR","Cross-shore,Onshore,Onshore,Onshore,Onshore,Offshore,Offshore,Offshore,Offshore,Offshore,Onshore,Onshore,Onshore",13
5842041f4e65fad6a77088ea,2024_04_09,33.66704400178788,-118.0192,North HB Streets,2.013076923076923,0.49612564102564105,0.8023641025641026,14,14,"NIGHT_CLEAR,NIGHT_CLEAR,NIGHT_CLEAR,NIGHT_CLEAR,NIGHT_CLEAR,NIGHT_CLEAR,CLEAR,CLEAR,CLEAR,CLEAR,CLEAR,MIST,BRIEF_SHOWERS_POSSIBLE","Onshore,Onshore,Onshore,Onshore,Onshore,Offshore,Offshore,Offshore,Offshore,Offshore,Onshore,Onshore,Onshore",13
5842041f4e65fad6a77088ed,2024_04_09,33.65475101379567,-118.00291,Huntington Beach Pier Southside,2.3461538461538463,0.6450102564102564,1.0188641025641025,14,14,"NIGHT_CLEAR,NIGHT_MIST,NIGHT_CLEAR,NIGHT_CLEAR,NIGHT_CLEAR,NIGHT_CLEAR,CLEAR,CLEAR,CLEAR,CLEAR,CLEAR,CLEAR,CLEAR","Onshore,Offshore,Offshore,Offshore,Onshore,Offshore,Offshore,Offshore,Onshore,Onshore,Onshore,Onshore,Onshore",13
5842041f4e65fad6a77088ee,2024_04_09,33.62778647706099,-117.95939,River Jetties,2.5384615384615383,0.6495615384615385,0.9542615384615385,14,14,"NIGHT_MIST,NIGHT_CLEAR,NIGHT_CLEAR,NIGHT_CLEAR,NIGHT_CLEAR,NIGHT_CLEAR,CLEAR,CLEAR,CLEAR,CLEAR,CLEAR,CLEAR,CLEAR","Cross-shore,Offshore,Cross-shore,Cross-shore,Offshore,Offshore,Offshore,Cross-shore,Onshore,Onshore,Onshore,Onshore,Onshore",13
5842041f4e65fad6a77088f2,2024_04_09,33.605165797643664,-117.92500376701355,Newport Point,2.8461538461538463,0.4107692307692308,0.7176923076923077,14.307692307692308,14.307692307692308,"NIGHT_MIST,NIGHT_CLEAR,NIGHT_CLEAR,NIGHT_CLEAR,NIGHT_CLEAR,NIGHT_CLEAR,CLEAR,CLEAR,CLEAR,CLEAR,MIST,MIST,MIST","Onshore,Onshore,Onshore,Onshore,Cross-shore,Offshore,Offshore,Offshore,Offshore,Cross-shore,Onshore,Onshore,Onshore",13
5842041f4e65fad6a77088f3,2024_04_09,33.58982984726977,-117.87713,Corona del Mar,1,0.17921076923076923,0.2800169230769231,14.307692307692308,14.307692307692308,"NIGHT_CLEAR,NIGHT_CLEAR,NIGHT_CLEAR,NIGHT_CLEAR,NIGHT_MIST,NIGHT_MIST,MIST,CLEAR,CLEAR,CLEAR,BRIEF_SHOWERS_POSSIBLE,MIST,MIST","Offshore,Offshore,Offshore,Offshore,Offshore,Offshore,Offshore,Offshore,Offshore,Cross-shore,Onshore,Cross-shore,Cross-shore",13
5842041f4e65fad6a77088f7,2024_04_09,34.00750300824362,-118.4971783496269,Santa Monica Pier,1.8461538461538463,0.2676923076923077,0.57,14,14,"NIGHT_CLEAR,NIGHT_CLEAR,NIGHT_CLEAR,NIGHT_CLEAR,NIGHT_CLEAR,NIGHT_CLEAR,CLEAR,CLEAR,CLEAR,CLEAR,CLEAR,CLEAR,CLEAR","Offshore,Offshore,Offshore,Offshore,Offshore,Offshore,Offshore,Offshore,Offshore,Cross-shore,Onshore,Onshore,Onshore",13
5842041f4e65fad6a77088ff,2024_04_09,33.94070283102945,-118.44321,Dockweiler Beach,2.3207692307692307,0.5930263461538462,0.8425038461538462,14,14,"NIGHT_CLEAR,NIGHT_CLEAR,NIGHT_CLEAR,NIGHT_CLEAR,NIGHT_CLEAR,NIGHT_CLEAR,CLEAR,CLEAR,CLEAR,CLEAR,MIST,BRIEF_SHOWERS_POSSIBLE,BRIEF_SHOWERS_POSSIBLE","Offshore,Offshore,Offshore,Offshore,Offshore,Offshore,Offshore,Offshore,Offshore,Cross-shore,Onshore,Onshore,Onshore",13
5842041f4e65fad6a7708900,2024_04_09,33.9231846937237,-118.4341465777908,Shitpipe,2,0.4203205128205128,0.7241820512820513,14,14,"NIGHT_CLEAR,NIGHT_CLEAR,NIGHT_CLEAR,NIGHT_CLEAR,NIGHT_CLEAR,NIGHT_CLEAR,CLEAR,CLEAR,CLEAR,CLEAR,MIST,MIST,MIST","Offshore,Offshore,Offshore,Offshore,Offshore,Offshore,Offshore,Offshore,Offshore,Cross-shore,Onshore,Onshore,Onshore",13
5842041f4e65fad6a7708902,2024_04_09,33.9108528052242,-118.4279133138721,Hammerland,2.1792307692307693,0.53288205128205135,0.8389871794871795,14,14,"NIGHT_CLEAR,NIGHT_CLEAR,NIGHT_CLEAR,NIGHT_CLEAR,NIGHT_CLEAR,NIGHT_CLEAR,CLEAR,CLEAR,CLEAR,CLEAR,MIST,MIST,MIST","Offshore,Offshore,Offshore,Offshore,Offshore,Offshore,Offshore,Offshore,Offshore,Cross-shore,Onshore,Onshore,Onshore",13
5842041f4e65fad6a7708904,2024_04_09,33.87201368173932,-118.40752,Hermosa Beach,1.9361538461538461,0.43554358974358975,0.7384282051282052,14,14,"NIGHT_CLEAR,NIGHT_CLEAR,NIGHT_CLEAR,NIGHT_CLEAR,NIGHT_CLEAR,NIGHT_CLEAR,CLEAR,CLEAR,CLEAR,CLEAR,MIST,MIST,MIST","Cross-shore,Cross-shore,Cross-shore,Cross-shore,Offshore,Offshore,Offshore,Offshore,Offshore,Onshore,Onshore,Onshore,Onshore",13
5842041f4e65fad6a7708906,2024_04_09,33.90129336911256,-118.42184,El Porto,2.1792307692307693,0.5987794871794871,0.9041794871794873,14,14,"NIGHT_CLEAR,NIGHT_CLEAR,NIGHT_CLEAR,NIGHT_CLEAR,NIGHT_CLEAR,NIGHT_CLEAR,CLEAR,CLEAR,CLEAR,CLEAR,MIST,MIST,MIST","Cross-shore,Cross-shore,Offshore,Offshore,Offshore,Offshore,Offshore,Offshore,Offshore,Onshore,Onshore,Onshore,Onshore",13
5842041f4e65fad6a7708907,2024_04_09,33.87963506431794,-118.41102,Manhattan Beach Pier,2.243846153846154,0.5947410256410257,0.8960871794871795,14,14,"NIGHT_CLEAR,NIGHT_CLEAR,NIGHT_CLEAR,NIGHT_CLEAR,NIGHT_CLEAR,NIGHT_CLEAR,CLEAR,CLEAR,CLEAR,CLEAR,MIST,MIST,MIST","Cross-shore,Cross-shore,Cross-shore,Cross-shore,Offshore,Offshore,Offshore,Offshore,Offshore,Cross-shore,Onshore,Onshore,Onshore",13
5842041f4e65fad6a7708914,2024_04_09,34.038053387863464,-118.5532,Sunset Point,1.6153846153846154,0.1346153846153846,0.44,14,14,"NIGHT_CLEAR,NIGHT_CLEAR,NIGHT_CLEAR,NIGHT_CLEAR,NIGHT_CLEAR,NIGHT_CLEAR,CLEAR,CLEAR,CLEAR,CLEAR,MIST,MIST,MIST","Offshore,Offshore,Offshore,Offshore,Offshore,Offshore,Offshore,Cross-shore,Onshore,Cross-shore,Onshore,Onshore,Onshore",13
5842041f4e65fad6a7708920,2024_04_09,33.80930828074364,-118.3933198342649,Haggerty's,1.3846153846153846,0.10846153846153846,0.2916923076923077,14.307692307692308,14.307692307692308,"NIGHT_CLEAR,NIGHT_CLEAR,NIGHT_MIST,NIGHT_CLEAR,NIGHT_CLEAR,NIGHT_CLEAR,CLEAR,CLEAR,CLEAR,CLEAR,CLEAR,CLEAR,CLEAR","Cross-shore,Onshore,Cross-shore,Cross-shore,Cross-shore,Offshore,Offshore,Offshore,Cross-shore,Onshore,Onshore,Onshore,Onshore",13
5842041f4e65fad6a7708921,2024_04_09,33.85044519861206,-118.40048,Redondo Breakwater,2.6153846153846154,0.49,0.7946153846153846,14.307692307692308,14.307692307692308,"NIGHT_CLEAR,NIGHT_CLEAR,NIGHT_CLEAR,NIGHT_CLEAR,NIGHT_CLEAR,NIGHT_CLEAR,CLEAR,CLEAR,CLEAR,CLEAR,MIST,MIST,MIST","Cross-shore,Cross-shore,Cross-shore,Cross-shore,Offshore,Offshore,Offshore,Offshore,Offshore,Onshore,Onshore,Onshore,Onshore",13
5842041f4e65fad6a7708927,2024_04_09,33.70877301002487,-118.2840112858389,Cabrillo Beach,1.3076923076923077,0.024615384615384615,0.31461538461538463,14,14,"NIGHT_CLEAR,NIGHT_CLEAR,NIGHT_CLEAR,NIGHT_CLEAR,NIGHT_CLEAR,NIGHT_CLEAR,CLEAR,CLEAR,CLEAR,CLEAR,CLEAR,CLEAR,CLEAR","Cross-shore,Cross-shore,Offshore,Offshore,Offshore,Offshore,Cross-shore,Cross-shore,Onshore,Onshore,Offshore,Cross-shore,Cross-shore",13
5842041f4e65fad6a770892c,2024_04_09,33.77209986806257,-118.4268428476672,Lunada Bay,1.6153846153846154,0.4723076923076923,0.7784615384615384,14.307692307692308,14.307692307692308,"NIGHT_CLEAR,NIGHT_CLEAR,NIGHT_CLEAR,NIGHT_CLEAR,NIGHT_CLEAR,NIGHT_CLEAR,CLEAR,CLEAR,CLEAR,MIST,MIST,MIST,MIST","Offshore,Offshore,Offshore,Offshore,Offshore,Offshore,Offshore,Offshore,Cross-shore,Onshore,Onshore,Onshore,Onshore",13
5842041f4e65fad6a770892d,2024_04_09,33.79294656286144,-118.4070316699825,PV Cove,2,0.6112976923076923,0.8646161538461539,14.307692307692308,14.307692307692308,"NIGHT_CLEAR,NIGHT_CLEAR,NIGHT_MIST,NIGHT_CLEAR,NIGHT_CLEAR,NIGHT_CLEAR,CLEAR,CLEAR,CLEAR,CLEAR,CLEAR,CLEAR,CLEAR","Onshore,Onshore,Onshore,Onshore,Onshore,Offshore,Offshore,Offshore,Cross-shore,Cross-shore,Onshore,Onshore,Onshore",13
5842041f4e65fad6a7708930,2024_04_09,34.03944902292561,-118.57539,Chart House,1.0769230769230769,0.011538461538461539,0.2692307692307692,14,14,"NIGHT_CLEAR,NIGHT_CLEAR,NIGHT_CLEAR,NIGHT_CLEAR,NIGHT_CLEAR,NIGHT_CLEAR,CLEAR,CLEAR,CLEAR,CLEAR,CLEAR,CLEAR,CLEAR","Offshore,Offshore,Offshore,Offshore,Offshore,Offshore,Offshore,Cross-shore,Onshore,Cross-shore,Cross-shore,Cross-shore,Cross-shore",13
5842041f4e65fad6a7708936,2024_04_09,34.0016731994772,-118.80456,Point Dume,1.7307692307692308,0.07532051282051283,0.3798076923076923,14,14,"NIGHT_CLEAR,NIGHT_CLEAR,NIGHT_CLEAR,NIGHT_CLEAR,NIGHT_CLEAR,NIGHT_CLEAR,CLEAR,CLEAR,CLEAR,CLEAR,CLEAR,CLEAR,CLEAR","Offshore,Offshore,Offshore,Offshore,Offshore,Offshore,Offshore,Offshore,Offshore,Cross-shore,Onshore,Onshore,Onshore",13
5842041f4e65fad6a7708937,2024_04_09,34.02587527588963,-118.7554939066114,Latigo Point,1.3846153846153846,0.20615384615384616,0.51,13.307692307692308,13.307692307692308,"NIGHT_CLEAR,NIGHT_CLEAR,NIGHT_CLEAR,NIGHT_CLEAR,NIGHT_CLEAR,NIGHT_CLEAR,CLEAR,CLEAR,CLEAR,CLEAR,CLEAR,CLEAR,CLEAR","Offshore,Offshore,Offshore,Offshore,Offshore,Offshore,Offshore,Offshore,Cross-shore,Cross-shore,Onshore,Onshore,Onshore",13
5842041f4e65fad6a770893f,2024_04_09,34.043762,-118.93294,Leo Carrillo,1.833846153846154,0.3533,0.6561846153846154,13,13,"NIGHT_CLEAR,NIGHT_CLEAR,NIGHT_CLEAR,NIGHT_CLEAR,NIGHT_CLEAR,NIGHT_CLEAR,CLEAR,CLEAR,CLEAR,CLEAR,CLEAR,CLEAR,CLEAR","Offshore,Offshore,Offshore,Offshore,Offshore,Offshore,Offshore,Offshore,Offshore,Cross-shore,Offshore,Onshore,Cross-shore",13
5842041f4e65fad6a7708941,2024_04_09,36.69388179265737,-121.81289,Marina State Beach,3.3076923076923075,1.4753846153846155,1.7515384615384615,13,13,"NIGHT_BRIEF_SHOWERS,NIGHT_MIST,NIGHT_CLEAR,NIGHT_CLEAR,NIGHT_CLEAR,NIGHT_CLEAR,CLEAR,CLEAR,CLEAR,CLEAR,CLEAR,CLEAR,CLEAR","Onshore,Onshore,Offshore,Offshore,Offshore,Offshore,Offshore,Offshore,Onshore,Onshore,Onshore,Onshore,Onshore",13
5842041f4e65fad6a7708944,2024_04_09,34.34145077331085,-119.416999352654,Stanley's,2,0.15461538461538463,0.4623076923076923,13.692307692307692,13.692307692307692,"NIGHT_CLEAR,NIGHT_CLEAR,NIGHT_CLEAR,NIGHT_CLEAR,NIGHT_CLEAR,NIGHT_CLEAR,CLEAR,CLEAR,CLEAR,CLEAR,CLEAR,CLEAR,CLEAR","Offshore,Cross-shore,Offshore,Offshore,Offshore,Cross-shore,Cross-shore,Cross-shore,Onshore,Onshore,Onshore,Onshore,Onshore",13
5842041f4e65fad6a7708945,2024_04_09,34.35113017313915,-119.426921498899,Oil Piers,1.8461538461538463,0.11076923076923077,0.4169230769230769,13.692307692307692,13.692307692307692,"NIGHT_CLEAR,NIGHT_CLEAR,NIGHT_CLEAR,NIGHT_CLEAR,NIGHT_CLEAR,NIGHT_CLEAR,CLEAR,CLEAR,CLEAR,CLEAR,CLEAR,CLEAR,CLEAR","Offshore,Offshore,Offshore,Offshore,Offshore,Offshore,Offshore,Offshore,Onshore,Onshore,Onshore,Cross-shore,Cross-shore",13
5842041f4e65fad6a770894c,2024_04_09,34.17876333306018,-119.2399483564372,Oxnard,2.8461538461538463,0.4584615384615385,0.7638461538461538,13,13,"NIGHT_CLEAR,NIGHT_CLEAR,NIGHT_CLEAR,NIGHT_CLEAR,NIGHT_CLEAR,NIGHT_CLEAR,CLEAR,CLEAR,CLEAR,CLEAR,CLEAR,CLEAR,CLEAR","Offshore,Offshore,Offshore,Offshore,Offshore,Offshore,Offshore,Offshore,Offshore,Offshore,Offshore,Cross-shore,Onshore",13
5842041f4e65fad6a7708957,2024_04_09,34.31720331100517,-119.3882324751725,Pitas Point,2,0.16230769230769232,0.4676923076923077,13.692307692307692,13.692307692307692,"NIGHT_CLEAR,NIGHT_CLEAR,NIGHT_CLEAR,NIGHT_CLEAR,NIGHT_CLEAR,NIGHT_CLEAR,CLEAR,CLEAR,CLEAR,CLEAR,CLEAR,CLEAR,CLEAR","Offshore,Offshore,Offshore,Offshore,Offshore,Offshore,Offshore,Offshore,Onshore,Onshore,Cross-shore,Onshore,Cross-shore",13
5842041f4e65fad6a7708959,2024_04_09,34.27851754384724,-119.316202617226,Emma Wood,1.8461538461538463,0.17076923076923078,0.47307692307692306,13.692307692307692,13.692307692307692,"NIGHT_CLEAR,NIGHT_CLEAR,NIGHT_CLEAR,NIGHT_CLEAR,NIGHT_CLEAR,NIGHT_CLEAR,CLEAR,CLEAR,CLEAR,CLEAR,CLEAR,CLEAR,CLEAR","Offshore,Offshore,Offshore,Offshore,Offshore,Offshore,Offshore,Offshore,Onshore,Onshore,Onshore,Onshore,Onshore",13
5842041f4e65fad6a770895a,2024_04_09,34.35513640390276,-119.4400589884255,Mussel Shoals (aka Little Rincon),2,0.10461538461538462,0.41,13.692307692307692,13.692307692307692,"NIGHT_CLEAR,NIGHT_CLEAR,NIGHT_CLEAR,NIGHT_CLEAR,NIGHT_CLEAR,NIGHT_CLEAR,CLEAR,CLEAR,CLEAR,CLEAR,CLEAR,CLEAR,CLEAR","Offshore,Offshore,Offshore,Offshore,Offshore,Offshore,Offshore,Offshore,Onshore,Onshore,Onshore,Cross-shore,Cross-shore",13
5842041f4e65fad6a770895e,2024_04_09,34.28991757054902,-119.3366646794652,Summer Beach,1.8461538461538463,0.13692307692307693,0.44076923076923075,13.692307692307692,13.692307692307692,"NIGHT_CLEAR,NIGHT_CLEAR,NIGHT_CLEAR,NIGHT_CLEAR,NIGHT_CLEAR,NIGHT_CLEAR,CLEAR,CLEAR,CLEAR,CLEAR,CLEAR,CLEAR,CLEAR","Offshore,Offshore,Offshore,Offshore,Cross-shore,Cross-shore,Offshore,Offshore,Onshore,Onshore,Onshore,Onshore,Onshore",13
5842041f4e65fad6a770895f,2024_04_09,34.30897456105926,-119.3582501170116,Solimar,2,0.12923076923076923,0.43153846153846154,13.692307692307692,13.692307692307692,"NIGHT_CLEAR,NIGHT_CLEAR,NIGHT_CLEAR,NIGHT_CLEAR,NIGHT_CLEAR,NIGHT_CLEAR,CLEAR,CLEAR,CLEAR,CLEAR,CLEAR,CLEAR,CLEAR","Offshore,Offshore,Offshore,Offshore,Offshore,Offshore,Offshore,Offshore,Onshore,Onshore,Onshore,Cross-shore,Cross-shore",13
5842041f4e65fad6a7708960,2024_04_09,34.39836265281686,-119.70213,Leadbetter Point,1,0,0.21615384615384617,13,13,"NIGHT_CLEAR,NIGHT_CLEAR,NIGHT_CLEAR,NIGHT_CLEAR,NIGHT_CLEAR,NIGHT_CLEAR,CLEAR,CLEAR,CLEAR,CLEAR,CLEAR,CLEAR,CLEAR","Offshore,Offshore,Offshore,Offshore,Offshore,Offshore,Offshore,Offshore,Offshore,Onshore,Onshore,Cross-shore,Cross-shore",13
5842041f4e65fad6a7708961,2024_04_09,34.46052293893899,-120.07328,Refugio,1,0,0.2915384615384615,12.307692307692308,12.307692307692308,"NIGHT_CLEAR,NIGHT_CLEAR,NIGHT_CLEAR,NIGHT_CLEAR,NIGHT_CLEAR,NIGHT_CLEAR,CLEAR,CLEAR,CLEAR,CLEAR,CLEAR,CLEAR,CLEAR","Offshore,Offshore,Offshore,Offshore,Offshore,Offshore,Offshore,Offshore,Onshore,Onshore,Onshore,Onshore,Offshore",13
5842041f4e65fad6a7708962,2024_04_09,34.40754276777778,-119.87639,Devereux,1.9230769230769231,0.12000000000000001,0.42538461538461536,13,13,"NIGHT_CLEAR,NIGHT_CLEAR,NIGHT_CLEAR,NIGHT_CLEAR,NIGHT_CLEAR,NIGHT_CLEAR,CLEAR,CLEAR,CLEAR,CLEAR,CLEAR,CLEAR,CLEAR","Offshore,Offshore,Offshore,Offshore,Offshore,Offshore,Offshore,Offshore,Cross-shore,Cross-shore,Cross-shore,Cross-shore,Cross-shore",13
5842041f4e65fad6a7708963,2024_04_09,34.27479983305182,-119.3133222656776,Ventura Overhead,1.8461538461538463,0.18,0.48307692307692307,13.692307692307692,13.692307692307692,"NIGHT_CLEAR,NIGHT_CLEAR,NIGHT_CLEAR,NIGHT_CLEAR,NIGHT_CLEAR,NIGHT_CLEAR,CLEAR,CLEAR,CLEAR,CLEAR,CLEAR,CLEAR,CLEAR","Offshore,Cross-shore,Offshore,Offshore,Cross-shore,Offshore,Offshore,Offshore,Onshore,Onshore,Onshore,Onshore,Onshore",13
5842041f4e65fad6a7708964,2024_04_09,34.41023236011655,-119.88261,Sands,1.8461538461538463,0.15461538461538463,0.46076923076923076,13,13,"NIGHT_CLEAR,NIGHT_CLEAR,NIGHT_CLEAR,NIGHT_CLEAR,NIGHT_CLEAR,NIGHT_CLEAR,CLEAR,CLEAR,CLEAR,CLEAR,CLEAR,CLEAR,CLEAR","Offshore,Offshore,Offshore,Offshore,Offshore,Offshore,Offshore,Offshore,Onshore,Onshore,Onshore,Onshore,Onshore",13
5842041f4e65fad6a7708966,2024_04_09,34.40450193869233,-119.68752,Sandspit,0.6153846153846154,0,0.13692307692307693,13,13,"NIGHT_CLEAR,NIGHT_CLEAR,NIGHT_CLEAR,NIGHT_CLEAR,NIGHT_CLEAR,NIGHT_CLEAR,CLEAR,CLEAR,CLEAR,CLEAR,CLEAR,CLEAR,CLEAR","Cross-shore,Offshore,Offshore,Offshore,Offshore,Offshore,Offshore,Offshore,Offshore,Onshore,Onshore,Cross-shore,Cross-shore",13
5842041f4e65fad6a7708967,2024_04_09,34.41549098334453,-119.6375149840203,Hammond's,1,0,0.16615384615384615,13.692307692307692,13.692307692307692,"NIGHT_CLEAR,NIGHT_CLEAR,NIGHT_CLEAR,NIGHT_CLEAR,NIGHT_CLEAR,NIGHT_CLEAR,CLEAR,CLEAR,CLEAR,CLEAR,CLEAR,CLEAR,CLEAR","Cross-shore,Cross-shore,Cross-shore,Cross-shore,Offshore,Offshore,Cross-shore,Cross-shore,Onshore,Onshore,Onshore,Cross-shore,Cross-shore",13
5842041f4e65fad6a7708968,2024_04_09,34.45759322742309,-120.0220251867315,El Capitan,2,0.04076923076923077,0.3476923076923077,13,13,"NIGHT_CLEAR,NIGHT_CLEAR,NIGHT_CLEAR,NIGHT_CLEAR,NIGHT_CLEAR,NIGHT_CLEAR,CLEAR,CLEAR,CLEAR,CLEAR,CLEAR,CLEAR,CLEAR","Offshore,Offshore,Offshore,Offshore,Offshore,Cross-shore,Cross-shore,Offshore,Onshore,Cross-shore,Cross-shore,Onshore,Cross-shore",13
5842041f4e65fad6a770896c,2024_04_09,34.405117655616,-119.84317,Campus Point,1.3076923076923077,0.006153846153846154,0.29,13,13,"NIGHT_CLEAR,NIGHT_CLEAR,NIGHT_CLEAR,NIGHT_CLEAR,NIGHT_CLEAR,NIGHT_CLEAR,CLEAR,CLEAR,CLEAR,CLEAR,CLEAR,CLEAR,CLEAR","Offshore,Offshore,Offshore,Offshore,Offshore,Offshore,Offshore,Offshore,Cross-shore,Cross-shore,Cross-shore,Cross-shore,Cross-shore",13
5842041f4e65fad6a770896e,2024_04_09,34.38935162233354,-119.51955,Carpinteria State Beach,1.7692307692307692,0.04153846153846154,0.3423076923076923,13.692307692307692,13.692307692307692,"NIGHT_CLEAR,NIGHT_CLEAR,NIGHT_CLEAR,NIGHT_CLEAR,NIGHT_CLEAR,NIGHT_CLEAR,CLEAR,CLEAR,CLEAR,CLEAR,CLEAR,CLEAR,CLEAR","Onshore,Onshore,Onshore,Onshore,Cross-shore,Onshore,Onshore,Onshore,Onshore,Onshore,Offshore,Offshore,Offshore",13
5842041f4e65fad6a770896f,2024_04_09,37.48296565175612,-122.4549300127824,Half Moon Bay,3,1.0453846153846154,1.2661538461538462,13,13,"NIGHT_MIST,NIGHT_MIST,NIGHT_MOSTLY_CLOUDY,NIGHT_MOSTLY_CLOUDY,NIGHT_MOSTLY_CLOUDY,NIGHT_MOSTLY_CLOUDY,MOSTLY_CLOUDY,MOSTLY_CLOUDY,CLEAR,MIST,MIST,MIST,BRIEF_SHOWERS_POSSIBLE","Onshore,Onshore,Onshore,Onshore,Onshore,Onshore,Offshore,Offshore,Onshore,Onshore,Onshore,Onshore,Onshore",13
5842041f4e65fad6a7708970,2024_04_09,37.499,-122.471,Princeton Jetty,3,0.8992307692307693,1.1115384615384616,13,13,"NIGHT_MIST,NIGHT_MIST,NIGHT_MOSTLY_CLOUDY,NIGHT_MOSTLY_CLOUDY,NIGHT_MIST,NIGHT_MOSTLY_CLOUDY,MOSTLY_CLOUDY,CLEAR,CLEAR,CLEAR,CLEAR,CLEAR,CLEAR","Cross-shore,Cross-shore,Onshore,Onshore,Onshore,Onshore,Offshore,Offshore,Onshore,Onshore,Onshore,Onshore,Onshore",13
5842041f4e65fad6a7708972,2024_04_09,37.35699547365155,-122.4069534707252,Tunitas Creek,3.3846153846153846,1.9892307692307691,2.329230769230769,12.307692307692308,12.307692307692308,"NIGHT_MOSTLY_CLOUDY,NIGHT_MIST,NIGHT_MOSTLY_CLOUDY,NIGHT_MOSTLY_CLOUDY,NIGHT_MOSTLY_CLOUDY,NIGHT_MOSTLY_CLOUDY,MOSTLY_CLOUDY,MOSTLY_CLOUDY,MIST,MIST,MIST,MIST,MIST","Cross-shore,Cross-shore,Offshore,Onshore,Onshore,Offshore,Offshore,Offshore,Onshore,Onshore,Onshore,Onshore,Cross-shore",13
5842041f4e65fad6a7708974,2024_04_09,37.54735589428842,-122.5161090212687,Montara,3,1.5438461538461539,1.8115384615384615,13,13,"NIGHT_BRIEF_SHOWERS,NIGHT_BRIEF_SHOWERS,NIGHT_BRIEF_SHOWERS,NIGHT_BRIEF_SHOWERS,NIGHT_BRIEF_SHOWERS,NIGHT_BRIEF_SHOWERS,MIST,MOSTLY_CLOUDY,CLEAR,CLEAR,MIST,BRIEF_SHOWERS_POSSIBLE,MIST","Onshore,Onshore,Cross-shore,Cross-shore,Cross-shore,Cross-shore,Cross-shore,Cross-shore,Onshore,Onshore,Onshore,Onshore,Onshore",13
5842041f4e65fad6a7708975,2024_04_09,34.3869373724559,-119.5142334209018,Tarpits,1.6153846153846154,0.033846153846153845,0.3330769230769231,13.692307692307692,13.692307692307692,"NIGHT_CLEAR,NIGHT_CLEAR,NIGHT_CLEAR,NIGHT_CLEAR,NIGHT_CLEAR,NIGHT_CLEAR,CLEAR,CLEAR,CLEAR,CLEAR,CLEAR,CLEAR,CLEAR","Onshore,Onshore,Onshore,Onshore,Onshore,Onshore,Onshore,Onshore,Onshore,Cross-shore,Offshore,Offshore,Offshore",13
5842041f4e65fad6a7708976,2024_04_09,37.59881852720143,-122.50463,Pacifica / Linda Mar,2.076923076923077,0.4737589743589744,0.7805923076923077,14,14,"NIGHT_MIST,NIGHT_BRIEF_SHOWERS,NIGHT_BRIEF_SHOWERS,NIGHT_BRIEF_SHOWERS,NIGHT_BRIEF_SHOWERS,NIGHT_BRIEF_SHOWERS,BRIEF_SHOWERS,MIST,MIST,MIST,MIST,BRIEF_SHOWERS_POSSIBLE,BRIEF_SHOWERS_POSSIBLE","Onshore,Onshore,Onshore,Onshore,Onshore,Onshore,Onshore,Cross-shore,Onshore,Onshore,Onshore,Onshore,Onshore",13
5842041f4e65fad6a7708978,2024_04_09,37.59883098461164,-122.5143843582282,Pedro Point,3,1.5246153846153847,1.7915384615384615,13,13,"NIGHT_BRIEF_SHOWERS,NIGHT_BRIEF_SHOWERS,NIGHT_MIST,NIGHT_MIST,NIGHT_MIST,NIGHT_MIST,MIST,MIST,MIST,MIST,MIST,MIST,MIST","Onshore,Onshore,Cross-shore,Cross-shore,Cross-shore,Onshore,Onshore,Cross-shore,Cross-shore,Onshore,Onshore,Onshore,Onshore",13
5842041f4e65fad6a7708979,2024_04_09,37.61081996647663,-122.4973287570634,Rockaway,3.1538461538461537,1.5615384615384615,1.853846153846154,13,13,"NIGHT_MIST,NIGHT_BRIEF_SHOWERS,NIGHT_BRIEF_SHOWERS,NIGHT_BRIEF_SHOWERS,NIGHT_BRIEF_SHOWERS,NIGHT_BRIEF_SHOWERS,BRIEF_SHOWERS,MIST,MIST,MIST,MIST,BRIEF_SHOWERS_POSSIBLE,BRIEF_SHOWERS_POSSIBLE","Offshore,Offshore,Offshore,Cross-shore,Cross-shore,Offshore,Offshore,Onshore,Onshore,Onshore,Onshore,Onshore,Onshore",13
5842041f4e65fad6a770897a,2024_04_09,37.809987384424446,-122.4751353263855,Fort Point,2.8461538461538463,0.9061538461538462,1.1207692307692307,13,13,"NIGHT_CLEAR,NIGHT_CLEAR,NIGHT_CLEAR,NIGHT_MIST,NIGHT_MIST,NIGHT_BRIEF_SHOWERS_POSSIBLE,MIST,MIST,MIST,MIST,MIST,BRIEF_SHOWERS_POSSIBLE,BRIEF_SHOWERS_POSSIBLE","Onshore,Onshore,Onshore,Onshore,Onshore,Onshore,Onshore,Onshore,Cross-shore,Cross-shore,Cross-shore,Cross-shore,Cross-shore",13
5842041f4e65fad6a770897c,2024_04_09,37.63422542967464,-122.4951,Sharp Park,2.8461538461538463,1.5961538461538463,1.896923076923077,13,13,"NIGHT_MIST,NIGHT_MIST,NIGHT_MIST,NIGHT_BRIEF_SHOWERS,NIGHT_BRIEF_SHOWERS,NIGHT_BRIEF_SHOWERS,BRIEF_SHOWERS,BRIEF_SHOWERS,MIST,BRIEF_SHOWERS_POSSIBLE,BRIEF_SHOWERS_POSSIBLE,BRIEF_SHOWERS_POSSIBLE,MIST","Cross-shore,Cross-shore,Cross-shore,Cross-shore,Onshore,Offshore,Onshore,Onshore,Onshore,Onshore,Onshore,Onshore,Onshore",13
5842041f4e65fad6a770897d,2024_04_09,37.27313605072472,-122.4127387912554,Pescadero,2.4615384615384617,2.05,2.3115384615384618,12.307692307692308,12.307692307692308,"NIGHT_MIST,NIGHT_MIST,NIGHT_MIST,NIGHT_MIST,NIGHT_BRIEF_SHOWERS,NIGHT_BRIEF_SHOWERS,MIST,MIST,MIST,MIST,MIST,MIST,MIST","Onshore,Cross-shore,Cross-shore,Cross-shore,Cross-shore,Cross-shore,Cross-shore,Cross-shore,Onshore,Onshore,Onshore,Onshore,Onshore",13
5842041f4e65fad6a770897e,2024_04_09,37.18140279972666,-122.3926685899327,Pigeon Point,3.5384615384615383,1.7953846153846154,2.1138461538461537,12,12,"NIGHT_BRIEF_SHOWERS,NIGHT_MIST,NIGHT_MIST,NIGHT_MIST,NIGHT_BRIEF_SHOWERS,NIGHT_MIST,MIST,MIST,MIST,MIST,MIST,MIST,MIST","Offshore,Offshore,Offshore,Offshore,Offshore,Offshore,Offshore,Offshore,Offshore,Cross-shore,Offshore,Offshore,Offshore",13
5842041f4e65fad6a770897f,2024_04_09,37.11578956919415,-122.314699271291,Ano Nuevo,3.769230769230769,1.3153846153846154,1.4453846153846153,12,12,"NIGHT_CLEAR,NIGHT_CLEAR,NIGHT_CLEAR,NIGHT_CLEAR,NIGHT_CLEAR,NIGHT_CLEAR,CLEAR,CLEAR,CLEAR,MIST,MIST,MIST,MIST","Offshore,Offshore,Offshore,Offshore,Offshore,Offshore,Offshore,Offshore,Offshore,Offshore,Offshore,Offshore,Offshore",13
5842041f4e65fad6a7708980,2024_04_09,37.09520872681598,-122.2805474707768,Waddell Creek,3,1.396923076923077,1.679230769230769,12,12,"NIGHT_CLEAR,NIGHT_CLEAR,NIGHT_CLEAR,NIGHT_CLEAR,NIGHT_CLEAR,NIGHT_CLEAR,CLEAR,CLEAR,CLEAR,MIST,MIST,MIST,MIST","Offshore,Onshore,Cross-shore,Onshore,Offshore,Offshore,Offshore,Cross-shore,Onshore,Onshore,Onshore,Onshore,Cross-shore",13
5842041f4e65fad6a7708981,2024_04_09,36.96512852130351,-122.1252825495626,Four Mile,3.076923076923077,1.0461538461538462,1.35,12,12,"NIGHT_CLEAR,NIGHT_CLEAR,NIGHT_MOSTLY_CLOUDY,NIGHT_MOSTLY_CLOUDY,NIGHT_MIST,NIGHT_MIST,CLEAR,CLEAR,CLEAR,MIST,MIST,MIST,CLEAR","Offshore,Offshore,Offshore,Offshore,Offshore,Offshore,Offshore,Onshore,Onshore,Onshore,Onshore,Cross-shore,Cross-shore",13
5842041f4e65fad6a7708982,2024_04_09,37.04122807048655,-122.2333684729756,Scott Creek,3,1.5084615384615385,1.7853846153846153,12,12,"NIGHT_CLEAR,NIGHT_CLEAR,NIGHT_CLEAR,NIGHT_CLEAR,NIGHT_MIST,NIGHT_MIST,MIST,CLEAR,MIST,MIST,MIST,CLEAR,CLEAR","Offshore,Offshore,Offshore,Offshore,Cross-shore,Offshore,Offshore,Offshore,Onshore,Onshore,Onshore,Onshore,Cross-shore",13
5842041f4e65fad6a7708983,2024_04_09,37.02350229387179,-122.21908,Davenport,3.6153846153846154,1.393846153846154,1.6776923076923076,12,12,"NIGHT_CLEAR,NIGHT_CLEAR,NIGHT_CLEAR,NIGHT_CLEAR,NIGHT_CLEAR,NIGHT_CLEAR,CLEAR,CLEAR,MIST,MIST,MIST,MIST,MIST","Offshore,Offshore,Offshore,Offshore,Cross-shore,Offshore,Offshore,Offshore,Cross-shore,Onshore,Onshore,Onshore,Onshore",13
5842041f4e65fad6a7708986,2024_04_09,36.94905295955728,-122.0611823912244,Natural Bridges,3,1.1592307692307693,1.3938461538461537,12,12,"NIGHT_MOSTLY_CLEAR,NIGHT_MOSTLY_CLOUDY,NIGHT_CLEAR,NIGHT_CLEAR,NIGHT_CLEAR,NIGHT_CLEAR,CLEAR,CLEAR,CLEAR,CLEAR,CLEAR,CLEAR,CLEAR","Offshore,Onshore,Offshore,Offshore,Cross-shore,Offshore,Offshore,Cross-shore,Onshore,Onshore,Onshore,Onshore,Onshore",13
5842041f4e65fad6a7708987,2024_04_09,36.95154854910425,-122.04207,Mitchell's Cove,3,0.5076923076923077,0.8123076923076923,12.307692307692308,12.307692307692308,"NIGHT_CLEAR,NIGHT_CLEAR,NIGHT_CLEAR,NIGHT_CLEAR,NIGHT_CLEAR,NIGHT_CLEAR,CLEAR,CLEAR,CLEAR,CLEAR,CLEAR,CLEAR,CLEAR","Onshore,Offshore,Cross-shore,Offshore,Offshore,Offshore,Offshore,Cross-shore,Onshore,Onshore,Onshore,Onshore,Onshore",13
5842041f4e65fad6a770898a,2024_04_09,36.9572312370203,-121.98177,26th Ave,2.923076923076923,0.9838461538461538,1.179230769230769,13,13,"NIGHT_CLEAR,NIGHT_CLEAR,NIGHT_MOSTLY_CLEAR,NIGHT_MOSTLY_CLOUDY,NIGHT_MOSTLY_CLOUDY,NIGHT_MOSTLY_CLOUDY,MOSTLY_CLOUDY,MOSTLY_CLEAR,CLEAR,CLEAR,CLEAR,CLEAR,CLEAR","Onshore,Cross-shore,Offshore,Cross-shore,Cross-shore,Cross-shore,Offshore,Offshore,Onshore,Onshore,Onshore,Onshore,Onshore",13
5842041f4e65fad6a770898e,2024_04_09,36.91899972819882,-121.85536,Manresa,3.5384615384615383,1.1153846153846154,1.356923076923077,13,13,"NIGHT_MIST,NIGHT_MIST,NIGHT_MIST,NIGHT_CLEAR,NIGHT_CLEAR,NIGHT_CLEAR,CLEAR,CLEAR,CLEAR,MIST,MIST,MIST,MIST","Offshore,Offshore,Offshore,Offshore,Offshore,Offshore,Offshore,Offshore,Onshore,Onshore,Onshore,Onshore,Onshore",13
5842041f4e65fad6a7708990,2024_04_09,34.45747731928454,-120.34242,The Ranch,1.6153846153846154,0.19615384615384615,0.5015384615384615,12,12,"NIGHT_CLEAR,NIGHT_CLEAR,NIGHT_CLEAR,NIGHT_CLEAR,NIGHT_CLEAR,NIGHT_CLEAR,CLEAR,CLEAR,CLEAR,CLEAR,CLEAR,CLEAR,CLEAR","Offshore,Offshore,Offshore,Offshore,Offshore,Offshore,Offshore,Cross-shore,Cross-shore,Onshore,Onshore,Onshore,Onshore",13
5842041f4e65fad6a7708991,2024_04_09,34.50875036590315,-120.50348,Jalama,2.6153846153846154,0.6138461538461538,0.92,12,12,"NIGHT_CLEAR,NIGHT_CLEAR,NIGHT_CLEAR,NIGHT_CLEAR,NIGHT_CLEAR,NIGHT_CLEAR,CLEAR,CLEAR,CLEAR,CLEAR,CLEAR,CLEAR,CLEAR","Offshore,Offshore,Offshore,Offshore,Offshore,Offshore,Offshore,Offshore,Cross-shore,Onshore,Onshore,Onshore,Onshore",13
5842041f4e65fad6a7708996,2024_04_09,34.68700870220497,-120.6111611019887,Surf Beach,3,1.9946153846153847,2.2684615384615383,12,12,"NIGHT_MIST,NIGHT_MIST,NIGHT_MIST,NIGHT_MIST,NIGHT_MIST,NIGHT_MIST,MIST,MIST,CLEAR,CLEAR,MIST,MIST,MIST","Onshore,Cross-shore,Offshore,Offshore,Offshore,Offshore,Offshore,Offshore,Onshore,Onshore,Onshore,Onshore,Onshore",13
5842041f4e65fad6a770899c,2024_04_09,35.5730538161116,-121.1143362345574,Moonstone,3.6153846153846154,1.07,1.3523076923076924,12,12,"NIGHT_CLEAR,NIGHT_CLEAR,NIGHT_CLEAR,NIGHT_CLEAR,NIGHT_CLEAR,NIGHT_CLEAR,CLEAR,CLEAR,CLEAR,MIST,CLEAR,CLEAR,CLEAR","Offshore,Offshore,Offshore,Offshore,Offshore,Offshore,Offshore,Offshore,Onshore,Onshore,Onshore,Onshore,Onshore",13
5842041f4e65fad6a770899d,2024_04_09,35.61533716776573,-121.1502053073914,Pico Creek,3.230769230769231,1.0892307692307692,1.3484615384615384,12,12,"NIGHT_CLEAR,NIGHT_CLEAR,NIGHT_CLEAR,NIGHT_CLEAR,NIGHT_CLEAR,NIGHT_CLEAR,CLEAR,CLEAR,CLEAR,CLEAR,CLEAR,CLEAR,CLEAR","Offshore,Offshore,Offshore,Offshore,Offshore,Offshore,Offshore,Offshore,Onshore,Onshore,Onshore,Onshore,Onshore",13
5842041f4e65fad6a770899e,2024_04_09,35.56829031927379,-121.1120653023953,Santa Rosa Creek,3.6153846153846154,1.07,1.3523076923076924,12,12,"NIGHT_CLEAR,NIGHT_CLEAR,NIGHT_CLEAR,NIGHT_CLEAR,NIGHT_CLEAR,NIGHT_CLEAR,CLEAR,CLEAR,MIST,MIST,MIST,MIST,MIST","Offshore,Offshore,Offshore,Offshore,Offshore,Offshore,Offshore,Offshore,Onshore,Onshore,Onshore,Onshore,Onshore",13
5842041f4e65fad6a77089a2,2024_04_09,35.44820114936284,-120.90715,"Cayucos Pier, Southside ",2.6153846153846154,0.4392307692307692,0.7423076923076923,12,12,"NIGHT_CLEAR,NIGHT_CLEAR,NIGHT_CLEAR,NIGHT_CLEAR,NIGHT_CLEAR,NIGHT_CLEAR,CLEAR,CLEAR,CLEAR,CLEAR,CLEAR,CLEAR,CLEAR","Offshore,Offshore,Offshore,Offshore,Offshore,Offshore,Offshore,Offshore,Offshore,Offshore,Offshore,Cross-shore,Onshore",13
5842041f4e65fad6a77089a4,2024_04_09,35.30143372628852,-120.877819239902,Cable Landing,3.5384615384615383,2.0984615384615384,2.37,12,12,"NIGHT_CLEAR,NIGHT_CLEAR,NIGHT_CLEAR,NIGHT_CLEAR,NIGHT_CLEAR,NIGHT_CLEAR,CLEAR,CLEAR,CLEAR,MIST,BRIEF_SHOWERS_POSSIBLE,MIST,MIST","Offshore,Offshore,Offshore,Offshore,Offshore,Offshore,Offshore,Offshore,Cross-shore,Onshore,Onshore,Onshore,Onshore",13
5842041f4e65fad6a77089a9,2024_04_09,35.61269103500222,-121.1480725356606,San Simeon,3,0.7053846153846154,0.8502307692307692,12,12,"NIGHT_CLEAR,NIGHT_CLEAR,NIGHT_CLEAR,NIGHT_CLEAR,NIGHT_CLEAR,NIGHT_CLEAR,CLEAR,CLEAR,CLEAR,CLEAR,CLEAR,CLEAR,CLEAR","Offshore,Offshore,Offshore,Offshore,Offshore,Offshore,Offshore,Offshore,Onshore,Onshore,Onshore,Onshore,Onshore",13
5842041f4e65fad6a77089ab,2024_04_09,35.1775325966252,-120.7341125142258,Avila Beach,1.3076923076923077,0,0.3,12,12,"NIGHT_CLEAR,NIGHT_CLEAR,NIGHT_CLEAR,NIGHT_CLEAR,NIGHT_CLEAR,NIGHT_CLEAR,CLEAR,CLEAR,CLEAR,CLEAR,CLEAR,CLEAR,CLEAR","Offshore,Offshore,Cross-shore,Offshore,Offshore,Offshore,Cross-shore,Offshore,Offshore,Offshore,Offshore,Offshore,Offshore",13
5842041f4e65fad6a77089ac,2024_04_09,35.13877877884115,-120.64535,Pismo Beach Pier,2.6284615384615386,0.7246923076923077,1.0022307692307693,12,12,"NIGHT_CLEAR,NIGHT_CLEAR,NIGHT_CLEAR,NIGHT_CLEAR,NIGHT_CLEAR,NIGHT_CLEAR,CLEAR,CLEAR,CLEAR,CLEAR,CLEAR,CLEAR,CLEAR","Offshore,Offshore,Offshore,Offshore,Offshore,Offshore,Offshore,Offshore,Onshore,Onshore,Onshore,Onshore,Onshore",13
5842041f4e65fad6a77089ad,2024_04_09,46.8907710233147,-124.12964,Westport/Olympic Peninsula,2,1.9023076923076923,2.213076923076923,11,11,"NIGHT_DRIZZLE,NIGHT_DRIZZLE,NIGHT_RAIN,NIGHT_DRIZZLE,NIGHT_OVERCAST,NIGHT_MOSTLY_CLOUDY,MOSTLY_CLOUDY,MOSTLY_CLOUDY,MIST,MOSTLY_CLOUDY,MOSTLY_CLOUDY,MOSTLY_CLOUDY,MOSTLY_CLEAR","Onshore,Onshore,Onshore,Onshore,Onshore,Onshore,Onshore,Onshore,Cross-shore,Onshore,Onshore,Onshore,Onshore",13
5842041f4e65fad6a77089ae,2024_04_09,46.35185177248545,-124.06747,Long Beach Peninsula,1.3846153846153846,2.576923076923077,2.9946153846153845,11,11,"NIGHT_CLOUDY,NIGHT_OVERCAST,NIGHT_MOSTLY_CLOUDY,NIGHT_OVERCAST,NIGHT_OVERCAST,NIGHT_OVERCAST,BRIEF_SHOWERS,MOSTLY_CLOUDY,BRIEF_SHOWERS,MOSTLY_CLOUDY,MOSTLY_CLEAR,MOSTLY_CLEAR,CLEAR","Onshore,Onshore,Onshore,Onshore,Onshore,Onshore,Onshore,Onshore,Cross-shore,Cross-shore,Cross-shore,Cross-shore,Cross-shore",13
5842041f4e65fad6a77089af,2024_04_09,47.90649175554033,-124.6370864743483,La Push,2.4615384615384617,2.193076923076923,2.546153846153846,10,10,"NIGHT_OVERCAST,NIGHT_OVERCAST,NIGHT_OVERCAST,NIGHT_CLOUDY,NIGHT_CLOUDY,NIGHT_CLOUDY,CLOUDY,MIST,MIST,BRIEF_SHOWERS,CLEAR,MOSTLY_CLOUDY,CLEAR","Onshore,Onshore,Onshore,Onshore,Onshore,Cross-shore,Onshore,Cross-shore,Onshore,Onshore,Offshore,Onshore,Onshore",13
5842041f4e65fad6a77089b0,2024_04_09,42.04368239985442,-124.26828,Brookings Jetty,2.8461538461538463,0.84288,1.3170007692307693,10,10,"NIGHT_CLEAR,NIGHT_CLEAR,NIGHT_CLEAR,NIGHT_CLEAR,NIGHT_CLEAR,NIGHT_CLEAR,CLEAR,CLEAR,CLEAR,CLEAR,CLEAR,CLEAR,CLEAR","Offshore,Offshore,Offshore,Offshore,Offshore,Offshore,Offshore,Offshore,Offshore,Cross-shore,Cross-shore,Cross-shore,Cross-shore",13
5842041f4e65fad6a77089b1,2024_04_09,42.74071837900346,-124.4983727491047,Port Orford,4,1.233076923076923,1.4361538461538461,10.307692307692308,10.307692307692308,"NIGHT_CLEAR,NIGHT_CLEAR,NIGHT_MIST,NIGHT_MIST,NIGHT_MIST,NIGHT_MIST,MIST,MOSTLY_CLOUDY,MOSTLY_CLOUDY,CLEAR,CLEAR,CLEAR,CLEAR","Offshore,Offshore,Offshore,Offshore,Offshore,Offshore,Offshore,Offshore,Offshore,Offshore,Offshore,Offshore,Offshore",13
5842041f4e65fad6a77089b2,2024_04_09,44.01532689312291,-124.13865,Florence South Jetty,2.076923076923077,2.42,2.8023076923076924,11,11,"NIGHT_MIST,NIGHT_MIST,NIGHT_DRIZZLE,NIGHT_MIST,NIGHT_DRIZZLE,NIGHT_FOG,FOG,MIST,MOSTLY_CLOUDY,MOSTLY_CLOUDY,MIST,MIST,CLOUDY","Onshore,Onshore,Onshore,Onshore,Onshore,Onshore,Onshore,Onshore,Onshore,Onshore,Onshore,Cross-shore,Cross-shore",13
5842041f4e65fad6a77089b3,2024_04_09,42.41812540774362,-124.42945,Gold Beach South Jetty,3.8461538461538463,1.79,2.0946153846153845,10.692307692307692,10.692307692307692,"NIGHT_CLEAR,NIGHT_CLEAR,NIGHT_MOSTLY_CLEAR,NIGHT_BRIEF_SHOWERS,NIGHT_BRIEF_SHOWERS,NIGHT_BRIEF_SHOWERS,MIST,MOSTLY_CLOUDY,BRIEF_SHOWERS,MIST,MIST,MIST,MIST","Offshore,Offshore,Offshore,Offshore,Offshore,Offshore,Offshore,Offshore,Offshore,Offshore,Offshore,Offshore,Offshore",13
5842041f4e65fad6a77089b4,2024_04_09,44.95857310226525,-124.0219017690976,Lincoln City,2,2.4292307692307693,2.7846153846153845,11,11,"NIGHT_DRIZZLE,NIGHT_LIGHT_RAIN,NIGHT_LIGHT_RAIN,NIGHT_DRIZZLE,NIGHT_MIST,NIGHT_MIST,MOSTLY_CLOUDY,MIST,MOSTLY_CLOUDY,MOSTLY_CLOUDY,MOSTLY_CLOUDY,MOSTLY_CLOUDY,MOSTLY_CLOUDY","Onshore,Onshore,Onshore,Onshore,Onshore,Onshore,Onshore,Onshore,Onshore,Onshore,Onshore,Onshore,Onshore",13
5842041f4e65fad6a77089b5,2024_04_09,44.63792761362982,-124.0657,Newport,2.230769230769231,2.5761538461538462,2.9669230769230768,11,11,"NIGHT_DRIZZLE,NIGHT_MIST,NIGHT_OVERCAST,NIGHT_OVERCAST,NIGHT_CLOUDY,NIGHT_FOG,LIGHT_RAIN,MOSTLY_CLOUDY,OVERCAST,MOSTLY_CLOUDY,MOSTLY_CLOUDY,MOSTLY_CLOUDY,MOSTLY_CLOUDY","Onshore,Onshore,Onshore,Onshore,Onshore,Onshore,Onshore,Onshore,Onshore,Onshore,Cross-shore,Onshore,Onshore",13
5842041f4e65fad6a77089b6,2024_04_09,45.61468496266301,-123.94643,Rockaway Beach,2,2.5584615384615383,2.937692307692308,11,11,"NIGHT_MIST,NIGHT_RAIN,NIGHT_LIGHT_RAIN,NIGHT_MIST,NIGHT_LIGHT_RAIN,NIGHT_OVERCAST,OVERCAST,LIGHT_RAIN,MIST,MIST,MIST,MIST,MIST","Onshore,Onshore,Onshore,Onshore,Onshore,Onshore,Onshore,Onshore,Onshore,Onshore,Onshore,Onshore,Onshore",13
5842041f4e65fad6a77089b7,2024_04_09,45.20252914186085,-123.96975,Pacific City,2.230769230769231,2.066923076923077,2.3823076923076925,11,11,"NIGHT_DRIZZLE,NIGHT_OVERCAST,NIGHT_OVERCAST,NIGHT_OVERCAST,NIGHT_OVERCAST,NIGHT_OVERCAST,FOG,FOG,MIST,MIST,MIST,MOSTLY_CLOUDY,MOSTLY_CLOUDY","Onshore,Onshore,Onshore,Onshore,Onshore,Onshore,Onshore,Onshore,Onshore,Onshore,Onshore,Onshore,Cross-shore",13
5842041f4e65fad6a77089b8,2024_04_09,45.88179930310263,-123.96681,Cannon Beach,1.7692307692307692,2.4630769230769234,2.8430769230769233,10.692307692307692,10.692307692307692,"NIGHT_LIGHT_RAIN,NIGHT_RAIN,NIGHT_OVERCAST,NIGHT_OVERCAST,NIGHT_MOSTLY_CLOUDY,NIGHT_OVERCAST,LIGHT_RAIN,OVERCAST,MIST,MIST,MIST,MIST,MOSTLY_CLEAR","Onshore,Onshore,Onshore,Onshore,Onshore,Onshore,Onshore,Onshore,Onshore,Onshore,Cross-shore,Cross-shore,Cross-shore",13
5842041f4e65fad6a77089ba,2024_04_09,40.02528754746774,-124.06372,Shelter Cove,2.769230769230769,0.4001723076923077,0.6252692307692308,11,11,"NIGHT_CLEAR,NIGHT_CLEAR,NIGHT_CLEAR,NIGHT_CLEAR,NIGHT_CLEAR,NIGHT_CLEAR,CLEAR,CLEAR,CLEAR,CLEAR,CLEAR,CLEAR,CLEAR","Offshore,Offshore,Offshore,Offshore,Offshore,Offshore,Offshore,Offshore,Offshore,Offshore,Offshore,Offshore,Offshore",13
5842041f4e65fad6a77089bb,2024_04_09,40.76816197136951,-124.24248,Humboldt Harbor Entrance,2.8461538461538463,2.233076923076923,2.4323076923076923,11,11,"NIGHT_MIST,NIGHT_MIST,NIGHT_MIST,NIGHT_MIST,NIGHT_MIST,NIGHT_MIST,MIST,MIST,MIST,MIST,MIST,MIST,MIST","Cross-shore,Cross-shore,Cross-shore,Cross-shore,Cross-shore,Cross-shore,Cross-shore,Cross-shore,Cross-shore,Cross-shore,Cross-shore,Cross-shore,Cross-shore",13
5842041f4e65fad6a77089bc,2024_04_09,40.76684246920174,-124.23107,North Jetty,2.6923076923076925,3.03,3.4476923076923076,11,11,"NIGHT_MIST,NIGHT_MIST,NIGHT_MIST,NIGHT_MIST,NIGHT_MIST,NIGHT_MIST,MIST,MIST,MIST,MIST,MIST,MIST,MIST","Cross-shore,Cross-shore,Cross-shore,Cross-shore,Cross-shore,Cross-shore,Cross-shore,Cross-shore,Cross-shore,Cross-shore,Cross-shore,Onshore,Onshore",13
5842041f4e65fad6a77089bd,2024_04_09,41.02731183893966,-124.1149972888982,Westhaven,3,3.18,3.6161538461538463,11,11,"NIGHT_CLEAR,NIGHT_CLEAR,NIGHT_CLEAR,NIGHT_CLEAR,NIGHT_CLEAR,NIGHT_CLEAR,CLEAR,CLEAR,CLEAR,CLEAR,CLEAR,CLEAR,CLEAR","Offshore,Offshore,Offshore,Offshore,Offshore,Offshore,Offshore,Offshore,Cross-shore,Cross-shore,Cross-shore,Cross-shore,Cross-shore",13
5842041f4e65fad6a77089be,2024_04_09,41.13016238153297,-124.16466,Sue-meg,2.3076923076923075,2.2684615384615383,2.586923076923077,11,11,"NIGHT_MIST,NIGHT_MIST,NIGHT_MIST,NIGHT_MIST,NIGHT_MIST,NIGHT_MIST,BRIEF_SHOWERS,BRIEF_SHOWERS,BRIEF_SHOWERS,BRIEF_SHOWERS,BRIEF_SHOWERS,BRIEF_SHOWERS,BRIEF_SHOWERS","Cross-shore,Cross-shore,Cross-shore,Cross-shore,Cross-shore,Cross-shore,Cross-shore,Cross-shore,Cross-shore,Cross-shore,Cross-shore,Cross-shore,Cross-shore",13
5842041f4e65fad6a77089bf,2024_04_09,37.8289474958188,-122.5376795097543,Fort Cronkite/Rodeo Beach,3,1.0623076923076924,1.333846153846154,13,13,"NIGHT_CLEAR,NIGHT_CLEAR,NIGHT_CLEAR,NIGHT_CLEAR,NIGHT_CLEAR,NIGHT_CLEAR,CLEAR,MIST,MIST,MIST,MIST,MIST,MIST","Onshore,Onshore,Onshore,Onshore,Onshore,Onshore,Onshore,Onshore,Onshore,Onshore,Onshore,Onshore,Onshore",13
5842041f4e65fad6a77089c0,2024_04_09,41.74415759876137,-124.17717,South Beach CA,3,0.8615384615384616,1.0915384615384616,10.692307692307692,10.692307692307692,"NIGHT_CLEAR,NIGHT_CLEAR,NIGHT_CLEAR,NIGHT_MOSTLY_CLOUDY,NIGHT_MOSTLY_CLOUDY,NIGHT_MOSTLY_CLOUDY,MOSTLY_CLOUDY,MOSTLY_CLOUDY,MOSTLY_CLEAR,CLEAR,CLEAR,CLEAR,MOSTLY_CLEAR","Offshore,Offshore,Offshore,Offshore,Offshore,Offshore,Offshore,Offshore,Offshore,Offshore,Offshore,Offshore,Offshore",13
5842041f4e65fad6a77089c1,2024_04_09,37.89801283969752,-122.64519,Stinson Beach,3,0.4292307692307692,0.7353846153846154,12,12,"NIGHT_CLEAR,NIGHT_CLEAR,NIGHT_CLEAR,NIGHT_CLEAR,NIGHT_CLEAR,NIGHT_CLEAR,CLEAR,CLEAR,CLEAR,CLEAR,CLEAR,CLEAR,CLEAR","Offshore,Offshore,Offshore,Offshore,Cross-shore,Onshore,Offshore,Cross-shore,Cross-shore,Cross-shore,Cross-shore,Cross-shore,Offshore",13
5842041f4e65fad6a77089c2,2024_04_09,37.90514516176495,-122.68151,Bolinas,2.4615384615384617,0.38828384615384615,0.6066915384615384,12,12,"NIGHT_CLEAR,NIGHT_CLEAR,NIGHT_CLEAR,NIGHT_CLEAR,NIGHT_CLEAR,NIGHT_CLEAR,CLEAR,CLEAR,CLEAR,CLEAR,CLEAR,CLEAR,CLEAR","Offshore,Offshore,Offshore,Offshore,Onshore,Cross-shore,Onshore,Cross-shore,Offshore,Cross-shore,Cross-shore,Offshore,Offshore",13
5842041f4e65fad6a77089c3,2024_04_09,38.04892513158693,-122.9892494965416,Point Reyes (north),1.6153846153846154,2.3184615384615386,2.736923076923077,11.307692307692308,11.307692307692308,"NIGHT_CLEAR,NIGHT_CLEAR,NIGHT_CLEAR,NIGHT_MIST,NIGHT_MIST,NIGHT_MIST,MIST,MIST,MIST,MIST,MIST,MIST,MIST","Onshore,Onshore,Onshore,Onshore,Onshore,Onshore,Onshore,Onshore,Onshore,Onshore,Onshore,Onshore,Onshore",13
5842041f4e65fad6a77089c6,2024_04_09,38.31088736605785,-123.0496777333731,Doran Beach,2,0.08846153846153847,0.3923076923076923,11,11,"NIGHT_MIST,NIGHT_MIST,NIGHT_MIST,NIGHT_CLEAR,NIGHT_CLEAR,NIGHT_CLEAR,CLEAR,CLEAR,CLEAR,CLEAR,CLEAR,CLEAR,CLEAR","Offshore,Offshore,Offshore,Offshore,Offshore,Offshore,Offshore,Onshore,Cross-shore,Cross-shore,Cross-shore,Offshore,Offshore",13
5842041f4e65fad6a77089c7,2024_04_09,38.45077228660809,-123.13008,Russian Rivermouth,3,1.5146153846153845,1.8069230769230769,11,11,"NIGHT_CLEAR,NIGHT_CLEAR,NIGHT_CLEAR,NIGHT_CLEAR,NIGHT_CLEAR,NIGHT_CLEAR,CLEAR,CLEAR,CLEAR,CLEAR,CLEAR,CLEAR,CLEAR","Offshore,Cross-shore,Offshore,Offshore,Offshore,Cross-shore,Cross-shore,Onshore,Onshore,Onshore,Onshore,Onshore,Onshore",13
5842041f4e65fad6a77089c8,2024_04_09,38.35329968518107,-123.06906,Salmon Creek,2.923076923076923,2.1092307692307695,2.416153846153846,11,11,"NIGHT_CLEAR,NIGHT_CLEAR,NIGHT_CLEAR,NIGHT_CLEAR,NIGHT_CLEAR,NIGHT_CLEAR,CLEAR,CLEAR,MIST,MIST,MIST,MIST,MIST","Onshore,Offshore,Onshore,Cross-shore,Onshore,Onshore,Onshore,Cross-shore,Onshore,Onshore,Onshore,Onshore,Onshore",13
5842041f4e65fad6a77089c9,2024_04_09,38.6845180197959,-123.4322714291198,Black Point Beach,2.5384615384615383,0.6415384615384615,0.9469230769230769,10.307692307692308,10.307692307692308,"NIGHT_CLEAR,NIGHT_CLEAR,NIGHT_CLEAR,NIGHT_CLEAR,NIGHT_CLEAR,NIGHT_CLEAR,CLEAR,CLEAR,CLEAR,CLEAR,CLEAR,CLEAR,CLEAR","Onshore,Cross-shore,Cross-shore,Cross-shore,Cross-shore,Cross-shore,Cross-shore,Cross-shore,Onshore,Onshore,Onshore,Onshore,Onshore",13
5842041f4e65fad6a77089ca,2024_04_09,43.251076,-70.59144,Ogunquit,1.8461538461538463,0.44274871794871795,0.7430615384615384,5.153846153846154,4,"NIGHT_CLEAR,NIGHT_CLEAR,NIGHT_CLEAR,CLEAR,CLEAR,CLEAR,CLEAR,CLEAR,CLEAR,CLEAR,CLEAR,CLEAR,CLEAR","Offshore,Cross-shore,Cross-shore,Offshore,Cross-shore,Cross-shore,Cross-shore,Onshore,Onshore,Onshore,Onshore,Onshore,Onshore",13
5842041f4e65fad6a77089cb,2024_04_09,41.362631366305415,-71.48007,Point Judith,1.2023076923076923,0.18153384615384616,0.48941076923076926,6.153846153846154,5.153846153846154,"NIGHT_MOSTLY_CLOUDY,NIGHT_CLEAR,NIGHT_CLEAR,CLEAR,CLEAR,CLEAR,CLEAR,CLEAR,CLEAR,CLEAR,CLEAR,CLEAR,CLEAR","Cross-shore,Offshore,Offshore,Offshore,Offshore,Cross-shore,Offshore,Offshore,Offshore,Cross-shore,Cross-shore,Onshore,Onshore",13
5842041f4e65fad6a77089cd,2024_04_09,41.422678090954726,-71.45413,Monahan's - Narragansett,1.9230769230769231,0.2415869230769231,0.37747846153846154,6,6,"NIGHT_CLOUDY,NIGHT_CLEAR,NIGHT_CLEAR,CLEAR,CLEAR,CLEAR,CLEAR,CLEAR,CLEAR,CLEAR,CLEAR,CLEAR,CLEAR","Offshore,Offshore,Offshore,Offshore,Offshore,Offshore,Cross-shore,Cross-shore,Onshore,Onshore,Onshore,Onshore,Onshore",13
5842041f4e65fad6a77089ce,2024_04_09,41.469,-71.293,Ruggles - Newport,1.6923076923076923,0.2557753846153846,0.3996484615384615,5.6923076923076925,5.6923076923076925,"NIGHT_MOSTLY_CLOUDY,NIGHT_MOSTLY_CLEAR,NIGHT_CLEAR,CLEAR,CLEAR,CLEAR,CLEAR,CLEAR,CLEAR,CLEAR,CLEAR,CLEAR,CLEAR","Cross-shore,Cross-shore,Cross-shore,Offshore,Offshore,Offshore,Offshore,Offshore,Onshore,Onshore,Onshore,Onshore,Onshore",13
5842041f4e65fad6a77089cf,2024_04_09,43.175394,-70.606351,Short Sands Beach,1.5384615384615385,0.34692307692307695,0.6561538461538462,5,5,"NIGHT_CLEAR,NIGHT_CLEAR,NIGHT_CLEAR,CLEAR,CLEAR,CLEAR,CLEAR,CLEAR,CLEAR,CLEAR,CLEAR,CLEAR,CLEAR","Offshore,Cross-shore,Cross-shore,Cross-shore,Cross-shore,Onshore,Onshore,Onshore,Onshore,Onshore,Onshore,Onshore,Onshore",13
5842041f4e65fad6a77089d0,2024_04_09,41.487408,-71.29017,First Beach,1,0,0.24307692307692308,6,6,"NIGHT_MOSTLY_CLOUDY,NIGHT_MOSTLY_CLEAR,NIGHT_CLEAR,CLEAR,CLEAR,CLEAR,CLEAR,CLEAR,CLEAR,CLEAR,CLEAR,CLEAR,CLEAR","Cross-shore,Cross-shore,Cross-shore,Offshore,Offshore,Offshore,Offshore,Offshore,Onshore,Onshore,Onshore,Onshore,Onshore",13
5842041f4e65fad6a77089d1,2024_04_09,42.27916830233153,-70.86498,Nantasket Beach,2.1153846153846154,0.4789666666666667,0.7838307692307692,6,4.153846153846154,"NIGHT_CLEAR,NIGHT_CLEAR,NIGHT_CLEAR,CLEAR,CLEAR,CLEAR,CLEAR,CLEAR,CLEAR,CLEAR,CLEAR,CLEAR,CLEAR","Offshore,Offshore,Offshore,Offshore,Cross-shore,Onshore,Onshore,Onshore,Onshore,Onshore,Onshore,Onshore,Onshore",13
5842041f4e65fad6a77089d2,2024_04_09,41.817,-69.935,Cape Cod,2.3846153846153846,0.4207692307692308,0.7261538461538461,5,5,"NIGHT_CLEAR,NIGHT_CLEAR,NIGHT_CLEAR,CLEAR,CLEAR,CLEAR,CLEAR,CLEAR,CLEAR,CLEAR,CLEAR,CLEAR,CLEAR","Offshore,Offshore,Offshore,Offshore,Offshore,Offshore,Cross-shore,Cross-shore,Onshore,Onshore,Onshore,Onshore,Onshore",13
5842041f4e65fad6a77089d3,2024_04_09,42.22055448975661,-70.70634873403819,Egypt Beach,2.230769230769231,0.5461538461538461,0.8515384615384616,5,5,"NIGHT_CLEAR,NIGHT_CLEAR,NIGHT_CLEAR,CLEAR,CLEAR,CLEAR,CLEAR,CLEAR,CLEAR,CLEAR,CLEAR,CLEAR,CLEAR","Offshore,Offshore,Offshore,Offshore,Offshore,Cross-shore,Cross-shore,Cross-shore,Onshore,Onshore,Onshore,Onshore,Onshore",13
5842041f4e65fad6a77089d4,2024_04_09,41.48739647744607,-71.25723,Second Beach,0.34615384615384615,0.052584358974358966,0.18571679487179488,6.153846153846154,5.153846153846154,"NIGHT_MOSTLY_CLOUDY,NIGHT_MOSTLY_CLEAR,NIGHT_CLEAR,CLEAR,CLEAR,CLEAR,CLEAR,CLEAR,CLEAR,CLEAR,CLEAR,CLEAR,CLEAR","Onshore,Onshore,Onshore,Cross-shore,Offshore,Offshore,Offshore,Offshore,Onshore,Onshore,Onshore,Cross-shore,Cross-shore",13
5842041f4e65fad6a77089d5,2024_04_09,42.964,-70.769,Fox Hill,1.5769230769230769,0.3944871794871795,0.6997435897435897,5.153846153846154,4,"NIGHT_CLEAR,NIGHT_CLEAR,NIGHT_CLEAR,CLEAR,CLEAR,CLEAR,CLEAR,CLEAR,CLEAR,CLEAR,CLEAR,CLEAR,CLEAR","Offshore,Offshore,Offshore,Offshore,Offshore,Cross-shore,Cross-shore,Cross-shore,Onshore,Onshore,Onshore,Onshore,Onshore",13
5842041f4e65fad6a77089d6,2024_04_09,42.991359,-70.75149,Straws Point,1.4476923076923076,0.34923076923076923,0.6592307692307693,5.153846153846154,4,"NIGHT_CLEAR,NIGHT_CLEAR,NIGHT_CLEAR,CLEAR,CLEAR,CLEAR,CLEAR,CLEAR,CLEAR,CLEAR,CLEAR,CLEAR,CLEAR","Offshore,Offshore,Offshore,Offshore,Offshore,Cross-shore,Cross-shore,Cross-shore,Cross-shore,Cross-shore,Onshore,Onshore,Onshore",13
5842041f4e65fad6a77089d7,2024_04_09,42.946,-70.786,Plaice Cove,1.5,0.3944871794871795,0.6997435897435897,5.153846153846154,4,"NIGHT_CLEAR,NIGHT_CLEAR,NIGHT_CLEAR,CLEAR,CLEAR,CLEAR,CLEAR,CLEAR,CLEAR,CLEAR,CLEAR,CLEAR,CLEAR","Offshore,Offshore,Offshore,Cross-shore,Cross-shore,Cross-shore,Onshore,Onshore,Onshore,Onshore,Onshore,Onshore,Onshore",13
5842041f4e65fad6a77089d9,2024_04_09,42.911574,-70.80831,The Main Beach,1.9692307692307691,0.49650326923076926,0.8032625,6,4,"NIGHT_CLEAR,NIGHT_CLEAR,NIGHT_CLEAR,CLEAR,CLEAR,CLEAR,CLEAR,CLEAR,CLEAR,CLEAR,CLEAR,CLEAR,CLEAR","Offshore,Offshore,Offshore,Offshore,Offshore,Offshore,Cross-shore,Cross-shore,Cross-shore,Cross-shore,Cross-shore,Onshore,Onshore",13
5842041f4e65fad6a77089da,2024_04_09,42.97583846220203,-70.764,Sawyer's Beach,1.4230769230769231,0.32371794871794873,0.6242307692307693,5.153846153846154,4,"NIGHT_CLEAR,NIGHT_CLEAR,NIGHT_CLEAR,CLEAR,CLEAR,CLEAR,CLEAR,CLEAR,CLEAR,CLEAR,CLEAR,CLEAR,CLEAR","Offshore,Offshore,Offshore,Offshore,Offshore,Cross-shore,Cross-shore,Cross-shore,Onshore,Onshore,Onshore,Onshore,Onshore",13
5842041f4e65fad6a77089db,2024_04_09,42.97,-70.77,Rye on the Rocks / 5-0's,1.9384615384615385,0.4912088461538462,0.7983442307692308,6,4,"NIGHT_CLEAR,NIGHT_CLEAR,NIGHT_CLEAR,CLEAR,CLEAR,CLEAR,CLEAR,CLEAR,CLEAR,CLEAR,CLEAR,CLEAR,CLEAR","Offshore,Offshore,Offshore,Offshore,Offshore,Cross-shore,Cross-shore,Cross-shore,Onshore,Onshore,Onshore,Onshore,Onshore",13
5842041f4e65fad6a77089dc,2024_04_09,43.55902946610303,-70.27795,Higgins Beach,1.523076923076923,0.2608461538461539,0.5667615384615384,5.153846153846154,4.153846153846154,"NIGHT_CLEAR,NIGHT_CLEAR,NIGHT_CLEAR,CLEAR,CLEAR,CLEAR,CLEAR,CLEAR,CLEAR,CLEAR,CLEAR,CLEAR,CLEAR","Offshore,Offshore,Offshore,Offshore,Offshore,Offshore,Offshore,Cross-shore,Cross-shore,Onshore,Onshore,Onshore,Onshore",13
5842041f4e65fad6a77089dd,2024_04_09,43.302676,-70.5652,Wells Beach,1.6153846153846154,0.3494794871794872,0.6573564102564102,5.153846153846154,4,"NIGHT_CLEAR,NIGHT_CLEAR,NIGHT_CLEAR,CLEAR,CLEAR,CLEAR,CLEAR,CLEAR,CLEAR,CLEAR,CLEAR,CLEAR,CLEAR","Offshore,Cross-shore,Cross-shore,Offshore,Cross-shore,Cross-shore,Onshore,Onshore,Onshore,Onshore,Onshore,Onshore,Onshore",13
5842041f4e65fad6a77089de,2024_04_09,43.545359,-70.30479,Scarborough Beach State Park,1.6153846153846154,0.43280769230769234,0.7119183974358975,5.153846153846154,4,"NIGHT_CLEAR,NIGHT_CLEAR,NIGHT_CLEAR,CLEAR,CLEAR,CLEAR,CLEAR,CLEAR,CLEAR,CLEAR,CLEAR,MIST,MIST","Offshore,Offshore,Offshore,Offshore,Offshore,Cross-shore,Cross-shore,Cross-shore,Onshore,Onshore,Onshore,Onshore,Onshore",13
5842041f4e65fad6a77089df,2024_04_09,43.514481,-70.372146,Old Orchard Beach,1.6153846153846154,0.48852307692307695,0.7998692307692308,5.153846153846154,4.153846153846154,"NIGHT_CLEAR,NIGHT_CLEAR,NIGHT_CLEAR,CLEAR,CLEAR,CLEAR,CLEAR,CLEAR,CLEAR,CLEAR,CLEAR,CLEAR,CLEAR","Cross-shore,Offshore,Offshore,Offshore,Offshore,Cross-shore,Cross-shore,Cross-shore,Onshore,Onshore,Onshore,Onshore,Onshore",13
5842041f4e65fad6a77089e0,2024_04_09,43.34711,-70.48165,Gooch's Beach,1.4615384615384615,0.24524871794871797,0.5478051282051283,5.153846153846154,4.153846153846154,"NIGHT_CLEAR,NIGHT_CLEAR,NIGHT_CLEAR,CLEAR,CLEAR,CLEAR,CLEAR,CLEAR,CLEAR,CLEAR,CLEAR,CLEAR,CLEAR","Offshore,Offshore,Offshore,Offshore,Offshore,Offshore,Offshore,Offshore,Cross-shore,Cross-shore,Onshore,Onshore,Onshore",13
5842041f4e65fad6a77089e2,2024_04_09,40.58433,-73.62953,Lido Beach,1.39,0.25595641025641025,0.5592820512820513,8,7,"NIGHT_MOSTLY_CLEAR,NIGHT_CLEAR,NIGHT_CLEAR,CLEAR,CLEAR,CLEAR,CLEAR,CLEAR,CLEAR,CLEAR,CLEAR,CLEAR,CLEAR","Onshore,Onshore,Onshore,Cross-shore,Cross-shore,Offshore,Cross-shore,Offshore,Onshore,Onshore,Onshore,Onshore,Cross-shore",13
5842041f4e65fad6a77089e3,2024_04_09,43.163135,-70.61689,Long Sands Beach,1.5076923076923077,0.48650019230769237,0.7909290384615385,5.153846153846154,4.153846153846154,"NIGHT_CLEAR,NIGHT_CLEAR,NIGHT_CLEAR,CLEAR,CLEAR,CLEAR,CLEAR,CLEAR,CLEAR,CLEAR,CLEAR,CLEAR,CLEAR","Offshore,Offshore,Offshore,Offshore,Offshore,Offshore,Offshore,Offshore,Cross-shore,Cross-shore,Onshore,Onshore,Onshore",13
5842041f4e65fad6a77089e4,2024_04_09,40.61695351251805,-73.39376,Gilgo Beach,1.5384615384615385,0.2035897435897436,0.4921794871794872,8,7,"NIGHT_CLEAR,NIGHT_CLEAR,NIGHT_CLEAR,CLEAR,CLEAR,CLEAR,CLEAR,CLEAR,CLEAR,CLEAR,CLEAR,CLEAR,CLEAR","Onshore,Onshore,Onshore,Onshore,Cross-shore,Cross-shore,Cross-shore,Cross-shore,Onshore,Onshore,Onshore,Onshore,Onshore",13
5842041f4e65fad6a77089e5,2024_04_09,40.62530081928036,-73.23827,Robert Moses,1,0.04153846153846154,0.33692307692307694,6.6923076923076925,6.6923076923076925,"NIGHT_MOSTLY_CLEAR,NIGHT_MOSTLY_CLEAR,NIGHT_CLEAR,CLEAR,CLEAR,CLEAR,CLEAR,CLEAR,CLEAR,CLEAR,CLEAR,CLEAR,CLEAR","Onshore,Onshore,Onshore,Onshore,Cross-shore,Cross-shore,Cross-shore,Cross-shore,Onshore,Onshore,Onshore,Onshore,Onshore",13
5842041f4e65fad6a77089e6,2024_04_09,40.64313317632791,-73.15727,Fire Island,1,0.04384615384615385,0.3423076923076923,6.6923076923076925,6.6923076923076925,"NIGHT_MIST,NIGHT_CLEAR,NIGHT_CLEAR,CLEAR,CLEAR,CLEAR,CLEAR,CLEAR,CLEAR,CLEAR,CLEAR,CLEAR,CLEAR","Cross-shore,Onshore,Onshore,Cross-shore,Cross-shore,Cross-shore,Cross-shore,Cross-shore,Onshore,Onshore,Onshore,Onshore,Onshore",13
5842041f4e65fad6a77089e8,2024_04_09,40.76653118828782,-72.74579619372713,Cupsogue,1.3076923076923077,0.16615384615384615,0.4723076923076923,6,6,"NIGHT_CLEAR,NIGHT_CLEAR,NIGHT_CLEAR,CLEAR,CLEAR,CLEAR,CLEAR,CLEAR,CLEAR,CLEAR,CLEAR,CLEAR,CLEAR","Cross-shore,Onshore,Cross-shore,Cross-shore,Cross-shore,Cross-shore,Cross-shore,Cross-shore,Onshore,Onshore,Onshore,Onshore,Onshore",13
5842041f4e65fad6a77089e9,2024_04_09,42.9376373334092,-70.79141,The Wall ,1.9384615384615385,0.49622307692307693,0.8028257692307692,6,4,"NIGHT_CLEAR,NIGHT_CLEAR,NIGHT_CLEAR,CLEAR,CLEAR,CLEAR,CLEAR,CLEAR,CLEAR,CLEAR,CLEAR,CLEAR,CLEAR","Offshore,Offshore,Offshore,Cross-shore,Cross-shore,Onshore,Onshore,Onshore,Onshore,Onshore,Onshore,Onshore,Onshore",13
5842041f4e65fad6a77089ea,2024_04_09,40.887088,-72.33856,Flys,1.8461538461538463,0.18692307692307694,0.49153846153846154,6,6,"NIGHT_MOSTLY_CLOUDY,NIGHT_CLEAR,NIGHT_CLEAR,CLEAR,CLEAR,CLEAR,CLEAR,CLEAR,CLEAR,CLEAR,CLEAR,CLEAR,CLEAR","Cross-shore,Cross-shore,Cross-shore,Cross-shore,Cross-shore,Cross-shore,Cross-shore,Offshore,Onshore,Onshore,Onshore,Onshore,Onshore",13
5842041f4e65fad6a77089eb,2024_04_09,41.0389266436591,-71.91068529316958,Trailer Park,1.3692307692307693,0.3109692307692308,0.6162271153846154,8,7,"NIGHT_CLEAR,NIGHT_CLEAR,NIGHT_CLEAR,CLEAR,CLEAR,CLEAR,CLEAR,CLEAR,CLEAR,CLEAR,CLEAR,CLEAR,CLEAR","Cross-shore,Cross-shore,Cross-shore,Cross-shore,Cross-shore,Cross-shore,Offshore,Offshore,Onshore,Onshore,Onshore,Onshore,Cross-shore",13
5842041f4e65fad6a77089ec,2024_04_09,41.039505402729105,-71.9142,Ditch Plains,2,0.4151676923076923,0.6487007692307692,6,6,"NIGHT_CLEAR,NIGHT_CLEAR,NIGHT_CLEAR,CLEAR,CLEAR,CLEAR,CLEAR,CLEAR,CLEAR,CLEAR,CLEAR,CLEAR,CLEAR","Cross-shore,Cross-shore,Offshore,Offshore,Offshore,Offshore,Offshore,Offshore,Onshore,Onshore,Onshore,Onshore,Onshore",13
5842041f4e65fad6a77089ee,2024_04_09,40.57633275206492,-73.56895305108567,"West End, Jones Beach",1.486923076923077,0.2116769230769231,0.5087384615384616,8,7,"NIGHT_MOSTLY_CLEAR,NIGHT_CLEAR,NIGHT_CLEAR,CLEAR,CLEAR,CLEAR,CLEAR,CLEAR,CLEAR,CLEAR,CLEAR,CLEAR,CLEAR","Onshore,Onshore,Onshore,Onshore,Onshore,Cross-shore,Cross-shore,Cross-shore,Onshore,Onshore,Onshore,Onshore,Onshore",13
5842041f4e65fad6a77089f1,2024_04_09,41.038286691230795,-71.91991567611694,Poles,1.3692307692307693,0.3106623076923077,0.6154615384615385,8,7,"NIGHT_CLEAR,NIGHT_CLEAR,NIGHT_CLEAR,CLEAR,CLEAR,CLEAR,CLEAR,CLEAR,CLEAR,CLEAR,CLEAR,CLEAR,CLEAR","Cross-shore,Cross-shore,Cross-shore,Cross-shore,Cross-shore,Cross-shore,Offshore,Offshore,Onshore,Onshore,Onshore,Onshore,Onshore",13
5842041f4e65fad6a77089f3,2024_04_09,40.84077769766295,-72.47989493724765,The Bowl,1.8461538461538463,0.17307692307692307,0.4807692307692308,6,6,"NIGHT_MOSTLY_CLOUDY,NIGHT_MOSTLY_CLOUDY,NIGHT_CLEAR,CLEAR,CLEAR,CLEAR,CLEAR,CLEAR,CLEAR,CLEAR,CLEAR,CLEAR,CLEAR","Onshore,Onshore,Cross-shore,Cross-shore,Cross-shore,Cross-shore,Offshore,Offshore,Onshore,Onshore,Onshore,Onshore,Onshore",13
5842041f4e65fad6a77089f4,2024_04_09,40.94235535243154,-72.19286,Main Beach,1.1538461538461537,0.24961538461538463,0.5541025641025641,14,13,"NIGHT_CLEAR,NIGHT_CLEAR,NIGHT_CLEAR,CLEAR,CLEAR,CLEAR,CLEAR,CLEAR,CLEAR,CLEAR,CLEAR,CLEAR,CLEAR","Onshore,Onshore,Cross-shore,Cross-shore,Cross-shore,Cross-shore,Offshore,Offshore,Onshore,Onshore,Onshore,Onshore,Cross-shore",13
5842041f4e65fad6a77089f5,2024_04_09,40.58270702399518,-73.67251552079799,Laurelton Blvd.,0.9807692307692307,0.002512564102564102,0.30563602564102565,8,7,"NIGHT_CLEAR,NIGHT_CLEAR,NIGHT_CLEAR,CLEAR,CLEAR,CLEAR,CLEAR,CLEAR,CLEAR,CLEAR,CLEAR,CLEAR,CLEAR","Onshore,Onshore,Onshore,Onshore,Cross-shore,Cross-shore,Offshore,Offshore,Onshore,Onshore,Onshore,Cross-shore,Offshore",13
5842041f4e65fad6a77089f6,2024_04_09,41.033752854071416,-71.93696,Terrace,1.2,0.3127769230769231,0.6137307692307693,8,7,"NIGHT_CLEAR,NIGHT_CLEAR,NIGHT_CLEAR,CLEAR,CLEAR,MOSTLY_CLEAR,CLEAR,CLEAR,CLEAR,CLEAR,CLEAR,CLEAR,CLEAR","Cross-shore,Cross-shore,Cross-shore,Cross-shore,Cross-shore,Cross-shore,Cross-shore,Cross-shore,Onshore,Onshore,Cross-shore,Onshore,Onshore",13
5842041f4e65fad6a77089f7,2024_04_09,40.83372943645748,-72.50426173210144,K Road,1.7692307692307692,0.1723076923076923,0.47692307692307695,6,6,"NIGHT_MOSTLY_CLOUDY,NIGHT_MOSTLY_CLEAR,NIGHT_CLEAR,CLEAR,CLEAR,CLEAR,CLEAR,CLEAR,CLEAR,CLEAR,CLEAR,CLEAR,CLEAR","Cross-shore,Cross-shore,Cross-shore,Cross-shore,Cross-shore,Offshore,Offshore,Offshore,Onshore,Onshore,Onshore,Onshore,Onshore",13
5842041f4e65fad6a77089f8,2024_04_09,40.58456099581507,-73.80730032920837,84th Street,2.2884615384615383,0.4686666666666667,0.8075179487179488,8,7,"NIGHT_MOSTLY_CLEAR,NIGHT_CLEAR,NIGHT_CLEAR,CLEAR,CLEAR,CLEAR,CLEAR,CLEAR,CLEAR,CLEAR,CLEAR,CLEAR,CLEAR","Onshore,Onshore,Onshore,Onshore,Cross-shore,Offshore,Offshore,Offshore,Onshore,Onshore,Onshore,Onshore,Onshore",13
5842041f4e65fad6a77089fa,2024_04_09,40.1319,-74.02788,Sea Girt,2.1923076923076925,0.4388692307692308,0.7443615384615385,8,7,"NIGHT_CLEAR,NIGHT_CLEAR,NIGHT_CLEAR,CLEAR,CLEAR,CLEAR,CLEAR,CLEAR,CLEAR,CLEAR,CLEAR,CLEAR,CLEAR","Offshore,Cross-shore,Offshore,Cross-shore,Offshore,Offshore,Onshore,Onshore,Onshore,Onshore,Onshore,Onshore,Cross-shore",13
5842041f4e65fad6a77089fb,2024_04_09,40.54698301868125,-73.9268,Breezy Point,2,0.08923076923076924,0.3946153846153846,7,7,"NIGHT_MOSTLY_CLEAR,NIGHT_CLEAR,NIGHT_CLEAR,CLEAR,CLEAR,CLEAR,CLEAR,CLEAR,CLEAR,CLEAR,CLEAR,CLEAR,CLEAR","Cross-shore,Onshore,Onshore,Onshore,Cross-shore,Offshore,Offshore,Offshore,Onshore,Onshore,Onshore,Onshore,Onshore",13
5842041f4e65fad6a77089fc,2024_04_09,40.152504,-74.021383,Spring Lake,2.243846153846154,0.45438205128205134,0.7590410256410256,8,7,"NIGHT_CLEAR,NIGHT_CLEAR,NIGHT_CLEAR,CLEAR,CLEAR,CLEAR,CLEAR,CLEAR,CLEAR,CLEAR,CLEAR,CLEAR,CLEAR","Offshore,Onshore,Offshore,Offshore,Offshore,Offshore,Onshore,Onshore,Onshore,Onshore,Onshore,Onshore,Cross-shore",13
5842041f4e65fad6a77089fd,2024_04_09,40.591277,-73.770792,30th - 39th Streets,1.8846153846153846,0.1912923076923077,0.5264358974358975,8,7,"NIGHT_MOSTLY_CLEAR,NIGHT_CLEAR,NIGHT_CLEAR,CLEAR,CLEAR,CLEAR,CLEAR,CLEAR,CLEAR,CLEAR,CLEAR,CLEAR,CLEAR","Onshore,Onshore,Onshore,Onshore,Cross-shore,Cross-shore,Offshore,Offshore,Onshore,Onshore,Onshore,Onshore,Onshore",13
5842041f4e65fad6a77089fe,2024_04_09,40.18834955871439,-74.00860982500222,Avon,2.5,0.4827794871794872,0.7874384615384615,8,7,"NIGHT_CLEAR,NIGHT_CLEAR,NIGHT_CLEAR,CLEAR,CLEAR,CLEAR,CLEAR,CLEAR,CLEAR,CLEAR,CLEAR,CLEAR,CLEAR","Offshore,Onshore,Offshore,Offshore,Offshore,Offshore,Onshore,Onshore,Onshore,Onshore,Onshore,Onshore,Cross-shore",13
5842041f4e65fad6a77089ff,2024_04_09,40.1974229100932,-74.00650533798255,Bradley Beach,2.5515384615384615,0.47213846153846156,0.7772461538461538,8,7,"NIGHT_CLEAR,NIGHT_CLEAR,NIGHT_CLEAR,CLEAR,CLEAR,CLEAR,CLEAR,CLEAR,CLEAR,CLEAR,CLEAR,CLEAR,CLEAR","Cross-shore,Onshore,Offshore,Offshore,Offshore,Offshore,Onshore,Onshore,Onshore,Onshore,Onshore,Onshore,Cross-shore",13
5842041f4e65fad6a7708a01,2024_04_09,40.17202,-74.01503,"16th Ave., Belmar",2.102307692307692,0.47821282051282055,0.7856410256410257,8,7,"NIGHT_CLEAR,NIGHT_CLEAR,NIGHT_CLEAR,CLEAR,CLEAR,CLEAR,CLEAR,CLEAR,CLEAR,CLEAR,CLEAR,CLEAR,CLEAR","Cross-shore,Onshore,Offshore,Offshore,Offshore,Offshore,Onshore,Onshore,Onshore,Onshore,Onshore,Onshore,Cross-shore",13
5842041f4e65fad6a7708a02,2024_04_09,40.217443,-73.99982,Asbury Park,2.243846153846154,0.44265128205128207,0.7473102564102564,8,7,"NIGHT_CLEAR,NIGHT_MOSTLY_CLEAR,NIGHT_CLEAR,CLEAR,CLEAR,CLEAR,CLEAR,CLEAR,CLEAR,CLEAR,CLEAR,CLEAR,CLEAR","Offshore,Onshore,Offshore,Offshore,Offshore,Offshore,Onshore,Onshore,Onshore,Onshore,Onshore,Onshore,Cross-shore",13
