_id,date,lat,lon,name,daily_mean_swell_rating,daily_mean_wave_height_min,daily_mean_wave_height_max,daily_mean_water_temperature_max,daily_mean_water_temperature_min,weather_per_timestamp,wind_per_timestamp,n_samples_per_day
5842041f4e65fad6a77087f9,2024_02_09,37.741668,-122.51038,South Ocean Beach,3,2.0805,2.6403333333333334,14,14,"NIGHT_CLEAR,NIGHT_MIST","Offshore,Offshore",2
5842041f4e65fad6a7708801,2024_02_09,37.49142,-122.50428,Maverick's,NA,1.72125,1.9721666666666666,13,13,"NIGHT_CLEAR,NIGHT_CLEAR","Offshore,Offshore",2
5842041f4e65fad6a7708804,2024_02_09,44.997,-124.018,Roads End,2,1.875,2.21,11,11,"NIGHT_MOSTLY_CLOUDY,NIGHT_CLEAR","Onshore,Onshore",2
5842041f4e65fad6a7708805,2024_02_09,36.95188851423011,-122.02522,Steamer Lane,4,1.3436666666666668,1.6778,14,14,"NIGHT_CLEAR,NIGHT_CLEAR","Offshore,Offshore",2
5842041f4e65fad6a7708806,2024_02_09,36.95918781542251,-122.02489,Cowells,1,0.017066666666666674,0.28163333333333335,14,14,"NIGHT_CLEAR,NIGHT_CLEAR","Offshore,Cross-shore",2
5842041f4e65fad6a7708807,2024_02_09,36.95468082526536,-121.97234,Pleasure Point,3.5,1.0974333333333335,1.4059333333333335,14,14,"NIGHT_CLEAR,NIGHT_CLEAR","Offshore,Offshore",2
5842041f4e65fad6a770880a,2024_02_09,35.37815414378748,-120.86589,Morro Bay,4,1.4883333333333335,1.9096666666666668,14,14,"NIGHT_MOSTLY_CLEAR,NIGHT_CLEAR","Offshore,Onshore",2
5842041f4e65fad6a770880b,2024_02_09,36.95782765000708,-121.9672887511276,Jack's,3,0.4049666666666667,0.7095333333333333,14,14,"NIGHT_CLEAR,NIGHT_CLEAR","Offshore,Cross-shore",2
5842041f4e65fad6a770880d,2024_02_09,34.29982939936656,-119.3489016603669,Gold Coast Beachbreaks,2.5,0.33999999999999997,0.6399999999999999,14,14,"NIGHT_CLEAR,NIGHT_CLEAR","Cross-shore,Cross-shore",2
5842041f4e65fad6a7708811,2024_02_09,34.245076,-119.26799,Ventura Harbor,3,1.1743075,1.4246825,14,14,"NIGHT_CLEAR,NIGHT_CLEAR","Cross-shore,Offshore",2
5842041f4e65fad6a7708813,2024_02_09,34.051,-118.964,County Line,3,0.8228666666666666,1.1324333333333334,15,15,"NIGHT_CLEAR,NIGHT_CLEAR","Offshore,Offshore",2
5842041f4e65fad6a7708814,2024_02_09,34.37256264378892,-119.47797,Rincon,3,0.51,0.815,14,14,"NIGHT_CLEAR,NIGHT_CLEAR","Cross-shore,Cross-shore",2
5842041f4e65fad6a7708817,2024_02_09,34.03096101876324,-118.68109,Malibu Third Point,2.5,0.37,0.675,15,15,"NIGHT_CLEAR,NIGHT_CLEAR","Cross-shore,Cross-shore",2
5842041f4e65fad6a7708819,2024_02_09,33.984079047970035,-118.47381591796875,Venice Beach,2.5,0.9511999999999999,1.162,15,15,"NIGHT_MIST,NIGHT_MOSTLY_CLOUDY","Cross-shore,Offshore",2
5842041f4e65fad6a770881e,2024_02_09,34.037508438646746,-118.58339846155594,Topanga Beach,3,0.5216333333333333,0.8270333333333333,15,15,"NIGHT_CLEAR,NIGHT_CLEAR","Offshore,Offshore",2
5842041f4e65fad6a7708820,2024_02_09,33.73954373690184,-118.11414,Seal Beach Jetty,2.5,0.35,0.65,14,14,"NIGHT_FOG,NIGHT_MOSTLY_CLOUDY","Onshore,Cross-shore",2
5842041f4e65fad6a7708822,2024_02_09,33.72309983348433,-118.08078,Anderson Street,2,0.51,0.815,14,14,"NIGHT_MIST,NIGHT_MOSTLY_CLOUDY","Onshore,Offshore",2
5842041f4e65fad6a7708827,2024_02_09,33.65574085629463,-118.00397,Huntington Beach Pier Northside,2.5,1.1074000000000002,1.393,14,14,"NIGHT_FOG,NIGHT_CLEAR","Onshore,Offshore",2
5842041f4e65fad6a7708828,2024_02_09,34.272041739333,-119.2997646331,C St.,3,0.6941333333333333,0.9987,14,14,"NIGHT_CLEAR,NIGHT_CLEAR","Offshore,Offshore",2
5842041f4e65fad6a770882a,2024_02_09,33.61555743705257,-117.93676,Newport Lower Jetties,2.5,0.70305,1.0455,15,15,"NIGHT_FOG,NIGHT_MOSTLY_CLOUDY","Onshore,Offshore",2
5842041f4e65fad6a770882b,2024_02_09,33.5930302087,-117.88199,The Wedge,2,0.399695,0.8288,14,14,"NIGHT_FOG,NIGHT_MOSTLY_CLOUDY","Offshore,Offshore",2
5842041f4e65fad6a770882c,2024_02_09,33.60577342582,-117.9315376281,Newport Beach Pier,2,0.6455500000000001,0.9702,15,15,"NIGHT_FOG,NIGHT_CLEAR","Cross-shore,Cross-shore",2
5842041f4e65fad6a770882e,2024_02_09,33.475793399792984,-117.72291,Salt Creek,2.5,0.98740000000000006,1.238,15,15,"NIGHT_MOSTLY_CLOUDY,NIGHT_MOSTLY_CLOUDY","Offshore,Onshore",2
5842041f4e65fad6a7708830,2024_02_09,33.41800974113613,-117.61952,T-Street,2.5,0.7480500000000001,1.0405,16,16,"NIGHT_CLEAR,NIGHT_MOSTLY_CLOUDY","Offshore,Cross-shore",2
5842041f4e65fad6a7708832,2024_02_09,33.202391008646,-117.39475,Oceanside Harbor,2,0.68115,1.0042499999999999,16,16,"NIGHT_CLEAR,NIGHT_FOG","Onshore,Onshore",2
5842041f4e65fad6a7708835,2024_02_09,33.19477795952803,-117.38667,Oceanside Pier,2,0.99865,1.3205,16,16,"NIGHT_MOSTLY_CLOUDY,NIGHT_CLEAR","Onshore,Onshore",2
5842041f4e65fad6a7708837,2024_02_09,33.14948100706,-117.35029,Tamarack,2,0.52,0.8200000000000001,15,15,"NIGHT_BRIEF_SHOWERS,NIGHT_CLEAR","Onshore,Onshore",2
5842041f4e65fad6a7708839,2024_02_09,32.865777159358856,-117.25614295356122,Scripps,2,1.1674000000000002,1.4386,14,14,"NIGHT_MOSTLY_CLOUDY,NIGHT_CLEAR","Onshore,Onshore",2
5842041f4e65fad6a770883a,2024_02_09,32.813094,-117.27381,Birdrock,2.5,1.28,1.5499999999999998,15,15,"NIGHT_MOSTLY_CLOUDY,NIGHT_MOSTLY_CLOUDY","Onshore,Offshore",2
5842041f4e65fad6a770883b,2024_02_09,32.877231,-117.25303,Blacks,2,1.4505000000000001,1.82605,14,14,"NIGHT_MOSTLY_CLOUDY,NIGHT_CLEAR","Onshore,Onshore",2
5842041f4e65fad6a770883c,2024_02_09,32.82978974229765,-117.28161740727381,Windansea,2,1.3749,1.70265,14,14,"NIGHT_MOSTLY_CLOUDY,NIGHT_MOSTLY_CLOUDY","Onshore,Onshore",2
5842041f4e65fad6a770883d,2024_02_09,32.838278,-117.28396,Horseshoe,2.5,1.42,1.69,15,15,"NIGHT_MOSTLY_CLOUDY,NIGHT_MOSTLY_CLOUDY","Onshore,Offshore",2
5842041f4e65fad6a770883f,2024_02_09,32.75034717673179,-117.25337,Ocean Beach,2,1.513,1.88605,14,14,"NIGHT_MOSTLY_CLOUDY,NIGHT_MOSTLY_CLOUDY","Onshore,Onshore",2
5842041f4e65fad6a7708840,2024_02_09,32.73693,-117.25718,Sunset Cliffs,2,1.3450000000000002,1.605,15,15,"NIGHT_MOSTLY_CLOUDY,NIGHT_FOG","Onshore,Onshore",2
5842041f4e65fad6a7708841,2024_02_09,32.796582258728826,-117.25779,Pacific Beach,2.5,1.4267500000000002,1.7823,14,14,"NIGHT_MOSTLY_CLOUDY,NIGHT_CLEAR","Onshore,Offshore",2
5842041f4e65fad6a7708842,2024_02_09,32.776636,-117.25514,Mission Beach,2.5,1.32675,1.6673,14,14,"NIGHT_MOSTLY_CLOUDY,NIGHT_CLEAR","Onshore,Offshore",2
5842041f4e65fad6a7708844,2024_02_09,32.577195519016,-117.13475,Imperial Beach Pier,2,1.4649999999999999,1.75,15,15,"NIGHT_MOSTLY_CLOUDY,NIGHT_MOSTLY_CLOUDY","Onshore,Onshore",2
5842041f4e65fad6a770884a,2024_02_09,42.88678181061,-70.80843,Seabrook,2.5,0.46954,0.733655,5,4,"NIGHT_CLEAR,NIGHT_CLEAR","Offshore,Cross-shore",2
5842041f4e65fad6a770884e,2024_02_09,41.434181432898335,-71.45312118111178,Narragansett,2,0.135,0.44,7,6,"NIGHT_CLEAR,NIGHT_CLEAR","Onshore,Onshore",2
5842041f4e65fad6a7708850,2024_02_09,40.582703230722,-73.65247,Lincoln Blvd,1.42,0.30813333333333337,0.6129333333333333,7,6,"NIGHT_CLEAR,NIGHT_CLEAR","Onshore,Onshore",2
5842041f4e65fad6a7708852,2024_02_09,40.58342841721757,-73.81182,Rockaways,2,0.6116833333333334,1.04005,7,6,"NIGHT_CLEAR,NIGHT_CLEAR","Onshore,Onshore",2
5842041f4e65fad6a7708853,2024_02_09,40.330474,-73.9734,Monmouth Beach,1.5,0.38,0.685,6,5,"NIGHT_CLEAR,NIGHT_CLEAR","Cross-shore,Cross-shore",2
5842041f4e65fad6a7708856,2024_02_09,40.113,-74.028,Manasquan Inlet,2,0.9069,1.2513666666666667,6,5,"NIGHT_CLEAR,NIGHT_CLEAR","Cross-shore,Cross-shore",2
5842041f4e65fad6a7708857,2024_02_09,39.941519877445664,-74.06829,Casino Pier,2,0.9102333333333333,1.3937666666666666,6,5,"NIGHT_CLEAR,NIGHT_CLEAR","Cross-shore,Cross-shore",2
5842041f4e65fad6a7708858,2024_02_09,39.28223089949212,-74.55766,North End OC,1.42,0.91065,1.2154500000000001,6,5,"NIGHT_CLEAR,NIGHT_CLOUDY","Onshore,Onshore",2
5842041f4e65fad6a770885b,2024_02_09,39.65080599934257,-74.17146,Ship Bottom,1.42,0.9048166666666666,1.4037666666666666,6,5,"NIGHT_CLEAR,NIGHT_CLEAR","Onshore,Cross-shore",2
5842041f4e65fad6a7708863,2024_02_09,36.034151543144,-75.66791,Third Street,3.5,1.125,1.43,8,5,"NIGHT_MIST,NIGHT_MIST","Cross-shore,Offshore",2
5842041f4e65fad6a7708867,2024_02_09,35.605833221351425,-75.46303,S-Turns,3.17,1.2096166666666668,1.7457166666666666,10,8,"NIGHT_MIST,NIGHT_MIST","Onshore,Offshore",2
5842041f4e65fad6a770886d,2024_02_09,38.338461,-75.08117,Ocean City Boardwalk,1.42,0.9039833333333334,1.3565999999999998,7,5,"NIGHT_MIST,NIGHT_MIST","Cross-shore,Cross-shore",2
5842041f4e65fad6a770886f,2024_02_09,29.844757212379562,-81.26136,A St.,3,0.89,1.19,13,13,"NIGHT_MIST,NIGHT_MIST","Onshore,Offshore",2
5842041f4e65fad6a7708871,2024_02_09,29.069417851135093,-80.90824,New Smyrna Beach,2,1.5365,2.0866,17,15,"NIGHT_MIST,NIGHT_MIST","Cross-shore,Cross-shore",2
5842041f4e65fad6a7708872,2024_02_09,28.367707417566,-80.60171,Cocoa Beach Pier,2.58,0.6918166666666666,1.2222833333333334,18,17,"NIGHT_MIST,NIGHT_OVERCAST","Offshore,Onshore",2
5842041f4e65fad6a7708873,2024_02_09,28.091782738658846,-80.56479,Indialantic,3,1.46,1.665,19,18,"NIGHT_CLEAR,NIGHT_CLEAR","Onshore,Onshore",2
5842041f4e65fad6a7708876,2024_02_09,27.25392904143517,-80.19455,Jensen Beach,2.58,1.295,1.57,22,21,"NIGHT_BRIEF_SHOWERS,NIGHT_OVERCAST","Onshore,Onshore",2
5842041f4e65fad6a7708879,2024_02_09,26.76346795333825,-80.0360655784607,Reef Road,2,1.24,1.54,24,22,"NIGHT_MOSTLY_CLOUDY,NIGHT_OVERCAST","Onshore,Onshore",2
5842041f4e65fad6a770887c,2024_02_09,26.336499228484,-80.06956100463,Boca Raton Inlet,1,0.53,0.835,24,22,"NIGHT_MOSTLY_CLOUDY,NIGHT_MOSTLY_CLOUDY","Onshore,Onshore",2
5842041f4e65fad6a770887d,2024_02_09,26.31719311695038,-80.07452525176168,Deerfield Beach Pier,0.915,-0.031992916666666676,0.37288333333333334,24,23,"NIGHT_MOSTLY_CLOUDY,NIGHT_BRIEF_SHOWERS","Onshore,Onshore",2
5842041f4e65fad6a7708881,2024_02_09,30.20276320866628,-85.85626528676136,"Spyglass Dr., Panama City",1,0,0.28,16,14,"NIGHT_MIST,NIGHT_MIST","Onshore,Cross-shore",2
5842041f4e65fad6a7708884,2024_02_09,33.39000832738053,-117.59852,Cottons,3,0.7867999999999999,1.053,16,16,"NIGHT_CLEAR,NIGHT_MOSTLY_CLOUDY","Offshore,Offshore",2
5842041f4e65fad6a7708885,2024_02_09,33.359416282661,-117.54167901405711,Trails,3,0.71,1.01,15,15,"NIGHT_MOSTLY_CLEAR,NIGHT_MOSTLY_CLOUDY","Offshore,Offshore",2
5842041f4e65fad6a7708886,2024_02_09,33.38042605929805,-117.58332,Middles,3,0.6287,0.93805,16,16,"NIGHT_CLEAR,NIGHT_MOSTLY_CLOUDY","Offshore,Offshore",2
5842041f4e65fad6a7708887,2024_02_09,33.38445596302903,-117.59445,Upper Trestles,3,0.80055,1.093,16,16,"NIGHT_CLEAR,NIGHT_MOSTLY_CLOUDY","Offshore,Offshore",2
5842041f4e65fad6a7708889,2024_02_09,28.944414,-95.28883,Surfside,2,0.850595,1.3290600000000001,14,14,"NIGHT_MIST,NIGHT_MIST","Onshore,Onshore",2
5842041f4e65fad6a770888a,2024_02_09,33.38143999849023,-117.58843,Lower Trestles,3.5,0.82055,1.1249,16,16,"NIGHT_CLEAR,NIGHT_MOSTLY_CLOUDY","Offshore,Offshore",2
5842041f4e65fad6a770888b,2024_02_09,33.379622288757,-117.57894,Church,3,0.62495,0.9493,16,16,"NIGHT_CLEAR,NIGHT_MOSTLY_CLOUDY","Offshore,Offshore",2
5842041f4e65fad6a770888d,2024_02_09,21.679,-158.042,Sunset Beach,3.5,1.25,1.56,26,25,"NIGHT_MOSTLY_CLEAR,NIGHT_SHOWERS","Cross-shore,Offshore",2
5842041f4e65fad6a770888e,2024_02_09,21.670550036401,-158.0482,Rocky Point,3,1.36,1.6099999999999999,26,25,"NIGHT_SHOWERS,NIGHT_BRIEF_SHOWERS","Cross-shore,Offshore",2
5842041f4e65fad6a770888f,2024_02_09,21.668,-158.05,Chambers,3,1.2650000000000001,1.5,24,24,"NIGHT_SHOWERS,NIGHT_BRIEF_SHOWERS","Cross-shore,Offshore",2
5842041f4e65fad6a7708890,2024_02_09,21.66522,-158.0526,Pipeline,2,1.3,1.55,26,25,"NIGHT_SHOWERS,NIGHT_BRIEF_SHOWERS","Cross-shore,Offshore",2
5842041f4e65fad6a7708891,2024_02_09,21.665,-158.054,Backdoor,3.5,1.3,1.55,26,25,"NIGHT_SHOWERS,NIGHT_BRIEF_SHOWERS","Cross-shore,Offshore",2
5842041f4e65fad6a7708892,2024_02_09,21.662,-158.057,Rockpile,3.5,1.38,1.6400000000000001,24,24,"NIGHT_SHOWERS,NIGHT_BRIEF_SHOWERS","Cross-shore,Offshore",2
5842041f4e65fad6a7708893,2024_02_09,21.65870453806827,-158.06058,Log Cabins,3,1.045,1.295,24,24,"NIGHT_SHOWERS,NIGHT_BRIEF_SHOWERS","Cross-shore,Offshore",2
5842041f4e65fad6a7708894,2024_02_09,21.66203493640557,-158.05495,Off-The-Wall,3.5,1.26,1.565,24,24,"NIGHT_SHOWERS,NIGHT_BRIEF_SHOWERS","Cross-shore,Offshore",2
5842041f4e65fad6a7708895,2024_02_09,21.643,-158.067,Waimea Bay,NA,1.32,1.5550000000000002,26,25,"NIGHT_SHOWERS,NIGHT_BRIEF_SHOWERS","Offshore,Offshore",2
5842041f4e65fad6a7708896,2024_02_09,21.622,-158.087,Hultin's,4,1.405,1.645,26,25,"NIGHT_MOSTLY_CLEAR,NIGHT_MOSTLY_CLEAR","Offshore,Offshore",2
5842041f4e65fad6a7708897,2024_02_09,21.623,-158.085,Jocko's,3,1.19,1.4,24,24,"NIGHT_MOSTLY_CLEAR,NIGHT_MOSTLY_CLEAR","Onshore,Cross-shore",2
5842041f4e65fad6a7708898,2024_02_09,21.62,-158.088,Laniakea,3,1.13,1.375,26,25,"NIGHT_MOSTLY_CLEAR,NIGHT_MOSTLY_CLEAR","Cross-shore,Offshore",2
5842041f4e65fad6a7708899,2024_02_09,21.625,-158.083,Chun's,4,1.27,1.505,24,24,"NIGHT_MOSTLY_CLEAR,NIGHT_MOSTLY_CLEAR","Offshore,Offshore",2
5842041f4e65fad6a770889c,2024_02_09,21.286357895152136,-157.8515,South Shore - Ala Moana Park,2,0.46499999999999997,0.775,24,24,"NIGHT_CLEAR,NIGHT_MOSTLY_CLOUDY","Offshore,Offshore",2
5842041f4e65fad6a770889d,2024_02_09,19.606,-155.978,Banyans,3,0.915,1.0950000000000002,26,25,"NIGHT_CLEAR,NIGHT_MOSTLY_CLEAR","Cross-shore,Offshore",2
5842041f4e65fad6a770889e,2024_02_09,20.029,-155.831,Kawaihae,2,0.4444,0.72003,25,25,"NIGHT_MOSTLY_CLEAR,NIGHT_CLEAR","Offshore,Offshore",2
5842041f4e65fad6a770889f,2024_02_09,33.07541383424675,-117.3105,Grandview,3,1.0699999999999998,1.2799999999999998,15,15,"NIGHT_MOSTLY_CLOUDY,NIGHT_BRIEF_SHOWERS","Offshore,Offshore",2
5842041f4e65fad6a77088a0,2024_02_09,33.065267421296596,-117.30577,Beacons,3,1.0899999999999999,1.275,15,15,"NIGHT_MOSTLY_CLOUDY,NIGHT_BRIEF_SHOWERS","Offshore,Offshore",2
5842041f4e65fad6a77088a2,2024_02_09,21.252,-157.805,Diamond Head,3,0.890895,1.2109,26,25,"NIGHT_CLEAR,NIGHT_MOSTLY_CLOUDY","Cross-shore,Cross-shore",2
5842041f4e65fad6a77088a3,2024_02_09,33.04694255008896,-117.29966,Moonlight State Beach,3,1.0150000000000001,1.2650000000000001,15,15,"NIGHT_CLEAR,NIGHT_MOSTLY_CLOUDY","Offshore,Offshore",2
5842041f4e65fad6a77088a5,2024_02_09,33.08685865930869,-117.31532,Ponto,3,1.085,1.305,15,15,"NIGHT_MOSTLY_CLOUDY,NIGHT_BRIEF_SHOWERS","Offshore,Offshore",2
5842041f4e65fad6a77088a6,2024_02_09,33.130343587871906,-117.33667796442558,Terra Mar Point,2,0.6598999999999999,1.03485,16,16,"NIGHT_MOSTLY_CLOUDY,NIGHT_MOSTLY_CLOUDY","Onshore,Onshore",2
5842041f4e65fad6a77088af,2024_02_09,32.95916304183685,-117.26963,Del Mar,3,1.145,1.42,15,15,"NIGHT_MOSTLY_CLOUDY,NIGHT_CLEAR","Offshore,Offshore",2
5842041f4e65fad6a77088b0,2024_02_09,32.97527261243354,-117.2721061331305,Del Mar Rivermouth,3,1.29,1.5699999999999998,15,15,"NIGHT_MOSTLY_CLOUDY,NIGHT_CLEAR","Offshore,Offshore",2
5842041f4e65fad6a77088b1,2024_02_09,33.01352178146273,-117.28219,Cardiff Reef,1.5,1.4005,1.7167,16,16,"NIGHT_CLEAR,NIGHT_MOSTLY_CLOUDY","Onshore,Onshore",2
5842041f4e65fad6a77088b3,2024_02_09,33.00211185876003,-117.2811,Seaside Reef,1.5,1.3017500000000002,1.6092,16,16,"NIGHT_MOSTLY_CLOUDY,NIGHT_CLEAR","Onshore,Onshore",2
5842041f4e65fad6a77088b4,2024_02_09,33.0341859796287,-117.29552,Swami's,3,1.123,1.3841999999999999,16,16,"NIGHT_CLEAR,NIGHT_MOSTLY_CLOUDY","Offshore,Offshore",2
5842041f4e65fad6a77088b7,2024_02_09,33.04569760260221,-117.2994,D Street,3,1.005,1.31,15,15,"NIGHT_CLEAR,NIGHT_MOSTLY_CLOUDY","Offshore,Offshore",2
5842041f4e65fad6a77088b8,2024_02_09,33.02090944350196,-117.28535,San Elijo State Beach,2,0.8154999999999999,1.11045,16,16,"NIGHT_CLEAR,NIGHT_MOSTLY_CLOUDY","Onshore,Onshore",2
5842041f4e65fad6a77088c2,2024_02_09,32.80662846492798,-117.2688764333725,PB Point,3,1.245,1.49,15,15,"NIGHT_MOSTLY_CLOUDY,NIGHT_MOSTLY_CLOUDY","Onshore,Cross-shore",2
5842041f4e65fad6a77088c4,2024_02_09,32.8060476681448,-117.26479,Old Man's at Tourmaline,2.5,0.865,1.165,15,15,"NIGHT_MOSTLY_CLOUDY,NIGHT_MOSTLY_CLOUDY","Onshore,Cross-shore",2
5842041f4e65fad6a77088cb,2024_02_09,32.557056711256,-117.1327445020322,Tijuana Slough,2,0.94,1.125,15,15,"NIGHT_MOSTLY_CLOUDY,NIGHT_MOSTLY_CLOUDY","Onshore,Onshore",2
5842041f4e65fad6a77088cc,2024_02_09,32.863,-117.257,La Jolla Shores,2,1.045,1.3,15,15,"NIGHT_MOSTLY_CLOUDY,NIGHT_CLEAR","Onshore,Onshore",2
5842041f4e65fad6a77088ce,2024_02_09,32.67443657790586,-117.17421316238693,Coronado Beach,2,0.565,0.87,15,15,"NIGHT_OVERCAST,NIGHT_CLEAR","Cross-shore,Cross-shore",2
5842041f4e65fad6a77088cf,2024_02_09,33.40484417640326,-117.60749,San Clemente State Beach,2,0.755,1.06,15,15,"NIGHT_CLEAR,NIGHT_MOSTLY_CLOUDY","Offshore,Onshore",2
5842041f4e65fad6a77088d5,2024_02_09,33.4663042002114,-117.7168352817103,Strands,2.5,0.9749,1.233,15,15,"NIGHT_MOSTLY_CLOUDY,NIGHT_MOSTLY_CLOUDY","Offshore,Onshore",2
5842041f4e65fad6a77088d7,2024_02_09,33.4609858001748,-117.68535,Doheny State Beach,2,0.04999999999999999,0.36060000000000003,16,16,"NIGHT_MIST,NIGHT_MOSTLY_CLOUDY","Offshore,Offshore",2
5842041f4e65fad6a77088dc,2024_02_09,33.50894790083017,-117.75243,Aliso Creek,2,0.625,0.9299999999999999,14,14,"NIGHT_CLEAR,NIGHT_MOSTLY_CLOUDY","Offshore,Onshore",2
5842041f4e65fad6a77088dd,2024_02_09,33.5326591767067,-117.77764,Brooks Street,2.5,0.485,0.7849999999999999,14,14,"NIGHT_CLEAR,NIGHT_MOSTLY_CLOUDY","Cross-shore,Cross-shore",2
5842041f4e65fad6a77088de,2024_02_09,33.53561225884637,-117.7799,Thalia Street,2,0.53,0.835,14,14,"NIGHT_CLEAR,NIGHT_MOSTLY_CLOUDY","Cross-shore,Cross-shore",2
5842041f4e65fad6a77088e3,2024_02_09,33.54268310353641,-117.7916,Rockpile,2,0.49,0.8,14,14,"NIGHT_CLEAR,NIGHT_MOSTLY_CLOUDY","Cross-shore,Cross-shore",2
5842041f4e65fad6a77088e4,2024_02_09,33.7368459504689,-118.10342,"Seal Beach Pier, Southside",2,0.15,0.44999999999999996,14,14,"NIGHT_FOG,NIGHT_MOSTLY_CLOUDY","Onshore,Offshore",2
5842041f4e65fad6a77088e5,2024_02_09,33.73933701820233,-118.117,Ray Bay,2,0.10500000000000001,0.41000000000000003,14,14,"NIGHT_FOG,NIGHT_MOSTLY_CLOUDY","Onshore,Cross-shore",2
5842041f4e65fad6a77088e7,2024_02_09,33.728733,-118.08982,Surfside,2.5,0.38,0.685,14,14,"NIGHT_MIST,NIGHT_MOSTLY_CLOUDY","Onshore,Offshore",2
5842041f4e65fad6a77088e8,2024_02_09,33.68760321488161,-118.04236,Bolsa Chica State Beach,2.5,0.9718,1.20925,14,14,"NIGHT_FOG,NIGHT_CLEAR","Offshore,Onshore",2
5842041f4e65fad6a77088ea,2024_02_09,33.66704400178788,-118.0192,North HB Streets,2.5,0.94615,1.1905000000000001,14,14,"NIGHT_CLEAR,NIGHT_CLEAR","Offshore,Cross-shore",2
5842041f4e65fad6a77088ed,2024_02_09,33.65475101379567,-118.00291,Huntington Beach Pier Southside,2.5,1.0711499999999998,1.28675,14,14,"NIGHT_FOG,NIGHT_CLEAR","Onshore,Offshore",2
5842041f4e65fad6a77088ee,2024_02_09,33.62778647706099,-117.95939,River Jetties,2,0.9055500000000001,1.15395,15,15,"NIGHT_FOG,NIGHT_MOSTLY_CLOUDY","Onshore,Offshore",2
5842041f4e65fad6a77088f2,2024_02_09,33.605165797643664,-117.92500376701355,Newport Point,2.5,0.44499999999999995,0.755,14,14,"NIGHT_FOG,NIGHT_CLEAR","Cross-shore,Cross-shore",2
5842041f4e65fad6a77088f3,2024_02_09,33.58982984726977,-117.87713,Corona del Mar,1,0.145955,0.22805,14,14,"NIGHT_FOG,NIGHT_CLEAR","Offshore,Cross-shore",2
5842041f4e65fad6a77088f7,2024_02_09,34.00750300824362,-118.4971783496269,Santa Monica Pier,2.5,0.5449999999999999,0.8500000000000001,14,14,"NIGHT_MIST,NIGHT_CLEAR","Offshore,Offshore",2
5842041f4e65fad6a77088ff,2024_02_09,33.94070283102945,-118.44321,Dockweiler Beach,2.5,1.0720891666666668,1.2873466666666666,15,15,"NIGHT_MIST,NIGHT_MOSTLY_CLOUDY","Offshore,Onshore",2
5842041f4e65fad6a7708900,2024_02_09,33.9231846937237,-118.4341465777908,Shitpipe,2.5,0.8791,1.2022,15,15,"NIGHT_CLEAR,NIGHT_MOSTLY_CLOUDY","Offshore,Onshore",2
5842041f4e65fad6a7708902,2024_02_09,33.9108528052242,-118.4279133138721,Hammerland,2.5,0.8691,1.2076,15,15,"NIGHT_CLEAR,NIGHT_MOSTLY_CLOUDY","Offshore,Onshore",2
5842041f4e65fad6a7708904,2024_02_09,33.87201368173932,-118.4075151286262,Hermosa Beach,2.5,0.8762000000000001,1.207,15,15,"NIGHT_MOSTLY_CLEAR,NIGHT_CLOUDY","Cross-shore,Onshore",2
5842041f4e65fad6a7708906,2024_02_09,33.90129336911256,-118.42184,El Porto,2.5,1.3324333333333334,1.6342666666666665,15,15,"NIGHT_MOSTLY_CLEAR,NIGHT_CLOUDY","Offshore,Onshore",2
5842041f4e65fad6a7708907,2024_02_09,33.87963506431794,-118.41102,Manhattan Beach Pier,2.5,1.2257666666666667,1.4769999999999999,15,15,"NIGHT_MOSTLY_CLEAR,NIGHT_CLOUDY","Offshore,Onshore",2
5842041f4e65fad6a7708914,2024_02_09,34.038053387863464,-118.5532,Sunset Point,2,0.345,0.645,15,15,"NIGHT_MOSTLY_CLEAR,NIGHT_CLEAR","Offshore,Offshore",2
5842041f4e65fad6a7708920,2024_02_09,33.80930828074364,-118.3933198342649,Haggerty's,1.5,0.29400000000000004,0.474,14,14,"NIGHT_CLEAR,NIGHT_MOSTLY_CLOUDY","Onshore,Onshore",2
5842041f4e65fad6a7708921,2024_02_09,33.85044519861206,-118.40048,Redondo Breakwater,2.5,1.135,1.345,14,14,"NIGHT_MOSTLY_CLEAR,NIGHT_CLOUDY","Cross-shore,Onshore",2
5842041f4e65fad6a7708927,2024_02_09,33.70877301002487,-118.2840112858389,Cabrillo Beach,1.5,0.185,0.49,14,14,"NIGHT_MOSTLY_CLOUDY,NIGHT_CLEAR","Cross-shore,Offshore",2
5842041f4e65fad6a770892c,2024_02_09,33.77209986806257,-118.4268428476672,Lunada Bay,1.5,1.13,1.27,14,14,"NIGHT_MOSTLY_CLOUDY,NIGHT_MOSTLY_CLOUDY","Onshore,Onshore",2
5842041f4e65fad6a770892d,2024_02_09,33.79294656286144,-118.4070316699825,PV Cove,2,0.91899,1.172625,14,14,"NIGHT_CLEAR,NIGHT_MOSTLY_CLOUDY","Onshore,Onshore",2
5842041f4e65fad6a7708930,2024_02_09,34.03944902292561,-118.57539,Chart House,2,0.265,0.565,15,15,"NIGHT_CLEAR,NIGHT_MOSTLY_CLEAR","Offshore,Offshore",2
5842041f4e65fad6a7708936,2024_02_09,34.0016731994772,-118.80456,Point Dume,1.5,0.18123333333333333,0.4808,15,15,"NIGHT_CLEAR,NIGHT_CLEAR","Cross-shore,Offshore",2
5842041f4e65fad6a7708937,2024_02_09,34.02587527588963,-118.7554939066114,Latigo Point,2,0.105,0.41500000000000004,15,15,"NIGHT_CLEAR,NIGHT_CLEAR","Cross-shore,Offshore",2
5842041f4e65fad6a770893f,2024_02_09,34.043762,-118.93294,Leo Carrillo,2,0.5195333333333334,0.8190999999999999,15,15,"NIGHT_CLEAR,NIGHT_CLEAR","Offshore,Offshore",2
5842041f4e65fad6a7708941,2024_02_09,36.69388179265737,-121.81289,Marina State Beach,3,1.85,2.215,13,13,"NIGHT_FOG,NIGHT_CLEAR","Offshore,Offshore",2
5842041f4e65fad6a7708944,2024_02_09,34.34145077331085,-119.416999352654,Stanley's,3,0.41000000000000003,0.71,14,14,"NIGHT_CLEAR,NIGHT_CLEAR","Offshore,Offshore",2
5842041f4e65fad6a7708945,2024_02_09,34.35113017313915,-119.426921498899,Oil Piers,2.5,0.32,0.63,14,14,"NIGHT_CLEAR,NIGHT_CLEAR","Offshore,Offshore",2
5842041f4e65fad6a770894c,2024_02_09,34.17876333306018,-119.2399483564372,Oxnard,3,0.695,1,15,15,"NIGHT_MIST,NIGHT_MIST","Offshore,Offshore",2
5842041f4e65fad6a7708957,2024_02_09,34.31720331100517,-119.3882324751725,Pitas Point,3,0.405,0.7050000000000001,14,14,"NIGHT_CLEAR,NIGHT_CLEAR","Offshore,Offshore",2
5842041f4e65fad6a7708959,2024_02_09,34.27851754384724,-119.316202617226,Emma Wood,3,0.39,0.69,14,14,"NIGHT_CLEAR,NIGHT_CLEAR","Offshore,Offshore",2
5842041f4e65fad6a770895a,2024_02_09,34.35513640390276,-119.4400589884255,Mussel Shoals (aka Little Rincon),3,0.445,0.75,14,14,"NIGHT_CLEAR,NIGHT_CLEAR","Cross-shore,Cross-shore",2
5842041f4e65fad6a770895e,2024_02_09,34.28991757054902,-119.3366646794652,Summer Beach,2,0.25,0.5549999999999999,14,14,"NIGHT_CLEAR,NIGHT_CLEAR","Offshore,Offshore",2
5842041f4e65fad6a770895f,2024_02_09,34.30897456105926,-119.3582501170116,Solimar,2.5,0.28500000000000003,0.595,14,14,"NIGHT_CLEAR,NIGHT_CLEAR","Offshore,Offshore",2
5842041f4e65fad6a7708960,2024_02_09,34.39836265281686,-119.70213,Leadbetter Point,1.5,0.01,0.315,14,14,"NIGHT_CLEAR,NIGHT_CLEAR","Offshore,Offshore",2
5842041f4e65fad6a7708961,2024_02_09,34.46052293893899,-120.07328,Refugio,1.5,0.05,0.355,14,14,"NIGHT_CLEAR,NIGHT_CLEAR","Offshore,Offshore",2
5842041f4e65fad6a7708962,2024_02_09,34.40754276777778,-119.87639,Devereux,3,0.38,0.685,14,14,"NIGHT_CLEAR,NIGHT_CLEAR","Offshore,Offshore",2
5842041f4e65fad6a7708963,2024_02_09,34.27479983305182,-119.3133222656776,Ventura Overhead,3,0.405,0.71,14,14,"NIGHT_CLEAR,NIGHT_CLEAR","Offshore,Offshore",2
5842041f4e65fad6a7708964,2024_02_09,34.41023236011655,-119.88261,Sands,2,0.45999999999999996,0.765,14,14,"NIGHT_CLEAR,NIGHT_CLEAR","Cross-shore,Offshore",2
5842041f4e65fad6a7708966,2024_02_09,34.40450193869233,-119.68752,Sandspit,1,0,0.21000000000000002,14,14,"NIGHT_CLEAR,NIGHT_CLEAR","Offshore,Offshore",2
5842041f4e65fad6a7708967,2024_02_09,34.41549098334453,-119.6375149840203,Hammond's,1.5,0.015,0.31,14,14,"NIGHT_CLEAR,NIGHT_CLEAR","Offshore,Offshore",2
5842041f4e65fad6a7708968,2024_02_09,34.45759322742309,-120.0220251867315,El Capitan,2,0.15500000000000003,0.46499999999999997,14,14,"NIGHT_CLEAR,NIGHT_CLEAR","Offshore,Offshore",2
5842041f4e65fad6a770896c,2024_02_09,34.405117655616,-119.84317,Campus Point,2,0.135,0.44,14,14,"NIGHT_CLEAR,NIGHT_CLEAR","Offshore,Offshore",2
5842041f4e65fad6a770896e,2024_02_09,34.38935162233354,-119.51955,Carpinteria State Beach,2,0.26,0.565,14,14,"NIGHT_CLEAR,NIGHT_CLEAR","Offshore,Offshore",2
5842041f4e65fad6a770896f,2024_02_09,37.48296565175612,-122.4549300127824,Half Moon Bay,4,1.1400000000000001,1.4100000000000001,13,13,"NIGHT_CLEAR,NIGHT_CLEAR","Offshore,Offshore",2
5842041f4e65fad6a7708970,2024_02_09,37.499,-122.471,Princeton Jetty,4,1.33,1.595,13,13,"NIGHT_CLEAR,NIGHT_CLEAR","Offshore,Offshore",2
5842041f4e65fad6a7708972,2024_02_09,37.35699547365155,-122.4069534707252,Tunitas Creek,3.5,2.42,2.885,13,13,"NIGHT_CLEAR,NIGHT_CLEAR","Offshore,Offshore",2
5842041f4e65fad6a7708974,2024_02_09,37.54735589428842,-122.5161090212687,Montara,3.5,1.775,2.115,13,13,"NIGHT_CLEAR,NIGHT_CLEAR","Offshore,Offshore",2
5842041f4e65fad6a7708975,2024_02_09,34.3869373724559,-119.5142334209018,Tarpits,2,0.245,0.55,14,14,"NIGHT_CLEAR,NIGHT_CLEAR","Offshore,Offshore",2
5842041f4e65fad6a7708976,2024_02_09,37.59881852720143,-122.50463,Pacifica / Linda Mar,3,0.633,0.9936666666666667,14,14,"NIGHT_CLEAR,NIGHT_CLEAR","Offshore,Offshore",2
5842041f4e65fad6a7708978,2024_02_09,37.59883098461164,-122.5143843582282,Pedro Point,3.5,1.835,2.19,14,14,"NIGHT_CLEAR,NIGHT_CLEAR","Offshore,Offshore",2
5842041f4e65fad6a7708979,2024_02_09,37.61081996647663,-122.4973287570634,Rockaway,3.5,1.755,2.0949999999999998,13,13,"NIGHT_CLEAR,NIGHT_CLEAR","Offshore,Offshore",2
5842041f4e65fad6a770897a,2024_02_09,37.809987384424446,-122.4751353263855,Fort Point,3.5,1.075,1.335,13,13,"NIGHT_CLEAR,NIGHT_CLEAR","Cross-shore,Offshore",2
5842041f4e65fad6a770897c,2024_02_09,37.63422542967464,-122.4951,Sharp Park,3,1.8199999999999998,2.175,14,14,"NIGHT_MIST,NIGHT_CLEAR","Offshore,Offshore",2
5842041f4e65fad6a770897d,2024_02_09,37.27313605072472,-122.4127387912554,Pescadero,3,2.19,2.615,13,13,"NIGHT_CLEAR,NIGHT_CLEAR","Offshore,Offshore",2
5842041f4e65fad6a770897e,2024_02_09,37.18140279972666,-122.3926685899327,Pigeon Point,4,2.375,2.84,13,13,"NIGHT_CLEAR,NIGHT_CLEAR","Offshore,Offshore",2
5842041f4e65fad6a770897f,2024_02_09,37.11578956919415,-122.314699271291,Ano Nuevo,4,1.495,1.7850000000000001,13,13,"NIGHT_CLEAR,NIGHT_CLEAR","Offshore,Cross-shore",2
5842041f4e65fad6a7708980,2024_02_09,37.09520872681598,-122.2805474707768,Waddell Creek,3.5,1.8900000000000001,2.26,13,13,"NIGHT_CLEAR,NIGHT_CLEAR","Offshore,Offshore",2
5842041f4e65fad6a7708981,2024_02_09,36.96512852130351,-122.1252825495626,Four Mile,4,1.82,2.175,13,13,"NIGHT_CLEAR,NIGHT_CLEAR","Offshore,Offshore",2
5842041f4e65fad6a7708982,2024_02_09,37.04122807048655,-122.2333684729756,Scott Creek,3.5,1.775,2.12,13,13,"NIGHT_CLEAR,NIGHT_CLEAR","Offshore,Offshore",2
5842041f4e65fad6a7708983,2024_02_09,37.02350229387179,-122.21908,Davenport,4,1.9249999999999998,2.3,13,13,"NIGHT_CLEAR,NIGHT_CLEAR","Offshore,Offshore",2
5842041f4e65fad6a7708986,2024_02_09,36.94905295955728,-122.0611823912244,Natural Bridges,4,1.32,1.5750000000000002,13,13,"NIGHT_CLEAR,NIGHT_CLEAR","Offshore,Offshore",2
5842041f4e65fad6a7708987,2024_02_09,36.95154854910425,-122.0420693940968,Mitchell's Cove,3,0.9199999999999999,1.105,13,13,"NIGHT_CLEAR,NIGHT_CLEAR","Offshore,Offshore",2
5842041f4e65fad6a770898a,2024_02_09,36.9572312370203,-121.98177,26th Ave,3.5,1.315,1.565,13,13,"NIGHT_MIST,NIGHT_CLEAR","Offshore,Offshore",2
5842041f4e65fad6a770898e,2024_02_09,36.91899972819882,-121.85536,Manresa,3.5,1.56,1.865,13,13,"NIGHT_CLEAR,NIGHT_CLEAR","Offshore,Offshore",2
5842041f4e65fad6a7708990,2024_02_09,34.45747731928454,-120.34242,The Ranch,2.5,0.405,0.715,14,14,"NIGHT_CLEAR,NIGHT_CLEAR","Offshore,Offshore",2
5842041f4e65fad6a7708991,2024_02_09,34.50875036590315,-120.50348,Jalama,3,1.105,1.375,14,14,"NIGHT_CLEAR,NIGHT_CLEAR","Cross-shore,Cross-shore",2
5842041f4e65fad6a7708996,2024_02_09,34.68700870220497,-120.6111611019887,Surf Beach,2,2.86,3.42,14,14,"NIGHT_CLEAR,NIGHT_MOSTLY_CLOUDY","Onshore,Onshore",2
5842041f4e65fad6a770899c,2024_02_09,35.5730538161116,-121.1143362345574,Moonstone,3.5,2.035,2.435,14,14,"NIGHT_CLEAR,NIGHT_CLEAR","Offshore,Offshore",2
5842041f4e65fad6a770899d,2024_02_09,35.61533716776573,-121.1502053073914,Pico Creek,3,1.47,1.75,14,14,"NIGHT_CLEAR,NIGHT_CLEAR","Offshore,Offshore",2
5842041f4e65fad6a770899e,2024_02_09,35.56829031927379,-121.1120653023953,Santa Rosa Creek,3,2.035,2.435,14,14,"NIGHT_CLEAR,NIGHT_MOSTLY_CLEAR","Offshore,Offshore",2
5842041f4e65fad6a77089a2,2024_02_09,35.44820114936284,-120.90715,"Cayucos Pier, Southside ",3,0.91,1.08,14,14,"NIGHT_CLEAR,NIGHT_MOSTLY_CLEAR","Offshore,Offshore",2
5842041f4e65fad6a77089a4,2024_02_09,35.30143372628852,-120.877819239902,Cable Landing,3.5,2.91,3.475,14,14,"NIGHT_CLEAR,NIGHT_CLEAR","Offshore,Offshore",2
5842041f4e65fad6a77089a9,2024_02_09,35.61269103500222,-121.1480725356606,San Simeon,3,1.057,1.2635,14,14,"NIGHT_MOSTLY_CLEAR,NIGHT_MOSTLY_CLEAR","Offshore,Offshore",2
5842041f4e65fad6a77089ab,2024_02_09,35.1775325966252,-120.7341125142258,Avila Beach,1,0,0.255,14,14,"NIGHT_FOG,NIGHT_MOSTLY_CLEAR","Offshore,Offshore",2
5842041f4e65fad6a77089ac,2024_02_09,35.13877877884115,-120.64535,Pismo Beach Pier,3,1.1910833333333333,1.5569166666666665,14,14,"NIGHT_FOG,NIGHT_CLEAR","Cross-shore,Cross-shore",2
5842041f4e65fad6a77089ad,2024_02_09,46.8907710233147,-124.12964,Westport/Olympic Peninsula,2,1.395,1.67,10,10,"NIGHT_CLOUDY,NIGHT_CLOUDY","Onshore,Onshore",2
5842041f4e65fad6a77089ae,2024_02_09,46.35185177248545,-124.06747,Long Beach Peninsula,2,1.935,2.32,10,10,"NIGHT_CLOUDY,NIGHT_CLEAR","Onshore,Onshore",2
5842041f4e65fad6a77089af,2024_02_09,47.90649175554033,-124.6370864743483,La Push,3,1.665,1.975,10,10,"NIGHT_CLOUDY,NIGHT_CLOUDY","Cross-shore,Cross-shore",2
5842041f4e65fad6a77089b0,2024_02_09,42.04368239985442,-124.26828,Brookings Jetty,4,1.041445,1.6272600000000002,12,12,"NIGHT_CLEAR,NIGHT_CLEAR","Offshore,Offshore",2
5842041f4e65fad6a77089b1,2024_02_09,42.74071837900346,-124.4983727491047,Port Orford,3,1.0550000000000002,1.31,12,12,"NIGHT_CLEAR,NIGHT_MOSTLY_CLOUDY","Offshore,Offshore",2
5842041f4e65fad6a77089b2,2024_02_09,44.01532689312291,-124.13865,Florence South Jetty,3,2.085,2.42,11,11,"NIGHT_MOSTLY_CLOUDY,NIGHT_MOSTLY_CLOUDY","Onshore,Onshore",2
5842041f4e65fad6a77089b3,2024_02_09,42.41812540774362,-124.42945,Gold Beach South Jetty,3.5,1.675,1.975,12,12,"NIGHT_CLEAR,NIGHT_CLEAR","Offshore,Offshore",2
5842041f4e65fad6a77089b4,2024_02_09,44.95857310226525,-124.0219017690976,Lincoln City,2.5,2.045,2.38,11,11,"NIGHT_MOSTLY_CLOUDY,NIGHT_CLEAR","Onshore,Onshore",2
5842041f4e65fad6a77089b5,2024_02_09,44.63792761362982,-124.0657,Newport,2.5,2.185,2.535,11,11,"NIGHT_MOSTLY_CLOUDY,NIGHT_CLEAR","Onshore,Onshore",2
5842041f4e65fad6a77089b6,2024_02_09,45.61468496266301,-123.94643,Rockaway Beach,2.5,2.0949999999999998,2.435,11,11,"NIGHT_MOSTLY_CLOUDY,NIGHT_CLEAR","Onshore,Onshore",2
5842041f4e65fad6a77089b7,2024_02_09,45.20252914186085,-123.96975,Pacific City,3,1.7650000000000001,2.05,11,11,"NIGHT_MOSTLY_CLOUDY,NIGHT_DRIZZLE","Onshore,Onshore",2
5842041f4e65fad6a77089b8,2024_02_09,45.88179930310263,-123.96681,Cannon Beach,2.5,2.02,2.3499999999999996,11,11,"NIGHT_CLEAR,NIGHT_CLOUDY","Onshore,Onshore",2
5842041f4e65fad6a77089ba,2024_02_09,40.02528754746774,-124.06372,Shelter Cove,3,0.60661,0.94783,12,12,"NIGHT_CLEAR,NIGHT_CLEAR","Offshore,Offshore",2
5842041f4e65fad6a77089bb,2024_02_09,40.76816197136951,-124.24248,Humboldt Harbor Entrance,2,2.3600000000000003,2.8200000000000003,12,12,"NIGHT_MOSTLY_CLOUDY,NIGHT_CLEAR","Cross-shore,Cross-shore",2
5842041f4e65fad6a77089bc,2024_02_09,40.76684246920174,-124.23107,North Jetty,2,2.825,3.335,12,12,"NIGHT_CLEAR,NIGHT_CLEAR","Cross-shore,Cross-shore",2
5842041f4e65fad6a77089bd,2024_02_09,41.02731183893966,-124.1149972888982,Westhaven,3,2.965,3.545,12,12,"NIGHT_CLEAR,NIGHT_CLEAR","Offshore,Offshore",2
5842041f4e65fad6a77089be,2024_02_09,41.13016238153297,-124.16466,Sue-meg,3,2.2,2.56,12,12,"NIGHT_CLEAR,NIGHT_CLEAR","Cross-shore,Cross-shore",2
5842041f4e65fad6a77089bf,2024_02_09,37.8289474958188,-122.5376795097543,Fort Cronkite/Rodeo Beach,4,1.94,2.26,13,13,"NIGHT_CLEAR,NIGHT_CLEAR","Offshore,Offshore",2
5842041f4e65fad6a77089c0,2024_02_09,41.74415759876137,-124.1771718063073,South Beach CA,3,1.005,1.2,12,12,"NIGHT_CLEAR,NIGHT_CLEAR","Offshore,Offshore",2
5842041f4e65fad6a77089c1,2024_02_09,37.89801283969752,-122.64519,Stinson Beach,3,0.47,0.775,13,13,"NIGHT_BRIEF_SHOWERS_POSSIBLE,NIGHT_MIST","Offshore,Cross-shore",2
5842041f4e65fad6a77089c2,2024_02_09,37.90514516176495,-122.68151,Bolinas,3,0.50619,0.7909200000000001,13,13,"NIGHT_CLEAR,NIGHT_CLEAR","Cross-shore,Onshore",2
5842041f4e65fad6a77089c3,2024_02_09,38.04892513158693,-122.9892494965416,Point Reyes (north),3,2.895,3.465,13,13,"NIGHT_MOSTLY_CLEAR,NIGHT_CLEAR","Offshore,Offshore",2
5842041f4e65fad6a77089c6,2024_02_09,38.31088736605785,-123.0496777333731,Doran Beach,2,0.28,0.585,13,13,"NIGHT_MOSTLY_CLEAR,NIGHT_CLEAR","Onshore,Onshore",2
5842041f4e65fad6a77089c7,2024_02_09,38.45077228660809,-123.13008,Russian Rivermouth,3,2.02,2.415,13,13,"NIGHT_MOSTLY_CLEAR,NIGHT_CLEAR","Cross-shore,Onshore",2
5842041f4e65fad6a77089c8,2024_02_09,38.35329968518107,-123.06906,Salmon Creek,3,1.9949999999999999,2.385,13,13,"NIGHT_CLEAR,NIGHT_CLEAR","Cross-shore,Onshore",2
5842041f4e65fad6a77089c9,2024_02_09,38.6845180197959,-123.4322714291198,Black Point Beach,4,1.275,1.525,13,13,"NIGHT_CLEAR,NIGHT_CLEAR","Cross-shore,Offshore",2
5842041f4e65fad6a77089ca,2024_02_09,43.251076,-70.59144,Ogunquit,2.5,0.35,0.655,5,4,"NIGHT_CLEAR,NIGHT_MIST","Offshore,Cross-shore",2
5842041f4e65fad6a77089cb,2024_02_09,41.362631366305415,-71.48006772942608,Point Judith,1.915,0.5565166666666668,0.8592333333333333,7,6,"NIGHT_CLEAR,NIGHT_CLEAR","Offshore,Cross-shore",2
5842041f4e65fad6a77089cd,2024_02_09,41.422678090954726,-71.45413,Monahan's - Narragansett,2,0.283365,0.442755,5,5,"NIGHT_CLEAR,NIGHT_CLEAR","Onshore,Cross-shore",2
5842041f4e65fad6a77089ce,2024_02_09,41.469,-71.293,Ruggles - Newport,2,0.27241000000000004,0.425645,5,5,"NIGHT_CLEAR,NIGHT_CLEAR","Onshore,Onshore",2
5842041f4e65fad6a77089cf,2024_02_09,43.175394,-70.606351,Short Sands Beach,2,0.275,0.585,4,4,"NIGHT_MIST,NIGHT_CLEAR","Offshore,Cross-shore",2
5842041f4e65fad6a77089d0,2024_02_09,41.487408,-71.29017,First Beach,2,0.01,0.32,5,5,"NIGHT_CLEAR,NIGHT_CLEAR","Onshore,Onshore",2
5842041f4e65fad6a77089d1,2024_02_09,42.27916830233153,-70.86498,Nantasket Beach,3,0.36,0.665,5,4,"NIGHT_MIST,NIGHT_CLEAR","Offshore,Offshore",2
5842041f4e65fad6a77089d2,2024_02_09,41.817,-69.935,Cape Cod,3,0.41,0.715,5,5,"NIGHT_MIST,NIGHT_CLEAR","Onshore,Offshore",2
5842041f4e65fad6a77089d3,2024_02_09,42.22055448975661,-70.70634873403819,Egypt Beach,2,0.4,0.71,4,4,"NIGHT_CLEAR,NIGHT_CLEAR","Cross-shore,Cross-shore",2
5842041f4e65fad6a77089d4,2024_02_09,41.48739647744607,-71.25723,Second Beach,1,0.179015,0.27971,7,6,"NIGHT_CLEAR,NIGHT_CLEAR","Onshore,Onshore",2
5842041f4e65fad6a77089d5,2024_02_09,42.964,-70.769,Fox Hill,2,0.21,0.51,5,4,"NIGHT_CLEAR,NIGHT_CLEAR","Offshore,Onshore",2
5842041f4e65fad6a77089d6,2024_02_09,42.991359,-70.75149,Straws Point,2,0.16,0.47,5,4,"NIGHT_CLEAR,NIGHT_CLEAR","Cross-shore,Onshore",2
5842041f4e65fad6a77089d7,2024_02_09,42.946,-70.786,Plaice Cove,2,0.21,0.51,5,4,"NIGHT_CLEAR,NIGHT_CLEAR","Offshore,Cross-shore",2
5842041f4e65fad6a77089d9,2024_02_09,42.911574,-70.80831,The Main Beach,2.915,0.6063725,1.0300108333333333,6,4,"NIGHT_CLEAR,NIGHT_CLEAR","Cross-shore,Onshore",2
5842041f4e65fad6a77089da,2024_02_09,42.97583846220203,-70.764,Sawyer's Beach,2,0.1,0.41,5,4,"NIGHT_CLEAR,NIGHT_CLEAR","Offshore,Onshore",2
5842041f4e65fad6a77089db,2024_02_09,42.97,-70.77,Rye on the Rocks / 5-0's,2.915,0.6089525,1.0305175,6,4,"NIGHT_CLEAR,NIGHT_CLEAR","Offshore,Onshore",2
5842041f4e65fad6a77089dc,2024_02_09,43.55902946610303,-70.27795,Higgins Beach,2,0.29605000000000004,0.6087666666666667,5,4,"NIGHT_MIST,NIGHT_CLEAR","Onshore,Onshore",2
5842041f4e65fad6a77089dd,2024_02_09,43.302676,-70.5652,Wells Beach,2,0.195,0.5,5,4,"NIGHT_MOSTLY_CLEAR,NIGHT_CLEAR","Offshore,Cross-shore",2
5842041f4e65fad6a77089de,2024_02_09,43.545359,-70.30479,Scarborough Beach State Park,2,0.382155,0.5971150000000001,5,4,"NIGHT_MOSTLY_CLEAR,NIGHT_CLEAR","Cross-shore,Onshore",2
5842041f4e65fad6a77089df,2024_02_09,43.514481,-70.372146,Old Orchard Beach,3,0.6087666666666667,0.91315,5,4,"NIGHT_MIST,NIGHT_CLEAR","Cross-shore,Onshore",2
5842041f4e65fad6a77089e0,2024_02_09,43.34711,-70.48165,Gooch's Beach,2,0.13,0.435,5,4,"NIGHT_MIST,NIGHT_CLEAR","Onshore,Onshore",2
5842041f4e65fad6a77089e2,2024_02_09,40.58433,-73.62953,Lido Beach,2,0.6116833333333334,1.0392166666666665,7,6,"NIGHT_CLEAR,NIGHT_CLEAR","Onshore,Onshore",2
5842041f4e65fad6a77089e3,2024_02_09,43.163135,-70.61689,Long Sands Beach,3,0.6092541666666667,0.9138491666666666,5,4,"NIGHT_CLEAR,NIGHT_CLEAR","Onshore,Onshore",2
5842041f4e65fad6a77089e4,2024_02_09,40.61695351251805,-73.39376,Gilgo Beach,1,0.13,0.43,8,6,"NIGHT_CLEAR,NIGHT_CLEAR","Onshore,Onshore",2
5842041f4e65fad6a77089e5,2024_02_09,40.62530081928036,-73.23827,Robert Moses,1,0.155,0.455,5,5,"NIGHT_MIST,NIGHT_CLEAR","Onshore,Onshore",2
5842041f4e65fad6a77089e6,2024_02_09,40.64313317632791,-73.15727,Fire Island,1,0.14500000000000002,0.455,5,5,"NIGHT_CLEAR,NIGHT_CLEAR","Onshore,Onshore",2
5842041f4e65fad6a77089e8,2024_02_09,40.76653118828782,-72.74579619372713,Cupsogue,2,0.35,0.65,5,5,"NIGHT_CLEAR,NIGHT_CLEAR","Onshore,Onshore",2
5842041f4e65fad6a77089e9,2024_02_09,42.9376373334092,-70.79141,The Wall ,2.915,0.6060708333333333,1.0295370833333335,6,4,"NIGHT_CLEAR,NIGHT_CLEAR","Offshore,Cross-shore",2
5842041f4e65fad6a77089ea,2024_02_09,40.887088,-72.33856,Flys,2,0.31,0.62,5,5,"NIGHT_CLEAR,NIGHT_CLEAR","Onshore,Onshore",2
5842041f4e65fad6a77089eb,2024_02_09,41.0389266436591,-71.91068529316958,Trailer Park,2,0.854875,1.16365,8,6,"NIGHT_CLEAR,NIGHT_CLEAR","Onshore,Onshore",2
5842041f4e65fad6a77089ec,2024_02_09,41.039505402729105,-71.9142,Ditch Plains,2,0.42717,0.667455,5,5,"NIGHT_CLEAR,NIGHT_CLEAR","Onshore,Onshore",2
5842041f4e65fad6a77089ee,2024_02_09,40.57633275206492,-73.56895305108567,"West End, Jones Beach",1,0.20500000000000002,0.51,7,6,"NIGHT_CLEAR,NIGHT_CLEAR","Onshore,Onshore",2
5842041f4e65fad6a77089f1,2024_02_09,41.038286691230795,-71.91991567611694,Poles,2,0.855955,1.160755,8,6,"NIGHT_CLEAR,NIGHT_CLEAR","Onshore,Onshore",2
5842041f4e65fad6a77089f3,2024_02_09,40.84077769766295,-72.47989493724765,The Bowl,1,0.29,0.6,5,5,"NIGHT_CLEAR,NIGHT_CLEAR","Onshore,Onshore",2
5842041f4e65fad6a77089f4,2024_02_09,40.94235535243154,-72.19286,Main Beach,1.5,0.29,0.59,14,13,"NIGHT_CLEAR,NIGHT_CLEAR","Onshore,Onshore",2
5842041f4e65fad6a77089f5,2024_02_09,40.58270702399518,-73.67251552079799,Laurelton Blvd.,1.42,0.3095654166666667,0.6159570833333334,7,6,"NIGHT_CLEAR,NIGHT_CLEAR","Onshore,Onshore",2
5842041f4e65fad6a77089f6,2024_02_09,41.033752854071416,-71.93695522488403,Terrace,2,0.8559,1.1686166666666669,8,6,"NIGHT_CLEAR,NIGHT_CLEAR","Onshore,Onshore",2
5842041f4e65fad6a77089f7,2024_02_09,40.83372943645748,-72.50426173210144,K Road,2,0.33,0.63,5,5,"NIGHT_CLEAR,NIGHT_CLEAR","Onshore,Onshore",2
5842041f4e65fad6a77089f8,2024_02_09,40.58456099581507,-73.80730032920837,84th Street,2,0.6129333333333333,1.0383833333333334,7,6,"NIGHT_CLEAR,NIGHT_CLEAR","Onshore,Onshore",2
5842041f4e65fad6a77089fa,2024_02_09,40.1319,-74.02788,Sea Girt,2,0.405,0.715,6,5,"NIGHT_CLEAR,NIGHT_CLEAR","Cross-shore,Cross-shore",2
5842041f4e65fad6a77089fb,2024_02_09,40.54698301868125,-73.9268,Breezy Point,1,0.20500000000000002,0.51,5,5,"NIGHT_CLEAR,NIGHT_CLEAR","Onshore,Onshore",2
5842041f4e65fad6a77089fc,2024_02_09,40.152504,-74.021383,Spring Lake,2,0.45,0.755,6,5,"NIGHT_CLEAR,NIGHT_CLEAR","Cross-shore,Offshore",2
5842041f4e65fad6a77089fd,2024_02_09,40.591277,-73.770792,30th - 39th Streets,1,0.08499999999999999,0.39,7,6,"NIGHT_CLEAR,NIGHT_CLEAR","Onshore,Onshore",2
5842041f4e65fad6a77089fe,2024_02_09,40.18834955871439,-74.00860982500222,Avon,2,0.51,0.815,6,5,"NIGHT_CLEAR,NIGHT_CLEAR","Cross-shore,Offshore",2
5842041f4e65fad6a77089ff,2024_02_09,40.1974229100932,-74.00650533798255,Bradley Beach,2,0.485,0.79,6,5,"NIGHT_CLEAR,NIGHT_CLEAR","Cross-shore,Offshore",2
5842041f4e65fad6a7708a01,2024_02_09,40.17202,-74.01503,"16th Ave., Belmar",2,0.6689333333333334,1.0889666666666666,6,5,"NIGHT_CLEAR,NIGHT_CLEAR","Cross-shore,Cross-shore",2
5842041f4e65fad6a7708a02,2024_02_09,40.217443,-73.99982,Asbury Park,2,0.435,0.735,6,5,"NIGHT_CLEAR,NIGHT_CLEAR","Cross-shore,Offshore",2
5842041f4e65fad6a7708a03,2024_02_09,40.229841,-73.996782,Loch Arbour and Deal,2,0.375,0.675,6,5,"NIGHT_CLEAR,NIGHT_CLEAR","Cross-shore,Cross-shore",2
5842041f4e65fad6a7708a05,2024_02_09,40.41754,-73.97935,Sandy Hook,1,0.06,0.365,5,5,"NIGHT_CLEAR,NIGHT_CLEAR","Onshore,Cross-shore",2
5842041f4e65fad6a7708a06,2024_02_09,39.36353,-74.40873,Crystals,1.5,0.53994,0.84365,6,5,"NIGHT_CLEAR,NIGHT_CLEAR","Onshore,Onshore",2
5842041f4e65fad6a7708a07,2024_02_09,39.31443,-74.51863,32nd Street,1.335,0.9134929166666667,1.2177904166666669,6,5,"NIGHT_CLEAR,NIGHT_CLOUDY","Onshore,Onshore",2
5842041f4e65fad6a7708a08,2024_02_09,39.327688,-74.49524,Margate Pier Northside,1.335,0.9134929166666667,1.2177904166666669,6,5,"NIGHT_CLEAR,NIGHT_CLOUDY","Onshore,Onshore",2
5842041f4e65fad6a7708a09,2024_02_09,39.336276,-74.47782,Ventnor Pier,1.5,0.54462,0.85097,6,5,"NIGHT_CLEAR,NIGHT_CLOUDY","Onshore,Onshore",2
5842041f4e65fad6a7708a0a,2024_02_09,39.35929751441085,-74.41683,States Avenue,1.5,0.53994,0.84365,6,5,"NIGHT_CLEAR,NIGHT_CLEAR","Onshore,Onshore",2
5842041f4e65fad6a7708a0b,2024_02_09,39.37274173278517,-74.40454,Brigantine Jetty,1.5,0.39788,0.62168,6,5,"NIGHT_CLEAR,NIGHT_CLEAR","Onshore,Onshore",2
5842041f4e65fad6a7708a0c,2024_02_09,39.356505,-74.42263,South Carolina Avenue,1.5,0.39788,0.62168,6,5,"NIGHT_CLEAR,NIGHT_CLEAR","Onshore,Onshore",2
5842041f4e65fad6a7708a0d,2024_02_09,39.413485,-74.35476,14th Street North,1.5,0.44,0.745,6,5,"NIGHT_CLEAR,NIGHT_CLEAR","Onshore,Cross-shore",2
5842041f4e65fad6a7708a0e,2024_02_09,39.531319,-74.263252,The Wooden Jetty,1.335,0.9119754166666667,1.4009254166666665,6,5,"NIGHT_CLEAR,NIGHT_CLEAR","Onshore,Onshore",2
5842041f4e65fad6a7708a0f,2024_02_09,39.552472,-74.24344,Holyoke,1.335,0.9455766666666667,1.45206625,6,5,"NIGHT_CLEAR,NIGHT_CLEAR","Onshore,Cross-shore",2
5842041f4e65fad6a7708a10,2024_02_09,39.692364,-74.14068,Hudson Ave.,1.335,0.9089833333333333,1.40335,6,5,"NIGHT_CLEAR,NIGHT_CLEAR","Onshore,Onshore",2
5842041f4e65fad6a7708a11,2024_02_09,39.79614,-74.09248,Island Beach State Park,1,0.605,0.91,6,5,"NIGHT_CLEAR,NIGHT_CLEAR","Cross-shore,Cross-shore",2
5842041f4e65fad6a7708a12,2024_02_09,39.91813588078152,-74.07527,Seaside Park,1,0.47,0.775,6,5,"NIGHT_CLEAR,NIGHT_CLEAR","Cross-shore,Cross-shore",2
5842041f4e65fad6a7708a14,2024_02_09,39.946638,-74.06884,Seaside Heights,1,0.62,0.925,6,5,"NIGHT_CLEAR,NIGHT_CLEAR","Cross-shore,Cross-shore",2
5842041f4e65fad6a7708a15,2024_02_09,39.95745637606704,-74.06736,Ortley Beach,1,0.435,0.74,6,5,"NIGHT_CLEAR,NIGHT_CLEAR","Cross-shore,Cross-shore",2
5842041f4e65fad6a7708a16,2024_02_09,39.98313468342945,-74.06265685577506,Lavallette,1,0.485,0.79,6,5,"NIGHT_CLEAR,NIGHT_CLEAR","Cross-shore,Cross-shore",2
5842041f4e65fad6a7708a17,2024_02_09,40.0699319967757,-74.04144910856634,Bay Head,1,0.485,0.79,6,5,"NIGHT_CLEAR,NIGHT_CLEAR","Cross-shore,Cross-shore",2
5842041f4e65fad6a7708a18,2024_02_09,40.094041,-74.034859,Jenkinson's,2,0.46499999999999997,0.775,6,5,"NIGHT_CLEAR,NIGHT_CLEAR","Cross-shore,Cross-shore",2
5842041f4e65fad6a7708a1a,2024_02_09,38.148058,-75.17704,Assateague,1,0.74,1.04,6,5,"NIGHT_MIST,NIGHT_MIST","Onshore,Cross-shore",2
5842041f4e65fad6a7708a1b,2024_02_09,38.33889038664497,-75.08017670566352,North End to Ocean City Inlet,2,0.715,1.02,6,5,"NIGHT_MIST,NIGHT_MIST","Cross-shore,Offshore",2
5842041f4e65fad6a7708a1c,2024_02_09,38.603993,-75.06271,Indian River Inlet,2,0.7312449999999999,1.14257,6,5,"NIGHT_CLEAR,NIGHT_CLEAR","Cross-shore,Cross-shore",2
5842041f4e65fad6a7708a1d,2024_02_09,38.460477,-75.052069,Fenwick Island,2,0.405,0.715,6,5,"NIGHT_CLEAR,NIGHT_CLEAR","Offshore,Offshore",2
5842041f4e65fad6a7708a1e,2024_02_09,38.538767,-75.05619,Bethany Beach,2.5,0.73114,1.14241,6,5,"NIGHT_CLEAR,NIGHT_MIST","Cross-shore,Cross-shore",2
5842041f4e65fad6a7708a1f,2024_02_09,38.697657,-75.075951,Dewey Beach,2,0.535,0.845,6,5,"NIGHT_CLEAR,NIGHT_MIST","Cross-shore,Cross-shore",2
5842041f4e65fad6a7708a20,2024_02_09,38.75034741676525,-75.08194,Gordons Pond,1,0.461235,0.720675,6,5,"NIGHT_CLEAR,NIGHT_CLEAR","Onshore,Cross-shore",2
5842041f4e65fad6a7708a21,2024_02_09,38.767837,-75.082841,Naval Jetties,2,0.45999999999999996,0.76,6,5,"NIGHT_CLEAR,NIGHT_CLEAR","Cross-shore,Offshore",2
5842041f4e65fad6a7708a22,2024_02_09,36.81735875786576,-75.96624,Camp Pendleton,2.58,0.965,1.15,8,6,"NIGHT_MIST,NIGHT_MIST","Cross-shore,Cross-shore",2
5842041f4e65fad6a7708a23,2024_02_09,36.9102212316428,-75.98732471466064,North End,2.415,0.475,0.78,8,6,"NIGHT_CLEAR,NIGHT_CLEAR","Cross-shore,Cross-shore",2
5842041f4e65fad6a7708a24,2024_02_09,36.737117517621314,-75.93923719853362,Sandbridge Beach,2,0.63,0.94,8,6,"NIGHT_MIST,NIGHT_CLEAR","Cross-shore,Cross-shore",2
5842041f4e65fad6a7708a26,2024_02_09,36.818257440557794,-75.96666,Croatan to Pendleton,2.58,0.53,0.835,8,6,"NIGHT_MIST,NIGHT_MIST","Cross-shore,Cross-shore",2
5842041f4e65fad6a7708a27,2024_02_09,36.84318777204769,-75.9719,South End,2,0.52,0.83,8,6,"NIGHT_MIST,NIGHT_MIST","Cross-shore,Cross-shore",2
5842041f4e65fad6a7708a28,2024_02_09,37.08612627584661,-75.976121638199,Fishermans Island,1,0.09,0.214,7,7,"NIGHT_MIST,NIGHT_CLEAR","Onshore,Onshore",2
5842041f4e65fad6a7708a38,2024_02_09,35.254619418229026,-75.52074,Cape Hatteras Lighthouse,2.58,1.2030470833333333,1.9559604166666666,11,9,"NIGHT_MIST,NIGHT_CLEAR","Onshore,Cross-shore",2
5842041f4e65fad6a7708a3a,2024_02_09,35.54572934093336,-75.46477,Waves and Salvo,3,1.38,1.685,10,8,"NIGHT_MIST,NIGHT_MIST","Onshore,Cross-shore",2
5842041f4e65fad6a7708a3b,2024_02_09,35.22565892751075,-75.63606,Frisco,2,0.268,0.512,12,11,"NIGHT_MIST,NIGHT_CLOUDY","Cross-shore,Onshore",2
5842041f4e65fad6a7708a3c,2024_02_09,35.13086,-75.90591,Ocracoke,2,0.455615,0.711905,9,9,"NIGHT_MIST,NIGHT_CLOUDY","Onshore,Cross-shore",2
5842041f4e65fad6a7708a3d,2024_02_09,35.34721340158342,-75.50084,Avon Pier,2.415,1.5077500000000001,2.1144333333333334,11,8,"NIGHT_MIST,NIGHT_MIST","Onshore,Cross-shore",2
5842041f4e65fad6a7708a3f,2024_02_09,35.71680821253768,-75.49243,Pea Island,3,1.205,1.375,6,6,"NIGHT_MIST,NIGHT_MIST","Cross-shore,Offshore",2
5842041f4e65fad6a7708a40,2024_02_09,35.97427620657821,-75.62984,Nags Head Pier,2.58,1.1700333333333335,1.5971666666666668,8,5,"NIGHT_MIST,NIGHT_CLEAR","Offshore,Offshore",2
5842041f4e65fad6a7708a41,2024_02_09,36.0439998039079,-75.67288,Avalon Pier,3,1.1150000000000002,1.415,8,5,"NIGHT_MIST,NIGHT_MIST","Cross-shore,Offshore",2
5842041f4e65fad6a7708a42,2024_02_09,36.03043116489792,-75.66413,First Street,2.58,1.1896166666666668,1.5946666666666667,8,5,"NIGHT_MIST,NIGHT_MIST","Cross-shore,Offshore",2
5842041f4e65fad6a7708a43,2024_02_09,36.06829910590498,-75.6899,Old Station/Laundromats,3,0.905,1.205,8,5,"NIGHT_MIST,NIGHT_MIST","Cross-shore,Offshore",2
5842041f4e65fad6a7708a44,2024_02_09,36.10126676607491,-75.71107462163894,Kitty Hawk Pier,2.58,1.2146166666666667,1.6046666666666667,8,5,"NIGHT_MIST,NIGHT_MIST","Cross-shore,Offshore",2
5842041f4e65fad6a7708a45,2024_02_09,36.18220630068973,-75.75013580649097,Duck Pier,2.5,0.675,0.98,8,5,"NIGHT_MIST,NIGHT_CLEAR","Cross-shore,Offshore",2
5842041f4e65fad6a7708a46,2024_02_09,36.37660668125033,-75.82409701687456,Corolla,2,0.615,0.915,8,5,"NIGHT_BRIEF_SHOWERS_POSSIBLE,NIGHT_MIST","Cross-shore,Cross-shore",2
5842041f4e65fad6a7708a47,2024_02_09,33.90373404124834,-78.08241431707907,Oak Island,1,0,0.3,11,11,"NIGHT_CLEAR,NIGHT_CLEAR","Onshore,Cross-shore",2
5842041f4e65fad6a7708a48,2024_02_09,33.91108837766468,-78.29653,South Brunswick Beaches,1.5,0.19516,0.30494,11,11,"NIGHT_MIST,NIGHT_CLEAR","Onshore,Cross-shore",2
5842041f4e65fad6a7708a49,2024_02_09,34.05683595651973,-77.88128,Carolina Beach Pier,3,0.5717666666666668,0.8805666666666666,11,9,"NIGHT_MIST,NIGHT_MIST","Cross-shore,Offshore",2
5842041f4e65fad6a7708a4a,2024_02_09,33.96841191816696,-77.9180242565498,Fort Fisher,3,0.61385,0.9097333333333333,11,9,"NIGHT_MIST,NIGHT_MIST","Cross-shore,Offshore",2
5842041f4e65fad6a7708a4b,2024_02_09,34.46776662988774,-77.47083191635772,Topsail Beach,2,0.25,0.555,11,10,"NIGHT_CLEAR,NIGHT_CLEAR","Onshore,Cross-shore",2
5842041f4e65fad6a7708a4c,2024_02_09,34.69270354752445,-76.82854854446575,Iron Steamer,1,-0.006249999999999999,0.28855,12,11,"NIGHT_CLOUDY,NIGHT_CLOUDY","Onshore,Onshore",2
5842041f4e65fad6a7708a4f,2024_02_09,30.85132684893727,-81.42283496231143,Cumberland Island,3,0.9450000000000001,1.255,13,13,"NIGHT_CLEAR,NIGHT_MIST","Cross-shore,Offshore",2
5842041f4e65fad6a7708a50,2024_02_09,34.686741128540874,-76.47516712138378,Cape Lookout National Seashore,3,0.665,0.97,13,13,"NIGHT_CLOUDY,NIGHT_CLEAR","Onshore,Cross-shore",2
5842041f4e65fad6a7708a51,2024_02_09,31.10585419260024,-81.40422767604812,Jekyll Island,3,0.515,0.8200000000000001,13,13,"NIGHT_MIST,NIGHT_MIST","Onshore,Offshore",2
5842041f4e65fad6a7708a52,2024_02_09,31.16212806376699,-81.32512426500224,Harbor Marker Buoys,3,0.5,0.8,13,13,"NIGHT_MIST,NIGHT_MIST","Onshore,Offshore",2
5842041f4e65fad6a7708a53,2024_02_09,31.20076299997009,-81.32629,Sea Island,3,0.6699999999999999,0.97,13,13,"NIGHT_MIST,NIGHT_CLEAR","Cross-shore,Offshore",2
5842041f4e65fad6a7708a54,2024_02_09,31.13553222995767,-81.38457634790909,St. Simons Island,3,0.55,0.85,13,13,"NIGHT_MIST,NIGHT_CLEAR","Cross-shore,Offshore",2
5842041f4e65fad6a7708a55,2024_02_09,31.33550077186516,-81.28383377408417,Wolf Island,3,0.32999999999999996,0.635,12,12,"NIGHT_MIST,NIGHT_MIST","Onshore,Offshore",2
5842041f4e65fad6a7708a56,2024_02_09,31.2704493877174,-81.27324039152315,Little St. Simons Island,3,0.44,0.75,12,12,"NIGHT_MIST,NIGHT_MIST","Onshore,Cross-shore",2
5842041f4e65fad6a7708a57,2024_02_09,31.39261761368919,-81.26190520231917,Sapelo Island,3,0.42000000000000004,0.73,12,12,"NIGHT_CLEAR,NIGHT_CLEAR","Onshore,Offshore",2
5842041f4e65fad6a7708a58,2024_02_09,34.42458783809001,-77.54492,Surf City Pier,3,0.335,0.64,11,10,"NIGHT_MIST,NIGHT_MIST","Cross-shore,Cross-shore",2
5842041f4e65fad6a7708a59,2024_02_09,31.4231993614213,-81.24725340591522,Cabretta Island,3,0.32999999999999996,0.635,12,12,"NIGHT_CLEAR,NIGHT_MOSTLY_CLOUDY","Onshore,Offshore",2
5842041f4e65fad6a7708a5a,2024_02_09,31.46684389030369,-81.2100056410468,Blackbeard Island,3,0.42000000000000004,0.73,12,12,"NIGHT_CLEAR,NIGHT_MIST","Onshore,Offshore",2
5842041f4e65fad6a7708a5b,2024_02_09,31.85953587631629,-80.99031310336719,Wassaw Island/South End,1,0,0.3,12,12,"NIGHT_MOSTLY_CLOUDY,NIGHT_MIST","Onshore,Offshore",2
5842041f4e65fad6a7708a5c,2024_02_09,31.62535662342983,-81.13328352167974,St. Catherines Island,3,0.42500000000000004,0.73,12,12,"NIGHT_CLEAR,NIGHT_MIST","Onshore,Offshore",2
5842041f4e65fad6a7708a5d,2024_02_09,31.76502169596568,-81.07655443806622,Ossabaw Island,2.5,0.36,0.6699999999999999,12,12,"NIGHT_MOSTLY_CLOUDY,NIGHT_MIST","Onshore,Offshore",2
5842041f4e65fad6a7708a5e,2024_02_09,31.90593619092352,-80.93589231700857,Wassaw Island/North End,3,0.46499999999999997,0.77,12,12,"NIGHT_MOSTLY_CLOUDY,NIGHT_MIST","Cross-shore,Offshore",2
5842041f4e65fad6a7708a5f,2024_02_09,31.96738675414547,-80.86977980706155,Little Tybee Island,3,0.355,0.66,12,12,"NIGHT_MIST,NIGHT_MIST","Onshore,Offshore",2
5842041f4e65fad6a7708a60,2024_02_09,31.9812255780179,-80.84773973467009,South Tybee Sandbars,2,0.27,0.5800000000000001,12,12,"NIGHT_MIST,NIGHT_MIST","Onshore,Cross-shore",2
5842041f4e65fad6a7708a61,2024_02_09,32.01226,-80.83983,Sugar Shack,2,0.195,0.5,12,12,"NIGHT_MOSTLY_CLOUDY,NIGHT_CLEAR","Onshore,Onshore",2
5842041f4e65fad6a7708a62,2024_02_09,31.98722842396969,-80.84773,18th St. Jetty,2,0.5699099999999999,0.890485,12,12,"NIGHT_MOSTLY_CLOUDY,NIGHT_CLEAR","Onshore,Cross-shore",2
5842041f4e65fad6a7708a64,2024_02_09,34.013473721006676,-77.8991,"Alabama Ave., Kure Beach",3,0.385,0.69,11,11,"NIGHT_MIST,NIGHT_MIST","Cross-shore,Cross-shore",2
5842041f4e65fad6a7708a65,2024_02_09,34.20859853336924,-77.79293,"C Street, Wrightsville Beach",3,0.5717666666666668,0.8776499999999999,11,9,"NIGHT_MIST,NIGHT_CLEAR","Cross-shore,Offshore",2
5842041f4e65fad6a7708a66,2024_02_09,32.831,-79.71,Dewees Island,2,0.26,0.5700000000000001,11,11,"NIGHT_CLEAR,NIGHT_CLEAR","Onshore,Offshore",2
5842041f4e65fad6a7708a67,2024_02_09,33.82924423172106,-78.62813,Cherry Grove Pier,2,0.3002166666666667,0.6050166666666668,11,11,"NIGHT_CLOUDY,NIGHT_CLEAR","Onshore,Cross-shore",2
5842041f4e65fad6a7708a69,2024_02_09,34.27197439666496,-77.74050223196774,Figure Eight and Shell Islands,3,0.5709333333333333,0.8718166666666667,11,9,"NIGHT_MIST,NIGHT_MIST","Cross-shore,Cross-shore",2
5842041f4e65fad6a7708a6b,2024_02_09,33.49041958261793,-79.07666070599386,North End,2,0.13,0.43,11,11,"NIGHT_CLEAR,NIGHT_CLEAR","Onshore,Offshore",2
5842041f4e65fad6a7708a6c,2024_02_09,33.39537062495087,-79.13835037835189,The South End,2,0.14,0.445,11,11,"NIGHT_CLEAR,NIGHT_CLEAR","Onshore,Offshore",2
5842041f4e65fad6a7708a6d,2024_02_09,33.29001727666697,-79.17190003352977,North Island,2,0.2,0.5,11,11,"NIGHT_CLEAR,NIGHT_CLEAR","Cross-shore,Offshore",2
5842041f4e65fad6a7708a6e,2024_02_09,32.90929771158952,-79.57810400297359,Bull Island,2,0.15000000000000002,0.45999999999999996,11,11,"NIGHT_CLEAR,NIGHT_CLEAR","Onshore,Offshore",2
5842041f4e65fad6a7708a6f,2024_02_09,31.99153112815895,-80.84543050470074,Tybee Island Pier,1,0,0.25,12,12,"NIGHT_MIST,NIGHT_CLEAR","Onshore,Cross-shore",2
5842041f4e65fad6a7708a70,2024_02_09,33.03478144356316,-79.35021028265125,Cape Romain,2,0.275,0.58,12,12,"NIGHT_CLEAR,NIGHT_CLEAR","Onshore,Offshore",2
5842041f4e65fad6a7708a71,2024_02_09,33.43231073271028,-79.11789,The Pier,2,0.41994,0.65615,11,11,"NIGHT_CLEAR,NIGHT_CLEAR","Onshore,Offshore",2
5842041f4e65fad6a7708a72,2024_02_09,33.45423621397969,-79.10497798178424,South Litchfield,2,0.25,0.5549999999999999,11,11,"NIGHT_CLEAR,NIGHT_CLEAR","Onshore,Offshore",2
5842041f4e65fad6a7708a73,2024_02_09,34.19316590251396,-77.8045,Crystal Pier,3,0.5205166666666667,0.8164,11,9,"NIGHT_MIST,NIGHT_CLEAR","Cross-shore,Offshore",2
5842041f4e65fad6a7708a74,2024_02_09,33.68628680045124,-78.883460274301,Myrtle Beach,2,0.30605000000000004,0.6029333333333333,11,11,"NIGHT_CLEAR,NIGHT_CLEAR","Onshore,Offshore",2
5842041f4e65fad6a7708a75,2024_02_09,32.66166297145973,-79.91951806398808,10th Street,2,0.18,0.485,12,12,"NIGHT_CLEAR,NIGHT_MIST","Cross-shore,Offshore",2
5842041f4e65fad6a7708a76,2024_02_09,33.16729555197199,-79.19829236867845,South Island,2,0.28500000000000003,0.595,11,11,"NIGHT_MOSTLY_CLEAR,NIGHT_CLEAR","Onshore,Offshore",2
5842041f4e65fad6a7708a77,2024_02_09,32.595,-80.088,Kiawah Island/Seabrook Island,2,0.07,0.375,12,12,"NIGHT_MOSTLY_CLEAR,NIGHT_CLEAR","Cross-shore,Offshore",2
5842041f4e65fad6a7708a78,2024_02_09,32.51356930575787,-80.28223,Edisto Beach,2,0.40927,0.63949,12,12,"NIGHT_MOSTLY_CLEAR,NIGHT_CLEAR","Onshore,Offshore",2
5842041f4e65fad6a7708a79,2024_02_09,32.366270751262,-80.43911,Hunting Island,2,0.52043,0.81318,12,12,"NIGHT_MOSTLY_CLOUDY,NIGHT_CLEAR","Onshore,Cross-shore",2
5842041f4e65fad6a7708a7a,2024_02_09,32.65337734408365,-79.93983,Folly Beach Pier,2,0.29813333333333336,0.6129333333333333,12,11,"NIGHT_CLEAR,NIGHT_CLEAR","Cross-shore,Offshore",2
5842041f4e65fad6a7708a7b,2024_02_09,33.41209545530049,-79.13026341393126,South Jetty,2,0.14,0.445,11,11,"NIGHT_CLEAR,NIGHT_CLEAR","Onshore,Offshore",2
5842041f4e65fad6a7708a7c,2024_02_09,32.31115640606869,-80.48564,Fripp Island,2,0.41745,0.6522650000000001,12,12,"NIGHT_MOSTLY_CLOUDY,NIGHT_CLEAR","Onshore,Offshore",2
5842041f4e65fad6a7708a7d,2024_02_09,32.14365226036034,-80.74402,Hilton Head Island,1,0,0.195,12,12,"NIGHT_MOSTLY_CLOUDY,NIGHT_MIST","Cross-shore,Offshore",2
5842041f4e65fad6a7708a7e,2024_02_09,29.70405364733744,-81.22426004725459,Matanzas Inlet,3,0.71,1.02,14,14,"NIGHT_MIST,NIGHT_MOSTLY_CLOUDY","Onshore,Cross-shore",2
5842041f4e65fad6a7708a81,2024_02_09,29.76878537149042,-81.25109,Crescent Beach,3,0.69,0.995,14,14,"NIGHT_MIST,NIGHT_MIST","Onshore,Cross-shore",2
5842041f4e65fad6a7708a82,2024_02_09,32.80251718689188,-79.73221919500764,Wild Dunes,2,0.175,0.48,11,11,"NIGHT_CLEAR,NIGHT_CLEAR","Onshore,Offshore",2
5842041f4e65fad6a7708a84,2024_02_09,32.75733539419244,-79.83258856064796,Bert's Bar,1.5,0.005,0.31,11,11,"NIGHT_MOSTLY_CLEAR,NIGHT_CLEAR","Cross-shore,Offshore",2
5842041f4e65fad6a7708a85,2024_02_09,32.66829212943039,-79.90735,Washout,2,0.30105000000000004,0.61085,12,11,"NIGHT_CLEAR,NIGHT_CLEAR","Onshore,Offshore",2
5842041f4e65fad6a7708a86,2024_02_09,32.78452968219067,-79.78540233488354,The Pier/Windjammer,2,0.22999999999999998,0.535,11,11,"NIGHT_MOSTLY_CLEAR,NIGHT_MIST","Offshore,Offshore",2
5842041f4e65fad6a7708a87,2024_02_09,29.86618162637438,-81.2662150259608,Anastasia Park (The Entrance),3,0.595,0.8999999999999999,13,13,"NIGHT_MIST,NIGHT_MIST","Onshore,Cross-shore",2
5842041f4e65fad6a7708a89,2024_02_09,29.89149785916623,-81.2723223244215,Blowholes,3,1.0350000000000001,1.0950000000000002,22,20,"NIGHT_MIST,NIGHT_MIST","Onshore,Cross-shore",2
5842041f4e65fad6a7708a8a,2024_02_09,30.16227112983666,-81.35502907491218,Crossroads,3,0.645,0.95,22,20,"NIGHT_CLEAR,NIGHT_MIST","Onshore,Cross-shore",2
5842041f4e65fad6a7708a8b,2024_02_09,30.19308537587637,-81.36314247820911,Sawgrass,3,0.935,1.12,22,20,"NIGHT_MOSTLY_CLOUDY,NIGHT_MIST","Cross-shore,Cross-shore",2
5842041f4e65fad6a7708a8c,2024_02_09,30.34696027700899,-81.39451,18th Street,3,0.7850349999999999,1.22662,13,13,"NIGHT_CLEAR,NIGHT_MIST","Offshore,Offshore",2
5842041f4e65fad6a7708a8d,2024_02_09,30.381793,-81.39686,Mayport Poles,3,1.185,1.38,13,13,"NIGHT_CLEAR,NIGHT_MIST","Offshore,Offshore",2
5842041f4e65fad6a7708a8e,2024_02_09,30.390516,-81.395591,Blue Roofs,3,1.005,1.31,13,13,"NIGHT_CLEAR,NIGHT_MIST","Offshore,Offshore",2
5842041f4e65fad6a7708a8f,2024_02_09,30.40517712722211,-81.40074116169004,Huguenot Park (North Jetty),3,0.9750000000000001,1.2,13,13,"NIGHT_CLEAR,NIGHT_MIST","Offshore,Offshore",2
5842041f4e65fad6a7708a90,2024_02_09,30.47788918872762,-81.41055821335078,Talbot Island,3.58,0.9031225,1.2967283333333333,15,14,"NIGHT_CLEAR,NIGHT_MIST","Offshore,Offshore",2
5842041f4e65fad6a7708a91,2024_02_09,30.66753984549761,-81.42983,Main Beach,3,0.55,0.86,13,13,"NIGHT_CLEAR,NIGHT_MIST","Offshore,Offshore",2
5842041f4e65fad6a7708a92,2024_02_09,30.69983581209126,-81.42483,Ft. Clinch State Park,3,0.99,1.18,13,13,"NIGHT_CLEAR,NIGHT_MIST","Cross-shore,Offshore",2
5842041f4e65fad6a7708a93,2024_02_09,30.62059700777582,-81.437252942757425,Amelia Pier,2.5,0.625,0.9299999999999999,13,13,"NIGHT_CLEAR,NIGHT_MIST","Offshore,Offshore",2
5842041f4e65fad6a7708a95,2024_02_09,28.95125170929067,-80.83837,Bethune Beach,3,1.1800000000000002,1.375,16,16,"NIGHT_MIST,NIGHT_MIST","Cross-shore,Cross-shore",2
5842041f4e65fad6a7708a96,2024_02_09,29.03874288905362,-80.8933424949646,Flagler Ave.,3,0.96,1.2650000000000001,22,21,"NIGHT_MIST,NIGHT_MIST","Cross-shore,Cross-shore",2
5842041f4e65fad6a7708a98,2024_02_09,30.332297686992757,-81.39319,Atlantic Beach,3,0.7794749999999999,1.21793,13,13,"NIGHT_CLEAR,NIGHT_MIST","Offshore,Offshore",2
5842041f4e65fad6a7708a99,2024_02_09,29.87530059952514,-81.26757958498874,Middles,3,0.865,1.05,22,20,"NIGHT_MIST,NIGHT_MIST","Onshore,Cross-shore",2
5842041f4e65fad6a7708a9a,2024_02_09,29.146475528378218,-80.96347,Sunglow Pier,3,0.935,1.2349999999999999,15,15,"NIGHT_MIST,NIGHT_CLEAR","Cross-shore,Cross-shore",2
5842041f4e65fad6a7708a9b,2024_02_09,30.02251238001095,-81.32183077344881,Gate Station,3,0.6799999999999999,0.99,22,20,"NIGHT_MIST,NIGHT_MIST","Onshore,Cross-shore",2
5842041f4e65fad6a7708a9c,2024_02_09,29.33976495417899,-81.0606,Bicentennial Park,3,0.855,1.16,14,14,"NIGHT_MIST,NIGHT_CLEAR","Cross-shore,Onshore",2
5842041f4e65fad6a7708a9d,2024_02_09,29.08257353385602,-80.92136998257725,Ponce Inlet,3.58,1.3450000000000002,1.65,17,15,"NIGHT_MIST,NIGHT_MOSTLY_CLOUDY","Cross-shore,Cross-shore",2
5842041f4e65fad6a7708a9f,2024_02_09,27.862962005874696,-80.44668,Sebastian Inlet,1.75,1.22131625,1.7373079166666665,21,19,"NIGHT_MOSTLY_CLOUDY,NIGHT_CLEAR","Onshore,Onshore",2
5842041f4e65fad6a7708aa0,2024_02_09,30.292626880836885,-81.38579,Jacksonville Beach Pier,3.58,0.9305666666666665,1.3520999999999999,15,14,"NIGHT_CLEAR,NIGHT_MIST","Offshore,Cross-shore",2
5842041f4e65fad6a7708aa1,2024_02_09,29.22878213864532,-81.00551,Main Street North,3,0.858005,0.95807,15,15,"NIGHT_MIST,NIGHT_CLEAR","Cross-shore,Cross-shore",2
5842041f4e65fad6a7708aa2,2024_02_09,29.21860397328164,-81.0019,Daytona Beach,3,0.9,1.2,15,15,"NIGHT_MIST,NIGHT_CLEAR","Cross-shore,Cross-shore",2
5842041f4e65fad6a7708aa3,2024_02_09,27.47531255634912,-80.28914,Ft. Pierce Inlet,2.915,1.03,1.34,21,20,"NIGHT_MOSTLY_CLOUDY,NIGHT_MOSTLY_CLOUDY","Onshore,Onshore",2
5842041f4e65fad6a7708aa4,2024_02_09,29.29239875585548,-81.0386,Ormond Beach,3,0.95,1.26,14,14,"NIGHT_MIST,NIGHT_CLEAR","Cross-shore,Onshore",2
5842041f4e65fad6a7708aa5,2024_02_09,29.91629441498523,-81.28801,Vilano,3,0.54,0.845,13,13,"NIGHT_MIST,NIGHT_MIST","Onshore,Cross-shore",2
5842041f4e65fad6a7708aa6,2024_02_09,27.876230736320828,-80.4551,Spanish House,2.5,1.805,2.0149999999999997,20,18,"NIGHT_MOSTLY_CLOUDY,NIGHT_MOSTLY_CLOUDY","Onshore,Onshore",2
5842041f4e65fad6a7708aa7,2024_02_09,28.64397251741012,-80.62328519781694,Playalinda,3,1.06,1.36,18,18,"NIGHT_MIST,NIGHT_OVERCAST","Offshore,Onshore",2
5842041f4e65fad6a7708aa8,2024_02_09,28.406142,-80.588858,Jetty Park,2.5,0.47,0.775,19,19,"NIGHT_CLEAR,NIGHT_CLOUDY","Offshore,Onshore",2
5842041f4e65fad6a7708aa9,2024_02_09,28.49083243010974,-80.58001715986319,Kennedy Space Center,3.5,1.615,1.71,18,18,"NIGHT_MIST,NIGHT_MIST","Cross-shore,Cross-shore",2
5842041f4e65fad6a7708aab,2024_02_09,28.336757013024314,-80.60568,Lori Wilson Park,3,0.8300000000000001,1.0750000000000002,18,17,"NIGHT_FOG,NIGHT_OVERCAST","Offshore,Onshore",2
5842041f4e65fad6a7708aad,2024_02_09,27.76388821683801,-80.3962958234027,Wabasso,2.5,1.3250000000000002,1.63,21,21,"NIGHT_MOSTLY_CLOUDY,NIGHT_CLEAR","Onshore,Onshore",2
5842041f4e65fad6a7708aae,2024_02_09,27.521583322459,-80.30987620353699,P.V. Martin's,2,1.7799999999999998,1.99,21,19,"NIGHT_MOSTLY_CLOUDY,NIGHT_MOSTLY_CLOUDY","Onshore,Onshore",2
5842041f4e65fad6a7708aaf,2024_02_09,27.644996047720046,-80.35242676734924,Riomar,2,1.795,1.98,21,19,"NIGHT_FOG,NIGHT_MOSTLY_CLEAR","Cross-shore,Onshore",2
5842041f4e65fad6a7708ab1,2024_02_09,27.670121806659253,-80.36026954650879,Vero Pier,2.5,2.2350000000000003,2.51,21,19,"NIGHT_MIST,NIGHT_MOSTLY_CLEAR","Onshore,Onshore",2
5842041f4e65fad6a7708ab2,2024_02_09,28.047705032021486,-80.54680109024048,Spessard Holland,2.915,1.2138504166666668,1.7533870833333334,20,18,"NIGHT_MOSTLY_CLEAR,NIGHT_MOSTLY_CLOUDY","Onshore,Onshore",2
5842041f4e65fad6a7708ab7,2024_02_09,28.135426226217064,-80.57895541191101,The Radisson,3,1.5699999999999998,1.77,19,18,"NIGHT_CLEAR,NIGHT_CLEAR","Onshore,Onshore",2
5842041f4e65fad6a7708ab8,2024_02_09,28.26664623907351,-80.60448467731476,Picnic Tables,3,1.58,1.78,19,19,"NIGHT_MIST,NIGHT_CLOUDY","Cross-shore,Onshore",2
5842041f4e65fad6a7708ab9,2024_02_09,28.200840983180232,-80.59493,Perkins,3,1.46,1.745,19,17,"NIGHT_CLEAR,NIGHT_CLOUDY","Cross-shore,Onshore",2
5842041f4e65fad6a7708aba,2024_02_09,28.185652556759443,-80.59154,RC's,3,1.2762833333333332,1.8908833333333332,19,17,"NIGHT_MIST,NIGHT_OVERCAST","Cross-shore,Cross-shore",2
5842041f4e65fad6a7708abc,2024_02_09,28.252541991968208,-80.60269,2nd Light,3,1.6400000000000001,1.73,19,19,"NIGHT_MIST,NIGHT_CLOUDY","Cross-shore,Onshore",2
5842041f4e65fad6a7708abd,2024_02_09,27.901611308716447,-80.4697,Bonsteel Park,2.5,1.32,1.625,20,18,"NIGHT_MOSTLY_CLOUDY,NIGHT_CLEAR","Onshore,Cross-shore",2
5842041f4e65fad6a7708abe,2024_02_09,28.2423394657007,-80.60104,Hangar's Beach,3,1.475,1.68,19,17,"NIGHT_CLEAR,NIGHT_OVERCAST","Cross-shore,Onshore",2
5842041f4e65fad6a7708abf,2024_02_09,27.34018197146798,-80.23278,Walton Rocks,2.58,1.83,2.13,22,21,"NIGHT_MOSTLY_CLOUDY,NIGHT_MOSTLY_CLOUDY","Onshore,Onshore",2
5842041f4e65fad6a7708ac0,2024_02_09,25.80407401902198,-80.1222227290161,30th Street,1,0.41,0.71,23,23,"NIGHT_MOSTLY_CLOUDY,NIGHT_MOSTLY_CLOUDY","Onshore,Onshore",2
5842041f4e65fad6a7708ac1,2024_02_09,25.76570280215999,-80.12983304957051,South Beach,0.58,-8.333333333333526e-4,0.30105000000000004,24,23,"NIGHT_MOSTLY_CLOUDY,NIGHT_MOSTLY_CLOUDY","Onshore,Onshore",2
5842041f4e65fad6a7708ac2,2024_02_09,26.058022412197,-80.10873562327671,Dania Pier,1,0.56,0.865,23,23,"NIGHT_MOSTLY_CLOUDY,NIGHT_MOSTLY_CLOUDY","Onshore,Onshore",2
5842041f4e65fad6a7708ac3,2024_02_09,26.04825428257198,-80.11153150137932,Franklin Street,1,0.545,0.855,23,23,"NIGHT_MOSTLY_CLOUDY,NIGHT_MOSTLY_CLOUDY","Onshore,Onshore",2
5842041f4e65fad6a7708ac4,2024_02_09,26.09086461141498,-80.10728410144065,John Lloyd State Park,1,0.515,0.8200000000000001,23,23,"NIGHT_MOSTLY_CLOUDY,NIGHT_MOSTLY_CLOUDY","Onshore,Onshore",2
5842041f4e65fad6a7708ac5,2024_02_09,26.0971397396683,-80.10298876028907,Spoils,1,0.5549999999999999,0.86,23,23,"NIGHT_MOSTLY_CLOUDY,NIGHT_MOSTLY_CLOUDY","Onshore,Onshore",2
5842041f4e65fad6a7708ac6,2024_02_09,26.18920557475824,-80.09224470008016,Commercial Pier,1,0.69,1,24,24,"NIGHT_MOSTLY_CLOUDY,NIGHT_MOSTLY_CLOUDY","Onshore,Onshore",2
5842041f4e65fad6a7708ac7,2024_02_09,28.289851576629342,-80.6063,16th St. South,3,1.185,1.49,18,17,"NIGHT_MIST,NIGHT_CLEAR","Cross-shore,Onshore",2
5842041f4e65fad6a7708ac8,2024_02_09,26.23467460139735,-80.08739675534814,Pompano Pier,1,0.18,0.485,24,23,"NIGHT_MOSTLY_CLOUDY,NIGHT_MOSTLY_CLOUDY","Onshore,Onshore",2
5842041f4e65fad6a7708acb,2024_02_09,26.44179551370651,-80.05928855229453,Atlantic Dunes Park,1,0.619675,0.7939499999999999,24,22,"NIGHT_MOSTLY_CLOUDY,NIGHT_MOSTLY_CLOUDY","Onshore,Onshore",2
5842041f4e65fad6a7708acd,2024_02_09,26.62215707439298,-80.03599398392342,Hilton Hotel Backyard,2,0.98,1.2850000000000001,24,22,"NIGHT_MOSTLY_CLOUDY,NIGHT_OVERCAST","Onshore,Onshore",2
5842041f4e65fad6a7708ace,2024_02_09,26.96418190555367,-80.07769168113562,Coral Cove Park,2,2.21,2.335,22,21,"NIGHT_MOSTLY_CLOUDY,NIGHT_CLOUDY","Onshore,Onshore",2
5842041f4e65fad6a7708acf,2024_02_09,26.7029496416037,-80.0318372872607,Palm Beach,2,1.22,1.52,24,22,"NIGHT_MOSTLY_CLOUDY,NIGHT_OVERCAST","Onshore,Onshore",2
5842041f4e65fad6a7708ad0,2024_02_09,26.97679878167375,-80.08141631388132,Blowing Rocks,2,1.54,1.8450000000000002,22,21,"NIGHT_MOSTLY_CLOUDY,NIGHT_OVERCAST","Onshore,Onshore",2
5842041f4e65fad6a7708ad2,2024_02_09,26.45661880078336,-80.05699952321751,Delray Beach,1,0.5700000000000001,0.875,24,22,"NIGHT_MOSTLY_CLOUDY,NIGHT_MOSTLY_CLOUDY","Onshore,Onshore",2
5842041f4e65fad6a7708ad3,2024_02_09,27.205685534312778,-80.16826629638672,Fletcher's,2,1.59,1.895,22,21,"NIGHT_MOSTLY_CLOUDY,NIGHT_OVERCAST","Onshore,Onshore",2
5842041f4e65fad6a7708ad5,2024_02_09,26.5848450388814,-80.03649735753257,Lantana Public Beach,2,1.1549999999999998,1.4649999999999999,24,22,"NIGHT_MOSTLY_CLOUDY,NIGHT_CLOUDY","Onshore,Onshore",2
5842041f4e65fad6a7708ad6,2024_02_09,25.77468432731322,-80.12884045797499,5th Street,1,0.355,0.655,23,23,"NIGHT_MOSTLY_CLOUDY,NIGHT_MOSTLY_CLOUDY","Onshore,Onshore",2
5842041f4e65fad6a7708ad7,2024_02_09,25.795157990715975,-80.12527585029602,21st Street,1,0.45,0.75,23,23,"NIGHT_MOSTLY_CLOUDY,NIGHT_MOSTLY_CLOUDY","Onshore,Onshore",2
5842041f4e65fad6a7708ad8,2024_02_09,25.897806453088073,-80.1211827993393,Haulover Inlet (South Jetty),1,0.655,0.96,23,23,"NIGHT_MOSTLY_CLOUDY,NIGHT_CLEAR","Onshore,Onshore",2
5842041f4e65fad6a7708ad9,2024_02_09,25.90147392328634,-80.12110769748688,Haulover Inlet (North Jetty),1,0.54,0.845,23,23,"NIGHT_MOSTLY_CLOUDY,NIGHT_CLEAR","Onshore,Onshore",2
5842041f4e65fad6a7708ada,2024_02_09,25.87049374242476,-80.11828560342356,85th Street,1,0.495,0.805,23,23,"NIGHT_MOSTLY_CLOUDY,NIGHT_CLEAR","Onshore,Onshore",2
5842041f4e65fad6a7708adb,2024_02_09,26.25486382031396,-80.0805,Hillsboro Inlet,1,0.66299,1.0359250000000002,27,26,"NIGHT_MOSTLY_CLOUDY,NIGHT_MOSTLY_CLOUDY","Onshore,Onshore",2
5842041f4e65fad6a7708add,2024_02_09,26.29705672965111,-80.07612393274484,Hillsboro Beach,1,0.5700000000000001,0.875,27,26,"NIGHT_MOSTLY_CLOUDY,NIGHT_MOSTLY_CLOUDY","Onshore,Onshore",2
5842041f4e65fad6a7708ade,2024_02_09,26.36569956413266,-80.06717936869391,Red Reef Park,2,0.98,1.1749999999999998,24,22,"NIGHT_OVERCAST,NIGHT_MOSTLY_CLOUDY","Onshore,Onshore",2
5842041f4e65fad6a7708adf,2024_02_09,26.54593873498907,-80.04104359585143,Boynton Beach Inlet (Northside),2,1.04,1.105,24,22,"NIGHT_MOSTLY_CLOUDY,NIGHT_OVERCAST","Onshore,Onshore",2
5842041f4e65fad6a7708ae0,2024_02_09,26.92746505629809,-80.06721138954163,Corners,2,1.2437179166666668,1.61326,24,22,"NIGHT_MOSTLY_CLOUDY,NIGHT_OVERCAST","Onshore,Onshore",2
5842041f4e65fad6a7708ae1,2024_02_09,26.76983179886943,-80.03413481937037,The Cove,2,1.26,1.565,24,22,"NIGHT_MOSTLY_CLOUDY,NIGHT_OVERCAST","Onshore,Onshore",2
5842041f4e65fad6a7708ae3,2024_02_09,26.39224485175123,-80.0650461233983,Japanese Rock,1,0.9,1.06,24,22,"NIGHT_OVERCAST,NIGHT_MOSTLY_CLOUDY","Onshore,Onshore",2
5842041f4e65fad6a7708ae4,2024_02_09,29.94810928551321,-85.42545434612366,Mexico Beach,1,0,0.27,14,14,"NIGHT_MIST,NIGHT_MOSTLY_CLOUDY","Cross-shore,Offshore",2
5842041f4e65fad6a7708ae5,2024_02_09,30.11752500931267,-85.7306039427457,Shell Island,1,0.025,0.33,15,15,"NIGHT_MIST,NIGHT_MIST","Onshore,Cross-shore",2
5842041f4e65fad6a7708ae7,2024_02_09,29.94901514702268,-85.43042978529013,D.J.'s,1,0,0.27,14,14,"NIGHT_MIST,NIGHT_MOSTLY_CLOUDY","Onshore,Cross-shore",2
5842041f4e65fad6a7708ae8,2024_02_09,30.12396111446713,-85.73636797034509,St. Andrew's Park,0.915,0.025,0.33,16,14,"NIGHT_MIST,NIGHT_MIST","Cross-shore,Cross-shore",2
5842041f4e65fad6a7708ae9,2024_02_09,30.16781531760227,-85.79604918824084,Spinnaker,0.915,0.105,0.405,16,14,"NIGHT_MIST,NIGHT_MIST","Onshore,Onshore",2
5842041f4e65fad6a7708aea,2024_02_09,30.18877050526983,-85.83243530466363,Wood Pier,1,0.115,0.42000000000000004,16,14,"NIGHT_MIST,NIGHT_MIST","Onshore,Cross-shore",2
5842041f4e65fad6a7708aeb,2024_02_09,30.2676205895555,-85.9938578144113,Inlet Beach Pier,2,0.15000000000000002,0.45999999999999996,16,14,"NIGHT_MIST,NIGHT_CLEAR","Onshore,Cross-shore",2
5842041f4e65fad6a7708aec,2024_02_09,30.31815542759119,-86.1383771867044,Bud and Alley's,1,0.165,0.475,16,14,"NIGHT_CLEAR,NIGHT_CLEAR","Onshore,Onshore",2
5842041f4e65fad6a7708aed,2024_02_09,30.32686082481946,-86.16650590275447,Grayton Beach,1,0.2,0.505,16,14,"NIGHT_CLEAR,NIGHT_CLEAR","Onshore,Onshore",2
5842041f4e65fad6a7708aee,2024_02_09,30.33661488976303,-86.20094370184573,Blue Mountain Beach,1,0.185,0.485,16,14,"NIGHT_CLEAR,NIGHT_MOSTLY_CLOUDY","Onshore,Onshore",2
5842041f4e65fad6a7708aef,2024_02_09,30.37677202831587,-86.38513326644897,Pompano Joe's,1,0.33499999999999996,0.635,16,14,"NIGHT_CLEAR,NIGHT_CLEAR","Onshore,Onshore",2
5842041f4e65fad6a7708af0,2024_02_09,30.37429731725911,-86.36686966905461,Seascape,1,0.21,0.51,16,14,"NIGHT_CLEAR,NIGHT_CLEAR","Onshore,Onshore",2
5842041f4e65fad6a7708af1,2024_02_09,30.382815988547186,-86.45838975906372,The Back Porch,1,0.35,0.655,16,14,"NIGHT_CLEAR,NIGHT_CLEAR","Onshore,Onshore",2
5842041f4e65fad6a7708af2,2024_02_09,30.21207176798612,-85.87989730830542,Panama City Pier,2,0.13,0.435,16,14,"NIGHT_MIST,NIGHT_MIST","Cross-shore,Cross-shore",2
5842041f4e65fad6a7708af3,2024_02_09,30.37521499110326,-86.37169944119874,Whale's Tail,1,0.30000000000000004,0.61,16,14,"NIGHT_CLEAR,NIGHT_CLEAR","Onshore,Onshore",2
5842041f4e65fad6a7708af4,2024_02_09,30.38120596658251,-86.43045768307817,Old Crystal Pier,1,0.29000000000000004,0.6,16,14,"NIGHT_CLEAR,NIGHT_CLEAR","Onshore,Onshore",2
5842041f4e65fad6a7708af5,2024_02_09,30.38090573159031,-86.50654862060082,Jetty East,1,0.32,0.625,16,14,"NIGHT_CLEAR,NIGHT_MOSTLY_CLOUDY","Onshore,Onshore",2
5842041f4e65fad6a7708af6,2024_02_09,30.37584509640838,-86.50563273884252,HMO's,0,0.32,0.625,16,14,"NIGHT_CLEAR,NIGHT_MOSTLY_CLOUDY","Onshore,Onshore",2
5842041f4e65fad6a7708af7,2024_02_09,30.38124006131522,-86.50052254675529,Two By Fours,0,0.32499999999999996,0.63,16,14,"NIGHT_CLEAR,NIGHT_CLEAR","Onshore,Onshore",2
5842041f4e65fad6a7708af8,2024_02_09,30.38250751017554,-86.45775957227345,The Pumphouse,1,0.33999999999999997,0.645,16,14,"NIGHT_CLEAR,NIGHT_CLEAR","Onshore,Onshore",2
5842041f4e65fad6a7708af9,2024_02_09,30.38655981578935,-86.52475380603576,NCO Club,1,0.32,0.625,16,14,"NIGHT_CLEAR,NIGHT_MOSTLY_CLOUDY","Onshore,Onshore",2
5842041f4e65fad6a7708afa,2024_02_09,30.39024516541047,-86.59341,Okaloosa Pier,1,0.32,0.625,16,14,"NIGHT_MOSTLY_CLOUDY,NIGHT_MOSTLY_CLOUDY","Onshore,Onshore",2
5842041f4e65fad6a7708afb,2024_02_09,30.39281125722673,-86.59766184693287,Dead Man's,1,0.37,0.6799999999999999,16,14,"NIGHT_MOSTLY_CLOUDY,NIGHT_MOSTLY_CLOUDY","Onshore,Onshore",2
5842041f4e65fad6a7708afc,2024_02_09,30.32703176167034,-87.14196,Pensacola Pier,1,0.63,0.935,15,15,"NIGHT_CLEAR,NIGHT_MOSTLY_CLOUDY","Onshore,Onshore",2
5842041f4e65fad6a7708afd,2024_02_09,30.37920054094992,-86.85583,Navarre Beach,1,0.53148,0.830435,16,14,"NIGHT_MOSTLY_CLOUDY,NIGHT_CLOUDY","Onshore,Onshore",2
5842041f4e65fad6a7708afe,2024_02_09,30.39491626029151,-86.61248004999744,Blue Horizon Motel,1,0.365,0.6699999999999999,16,14,"NIGHT_MOSTLY_CLOUDY,NIGHT_MOSTLY_CLOUDY","Onshore,Onshore",2
5842041f4e65fad6a7708aff,2024_02_09,30.29345899260828,-87.43546812169637,First Parking Lot,0.5,0.61,0.9099999999999999,14,14,"NIGHT_MOSTLY_CLOUDY,NIGHT_MIST","Onshore,Onshore",2
5842041f4e65fad6a7708b00,2024_02_09,30.29767401311303,-87.41361598257893,Johnsons Beach,1,0.625,0.9299999999999999,14,14,"NIGHT_MOSTLY_CLOUDY,NIGHT_MOSTLY_CLOUDY","Onshore,Onshore",2
5842041f4e65fad6a7708b01,2024_02_09,30.29513397370759,-87.42642359089679,Sandy Key,1,0.61,0.915,14,14,"NIGHT_MOSTLY_CLOUDY,NIGHT_MIST","Onshore,Onshore",2
5842041f4e65fad6a7708b03,2024_02_09,30.377504907388026,-86.86444,Navarre Pier,2,0.30000000000000004,0.61,16,14,"NIGHT_MOSTLY_CLOUDY,NIGHT_CLOUDY","Cross-shore,Cross-shore",2
5842041f4e65fad6a7708b04,2024_02_09,30.31482647791307,-87.26163894669438,Pickens Point Dunes,1,0.645,0.95,15,15,"NIGHT_CLEAR,NIGHT_MOSTLY_CLOUDY","Onshore,Onshore",2
5842041f4e65fad6a7708b05,2024_02_09,30.32632110836516,-87.16019503253068,Slabs,1,0.665,0.9750000000000001,15,15,"NIGHT_CLEAR,NIGHT_MOSTLY_CLOUDY","Onshore,Onshore",2
5842041f4e65fad6a7708b06,2024_02_09,30.32739721382043,-87.30406515493348,Pickens Point,1,0.655,0.9650000000000001,15,15,"NIGHT_CLEAR,NIGHT_MOSTLY_CLOUDY","Cross-shore,Cross-shore",2
5842041f4e65fad6a7708b07,2024_02_09,30.27406893266753,-87.5436749948929,Bungalows,1,0.655,0.9650000000000001,14,14,"NIGHT_MOSTLY_CLOUDY,NIGHT_MOSTLY_CLOUDY","Onshore,Onshore",2
5842041f4e65fad6a7708b08,2024_02_09,27.99627311846992,-82.82942,880,0.5,0.095775,0.14965,16,16,"NIGHT_CLEAR,NIGHT_CLEAR","Offshore,Offshore",2
5842041f4e65fad6a7708b09,2024_02_09,27.97779860371595,-82.83246509090527,Pier 60,0,0,0.08499999999999999,16,16,"NIGHT_CLEAR,NIGHT_CLEAR","Offshore,Offshore",2
5842041f4e65fad6a7708b0a,2024_02_09,27.96296387618043,-82.8332635965418,Sand Key,0,0,0.08499999999999999,16,16,"NIGHT_CLEAR,NIGHT_CLEAR","Offshore,Offshore",2
5842041f4e65fad6a7708b0b,2024_02_09,27.92492619212885,-82.8449122845279,Belleair,0,0,0.08499999999999999,16,16,"NIGHT_MIST,NIGHT_CLEAR","Offshore,Offshore",2
5842041f4e65fad6a7708b0c,2024_02_09,27.882,-82.854,Indian Rocks Beach,0,0,0.08499999999999999,16,16,"NIGHT_CLEAR,NIGHT_CLEAR","Offshore,Offshore",2
5842041f4e65fad6a7708b0d,2024_02_09,27.83106104966094,-82.83550218771384,Redington Breakwater,0,0,0.095,16,16,"NIGHT_CLEAR,NIGHT_CLEAR","Offshore,Offshore",2
5842041f4e65fad6a7708b0e,2024_02_09,27.74369029906206,-82.76053473435867,Middle Jetty,0,0,0.08499999999999999,17,17,"NIGHT_CLEAR,NIGHT_CLEAR","Offshore,Offshore",2
5842041f4e65fad6a7708b0f,2024_02_09,27.82174178852146,-82.83148664631841,Redington Pier,0,0,0.095,16,16,"NIGHT_CLEAR,NIGHT_CLEAR","Offshore,Offshore",2
5842041f4e65fad6a7708b10,2024_02_09,27.31496308261514,-82.5830466912004,Lido Beach,0,0,0.095,17,17,"NIGHT_CLEAR,NIGHT_CLEAR","Offshore,Offshore",2
5842041f4e65fad6a7708b11,2024_02_09,27.31122010159892,-82.57833234007632,Coolidge,0,0,0.095,17,17,"NIGHT_CLEAR,NIGHT_CLEAR","Offshore,Offshore",2
5842041f4e65fad6a7708b12,2024_02_09,27.26471672017615,-82.55464835167173,Siesta Key,0,0,0.08499999999999999,18,17,"NIGHT_CLEAR,NIGHT_CLEAR","Offshore,Offshore",2
5842041f4e65fad6a7708b13,2024_02_09,27.24638693488133,-82.53809115716797,Stickney Point,0,0,0.11,17,17,"NIGHT_CLEAR,NIGHT_CLEAR","Offshore,Offshore",2
5842041f4e65fad6a7708b14,2024_02_09,27.21907878229092,-82.51813937562073,Turtles,0,0,0.10500000000000001,17,17,"NIGHT_CLEAR,NIGHT_CLEAR","Offshore,Offshore",2
5842041f4e65fad6a7708b15,2024_02_09,27.11375765852028,-82.47039,Venice Jetties North,0,0,0.08499999999999999,18,17,"NIGHT_CLEAR,NIGHT_CLEAR","Offshore,Offshore",2
5842041f4e65fad6a7708b16,2024_02_09,27.111485758834025,-82.46756550419744,Venice Jetties South,0,0,0.08499999999999999,18,17,"NIGHT_CLEAR,NIGHT_CLEAR","Offshore,Offshore",2
5842041f4e65fad6a7708b17,2024_02_09,27.07249378831575,-82.4530285256104,Venice Pier,0,0,0.11499999999999999,18,17,"NIGHT_CLEAR,NIGHT_CLEAR","Offshore,Offshore",2
5842041f4e65fad6a7708b19,2024_02_09,27.49680446426314,-82.7140145455959,Holmes Beach Pier,0,0,0.08499999999999999,17,17,"NIGHT_CLEAR,NIGHT_CLEAR","Offshore,Offshore",2
5842041f4e65fad6a7708b1a,2024_02_09,27.7390348493064,-82.75763,Sunset Beach,0,0,0.09,17,17,"NIGHT_CLEAR,NIGHT_CLEAR","Offshore,Offshore",2
5842041f4e65fad6a7708b1b,2024_02_09,26.80347307599041,-82.28564775623539,Gasparilla Point,0,0,0.11499999999999999,18,18,"NIGHT_CLEAR,NIGHT_MOSTLY_CLEAR","Offshore,Offshore",2
5842041f4e65fad6a7708b1c,2024_02_09,27.45365831548911,-82.69609,Coquina Jetties,0,0,0.08499999999999999,17,17,"NIGHT_CLEAR,NIGHT_CLEAR","Offshore,Offshore",2
5842041f4e65fad6a7708b1d,2024_02_09,27.46077315206043,-82.69924,Twin Piers,0,0,0.055,18,17,"NIGHT_CLEAR,NIGHT_CLEAR","Offshore,Offshore",2
5842041f4e65fad6a7708b1e,2024_02_09,26.91007316019612,-82.35352,Englewood,0,0,0.08,17,17,"NIGHT_CLEAR,NIGHT_CLEAR","Offshore,Offshore",2
5842041f4e65fad6a7708b1f,2024_02_09,26.88221101560038,-82.3359828282636,Knight's Point,0,0,0.11,18,18,"NIGHT_CLEAR,NIGHT_CLEAR","Offshore,Offshore",2
5842041f4e65fad6a7708b20,2024_02_09,26.51219285784982,-82.1928203289264,Tween Waters,0,0,0.12,18,18,"NIGHT_CLEAR,NIGHT_MOSTLY_CLOUDY","Offshore,Offshore",2
5842041f4e65fad6a7708b21,2024_02_09,26.55130241615096,-82.20222762415648,Redfish Pass,0,0,0.12,18,18,"NIGHT_CLEAR,NIGHT_MOSTLY_CLOUDY","Offshore,Offshore",2
5842041f4e65fad6a7708b22,2024_02_09,26.71713432926596,-82.26287777058234,Boca Grande,0,0,0.11499999999999999,18,18,"NIGHT_CLEAR,NIGHT_CLEAR","Offshore,Offshore",2
5842041f4e65fad6a7708b23,2024_02_09,26.47856785808584,-82.181288592828,Blind Pass,0,0,0.12,18,18,"NIGHT_CLEAR,NIGHT_MOSTLY_CLOUDY","Offshore,Offshore",2
5842041f4e65fad6a7708b24,2024_02_09,26.25358330618783,-81.82429246081317,The Wall,0,0,0.10500000000000001,18,18,"NIGHT_CLEAR,NIGHT_MOSTLY_CLEAR","Offshore,Offshore",2
5842041f4e65fad6a7708b25,2024_02_09,26.17456407516186,-81.81588575623482,Doctor's Pass,0,0,0.10500000000000001,18,18,"NIGHT_CLEAR,NIGHT_CLEAR","Offshore,Offshore",2
5842041f4e65fad6a7708b26,2024_02_09,27.427134501874612,-82.68110766159296,Whitney Beach,0,0,0.10500000000000001,17,17,"NIGHT_CLEAR,NIGHT_CLEAR","Offshore,Offshore",2
5842041f4e65fad6a7708b27,2024_02_09,26.17300183052463,-81.81515842430267,Doctor's Pass (South Jetty),0,0,0.10500000000000001,18,18,"NIGHT_CLEAR,NIGHT_CLEAR","Offshore,Offshore",2
5842041f4e65fad6a7708b28,2024_02_09,27.73496421495629,-82.75268962468695,Upham Beach Park,0,0,0.09,17,17,"NIGHT_CLEAR,NIGHT_CLEAR","Offshore,Offshore",2
5842041f4e65fad6a7708b29,2024_02_09,26.13144856766723,-81.8090395116521,Naples Pier,0,0,0.1,18,18,"NIGHT_CLEAR,NIGHT_MOSTLY_CLEAR","Offshore,Offshore",2
5842041f4e65fad6a7708b2a,2024_02_09,20.63474,-156.45211,Little Beach,2,0.055,0.365,25,25,"NIGHT_CLEAR,NIGHT_CLEAR","Cross-shore,Offshore",2
5842041f4e65fad6a7708b2b,2024_02_09,20.613,-156.438,Dumps,3,0.315,0.625,25,25,"NIGHT_CLEAR,NIGHT_CLEAR","Offshore,Offshore",2
5842041f4e65fad6a7708b2c,2024_02_09,22.216,-159.502,Hanalei Bay,4,1.19,1.4249999999999998,24,24,"NIGHT_MOSTLY_CLOUDY,NIGHT_MOSTLY_CLEAR","Offshore,Offshore",2
5842041f4e65fad6a7708b2d,2024_02_09,22.225,-159.567,Ha'Ena Bay (Cannons/Tunnels),2.5,1.27,1.5150000000000001,24,24,"NIGHT_CLEAR,NIGHT_CLEAR","Cross-shore,Cross-shore",2
5842041f4e65fad6a7708b2f,2024_02_09,22.148,-159.301,Anahola Bay,2,1,1.255,24,24,"NIGHT_CLEAR,NIGHT_MOSTLY_CLOUDY","Onshore,Onshore",2
5842041f4e65fad6a7708b30,2024_02_09,21.872,-159.462,Poipu Outer Reef,3.5,1.125,1.395,24,24,"NIGHT_MOSTLY_CLEAR,NIGHT_SHOWERS","Offshore,Offshore",2
5842041f4e65fad6a7708b31,2024_02_09,21.936,-159.652,Pakala,3,0.475,0.78,24,24,"NIGHT_CLEAR,NIGHT_CLEAR","Offshore,Cross-shore",2
5842041f4e65fad6a7708b32,2024_02_09,21.272,-157.832,Populars,2,0.5449999999999999,0.845,26,25,"NIGHT_MOSTLY_CLEAR,NIGHT_CLEAR","Offshore,Offshore",2
5842041f4e65fad6a7708b33,2024_02_09,21.26841992117695,-157.82329,Publics,2,0.5800000000000001,0.885,26,25,"NIGHT_MOSTLY_CLOUDY,NIGHT_MOSTLY_CLOUDY","Offshore,Offshore",2
5842041f4e65fad6a7708b34,2024_02_09,21.25460513357954,-157.79432,Black Point,3,0.808885,1.130155,24,24,"NIGHT_CLEAR,NIGHT_MOSTLY_CLOUDY","Offshore,Offshore",2
5842041f4e65fad6a7708b35,2024_02_09,21.27394674233747,-157.82777,Canoes,2,0.305,0.61,26,25,"NIGHT_MOSTLY_CLOUDY,NIGHT_MOSTLY_CLOUDY","Offshore,Offshore",2
5842041f4e65fad6a7708b36,2024_02_09,21.273658410008455,-157.8263,Queen's,2,0.305,0.61,26,25,"NIGHT_MOSTLY_CLOUDY,NIGHT_MOSTLY_CLOUDY","Offshore,Offshore",2
5842041f4e65fad6a7708b37,2024_02_09,20.869,-156.679,Lahaina Harbor - Breakwall,2,0.255,0.555,25,25,"NIGHT_CLEAR,NIGHT_CLEAR","Cross-shore,Onshore",2
5842041f4e65fad6a7708b38,2024_02_09,21.277,-157.841,Kaiser's,2,0.48,0.79,26,25,"NIGHT_MOSTLY_CLEAR,NIGHT_CLEAR","Offshore,Offshore",2
5842041f4e65fad6a7708b39,2024_02_09,21.280537020769913,-157.84107,Rockpiles,2,0.405,0.715,26,25,"NIGHT_MOSTLY_CLEAR,NIGHT_CLEAR","Offshore,Offshore",2
5842041f4e65fad6a7708b3a,2024_02_09,21.2745,-157.8395,Four's,2,0.55,0.86,24,24,"NIGHT_MOSTLY_CLEAR,NIGHT_CLEAR","Offshore,Offshore",2
5842041f4e65fad6a7708b3b,2024_02_09,21.576,-158.282,Kaena Point,1.5,0.595,0.895,24,24,"NIGHT_CLEAR,NIGHT_MOSTLY_CLEAR","Cross-shore,Cross-shore",2
5842041f4e65fad6a7708b3c,2024_02_09,21.31110306220024,-157.6590697786346,Makapu'u,2,1.17,1.395,24,24,"NIGHT_CLEAR,NIGHT_BRIEF_SHOWERS","Onshore,Onshore",2
5842041f4e65fad6a7708b3d,2024_02_09,21.276618032562773,-157.83386,Three's,1,0.27,0.575,26,25,"NIGHT_MOSTLY_CLEAR,NIGHT_CLEAR","Offshore,Offshore",2
5842041f4e65fad6a7708b3f,2024_02_09,39.63537452931482,-123.7858735430881,Westport,3,1.965,2.325,12,12,"NIGHT_CLEAR,NIGHT_CLEAR","Offshore,Offshore",2
5842041f4e65fad6a7708b40,2024_02_09,39.47339314374171,-123.8053109861082,MacKerricher,3,2.71,3.24,13,13,"NIGHT_CLEAR,NIGHT_CLEAR","Cross-shore,Offshore",2
5842041f4e65fad6a7708b41,2024_02_09,39.30271935445495,-123.79757,Mendocino Township,4,1.855,2.215,13,13,"NIGHT_CLEAR,NIGHT_CLEAR","Offshore,Offshore",2
5842041f4e65fad6a7708b42,2024_02_09,21.281416779283845,-157.8457,Ala Moana Bowls,2,0.45,0.755,26,25,"NIGHT_MOSTLY_CLEAR,NIGHT_CLEAR","Offshore,Offshore",2
5842041f4e65fad6a7708b43,2024_02_09,15.846,-97.06,Puerto Escondido,3,1.04,1.24,28,28,"NIGHT_MOSTLY_CLOUDY,NIGHT_BRIEF_SHOWERS_POSSIBLE","Offshore,Offshore",2
5842041f4e65fad6a7708b44,2024_02_09,11.44175,-86.08519,Santana,1,0.345,0.645,28,28,"NIGHT_CLEAR,NIGHT_CLEAR","Offshore,Offshore",2
5842041f4e65fad6a7708b46,2024_02_09,38.91444690804076,-123.7104245288878,Point Arena,3,2.335,2.79,13,13,"NIGHT_CLEAR,NIGHT_CLEAR","Offshore,Offshore",2
5842041f4e65fad6a7708b47,2024_02_09,18.46,-66.07383728027,San Juan,0.75,2.5700000000000003,2.88,27,26,"NIGHT_MOSTLY_CLOUDY,NIGHT_HEAVY_SHOWERS","Onshore,Onshore",2
5842041f4e65fad6a7708b48,2024_02_09,13.21526058417982,-59.52183,Soup Bowl,3,0.9044000000000001,1.2092,28,28,"NIGHT_CLEAR,NIGHT_BRIEF_SHOWERS_POSSIBLE","Onshore,Onshore",2
5842041f4e65fad6a7708b49,2024_02_09,18.371581,-67.25941,Puntas,0.5,2.185,2.3899999999999997,28,27,"NIGHT_MOSTLY_CLEAR,NIGHT_CLEAR","Onshore,Onshore",2
5842041f4e65fad6a7708b4b,2024_02_09,-8.814,115.089,Uluwatu,3,0.5292000000000001,0.8821333333333332,28,28,"CLEAR,CLEAR","Offshore,Offshore",2
5842041f4e65fad6a7708b4c,2024_02_09,-8.950192825865,115.12573242187,Kuta,3,0.715,1.025,30,30,"CLEAR,LIGHT_SHOWERS_POSSIBLE","Onshore,Onshore",2
5842041f4e65fad6a7708b4d,2024_02_09,9.94,-85.668,Guiones,3,0.32999999999999996,0.635,29,29,"NIGHT_CLEAR,NIGHT_CLEAR","Offshore,Offshore",2
5842041f4e65fad6a7708b4e,2024_02_09,9.56516,-84.59148,Playa Hermosa South,3,0.473105,0.739225,30,30,"NIGHT_CLEAR,NIGHT_CLEAR","Offshore,Offshore",2
5842041f4e65fad6a7708b4f,2024_02_09,9.526305556,-84.48822,Playa Esterillos,3,0.6699999999999999,0.97,30,30,"NIGHT_CLEAR,NIGHT_CLEAR","Offshore,Offshore",2
5842041f4e65fad6a7708b50,2024_02_09,9.576,-84.608,Playa Hermosa North,2.5,0.33499999999999996,0.645,30,30,"NIGHT_CLEAR,NIGHT_CLEAR","Offshore,Offshore",2
5842041f4e65fad6a7708b53,2024_02_09,-12.337,-76.839,Pico Alto,3,0.93553,1.46176,23,23,"NIGHT_OVERCAST,NIGHT_OVERCAST","Onshore,Onshore",2
5842041f4e65fad6a7708b55,2024_02_09,-12.17155,-77.08515,Peruazul,3,0.965,1.21,23,23,"NIGHT_CLEAR,NIGHT_CLEAR","Cross-shore,Cross-shore",2
5842041f4e65fad6a7708b56,2024_02_09,-12.133164,-77.03916,Makaha,3,0.9476150000000001,1.48064,23,23,"NIGHT_CLEAR,NIGHT_CLEAR","Cross-shore,Cross-shore",2
5842041f4e65fad6a7708b57,2024_02_09,43.29,-2.1708,Zarautz,2,0.471335,0.73646,14,14,"NIGHT_CLOUDY,CLEAR","Offshore,Offshore",2
5842041f4e65fad6a7708b58,2024_02_09,54.27129984804951,-8.60171,Strandhill,2,0.40776999999999997,0.63714,10,10,"NIGHT_DRIZZLE,DRIZZLE","Offshore,Offshore",2
5842041f4e65fad6a7708b5b,2024_02_09,39.276101,-74.56709,7th Street,1.335,0.9135925,1.2179320833333334,6,5,"NIGHT_CLEAR,NIGHT_CLOUDY","Onshore,Onshore",2
5842041f4e65fad6a7708b5c,2024_02_09,39.15774,-74.68639,36th Street to 42nd Street,2,0.405,0.705,6,5,"NIGHT_CLEAR,NIGHT_MIST","Onshore,Onshore",2
5842041f4e65fad6a7708b5d,2024_02_09,39.321896,-74.506191,Sumner Avenue,1.5,0.29000000000000004,0.59,6,5,"NIGHT_CLEAR,NIGHT_CLOUDY","Onshore,Onshore",2
5842041f4e65fad6a7708b5e,2024_02_09,39.093673,-74.71653,26th to 30th Street Pier,1.335,0.89565,1.2083666666666666,6,5,"NIGHT_CLEAR,NIGHT_CLOUDY","Onshore,Onshore",2
5842041f4e65fad6a7708b5f,2024_02_09,39.039903,-74.76417,Nun's Beach,1.5,0.57762,0.902525,6,5,"NIGHT_CLEAR,NIGHT_MIST","Onshore,Onshore",2
5842041f4e65fad6a7708b60,2024_02_09,38.96768,-74.82565,Rambler Road,1.5,0.32,0.63,6,5,"NIGHT_MIST,NIGHT_MIST","Onshore,Onshore",2
5842041f4e65fad6a7708b61,2024_02_09,38.99931,-74.78814,2nd St. to 10th St.,1.5,0.31,0.61,6,5,"NIGHT_CLEAR,NIGHT_MIST","Onshore,Onshore",2
5842041f4e65fad6a7708b62,2024_02_09,38.929886,-74.91718,Stockton Avenue,2,0.36691,0.5732999999999999,6,5,"NIGHT_CLEAR,NIGHT_CLEAR","Onshore,Onshore",2
5842041f4e65fad6a7708b63,2024_02_09,38.942988,-74.862452,The Rocks,1,0.12,0.425,6,5,"NIGHT_CLEAR,NIGHT_CLEAR","Onshore,Onshore",2
5842041f4e65fad6a7708b64,2024_02_09,38.93036,-74.91257,Queen Street,2,0.22,0.52,6,5,"NIGHT_CLEAR,NIGHT_CLEAR","Onshore,Onshore",2
5842041f4e65fad6a7708b65,2024_02_09,38.942757,-74.880791,Poverty Beach,1.5,0.115,0.42000000000000004,6,5,"NIGHT_CLEAR,NIGHT_CLEAR","Onshore,Onshore",2
5842041f4e65fad6a7708b66,2024_02_09,38.929441,-74.93129,Broadway Beach,2,0.22499999999999998,0.53,6,5,"NIGHT_CLEAR,NIGHT_CLEAR","Onshore,Onshore",2
5842041f4e65fad6a7708b67,2024_02_09,38.92870117926206,-74.92116,Grant Street Beach,2,0.21000000000000002,0.515,6,5,"NIGHT_CLEAR,NIGHT_CLEAR","Onshore,Onshore",2
5842041f4e65fad6a7708b68,2024_02_09,38.928934874358276,-74.93582,The Cove,1.5,0.055,0.36,5,5,"NIGHT_CLEAR,NIGHT_CLEAR","Onshore,Onshore",2
5842041f4e65fad6a7708b69,2024_02_09,26.775154329102108,-80.03124833106995,Pumphouse,2,1.29,1.6,23,23,"NIGHT_MOSTLY_CLOUDY,NIGHT_OVERCAST","Onshore,Onshore",2
5842041f4e65fad6a7708b6a,2024_02_09,26.72114353296791,-80.03310374527736,Sunrise,2,1.175,1.37,24,22,"NIGHT_MOSTLY_CLOUDY,NIGHT_OVERCAST","Onshore,Onshore",2
5842041f4e65fad6a7708b6b,2024_02_09,26.71306786153966,-80.03222170715443,Breakers,2,1.255,1.45,24,22,"NIGHT_MOSTLY_CLOUDY,NIGHT_OVERCAST","Onshore,Onshore",2
5842041f4e65fad6a7708b6c,2024_02_09,26.699075556703683,-80.03263235092163,Charlie's Crab,2,1.23,1.54,24,22,"NIGHT_MOSTLY_CLOUDY,NIGHT_OVERCAST","Onshore,Onshore",2
5842041f4e65fad6a7708b6d,2024_02_09,26.79441490392914,-80.0306161110009,Ocean Reef Park,2,1.1800000000000002,1.365,24,22,"NIGHT_MOSTLY_CLOUDY,NIGHT_OVERCAST","Onshore,Onshore",2
5842041f4e65fad6a7708b6f,2024_02_09,26.93134670517399,-80.06760115579169,Civic Center,2,1.2064095833333335,1.6123112499999999,24,22,"NIGHT_MOSTLY_CLOUDY,NIGHT_OVERCAST","Onshore,Onshore",2
5842041f4e65fad6a7708b70,2024_02_09,26.90524197396177,-80.0593609780092,Kite Beach,2,1.1808716666666665,1.6124987499999999,24,22,"NIGHT_MOSTLY_CLOUDY,NIGHT_CLOUDY","Onshore,Onshore",2
5842041f4e65fad6a7708b71,2024_02_09,26.54279208054373,-80.04292130470276,Boynton Beach Inlet (Southside),2,1.04,1.105,24,22,"NIGHT_MOSTLY_CLOUDY,NIGHT_OVERCAST","Onshore,Onshore",2
5842041f4e65fad6a7708b72,2024_02_09,26.613511029817357,-80.03534198871253,Lake Worth Pier,1,0.565,0.865,24,22,"NIGHT_MOSTLY_CLOUDY,NIGHT_OVERCAST","Onshore,Onshore",2
5842041f4e65fad6a7708b73,2024_02_09,27.06670219261476,-80.11447191238403,Hobe Sound Public Beach,2,1.625,1.93,22,21,"NIGHT_CLEAR,NIGHT_CLOUDY","Onshore,Onshore",2
5842041f4e65fad6a7708b75,2024_02_09,27.21467611230439,-80.17308280299079,Stuart Public Beach,2,1.57,1.87,23,22,"NIGHT_CLEAR,NIGHT_OVERCAST","Onshore,Onshore",2
5842041f4e65fad6a7708b76,2024_02_09,27.36627923374593,-80.24622,Blind Creek Park,2.58,1.92,2.295,22,21,"NIGHT_MOSTLY_CLOUDY,NIGHT_MOSTLY_CLOUDY","Onshore,Onshore",2
5842041f4e65fad6a7708b77,2024_02_09,26.94256932088346,-80.0705677063405,Jupiter Inlet,2,1.5699999999999998,1.775,22,21,"NIGHT_MOSTLY_CLOUDY,NIGHT_OVERCAST","Onshore,Onshore",2
5842041f4e65fad6a7708b78,2024_02_09,26.89365359499372,-80.056,Juno Pier,2,1.1742000000000001,1.5870833333333334,24,22,"NIGHT_MOSTLY_CLOUDY,NIGHT_CLOUDY","Onshore,Onshore",2
5842041f4e65fad6a7708b7a,2024_02_09,29.67671206577928,-85.3689474172784,Cape San Blas,2,0.1,0.41000000000000003,15,15,"NIGHT_MIST,NIGHT_MIST","Cross-shore,Cross-shore",2
5842041f4e65fad6a7708b7b,2024_02_09,26.706551543472415,-80.03280401229858,Flagpole,2,1.1949999999999998,1.5,24,22,"NIGHT_MOSTLY_CLOUDY,NIGHT_OVERCAST","Onshore,Onshore",2
5842041f4e65fad6a7708b7c,2024_02_09,29.94036477533054,-85.40953557392244,El Governor,1,0,0.265,14,14,"NIGHT_MIST,NIGHT_CLEAR","Cross-shore,Offshore",2
5842041f4e65fad6a7708b7d,2024_02_09,29.68231979841189,-85.30627194238092,Toilet Bowls,1,0.09,0.395,15,15,"NIGHT_MIST,NIGHT_MIST","Onshore,Onshore",2
5842041f4e65fad6a7708b7e,2024_02_09,29.6607153445246,-84.86361191991014,St. George Island,1,0,0.22,14,14,"NIGHT_MIST,NIGHT_CLEAR","Onshore,Cross-shore",2
5842041f4e65fad6a7708b7f,2024_02_09,29.77441172865639,-84.65942657000329,Dog Island,1,0,0.22,15,15,"NIGHT_MIST,NIGHT_CLEAR","Onshore,Cross-shore",2
5842041f4e65fad6a7708b80,2024_02_09,28.59674155718017,-95.97559064551533,Matagorda,2,0.8400000000000001,1.145,15,15,"NIGHT_FOG,NIGHT_MIST","Onshore,Onshore",2
5842041f4e65fad6a7708b81,2024_02_09,27.84601633294622,-97.04372701603208,St. Joe's Island,2,0.71,1.02,16,16,"NIGHT_MIST,NIGHT_MIST","Onshore,Onshore",2
5842041f4e65fad6a7708b82,2024_02_09,27.64327897922308,-97.18612,J.P. Luby Surf Park,2,0.7074400000000001,1.105375,16,16,"NIGHT_BRIEF_SHOWERS,NIGHT_MIST","Onshore,Onshore",2
5842041f4e65fad6a7708b83,2024_02_09,27.82704888028459,-97.05277,Horace Caldwell Pier,2,0.7774749999999999,1.2148,16,16,"NIGHT_MIST,NIGHT_MIST","Onshore,Onshore",2
5842041f4e65fad6a7708b84,2024_02_09,27.67634780977739,-97.16473,Fish Pass,2.5,0.7074400000000001,1.105375,16,16,"NIGHT_SHOWERS,NIGHT_FOG","Onshore,Onshore",2
5842041f4e65fad6a7708b85,2024_02_09,27.58118015227788,-97.2191,Bob Hall Pier,2,0.766715,1.197995,16,16,"NIGHT_BRIEF_SHOWERS,NIGHT_MIST","Onshore,Onshore",2
5842041f4e65fad6a7708b86,2024_02_09,28.93236038480434,-95.30205,Quintana,3,0.830395,1.297495,14,14,"NIGHT_MIST,NIGHT_MIST","Onshore,Onshore",2
5842041f4e65fad6a7708b87,2024_02_09,28.94367955201253,-95.28969,Octagon,2,0.830395,1.297495,14,14,"NIGHT_MIST,NIGHT_MIST","Onshore,Onshore",2
5842041f4e65fad6a7708b88,2024_02_09,29.02647703020454,-95.18702498902157,Boilers,2,0.67,0.975,14,14,"NIGHT_MIST,NIGHT_MIST","Onshore,Onshore",2
5842041f4e65fad6a7708b89,2024_02_09,28.9653363517684,-95.26739753922841,Assholes,2,0.825,1.13,14,14,"NIGHT_MIST,NIGHT_MIST","Onshore,Onshore",2
5842041f4e65fad6a7708b8a,2024_02_09,29.27159138874912,-94.81532732168617,51st Street,2,0.72,1.025,14,14,"NIGHT_MIST,NIGHT_CLOUDY","Onshore,Onshore",2
5842041f4e65fad6a7708b8b,2024_02_09,29.13902635892794,-95.04070493829546,West Galveston,2,0.6699999999999999,0.97,14,14,"NIGHT_MIST,NIGHT_MIST","Onshore,Onshore",2
5842041f4e65fad6a7708b8c,2024_02_09,29.26596874354759,-94.82556,61st Street,2,0.7155199999999999,1.1179999999999999,14,14,"NIGHT_MIST,NIGHT_MIST","Onshore,Onshore",2
5842041f4e65fad6a7708b8d,2024_02_09,29.279815639798642,-94.80146,37th Street,2,0.65345,1.021015,14,14,"NIGHT_MIST,NIGHT_MIST","Onshore,Onshore",2
5842041f4e65fad6a7708b8e,2024_02_09,29.28680654948785,-94.79106,Flagship,2,0.625985,0.9781,14,14,"NIGHT_MIST,NIGHT_MIST","Onshore,Onshore",2
5842041f4e65fad6a7708b8f,2024_02_09,29.4702751255731,-94.59146640261427,A-Frames,2,0.485,0.79,14,14,"NIGHT_FOG,NIGHT_OVERCAST","Onshore,Onshore",2
5842041f4e65fad6a7708b90,2024_02_09,29.52172627288487,-94.45911,Meacom's Pier,2,0.6685749999999999,1.044645,14,14,"NIGHT_MIST,NIGHT_MIST","Onshore,Onshore",2
5842041f4e65fad6a7708b91,2024_02_09,29.4510876813709,-94.63230467945758,Crystal Beach,2,0.52,0.825,14,14,"NIGHT_FOG,NIGHT_DRIZZLE","Onshore,Onshore",2
5842041f4e65fad6a7708b92,2024_02_09,26.06123118244004,-97.14769,Boca Chica,1,0.62876,0.98244,17,17,"NIGHT_CLEAR,NIGHT_MOSTLY_CLOUDY","Cross-shore,Onshore",2
5842041f4e65fad6a7708b93,2024_02_09,26.06961904983808,-97.15243,Isla Blanca State Park,1,0.49129,0.76764,17,17,"NIGHT_CLEAR,NIGHT_MOSTLY_CLOUDY","Cross-shore,Cross-shore",2
5842041f4e65fad6a7708b96,2024_02_09,26.56132001354785,-97.26967,Port Mansfield,2,0.71594,1.1186600000000002,18,18,"NIGHT_MIST,NIGHT_MIST","Onshore,Onshore",2
5842041f4e65fad6a7708b98,2024_02_09,10.85099440725964,-85.79981,Ollie's Point,2,0.155,0.45499999999999996,29,29,"NIGHT_CLEAR,NIGHT_CLEAR","Offshore,Offshore",2
5842041f4e65fad6a7708b99,2024_02_09,10.79489213393012,-85.68066,Witches Rock,2,0.2,0.505,29,29,"NIGHT_CLEAR,NIGHT_CLEAR","Offshore,Offshore",2
5842041f4e65fad6a7708b9a,2024_02_09,9.570222044864844,-85.14184,Mal Pais,3,0.48,0.7849999999999999,29,29,"NIGHT_CLEAR,NIGHT_CLEAR","Offshore,Offshore",2
5842041f4e65fad6a7708b9b,2024_02_09,10.29970304257365,-85.84398,Tamarindo,1.5,0.29500000000000004,0.595,29,29,"NIGHT_CLEAR,NIGHT_CLEAR","Offshore,Offshore",2
5842041f4e65fad6a7708b9c,2024_02_09,9.250593929300813,-83.86522,Dominical,3,0.43,0.73,31,31,"NIGHT_CLEAR,NIGHT_CLEAR","Offshore,Offshore",2
5842041f4e65fad6a7708b9d,2024_02_09,9.48278011021258,-84.28883991550364,Bejuco,3,0.345,0.645,30,30,"NIGHT_CLEAR,NIGHT_CLEAR","Offshore,Offshore",2
5842041f4e65fad6a7708ba1,2024_02_09,9.616940559391795,-84.63541,Playa Jaco,3,0.505865,0.790415,30,30,"NIGHT_CLEAR,NIGHT_CLEAR","Offshore,Offshore",2
5842041f4e65fad6a7708ba3,2024_02_09,9.661646156842439,-84.67316883195207,Playa Escondida,1,0.245,0.55,30,30,"NIGHT_CLEAR,NIGHT_CLEAR","Cross-shore,Cross-shore",2
5842041f4e65fad6a7708ba4,2024_02_09,9.635059578319176,-84.66159522794959,Herradura,1,0.26,0.565,30,30,"NIGHT_CLEAR,NIGHT_CLEAR","Cross-shore,Cross-shore",2
5842041f4e65fad6a7708ba5,2024_02_09,9.958235741436532,-84.74122,Boca Barranca,3,0.43896999999999997,0.68589,29,29,"NIGHT_CLEAR,NIGHT_CLEAR","Offshore,Offshore",2
5842041f4e65fad6a7708ba6,2024_02_09,9.922484732656224,-84.7158981889118,Caldera Jetty,2,0.225,0.53,29,29,"NIGHT_CLEAR,NIGHT_CLEAR","Offshore,Offshore",2
5842041f4e65fad6a7708ba7,2024_02_09,9.661180947362254,-82.75273,Salsa Brava,2,0.746705,1.16673,29,29,"NIGHT_LIGHT_SHOWERS,NIGHT_LIGHT_SHOWERS","Onshore,Onshore",2
5842041f4e65fad6a7708ba8,2024_02_09,8.38230022212565,-83.2833208585971,Matapalo,3,0.435,0.735,31,31,"NIGHT_BRIEF_SHOWERS,NIGHT_BRIEF_SHOWERS_POSSIBLE","Offshore,Offshore",2
5842041f4e65fad6a7708ba9,2024_02_09,8.394937,-83.13952,Pavones,3,0.355,0.665,31,31,"NIGHT_BRIEF_SHOWERS,NIGHT_BRIEF_SHOWERS_POSSIBLE","Offshore,Offshore",2
5842041f4e65fad6a7708baa,2024_02_09,13.47971255664387,-89.28610104791234,Playa San Diego,3,0.47,0.775,28,28,"NIGHT_CLEAR,NIGHT_CLEAR","Offshore,Offshore",2
5842041f4e65fad6a7708bab,2024_02_09,13.4834740494465,-89.32376,La Paz,3,0.41273499999999996,0.644895,29,29,"NIGHT_CLEAR,NIGHT_CLEAR","Offshore,Cross-shore",2
5842041f4e65fad6a7708bac,2024_02_09,13.48587874937462,-89.31998852531258,El Muelle (Pier),3,0.6000000000000001,0.8999999999999999,29,29,"NIGHT_CLEAR,NIGHT_CLEAR","Offshore,Offshore",2
5842041f4e65fad6a7708bad,2024_02_09,13.47973883183636,-89.32655,Punta Roca,3,0.675,0.9750000000000001,29,29,"NIGHT_CLEAR,NIGHT_CLEAR","Offshore,Offshore",2
5842041f4e65fad6a7708bae,2024_02_09,13.491596878346689,-89.38104,La Bocana,3,0.52886,0.826355,29,29,"NIGHT_CLEAR,NIGHT_CLEAR","Offshore,Offshore",2
5842041f4e65fad6a7708baf,2024_02_09,13.48324995683858,-89.33946,Playa Conchalio,3,0.5133749999999999,0.8021499999999999,29,29,"NIGHT_CLEAR,NIGHT_CLEAR","Offshore,Offshore",2
5842041f4e65fad6a7708bb0,2024_02_09,13.49167561061991,-89.39,Sunzal,3,0.5079400000000001,0.793655,29,29,"NIGHT_CLEAR,NIGHT_CLEAR","Offshore,Offshore",2
5842041f4e65fad6a7708bb1,2024_02_09,35.92499624829542,-121.4695748415559,Sand Dollar Beach,3,3.62,4.325,13,13,"NIGHT_MIST,NIGHT_MIST","Cross-shore,Offshore",2
5842041f4e65fad6a7708bb3,2024_02_09,36.55448900657569,-121.9311417414934,Carmel Beach,3,1.5550000000000002,1.85,13,13,"NIGHT_MOSTLY_CLOUDY,NIGHT_CLEAR","Cross-shore,Offshore",2
5842041f4e65fad6a7708bb4,2024_02_09,36.27968576518622,-121.85962,Big Sur Rivermouth,3,1.755,2.0949999999999998,13,13,"NIGHT_BRIEF_SHOWERS,NIGHT_MOSTLY_CLEAR","Offshore,Offshore",2
5842041f4e65fad6a7708bb5,2024_02_09,36.60883280895963,-121.9603486684287,Mole Point,2.5,2.46,2.9050000000000002,13,13,"NIGHT_CLEAR,NIGHT_CLEAR","Onshore,Offshore",2
5842041f4e65fad6a7708bb6,2024_02_09,36.63788026219399,-121.9311174079908,Boneyard,3,2,2.395,13,13,"NIGHT_MOSTLY_CLOUDY,NIGHT_CLEAR","Onshore,Cross-shore",2
5842041f4e65fad6a7708bb7,2024_02_09,36.61880091818895,-121.9422482210244,Asilomar,2.5,2.9299999999999997,3.5,13,13,"NIGHT_CLEAR,NIGHT_CLEAR","Onshore,Offshore",2
5842041f4e65fad6a7708bb8,2024_02_09,36.56037685095311,-121.9516152313922,Ghost Tree,3.5,1.67,2,13,13,"NIGHT_MOSTLY_CLOUDY,NIGHT_CLEAR","Cross-shore,Offshore",2
5842041f4e65fad6a7708bbb,2024_02_09,35.89412279173619,-121.462380148047,Willow Creek,3,2.5999999999999996,3.0999999999999996,13,13,"NIGHT_CLEAR,NIGHT_CLEAR","Cross-shore,Offshore",2
5842041f4e65fad6a7708bbc,2024_02_09,36.6260658643635,-121.9154753515004,Lover's Point,3.5,1.795,2.15,13,13,"NIGHT_MOSTLY_CLOUDY,NIGHT_CLEAR","Onshore,Cross-shore",2
5842041f4e65fad6a7708bbd,2024_02_09,38.945,-9.42,Foz de Lizandro,0.5,1.76573,2.75895,16,16,"NIGHT_LIGHT_SHOWERS,LIGHT_SHOWERS_POSSIBLE","Onshore,Onshore",2
5842041f4e65fad6a7708bbf,2024_02_09,36.80821791915616,-121.7905508507365,Moss Landing,4,2.61,3.08,13,13,"NIGHT_MOSTLY_CLEAR,NIGHT_CLEAR","Offshore,Offshore",2
