_id,date,lat,lon,name,daily_mean_swell_rating,daily_mean_wave_height_min,daily_mean_wave_height_max,daily_mean_water_temperature_max,daily_mean_water_temperature_min,weather_per_timestamp,wind_per_timestamp,n_samples_per_day
5842041f4e65fad6a77087f9,2024_11_09,37.741668,-122.51038,South Ocean Beach,3.7222222222222223,1.8140333333333332,2.2862933333333335,13,13,"NIGHT_CLEAR,NIGHT_CLEAR,CLEAR","Offshore,Offshore,Onshore",3
5842041f4e65fad6a7708801,2024_11_09,37.49142,-122.50428,Maverick's,NA,1.6433333333333333,1.9533333333333334,13,13,"NIGHT_CLEAR,NIGHT_CLEAR,CLEAR","Cross-shore,Offshore,Cross-shore",3
5842041f4e65fad6a7708804,2024_11_09,44.997,-124.018,Roads End,3,2.6366666666666667,3.0733333333333333,12.333333333333334,12.333333333333334,"NIGHT_CLEAR,NIGHT_CLEAR,CLEAR","Cross-shore,Cross-shore,Cross-shore",3
5842041f4e65fad6a7708805,2024_11_09,36.95188851423011,-122.02522,Steamer Lane,3.3333333333333335,1.1114166666666667,1.52017,13,13,"NIGHT_CLEAR,NIGHT_CLEAR,CLEAR","Offshore,Offshore,Onshore",3
5842041f4e65fad6a7708806,2024_11_09,36.95918781542251,-122.02489,Cowells,0.611111111111111,0,0.18117333333333333,13,13,"NIGHT_CLEAR,NIGHT_CLEAR,CLEAR","Cross-shore,Offshore,Onshore",3
5842041f4e65fad6a7708807,2024_11_09,36.95468082526536,-121.97234,Pleasure Point,3,0.9816066666666667,1.2910966666666666,13,13,"NIGHT_CLEAR,NIGHT_CLEAR,CLEAR","Offshore,Offshore,Onshore",3
5842041f4e65fad6a770880a,2024_11_09,35.37815414378748,-120.86589,Morro Bay,3,0.8221333333333333,1.11151,12,12,"NIGHT_CLEAR,NIGHT_CLEAR,CLEAR","Cross-shore,Cross-shore,Onshore",3
5842041f4e65fad6a770880b,2024_11_09,36.95782765000708,-121.96729,Jack's,2.3333333333333335,0.37050333333333335,0.6789,13,13,"NIGHT_CLEAR,NIGHT_CLEAR,CLEAR","Offshore,Offshore,Offshore",3
5842041f4e65fad6a770880d,2024_11_09,34.29982939936656,-119.3489016603669,Gold Coast Beachbreaks,2,0.07,0.37,15.666666666666666,15.666666666666666,"NIGHT_CLEAR,NIGHT_CLEAR,CLEAR","Offshore,Offshore,Onshore",3
5842041f4e65fad6a7708811,2024_11_09,34.245076,-119.26799,Ventura Harbor,2.388888888888889,0.3821333333333333,0.6865333333333333,14,14,"NIGHT_CLEAR,NIGHT_CLEAR,CLEAR","Offshore,Cross-shore,Onshore",3
5842041f4e65fad6a7708813,2024_11_09,34.051,-118.964,County Line,2,0.24106666666666668,0.5465766666666667,14,14,"NIGHT_CLEAR,NIGHT_CLEAR,CLEAR","Offshore,Cross-shore,Offshore",3
5842041f4e65fad6a7708814,2024_11_09,34.37256264378892,-119.47797,Rincon,1,0,0.27666666666666667,15.666666666666666,15.666666666666666,"NIGHT_CLEAR,NIGHT_CLEAR,CLEAR","Cross-shore,Offshore,Onshore",3
5842041f4e65fad6a7708817,2024_11_09,34.03096101876324,-118.68109,Malibu Third Point,2,0.15275666666666668,0.45329,15,15,"NIGHT_CLEAR,NIGHT_CLEAR,CLEAR","Cross-shore,Offshore,Onshore",3
5842041f4e65fad6a7708819,2024_11_09,33.984079047970035,-118.47382,Venice Beach,1.9444444444444444,0.3247,0.6275333333333334,16,16,"NIGHT_CLEAR,NIGHT_CLEAR,CLEAR","Offshore,Cross-shore,Onshore",3
5842041f4e65fad6a770881e,2024_11_09,34.037508438646746,-118.5834,Topanga Beach,1.6666666666666667,0.04856333333333333,0.2753,17,17,"NIGHT_CLEAR,NIGHT_CLEAR,CLEAR","Cross-shore,Cross-shore,Onshore",3
5842041f4e65fad6a7708820,2024_11_09,33.73954373690184,-118.11414,Seal Beach Jetty,2.3333333333333335,0.29333333333333333,0.6033333333333333,16,16,"NIGHT_CLEAR,NIGHT_CLEAR,CLEAR","Offshore,Offshore,Onshore",3
5842041f4e65fad6a7708822,2024_11_09,33.72309983348433,-118.08078,Anderson Street,1.3888888888888888,0.30448666666666663,0.5818766666666666,16,16,"NIGHT_CLEAR,NIGHT_CLEAR,CLEAR","Offshore,Offshore,Onshore",3
5842041f4e65fad6a7708827,2024_11_09,33.65574085629463,-118.00397,Huntington Beach Pier Northside,2.9444444444444446,0.6409333333333334,1.00314,16,16,"NIGHT_CLEAR,NIGHT_CLEAR,CLEAR","Offshore,Offshore,Onshore",3
5842041f4e65fad6a7708828,2024_11_09,34.272041739333,-119.29976,C St.,2,0.3204533333333333,0.6213166666666666,14,14,"NIGHT_CLEAR,NIGHT_CLEAR,CLEAR","Offshore,Offshore,Onshore",3
5842041f4e65fad6a770882a,2024_11_09,33.61555743705257,-117.93676,Newport Lower Jetties,1.722222222222222,0.26998,0.5771633333333334,17,17,"NIGHT_CLEAR,NIGHT_CLEAR,CLEAR","Offshore,Offshore,Onshore",3
5842041f4e65fad6a770882b,2024_11_09,33.5930302087,-117.88199,The Wedge,1.3333333333333333,0.15916666666666668,0.3772333333333333,17,17,"NIGHT_CLEAR,NIGHT_CLEAR,CLEAR","Offshore,Offshore,Onshore",3
5842041f4e65fad6a770882e,2024_11_09,33.475793399792984,-117.72291,Salt Creek,3,0.4212033333333334,0.7722766666666666,17,17,"NIGHT_CLEAR,NIGHT_CLEAR,CLEAR","Offshore,Offshore,Onshore",3
5842041f4e65fad6a7708830,2024_11_09,33.41800974113613,-117.61952,T-Street,2.611111111111111,0.39247333333333334,0.7025733333333334,17,17,"NIGHT_CLEAR,NIGHT_CLEAR,CLEAR","Offshore,Offshore,Onshore",3
5842041f4e65fad6a7708832,2024_11_09,33.202391008646,-117.39475,Oceanside Harbor,2.3333333333333335,0.37267666666666666,0.72582,17,17,"NIGHT_CLEAR,NIGHT_CLEAR,CLEAR","Offshore,Offshore,Onshore",3
5842041f4e65fad6a7708835,2024_11_09,33.19477795952803,-117.38667,Oceanside Pier,2,0.32269666666666663,0.6244766666666667,17,17,"NIGHT_CLEAR,NIGHT_CLEAR,CLEAR","Offshore,Offshore,Onshore",3
5842041f4e65fad6a7708837,2024_11_09,33.14948100706,-117.35029,Tamarack,2,0.27765333333333336,0.58583,16.333333333333332,16.333333333333332,"NIGHT_CLEAR,NIGHT_CLEAR,CLEAR","Offshore,Offshore,Onshore",3
5842041f4e65fad6a7708839,2024_11_09,32.865777159358856,-117.25614,Scripps,2,0.30589333333333335,0.6768733333333333,17,17,"NIGHT_CLEAR,NIGHT_CLEAR,CLEAR","Offshore,Offshore,Onshore",3
5842041f4e65fad6a770883a,2024_11_09,32.813094,-117.27381,Birdrock,2,0.19666666666666666,0.49666666666666665,17,17,"NIGHT_CLEAR,NIGHT_CLEAR,CLEAR","Offshore,Offshore,Onshore",3
5842041f4e65fad6a770883b,2024_11_09,32.88338,-117.25571,Blacks,2.055555555555556,0.2946666666666667,0.5967,17,17,"NIGHT_CLEAR,NIGHT_CLEAR,CLEAR","Offshore,Offshore,Onshore",3
5842041f4e65fad6a770883c,2024_11_09,32.82978974229765,-117.28162,Windansea,1.9444444444444444,0.19041,0.498,17,17,"NIGHT_CLEAR,NIGHT_CLEAR,CLEAR","Offshore,Offshore,Onshore",3
5842041f4e65fad6a770883d,2024_11_09,32.838278,-117.28396,Horseshoe,2,0.24333333333333335,0.55,17,17,"NIGHT_CLEAR,NIGHT_CLEAR,CLEAR","Offshore,Offshore,Onshore",3
5842041f4e65fad6a770883f,2024_11_09,32.75034717673179,-117.25337,Ocean Beach,2.055555555555556,0.37082333333333334,0.6789633333333334,16,16,"NIGHT_CLEAR,NIGHT_CLEAR,CLEAR","Offshore,Offshore,Onshore",3
5842041f4e65fad6a7708840,2024_11_09,32.73693,-117.25718,Sunset Cliffs,1,0.16,0.47000000000000003,17,17,"NIGHT_CLEAR,NIGHT_CLEAR,CLEAR","Offshore,Offshore,Onshore",3
5842041f4e65fad6a7708841,2024_11_09,32.796582258728826,-117.25779,Pacific Beach,2.3333333333333335,0.35616,0.71208,17,17,"NIGHT_CLEAR,NIGHT_CLEAR,CLEAR","Offshore,Offshore,Cross-shore",3
5842041f4e65fad6a7708842,2024_11_09,32.776636,-117.25514,Mission Beach,2,0.24716666666666667,0.54809,17,17,"NIGHT_CLEAR,NIGHT_CLEAR,CLEAR","Offshore,Offshore,Onshore",3
5842041f4e65fad6a7708844,2024_11_09,32.577195519016,-117.13475,Imperial Beach Pier,2,0.2833333333333333,0.5933333333333333,17,17,"NIGHT_CLEAR,NIGHT_CLEAR,CLEAR","Offshore,Offshore,Onshore",3
5842041f4e65fad6a770884a,2024_11_09,42.88678181061,-70.80843,Seabrook,0.611111111111111,0.0013233333333333333,0.30361333333333335,12,11,"NIGHT_CLEAR,CLEAR,CLEAR","Offshore,Offshore,Offshore",3
5842041f4e65fad6a770884e,2024_11_09,41.434181432898335,-71.45312,Narragansett,0.16666666666666666,0,0.15917666666666666,15,14,"NIGHT_CLEAR,CLEAR,CLEAR","Offshore,Offshore,Offshore",3
5842041f4e65fad6a7708850,2024_11_09,40.582703230722,-73.65247,Lincoln Blvd,0.3333333333333333,0,0.2047,16,14,"NIGHT_CLEAR,CLEAR,CLEAR","Offshore,Offshore,Offshore",3
5842041f4e65fad6a7708852,2024_11_09,40.58342841721757,-73.81182,Rockaways,0.3333333333333333,0.007030000000000001,0.20243666666666665,16,14,"NIGHT_CLEAR,CLEAR,CLEAR","Offshore,Offshore,Offshore",3
5842041f4e65fad6a7708853,2024_11_09,40.330474,-73.9734,Monmouth Beach,0.3333333333333333,0.09777666666666666,0.3542866666666667,16,15,"NIGHT_CLEAR,CLEAR,CLEAR","Offshore,Offshore,Offshore",3
5842041f4e65fad6a7708856,2024_11_09,40.113,-74.028,Manasquan Inlet,0.3333333333333333,0.005276666666666667,0.26178666666666667,16,15,"NIGHT_CLEAR,CLEAR,CLEAR","Offshore,Offshore,Offshore",3
5842041f4e65fad6a7708857,2024_11_09,39.941519877445664,-74.06829,Casino Pier,0.4444444444444444,0.0225,0.32558,16,15,"NIGHT_CLEAR,CLEAR,CLEAR","Offshore,Cross-shore,Offshore",3
5842041f4e65fad6a7708858,2024_11_09,39.28223089949212,-74.55766,North End OC,1.3888888888888888,0.060553333333333334,0.3636333333333333,17,16,"NIGHT_CLEAR,CLEAR,CLEAR","Offshore,Offshore,Offshore",3
5842041f4e65fad6a770885b,2024_11_09,39.65080599934257,-74.17146,Ship Bottom,0.611111111111111,0.08471000000000001,0.38817666666666667,17,17,"NIGHT_CLEAR,CLEAR,CLEAR","Offshore,Offshore,Offshore",3
5842041f4e65fad6a7708863,2024_11_09,36.034151543144,-75.66791,Third Street,1,0.7320566666666667,1.1780233333333334,19,18,"NIGHT_CLEAR,CLEAR,CLEAR","Onshore,Onshore,Onshore",3
5842041f4e65fad6a7708867,2024_11_09,35.605833221351425,-75.46303,S-Turns,-0.06666666666666667,0.7692333333333333,1.2342,21,20,"NIGHT_CLEAR,CLEAR,CLEAR","Cross-shore,Onshore,Onshore",3
5842041f4e65fad6a770886d,2024_11_09,38.338461,-75.08117,Ocean City Boardwalk,1.2222222222222223,0.46531666666666666,0.7712933333333334,18,17,"NIGHT_CLEAR,CLEAR,CLEAR","Cross-shore,Cross-shore,Cross-shore",3
5842041f4e65fad6a770886f,2024_11_09,29.844757212379562,-81.26136,A St.,2,0.4766666666666667,0.78,24,24,"NIGHT_CLEAR,SHOWERS,MOSTLY_CLOUDY","Onshore,Onshore,Onshore",3
5842041f4e65fad6a7708871,2024_11_09,29.069417851135093,-80.90824,New Smyrna Beach,1.6111111111111112,0.5445333333333333,0.8941666666666667,25,24,"NIGHT_MIST,CLEAR,MOSTLY_CLOUDY","Onshore,Onshore,Onshore",3
5842041f4e65fad6a7708872,2024_11_09,28.367707417566,-80.60171,Cocoa Beach Pier,2,0.46577666666666667,0.77551,25,25,"NIGHT_MOSTLY_CLOUDY,MOSTLY_CLOUDY,CLEAR","Onshore,Onshore,Onshore",3
5842041f4e65fad6a7708873,2024_11_09,28.091782738658846,-80.56479,Indialantic,1.4444444444444444,0.48536666666666667,0.7853766666666666,25,25,"NIGHT_MOSTLY_CLOUDY,CLEAR,MOSTLY_CLOUDY","Onshore,Onshore,Onshore",3
5842041f4e65fad6a7708876,2024_11_09,27.25392904143517,-80.19455,Jensen Beach,1,0.5083566666666667,0.8613233333333333,27,26,"NIGHT_CLEAR,CLEAR,MOSTLY_CLOUDY","Onshore,Onshore,Onshore",3
5842041f4e65fad6a7708879,2024_11_09,26.76346795333825,-80.03607,Reef Road,1,0.3464,0.64641,27,27,"NIGHT_CLEAR,MOSTLY_CLOUDY,CLEAR","Onshore,Onshore,Onshore",3
5842041f4e65fad6a770887c,2024_11_09,26.336499228484,-80.06956100463,Boca Raton Inlet,0.9444444444444444,0.2489,0.54891,27,27,"NIGHT_MOSTLY_CLEAR,MOSTLY_CLOUDY,CLEAR","Onshore,Onshore,Onshore",3
5842041f4e65fad6a770887d,2024_11_09,26.31719311695038,-80.07453,Deerfield Beach Pier,1,0.2726266666666667,0.51514,27,27,"NIGHT_CLEAR,MOSTLY_CLOUDY,MOSTLY_CLOUDY","Onshore,Onshore,Onshore",3
5842041f4e65fad6a7708881,2024_11_09,30.20276320866628,-85.85626528676136,"Spyglass Dr., Panama City",2.3333333333333335,0.57981,0.95099,25,24,"NIGHT_MOSTLY_CLEAR,CLEAR,CLEAR","Offshore,Offshore,Cross-shore",3
5842041f4e65fad6a7708884,2024_11_09,33.39000832738053,-117.59852,Cottons,2.611111111111111,0.36195666666666665,0.6675333333333333,17,17,"NIGHT_CLEAR,NIGHT_CLEAR,CLEAR","Offshore,Offshore,Onshore",3
5842041f4e65fad6a7708885,2024_11_09,33.359416282661,-117.54168,Trails,2,0.22666666666666666,0.5333333333333333,16,16,"NIGHT_CLEAR,NIGHT_CLEAR,CLEAR","Offshore,Offshore,Onshore",3
5842041f4e65fad6a7708886,2024_11_09,33.38042605929805,-117.58332,Middles,2.6666666666666665,0.36,0.6633333333333333,16,16,"NIGHT_CLEAR,NIGHT_CLEAR,CLEAR","Offshore,Offshore,Onshore",3
5842041f4e65fad6a7708887,2024_11_09,33.38445596302903,-117.59445,Upper Trestles,3,0.36612,0.6755866666666667,17,17,"NIGHT_CLEAR,NIGHT_CLEAR,CLEAR","Offshore,Offshore,Cross-shore",3
5842041f4e65fad6a7708889,2024_11_09,28.944414,-95.28883,Surfside,3,1.5974599999999999,1.9013666666666666,25,25,"NIGHT_MIST,OVERCAST,CLEAR","Offshore,Offshore,Offshore",3
5842041f4e65fad6a770888a,2024_11_09,33.38143999849023,-117.58843,Lower Trestles,3,0.6484566666666667,0.9959233333333334,17,17,"NIGHT_CLEAR,NIGHT_CLEAR,CLEAR","Offshore,Offshore,Onshore",3
5842041f4e65fad6a770888b,2024_11_09,33.379622288757,-117.57894,Church,2.388888888888889,0.33113333333333334,0.6353233333333334,17,17,"NIGHT_CLEAR,NIGHT_CLEAR,CLEAR","Offshore,Offshore,Onshore",3
5842041f4e65fad6a770888d,2024_11_09,21.679,-158.042,Sunset Beach,3.6666666666666665,1.777665,2.265815,26,25,"NIGHT_BRIEF_SHOWERS,CLEAR","Offshore,Cross-shore",2
5842041f4e65fad6a770888e,2024_11_09,21.670550036401,-158.0482,Rocky Point,3.5,1.888465,2.4000399999999997,26,25,"NIGHT_CLEAR,CLEAR","Cross-shore,Cross-shore",2
5842041f4e65fad6a770888f,2024_11_09,21.668,-158.05,Chambers,3,2.340745,2.896835,26,26,"NIGHT_CLEAR,CLEAR","Cross-shore,Cross-shore",2
5842041f4e65fad6a7708890,2024_11_09,21.66522,-158.0526,Pipeline,2.833333333333333,1.4825249999999999,2.102845,26,25,"NIGHT_CLEAR,CLEAR","Cross-shore,Cross-shore",2
5842041f4e65fad6a7708891,2024_11_09,21.665,-158.054,Backdoor,3,1.4062999999999999,1.918615,26,25,"NIGHT_CLEAR,CLEAR","Cross-shore,Cross-shore",2
5842041f4e65fad6a7708892,2024_11_09,21.662,-158.057,Rockpile,3,1.945,2.295,26,26,"NIGHT_CLEAR,CLEAR","Cross-shore,Cross-shore",2
5842041f4e65fad6a7708893,2024_11_09,21.65870453806827,-158.06058,Log Cabins,3,1.495,1.81,26,26,"NIGHT_CLEAR,CLEAR","Cross-shore,Cross-shore",2
5842041f4e65fad6a7708894,2024_11_09,21.66203493640557,-158.05495,Off-The-Wall,3.5,1.7999999999999998,2.1550000000000002,26,26,"NIGHT_CLEAR,CLEAR","Cross-shore,Cross-shore",2
5842041f4e65fad6a7708895,2024_11_09,21.643,-158.067,Waimea Bay,NA,1.963915,2.450815,26,25,"NIGHT_CLEAR,CLEAR","Offshore,Offshore",2
5842041f4e65fad6a7708896,2024_11_09,21.622,-158.087,Hultin's,4,1.8488,2.4488849999999998,26,25,"NIGHT_CLEAR,CLEAR","Offshore,Offshore",2
5842041f4e65fad6a7708897,2024_11_09,21.623,-158.085,Jocko's,3,1.078855,1.6121699999999999,26,26,"NIGHT_CLEAR,CLEAR","Cross-shore,Onshore",2
5842041f4e65fad6a7708898,2024_11_09,21.62,-158.088,Laniakea,3,1.509635,1.969865,26,25,"NIGHT_CLEAR,CLEAR","Cross-shore,Cross-shore",2
5842041f4e65fad6a7708899,2024_11_09,21.625,-158.083,Chun's,3,1.5699999999999998,1.85,26,26,"NIGHT_CLEAR,CLEAR","Offshore,Offshore",2
5842041f4e65fad6a770889c,2024_11_09,21.286357895152136,-157.8515,Ala Moana Beach Park,2,0.33,0.64,26,26,"NIGHT_CLEAR,CLEAR","Offshore,Offshore",2
5842041f4e65fad6a770889d,2024_11_09,19.606,-155.978,Banyans,2.833333333333333,0.473985,0.8464499999999999,26,25,"NIGHT_CLEAR,CLEAR","Offshore,Onshore",2
5842041f4e65fad6a770889e,2024_11_09,20.029,-155.831,Kawaihae,1.5,0.4444,0.6110599999999999,27,27,"NIGHT_CLEAR,CLEAR","Offshore,Offshore",2
5842041f4e65fad6a770889f,2024_11_09,33.07541383424675,-117.3105,Grandview,2,0.2856633333333333,0.6344233333333333,17,17,"NIGHT_CLEAR,NIGHT_CLEAR,CLEAR","Offshore,Offshore,Onshore",3
5842041f4e65fad6a77088a0,2024_11_09,33.065267421296596,-117.30577,Beacons,2,0.3299266666666667,0.6342166666666667,17,17,"NIGHT_CLEAR,NIGHT_CLEAR,CLEAR","Offshore,Offshore,Onshore",3
5842041f4e65fad6a77088a2,2024_11_09,21.252,-157.805,Diamond Head,2,0.577705,0.8931450000000001,26,25,"NIGHT_CLEAR,MOSTLY_CLEAR","Offshore,Cross-shore",2
5842041f4e65fad6a77088a3,2024_11_09,33.04694255008896,-117.29966,Moonlight State Beach,2,0.14,0.44333333333333336,17,17,"NIGHT_CLEAR,NIGHT_CLEAR,CLEAR","Offshore,Offshore,Onshore",3
5842041f4e65fad6a77088a5,2024_11_09,33.08685865930869,-117.31532,Ponto,2,0.34237333333333336,0.64125,16.333333333333332,16.333333333333332,"NIGHT_CLEAR,NIGHT_CLEAR,CLEAR","Offshore,Offshore,Onshore",3
5842041f4e65fad6a77088a6,2024_11_09,33.130343587871906,-117.33668,Terra Mar Point,2,0.18287666666666666,0.49052,17,17,"NIGHT_CLEAR,NIGHT_CLEAR,CLEAR","Offshore,Offshore,Onshore",3
5842041f4e65fad6a77088af,2024_11_09,32.95916304183685,-117.26963,Del Mar,2,0.3234666666666667,0.6320899999999999,17,17,"NIGHT_CLEAR,NIGHT_CLEAR,CLEAR","Offshore,Offshore,Onshore",3
5842041f4e65fad6a77088b0,2024_11_09,32.97527261243354,-117.2721061331305,Del Mar Rivermouth,2,0.18,0.48333333333333334,17,17,"NIGHT_CLEAR,NIGHT_CLEAR,CLEAR","Offshore,Offshore,Onshore",3
5842041f4e65fad6a77088b1,2024_11_09,33.01352178146273,-117.28219,Cardiff Reef,2.055555555555556,0.20543666666666668,0.5174433333333334,17,17,"NIGHT_CLEAR,NIGHT_CLEAR,CLEAR","Offshore,Offshore,Onshore",3
5842041f4e65fad6a77088b3,2024_11_09,33.00211185876003,-117.2811,Seaside Reef,2,0.17666666666666667,0.48666666666666664,17,17,"NIGHT_CLEAR,NIGHT_CLEAR,CLEAR","Offshore,Offshore,Onshore",3
5842041f4e65fad6a77088b4,2024_11_09,33.0341859796287,-117.29552,Swami's,2,0.10680666666666666,0.41440333333333335,17,17,"NIGHT_CLEAR,NIGHT_CLEAR,CLEAR","Offshore,Offshore,Onshore",3
5842041f4e65fad6a77088b7,2024_11_09,33.04569760260221,-117.2994,D Street,2.3333333333333335,0.32395,0.6708033333333333,17,17,"NIGHT_CLEAR,NIGHT_CLEAR,CLEAR","Offshore,Offshore,Onshore",3
5842041f4e65fad6a77088b8,2024_11_09,33.02090944350196,-117.28535,San Elijo State Beach,1.6666666666666667,0.09360333333333333,0.3880733333333333,17,17,"NIGHT_CLEAR,NIGHT_CLEAR,CLEAR","Offshore,Offshore,Onshore",3
5842041f4e65fad6a77088c2,2024_11_09,32.80662846492798,-117.26888,PB Point,2,0.19,0.49666666666666665,17,17,"NIGHT_CLEAR,NIGHT_CLEAR,CLEAR","Offshore,Offshore,Cross-shore",3
5842041f4e65fad6a77088c4,2024_11_09,32.8060476681448,-117.26479,Old Man's at Tourmaline,2,0.07342666666666667,0.37781333333333333,17,17,"NIGHT_CLEAR,NIGHT_CLEAR,CLEAR","Offshore,Offshore,Cross-shore",3
5842041f4e65fad6a77088cb,2024_11_09,32.557056711256,-117.1327445020322,Tijuana Slough,2,0.15,0.45333333333333337,17,17,"NIGHT_CLEAR,NIGHT_CLEAR,CLEAR","Offshore,Offshore,Onshore",3
5842041f4e65fad6a77088cc,2024_11_09,32.863,-117.257,La Jolla Shores,2,0.10666666666666667,0.4066666666666667,17,17,"NIGHT_CLEAR,NIGHT_CLEAR,CLEAR","Offshore,Offshore,Onshore",3
5842041f4e65fad6a77088ce,2024_11_09,32.67443657790586,-117.17421,Coronado Beach,2,0.13666666666666666,0.43666666666666665,17,17,"NIGHT_CLEAR,NIGHT_CLEAR,CLEAR","Cross-shore,Cross-shore,Cross-shore",3
5842041f4e65fad6a77088cf,2024_11_09,33.40484417640326,-117.60749,San Clemente State Beach,2,0.14,0.44666666666666666,16.333333333333332,16.333333333333332,"NIGHT_CLEAR,NIGHT_CLEAR,CLEAR","Offshore,Offshore,Onshore",3
5842041f4e65fad6a77088d5,2024_11_09,33.4663042002114,-117.7168352817103,Strands,2.611111111111111,0.31084666666666666,0.6164233333333333,17,17,"NIGHT_CLEAR,NIGHT_CLEAR,CLEAR","Cross-shore,Offshore,Onshore",3
5842041f4e65fad6a77088d7,2024_11_09,33.4609858001748,-117.68535,Doheny State Beach,2,0.14244333333333334,0.44541333333333333,17,17,"NIGHT_CLEAR,NIGHT_CLEAR,CLEAR","Cross-shore,Offshore,Onshore",3
5842041f4e65fad6a77088dc,2024_11_09,33.50894790083017,-117.75243,Aliso Creek,2,0.14666666666666667,0.45333333333333337,16.666666666666668,16.666666666666668,"NIGHT_CLEAR,NIGHT_CLEAR,CLEAR","Cross-shore,Offshore,Onshore",3
5842041f4e65fad6a77088dd,2024_11_09,33.5326591767067,-117.77764,Brooks Street,2,0.1,0.4066666666666667,16.666666666666668,16.666666666666668,"NIGHT_CLEAR,NIGHT_CLEAR,CLEAR","Cross-shore,Offshore,Onshore",3
5842041f4e65fad6a77088de,2024_11_09,33.53561225884637,-117.7799,Thalia Street,2,0.06,0.36666666666666664,16.666666666666668,16.666666666666668,"NIGHT_CLEAR,NIGHT_CLEAR,CLEAR","Cross-shore,Offshore,Onshore",3
5842041f4e65fad6a77088e3,2024_11_09,33.54268310353641,-117.7916,Rockpile,2,0.1,0.4066666666666667,16.666666666666668,16.666666666666668,"NIGHT_CLEAR,NIGHT_CLEAR,CLEAR","Cross-shore,Offshore,Onshore",3
5842041f4e65fad6a77088e4,2024_11_09,33.7368459504689,-118.10342,"Seal Beach Pier, Southside",1,0,0.17666666666666667,16,16,"NIGHT_CLEAR,NIGHT_CLEAR,CLEAR","Offshore,Offshore,Onshore",3
5842041f4e65fad6a77088e5,2024_11_09,33.73933701820233,-118.117,Ray Bay,3,0.35333333333333333,0.6533333333333333,16,16,"NIGHT_CLEAR,NIGHT_CLEAR,CLEAR","Offshore,Offshore,Onshore",3
5842041f4e65fad6a77088e7,2024_11_09,33.728733,-118.08982,Surfside,1,0,0.22,16,16,"NIGHT_CLEAR,NIGHT_CLEAR,CLEAR","Offshore,Offshore,Onshore",3
5842041f4e65fad6a77088e8,2024_11_09,33.68760321488161,-118.04236,Bolsa Chica State Beach,2.0555555555555554,0.35783333333333334,0.66428,16,16,"NIGHT_CLEAR,NIGHT_CLEAR,CLEAR","Offshore,Offshore,Onshore",3
5842041f4e65fad6a77088ea,2024_11_09,33.66704400178788,-118.0192,North HB Streets,3,0.5075333333333334,0.8714266666666667,16,16,"NIGHT_CLEAR,NIGHT_CLEAR,CLEAR","Offshore,Offshore,Onshore",3
5842041f4e65fad6a77088ed,2024_11_09,33.65475101379567,-118.00291,Huntington Beach Pier Southside,2.6666666666666665,0.4872666666666667,0.8032566666666667,16,16,"NIGHT_CLEAR,NIGHT_CLEAR,CLEAR","Offshore,Offshore,Onshore",3
5842041f4e65fad6a77088ee,2024_11_09,33.62778647706099,-117.95939,River Jetties,2.3333333333333335,0.36306666666666665,0.6719766666666667,16,16,"NIGHT_CLEAR,NIGHT_CLEAR,CLEAR","Offshore,Offshore,Onshore",3
5842041f4e65fad6a77088f2,2024_11_09,33.605165797643664,-117.925,Newport Point,2,0.07666666666666667,0.3833333333333333,17,17,"NIGHT_CLEAR,NIGHT_CLEAR,CLEAR","Onshore,Offshore,Onshore",3
5842041f4e65fad6a77088f3,2024_11_09,33.58982984726977,-117.87713,Corona del Mar,2,0.24,0.5433333333333333,17,17,"NIGHT_CLEAR,NIGHT_CLEAR,CLEAR","Offshore,Offshore,Onshore",3
5842041f4e65fad6a77088f7,2024_11_09,34.00750300824362,-118.49718,Santa Monica Pier,2,0.04666666666666667,0.35,15.333333333333334,15.333333333333334,"NIGHT_CLEAR,NIGHT_CLEAR,CLEAR","Offshore,Cross-shore,Onshore",3
5842041f4e65fad6a77088ff,2024_11_09,33.94070283102945,-118.44321,Dockweiler Beach,2,0.25155666666666665,0.5553333333333333,16,16,"NIGHT_CLEAR,NIGHT_CLEAR,CLEAR","Offshore,Offshore,Onshore",3
5842041f4e65fad6a7708900,2024_11_09,33.9231846937237,-118.4341465777908,Shitpipe,2,0.27489,0.5842233333333333,16,16,"NIGHT_CLEAR,NIGHT_CLEAR,CLEAR","Offshore,Offshore,Onshore",3
5842041f4e65fad6a7708902,2024_11_09,33.9108528052242,-118.4279133138721,Hammerland,2,0.27489,0.5842233333333333,16,16,"NIGHT_CLEAR,NIGHT_CLEAR,CLEAR","Offshore,Offshore,Onshore",3
5842041f4e65fad6a7708904,2024_11_09,33.87201368173932,-118.40752,Hermosa Beach,1.6666666666666665,0.23886666666666667,0.5420233333333333,16,16,"NIGHT_CLEAR,NIGHT_CLEAR,CLEAR","Cross-shore,Offshore,Onshore",3
5842041f4e65fad6a7708906,2024_11_09,33.90129336911256,-118.42184,El Porto,1.9444444444444444,0.36871666666666664,0.6718833333333334,16,16,"NIGHT_CLEAR,NIGHT_CLEAR,CLEAR","Cross-shore,Offshore,Onshore",3
5842041f4e65fad6a7708907,2024_11_09,33.87963506431794,-118.41102,Manhattan Beach Pier,2,0.26727666666666666,0.57653,16,16,"NIGHT_CLEAR,NIGHT_CLEAR,CLEAR","Offshore,Offshore,Onshore",3
5842041f4e65fad6a7708914,2024_11_09,34.038053387863464,-118.5532,Sunset Point,1,0,0.27666666666666667,15,15,"NIGHT_CLEAR,NIGHT_CLEAR,CLEAR","Cross-shore,Onshore,Cross-shore",3
5842041f4e65fad6a7708920,2024_11_09,33.80282,-118.39989,Haggerty's,1,0,0.2,16,16,"NIGHT_CLEAR,NIGHT_CLEAR,CLEAR","Offshore,Cross-shore,Onshore",3
5842041f4e65fad6a7708921,2024_11_09,33.85044519861206,-118.40048,Redondo Breakwater,1.6666666666666667,0.11609,0.41412666666666664,16,16,"NIGHT_CLEAR,NIGHT_CLEAR,CLEAR","Cross-shore,Offshore,Onshore",3
5842041f4e65fad6a7708927,2024_11_09,33.70877301002487,-118.2840112858389,Cabrillo Beach,2,0.06,0.36666666666666664,16,16,"NIGHT_CLEAR,NIGHT_CLEAR,CLEAR","Cross-shore,Cross-shore,Onshore",3
5842041f4e65fad6a770892c,2024_11_09,33.77209986806257,-118.4268428476672,Lunada Bay,1,0.05,0.36,16,16,"NIGHT_MIST,NIGHT_CLEAR,CLEAR","Onshore,Offshore,Onshore",3
5842041f4e65fad6a770892d,2024_11_09,33.79294656286144,-118.40703,PV Cove,1,0,0.25,16,16,"NIGHT_CLEAR,NIGHT_CLEAR,CLEAR","Cross-shore,Cross-shore,Onshore",3
5842041f4e65fad6a7708930,2024_11_09,34.03944902292561,-118.57539,Chart House,0,0,0.07666666666666667,15,15,"NIGHT_CLEAR,NIGHT_CLEAR,CLEAR","Onshore,Onshore,Cross-shore",3
5842041f4e65fad6a7708936,2024_11_09,34.0016731994772,-118.80456,Point Dume,2,0.05444333333333333,0.35329,16,16,"NIGHT_CLEAR,NIGHT_CLEAR,CLEAR","Cross-shore,Offshore,Onshore",3
5842041f4e65fad6a7708937,2024_11_09,34.02587527588963,-118.7554939066114,Latigo Point,2,0.14,0.44666666666666666,15,15,"NIGHT_CLEAR,NIGHT_CLEAR,CLEAR","Cross-shore,Offshore,Onshore",3
5842041f4e65fad6a770893f,2024_11_09,34.043762,-118.93294,Leo Carrillo,2,0.2721766666666667,0.5810233333333333,14,14,"NIGHT_CLEAR,NIGHT_CLEAR,CLEAR","Offshore,Offshore,Cross-shore",3
5842041f4e65fad6a7708941,2024_11_09,36.69388179265737,-121.81289,Marina State Beach,3.6666666666666665,1.24,1.4766666666666666,13,13,"NIGHT_CLEAR,NIGHT_CLEAR,CLEAR","Onshore,Offshore,Cross-shore",3
5842041f4e65fad6a7708944,2024_11_09,34.34145077331085,-119.416999352654,Stanley's,1,0,0.25,15.666666666666666,15.666666666666666,"NIGHT_CLEAR,NIGHT_CLEAR,CLEAR","Offshore,Offshore,Onshore",3
5842041f4e65fad6a7708945,2024_11_09,34.35113017313915,-119.426921498899,Oil Piers,1,0,0.25,15.666666666666666,15.666666666666666,"NIGHT_CLEAR,NIGHT_CLEAR,CLEAR","Offshore,Offshore,Onshore",3
5842041f4e65fad6a770894c,2024_11_09,34.17876333306018,-119.23995,Oxnard,2,0.2566666666666667,0.5599999999999999,15,15,"NIGHT_CLEAR,NIGHT_CLEAR,CLEAR","Offshore,Offshore,Onshore",3
5842041f4e65fad6a7708957,2024_11_09,34.31720331100517,-119.3882324751725,Pitas Point,2,0.02,0.32,15.666666666666666,15.666666666666666,"NIGHT_CLEAR,NIGHT_CLEAR,CLEAR","Offshore,Offshore,Onshore",3
5842041f4e65fad6a7708959,2024_11_09,34.27851754384724,-119.3162,Emma Wood,2,0.14,0.44333333333333336,15.666666666666666,15.666666666666666,"NIGHT_CLEAR,NIGHT_CLEAR,CLEAR","Offshore,Offshore,Onshore",3
5842041f4e65fad6a770895a,2024_11_09,34.35513640390276,-119.4400589884255,Mussel Shoals (aka Little Rincon),1,0,0.26,15.666666666666666,15.666666666666666,"NIGHT_CLEAR,NIGHT_CLEAR,CLEAR","Offshore,Offshore,Onshore",3
5842041f4e65fad6a770895e,2024_11_09,34.28991757054902,-119.3366646794652,Summer Beach,2,0.07,0.37,15.666666666666666,15.666666666666666,"NIGHT_CLEAR,NIGHT_CLEAR,CLEAR","Offshore,Offshore,Onshore",3
5842041f4e65fad6a770895f,2024_11_09,34.30897456105926,-119.3582501170116,Solimar,2,0.07,0.37,15.666666666666666,15.666666666666666,"NIGHT_CLEAR,NIGHT_CLEAR,CLEAR","Offshore,Offshore,Onshore",3
5842041f4e65fad6a7708960,2024_11_09,34.39836265281686,-119.70213,Leadbetter Point,1,0,0.10666666666666667,16,16,"NIGHT_CLEAR,NIGHT_CLEAR,CLEAR","Offshore,Offshore,Onshore",3
5842041f4e65fad6a7708961,2024_11_09,34.46052293893899,-120.07328,Refugio,1,0,0.21,15,15,"NIGHT_CLEAR,NIGHT_CLEAR,CLEAR","Cross-shore,Offshore,Onshore",3
5842041f4e65fad6a7708962,2024_11_09,34.40754276777778,-119.87639,Devereux,1,0,0.18666666666666668,15,15,"NIGHT_CLEAR,NIGHT_CLEAR,CLEAR","Cross-shore,Cross-shore,Onshore",3
5842041f4e65fad6a7708963,2024_11_09,34.27479983305182,-119.3133222656776,Ventura Overhead,2,0.14,0.44333333333333336,15.666666666666666,15.666666666666666,"NIGHT_CLEAR,NIGHT_CLEAR,CLEAR","Offshore,Offshore,Onshore",3
5842041f4e65fad6a7708964,2024_11_09,34.41023236011655,-119.88261,Sands,1,0,0.17666666666666667,15,15,"NIGHT_CLEAR,NIGHT_CLEAR,CLEAR","Offshore,Offshore,Onshore",3
5842041f4e65fad6a7708966,2024_11_09,34.40450193869233,-119.68752,Sandspit,1,0,0.10666666666666667,16,16,"NIGHT_CLEAR,NIGHT_CLEAR,CLEAR","Offshore,Offshore,Onshore",3
5842041f4e65fad6a7708967,2024_11_09,34.41549098334453,-119.6375149840203,Hammond's,1,0,0.21666666666666667,15.666666666666666,15.666666666666666,"NIGHT_CLEAR,NIGHT_CLEAR,CLEAR","Offshore,Offshore,Onshore",3
5842041f4e65fad6a7708968,2024_11_09,34.45759322742309,-120.02203,El Capitan,1,0,0.21333333333333332,15,15,"NIGHT_CLEAR,NIGHT_CLEAR,CLEAR","Offshore,Offshore,Onshore",3
5842041f4e65fad6a770896c,2024_11_09,34.405117655616,-119.84317,Campus Point,1,0,0.17666666666666667,15.666666666666666,15.666666666666666,"NIGHT_CLEAR,NIGHT_CLEAR,CLEAR","Cross-shore,Cross-shore,Onshore",3
5842041f4e65fad6a770896e,2024_11_09,34.38935162233354,-119.51955,Carpinteria State Beach,1,0,0.24333333333333332,15.666666666666666,15.666666666666666,"NIGHT_CLEAR,NIGHT_CLEAR,CLEAR","Offshore,Offshore,Onshore",3
5842041f4e65fad6a770896f,2024_11_09,37.48296565175612,-122.45493,Half Moon Bay,3,0.85,1.0733333333333333,13,13,"NIGHT_CLEAR,NIGHT_CLEAR,CLEAR","Offshore,Offshore,Onshore",3
5842041f4e65fad6a7708970,2024_11_09,37.499,-122.471,Princeton Jetty,3,1.0633333333333332,1.2733333333333332,13,13,"NIGHT_CLEAR,NIGHT_CLEAR,CLEAR","Cross-shore,Offshore,Onshore",3
5842041f4e65fad6a7708972,2024_11_09,37.35699547365155,-122.4069534707252,Tunitas Creek,3.6666666666666665,1.8533333333333333,2.22,13,13,"NIGHT_CLEAR,NIGHT_CLEAR,CLEAR","Offshore,Offshore,Onshore",3
5842041f4e65fad6a7708974,2024_11_09,37.54735589428842,-122.51611,Montara,3.6666666666666665,1.2866666666666666,1.5333333333333332,13,13,"NIGHT_CLEAR,NIGHT_CLEAR,CLEAR","Cross-shore,Offshore,Onshore",3
5842041f4e65fad6a7708975,2024_11_09,34.3869373724559,-119.5142334209018,Tarpits,1,0,0.25,15.666666666666666,15.666666666666666,"NIGHT_CLEAR,NIGHT_CLEAR,CLEAR","Offshore,Offshore,Onshore",3
5842041f4e65fad6a7708976,2024_11_09,37.59881852720143,-122.50463,Linda Mar,3,0.6186766666666667,0.9393,13,13,"NIGHT_CLEAR,NIGHT_CLEAR,CLEAR","Cross-shore,Offshore,Cross-shore",3
5842041f4e65fad6a7708978,2024_11_09,37.59883098461164,-122.5143843582282,Pedro Point,3,1.28,1.5233333333333332,13,13,"NIGHT_CLEAR,NIGHT_CLEAR,CLEAR","Cross-shore,Offshore,Onshore",3
5842041f4e65fad6a7708979,2024_11_09,37.61081996647663,-122.49733,Rockaway,4,1.2633333333333334,1.52,13,13,"NIGHT_CLEAR,NIGHT_CLEAR,CLEAR","Cross-shore,Offshore,Cross-shore",3
5842041f4e65fad6a770897a,2024_11_09,37.809987384424446,-122.47514,Fort Point,3,0.6,0.91,14,14,"NIGHT_CLEAR,NIGHT_CLEAR,CLEAR","Onshore,Onshore,Offshore",3
5842041f4e65fad6a770897c,2024_11_09,37.63422542967464,-122.4951,Sharp Park,3,1.3533333333333333,1.6333333333333333,13,13,"NIGHT_CLEAR,NIGHT_CLEAR,CLEAR","Onshore,Offshore,Cross-shore",3
5842041f4e65fad6a770897d,2024_11_09,37.27313605072472,-122.4127387912554,Pescadero,3.6666666666666665,1.7866666666666666,2.1366666666666667,13,13,"NIGHT_CLEAR,NIGHT_CLEAR,CLEAR","Offshore,Offshore,Onshore",3
5842041f4e65fad6a770897e,2024_11_09,37.18140279972666,-122.3926685899327,Pigeon Point,4,1.71,2.043333333333333,13,13,"NIGHT_CLEAR,NIGHT_CLEAR,CLEAR","Offshore,Offshore,Cross-shore",3
5842041f4e65fad6a770897f,2024_11_09,37.11578956919415,-122.314699271291,Ano Nuevo,3.6666666666666665,1.27,1.5333333333333332,13,13,"NIGHT_CLEAR,NIGHT_CLEAR,CLEAR","Offshore,Onshore,Cross-shore",3
5842041f4e65fad6a7708980,2024_11_09,37.09520872681598,-122.2805474707768,Waddell Creek,3.3333333333333335,1.3133333333333332,1.57,13,13,"NIGHT_CLEAR,NIGHT_CLEAR,CLEAR","Offshore,Cross-shore,Onshore",3
5842041f4e65fad6a7708981,2024_11_09,36.96512852130351,-122.1252825495626,Four Mile,4,1.4466666666666668,1.7366666666666666,13,13,"NIGHT_CLEAR,NIGHT_CLEAR,CLEAR","Offshore,Offshore,Cross-shore",3
5842041f4e65fad6a7708982,2024_11_09,37.04122807048655,-122.23337,Scott Creek,3.6666666666666665,1.34,1.6033333333333333,13,13,"NIGHT_CLEAR,NIGHT_CLEAR,CLEAR","Offshore,Cross-shore,Onshore",3
5842041f4e65fad6a7708983,2024_11_09,37.02350229387179,-122.21908,Davenport,4,1.4733333333333334,1.77,13,13,"NIGHT_CLEAR,NIGHT_CLEAR,CLEAR","Offshore,Offshore,Onshore",3
5842041f4e65fad6a7708986,2024_11_09,36.94905295955728,-122.06118,Natural Bridges,3,1.02,1.22,13,13,"NIGHT_CLEAR,NIGHT_CLEAR,CLEAR","Offshore,Offshore,Onshore",3
5842041f4e65fad6a7708987,2024_11_09,36.95154854910425,-122.04207,Mitchell's Cove,3,0.8128633333333333,1.07806,13,13,"NIGHT_CLEAR,NIGHT_CLEAR,CLEAR","Offshore,Offshore,Onshore",3
5842041f4e65fad6a770898a,2024_11_09,36.9572312370203,-121.98177,26th Ave,3,1.02,1.25,13,13,"NIGHT_CLEAR,NIGHT_CLEAR,CLEAR","Offshore,Offshore,Onshore",3
5842041f4e65fad6a770898e,2024_11_09,36.91899972819882,-121.85536,Manresa,3.3333333333333335,1.0466666666666666,1.3133333333333335,13,13,"NIGHT_CLEAR,NIGHT_CLEAR,CLEAR","Offshore,Offshore,Onshore",3
5842041f4e65fad6a7708990,2024_11_09,34.45747731928454,-120.34242,The Ranch,2,0.14,0.44333333333333336,15.666666666666666,15.666666666666666,"NIGHT_CLEAR,NIGHT_CLEAR,CLEAR","Onshore,Offshore,Onshore",3
5842041f4e65fad6a7708991,2024_11_09,34.50875036590315,-120.50348,Jalama,2.3333333333333335,0.4766666666666667,0.78,15,15,"NIGHT_CLEAR,NIGHT_CLEAR,CLEAR","Offshore,Offshore,Onshore",3
5842041f4e65fad6a7708996,2024_11_09,34.68700870220497,-120.6111611019887,Surf Beach,3.3333333333333335,1.6766666666666667,2.0033333333333334,14,14,"NIGHT_CLEAR,NIGHT_CLEAR,CLEAR","Onshore,Offshore,Onshore",3
5842041f4e65fad6a770899c,2024_11_09,35.5730538161116,-121.1143362345574,Moonstone,3.6666666666666665,1.23,1.5166666666666666,13,13,"NIGHT_CLEAR,NIGHT_CLEAR,MIST","Offshore,Offshore,Onshore",3
5842041f4e65fad6a770899d,2024_11_09,35.61533716776573,-121.1502053073914,Pico Creek,3,0.8566666666666667,1.08,13,13,"NIGHT_CLEAR,NIGHT_CLEAR,MIST","Cross-shore,Offshore,Onshore",3
5842041f4e65fad6a770899e,2024_11_09,35.56829031927379,-121.11207,Santa Rosa Creek,3.3333333333333335,1.23,1.5166666666666666,13,13,"NIGHT_CLEAR,NIGHT_CLEAR,MIST","Offshore,Offshore,Onshore",3
5842041f4e65fad6a77089a2,2024_11_09,35.44820114936284,-120.90715,"Cayucos Pier, Southside",2.3333333333333335,0.35889666666666664,0.6633466666666666,13.666666666666666,13.666666666666666,"NIGHT_CLEAR,NIGHT_CLEAR,CLEAR","Offshore,Offshore,Cross-shore",3
5842041f4e65fad6a77089a4,2024_11_09,35.30143372628852,-120.877819239902,Cable Landing,3.6666666666666665,1.8,2.15,14,14,"NIGHT_CLEAR,NIGHT_CLEAR,MIST","Cross-shore,Offshore,Onshore",3
5842041f4e65fad6a77089a9,2024_11_09,35.61269103500222,-121.14807,San Simeon,3,0.546,0.728,13,13,"NIGHT_CLEAR,NIGHT_CLEAR,CLEAR","Offshore,Offshore,Onshore",3
5842041f4e65fad6a77089ab,2024_11_09,35.1775325966252,-120.73411,Avila Beach,1.6666666666666667,0.01,0.30666666666666664,14,14,"NIGHT_CLEAR,NIGHT_CLEAR,CLEAR","Offshore,Offshore,Onshore",3
5842041f4e65fad6a77089ac,2024_11_09,35.13877877884115,-120.64535,Pismo Beach Pier,2.7222222222222223,0.7088,0.9532,12,12,"NIGHT_CLEAR,NIGHT_CLEAR,CLEAR","Offshore,Onshore,Onshore",3
5842041f4e65fad6a77089ad,2024_11_09,46.8907710233147,-124.12964,Westport/Olympic Peninsula,2.5,2.285,2.675,12,12,"NIGHT_MIST,LIGHT_RAIN","Cross-shore,Onshore",2
5842041f4e65fad6a77089ae,2024_11_09,46.35185177248545,-124.06747,Long Beach Peninsula,2,3.1950000000000003,3.7199999999999998,12.5,12.5,"NIGHT_CLEAR,MIST","Cross-shore,Cross-shore",2
5842041f4e65fad6a77089af,2024_11_09,47.90649175554033,-124.63709,La Push,3,2.98,3.4699999999999998,12,12,"NIGHT_LIGHT_RAIN,MIST","Offshore,Cross-shore",2
5842041f4e65fad6a77089b0,2024_11_09,42.04368239985442,-124.26828,Brookings Jetty,3,1.5015466666666668,1.77971,12,12,"NIGHT_CLEAR,NIGHT_CLEAR,CLEAR","Offshore,Offshore,Onshore",3
5842041f4e65fad6a77089b1,2024_11_09,42.74071837900346,-124.4983727491047,Port Orford,3,1.7133333333333334,2.01,12,12,"NIGHT_CLEAR,NIGHT_CLEAR,CLEAR","Onshore,Onshore,Onshore",3
5842041f4e65fad6a77089b2,2024_11_09,44.01532689312291,-124.13865,Florence South Jetty,3,2.9899999999999998,3.48,12,12,"NIGHT_CLEAR,NIGHT_CLEAR,CLEAR","Offshore,Offshore,Onshore",3
5842041f4e65fad6a77089b3,2024_11_09,42.41812540774362,-124.42945,Gold Beach South Jetty,2.6666666666666665,2.42,2.89,12,12,"NIGHT_CLEAR,NIGHT_CLEAR,CLEAR","Onshore,Onshore,Onshore",3
5842041f4e65fad6a77089b4,2024_11_09,44.95857310226525,-124.0219,Lincoln City,3,3.0833333333333335,3.6233333333333335,12.333333333333334,12.333333333333334,"NIGHT_CLEAR,NIGHT_CLEAR,CLEAR","Cross-shore,Cross-shore,Cross-shore",3
5842041f4e65fad6a77089b5,2024_11_09,44.63792761362982,-124.0657,Newport,3,3.3833333333333333,3.986666666666667,12,12,"NIGHT_CLEAR,NIGHT_CLEAR,CLEAR","Cross-shore,Cross-shore,Onshore",3
5842041f4e65fad6a77089b6,2024_11_09,45.61468496266301,-123.94643,Rockaway Beach,3,3.11,3.625,12.5,12.5,"NIGHT_CLEAR,MOSTLY_CLOUDY","Cross-shore,Cross-shore",2
5842041f4e65fad6a77089b7,2024_11_09,45.20252914186085,-123.96975,Pacific City,3,2.7350000000000003,3.185,12.5,12.5,"NIGHT_CLEAR,CLEAR","Cross-shore,Onshore",2
5842041f4e65fad6a77089b8,2024_11_09,45.88179930310263,-123.96681,Cannon Beach,2.5,3.08,3.59,13,13,"NIGHT_CLEAR,MOSTLY_CLOUDY","Onshore,Onshore",2
5842041f4e65fad6a77089ba,2024_11_09,40.02528754746774,-124.06372,Shelter Cove,2,0.7588333333333334,0.90638,13,13,"NIGHT_CLEAR,NIGHT_CLEAR,CLEAR","Onshore,Onshore,Onshore",3
5842041f4e65fad6a77089bb,2024_11_09,40.76816197136951,-124.24248,Humboldt Harbor Entrance,3.6666666666666665,2.8533333333333335,3.4133333333333336,12,12,"NIGHT_CLEAR,NIGHT_CLEAR,CLEAR","Offshore,Offshore,Onshore",3
5842041f4e65fad6a77089bc,2024_11_09,40.76684246920174,-124.23107,North Jetty,3,3.506666666666667,4.113333333333333,12,12,"NIGHT_CLEAR,NIGHT_CLEAR,CLEAR","Offshore,Offshore,Onshore",3
5842041f4e65fad6a77089be,2024_11_09,41.13016238153297,-124.16466,Sue-meg,3.6666666666666665,2.526666666666667,2.8866666666666667,12,12,"NIGHT_CLEAR,NIGHT_CLEAR,CLEAR","Cross-shore,Cross-shore,Onshore",3
5842041f4e65fad6a77089bf,2024_11_09,37.8289474958188,-122.53768,Fort Cronkite/Rodeo Beach,3,1.44,1.7166666666666666,14,14,"NIGHT_MIST,NIGHT_CLEAR,CLEAR","Onshore,Cross-shore,Offshore",3
5842041f4e65fad6a77089c0,2024_11_09,41.74415759876137,-124.17717,South Beach CA,3.3333333333333335,1.3333333333333333,1.5966666666666667,12,12,"NIGHT_CLEAR,NIGHT_CLEAR,CLEAR","Cross-shore,Cross-shore,Onshore",3
5842041f4e65fad6a77089c1,2024_11_09,37.89801283969752,-122.64519,Stinson Beach,2.6666666666666665,0.3433333333333333,0.6433333333333333,13,13,"NIGHT_CLEAR,NIGHT_CLEAR,CLEAR","Offshore,Onshore,Cross-shore",3
5842041f4e65fad6a77089c2,2024_11_09,37.90514516176495,-122.68151,Bolinas,2,0.24084333333333335,0.54108,13,13,"NIGHT_CLEAR,NIGHT_CLEAR,CLEAR","Offshore,Onshore,Offshore",3
5842041f4e65fad6a77089c3,2024_11_09,38.04892513158693,-122.98925,Point Reyes (north),3.3333333333333335,2.356666666666667,2.796666666666667,13,13,"NIGHT_CLEAR,NIGHT_CLEAR,CLEAR","Offshore,Offshore,Cross-shore",3
5842041f4e65fad6a77089c6,2024_11_09,38.31088736605785,-123.0496777333731,Doran Beach,2.6666666666666665,0.29666666666666663,0.6033333333333334,13,13,"NIGHT_CLEAR,NIGHT_CLEAR,CLEAR","Offshore,Cross-shore,Onshore",3
5842041f4e65fad6a77089c7,2024_11_09,38.45077228660809,-123.13008,Russian Rivermouth,3.6666666666666665,1.74,2.0700000000000003,14,14,"NIGHT_CLEAR,NIGHT_CLEAR,CLEAR","Cross-shore,Offshore,Onshore",3
5842041f4e65fad6a77089c8,2024_11_09,38.35329968518107,-123.06906,Salmon Creek,3.6666666666666665,1.74,2.066666666666667,13.333333333333334,13.333333333333334,"NIGHT_CLEAR,NIGHT_CLEAR,CLEAR","Offshore,Offshore,Onshore",3
5842041f4e65fad6a77089c9,2024_11_09,38.6845180197959,-123.4322714291198,Black Point Beach,4,1.1633333333333333,1.39,14,14,"NIGHT_CLEAR,NIGHT_CLEAR,CLEAR","Offshore,Offshore,Cross-shore",3
5842041f4e65fad6a77089ca,2024_11_09,43.251076,-70.59144,Ogunquit,0.611111111111111,0.012223333333333334,0.29363333333333336,12,11,"NIGHT_CLEAR,CLEAR,CLEAR","Offshore,Offshore,Offshore",3
5842041f4e65fad6a77089cb,2024_11_09,41.362631366305415,-71.48007,Point Judith,0.16666666666666666,0,0.16781000000000001,15,14,"NIGHT_CLEAR,CLEAR,CLEAR","Cross-shore,Offshore,Offshore",3
5842041f4e65fad6a77089cd,2024_11_09,41.422678090954726,-71.45413,Monahan's - Narragansett,0.6666666666666666,0,0.15670333333333333,15,15,"NIGHT_CLEAR,CLEAR,CLEAR","Offshore,Offshore,Offshore",3
5842041f4e65fad6a77089ce,2024_11_09,41.469,-71.293,Ruggles - Newport,1,0,0.21747666666666668,15,15,"NIGHT_CLEAR,CLEAR,CLEAR","Offshore,Offshore,Offshore",3
5842041f4e65fad6a77089cf,2024_11_09,43.175394,-70.606351,Short Sands Beach,1,0,0.19,11,11,"NIGHT_CLEAR,CLEAR,CLEAR","Offshore,Offshore,Offshore",3
5842041f4e65fad6a77089d0,2024_11_09,41.487408,-71.29017,First Beach,0.3333333333333333,0,0.15333333333333335,15,15,"NIGHT_CLEAR,CLEAR,CLEAR","Offshore,Offshore,Offshore",3
5842041f4e65fad6a77089d1,2024_11_09,42.27916830233153,-70.86498,Nantasket Beach,0.3888888888888889,0.09702333333333334,0.3495433333333333,13,12,"NIGHT_CLEAR,CLEAR,CLEAR","Cross-shore,Cross-shore,Cross-shore",3
5842041f4e65fad6a77089d2,2024_11_09,41.817,-69.935,Cape Cod,0.6666666666666666,1.2833333333333334,1.5533333333333335,13,13,"NIGHT_CLEAR,CLEAR,CLEAR","Offshore,Offshore,Offshore",3
5842041f4e65fad6a77089d3,2024_11_09,42.22055448975661,-70.70634873403819,Egypt Beach,0.3333333333333333,0.5800000000000001,0.8866666666666666,13,13,"NIGHT_CLEAR,CLEAR,CLEAR","Offshore,Cross-shore,Cross-shore",3
5842041f4e65fad6a77089d4,2024_11_09,41.48739647744607,-71.25723,Second Beach,0.3333333333333333,0.0066566666666666675,0.15868333333333334,15,14,"NIGHT_CLEAR,CLEAR,CLEAR","Offshore,Offshore,Offshore",3
5842041f4e65fad6a77089d5,2024_11_09,42.964,-70.769,Fox Hill,0.27777777777777773,0,0.22419,12,11,"NIGHT_CLEAR,CLEAR,CLEAR","Offshore,Offshore,Offshore",3
5842041f4e65fad6a77089d6,2024_11_09,42.991359,-70.75149,Straws Point,0.611111111111111,0.008333333333333333,0.31446666666666667,12,11,"NIGHT_CLEAR,CLEAR,CLEAR","Offshore,Offshore,Offshore",3
5842041f4e65fad6a77089d7,2024_11_09,42.946,-70.786,Plaice Cove,0.27777777777777773,0,0.22419,12,11,"NIGHT_CLEAR,CLEAR,CLEAR","Offshore,Offshore,Offshore",3
5842041f4e65fad6a77089d9,2024_11_09,42.911574,-70.80831,The Main Beach,0.3333333333333333,0,0.17421666666666666,12,11,"NIGHT_CLEAR,CLEAR,CLEAR","Offshore,Offshore,Offshore",3
5842041f4e65fad6a77089da,2024_11_09,42.97583846220203,-70.764,Sawyer's Beach,0.611111111111111,0,0.27752,12,11,"NIGHT_CLEAR,CLEAR,CLEAR","Offshore,Offshore,Offshore",3
5842041f4e65fad6a77089db,2024_11_09,42.97,-70.77,Rye on the Rocks / 5-0's,0.3333333333333333,0.07016666666666667,0.23652,12,11,"NIGHT_CLEAR,CLEAR,CLEAR","Offshore,Offshore,Offshore",3
5842041f4e65fad6a77089dc,2024_11_09,43.55902946610303,-70.27795,Higgins Beach,0,0,0.14612333333333333,12,11,"NIGHT_CLEAR,CLEAR,CLEAR","Offshore,Offshore,Offshore",3
5842041f4e65fad6a77089dd,2024_11_09,43.302676,-70.5652,Wells Beach,-0.16666666666666666,0,0.2544666666666667,12,11,"NIGHT_CLEAR,CLEAR,CLEAR","Offshore,Offshore,Offshore",3
5842041f4e65fad6a77089de,2024_11_09,43.545359,-70.30479,Scarborough Beach State Park,0.611111111111111,0,0.27525333333333335,12,11,"NIGHT_CLEAR,CLEAR,CLEAR","Offshore,Offshore,Offshore",3
5842041f4e65fad6a77089df,2024_11_09,43.514481,-70.37215,Old Orchard Beach,0.11111111111111109,0,0.16059,12,11,"NIGHT_CLEAR,CLEAR,CLEAR","Offshore,Offshore,Offshore",3
5842041f4e65fad6a77089e0,2024_11_09,43.34711,-70.48165,Gooch's Beach,0.3333333333333333,0,0.15806666666666666,12,11,"NIGHT_CLEAR,CLEAR,CLEAR","Offshore,Offshore,Offshore",3
5842041f4e65fad6a77089e2,2024_11_09,40.58433,-73.62953,Lido Beach,0.27777777777777773,0,0.21849,16,14,"NIGHT_CLEAR,CLEAR,CLEAR","Offshore,Offshore,Offshore",3
5842041f4e65fad6a77089e3,2024_11_09,43.163135,-70.61689,Long Sands Beach,0.3333333333333333,0,0.17252333333333333,12,11,"NIGHT_CLEAR,CLEAR,CLEAR","Offshore,Offshore,Offshore",3
5842041f4e65fad6a77089e4,2024_11_09,40.61695351251805,-73.39376,Gilgo Beach,0.5,0,0.19973333333333332,16,15,"NIGHT_CLEAR,CLEAR,CLEAR","Offshore,Offshore,Offshore",3
5842041f4e65fad6a77089e5,2024_11_09,40.62530081928036,-73.23827,Robert Moses,1,0,0.21666666666666667,16,16,"NIGHT_CLEAR,CLEAR,CLEAR","Offshore,Offshore,Offshore",3
5842041f4e65fad6a77089e6,2024_11_09,40.64313317632791,-73.15727,Fire Island,1,0,0.21333333333333332,16,16,"NIGHT_CLEAR,CLEAR,CLEAR","Offshore,Offshore,Offshore",3
5842041f4e65fad6a77089e8,2024_11_09,40.76653118828782,-72.7458,Cupsogue,1,0.03666666666666667,0.3466666666666667,16,16,"NIGHT_CLEAR,CLEAR,CLEAR","Offshore,Offshore,Offshore",3
5842041f4e65fad6a77089e9,2024_11_09,42.9376373334092,-70.79141,The Wall,0.3333333333333333,0.10278333333333334,0.37191,12,11,"NIGHT_CLEAR,CLEAR,CLEAR","Offshore,Offshore,Offshore",3
5842041f4e65fad6a77089ea,2024_11_09,40.887088,-72.33856,Flys,1,0.006666666666666667,0.2966666666666667,16,16,"NIGHT_CLEAR,CLEAR,CLEAR","Offshore,Offshore,Offshore",3
5842041f4e65fad6a77089eb,2024_11_09,41.0389266436591,-71.91068529316958,Trailer Park,0,0.1444,0.3037566666666667,15,15,"NIGHT_CLEAR,CLEAR,CLEAR","Offshore,Offshore,Offshore",3
5842041f4e65fad6a77089ec,2024_11_09,41.039505402729105,-71.9142,Ditch Plains,1,0,0.24305666666666667,16,16,"NIGHT_CLEAR,CLEAR,CLEAR","Offshore,Offshore,Offshore",3
5842041f4e65fad6a77089ee,2024_11_09,40.57633275206492,-73.56895305108567,"West End, Jones Beach",0.3333333333333333,0.01,0.29333333333333333,16,14,"NIGHT_CLEAR,CLEAR,CLEAR","Offshore,Offshore,Offshore",3
5842041f4e65fad6a77089f1,2024_11_09,41.038286691230795,-71.91991567611694,Poles,-0.16666666666666666,0.1408,0.28752666666666665,15,15,"NIGHT_CLEAR,CLEAR,CLEAR","Offshore,Offshore,Offshore",3
5842041f4e65fad6a77089f3,2024_11_09,40.84077769766295,-72.47989493724765,The Bowl,0.6666666666666666,0.013333333333333334,0.31,16,16,"NIGHT_CLEAR,CLEAR,CLEAR","Offshore,Offshore,Offshore",3
5842041f4e65fad6a77089f4,2024_11_09,40.94235535243154,-72.19286,Main Beach,0.611111111111111,0.1878,0.4864333333333334,18,17,"NIGHT_CLEAR,CLEAR,CLEAR","Offshore,Offshore,Offshore",3
5842041f4e65fad6a77089f5,2024_11_09,40.58270702399518,-73.67251552079799,Laurelton Blvd.,0.3333333333333333,0.12410666666666667,0.28023,16,14,"NIGHT_CLEAR,CLEAR,CLEAR","Offshore,Offshore,Offshore",3
5842041f4e65fad6a77089f6,2024_11_09,41.033752854071416,-71.93696,Terrace,0.16666666666666666,0.005466666666666667,0.18961,15,15,"NIGHT_CLEAR,CLEAR,CLEAR","Offshore,Offshore,Offshore",3
5842041f4e65fad6a77089f7,2024_11_09,40.83372943645748,-72.50426173210144,K Road,1,0.05333333333333334,0.36,16,16,"NIGHT_CLEAR,CLEAR,CLEAR","Offshore,Offshore,Offshore",3
5842041f4e65fad6a77089f8,2024_11_09,40.58456099581507,-73.80730032920837,84th Street,0.3333333333333333,0.008,0.21581,16,14,"NIGHT_CLEAR,CLEAR,CLEAR","Offshore,Offshore,Offshore",3
5842041f4e65fad6a77089fa,2024_11_09,40.1319,-74.02788,Sea Girt,1,0.23863333333333334,0.54199,16,15,"NIGHT_CLEAR,CLEAR,CLEAR","Offshore,Offshore,Offshore",3
5842041f4e65fad6a77089fb,2024_11_09,40.54698301868125,-73.9268,Breezy Point,1,0,0.2,16,16,"NIGHT_CLEAR,CLEAR,CLEAR","Offshore,Offshore,Offshore",3
5842041f4e65fad6a77089fc,2024_11_09,40.152504,-74.02138,Spring Lake,1,0.16333333333333333,0.4666666666666667,16,16,"NIGHT_CLEAR,CLEAR,CLEAR","Offshore,Offshore,Offshore",3
5842041f4e65fad6a77089fd,2024_11_09,40.591277,-73.770792,30th - 39th Streets,0.611111111111111,0,0.27724333333333334,16,14,"NIGHT_CLEAR,CLEAR,CLEAR","Offshore,Offshore,Offshore",3
5842041f4e65fad6a77089fe,2024_11_09,40.18834955871439,-74.00860982500222,Avon,1,0.16666666666666666,0.47,16,16,"NIGHT_CLEAR,CLEAR,CLEAR","Offshore,Offshore,Offshore",3
5842041f4e65fad6a77089ff,2024_11_09,40.1974229100932,-74.00650533798255,Bradley Beach,1,0.14666666666666667,0.4533333333333333,16,16,"NIGHT_CLEAR,CLEAR,CLEAR","Offshore,Offshore,Offshore",3
5842041f4e65fad6a7708a01,2024_11_09,40.17202,-74.01503,"16th Ave., Belmar",0.611111111111111,0,0.29666666666666663,16,15,"NIGHT_CLEAR,CLEAR,CLEAR","Offshore,Offshore,Offshore",3
5842041f4e65fad6a7708a02,2024_11_09,40.217443,-73.99982,Asbury Park,1,0.15333333333333332,0.4633333333333333,16,16,"NIGHT_CLEAR,CLEAR,CLEAR","Offshore,Offshore,Offshore",3
5842041f4e65fad6a7708a03,2024_11_09,40.229841,-73.99678,Loch Arbour and Deal,1,0.14666666666666667,0.4533333333333333,16,16,"NIGHT_CLEAR,CLEAR,CLEAR","Offshore,Offshore,Offshore",3
5842041f4e65fad6a7708a05,2024_11_09,40.41754,-73.97935,Sandy Hook,1,0,0.17,16,16,"NIGHT_CLEAR,CLEAR,CLEAR","Offshore,Offshore,Offshore",3
5842041f4e65fad6a7708a06,2024_11_09,39.36353,-74.40873,Crystals,1,0.05550666666666666,0.38658,18,17,"NIGHT_CLEAR,CLEAR,CLEAR","Offshore,Offshore,Offshore",3
5842041f4e65fad6a7708a07,2024_11_09,39.31443,-74.51863,32nd Street,1.1666666666666667,0.04713,0.38115,17,16,"NIGHT_CLEAR,CLEAR,CLEAR","Offshore,Offshore,Offshore",3
5842041f4e65fad6a7708a08,2024_11_09,39.327688,-74.49524,Margate Pier Northside,1.1666666666666667,0.04713,0.38115,17,16,"NIGHT_CLEAR,CLEAR,CLEAR","Offshore,Offshore,Offshore",3
5842041f4e65fad6a7708a09,2024_11_09,39.336276,-74.47782,Ventnor Pier,1,0.23107666666666668,0.56377,18,17,"NIGHT_CLEAR,CLEAR,CLEAR","Offshore,Offshore,Offshore",3
5842041f4e65fad6a7708a0a,2024_11_09,39.35929751441085,-74.41683,States Avenue,1,0.05550666666666666,0.38658,18,17,"NIGHT_CLEAR,CLEAR,CLEAR","Offshore,Offshore,Offshore",3
5842041f4e65fad6a7708a0b,2024_11_09,39.37274173278517,-74.40454,Brigantine Jetty,1,0.03750666666666667,0.36000666666666664,18,17,"NIGHT_CLEAR,CLEAR,CLEAR","Offshore,Offshore,Offshore",3
5842041f4e65fad6a7708a0c,2024_11_09,39.356505,-74.42263,South Carolina Avenue,1,0.03750666666666667,0.36000666666666664,18,17,"NIGHT_CLEAR,CLEAR,CLEAR","Offshore,Offshore,Offshore",3
5842041f4e65fad6a7708a0d,2024_11_09,39.413485,-74.35476,14th Street North,1.1666666666666667,0.06999999999999999,0.3828,18,17,"NIGHT_CLEAR,CLEAR,CLEAR","Offshore,Offshore,Offshore",3
5842041f4e65fad6a7708a0e,2024_11_09,39.531319,-74.263252,The Wooden Jetty,0.9444444444444444,0.38510333333333335,0.6106933333333333,16,16,"NIGHT_CLEAR,CLEAR,CLEAR","Offshore,Offshore,Offshore",3
5842041f4e65fad6a7708a0f,2024_11_09,39.552472,-74.24344,Holyoke,0.7222222222222222,0.20019666666666666,0.5477166666666667,16,16,"NIGHT_CLEAR,CLEAR,CLEAR","Offshore,Offshore,Offshore",3
5842041f4e65fad6a7708a10,2024_11_09,39.692364,-74.14068,Hudson Ave.,0.6111111111111112,0.04361,0.3503,17,16,"NIGHT_CLEAR,CLEAR,CLEAR","Offshore,Offshore,Offshore",3
5842041f4e65fad6a7708a11,2024_11_09,39.79614,-74.09248,Island Beach State Park,-0.05555555555555558,0.08000000000000002,0.38669,17,17,"NIGHT_CLEAR,CLEAR,CLEAR","Offshore,Cross-shore,Offshore",3
5842041f4e65fad6a7708a12,2024_11_09,39.91813588078152,-74.07527,Seaside Park,0.611111111111111,0.07520333333333333,0.3791,17,17,"NIGHT_CLEAR,CLEAR,CLEAR","Cross-shore,Cross-shore,Offshore",3
5842041f4e65fad6a7708a15,2024_11_09,39.95745637606704,-74.06736,Ortley Beach,0.5,0.06612,0.36573333333333335,16,15,"NIGHT_CLEAR,CLEAR,CLEAR","Offshore,Cross-shore,Offshore",3
5842041f4e65fad6a7708a16,2024_11_09,39.98313468342945,-74.06265685577506,Lavallette,0.5,0.02,0.3328,16,15,"NIGHT_CLEAR,CLEAR,CLEAR","Offshore,Cross-shore,Offshore",3
5842041f4e65fad6a7708a17,2024_11_09,40.0699319967757,-74.04145,Bay Head,0,0.06888666666666667,0.3722433333333333,16,15,"NIGHT_CLEAR,CLEAR,CLEAR","Offshore,Cross-shore,Offshore",3
5842041f4e65fad6a7708a18,2024_11_09,40.094041,-74.034859,Jenkinson's,0.611111111111111,0.06472333333333334,0.36502,16,15,"NIGHT_CLEAR,CLEAR,CLEAR","Offshore,Offshore,Offshore",3
5842041f4e65fad6a7708a1a,2024_11_09,38.148058,-75.17704,Assateague,1,0.3136333333333333,0.6231,17,16,"NIGHT_CLEAR,CLEAR,CLEAR","Offshore,Cross-shore,Cross-shore",3
5842041f4e65fad6a7708a1b,2024_11_09,38.33889038664497,-75.08017670566352,North End to Ocean City Inlet,0.6666666666666666,0.30807666666666667,0.6147666666666667,17,16,"NIGHT_CLEAR,CLEAR,CLEAR","Cross-shore,Onshore,Cross-shore",3
5842041f4e65fad6a7708a1c,2024_11_09,38.603993,-75.06271,Indian River Inlet,1.3333333333333333,0.39089666666666667,0.75415,17,17,"NIGHT_CLEAR,CLEAR,CLEAR","Offshore,Offshore,Offshore",3
5842041f4e65fad6a7708a1d,2024_11_09,38.460477,-75.05207,Fenwick Island,0.3333333333333333,0.4166666666666667,0.7166666666666667,17,17,"NIGHT_CLEAR,CLEAR,CLEAR","Cross-shore,Onshore,Cross-shore",3
5842041f4e65fad6a7708a1e,2024_11_09,38.538767,-75.05619,Bethany Beach,0.3333333333333333,0.3880866666666667,0.7487333333333334,17.666666666666668,17.666666666666668,"NIGHT_CLEAR,CLEAR,CLEAR","Cross-shore,Cross-shore,Cross-shore",3
5842041f4e65fad6a7708a1f,2024_11_09,38.697657,-75.07595,Dewey Beach,0.3333333333333333,0.44,0.75,17,17,"NIGHT_CLEAR,CLEAR,CLEAR","Cross-shore,Cross-shore,Cross-shore",3
5842041f4e65fad6a7708a20,2024_11_09,38.75034741676525,-75.08194,Gordons Pond,0.6666666666666666,0.1036,0.5050399999999999,17,17,"NIGHT_CLEAR,CLEAR,CLEAR","Offshore,Cross-shore,Offshore",3
5842041f4e65fad6a7708a21,2024_11_09,38.767837,-75.08284,Naval Jetties,0.3333333333333333,0.4766666666666667,0.78,17,17,"NIGHT_CLEAR,CLEAR,CLEAR","Cross-shore,Onshore,Cross-shore",3
5842041f4e65fad6a7708a22,2024_11_09,36.81735875786576,-75.96624,Camp Pendleton,0.3333333333333333,0.7666666666666666,1.0699999999999998,18,18,"NIGHT_CLEAR,CLEAR,CLEAR","Cross-shore,Cross-shore,Onshore",3
5842041f4e65fad6a7708a23,2024_11_09,36.9102212316428,-75.98732471466064,North End,0.3333333333333333,0.4563433333333333,0.8030666666666667,18,18,"NIGHT_CLEAR,CLEAR,CLEAR","Cross-shore,Onshore,Onshore",3
5842041f4e65fad6a7708a24,2024_11_09,36.737117517621314,-75.93924,Sandbridge Beach,0.3333333333333333,0.4671766666666667,0.8205666666666667,18,18,"NIGHT_CLEAR,CLEAR,CLEAR","Cross-shore,Cross-shore,Onshore",3
5842041f4e65fad6a7708a26,2024_11_09,36.818257440557794,-75.96666,Croatan to Pendleton,0.3333333333333333,0.6390233333333334,0.9451833333333333,22,22,"NIGHT_CLEAR,CLEAR,CLEAR","Cross-shore,Cross-shore,Onshore",3
5842041f4e65fad6a7708a27,2024_11_09,36.84318777204769,-75.9719,South End,0.3333333333333333,0.47523333333333334,0.8247333333333333,18,18,"NIGHT_CLEAR,CLEAR,CLEAR","Cross-shore,Cross-shore,Onshore",3
5842041f4e65fad6a7708a28,2024_11_09,37.08612627584661,-75.976121638199,Fishermans Island,1,0.056,0.176,18,18,"NIGHT_CLEAR,CLEAR,CLEAR","Offshore,Offshore,Cross-shore",3
5842041f4e65fad6a7708a38,2024_11_09,35.254619418229026,-75.52074,Cape Hatteras Lighthouse,1,0.7841066666666667,1.1536366666666666,22,20,"NIGHT_CLEAR,CLEAR,MOSTLY_CLOUDY","Cross-shore,Cross-shore,Cross-shore",3
5842041f4e65fad6a7708a3a,2024_11_09,35.54572934093336,-75.46477,Waves and Salvo,0.3333333333333333,0.8166233333333334,1.2247999999999999,21,20,"NIGHT_CLEAR,CLEAR,CLEAR","Cross-shore,Cross-shore,Cross-shore",3
5842041f4e65fad6a7708a3b,2024_11_09,35.22565892751075,-75.63606,Frisco,0.9444444444444444,0.17244333333333334,0.4540666666666667,22,21,"NIGHT_CLEAR,CLEAR,MOSTLY_CLOUDY","Offshore,Offshore,Offshore",3
5842041f4e65fad6a7708a3c,2024_11_09,35.13086,-75.90591,Ocracoke,1.3333333333333333,0.47934333333333334,0.83689,22,22,"NIGHT_CLEAR,CLEAR,CLEAR","Offshore,Offshore,Cross-shore",3
5842041f4e65fad6a7708a3d,2024_11_09,35.34721340158342,-75.50084,Avon Pier,0.3333333333333333,0.8654333333333334,1.244,22,20,"NIGHT_CLEAR,CLEAR,MOSTLY_CLOUDY","Cross-shore,Cross-shore,Cross-shore",3
5842041f4e65fad6a7708a3f,2024_11_09,35.71680821253768,-75.49243,Pea Island,1,0.9566666666666667,1.2633333333333334,20,20,"NIGHT_CLEAR,CLEAR,MOSTLY_CLEAR","Onshore,Onshore,Onshore",3
5842041f4e65fad6a7708a40,2024_11_09,35.97427620657821,-75.62984,Nags Head Pier,0.5333333333333333,0.7210666666666666,1.1373600000000001,19,18,"NIGHT_CLEAR,MOSTLY_CLOUDY,MOSTLY_CLEAR","Onshore,Onshore,Onshore",3
5842041f4e65fad6a7708a41,2024_11_09,36.0439998039079,-75.67288,Avalon Pier,0.5555555555555556,0.7673333333333333,1.2135766666666665,19,18,"NIGHT_CLEAR,CLEAR,CLEAR","Onshore,Onshore,Onshore",3
5842041f4e65fad6a7708a42,2024_11_09,36.03043116489792,-75.66413,First Street,0.6666666666666666,0.8820566666666666,1.2174666666666667,19,18,"NIGHT_CLEAR,CLEAR,CLEAR","Onshore,Onshore,Onshore",3
5842041f4e65fad6a7708a43,2024_11_09,36.06829910590498,-75.6899,Old Station/Laundromats,0.5555555555555556,0.8735233333333333,1.2199666666666666,19,18,"NIGHT_CLEAR,CLEAR,CLEAR","Cross-shore,Onshore,Onshore",3
5842041f4e65fad6a7708a44,2024_11_09,36.10126676607491,-75.71107,Kitty Hawk Pier,0.5333333333333333,0.79218,1.2518333333333334,19,18,"NIGHT_CLEAR,CLEAR,CLEAR","Cross-shore,Onshore,Onshore",3
5842041f4e65fad6a7708a45,2024_11_09,36.18220630068973,-75.75014,Duck Pier,0.3333333333333333,0.5566666666666666,0.86,19,19,"NIGHT_CLEAR,CLEAR,CLEAR","Onshore,Onshore,Onshore",3
5842041f4e65fad6a7708a46,2024_11_09,36.37660668125033,-75.8241,Corolla,0.3333333333333333,0.7333333333333333,1.0433333333333334,19,19,"NIGHT_CLEAR,CLEAR,CLEAR","Cross-shore,Onshore,Onshore",3
5842041f4e65fad6a7708a47,2024_11_09,33.90373404124834,-78.08241431707907,Oak Island,1.3333333333333333,0.23,0.5366666666666666,21,21,"NIGHT_MOSTLY_CLOUDY,CLEAR,CLEAR","Offshore,Offshore,Offshore",3
5842041f4e65fad6a7708a48,2024_11_09,33.91108837766468,-78.29653,South Brunswick Beaches,1.3333333333333333,0.10236,0.4947266666666667,21,21,"NIGHT_CLEAR,CLEAR,CLEAR","Offshore,Offshore,Offshore",3
5842041f4e65fad6a7708a49,2024_11_09,34.05683595651973,-77.88128,Carolina Beach Pier,0.7222222222222222,0.39641333333333334,0.7025466666666667,21,20,"NIGHT_MOSTLY_CLOUDY,MOSTLY_CLEAR,CLEAR","Cross-shore,Cross-shore,Onshore",3
5842041f4e65fad6a7708a4a,2024_11_09,33.96841191816696,-77.9180242565498,Fort Fisher,0.5555555555555556,0.41946666666666665,0.7261533333333333,21,20,"NIGHT_CLEAR,MOSTLY_CLEAR,CLEAR","Cross-shore,Cross-shore,Onshore",3
5842041f4e65fad6a7708a4b,2024_11_09,34.46776662988774,-77.47083,Topsail Beach,1.3333333333333333,0.4889866666666667,0.78929,21,20,"NIGHT_MIST,CLEAR,CLEAR","Offshore,Offshore,Cross-shore",3
5842041f4e65fad6a7708a4c,2024_11_09,34.69270354752445,-76.82854854446575,Iron Steamer,1.3333333333333333,0.21202333333333334,0.5153766666666667,21,20,"NIGHT_CLEAR,CLEAR,CLEAR","Offshore,Offshore,Offshore",3
5842041f4e65fad6a7708a4f,2024_11_09,30.85132684893727,-81.42283496231143,Cumberland Island,1.3333333333333333,0.53,0.8366666666666667,23.666666666666668,23.666666666666668,"NIGHT_MIST,MIST,BRIEF_SHOWERS","Cross-shore,Cross-shore,Cross-shore",3
5842041f4e65fad6a7708a50,2024_11_09,34.686741128540874,-76.47516712138378,Cape Lookout National Seashore,0.3333333333333333,0.67,0.98,22,22,"NIGHT_CLEAR,CLEAR,CLEAR","Offshore,Cross-shore,Cross-shore",3
5842041f4e65fad6a7708a51,2024_11_09,31.10585419260024,-81.40422767604812,Jekyll Island,0.6666666666666666,0.19333333333333333,0.5,23.666666666666668,23.666666666666668,"NIGHT_MIST,MIST,MOSTLY_CLOUDY","Cross-shore,Onshore,Onshore",3
5842041f4e65fad6a7708a52,2024_11_09,31.16212806376699,-81.32512426500224,Harbor Marker Buoys,1.3333333333333333,0.44666666666666666,0.7566666666666667,23.666666666666668,23.666666666666668,"NIGHT_MIST,BRIEF_SHOWERS,MOSTLY_CLOUDY","Cross-shore,Cross-shore,Cross-shore",3
5842041f4e65fad6a7708a53,2024_11_09,31.20076299997009,-81.32629,Sea Island,1.6666666666666667,0.37,0.6733333333333333,23,23,"NIGHT_MIST,CLEAR,CLEAR","Cross-shore,Cross-shore,Cross-shore",3
5842041f4e65fad6a7708a54,2024_11_09,31.13553222995767,-81.38457634790909,St. Simons Island,2,0.38666666666666666,0.69,23,23,"NIGHT_MIST,MOSTLY_CLOUDY,MOSTLY_CLOUDY","Offshore,Offshore,Cross-shore",3
5842041f4e65fad6a7708a55,2024_11_09,31.33550077186516,-81.28383377408417,Wolf Island,1.3333333333333333,0.36,0.67,23,23,"NIGHT_MIST,MIST,MIST","Cross-shore,Cross-shore,Cross-shore",3
5842041f4e65fad6a7708a56,2024_11_09,31.2704493877174,-81.27324039152315,Little St. Simons Island,1,0.4633333333333333,0.7666666666666666,23,23,"NIGHT_MIST,MIST,CLOUDY","Cross-shore,Cross-shore,Onshore",3
5842041f4e65fad6a7708a57,2024_11_09,31.39261761368919,-81.26190520231917,Sapelo Island,2,0.36,0.6633333333333333,23,23,"NIGHT_MIST,MIST,CLEAR","Offshore,Cross-shore,Cross-shore",3
5842041f4e65fad6a7708a58,2024_11_09,34.42458783809001,-77.54492,Surf City Pier,1.3333333333333333,0.47426666666666667,0.7809533333333333,21,20,"NIGHT_CLEAR,CLEAR,CLEAR","Offshore,Offshore,Cross-shore",3
5842041f4e65fad6a7708a59,2024_11_09,31.4231993614213,-81.24725340591522,Cabretta Island,2,0.45,0.75,23,23,"NIGHT_MIST,MIST,OVERCAST","Offshore,Offshore,Cross-shore",3
5842041f4e65fad6a7708a5a,2024_11_09,31.46684389030369,-81.2100056410468,Blackbeard Island,2,0.36,0.6633333333333333,23,23,"NIGHT_BRIEF_SHOWERS_POSSIBLE,MIST,OVERCAST","Offshore,Offshore,Cross-shore",3
5842041f4e65fad6a7708a5b,2024_11_09,31.85953587631629,-80.99031310336719,Wassaw Island/South End,1,0.16666666666666669,0.4766666666666667,22,22,"NIGHT_MIST,MIST,CLEAR","Cross-shore,Cross-shore,Cross-shore",3
5842041f4e65fad6a7708a5c,2024_11_09,31.62535662342983,-81.13328352167974,St. Catherines Island,1.6666666666666667,0.49,0.8,22,22,"NIGHT_MIST,MIST,MOSTLY_CLOUDY","Cross-shore,Cross-shore,Onshore",3
5842041f4e65fad6a7708a5d,2024_11_09,31.76502169596568,-81.07655443806622,Ossabaw Island,1.3333333333333333,0.3666666666666667,0.67,22,22,"NIGHT_MIST,MIST,CLEAR","Cross-shore,Cross-shore,Cross-shore",3
5842041f4e65fad6a7708a5e,2024_11_09,31.90593619092352,-80.93589231700857,Wassaw Island/North End,1.3333333333333333,0.48666666666666664,0.7933333333333333,22,22,"NIGHT_MIST,MIST,CLEAR","Cross-shore,Offshore,Cross-shore",3
5842041f4e65fad6a7708a5f,2024_11_09,31.96738675414547,-80.86977980706155,Little Tybee Island,1.3333333333333333,0.51,0.8133333333333334,22,22,"NIGHT_FOG,MIST,MOSTLY_CLEAR","Cross-shore,Cross-shore,Cross-shore",3
5842041f4e65fad6a7708a60,2024_11_09,31.9812255780179,-80.84773973467009,South Tybee Sandbars,1,0.5266666666666666,0.8333333333333334,22,22,"NIGHT_FOG,MIST,MOSTLY_CLEAR","Cross-shore,Cross-shore,Onshore",3
5842041f4e65fad6a7708a61,2024_11_09,32.01226,-80.83983,Sugar Shack,1.6666666666666667,0.4033333333333333,0.7066666666666667,22,22,"NIGHT_MIST,MIST,CLEAR","Onshore,Onshore,Onshore",3
5842041f4e65fad6a7708a62,2024_11_09,31.98722842396969,-80.84773,18th St. Jetty,1,0.39663,0.7849133333333332,22,22,"NIGHT_MIST,MIST,CLEAR","Cross-shore,Cross-shore,Onshore",3
5842041f4e65fad6a7708a64,2024_11_09,34.013473721006676,-77.8991,"Alabama Ave., Kure Beach",1.3333333333333333,0.5133333333333333,0.82,21,21,"NIGHT_CLEAR,MOSTLY_CLEAR,CLEAR","Cross-shore,Onshore,Onshore",3
5842041f4e65fad6a7708a65,2024_11_09,34.20859853336924,-77.79293,"C Street, Wrightsville Beach",0.888888888888889,0.55921,0.8653433333333334,21,20,"NIGHT_CLEAR,CLEAR,CLEAR","Offshore,Cross-shore,Onshore",3
5842041f4e65fad6a7708a66,2024_11_09,32.831,-79.71,Dewees Island,1.3333333333333333,0.42,0.7233333333333334,21.333333333333332,21.333333333333332,"NIGHT_MIST,MOSTLY_CLEAR,CLEAR","Offshore,Cross-shore,Onshore",3
5842041f4e65fad6a7708a67,2024_11_09,33.82924423172106,-78.62813,Cherry Grove Pier,1.6666666666666667,0.35801666666666665,0.66395,21,21,"NIGHT_CLEAR,CLEAR,CLEAR","Offshore,Offshore,Cross-shore",3
5842041f4e65fad6a7708a69,2024_11_09,34.27197439666496,-77.74050223196774,Figure Eight and Shell Islands,1.1666666666666667,0.60949,0.9092333333333333,21,20,"NIGHT_MOSTLY_CLOUDY,CLEAR,CLEAR","Offshore,Offshore,Cross-shore",3
5842041f4e65fad6a7708a6b,2024_11_09,33.49041958261793,-79.07666070599386,North End,0.6666666666666666,0.51,0.8133333333333334,21,21,"NIGHT_MOSTLY_CLOUDY,CLEAR,MOSTLY_CLEAR","Offshore,Cross-shore,Cross-shore",3
5842041f4e65fad6a7708a6c,2024_11_09,33.39537062495087,-79.13835037835189,The South End,0.3333333333333333,0.4966666666666667,0.8066666666666668,21,21,"NIGHT_MIST,CLEAR,CLEAR","Cross-shore,Cross-shore,Cross-shore",3
5842041f4e65fad6a7708a6d,2024_11_09,33.29001727666697,-79.17190003352977,North Island,0.6666666666666666,0.5800000000000001,0.89,21.333333333333332,21.333333333333332,"NIGHT_MOSTLY_CLEAR,MOSTLY_CLEAR,CLEAR","Cross-shore,Cross-shore,Onshore",3
5842041f4e65fad6a7708a6e,2024_11_09,32.90929771158952,-79.57810400297359,Bull Island,1,0.4133333333333334,0.72,21,21,"NIGHT_FOG,CLEAR,CLEAR","Offshore,Cross-shore,Cross-shore",3
5842041f4e65fad6a7708a6f,2024_11_09,31.99153112815895,-80.84543050470074,Tybee Island Pier,1,0.16,0.46,22,22,"NIGHT_FOG,MIST,MOSTLY_CLEAR","Cross-shore,Cross-shore,Onshore",3
5842041f4e65fad6a7708a70,2024_11_09,33.03478144356316,-79.35021028265125,Cape Romain,1,0.66,0.97,21.666666666666668,21.666666666666668,"NIGHT_CLEAR,MOSTLY_CLEAR,CLEAR","Cross-shore,Cross-shore,Onshore",3
5842041f4e65fad6a7708a71,2024_11_09,33.43231073271028,-79.11789,The Pier,0.6666666666666666,0.41355000000000003,0.7898799999999999,21,21,"NIGHT_MOSTLY_CLOUDY,CLEAR,CLEAR","Cross-shore,Cross-shore,Onshore",3
5842041f4e65fad6a7708a72,2024_11_09,33.45423621397969,-79.10497798178424,South Litchfield,1,0.45,0.7533333333333333,21,21,"NIGHT_MOSTLY_CLOUDY,CLEAR,CLEAR","Cross-shore,Cross-shore,Cross-shore",3
5842041f4e65fad6a7708a73,2024_11_09,34.19316590251396,-77.8045,Crystal Pier,0.5555555555555556,0.5283,0.8348333333333333,21,20,"NIGHT_CLEAR,CLEAR,CLEAR","Offshore,Cross-shore,Onshore",3
5842041f4e65fad6a7708a74,2024_11_09,33.68628680045124,-78.88346,Myrtle Beach,1.3333333333333333,0.47333333333333333,0.7766666666666666,21,21,"NIGHT_CLEAR,MOSTLY_CLEAR,CLEAR","Offshore,Cross-shore,Onshore",3
5842041f4e65fad6a7708a75,2024_11_09,32.66166297145973,-79.91951806398808,10th Street,1.6666666666666667,0.5900000000000001,0.8966666666666667,22,22,"NIGHT_MIST,MOSTLY_CLOUDY,CLEAR","Offshore,Cross-shore,Cross-shore",3
5842041f4e65fad6a7708a76,2024_11_09,33.16729555197199,-79.19829236867845,South Island,0.6666666666666666,0.64,0.9433333333333334,21,21,"NIGHT_MIST,MOSTLY_CLEAR,MOSTLY_CLEAR","Cross-shore,Cross-shore,Onshore",3
5842041f4e65fad6a7708a77,2024_11_09,32.595,-80.088,Kiawah Island/Seabrook Island,2,0.37666666666666665,0.68,21.333333333333332,21.333333333333332,"NIGHT_BRIEF_SHOWERS,MOSTLY_CLEAR,CLEAR","Offshore,Offshore,Offshore",3
5842041f4e65fad6a7708a78,2024_11_09,32.51356930575787,-80.28223,Edisto Beach,1.3333333333333333,0.2697566666666667,0.6677533333333333,22,22,"NIGHT_MIST,OVERCAST,CLEAR","Offshore,Offshore,Cross-shore",3
5842041f4e65fad6a7708a79,2024_11_09,32.366270751262,-80.43911,Hunting Island,1.6666666666666667,0.42102,0.8007533333333333,22,22,"NIGHT_MIST,LIGHT_RAIN,CLEAR","Cross-shore,Onshore,Onshore",3
5842041f4e65fad6a7708a7a,2024_11_09,32.65337734408365,-79.93983,Folly Beach Pier,2,0.3683166666666667,0.6785166666666667,22,22,"NIGHT_FOG,MOSTLY_CLOUDY,CLEAR","Offshore,Offshore,Offshore",3
5842041f4e65fad6a7708a7b,2024_11_09,33.41209545530049,-79.13026341393126,South Jetty,1,0.4966666666666667,0.8066666666666668,21,21,"NIGHT_MOSTLY_CLOUDY,CLEAR,MOSTLY_CLEAR","Cross-shore,Cross-shore,Cross-shore",3
5842041f4e65fad6a7708a7c,2024_11_09,32.31115640606869,-80.48564,Fripp Island,2,0.32937,0.7237433333333334,22,22,"NIGHT_MIST,MIST,CLEAR","Offshore,Offshore,Cross-shore",3
5842041f4e65fad6a7708a7d,2024_11_09,32.14365226036034,-80.74402,Hilton Head Island,0.6666666666666666,0,0.22333333333333336,22,22,"NIGHT_FOG,CLEAR,CLEAR","Cross-shore,Cross-shore,Cross-shore",3
5842041f4e65fad6a7708a7e,2024_11_09,29.70405364733744,-81.22426,Matanzas Inlet,1.3333333333333333,0.38956999999999997,0.6850433333333333,25,24,"NIGHT_MOSTLY_CLOUDY,CLEAR,CLEAR","Onshore,Onshore,Onshore",3
5842041f4e65fad6a7708a81,2024_11_09,29.76878537149042,-81.25109,Crescent Beach,1.6666666666666667,0.31666666666666665,0.6166666666666667,24,24,"NIGHT_FOG,MIST,MOSTLY_CLOUDY","Onshore,Onshore,Onshore",3
5842041f4e65fad6a7708a82,2024_11_09,32.80251718689188,-79.73221919500764,Wild Dunes,1.3333333333333333,0.5733333333333334,0.88,21.333333333333332,21.333333333333332,"NIGHT_MIST,CLEAR,CLEAR","Offshore,Offshore,Cross-shore",3
5842041f4e65fad6a7708a84,2024_11_09,32.75733539419244,-79.83258856064796,Bert's Bar,1.3333333333333333,0.22666666666666666,0.5333333333333333,22,22,"NIGHT_CLEAR,MOSTLY_CLEAR,CLEAR","Offshore,Cross-shore,Cross-shore",3
5842041f4e65fad6a7708a85,2024_11_09,32.66829212943039,-79.90735,Washout,1.9444444444444444,0.3478,0.6606,21,20,"NIGHT_FOG,MOSTLY_CLOUDY,CLEAR","Offshore,Cross-shore,Cross-shore",3
5842041f4e65fad6a7708a86,2024_11_09,32.78452968219067,-79.7854,The Pier/Windjammer,1.6666666666666667,0.55,0.8566666666666667,22,22,"NIGHT_MIST,CLEAR,CLEAR","Offshore,Offshore,Cross-shore",3
5842041f4e65fad6a7708a87,2024_11_09,29.86618162637438,-81.2662150259608,Anastasia Park (The Entrance),1.3333333333333333,0.27666666666666667,0.5866666666666667,24,24,"NIGHT_CLEAR,SHOWERS,MOSTLY_CLOUDY","Onshore,Onshore,Onshore",3
5842041f4e65fad6a7708a89,2024_11_09,29.89149785916623,-81.2723223244215,Blowholes,0.8888888888888888,0.30043333333333333,0.6036466666666667,27,25,"NIGHT_CLEAR,MOSTLY_CLEAR,MOSTLY_CLOUDY","Onshore,Onshore,Onshore",3
5842041f4e65fad6a7708a8a,2024_11_09,30.16227112983666,-81.35502907491218,Crossroads,0.9999999999999999,0.39487666666666665,0.7011433333333333,27,25,"NIGHT_MOSTLY_CLOUDY,MOSTLY_CLOUDY,CLEAR","Onshore,Onshore,Onshore",3
5842041f4e65fad6a7708a8b,2024_11_09,30.19308537587637,-81.36314247820911,Sawgrass,0.8888888888888888,0.39404666666666666,0.6972566666666667,27,25,"NIGHT_MOSTLY_CLOUDY,CLEAR,MOSTLY_CLEAR","Onshore,Onshore,Onshore",3
5842041f4e65fad6a7708a8c,2024_11_09,30.34696027700899,-81.39451,18th Street,1.3333333333333333,0.41262333333333334,0.74908,24,24,"NIGHT_MOSTLY_CLOUDY,CLEAR,CLEAR","Onshore,Onshore,Onshore",3
5842041f4e65fad6a7708a8d,2024_11_09,30.381793,-81.39686,Mayport Poles,1.3333333333333333,0.6433333333333333,0.95,23.666666666666668,23.666666666666668,"NIGHT_MOSTLY_CLOUDY,MOSTLY_CLOUDY,MOSTLY_CLOUDY","Cross-shore,Cross-shore,Onshore",3
5842041f4e65fad6a7708a8e,2024_11_09,30.390516,-81.395591,Blue Roofs,1.3333333333333333,0.5933333333333334,0.8966666666666667,23.666666666666668,23.666666666666668,"NIGHT_MOSTLY_CLOUDY,MOSTLY_CLOUDY,MOSTLY_CLOUDY","Cross-shore,Cross-shore,Onshore",3
5842041f4e65fad6a7708a8f,2024_11_09,30.40517712722211,-81.40074116169004,Huguenot Park (North Jetty),1.6666666666666667,0.41,0.7166666666666667,23.666666666666668,23.666666666666668,"NIGHT_MOSTLY_CLOUDY,MOSTLY_CLOUDY,MOSTLY_CLOUDY","Onshore,Onshore,Onshore",3
5842041f4e65fad6a7708a90,2024_11_09,30.47788918872762,-81.41055821335078,Talbot Island,1.2666666666666666,0.6397933333333333,0.8882066666666667,25,24,"NIGHT_MOSTLY_CLOUDY,MOSTLY_CLOUDY,CLEAR","Onshore,Onshore,Onshore",3
5842041f4e65fad6a7708a91,2024_11_09,30.66753984549761,-81.42983,Main Beach,1.3333333333333333,0.49666666666666665,0.8,23.666666666666668,23.666666666666668,"NIGHT_MIST,MOSTLY_CLEAR,MOSTLY_CLOUDY","Cross-shore,Cross-shore,Cross-shore",3
5842041f4e65fad6a7708a92,2024_11_09,30.69983581209126,-81.42483,Ft. Clinch State Park,1.3333333333333333,0.4866666666666667,0.79,23.666666666666668,23.666666666666668,"NIGHT_MIST,MIST,BRIEF_SHOWERS","Cross-shore,Cross-shore,Onshore",3
5842041f4e65fad6a7708a93,2024_11_09,30.62059700777582,-81.437252942757425,Amelia Pier,1,0.54,0.84,23.666666666666668,23.666666666666668,"NIGHT_MOSTLY_CLOUDY,CLEAR,MOSTLY_CLOUDY","Cross-shore,Cross-shore,Onshore",3
5842041f4e65fad6a7708a95,2024_11_09,28.95125170929067,-80.83837,Bethune Beach,1.3333333333333333,0.42,0.73,25,25,"NIGHT_FOG,MOSTLY_CLEAR,MOSTLY_CLOUDY","Onshore,Onshore,Onshore",3
5842041f4e65fad6a7708a96,2024_11_09,29.03874288905362,-80.8933424949646,Flagler Ave.,0.7777777777777778,0.39953333333333335,0.7461099999999999,26,25,"NIGHT_MIST,CLEAR,MOSTLY_CLOUDY","Onshore,Onshore,Onshore",3
5842041f4e65fad6a7708a98,2024_11_09,30.332297686992757,-81.39319,Atlantic Beach,1.3333333333333333,0.3415533333333333,0.7349866666666667,24,24,"NIGHT_MOSTLY_CLOUDY,CLEAR,CLEAR","Onshore,Onshore,Onshore",3
5842041f4e65fad6a7708a99,2024_11_09,29.87530059952514,-81.26757958498874,Middles,0.8888888888888888,0.29599000000000003,0.5989233333333334,27,25,"NIGHT_CLEAR,MOSTLY_CLEAR,MOSTLY_CLOUDY","Onshore,Onshore,Onshore",3
5842041f4e65fad6a7708a9a,2024_11_09,29.146475528378218,-80.96347,Sunglow Pier,1.6666666666666667,0.36666666666666664,0.67,24.666666666666668,24.666666666666668,"NIGHT_CLEAR,MOSTLY_CLOUDY,MOSTLY_CLOUDY","Onshore,Onshore,Onshore",3
5842041f4e65fad6a7708a9b,2024_11_09,30.02251238001095,-81.32183077344881,Gate Station,0.6666666666666666,0.3273766666666667,0.6272566666666667,27,25,"NIGHT_CLEAR,MOSTLY_CLOUDY,MOSTLY_CLEAR","Onshore,Onshore,Onshore",3
5842041f4e65fad6a7708a9c,2024_11_09,29.33976495417899,-81.0606,Bicentennial Park,1.6666666666666667,0.37333333333333335,0.6766666666666666,24.666666666666668,24.666666666666668,"NIGHT_CLEAR,MOSTLY_CLOUDY,CLEAR","Onshore,Onshore,Onshore",3
5842041f4e65fad6a7708a9d,2024_11_09,29.08257353385602,-80.92137,Ponce Inlet,1.9444444444444444,0.50481,0.8078766666666667,25,24,"NIGHT_FOG,CLEAR,CLEAR","Onshore,Onshore,Onshore",3
5842041f4e65fad6a7708a9f,2024_11_09,27.862962005874696,-80.44668,Sebastian Inlet,1,0.6326433333333333,0.8872233333333334,26,26,"NIGHT_MOSTLY_CLOUDY,CLEAR,MOSTLY_CLOUDY","Onshore,Onshore,Onshore",3
5842041f4e65fad6a7708aa0,2024_11_09,30.292626880836885,-81.38579,Jacksonville Beach Pier,1.8444444444444443,0.5764233333333333,0.8763,25,24,"NIGHT_MOSTLY_CLOUDY,MOSTLY_CLOUDY,CLEAR","Cross-shore,Cross-shore,Cross-shore",3
5842041f4e65fad6a7708aa2,2024_11_09,29.21860397328164,-81.0019,Daytona Beach,1.6666666666666667,0.4066666666666667,0.71,24.666666666666668,24.666666666666668,"NIGHT_CLEAR,CLEAR,CLEAR","Onshore,Onshore,Onshore",3
5842041f4e65fad6a7708aa3,2024_11_09,27.47531255634912,-80.28914,Ft. Pierce Inlet,1.3333333333333333,0.32056666666666667,0.62391,27,26,"NIGHT_MOSTLY_CLOUDY,CLEAR,CLEAR","Onshore,Onshore,Onshore",3
5842041f4e65fad6a7708aa4,2024_11_09,29.29239875585548,-81.0386,Ormond Beach,1.6666666666666667,0.48,0.7866666666666666,24.666666666666668,24.666666666666668,"NIGHT_CLEAR,CLEAR,MOSTLY_CLOUDY","Onshore,Onshore,Onshore",3
5842041f4e65fad6a7708aa5,2024_11_09,29.91629441498523,-81.28801,Vilano,1.3333333333333333,0.28,0.5866666666666667,24,24,"NIGHT_FOG,MOSTLY_CLOUDY,MOSTLY_CLOUDY","Onshore,Onshore,Onshore",3
5842041f4e65fad6a7708aa6,2024_11_09,27.876230736320828,-80.4551,Spanish House,1,0.6161333333333333,0.9258666666666667,26,25,"NIGHT_MOSTLY_CLOUDY,CLEAR,MOSTLY_CLOUDY","Onshore,Onshore,Onshore",3
5842041f4e65fad6a7708aa7,2024_11_09,28.64397251741012,-80.62329,Playalinda,1.3333333333333333,0.63,0.9333333333333333,25,25,"NIGHT_MOSTLY_CLOUDY,CLEAR,MOSTLY_CLEAR","Onshore,Onshore,Onshore",3
5842041f4e65fad6a7708aa8,2024_11_09,28.406142,-80.58886,Jetty Park,2,0.36666666666666664,0.6733333333333333,25,25,"NIGHT_CLEAR,CLEAR,CLEAR","Onshore,Onshore,Onshore",3
5842041f4e65fad6a7708aa9,2024_11_09,28.49083243010974,-80.58001715986319,Kennedy Space Center,1,0.44666666666666666,0.7566666666666667,25,25,"NIGHT_BRIEF_SHOWERS,MOSTLY_CLOUDY,SHOWERS","Onshore,Onshore,Onshore",3
5842041f4e65fad6a7708aab,2024_11_09,28.336757013024314,-80.60568,Lori Wilson Park,1.8333333333333333,0.45056666666666667,0.7603,25,25,"NIGHT_MOSTLY_CLOUDY,MOSTLY_CLOUDY,MOSTLY_CLOUDY","Onshore,Onshore,Onshore",3
5842041f4e65fad6a7708aad,2024_11_09,27.76388821683801,-80.3962958234027,Wabasso,1,0.6,0.9066666666666666,26,26,"NIGHT_MOSTLY_CLOUDY,CLEAR,MOSTLY_CLOUDY","Onshore,Onshore,Onshore",3
5842041f4e65fad6a7708aae,2024_11_09,27.521583322459,-80.30987620353699,P.V. Martin's,1,0.3786233333333333,0.6850233333333333,26,26,"NIGHT_LIGHT_SHOWERS_POSSIBLE,MOSTLY_CLOUDY,MOSTLY_CLOUDY","Onshore,Onshore,Onshore",3
5842041f4e65fad6a7708aaf,2024_11_09,27.644996047720046,-80.35242676734924,Riomar,0.9444444444444444,0.3708433333333333,0.6775233333333334,26,26,"NIGHT_MOSTLY_CLOUDY,MOSTLY_CLOUDY,CLEAR","Onshore,Onshore,Onshore",3
5842041f4e65fad6a7708ab1,2024_11_09,27.670121806659253,-80.36026954650879,Vero Pier,1.1111111111111112,0.4030666666666667,0.70641,26,26,"NIGHT_LIGHT_SHOWERS_POSSIBLE,MOSTLY_CLOUDY,MOSTLY_CLOUDY","Onshore,Onshore,Onshore",3
5842041f4e65fad6a7708ab2,2024_11_09,28.047705032021486,-80.54680109024048,Spessard Holland,1.5555555555555556,0.6518866666666667,0.9332866666666667,25,25,"NIGHT_SHOWERS,MOSTLY_CLOUDY,MOSTLY_CLOUDY","Onshore,Onshore,Onshore",3
5842041f4e65fad6a7708ab7,2024_11_09,28.135426226217064,-80.57895541191101,The Radisson,1.3333333333333333,0.7133333333333334,1.0166666666666666,25,25,"NIGHT_MOSTLY_CLOUDY,CLEAR,CLEAR","Onshore,Onshore,Onshore",3
5842041f4e65fad6a7708ab8,2024_11_09,28.26664623907351,-80.60448,Picnic Tables,1.3333333333333333,0.75,1.0533333333333335,25,25,"NIGHT_MOSTLY_CLOUDY,CLEAR,CLEAR","Onshore,Onshore,Onshore",3
5842041f4e65fad6a7708ab9,2024_11_09,28.200840983180232,-80.59493,Perkins,1,0.6833333333333333,0.9933333333333333,25,25,"NIGHT_MOSTLY_CLOUDY,CLEAR,CLEAR","Onshore,Onshore,Onshore",3
5842041f4e65fad6a7708aba,2024_11_09,28.185652556759443,-80.59154,RC's,1.6666666666666667,0.6966666666666667,1,25,25,"NIGHT_BRIEF_SHOWERS,MOSTLY_CLEAR,MOSTLY_CLOUDY","Onshore,Onshore,Onshore",3
5842041f4e65fad6a7708abc,2024_11_09,28.252541991968208,-80.60269,2nd Light,1.3333333333333333,0.7433333333333333,1.05,25,25,"NIGHT_MOSTLY_CLOUDY,CLEAR,CLEAR","Onshore,Onshore,Onshore",3
5842041f4e65fad6a7708abd,2024_11_09,27.901611308716447,-80.4697,Bonsteel Park,1,0.6303,0.9336433333333333,26,25,"NIGHT_MOSTLY_CLOUDY,CLEAR,CLEAR","Onshore,Onshore,Onshore",3
5842041f4e65fad6a7708abe,2024_11_09,28.2423394657007,-80.60104,Hangar's Beach,1.6666666666666667,0.7233333333333334,1.0266666666666666,25,25,"NIGHT_MOSTLY_CLOUDY,CLEAR,CLEAR","Onshore,Onshore,Onshore",3
5842041f4e65fad6a7708abf,2024_11_09,27.34018197146798,-80.23278,Walton Rocks,1,0.5550233333333333,0.9016,27,26,"NIGHT_MOSTLY_CLOUDY,CLEAR,MOSTLY_CLOUDY","Onshore,Onshore,Onshore",3
5842041f4e65fad6a7708ac0,2024_11_09,25.80407401902198,-80.1222227290161,30th Street,1,0.023333333333333334,0.32666666666666666,27,27,"NIGHT_MOSTLY_CLOUDY,CLEAR,BRIEF_SHOWERS","Onshore,Onshore,Onshore",3
5842041f4e65fad6a7708ac1,2024_11_09,25.76570280215999,-80.12983,South Beach,0.49999999999999994,0.36759,0.6709333333333334,27,27,"NIGHT_BRIEF_SHOWERS,CLEAR,BRIEF_SHOWERS","Onshore,Onshore,Onshore",3
5842041f4e65fad6a7708ac2,2024_11_09,26.058022412197,-80.10873562327671,Dania Pier,1,0.11333333333333333,0.4166666666666667,27.666666666666668,27.666666666666668,"NIGHT_MOSTLY_CLOUDY,DRIZZLE,CLOUDY","Onshore,Onshore,Onshore",3
5842041f4e65fad6a7708ac3,2024_11_09,26.04825428257198,-80.11153150137932,Franklin Street,1,0.19666666666666668,0.5,27.666666666666668,27.666666666666668,"NIGHT_MOSTLY_CLOUDY,DRIZZLE,CLOUDY","Onshore,Onshore,Onshore",3
5842041f4e65fad6a7708ac4,2024_11_09,26.09086461141498,-80.10728410144065,John Lloyd State Park,1,0.20333333333333334,0.5066666666666667,27.666666666666668,27.666666666666668,"NIGHT_MOSTLY_CLOUDY,OVERCAST,CLOUDY","Onshore,Onshore,Onshore",3
5842041f4e65fad6a7708ac5,2024_11_09,26.0971397396683,-80.10298876028907,Spoils,0,0.11,0.41333333333333333,27.666666666666668,27.666666666666668,"NIGHT_CLEAR,CLEAR,CLEAR","Onshore,Onshore,Onshore",3
5842041f4e65fad6a7708ac6,2024_11_09,26.18920557475824,-80.09224,Commercial Pier,1,0.16,0.4633333333333333,27.666666666666668,27.666666666666668,"NIGHT_CLEAR,CLOUDY,CLEAR","Onshore,Onshore,Onshore",3
5842041f4e65fad6a7708ac7,2024_11_09,28.289851576629342,-80.6063,16th St. South,1,0.41723333333333334,0.7172433333333333,26,26,"NIGHT_BRIEF_SHOWERS,CLEAR,MOSTLY_CLOUDY","Onshore,Onshore,Onshore",3
5842041f4e65fad6a7708ac8,2024_11_09,26.23467460139735,-80.0874,Pompano Pier,1,0.18333333333333335,0.48666666666666664,27.666666666666668,27.666666666666668,"NIGHT_CLEAR,CLEAR,MOSTLY_CLOUDY","Onshore,Onshore,Onshore",3
5842041f4e65fad6a7708acb,2024_11_09,26.44179551370651,-80.05928855229453,Atlantic Dunes Park,1,0.28851,0.5453033333333334,27,27,"NIGHT_CLEAR,CLEAR,MOSTLY_CLOUDY","Onshore,Onshore,Cross-shore",3
5842041f4e65fad6a7708acd,2024_11_09,26.62215707439298,-80.03599398392342,Hilton Hotel Backyard,1,0.3286233333333333,0.63169,27,27,"NIGHT_CLEAR,MOSTLY_CLOUDY,CLEAR","Onshore,Onshore,Onshore",3
5842041f4e65fad6a7708ace,2024_11_09,26.96418190555367,-80.07769168113562,Coral Cove Park,1,0.37529,0.6786333333333333,27,26,"NIGHT_MOSTLY_CLOUDY,CLOUDY,MOSTLY_CLOUDY","Onshore,Onshore,Onshore",3
5842041f4e65fad6a7708acf,2024_11_09,26.7029496416037,-80.03184,Palm Beach,1.3333333333333333,0.33612333333333333,0.6458566666666666,27,27,"NIGHT_CLEAR,CLEAR,MOSTLY_CLOUDY","Onshore,Onshore,Onshore",3
5842041f4e65fad6a7708ad0,2024_11_09,26.97679878167375,-80.08141631388132,Blowing Rocks,1,0.36445666666666665,0.6678000000000001,27,26,"NIGHT_CLEAR,BRIEF_SHOWERS_POSSIBLE,MOSTLY_CLOUDY","Onshore,Onshore,Onshore",3
5842041f4e65fad6a7708ad2,2024_11_09,26.45661880078336,-80.057,Delray Beach,1,0.2611233333333333,0.5708566666666667,27,27,"NIGHT_CLEAR,CLEAR,MOSTLY_CLOUDY","Onshore,Onshore,Onshore",3
5842041f4e65fad6a7708ad3,2024_11_09,27.205685534312778,-80.16826629638672,Fletcher's,1,0.34945666666666664,0.6528,27,26,"NIGHT_BRIEF_SHOWERS,CLEAR,MOSTLY_CLOUDY","Onshore,Onshore,Onshore",3
5842041f4e65fad6a7708ad5,2024_11_09,26.5848450388814,-80.03649735753257,Lantana Public Beach,1,0.3322333333333333,0.6386333333333333,27,27,"NIGHT_BRIEF_SHOWERS,CLEAR,CLEAR","Onshore,Onshore,Onshore",3
5842041f4e65fad6a7708ad6,2024_11_09,25.77468432731322,-80.12884045797499,5th Street,1,0.12666666666666668,0.43,27,27,"NIGHT_MOSTLY_CLOUDY,CLEAR,HEAVY_SHOWERS","Onshore,Onshore,Onshore",3
5842041f4e65fad6a7708ad7,2024_11_09,25.795157990715975,-80.12527585029602,21st Street,1,0.016666666666666666,0.32666666666666666,27,27,"NIGHT_MOSTLY_CLOUDY,CLEAR,HEAVY_SHOWERS","Onshore,Onshore,Onshore",3
5842041f4e65fad6a7708ad8,2024_11_09,25.897806453088073,-80.1211827993393,Haulover Inlet (South Jetty),1,0.07,0.37333333333333335,27.666666666666668,27.666666666666668,"NIGHT_MOSTLY_CLOUDY,CLEAR,MOSTLY_CLOUDY","Onshore,Onshore,Onshore",3
5842041f4e65fad6a7708ad9,2024_11_09,25.90147392328634,-80.12110769748688,Haulover Inlet (North Jetty),1,0.15666666666666668,0.4666666666666667,27.666666666666668,27.666666666666668,"NIGHT_MOSTLY_CLOUDY,CLEAR,MOSTLY_CLOUDY","Onshore,Onshore,Onshore",3
5842041f4e65fad6a7708ada,2024_11_09,25.87049374242476,-80.11828560342356,85th Street,1,0.12666666666666668,0.43,27.666666666666668,27.666666666666668,"NIGHT_MOSTLY_CLOUDY,CLEAR,MOSTLY_CLOUDY","Onshore,Onshore,Onshore",3
5842041f4e65fad6a7708adb,2024_11_09,26.25486382031396,-80.0805,Hillsboro Inlet,1,0.4917266666666667,0.81257,27.666666666666668,27.666666666666668,"NIGHT_CLEAR,MOSTLY_CLOUDY,MOSTLY_CLOUDY","Onshore,Onshore,Onshore",3
5842041f4e65fad6a7708add,2024_11_09,26.29705672965111,-80.07612,Hillsboro Beach,1,0.17333333333333334,0.4766666666666667,27.666666666666668,27.666666666666668,"NIGHT_CLEAR,MOSTLY_CLOUDY,MOSTLY_CLOUDY","Onshore,Onshore,Onshore",3
5842041f4e65fad6a7708ade,2024_11_09,26.36569956413266,-80.06717936869391,Red Reef Park,0.8333333333333334,0.29279,0.59919,27,27,"NIGHT_CLEAR,CLEAR,CLEAR","Onshore,Onshore,Onshore",3
5842041f4e65fad6a7708adf,2024_11_09,26.54593873498907,-80.04104359585143,Boynton Beach Inlet (Northside),1,0.2814,0.58141,27,27,"NIGHT_CLEAR,MOSTLY_CLOUDY,CLEAR","Onshore,Onshore,Onshore",3
5842041f4e65fad6a7708ae0,2024_11_09,26.92746505629809,-80.06721138954163,Corners,1,0.42541666666666667,0.6833600000000001,27,27,"NIGHT_CLEAR,CLEAR,CLEAR","Onshore,Onshore,Onshore",3
5842041f4e65fad6a7708ae1,2024_11_09,26.76983179886943,-80.03413481937037,The Cove,1,0.3466766666666667,0.6530766666666666,27,27,"NIGHT_CLEAR,MOSTLY_CLOUDY,CLEAR","Onshore,Onshore,Onshore",3
5842041f4e65fad6a7708ae3,2024_11_09,26.39224485175123,-80.0650461233983,Japanese Rock,1,0.2708433333333333,0.5772433333333333,27,27,"NIGHT_CLEAR,CLEAR,CLEAR","Onshore,Onshore,Onshore",3
5842041f4e65fad6a7708ae4,2024_11_09,29.94810928551321,-85.42545434612366,Mexico Beach,3,0.5266666666666667,0.8333333333333333,25.666666666666668,25.666666666666668,"NIGHT_CLEAR,CLEAR,CLEAR","Offshore,Offshore,Offshore",3
5842041f4e65fad6a7708ae5,2024_11_09,30.11752500931267,-85.7306,Shell Island,2.6666666666666665,0.64,0.9466666666666667,25.666666666666668,25.666666666666668,"NIGHT_MOSTLY_CLEAR,CLEAR,CLEAR","Offshore,Offshore,Cross-shore",3
5842041f4e65fad6a7708ae7,2024_11_09,29.94901514702268,-85.43042978529013,D.J.'s,2.6666666666666665,0.53,0.83,25.666666666666668,25.666666666666668,"NIGHT_CLEAR,CLEAR,CLEAR","Offshore,Offshore,Cross-shore",3
5842041f4e65fad6a7708ae8,2024_11_09,30.12396111446713,-85.73637,St. Andrew's Park,2.6666666666666665,0.6456433333333333,1.0218233333333333,25,24,"NIGHT_MOSTLY_CLEAR,CLEAR,CLEAR","Offshore,Offshore,Cross-shore",3
5842041f4e65fad6a7708ae9,2024_11_09,30.16781531760227,-85.79604918824084,Spinnaker,2,0.66259,1.03849,25,24,"NIGHT_MOSTLY_CLEAR,CLEAR,CLEAR","Offshore,Offshore,Cross-shore",3
5842041f4e65fad6a7708aea,2024_11_09,30.18877050526983,-85.83243530466363,Wood Pier,2.444444444444444,0.6562,1.0371000000000001,25,24,"NIGHT_MOSTLY_CLEAR,CLEAR,CLEAR","Offshore,Offshore,Cross-shore",3
5842041f4e65fad6a7708aeb,2024_11_09,30.2676205895555,-85.9938578144113,Inlet Beach Pier,2.3333333333333335,0.7837,1.0962666666666667,25,24,"NIGHT_CLEAR,CLEAR,CLEAR","Offshore,Offshore,Cross-shore",3
5842041f4e65fad6a7708aec,2024_11_09,30.31815542759119,-86.1383771867044,Bud and Alley's,2.3333333333333335,0.6931433333333333,1.1087666666666667,25,24,"NIGHT_CLEAR,CLEAR,CLEAR","Offshore,Offshore,Onshore",3
5842041f4e65fad6a7708aed,2024_11_09,30.32686082481946,-86.16650590275447,Grayton Beach,2.3333333333333335,0.6420333333333332,1.1379333333333332,25,24,"NIGHT_MOSTLY_CLOUDY,CLEAR,CLEAR","Offshore,Offshore,Onshore",3
5842041f4e65fad6a7708aee,2024_11_09,30.33661488976303,-86.20094,Blue Mountain Beach,2.3333333333333335,0.7170333333333333,1.1376566666666665,25,24,"NIGHT_MOSTLY_CLOUDY,CLEAR,CLEAR","Offshore,Offshore,Onshore",3
5842041f4e65fad6a7708aef,2024_11_09,30.37677202831587,-86.38513,Pompano Joe's,2.6666666666666665,0.8017566666666667,1.1712666666666667,25,24,"NIGHT_CLEAR,CLEAR,CLEAR","Offshore,Cross-shore,Cross-shore",3
5842041f4e65fad6a7708af0,2024_11_09,30.37429731725911,-86.36687,Seascape,2.444444444444444,0.8239766666666667,1.1618233333333334,25,24,"NIGHT_CLEAR,CLEAR,CLEAR","Offshore,Cross-shore,Cross-shore",3
5842041f4e65fad6a7708af1,2024_11_09,30.382815988547186,-86.45839,The Back Porch,2.3333333333333335,0.8345333333333333,1.2104333333333333,25,24,"NIGHT_MOSTLY_CLOUDY,CLEAR,CLEAR","Offshore,Offshore,Onshore",3
5842041f4e65fad6a7708af2,2024_11_09,30.21207176798612,-85.87989730830542,Panama City Pier,2.444444444444444,0.7639766666666667,1.0418233333333333,25,24,"NIGHT_MOSTLY_CLEAR,CLEAR,CLEAR","Offshore,Offshore,Cross-shore",3
5842041f4e65fad6a7708af3,2024_11_09,30.37521499110326,-86.3717,Whale's Tail,2.7777777777777777,0.8014766666666667,1.18071,25,24,"NIGHT_CLEAR,CLEAR,CLEAR","Offshore,Cross-shore,Cross-shore",3
5842041f4e65fad6a7708af4,2024_11_09,30.38120596658251,-86.43046,Old Crystal Pier,2.3333333333333335,0.8289766666666667,1.2101566666666668,25,24,"NIGHT_CLEAR,CLEAR,CLEAR","Offshore,Offshore,Onshore",3
5842041f4e65fad6a7708af5,2024_11_09,30.38090573159031,-86.50655,Jetty East,2.3333333333333335,0.80509,1.1826566666666667,25,24,"NIGHT_MOSTLY_CLOUDY,CLEAR,CLEAR","Offshore,Cross-shore,Onshore",3
5842041f4e65fad6a7708af6,2024_11_09,30.37584509640838,-86.50563,HMO's,2.6666666666666665,0.8403666666666666,1.1612666666666667,25,24,"NIGHT_MOSTLY_CLOUDY,CLEAR,CLEAR","Offshore,Cross-shore,Onshore",3
5842041f4e65fad6a7708af7,2024_11_09,30.38124006131522,-86.50052,Two By Fours,2.3333333333333335,0.86759,1.1904333333333332,25,24,"NIGHT_BRIEF_SHOWERS,CLEAR,CLEAR","Offshore,Cross-shore,Onshore",3
5842041f4e65fad6a7708af8,2024_11_09,30.38250751017554,-86.45776,The Pumphouse,3.111111111111111,1.0164766666666667,1.3073766666666666,25,24,"NIGHT_MOSTLY_CLOUDY,CLEAR,CLEAR","Offshore,Cross-shore,Onshore",3
5842041f4e65fad6a7708af9,2024_11_09,30.38655981578935,-86.52475,NCO Club,2.3333333333333335,0.8242566666666667,1.2018233333333332,25,24,"NIGHT_MOSTLY_CLOUDY,CLEAR,CLEAR","Offshore,Cross-shore,Onshore",3
5842041f4e65fad6a7708afa,2024_11_09,30.39024516541047,-86.59341,Okaloosa Pier,1.7777777777777777,0.8487,1.16821,25,24,"NIGHT_MOSTLY_CLOUDY,CLEAR,CLEAR","Offshore,Offshore,Cross-shore",3
5842041f4e65fad6a7708afb,2024_11_09,30.39281125722673,-86.59766,Dead Man's,2,0.8570333333333333,1.1612666666666667,25,24,"NIGHT_MOSTLY_CLOUDY,CLEAR,CLEAR","Offshore,Cross-shore,Cross-shore",3
5842041f4e65fad6a7708afc,2024_11_09,30.32703176167034,-87.14196,Pensacola Pier,2.3333333333333335,1.19,1.4966666666666666,25,25,"NIGHT_CLEAR,CLEAR,CLEAR","Cross-shore,Cross-shore,Onshore",3
5842041f4e65fad6a7708afd,2024_11_09,30.37920054094992,-86.85583,Navarre Beach,1.3333333333333333,0.6045333333333334,0.94999,25,24,"NIGHT_MOSTLY_CLOUDY,CLEAR,MOSTLY_CLOUDY","Cross-shore,Cross-shore,Cross-shore",3
5842041f4e65fad6a7708afe,2024_11_09,30.39491626029151,-86.61248,Blue Horizon Motel,2.6666666666666665,0.8167566666666667,1.1976566666666666,25,24,"NIGHT_MOSTLY_CLOUDY,CLEAR,CLEAR","Offshore,Cross-shore,Cross-shore",3
5842041f4e65fad6a7708aff,2024_11_09,30.29345899260828,-87.43547,First Parking Lot,2,1.0733333333333333,1.34,25,25,"NIGHT_MOSTLY_CLEAR,MOSTLY_CLOUDY,CLEAR","Cross-shore,Cross-shore,Cross-shore",3
5842041f4e65fad6a7708b00,2024_11_09,30.29767401311303,-87.41362,Johnsons Beach,1.6666666666666667,1.0733333333333333,1.32,25,25,"NIGHT_FOG,MOSTLY_CLOUDY,CLEAR","Cross-shore,Cross-shore,Cross-shore",3
5842041f4e65fad6a7708b01,2024_11_09,30.29513397370759,-87.42642,Sandy Key,2,1.0733333333333333,1.34,25,25,"NIGHT_MOSTLY_CLEAR,MOSTLY_CLOUDY,CLEAR","Cross-shore,Cross-shore,Cross-shore",3
5842041f4e65fad6a7708b03,2024_11_09,30.377504907388026,-86.86444,Navarre Pier,1.3333333333333333,0.6339766666666666,1.01349,25,24,"NIGHT_MOSTLY_CLOUDY,CLEAR,MOSTLY_CLOUDY","Cross-shore,Cross-shore,Cross-shore",3
5842041f4e65fad6a7708b04,2024_11_09,30.31482647791307,-87.26164,Pickens Point Dunes,2,1.0866666666666667,1.3900000000000001,25,25,"NIGHT_MOSTLY_CLOUDY,MOSTLY_CLOUDY,CLEAR","Cross-shore,Cross-shore,Cross-shore",3
5842041f4e65fad6a7708b05,2024_11_09,30.32632110836516,-87.16019503253068,Slabs,2.3333333333333335,1.3566666666666667,1.6633333333333333,25,25,"NIGHT_CLEAR,CLEAR,CLEAR","Cross-shore,Cross-shore,Onshore",3
5842041f4e65fad6a7708b06,2024_11_09,30.32739721382043,-87.30406515493348,Pickens Point,3,1.2233333333333334,1.5266666666666666,25,25,"NIGHT_MOSTLY_CLOUDY,MOSTLY_CLOUDY,CLEAR","Offshore,Offshore,Offshore",3
5842041f4e65fad6a7708b07,2024_11_09,30.27406893266753,-87.54367,Bungalows,2,1.14,1.45,25,25,"NIGHT_CLEAR,MOSTLY_CLOUDY,CLEAR","Cross-shore,Cross-shore,Cross-shore",3
5842041f4e65fad6a7708b08,2024_11_09,27.99627311846992,-82.82942,880,2,0.20557333333333333,0.5469766666666667,25,25,"NIGHT_CLEAR,CLEAR,MOSTLY_CLEAR","Offshore,Offshore,Offshore",3
5842041f4e65fad6a7708b09,2024_11_09,27.97779860371595,-82.83246509090527,Pier 60,2.3333333333333335,0.28,0.5866666666666667,25,25,"NIGHT_CLEAR,CLEAR,CLEAR","Offshore,Offshore,Offshore",3
5842041f4e65fad6a7708b0a,2024_11_09,27.96296387618043,-82.8332635965418,Sand Key,2,0.28,0.5866666666666667,25,25,"NIGHT_CLEAR,CLEAR,CLEAR","Offshore,Offshore,Offshore",3
5842041f4e65fad6a7708b0b,2024_11_09,27.92492619212885,-82.8449122845279,Belleair,2.3333333333333335,0.2866666666666667,0.5933333333333334,25,25,"NIGHT_CLEAR,CLEAR,CLEAR","Offshore,Offshore,Offshore",3
5842041f4e65fad6a7708b0c,2024_11_09,27.882,-82.854,Indian Rocks Beach,2,0.31,0.6166666666666667,25.666666666666668,25.666666666666668,"NIGHT_CLEAR,CLEAR,CLEAR","Offshore,Offshore,Offshore",3
5842041f4e65fad6a7708b0d,2024_11_09,27.83106104966094,-82.83550218771384,Redington Breakwater,2,0.32666666666666666,0.6366666666666666,25.666666666666668,25.666666666666668,"NIGHT_CLEAR,CLEAR,CLEAR","Offshore,Offshore,Offshore",3
5842041f4e65fad6a7708b0e,2024_11_09,27.74369029906206,-82.76053473435867,Middle Jetty,2,0.27666666666666667,0.58,25.666666666666668,25.666666666666668,"NIGHT_CLEAR,CLEAR,CLEAR","Offshore,Offshore,Offshore",3
5842041f4e65fad6a7708b0f,2024_11_09,27.82174178852146,-82.83148664631841,Redington Pier,2,0.31333333333333335,0.6166666666666667,25.666666666666668,25.666666666666668,"NIGHT_CLEAR,CLEAR,CLEAR","Offshore,Offshore,Offshore",3
5842041f4e65fad6a7708b10,2024_11_09,27.31496308261514,-82.5830466912004,Lido Beach,2,0.24,0.5433333333333333,25.666666666666668,25.666666666666668,"NIGHT_CLEAR,CLEAR,CLEAR","Offshore,Offshore,Offshore",3
5842041f4e65fad6a7708b11,2024_11_09,27.31122010159892,-82.57833234007632,Coolidge,2,0.24666666666666667,0.5533333333333333,25.666666666666668,25.666666666666668,"NIGHT_CLEAR,CLEAR,CLEAR","Offshore,Offshore,Offshore",3
5842041f4e65fad6a7708b12,2024_11_09,27.26471672017615,-82.55464835167173,Siesta Key,1.6666666666666667,0.20115666666666665,0.51009,27,25,"NIGHT_CLEAR,CLEAR,CLEAR","Offshore,Offshore,Offshore",3
5842041f4e65fad6a7708b13,2024_11_09,27.24638693488133,-82.53809115716797,Stickney Point,1.3333333333333333,0.22,0.52,25.666666666666668,25.666666666666668,"NIGHT_CLEAR,CLEAR,CLEAR","Offshore,Offshore,Offshore",3
5842041f4e65fad6a7708b14,2024_11_09,27.21907878229092,-82.51813937562073,Turtles,1.6666666666666667,0.2066666666666667,0.51,25.666666666666668,25.666666666666668,"NIGHT_CLEAR,CLEAR,CLEAR","Offshore,Offshore,Offshore",3
5842041f4e65fad6a7708b15,2024_11_09,27.11375765852028,-82.47039,Venice Jetties North,2,0.11666666666666667,0.42,27,25,"NIGHT_CLEAR,CLEAR,CLEAR","Offshore,Offshore,Offshore",3
5842041f4e65fad6a7708b16,2024_11_09,27.111485758834025,-82.46757,Venice Jetties South,2,0.07,0.37666666666666665,27,25,"NIGHT_MOSTLY_CLOUDY,CLEAR,CLEAR","Offshore,Offshore,Offshore",3
5842041f4e65fad6a7708b17,2024_11_09,27.07249378831575,-82.4530285256104,Venice Pier,2,0.25333333333333335,0.5566666666666666,27,25,"NIGHT_CLEAR,MOSTLY_CLOUDY,CLEAR","Offshore,Offshore,Offshore",3
5842041f4e65fad6a7708b19,2024_11_09,27.49680446426314,-82.7140145455959,Holmes Beach Pier,1,0.22666666666666666,0.5333333333333333,25,25,"NIGHT_CLEAR,CLEAR,CLEAR","Offshore,Offshore,Offshore",3
5842041f4e65fad6a7708b1a,2024_11_09,27.7390348493064,-82.75763,Sunset Beach,1.6666666666666667,0.2833333333333333,0.5833333333333334,25.666666666666668,25.666666666666668,"NIGHT_CLEAR,CLEAR,CLEAR","Offshore,Offshore,Offshore",3
5842041f4e65fad6a7708b1b,2024_11_09,26.80347307599041,-82.28564775623539,Gasparilla Point,2,0.15666666666666668,0.46,25.666666666666668,25.666666666666668,"NIGHT_CLEAR,CLEAR,CLEAR","Offshore,Offshore,Offshore",3
5842041f4e65fad6a7708b1c,2024_11_09,27.45365831548911,-82.69609,Coquina Jetties,2,0.26666666666666666,0.5700000000000001,25.666666666666668,25.666666666666668,"NIGHT_CLEAR,CLEAR,CLEAR","Offshore,Offshore,Offshore",3
5842041f4e65fad6a7708b1d,2024_11_09,27.46077315206043,-82.69924,Twin Piers,1.6666666666666667,0.1881,0.4970333333333333,27,25,"NIGHT_CLEAR,CLEAR,CLEAR","Offshore,Offshore,Offshore",3
5842041f4e65fad6a7708b1e,2024_11_09,26.91007316019612,-82.35352,Englewood,1.3333333333333333,0.013333333333333334,0.31333333333333335,25.666666666666668,25.666666666666668,"NIGHT_CLEAR,MOSTLY_CLOUDY,CLEAR","Offshore,Offshore,Offshore",3
5842041f4e65fad6a7708b1f,2024_11_09,26.88221101560038,-82.3359828282636,Knight's Point,1.3333333333333333,0.12333333333333334,0.42666666666666664,25.666666666666668,25.666666666666668,"NIGHT_CLEAR,MOSTLY_CLOUDY,CLEAR","Offshore,Offshore,Offshore",3
5842041f4e65fad6a7708b20,2024_11_09,26.51219285784982,-82.1928203289264,Tween Waters,1.3333333333333333,0.17666666666666667,0.48333333333333334,25.333333333333332,25.333333333333332,"NIGHT_CLEAR,CLEAR,CLEAR","Offshore,Offshore,Offshore",3
5842041f4e65fad6a7708b21,2024_11_09,26.55130241615096,-82.20222762415648,Redfish Pass,1,0.17333333333333334,0.4766666666666666,25.333333333333332,25.333333333333332,"NIGHT_CLEAR,CLEAR,CLEAR","Offshore,Offshore,Offshore",3
5842041f4e65fad6a7708b22,2024_11_09,26.71713432926596,-82.26287777058234,Boca Grande,1.3333333333333333,0.19333333333333336,0.5,25.666666666666668,25.666666666666668,"NIGHT_CLEAR,CLEAR,CLEAR","Offshore,Offshore,Offshore",3
5842041f4e65fad6a7708b23,2024_11_09,26.47856785808584,-82.181288592828,Blind Pass,1.3333333333333333,0.13,0.43333333333333335,26,26,"NIGHT_CLEAR,CLEAR,CLEAR","Offshore,Offshore,Offshore",3
5842041f4e65fad6a7708b24,2024_11_09,26.25358330618783,-81.82429246081317,The Wall,1.3333333333333333,0.02666666666666667,0.31333333333333335,26,26,"NIGHT_CLEAR,CLEAR,CLEAR","Offshore,Offshore,Offshore",3
5842041f4e65fad6a7708b25,2024_11_09,26.17456407516186,-81.81588575623482,Doctor's Pass,1.3333333333333333,0.03333333333333333,0.31666666666666665,26,26,"NIGHT_CLEAR,CLEAR,CLEAR","Offshore,Offshore,Offshore",3
5842041f4e65fad6a7708b26,2024_11_09,27.427134501874612,-82.68110766159296,Whitney Beach,2,0.32666666666666666,0.6366666666666666,25.666666666666668,25.666666666666668,"NIGHT_CLEAR,CLEAR,CLEAR","Offshore,Offshore,Offshore",3
5842041f4e65fad6a7708b27,2024_11_09,26.17300183052463,-81.81515842430267,Doctor's Pass (South Jetty),1.3333333333333333,0.02666666666666667,0.31333333333333335,26,26,"NIGHT_CLEAR,CLEAR,CLEAR","Offshore,Offshore,Offshore",3
5842041f4e65fad6a7708b28,2024_11_09,27.73496421495629,-82.75268962468695,Upham Beach Park,2,0.2833333333333333,0.5933333333333334,25.666666666666668,25.666666666666668,"NIGHT_CLEAR,CLEAR,CLEAR","Offshore,Offshore,Offshore",3
5842041f4e65fad6a7708b29,2024_11_09,26.13144856766723,-81.8090395116521,Naples Pier,1,0,0.25333333333333335,26,26,"NIGHT_CLEAR,MOSTLY_CLEAR,CLEAR","Offshore,Offshore,Offshore",3
5842041f4e65fad6a7708b2a,2024_11_09,20.63474,-156.45211,Little Beach,2,0.07500000000000001,0.385,26.5,26.5,"NIGHT_CLEAR,CLEAR","Cross-shore,Onshore",2
5842041f4e65fad6a7708b2b,2024_11_09,20.613,-156.438,Dumps,2,0.095,0.405,26.5,26.5,"NIGHT_CLEAR,CLEAR","Onshore,Onshore",2
5842041f4e65fad6a7708b2c,2024_11_09,22.216,-159.502,Hanalei Bay,3,1.705,2.035,27,27,"NIGHT_CLEAR,CLEAR","Offshore,Offshore",2
5842041f4e65fad6a7708b2d,2024_11_09,22.225,-159.567,Ha'Ena Bay (Cannons/Tunnels),0.5,1.72,2.055,27,27,"NIGHT_MOSTLY_CLOUDY,MOSTLY_CLOUDY","Cross-shore,Cross-shore",2
5842041f4e65fad6a7708b2f,2024_11_09,22.148,-159.301,Anahola Bay,1,1.125,1.4300000000000002,26,26,"NIGHT_MOSTLY_CLOUDY,CLEAR","Onshore,Onshore",2
5842041f4e65fad6a7708b30,2024_11_09,21.872,-159.462,Poipu Outer Reef,2,0.395,0.7050000000000001,27,27,"NIGHT_CLEAR,MOSTLY_CLEAR","Offshore,Offshore",2
5842041f4e65fad6a7708b31,2024_11_09,21.936,-159.652,Pakala,2,0.115,0.42,27,27,"NIGHT_CLEAR,CLEAR","Offshore,Offshore",2
5842041f4e65fad6a7708b32,2024_11_09,21.272,-157.832,Populars,1,0.22133999999999998,0.519135,26,25,"NIGHT_CLEAR,CLEAR","Offshore,Offshore",2
5842041f4e65fad6a7708b33,2024_11_09,21.26841992117695,-157.82329,Publics,1,0.28095000000000003,0.583565,26,25,"NIGHT_CLEAR,CLEAR","Offshore,Offshore",2
5842041f4e65fad6a7708b34,2024_11_09,21.25460513357954,-157.79432,Black Point,1,0.53581,0.86779,26,26,"NIGHT_MOSTLY_CLEAR,MOSTLY_CLOUDY","Offshore,Offshore",2
5842041f4e65fad6a7708b35,2024_11_09,21.27394674233747,-157.82777,Canoes,1.1666666666666665,0.286785,0.593985,26,25,"NIGHT_CLEAR,CLEAR","Offshore,Offshore",2
5842041f4e65fad6a7708b36,2024_11_09,21.273658410008455,-157.8263,Queen's,1,0.216365,0.523985,26,25,"NIGHT_CLEAR,CLEAR","Offshore,Offshore",2
5842041f4e65fad6a7708b37,2024_11_09,20.869,-156.679,Lahaina Harbor - Breakwall,3,0.34,0.645,26.5,26.5,"NIGHT_CLEAR,CLEAR","Cross-shore,Cross-shore",2
5842041f4e65fad6a7708b38,2024_11_09,21.277,-157.841,Kaiser's,2,0.47343999999999997,0.77124,26,25,"NIGHT_CLEAR,CLEAR","Offshore,Offshore",2
5842041f4e65fad6a7708b39,2024_11_09,21.280537020769913,-157.84107,Rockpiles,1.6666666666666665,0.49241999999999997,0.793155,26,25,"NIGHT_CLEAR,CLEAR","Offshore,Offshore",2
5842041f4e65fad6a7708b3a,2024_11_09,21.2745,-157.8395,Four's,2,0.345,0.65,26,26,"NIGHT_CLEAR,CLEAR","Offshore,Offshore",2
5842041f4e65fad6a7708b3b,2024_11_09,21.576,-158.282,Kaena Point,1.5,1.24,1.545,27,27,"NIGHT_CLEAR,CLEAR","Cross-shore,Cross-shore",2
5842041f4e65fad6a7708b3c,2024_11_09,21.31110306220024,-157.6590697786346,Makapu'u,1,0.76,1.06,26,26,"NIGHT_MOSTLY_CLEAR,MOSTLY_CLOUDY","Onshore,Onshore",2
5842041f4e65fad6a7708b3d,2024_11_09,21.276618032562773,-157.83386,Three's,1.5,0.30325,0.613945,26,25,"NIGHT_CLEAR,CLEAR","Offshore,Offshore",2
5842041f4e65fad6a7708b3f,2024_11_09,39.63537452931482,-123.7858735430881,Westport,3.3333333333333335,1.9733333333333332,2.3233333333333333,13,13,"NIGHT_CLEAR,NIGHT_CLEAR,CLEAR","Cross-shore,Offshore,Onshore",3
5842041f4e65fad6a7708b40,2024_11_09,39.47339314374171,-123.8053109861082,MacKerricher,3.3333333333333335,2.9833333333333334,3.533333333333333,13,13,"NIGHT_CLEAR,NIGHT_CLEAR,CLEAR","Offshore,Offshore,Onshore",3
5842041f4e65fad6a7708b41,2024_11_09,39.30271935445495,-123.79757,Mendocino Township,3,2.043333333333333,2.4433333333333334,14,14,"NIGHT_CLEAR,NIGHT_CLEAR,CLEAR","Cross-shore,Cross-shore,Onshore",3
5842041f4e65fad6a7708b42,2024_11_09,21.281416779283845,-157.8457,Ala Moana Bowls,2,0.54661,0.8526549999999999,26,25,"NIGHT_CLEAR,CLEAR","Offshore,Offshore",2
5842041f4e65fad6a7708b43,2024_11_09,15.846,-97.06,Puerto Escondido,3.6666666666666665,1.94,2.3233333333333333,29,29,"NIGHT_CLEAR,CLEAR,MOSTLY_CLEAR","Offshore,Offshore,Onshore",3
5842041f4e65fad6a7708b44,2024_11_09,11.44175,-86.08519,Santana,3,1.23,1.4666666666666666,28.666666666666668,28.666666666666668,"NIGHT_LIGHT_SHOWERS,OVERCAST,THUNDER_SHOWERS","Cross-shore,Onshore,Cross-shore",3
5842041f4e65fad6a7708b46,2024_11_09,38.91444690804076,-123.7104245288878,Point Arena,3.6666666666666665,2.3833333333333333,2.85,14,14,"NIGHT_CLEAR,NIGHT_CLEAR,CLEAR","Cross-shore,Cross-shore,Cross-shore",3
5842041f4e65fad6a7708b47,2024_11_09,18.46,-66.07383728027,San Juan,2.8333333333333335,0.8346133333333333,1.1071666666666666,27,26,"NIGHT_CLEAR,CLEAR,CLOUDY","Offshore,Cross-shore,Cross-shore",3
