_id,date,lat,lon,name,daily_mean_swell_rating,daily_mean_wave_height_min,daily_mean_wave_height_max,daily_mean_water_temperature_max,daily_mean_water_temperature_min,weather_per_timestamp,wind_per_timestamp,n_samples_per_day
5842041f4e65fad6a77087f9,2024_04_09,37.741668,-122.51038,South Ocean Beach,3,1.2425,1.4875,14,14,"NIGHT_MIST,NIGHT_MIST,NIGHT_MIST,NIGHT_MIST","Offshore,Offshore,Offshore,Offshore",4
5842041f4e65fad6a7708801,2024_04_09,37.49142,-122.50428,Maverick's,NA,1.7349999999999999,2.075,13,13,"NIGHT_MIST,NIGHT_MIST,NIGHT_MOSTLY_CLOUDY,NIGHT_MOSTLY_CLOUDY","Offshore,Offshore,Onshore,Onshore",4
5842041f4e65fad6a7708804,2024_04_09,44.997,-124.018,Roads End,2,2.3375,2.61,11,11,"NIGHT_MIST,NIGHT_OVERCAST,NIGHT_OVERCAST,NIGHT_OVERCAST","Cross-shore,Onshore,Onshore,Onshore",4
5842041f4e65fad6a7708805,2024_04_09,36.95188851423011,-122.02522,Steamer Lane,3,0.675,0.985,14,14,"NIGHT_CLEAR,NIGHT_CLEAR,NIGHT_CLEAR,NIGHT_CLEAR","Offshore,Offshore,Cross-shore,Offshore",4
5842041f4e65fad6a7708806,2024_04_09,36.95918781542251,-122.02489,Cowells,1,0,0.195,14,14,"NIGHT_CLEAR,NIGHT_CLEAR,NIGHT_CLEAR,NIGHT_CLEAR","Offshore,Offshore,Onshore,Offshore",4
5842041f4e65fad6a7708807,2024_04_09,36.95468082526536,-121.97234,Pleasure Point,3,0.6425000000000001,0.9450000000000001,14,14,"NIGHT_CLEAR,NIGHT_MOSTLY_CLOUDY,NIGHT_CLEAR,NIGHT_CLEAR","Onshore,Offshore,Offshore,Offshore",4
5842041f4e65fad6a770880a,2024_04_09,35.37815414378748,-120.86589,Morro Bay,3,0.9775,1.1675,12,12,"NIGHT_CLEAR,NIGHT_CLEAR,NIGHT_CLEAR,NIGHT_CLEAR","Offshore,Cross-shore,Onshore,Cross-shore",4
5842041f4e65fad6a770880b,2024_04_09,36.95782765000708,-121.96729,Jack's,2,0.2025,0.505,14,14,"NIGHT_CLEAR,NIGHT_MOSTLY_CLOUDY,NIGHT_CLEAR,NIGHT_CLEAR","Onshore,Cross-shore,Offshore,Offshore",4
5842041f4e65fad6a770880d,2024_04_09,34.29982939936656,-119.3489016603669,Gold Coast Beachbreaks,2,0.23500000000000001,0.54,13,13,"NIGHT_CLEAR,NIGHT_CLEAR,NIGHT_CLEAR,NIGHT_CLEAR","Cross-shore,Cross-shore,Offshore,Cross-shore",4
5842041f4e65fad6a7708811,2024_04_09,34.245076,-119.26799,Ventura Harbor,3,0.7933425000000001,1.0616599999999998,12,12,"NIGHT_CLEAR,NIGHT_CLEAR,NIGHT_CLEAR,NIGHT_CLEAR","Offshore,Offshore,Offshore,Cross-shore",4
5842041f4e65fad6a7708813,2024_04_09,34.051,-118.964,County Line,2,0.5068666666666667,0.8142583333333333,13,13,"NIGHT_CLEAR,NIGHT_CLEAR,NIGHT_CLEAR,NIGHT_CLEAR","Offshore,Offshore,Offshore,Offshore",4
5842041f4e65fad6a7708814,2024_04_09,34.37256264378892,-119.47797,Rincon,2,0.225,0.5275,13,13,"NIGHT_CLEAR,NIGHT_CLEAR,NIGHT_CLEAR,NIGHT_CLEAR","Offshore,Offshore,Offshore,Offshore",4
5842041f4e65fad6a7708817,2024_04_09,34.03096101876324,-118.68109,Malibu Third Point,1.75,0.325,0.6275,14,14,"NIGHT_CLEAR,NIGHT_CLEAR,NIGHT_CLEAR,NIGHT_CLEAR","Offshore,Offshore,Offshore,Offshore",4
5842041f4e65fad6a7708819,2024_04_09,33.984079047970035,-118.47382,Venice Beach,2.75,0.6930166666666666,0.9981166666666667,14,14,"NIGHT_CLEAR,NIGHT_CLEAR,NIGHT_CLEAR,NIGHT_CLEAR","Offshore,Offshore,Offshore,Cross-shore",4
5842041f4e65fad6a770881e,2024_04_09,34.037508438646746,-118.5834,Topanga Beach,2.25,0.35,0.6523916666666667,14,14,"NIGHT_CLEAR,NIGHT_CLEAR,NIGHT_CLEAR,NIGHT_CLEAR","Offshore,Offshore,Offshore,Offshore",4
5842041f4e65fad6a7708820,2024_04_09,33.73954373690184,-118.11414,Seal Beach Jetty,2,0.2175,0.5225,14,14,"NIGHT_CLEAR,NIGHT_CLEAR,NIGHT_CLEAR,NIGHT_CLEAR","Offshore,Offshore,Offshore,Offshore",4
5842041f4e65fad6a7708822,2024_04_09,33.72309983348433,-118.08078,Anderson Street,2,0.2697833333333334,0.5798833333333333,14,14,"NIGHT_CLEAR,NIGHT_CLEAR,NIGHT_CLEAR,NIGHT_CLEAR","Offshore,Offshore,Offshore,Offshore",4
5842041f4e65fad6a7708827,2024_04_09,33.65574085629463,-118.00397,Huntington Beach Pier Northside,2.25,0.7499916666666666,1.0555583333333334,14,14,"NIGHT_CLEAR,NIGHT_MIST,NIGHT_CLEAR,NIGHT_CLEAR","Onshore,Offshore,Offshore,Offshore",4
5842041f4e65fad6a7708828,2024_04_09,34.272041739333,-119.29976,C St.,3,0.42000000000000004,0.7275,12,12,"NIGHT_CLEAR,NIGHT_CLEAR,NIGHT_CLEAR,NIGHT_CLEAR","Cross-shore,Offshore,Offshore,Offshore",4
5842041f4e65fad6a770882a,2024_04_09,33.61555743705257,-117.93676,Newport Lower Jetties,2,0.5527,0.8575916666666666,14,14,"NIGHT_MIST,NIGHT_CLEAR,NIGHT_CLEAR,NIGHT_CLEAR","Cross-shore,Cross-shore,Cross-shore,Cross-shore",4
5842041f4e65fad6a770882b,2024_04_09,33.5930302087,-117.88199,The Wedge,3,0.7669316666666667,1.1971110416666666,14,14,"NIGHT_MIST,NIGHT_CLEAR,NIGHT_CLEAR,NIGHT_CLEAR","Offshore,Offshore,Offshore,Offshore",4
5842041f4e65fad6a770882c,2024_04_09,33.60577342582,-117.9315376281,Newport Beach Pier,2,0.5741583333333333,0.8815500000000001,14,14,"NIGHT_MIST,NIGHT_CLEAR,NIGHT_CLEAR,NIGHT_CLEAR","Onshore,Onshore,Onshore,Onshore",4
5842041f4e65fad6a770882e,2024_04_09,33.475793399792984,-117.72291,Salt Creek,3,0.7235333333333334,1.0341,13,13,"NIGHT_CLEAR,NIGHT_CLEAR,NIGHT_CLEAR,NIGHT_CLEAR","Offshore,Offshore,Offshore,Cross-shore",4
5842041f4e65fad6a7708830,2024_04_09,33.41800974113613,-117.61952,T-Street,3,0.7816583333333333,1.0867583333333335,14,14,"NIGHT_CLEAR,NIGHT_CLEAR,NIGHT_CLEAR,NIGHT_CLEAR","Offshore,Offshore,Offshore,Offshore",4
5842041f4e65fad6a7708832,2024_04_09,33.202391008646,-117.39475,Oceanside Harbor,3,0.7844666666666666,1.0895666666666668,14,14,"NIGHT_CLEAR,NIGHT_CLEAR,NIGHT_CLEAR,NIGHT_MIST","Offshore,Offshore,Offshore,Offshore",4
5842041f4e65fad6a7708835,2024_04_09,33.19477795952803,-117.38667,Oceanside Pier,3,0.6547833333333334,0.9630583333333333,14,14,"NIGHT_CLEAR,NIGHT_CLEAR,NIGHT_MIST,NIGHT_MIST","Offshore,Offshore,Offshore,Offshore",4
5842041f4e65fad6a7708837,2024_04_09,33.14948100706,-117.35029,Tamarack,3,0.5125,0.8175,15,15,"NIGHT_CLEAR,NIGHT_CLEAR,NIGHT_MIST,NIGHT_MIST","Offshore,Offshore,Offshore,Offshore",4
5842041f4e65fad6a7708839,2024_04_09,32.865777159358856,-117.25614,Scripps,3,0.999025,1.320875,16,16,"NIGHT_CLEAR,NIGHT_CLEAR,NIGHT_CLEAR,NIGHT_CLEAR","Onshore,Cross-shore,Offshore,Offshore",4
5842041f4e65fad6a770883a,2024_04_09,32.813094,-117.27381,Birdrock,3,0.7925,1.0950000000000002,15,15,"NIGHT_CLEAR,NIGHT_CLEAR,NIGHT_CLEAR,NIGHT_MIST","Offshore,Offshore,Offshore,Offshore",4
5842041f4e65fad6a770883b,2024_04_09,32.877231,-117.25303,Blacks,3,0.949025,1.12885,16,16,"NIGHT_CLEAR,NIGHT_CLEAR,NIGHT_CLEAR,NIGHT_CLEAR","Onshore,Cross-shore,Cross-shore,Offshore",4
5842041f4e65fad6a770883c,2024_04_09,32.82978974229765,-117.28162,Windansea,2.5,0.690275,0.9924499999999999,15,15,"NIGHT_CLEAR,NIGHT_CLEAR,NIGHT_MIST,NIGHT_MIST","Cross-shore,Offshore,Offshore,Offshore",4
5842041f4e65fad6a770883d,2024_04_09,32.838278,-117.28396,Horseshoe,3,0.6875,0.99,15,15,"NIGHT_CLEAR,NIGHT_CLEAR,NIGHT_MIST,NIGHT_MIST","Cross-shore,Offshore,Offshore,Offshore",4
5842041f4e65fad6a770883f,2024_04_09,32.75034717673179,-117.25337,Ocean Beach,3,0.9034,1.1226,15,15,"NIGHT_CLEAR,NIGHT_CLEAR,NIGHT_MIST,NIGHT_MIST","Cross-shore,Offshore,Offshore,Offshore",4
5842041f4e65fad6a7708840,2024_04_09,32.73693,-117.25718,Sunset Cliffs,2.25,0.7324999999999999,1.035,15,15,"NIGHT_CLEAR,NIGHT_MIST,NIGHT_CLEAR,NIGHT_MIST","Cross-shore,Offshore,Offshore,Offshore",4
5842041f4e65fad6a7708841,2024_04_09,32.796582258728826,-117.25779,Pacific Beach,3,0.726525,1.04135,15,15,"NIGHT_CLEAR,NIGHT_CLEAR,NIGHT_CLEAR,NIGHT_MIST","Offshore,Offshore,Offshore,Offshore",4
5842041f4e65fad6a7708842,2024_04_09,32.776636,-117.25514,Mission Beach,3,0.82715,1.141975,15,15,"NIGHT_CLEAR,NIGHT_CLEAR,NIGHT_CLEAR,NIGHT_MIST","Offshore,Offshore,Offshore,Offshore",4
5842041f4e65fad6a7708844,2024_04_09,32.577195519016,-117.13475,Imperial Beach Pier,3,0.825,1.065,15,15,"NIGHT_CLEAR,NIGHT_CLEAR,NIGHT_CLEAR,NIGHT_MIST","Onshore,Cross-shore,Offshore,Offshore",4
5842041f4e65fad6a770884a,2024_04_09,42.88678181061,-70.80843,Seabrook,2.75,0.608115,0.9406525,5,4,"NIGHT_CLEAR,NIGHT_CLEAR,NIGHT_CLEAR,CLEAR","Offshore,Offshore,Offshore,Cross-shore",4
5842041f4e65fad6a770884e,2024_04_09,41.434181432898335,-71.45312,Narragansett,1.75,0.21142500000000003,0.51185,6,5,"NIGHT_MOSTLY_CLOUDY,NIGHT_CLEAR,NIGHT_CLEAR,CLEAR","Cross-shore,Offshore,Offshore,Offshore",4
5842041f4e65fad6a7708850,2024_04_09,40.582703230722,-73.65247,Lincoln Blvd,1,0.00958333333333334,0.31688333333333335,8,7,"NIGHT_CLEAR,NIGHT_CLEAR,NIGHT_CLEAR,CLEAR","Onshore,Onshore,Onshore,Onshore",4
5842041f4e65fad6a7708852,2024_04_09,40.58342841721757,-73.81182,Rockaways,2,0.31188333333333335,0.6191833333333334,8,7,"NIGHT_MOSTLY_CLEAR,NIGHT_CLEAR,NIGHT_CLEAR,CLEAR","Onshore,Onshore,Onshore,Onshore",4
5842041f4e65fad6a7708853,2024_04_09,40.330474,-73.9734,Monmouth Beach,2,0.19,0.4925,8,7,"NIGHT_MOSTLY_CLEAR,NIGHT_CLEAR,NIGHT_CLEAR,CLEAR","Offshore,Cross-shore,Cross-shore,Offshore",4
5842041f4e65fad6a7708856,2024_04_09,40.113,-74.028,Manasquan Inlet,2,0.31688333333333335,0.6248083333333334,8,7,"NIGHT_CLEAR,NIGHT_CLEAR,NIGHT_CLEAR,CLEAR","Offshore,Cross-shore,Offshore,Offshore",4
5842041f4e65fad6a7708857,2024_04_09,39.941519877445664,-74.06829,Casino Pier,2.79,0.6038833333333333,0.9086833333333333,8,7,"NIGHT_CLEAR,NIGHT_CLEAR,NIGHT_CLEAR,CLEAR","Cross-shore,Cross-shore,Cross-shore,Offshore",4
5842041f4e65fad6a7708858,2024_04_09,39.28223089949212,-74.55766,North End OC,2.79,0.5997250000000001,0.904525,8,7,"NIGHT_CLEAR,NIGHT_CLEAR,NIGHT_MIST,MIST","Onshore,Cross-shore,Cross-shore,Offshore",4
5842041f4e65fad6a770885b,2024_04_09,39.65080599934257,-74.17146,Ship Bottom,2.0425,0.6036750000000001,0.9080583333333334,8,7,"NIGHT_CLEAR,NIGHT_CLEAR,NIGHT_MIST,CLEAR","Cross-shore,Offshore,Offshore,Offshore",4
5842041f4e65fad6a7708863,2024_04_09,36.034151543144,-75.66791,Third Street,3,0.9886,1.3054000000000001,12,10,"NIGHT_MOSTLY_CLOUDY,NIGHT_CLEAR,NIGHT_MOSTLY_CLOUDY,MOSTLY_CLOUDY","Offshore,Offshore,Offshore,Offshore",4
5842041f4e65fad6a7708867,2024_04_09,35.605833221351425,-75.46303,S-Turns,3.5,1.185775,1.616125,14,13,"NIGHT_MOSTLY_CLOUDY,NIGHT_MOSTLY_CLEAR,NIGHT_CLEAR,CLEAR","Offshore,Offshore,Offshore,Offshore",4
5842041f4e65fad6a770886d,2024_04_09,38.338461,-75.08117,Ocean City Boardwalk,2.0425,0.6331416666666667,1.0725916666666666,9,8,"NIGHT_CLEAR,NIGHT_CLEAR,NIGHT_CLEAR,CLEAR","Offshore,Offshore,Offshore,Offshore",4
5842041f4e65fad6a770886f,2024_04_09,29.844757212379562,-81.26136,A St.,1.75,0.325,0.6275,19,19,"NIGHT_CLEAR,NIGHT_CLEAR,NIGHT_CLEAR,NIGHT_MOSTLY_CLEAR","Onshore,Onshore,Onshore,Onshore",4
5842041f4e65fad6a7708871,2024_04_09,29.069417851135093,-80.90824,New Smyrna Beach,1,0.665,0.97,20,19,"NIGHT_CLEAR,NIGHT_CLEAR,NIGHT_CLEAR,NIGHT_CLEAR","Onshore,Onshore,Onshore,Onshore",4
5842041f4e65fad6a7708872,2024_04_09,28.367707417566,-80.60171,Cocoa Beach Pier,1,0.425,0.73,24,23,"NIGHT_MOSTLY_CLOUDY,NIGHT_CLOUDY,NIGHT_MOSTLY_CLOUDY,NIGHT_MOSTLY_CLEAR","Onshore,Onshore,Onshore,Onshore",4
5842041f4e65fad6a7708873,2024_04_09,28.091782738658846,-80.56479,Indialantic,1,0.5525,0.86,24,23,"NIGHT_MOSTLY_CLOUDY,NIGHT_MOSTLY_CLOUDY,NIGHT_CLOUDY,NIGHT_CLOUDY","Onshore,Onshore,Onshore,Onshore",4
5842041f4e65fad6a7708876,2024_04_09,27.25392904143517,-80.19455,Jensen Beach,1,0.6299,0.9742,24,23,"NIGHT_OVERCAST,NIGHT_CLEAR,NIGHT_MOSTLY_CLOUDY,NIGHT_MOSTLY_CLOUDY","Onshore,Onshore,Onshore,Onshore",4
5842041f4e65fad6a7708879,2024_04_09,26.76346795333825,-80.0360655784607,Reef Road,1.25,0.6299,0.9717,26,24,"NIGHT_MOSTLY_CLOUDY,NIGHT_MOSTLY_CLOUDY,NIGHT_MOSTLY_CLOUDY,NIGHT_BRIEF_SHOWERS","Onshore,Onshore,Onshore,Onshore",4
5842041f4e65fad6a770887c,2024_04_09,26.336499228484,-80.06956100463,Boca Raton Inlet,0.25,0.2862,0.5924,26,24,"NIGHT_MOSTLY_CLOUDY,NIGHT_CLEAR,NIGHT_MOSTLY_CLOUDY,NIGHT_MOSTLY_CLOUDY","Onshore,Onshore,Onshore,Onshore",4
5842041f4e65fad6a770887d,2024_04_09,26.31719311695038,-80.07453,Deerfield Beach Pier,1,0.28722000000000003,0.4656975,26,24,"NIGHT_MOSTLY_CLOUDY,NIGHT_CLEAR,NIGHT_MOSTLY_CLOUDY,NIGHT_MOSTLY_CLOUDY","Onshore,Onshore,Onshore,Onshore",4
5842041f4e65fad6a7708881,2024_04_09,30.20276320866628,-85.85626528676136,"Spyglass Dr., Panama City",2,0.19,0.495,19,18,"NIGHT_CLEAR,NIGHT_CLEAR,NIGHT_CLEAR,NIGHT_CLEAR","Cross-shore,Cross-shore,Cross-shore,Cross-shore",4
5842041f4e65fad6a7708884,2024_04_09,33.39000832738053,-117.59852,Cottons,3,0.73895,1.047225,14,14,"NIGHT_CLEAR,NIGHT_CLEAR,NIGHT_CLEAR,NIGHT_CLEAR","Cross-shore,Cross-shore,Cross-shore,Cross-shore",4
5842041f4e65fad6a7708885,2024_04_09,33.359416282661,-117.54167901405711,Trails,3,0.485,0.7875000000000001,14,14,"NIGHT_CLEAR,NIGHT_CLEAR,NIGHT_CLEAR,NIGHT_CLEAR","Offshore,Offshore,Offshore,Offshore",4
5842041f4e65fad6a7708886,2024_04_09,33.38042605929805,-117.58332,Middles,3,0.6373916666666667,0.9424916666666666,14,14,"NIGHT_CLEAR,NIGHT_CLEAR,NIGHT_CLEAR,NIGHT_CLEAR","Offshore,Offshore,Offshore,Offshore",4
5842041f4e65fad6a7708887,2024_04_09,33.38445596302903,-117.59445,Upper Trestles,3,0.8574916666666667,1.1680583333333332,14,14,"NIGHT_CLEAR,NIGHT_CLEAR,NIGHT_CLEAR,NIGHT_CLEAR","Offshore,Offshore,Offshore,Offshore",4
5842041f4e65fad6a7708889,2024_04_09,28.944414,-95.28883,Surfside,1.25,1.3215525,2.06493,21,21,"NIGHT_CLEAR,NIGHT_OVERCAST,NIGHT_MIST,NIGHT_MIST","Onshore,Onshore,Onshore,Onshore",4
5842041f4e65fad6a770888a,2024_04_09,33.38143999849023,-117.58843,Lower Trestles,3,0.6872833333333334,0.9898833333333332,14,14,"NIGHT_CLEAR,NIGHT_CLEAR,NIGHT_CLEAR,NIGHT_CLEAR","Offshore,Offshore,Offshore,Offshore",4
5842041f4e65fad6a770888b,2024_04_09,33.379622288757,-117.57894,Church,3,0.6521833333333333,0.9572833333333333,14,14,"NIGHT_CLEAR,NIGHT_CLEAR,NIGHT_CLEAR,NIGHT_CLEAR","Offshore,Offshore,Offshore,Offshore",4
5842041f4e65fad6a770888d,2024_04_09,21.679,-158.042,Sunset Beach,4,1.2349999999999999,1.4775,26,25,"NIGHT_BRIEF_SHOWERS,NIGHT_MOSTLY_CLOUDY,NIGHT_MOSTLY_CLOUDY,NIGHT_MOSTLY_CLOUDY","Cross-shore,Cross-shore,Cross-shore,Cross-shore",4
5842041f4e65fad6a770888e,2024_04_09,21.670550036401,-158.0482,Rocky Point,3,1.0325,1.2349999999999999,26,25,"NIGHT_CLEAR,NIGHT_MOSTLY_CLOUDY,NIGHT_MOSTLY_CLOUDY,NIGHT_BRIEF_SHOWERS","Cross-shore,Cross-shore,Cross-shore,Cross-shore",4
5842041f4e65fad6a770888f,2024_04_09,21.668,-158.05,Chambers,3,1.29,1.5375,24,24,"NIGHT_CLEAR,NIGHT_MOSTLY_CLOUDY,NIGHT_MOSTLY_CLOUDY,NIGHT_BRIEF_SHOWERS","Cross-shore,Cross-shore,Cross-shore,Cross-shore",4
5842041f4e65fad6a7708890,2024_04_09,21.66522,-158.0526,Pipeline,2.25,1.45,1.7275,26,25,"NIGHT_CLEAR,NIGHT_MOSTLY_CLOUDY,NIGHT_MOSTLY_CLOUDY,NIGHT_BRIEF_SHOWERS","Cross-shore,Cross-shore,Cross-shore,Cross-shore",4
5842041f4e65fad6a7708891,2024_04_09,21.665,-158.054,Backdoor,4,1.45,1.7275,26,25,"NIGHT_CLEAR,NIGHT_MOSTLY_CLOUDY,NIGHT_MOSTLY_CLOUDY,NIGHT_BRIEF_SHOWERS","Cross-shore,Cross-shore,Cross-shore,Cross-shore",4
5842041f4e65fad6a7708892,2024_04_09,21.662,-158.057,Rockpile,3,1.07,1.33,24,24,"NIGHT_CLEAR,NIGHT_MOSTLY_CLOUDY,NIGHT_MOSTLY_CLOUDY,NIGHT_BRIEF_SHOWERS","Cross-shore,Cross-shore,Cross-shore,Cross-shore",4
5842041f4e65fad6a7708893,2024_04_09,21.65870453806827,-158.06058,Log Cabins,3,0.9475,1.1325,24,24,"NIGHT_CLEAR,NIGHT_MOSTLY_CLOUDY,NIGHT_MOSTLY_CLOUDY,NIGHT_BRIEF_SHOWERS","Cross-shore,Cross-shore,Cross-shore,Cross-shore",4
5842041f4e65fad6a7708894,2024_04_09,21.66203493640557,-158.05495,Off-The-Wall,3,1.1675,1.42,24,24,"NIGHT_CLEAR,NIGHT_MOSTLY_CLOUDY,NIGHT_MOSTLY_CLOUDY,NIGHT_BRIEF_SHOWERS","Cross-shore,Cross-shore,Cross-shore,Cross-shore",4
5842041f4e65fad6a7708895,2024_04_09,21.643,-158.067,Waimea Bay,NA,1.3325,1.5925,26,25,"NIGHT_CLEAR,NIGHT_MOSTLY_CLOUDY,NIGHT_MOSTLY_CLOUDY,NIGHT_BRIEF_SHOWERS","Offshore,Offshore,Offshore,Cross-shore",4
5842041f4e65fad6a7708896,2024_04_09,21.622,-158.087,Hultin's,4,1.78,2.13,26,25,"NIGHT_CLEAR,NIGHT_CLEAR,NIGHT_CLEAR,NIGHT_CLEAR","Offshore,Offshore,Offshore,Offshore",4
5842041f4e65fad6a7708897,2024_04_09,21.623,-158.085,Jocko's,3,1.0125,1.2625,24,24,"NIGHT_CLEAR,NIGHT_CLEAR,NIGHT_CLEAR,NIGHT_CLEAR","Cross-shore,Cross-shore,Onshore,Onshore",4
5842041f4e65fad6a7708898,2024_04_09,21.62,-158.088,Laniakea,3,0.9525,1.1375,26,25,"NIGHT_CLEAR,NIGHT_CLEAR,NIGHT_CLEAR,NIGHT_CLEAR","Offshore,Offshore,Cross-shore,Cross-shore",4
5842041f4e65fad6a7708899,2024_04_09,21.625,-158.083,Chun's,2.5,1.025,1.3325,24,24,"NIGHT_CLEAR,NIGHT_CLEAR,NIGHT_CLEAR,NIGHT_CLEAR","Offshore,Offshore,Offshore,Offshore",4
5842041f4e65fad6a770889c,2024_04_09,21.286357895152136,-157.8515,South Shore - Ala Moana Park,2,0.5825,0.8875,24,24,"NIGHT_CLEAR,NIGHT_CLEAR,NIGHT_MOSTLY_CLOUDY,NIGHT_CLEAR","Offshore,Offshore,Offshore,Offshore",4
5842041f4e65fad6a770889d,2024_04_09,19.606,-155.978,Banyans,2.5,0.345,0.6525000000000001,26,25,"NIGHT_MOSTLY_CLEAR,NIGHT_MOSTLY_CLOUDY,NIGHT_CLEAR,NIGHT_CLEAR","Onshore,Onshore,Offshore,Offshore",4
5842041f4e65fad6a770889e,2024_04_09,20.029,-155.831,Kawaihae,2,0.4444,0.52773,24,24,"NIGHT_MOSTLY_CLEAR,NIGHT_MOSTLY_CLEAR,NIGHT_MOSTLY_CLEAR,NIGHT_MOSTLY_CLOUDY","Offshore,Offshore,Onshore,Onshore",4
5842041f4e65fad6a770889f,2024_04_09,33.07541383424675,-117.3105,Grandview,3,0.7675,1.0725,15,15,"NIGHT_CLEAR,NIGHT_CLEAR,NIGHT_CLEAR,NIGHT_CLEAR","Offshore,Offshore,Offshore,Offshore",4
5842041f4e65fad6a77088a0,2024_04_09,33.065267421296596,-117.30577,Beacons,3,0.6925,0.9975,15,15,"NIGHT_CLEAR,NIGHT_CLEAR,NIGHT_CLEAR,NIGHT_CLEAR","Offshore,Offshore,Offshore,Offshore",4
5842041f4e65fad6a77088a2,2024_04_09,21.252,-157.805,Diamond Head,3,0.8882725,1.2109025,26,25,"NIGHT_CLEAR,NIGHT_CLEAR,NIGHT_MOSTLY_CLOUDY,NIGHT_MOSTLY_CLOUDY","Cross-shore,Cross-shore,Cross-shore,Cross-shore",4
5842041f4e65fad6a77088a3,2024_04_09,33.04694255008896,-117.29966,Moonlight State Beach,3,0.7225,1.025,15,15,"NIGHT_CLEAR,NIGHT_CLEAR,NIGHT_CLEAR,NIGHT_CLEAR","Offshore,Offshore,Offshore,Offshore",4
5842041f4e65fad6a77088a5,2024_04_09,33.08685865930869,-117.31532,Ponto,3,0.9,1.2075,15,15,"NIGHT_CLEAR,NIGHT_CLEAR,NIGHT_CLEAR,NIGHT_CLEAR","Offshore,Offshore,Offshore,Offshore",4
5842041f4e65fad6a77088a6,2024_04_09,33.130343587871906,-117.33668,Terra Mar Point,3,0.6402,0.9402999999999999,14,14,"NIGHT_CLEAR,NIGHT_CLEAR,NIGHT_MIST,NIGHT_MIST","Offshore,Offshore,Offshore,Offshore",4
5842041f4e65fad6a77088af,2024_04_09,32.95916304183685,-117.26963,Del Mar,3,0.935,1.2375,15,15,"NIGHT_CLEAR,NIGHT_CLEAR,NIGHT_MIST,NIGHT_MIST","Offshore,Offshore,Offshore,Offshore",4
5842041f4e65fad6a77088b0,2024_04_09,32.97527261243354,-117.2721061331305,Del Mar Rivermouth,3,0.7175,1.025,15,15,"NIGHT_CLEAR,NIGHT_CLEAR,NIGHT_MIST,NIGHT_MIST","Offshore,Offshore,Offshore,Offshore",4
5842041f4e65fad6a77088b1,2024_04_09,33.01352178146273,-117.28219,Cardiff Reef,3,0.9422833333333334,1.25035,14,14,"NIGHT_CLEAR,NIGHT_MIST,NIGHT_CLEAR,NIGHT_CLEAR","Offshore,Offshore,Offshore,Offshore",4
5842041f4e65fad6a77088b3,2024_04_09,33.00211185876003,-117.2811,Seaside Reef,3,0.7035333333333333,1.0091,14,14,"NIGHT_CLEAR,NIGHT_CLEAR,NIGHT_CLEAR,NIGHT_CLEAR","Offshore,Offshore,Offshore,Offshore",4
5842041f4e65fad6a77088b4,2024_04_09,33.0341859796287,-117.29552,Swami's,3,0.862075,1.1676416666666665,14,14,"NIGHT_CLEAR,NIGHT_MIST,NIGHT_CLEAR,NIGHT_CLEAR","Offshore,Offshore,Offshore,Offshore",4
5842041f4e65fad6a77088b7,2024_04_09,33.04569760260221,-117.2994,D Street,3,0.7675000000000001,1.07,15,15,"NIGHT_CLEAR,NIGHT_CLEAR,NIGHT_CLEAR,NIGHT_CLEAR","Offshore,Offshore,Offshore,Offshore",4
5842041f4e65fad6a77088b8,2024_04_09,33.02090944350196,-117.28535,San Elijo State Beach,3,0.6466583333333333,0.9524333333333334,14,14,"NIGHT_CLEAR,NIGHT_MIST,NIGHT_CLEAR,NIGHT_CLEAR","Offshore,Offshore,Offshore,Offshore",4
5842041f4e65fad6a77088c2,2024_04_09,32.80662846492798,-117.2688764333725,PB Point,3,0.74,1.0474999999999999,15,15,"NIGHT_CLEAR,NIGHT_CLEAR,NIGHT_CLEAR,NIGHT_MIST","Cross-shore,Cross-shore,Cross-shore,Cross-shore",4
5842041f4e65fad6a77088c4,2024_04_09,32.8060476681448,-117.26479,Old Man's at Tourmaline,3,0.6775,0.9824999999999999,15,15,"NIGHT_CLEAR,NIGHT_CLEAR,NIGHT_CLEAR,NIGHT_MIST","Cross-shore,Cross-shore,Cross-shore,Cross-shore",4
5842041f4e65fad6a77088cb,2024_04_09,32.557056711256,-117.1327445020322,Tijuana Slough,3,0.73,1.04,15,15,"NIGHT_CLEAR,NIGHT_CLEAR,NIGHT_CLEAR,NIGHT_CLEAR","Onshore,Cross-shore,Offshore,Offshore",4
5842041f4e65fad6a77088cc,2024_04_09,32.863,-117.257,La Jolla Shores,3,0.78,1.0825,15,15,"NIGHT_CLEAR,NIGHT_CLEAR,NIGHT_CLEAR,NIGHT_CLEAR","Onshore,Cross-shore,Offshore,Offshore",4
5842041f4e65fad6a77088ce,2024_04_09,32.67443657790586,-117.17421316238693,Coronado Beach,3,0.45,0.755,15,15,"NIGHT_CLEAR,NIGHT_CLEAR,NIGHT_CLEAR,NIGHT_CLEAR","Offshore,Offshore,Cross-shore,Cross-shore",4
5842041f4e65fad6a77088cf,2024_04_09,33.40484417640326,-117.60749,San Clemente State Beach,3,0.585,0.89,14,14,"NIGHT_CLEAR,NIGHT_CLEAR,NIGHT_CLEAR,NIGHT_CLEAR","Offshore,Offshore,Offshore,Offshore",4
5842041f4e65fad6a77088d5,2024_04_09,33.4663042002114,-117.7168352817103,Strands,2.75,0.6887416666666667,0.9995166666666666,13,13,"NIGHT_CLEAR,NIGHT_CLEAR,NIGHT_CLEAR,NIGHT_CLEAR","Offshore,Offshore,Cross-shore,Cross-shore",4
5842041f4e65fad6a77088d7,2024_04_09,33.4609858001748,-117.68535,Doheny State Beach,2,0.07895833333333334,0.37885,14,14,"NIGHT_CLEAR,NIGHT_CLEAR,NIGHT_CLEAR,NIGHT_CLEAR","Offshore,Offshore,Offshore,Offshore",4
5842041f4e65fad6a77088dc,2024_04_09,33.50894790083017,-117.75243,Aliso Creek,2.5,0.56,0.8674999999999999,14,14,"NIGHT_CLEAR,NIGHT_MIST,NIGHT_MIST,NIGHT_MOSTLY_CLEAR","Offshore,Offshore,Offshore,Offshore",4
5842041f4e65fad6a77088dd,2024_04_09,33.5326591767067,-117.77764,Brooks Street,3,0.4375,0.745,14,14,"NIGHT_CLEAR,NIGHT_CLEAR,NIGHT_MIST,NIGHT_CLEAR","Offshore,Offshore,Offshore,Offshore",4
5842041f4e65fad6a77088de,2024_04_09,33.53561225884637,-117.7799,Thalia Street,3,0.49,0.7975,14,14,"NIGHT_CLEAR,NIGHT_CLEAR,NIGHT_MIST,NIGHT_CLEAR","Offshore,Offshore,Offshore,Offshore",4
5842041f4e65fad6a77088e3,2024_04_09,33.54268310353641,-117.7916,Rockpile,3,0.5,0.8075,14,14,"NIGHT_CLEAR,NIGHT_CLEAR,NIGHT_MIST,NIGHT_CLEAR","Offshore,Offshore,Offshore,Offshore",4
5842041f4e65fad6a77088e4,2024_04_09,33.7368459504689,-118.10342,"Seal Beach Pier, Southside",2,0.0375,0.33999999999999997,14,14,"NIGHT_CLEAR,NIGHT_CLEAR,NIGHT_CLEAR,NIGHT_MIST","Offshore,Offshore,Offshore,Offshore",4
5842041f4e65fad6a77088e5,2024_04_09,33.73933701820233,-118.117,Ray Bay,2,0.085,0.3875,14,14,"NIGHT_CLEAR,NIGHT_CLEAR,NIGHT_CLEAR,NIGHT_CLEAR","Offshore,Offshore,Offshore,Offshore",4
5842041f4e65fad6a77088e7,2024_04_09,33.728733,-118.08982,Surfside,2,0.15,0.45499999999999996,14,14,"NIGHT_CLEAR,NIGHT_CLEAR,NIGHT_CLEAR,NIGHT_CLEAR","Offshore,Offshore,Offshore,Offshore",4
5842041f4e65fad6a77088e8,2024_04_09,33.68760321488161,-118.04236,Bolsa Chica State Beach,2.25,0.6249916666666666,0.9300916666666666,14,14,"NIGHT_CLEAR,NIGHT_CLEAR,NIGHT_CLEAR,NIGHT_CLEAR","Cross-shore,Onshore,Onshore,Onshore",4
5842041f4e65fad6a77088ea,2024_04_09,33.66704400178788,-118.0192,North HB Streets,2,0.7293666666666667,1.0399333333333334,14,14,"NIGHT_CLEAR,NIGHT_CLEAR,NIGHT_CLEAR,NIGHT_CLEAR","Onshore,Onshore,Onshore,Onshore",4
5842041f4e65fad6a77088ed,2024_04_09,33.65475101379567,-118.00291,Huntington Beach Pier Southside,2,0.7131166666666666,1.0186833333333334,14,14,"NIGHT_CLEAR,NIGHT_MIST,NIGHT_CLEAR,NIGHT_CLEAR","Onshore,Offshore,Offshore,Offshore",4
5842041f4e65fad6a77088ee,2024_04_09,33.62778647706099,-117.95939,River Jetties,2.5,0.7491583333333334,1.0524333333333333,14,14,"NIGHT_MIST,NIGHT_CLEAR,NIGHT_CLEAR,NIGHT_CLEAR","Cross-shore,Offshore,Cross-shore,Cross-shore",4
5842041f4e65fad6a77088f2,2024_04_09,33.605165797643664,-117.92500376701355,Newport Point,3,0.45999999999999996,0.765,15,15,"NIGHT_MIST,NIGHT_CLEAR,NIGHT_CLEAR,NIGHT_CLEAR","Onshore,Onshore,Onshore,Onshore",4
5842041f4e65fad6a77088f3,2024_04_09,33.58982984726977,-117.87713,Corona del Mar,1,0.1683725,0.26308000000000004,15,15,"NIGHT_CLEAR,NIGHT_CLEAR,NIGHT_CLEAR,NIGHT_CLEAR","Offshore,Offshore,Offshore,Offshore",4
5842041f4e65fad6a77088f7,2024_04_09,34.00750300824362,-118.4971783496269,Santa Monica Pier,2,0.38,0.6799999999999999,14,14,"NIGHT_CLEAR,NIGHT_CLEAR,NIGHT_CLEAR,NIGHT_CLEAR","Offshore,Offshore,Offshore,Offshore",4
5842041f4e65fad6a77088ff,2024_04_09,33.94070283102945,-118.44321,Dockweiler Beach,3,0.9090297916666666,1.1106085416666667,14,14,"NIGHT_CLEAR,NIGHT_CLEAR,NIGHT_CLEAR,NIGHT_CLEAR","Offshore,Offshore,Offshore,Offshore",4
5842041f4e65fad6a7708900,2024_04_09,33.9231846937237,-118.4341465777908,Shitpipe,2,0.6201,0.9283750000000001,14,14,"NIGHT_CLEAR,NIGHT_CLEAR,NIGHT_CLEAR,NIGHT_CLEAR","Offshore,Offshore,Offshore,Offshore",4
5842041f4e65fad6a7708902,2024_04_09,33.9108528052242,-118.4279133138721,Hammerland,2.5,0.6462416666666666,0.9568083333333333,14,14,"NIGHT_CLEAR,NIGHT_CLEAR,NIGHT_CLEAR,NIGHT_CLEAR","Offshore,Offshore,Offshore,Offshore",4
5842041f4e65fad6a7708904,2024_04_09,33.87201368173932,-118.40752,Hermosa Beach,2,0.6533249999999999,0.955925,14,14,"NIGHT_CLEAR,NIGHT_CLEAR,NIGHT_CLEAR,NIGHT_CLEAR","Cross-shore,Cross-shore,Cross-shore,Cross-shore",4
5842041f4e65fad6a7708906,2024_04_09,33.90129336911256,-118.42184,El Porto,2.5,0.7185333333333334,1.0293083333333335,14,14,"NIGHT_CLEAR,NIGHT_CLEAR,NIGHT_CLEAR,NIGHT_CLEAR","Cross-shore,Cross-shore,Offshore,Offshore",4
5842041f4e65fad6a7708907,2024_04_09,33.87963506431794,-118.41102,Manhattan Beach Pier,2.5,0.7452,1.0475916666666667,14,14,"NIGHT_CLEAR,NIGHT_CLEAR,NIGHT_CLEAR,NIGHT_CLEAR","Cross-shore,Cross-shore,Cross-shore,Cross-shore",4
5842041f4e65fad6a7708914,2024_04_09,34.038053387863464,-118.5532,Sunset Point,2,0.2,0.51,14,14,"NIGHT_CLEAR,NIGHT_CLEAR,NIGHT_CLEAR,NIGHT_CLEAR","Offshore,Offshore,Offshore,Offshore",4
5842041f4e65fad6a7708920,2024_04_09,33.80930828074364,-118.3933198342649,Haggerty's,2,0.14550000000000002,0.327,15,15,"NIGHT_CLEAR,NIGHT_CLEAR,NIGHT_MIST,NIGHT_CLEAR","Cross-shore,Onshore,Cross-shore,Cross-shore",4
5842041f4e65fad6a7708921,2024_04_09,33.85044519861206,-118.40048,Redondo Breakwater,2.5,0.64,0.9475,15,15,"NIGHT_CLEAR,NIGHT_CLEAR,NIGHT_CLEAR,NIGHT_CLEAR","Cross-shore,Cross-shore,Cross-shore,Cross-shore",4
5842041f4e65fad6a7708927,2024_04_09,33.70877301002487,-118.2840112858389,Cabrillo Beach,1.5,0.07,0.38,14,14,"NIGHT_CLEAR,NIGHT_CLEAR,NIGHT_CLEAR,NIGHT_CLEAR","Cross-shore,Cross-shore,Offshore,Offshore",4
5842041f4e65fad6a770892c,2024_04_09,33.77209986806257,-118.4268428476672,Lunada Bay,2,0.6275,0.935,15,15,"NIGHT_CLEAR,NIGHT_CLEAR,NIGHT_CLEAR,NIGHT_CLEAR","Offshore,Offshore,Offshore,Offshore",4
5842041f4e65fad6a770892d,2024_04_09,33.79294656286144,-118.4070316699825,PV Cove,2,0.723565,0.97928,15,15,"NIGHT_CLEAR,NIGHT_CLEAR,NIGHT_MIST,NIGHT_CLEAR","Onshore,Onshore,Onshore,Onshore",4
5842041f4e65fad6a7708930,2024_04_09,34.03944902292561,-118.57539,Chart House,1.25,0.0375,0.3375,14,14,"NIGHT_CLEAR,NIGHT_CLEAR,NIGHT_CLEAR,NIGHT_CLEAR","Offshore,Offshore,Offshore,Offshore",4
5842041f4e65fad6a7708936,2024_04_09,34.0016731994772,-118.80456,Point Dume,2,0.15812500000000002,0.465725,14,14,"NIGHT_CLEAR,NIGHT_CLEAR,NIGHT_CLEAR,NIGHT_CLEAR","Offshore,Offshore,Offshore,Offshore",4
5842041f4e65fad6a7708937,2024_04_09,34.02587527588963,-118.7554939066114,Latigo Point,1.25,0.215,0.5175000000000001,14,14,"NIGHT_CLEAR,NIGHT_CLEAR,NIGHT_CLEAR,NIGHT_CLEAR","Offshore,Offshore,Offshore,Offshore",4
5842041f4e65fad6a770893f,2024_04_09,34.043762,-118.93294,Leo Carrillo,2,0.42395,0.7263416666666667,13,13,"NIGHT_CLEAR,NIGHT_CLEAR,NIGHT_CLEAR,NIGHT_CLEAR","Offshore,Offshore,Offshore,Offshore",4
5842041f4e65fad6a7708941,2024_04_09,36.69388179265737,-121.81289,Marina State Beach,3,1.52,1.8250000000000002,13,13,"NIGHT_BRIEF_SHOWERS,NIGHT_MIST,NIGHT_CLEAR,NIGHT_CLEAR","Onshore,Onshore,Offshore,Offshore",4
5842041f4e65fad6a7708944,2024_04_09,34.34145077331085,-119.416999352654,Stanley's,2,0.2375,0.5475,13,13,"NIGHT_CLEAR,NIGHT_CLEAR,NIGHT_CLEAR,NIGHT_CLEAR","Offshore,Cross-shore,Offshore,Offshore",4
5842041f4e65fad6a7708945,2024_04_09,34.35113017313915,-119.426921498899,Oil Piers,2,0.165,0.4675,13,13,"NIGHT_CLEAR,NIGHT_CLEAR,NIGHT_CLEAR,NIGHT_CLEAR","Offshore,Offshore,Offshore,Offshore",4
5842041f4e65fad6a770894c,2024_04_09,34.17876333306018,-119.2399483564372,Oxnard,3,0.535,0.8425,13,13,"NIGHT_CLEAR,NIGHT_CLEAR,NIGHT_CLEAR,NIGHT_CLEAR","Offshore,Offshore,Offshore,Offshore",4
5842041f4e65fad6a7708957,2024_04_09,34.31720331100517,-119.3882324751725,Pitas Point,2,0.2325,0.5425,13,13,"NIGHT_CLEAR,NIGHT_CLEAR,NIGHT_CLEAR,NIGHT_CLEAR","Offshore,Offshore,Offshore,Offshore",4
5842041f4e65fad6a7708959,2024_04_09,34.27851754384724,-119.316202617226,Emma Wood,2,0.2425,0.5425,13,13,"NIGHT_CLEAR,NIGHT_CLEAR,NIGHT_CLEAR,NIGHT_CLEAR","Offshore,Offshore,Offshore,Offshore",4
5842041f4e65fad6a770895a,2024_04_09,34.35513640390276,-119.4400589884255,Mussel Shoals (aka Little Rincon),2,0.1775,0.48250000000000004,13,13,"NIGHT_CLEAR,NIGHT_CLEAR,NIGHT_CLEAR,NIGHT_CLEAR","Offshore,Offshore,Offshore,Offshore",4
5842041f4e65fad6a770895e,2024_04_09,34.28991757054902,-119.3366646794652,Summer Beach,2,0.1825,0.485,13,13,"NIGHT_CLEAR,NIGHT_CLEAR,NIGHT_CLEAR,NIGHT_CLEAR","Offshore,Offshore,Offshore,Offshore",4
5842041f4e65fad6a770895f,2024_04_09,34.30897456105926,-119.3582501170116,Solimar,2,0.185,0.4875,13,13,"NIGHT_CLEAR,NIGHT_CLEAR,NIGHT_CLEAR,NIGHT_CLEAR","Offshore,Offshore,Offshore,Offshore",4
5842041f4e65fad6a7708960,2024_04_09,34.39836265281686,-119.70213,Leadbetter Point,1,0,0.2375,13,13,"NIGHT_CLEAR,NIGHT_CLEAR,NIGHT_CLEAR,NIGHT_CLEAR","Offshore,Offshore,Offshore,Offshore",4
5842041f4e65fad6a7708961,2024_04_09,34.46052293893899,-120.07328,Refugio,1,0,0.3025,13,13,"NIGHT_CLEAR,NIGHT_CLEAR,NIGHT_CLEAR,NIGHT_CLEAR","Offshore,Offshore,Offshore,Offshore",4
5842041f4e65fad6a7708962,2024_04_09,34.40754276777778,-119.87639,Devereux,2,0.155,0.45999999999999996,13,13,"NIGHT_CLEAR,NIGHT_CLEAR,NIGHT_CLEAR,NIGHT_CLEAR","Offshore,Offshore,Offshore,Offshore",4
5842041f4e65fad6a7708963,2024_04_09,34.27479983305182,-119.3133222656776,Ventura Overhead,2,0.25,0.5525,13,13,"NIGHT_CLEAR,NIGHT_CLEAR,NIGHT_CLEAR,NIGHT_CLEAR","Offshore,Cross-shore,Offshore,Offshore",4
5842041f4e65fad6a7708964,2024_04_09,34.41023236011655,-119.88261,Sands,2,0.2025,0.5075000000000001,13,13,"NIGHT_CLEAR,NIGHT_CLEAR,NIGHT_CLEAR,NIGHT_CLEAR","Offshore,Offshore,Offshore,Offshore",4
5842041f4e65fad6a7708966,2024_04_09,34.40450193869233,-119.68752,Sandspit,0.5,0,0.1475,13,13,"NIGHT_CLEAR,NIGHT_CLEAR,NIGHT_CLEAR,NIGHT_CLEAR","Cross-shore,Offshore,Offshore,Offshore",4
5842041f4e65fad6a7708967,2024_04_09,34.41549098334453,-119.6375149840203,Hammond's,1,0,0.1975,13,13,"NIGHT_CLEAR,NIGHT_CLEAR,NIGHT_CLEAR,NIGHT_CLEAR","Cross-shore,Cross-shore,Cross-shore,Cross-shore",4
5842041f4e65fad6a7708968,2024_04_09,34.45759322742309,-120.0220251867315,El Capitan,2,0.0625,0.3675,13,13,"NIGHT_CLEAR,NIGHT_CLEAR,NIGHT_CLEAR,NIGHT_CLEAR","Offshore,Offshore,Offshore,Offshore",4
5842041f4e65fad6a770896c,2024_04_09,34.405117655616,-119.84317,Campus Point,2,0.02,0.325,13,13,"NIGHT_CLEAR,NIGHT_CLEAR,NIGHT_CLEAR,NIGHT_CLEAR","Offshore,Offshore,Offshore,Offshore",4
5842041f4e65fad6a770896e,2024_04_09,34.38935162233354,-119.51955,Carpinteria State Beach,2,0.0975,0.40249999999999997,13,13,"NIGHT_CLEAR,NIGHT_CLEAR,NIGHT_CLEAR,NIGHT_CLEAR","Onshore,Onshore,Onshore,Onshore",4
5842041f4e65fad6a770896f,2024_04_09,37.48296565175612,-122.4549300127824,Half Moon Bay,3,1.1125,1.3475000000000001,13,13,"NIGHT_MIST,NIGHT_MIST,NIGHT_MOSTLY_CLOUDY,NIGHT_MOSTLY_CLOUDY","Onshore,Onshore,Onshore,Onshore",4
5842041f4e65fad6a7708970,2024_04_09,37.499,-122.471,Princeton Jetty,3,0.985,1.1775,13,13,"NIGHT_MIST,NIGHT_MIST,NIGHT_MOSTLY_CLOUDY,NIGHT_MOSTLY_CLOUDY","Cross-shore,Cross-shore,Onshore,Onshore",4
5842041f4e65fad6a7708972,2024_04_09,37.35699547365155,-122.4069534707252,Tunitas Creek,3.5,2.11,2.4125,13,13,"NIGHT_MOSTLY_CLOUDY,NIGHT_MIST,NIGHT_MOSTLY_CLOUDY,NIGHT_MOSTLY_CLOUDY","Cross-shore,Cross-shore,Offshore,Onshore",4
5842041f4e65fad6a7708974,2024_04_09,37.54735589428842,-122.5161090212687,Montara,3,1.7125,2.0225,13,13,"NIGHT_BRIEF_SHOWERS,NIGHT_BRIEF_SHOWERS,NIGHT_BRIEF_SHOWERS,NIGHT_BRIEF_SHOWERS","Onshore,Onshore,Cross-shore,Cross-shore",4
5842041f4e65fad6a7708975,2024_04_09,34.3869373724559,-119.5142334209018,Tarpits,2,0.085,0.39,13,13,"NIGHT_CLEAR,NIGHT_CLEAR,NIGHT_CLEAR,NIGHT_CLEAR","Onshore,Onshore,Onshore,Onshore",4
5842041f4e65fad6a7708976,2024_04_09,37.59881852720143,-122.50463,Pacifica / Linda Mar,2,0.54,0.8474999999999999,14,14,"NIGHT_MIST,NIGHT_BRIEF_SHOWERS,NIGHT_BRIEF_SHOWERS,NIGHT_BRIEF_SHOWERS","Onshore,Onshore,Onshore,Onshore",4
5842041f4e65fad6a7708978,2024_04_09,37.59883098461164,-122.5143843582282,Pedro Point,3,1.695,1.935,13,13,"NIGHT_BRIEF_SHOWERS,NIGHT_BRIEF_SHOWERS,NIGHT_MIST,NIGHT_MIST","Onshore,Onshore,Cross-shore,Cross-shore",4
5842041f4e65fad6a7708979,2024_04_09,37.61081996647663,-122.4973287570634,Rockaway,3.5,1.7175,2.0225,13,13,"NIGHT_MIST,NIGHT_BRIEF_SHOWERS,NIGHT_BRIEF_SHOWERS,NIGHT_BRIEF_SHOWERS","Offshore,Offshore,Offshore,Cross-shore",4
5842041f4e65fad6a770897a,2024_04_09,37.809987384424446,-122.4751353263855,Fort Point,3,0.88,1.185,13,13,"NIGHT_CLEAR,NIGHT_CLEAR,NIGHT_CLEAR,NIGHT_MIST","Onshore,Onshore,Onshore,Onshore",4
5842041f4e65fad6a770897c,2024_04_09,37.63422542967464,-122.4951,Sharp Park,3,1.6775,1.9874999999999998,13,13,"NIGHT_MIST,NIGHT_MIST,NIGHT_MIST,NIGHT_BRIEF_SHOWERS","Cross-shore,Cross-shore,Cross-shore,Cross-shore",4
5842041f4e65fad6a770897d,2024_04_09,37.27313605072472,-122.4127387912554,Pescadero,2.5,1.96,2.2675,13,13,"NIGHT_MIST,NIGHT_MIST,NIGHT_MIST,NIGHT_MIST","Onshore,Cross-shore,Cross-shore,Cross-shore",4
5842041f4e65fad6a770897e,2024_04_09,37.18140279972666,-122.3926685899327,Pigeon Point,4,1.83,2.1174999999999997,12,12,"NIGHT_BRIEF_SHOWERS,NIGHT_MIST,NIGHT_MIST,NIGHT_MIST","Offshore,Offshore,Offshore,Offshore",4
5842041f4e65fad6a770897f,2024_04_09,37.11578956919415,-122.314699271291,Ano Nuevo,4,1.36,1.455,12,12,"NIGHT_CLEAR,NIGHT_CLEAR,NIGHT_CLEAR,NIGHT_CLEAR","Offshore,Offshore,Offshore,Offshore",4
5842041f4e65fad6a7708980,2024_04_09,37.09520872681598,-122.2805474707768,Waddell Creek,3,1.4425,1.7125,12,12,"NIGHT_CLEAR,NIGHT_CLEAR,NIGHT_CLEAR,NIGHT_CLEAR","Offshore,Onshore,Cross-shore,Onshore",4
5842041f4e65fad6a7708981,2024_04_09,36.96512852130351,-122.1252825495626,Four Mile,3.25,1.0625,1.3650000000000002,12,12,"NIGHT_CLEAR,NIGHT_CLEAR,NIGHT_MOSTLY_CLOUDY,NIGHT_MOSTLY_CLOUDY","Offshore,Offshore,Offshore,Offshore",4
5842041f4e65fad6a7708982,2024_04_09,37.04122807048655,-122.2333684729756,Scott Creek,3,1.5175,1.8225,12,12,"NIGHT_CLEAR,NIGHT_CLEAR,NIGHT_CLEAR,NIGHT_CLEAR","Offshore,Offshore,Offshore,Offshore",4
5842041f4e65fad6a7708983,2024_04_09,37.02350229387179,-122.21908,Davenport,4,1.3575000000000002,1.6524999999999999,12,12,"NIGHT_CLEAR,NIGHT_CLEAR,NIGHT_CLEAR,NIGHT_CLEAR","Offshore,Offshore,Offshore,Offshore",4
5842041f4e65fad6a7708986,2024_04_09,36.94905295955728,-122.0611823912244,Natural Bridges,3,1.2650000000000001,1.4425,12,12,"NIGHT_MOSTLY_CLEAR,NIGHT_MOSTLY_CLOUDY,NIGHT_CLEAR,NIGHT_CLEAR","Offshore,Onshore,Offshore,Offshore",4
5842041f4e65fad6a7708987,2024_04_09,36.95154854910425,-122.04207,Mitchell's Cove,3,0.5075000000000001,0.815,13,13,"NIGHT_CLEAR,NIGHT_CLEAR,NIGHT_CLEAR,NIGHT_CLEAR","Onshore,Offshore,Cross-shore,Offshore",4
5842041f4e65fad6a770898a,2024_04_09,36.9572312370203,-121.98177,26th Ave,3,0.955,1.145,13,13,"NIGHT_CLEAR,NIGHT_CLEAR,NIGHT_MOSTLY_CLEAR,NIGHT_MOSTLY_CLOUDY","Onshore,Cross-shore,Offshore,Cross-shore",4
5842041f4e65fad6a770898e,2024_04_09,36.91899972819882,-121.85536,Manresa,3.75,1.26,1.3975,13,13,"NIGHT_MIST,NIGHT_MIST,NIGHT_MIST,NIGHT_CLEAR","Offshore,Offshore,Offshore,Offshore",4
5842041f4e65fad6a7708990,2024_04_09,34.45747731928454,-120.34242,The Ranch,1,0.21,0.515,12,12,"NIGHT_CLEAR,NIGHT_CLEAR,NIGHT_CLEAR,NIGHT_CLEAR","Offshore,Offshore,Offshore,Offshore",4
5842041f4e65fad6a7708991,2024_04_09,34.50875036590315,-120.50348,Jalama,3,0.64,0.9450000000000001,12,12,"NIGHT_CLEAR,NIGHT_CLEAR,NIGHT_CLEAR,NIGHT_CLEAR","Offshore,Offshore,Offshore,Offshore",4
5842041f4e65fad6a7708996,2024_04_09,34.68700870220497,-120.6111611019887,Surf Beach,2.5,1.9975,2.2675,12,12,"NIGHT_MIST,NIGHT_MIST,NIGHT_MIST,NIGHT_MIST","Onshore,Cross-shore,Offshore,Offshore",4
5842041f4e65fad6a770899c,2024_04_09,35.5730538161116,-121.1143362345574,Moonstone,4,1.1,1.3675,12,12,"NIGHT_CLEAR,NIGHT_CLEAR,NIGHT_CLEAR,NIGHT_CLEAR","Offshore,Offshore,Offshore,Offshore",4
5842041f4e65fad6a770899d,2024_04_09,35.61533716776573,-121.1502053073914,Pico Creek,3.75,1.205,1.4075,12,12,"NIGHT_CLEAR,NIGHT_CLEAR,NIGHT_CLEAR,NIGHT_CLEAR","Offshore,Offshore,Offshore,Offshore",4
5842041f4e65fad6a770899e,2024_04_09,35.56829031927379,-121.1120653023953,Santa Rosa Creek,4,1.1,1.3675,12,12,"NIGHT_CLEAR,NIGHT_CLEAR,NIGHT_CLEAR,NIGHT_CLEAR","Offshore,Offshore,Offshore,Offshore",4
5842041f4e65fad6a77089a2,2024_04_09,35.44820114936284,-120.90715,"Cayucos Pier, Southside ",3,0.475,0.775,12,12,"NIGHT_CLEAR,NIGHT_CLEAR,NIGHT_CLEAR,NIGHT_CLEAR","Offshore,Offshore,Offshore,Offshore",4
5842041f4e65fad6a77089a4,2024_04_09,35.30143372628852,-120.877819239902,Cable Landing,3.75,2.19,2.46,12,12,"NIGHT_CLEAR,NIGHT_CLEAR,NIGHT_CLEAR,NIGHT_CLEAR","Offshore,Offshore,Offshore,Offshore",4
5842041f4e65fad6a77089a9,2024_04_09,35.61269103500222,-121.1480725356606,San Simeon,3,0.71225,0.8714999999999999,12,12,"NIGHT_CLEAR,NIGHT_CLEAR,NIGHT_CLEAR,NIGHT_CLEAR","Offshore,Offshore,Offshore,Offshore",4
5842041f4e65fad6a77089ab,2024_04_09,35.1775325966252,-120.7341125142258,Avila Beach,1,0,0.295,12,12,"NIGHT_CLEAR,NIGHT_CLEAR,NIGHT_CLEAR,NIGHT_CLEAR","Offshore,Offshore,Cross-shore,Offshore",4
5842041f4e65fad6a77089ac,2024_04_09,35.13877877884115,-120.64535,Pismo Beach Pier,3,0.9125000000000001,1.09,12,12,"NIGHT_CLEAR,NIGHT_CLEAR,NIGHT_CLEAR,NIGHT_CLEAR","Offshore,Offshore,Offshore,Offshore",4
5842041f4e65fad6a77089ad,2024_04_09,46.8907710233147,-124.12964,Westport/Olympic Peninsula,1,1.9974999999999998,2.29,11,11,"NIGHT_DRIZZLE,NIGHT_DRIZZLE,NIGHT_RAIN,NIGHT_DRIZZLE","Onshore,Onshore,Onshore,Onshore",4
5842041f4e65fad6a77089ae,2024_04_09,46.35185177248545,-124.06747,Long Beach Peninsula,1,2.58,2.9375,11,11,"NIGHT_CLOUDY,NIGHT_OVERCAST,NIGHT_MOSTLY_CLOUDY,NIGHT_OVERCAST","Onshore,Onshore,Onshore,Onshore",4
5842041f4e65fad6a77089af,2024_04_09,47.90649175554033,-124.6370864743483,La Push,2,2.3025,2.5925,10,10,"NIGHT_OVERCAST,NIGHT_OVERCAST,NIGHT_OVERCAST,NIGHT_CLOUDY","Onshore,Onshore,Onshore,Onshore",4
5842041f4e65fad6a77089b0,2024_04_09,42.04368239985442,-124.26828,Brookings Jetty,3,0.8424875,1.31639,10,10,"NIGHT_CLEAR,NIGHT_CLEAR,NIGHT_CLEAR,NIGHT_CLEAR","Offshore,Offshore,Offshore,Offshore",4
5842041f4e65fad6a77089b1,2024_04_09,42.74071837900346,-124.4983727491047,Port Orford,4,1.23,1.41,11,11,"NIGHT_CLEAR,NIGHT_CLEAR,NIGHT_MIST,NIGHT_MIST","Offshore,Offshore,Offshore,Offshore",4
5842041f4e65fad6a77089b2,2024_04_09,44.01532689312291,-124.13865,Florence South Jetty,2,2.3449999999999998,2.74,11,11,"NIGHT_MIST,NIGHT_MIST,NIGHT_DRIZZLE,NIGHT_MIST","Onshore,Onshore,Onshore,Onshore",4
5842041f4e65fad6a77089b3,2024_04_09,42.41812540774362,-124.42945,Gold Beach South Jetty,4,1.7225,2.0025,10,10,"NIGHT_CLEAR,NIGHT_CLEAR,NIGHT_MOSTLY_CLEAR,NIGHT_BRIEF_SHOWERS","Offshore,Offshore,Offshore,Offshore",4
5842041f4e65fad6a77089b4,2024_04_09,44.95857310226525,-124.0219017690976,Lincoln City,2,2.42,2.7125,11,11,"NIGHT_DRIZZLE,NIGHT_LIGHT_RAIN,NIGHT_LIGHT_RAIN,NIGHT_DRIZZLE","Onshore,Onshore,Onshore,Onshore",4
5842041f4e65fad6a77089b5,2024_04_09,44.63792761362982,-124.0657,Newport,2,2.5549999999999997,2.8674999999999997,11,11,"NIGHT_DRIZZLE,NIGHT_MIST,NIGHT_OVERCAST,NIGHT_OVERCAST","Onshore,Onshore,Onshore,Onshore",4
5842041f4e65fad6a77089b6,2024_04_09,45.61468496266301,-123.94643,Rockaway Beach,2,2.5475,2.855,11,11,"NIGHT_MIST,NIGHT_RAIN,NIGHT_LIGHT_RAIN,NIGHT_MIST","Onshore,Onshore,Onshore,Onshore",4
5842041f4e65fad6a77089b7,2024_04_09,45.20252914186085,-123.96975,Pacific City,2,2.085,2.3449999999999998,11,11,"NIGHT_DRIZZLE,NIGHT_OVERCAST,NIGHT_OVERCAST,NIGHT_OVERCAST","Onshore,Onshore,Onshore,Onshore",4
5842041f4e65fad6a77089b8,2024_04_09,45.88179930310263,-123.96681,Cannon Beach,1.25,2.49,2.815,10,10,"NIGHT_LIGHT_RAIN,NIGHT_RAIN,NIGHT_OVERCAST,NIGHT_OVERCAST","Onshore,Onshore,Onshore,Onshore",4
5842041f4e65fad6a77089ba,2024_04_09,40.02528754746774,-124.06372,Shelter Cove,3,0.40417749999999997,0.6315299999999999,11,11,"NIGHT_CLEAR,NIGHT_CLEAR,NIGHT_CLEAR,NIGHT_CLEAR","Offshore,Offshore,Offshore,Offshore",4
5842041f4e65fad6a77089bb,2024_04_09,40.76816197136951,-124.24248,Humboldt Harbor Entrance,3,2.2399999999999998,2.43,11,11,"NIGHT_MIST,NIGHT_MIST,NIGHT_MIST,NIGHT_MIST","Cross-shore,Cross-shore,Cross-shore,Cross-shore",4
5842041f4e65fad6a77089bc,2024_04_09,40.76684246920174,-124.23107,North Jetty,3,3.0225,3.3674999999999997,11,11,"NIGHT_MIST,NIGHT_MIST,NIGHT_MIST,NIGHT_MIST","Cross-shore,Cross-shore,Cross-shore,Cross-shore",4
5842041f4e65fad6a77089bd,2024_04_09,41.02731183893966,-124.1149972888982,Westhaven,3,3.205,3.5675,11,11,"NIGHT_CLEAR,NIGHT_CLEAR,NIGHT_CLEAR,NIGHT_CLEAR","Offshore,Offshore,Offshore,Offshore",4
5842041f4e65fad6a77089be,2024_04_09,41.13016238153297,-124.16466,Sue-meg,3,2.25,2.5549999999999997,11,11,"NIGHT_MIST,NIGHT_MIST,NIGHT_MIST,NIGHT_MIST","Cross-shore,Cross-shore,Cross-shore,Cross-shore",4
5842041f4e65fad6a77089bf,2024_04_09,37.8289474958188,-122.5376795097543,Fort Cronkite/Rodeo Beach,3,1.1075,1.3725,13,13,"NIGHT_CLEAR,NIGHT_CLEAR,NIGHT_CLEAR,NIGHT_CLEAR","Onshore,Onshore,Onshore,Onshore",4
5842041f4e65fad6a77089c0,2024_04_09,41.74415759876137,-124.17717,South Beach CA,3,0.825,1.0675000000000001,10,10,"NIGHT_CLEAR,NIGHT_CLEAR,NIGHT_CLEAR,NIGHT_MOSTLY_CLOUDY","Offshore,Offshore,Offshore,Offshore",4
5842041f4e65fad6a77089c1,2024_04_09,37.89801283969752,-122.64519,Stinson Beach,3,0.4525,0.76,12,12,"NIGHT_CLEAR,NIGHT_CLEAR,NIGHT_CLEAR,NIGHT_CLEAR","Offshore,Offshore,Offshore,Offshore",4
5842041f4e65fad6a77089c2,2024_04_09,37.90514516176495,-122.68151,Bolinas,2,0.3621,0.565775,12,12,"NIGHT_CLEAR,NIGHT_CLEAR,NIGHT_CLEAR,NIGHT_CLEAR","Offshore,Offshore,Offshore,Offshore",4
5842041f4e65fad6a77089c3,2024_04_09,38.04892513158693,-122.9892494965416,Point Reyes (north),1,2.3899999999999997,2.745,12,12,"NIGHT_CLEAR,NIGHT_CLEAR,NIGHT_CLEAR,NIGHT_MIST","Onshore,Onshore,Onshore,Onshore",4
5842041f4e65fad6a77089c6,2024_04_09,38.31088736605785,-123.0496777333731,Doran Beach,2,0.065,0.365,11,11,"NIGHT_MIST,NIGHT_MIST,NIGHT_MIST,NIGHT_CLEAR","Offshore,Offshore,Offshore,Offshore",4
5842041f4e65fad6a77089c7,2024_04_09,38.45077228660809,-123.13008,Russian Rivermouth,3,1.4775,1.7625,11,11,"NIGHT_CLEAR,NIGHT_CLEAR,NIGHT_CLEAR,NIGHT_CLEAR","Offshore,Cross-shore,Offshore,Offshore",4
5842041f4e65fad6a77089c8,2024_04_09,38.35329968518107,-123.06906,Salmon Creek,2.75,1.92,2.2575,11,11,"NIGHT_CLEAR,NIGHT_CLEAR,NIGHT_CLEAR,NIGHT_CLEAR","Onshore,Offshore,Onshore,Cross-shore",4
5842041f4e65fad6a77089c9,2024_04_09,38.6845180197959,-123.4322714291198,Black Point Beach,2,0.6275,0.935,11,11,"NIGHT_CLEAR,NIGHT_CLEAR,NIGHT_CLEAR,NIGHT_CLEAR","Onshore,Cross-shore,Cross-shore,Cross-shore",4
5842041f4e65fad6a77089ca,2024_04_09,43.251076,-70.59144,Ogunquit,2.75,0.5199,0.8210999999999999,5,4,"NIGHT_CLEAR,NIGHT_CLEAR,NIGHT_CLEAR,CLEAR","Offshore,Cross-shore,Cross-shore,Offshore",4
5842041f4e65fad6a77089cb,2024_04_09,41.362631366305415,-71.48007,Point Judith,1.7075,0.302925,0.610225,6,5,"NIGHT_MOSTLY_CLOUDY,NIGHT_CLEAR,NIGHT_CLEAR,CLEAR","Cross-shore,Offshore,Offshore,Offshore",4
5842041f4e65fad6a77089cd,2024_04_09,41.422678090954726,-71.45413,Monahan's - Narragansett,2,0.2720725,0.42511,6,6,"NIGHT_CLOUDY,NIGHT_CLEAR,NIGHT_CLEAR,CLEAR","Offshore,Offshore,Offshore,Offshore",4
5842041f4e65fad6a77089ce,2024_04_09,41.469,-71.293,Ruggles - Newport,1.25,0.289205,0.45188249999999996,5,5,"NIGHT_MOSTLY_CLOUDY,NIGHT_MOSTLY_CLEAR,NIGHT_CLEAR,CLEAR","Cross-shore,Cross-shore,Cross-shore,Offshore",4
5842041f4e65fad6a77089cf,2024_04_09,43.175394,-70.606351,Short Sands Beach,2.5,0.41500000000000004,0.725,5,5,"NIGHT_CLEAR,NIGHT_CLEAR,NIGHT_CLEAR,CLEAR","Offshore,Cross-shore,Cross-shore,Cross-shore",4
5842041f4e65fad6a77089d0,2024_04_09,41.487408,-71.29017,First Beach,1,0,0.2825,6,6,"NIGHT_MOSTLY_CLOUDY,NIGHT_MOSTLY_CLEAR,NIGHT_CLEAR,CLEAR","Cross-shore,Cross-shore,Cross-shore,Offshore",4
5842041f4e65fad6a77089d1,2024_04_09,42.27916830233153,-70.86498,Nantasket Beach,3,0.6399,0.9486,6,4,"NIGHT_CLEAR,NIGHT_CLEAR,NIGHT_CLEAR,CLEAR","Offshore,Offshore,Offshore,Offshore",4
5842041f4e65fad6a77089d2,2024_04_09,41.817,-69.935,Cape Cod,3,0.51,0.815,5,5,"NIGHT_CLEAR,NIGHT_CLEAR,NIGHT_CLEAR,CLEAR","Offshore,Offshore,Offshore,Offshore",4
5842041f4e65fad6a77089d3,2024_04_09,42.22055448975661,-70.70634873403819,Egypt Beach,3,0.6575,0.9625,5,5,"NIGHT_CLEAR,NIGHT_CLEAR,NIGHT_CLEAR,CLEAR","Offshore,Offshore,Offshore,Offshore",4
5842041f4e65fad6a77089d4,2024_04_09,41.48739647744607,-71.25723,Second Beach,0.75,0.13380999999999998,0.24718,6,5,"NIGHT_MOSTLY_CLOUDY,NIGHT_MOSTLY_CLEAR,NIGHT_CLEAR,CLEAR","Onshore,Onshore,Onshore,Cross-shore",4
5842041f4e65fad6a77089d5,2024_04_09,42.964,-70.769,Fox Hill,2.75,0.4399,0.7461,5,4,"NIGHT_CLEAR,NIGHT_CLEAR,NIGHT_CLEAR,CLEAR","Offshore,Offshore,Offshore,Offshore",4
5842041f4e65fad6a77089d6,2024_04_09,42.991359,-70.75149,Straws Point,2,0.2949,0.6011,5,4,"NIGHT_CLEAR,NIGHT_CLEAR,NIGHT_CLEAR,CLEAR","Offshore,Offshore,Offshore,Offshore",4
5842041f4e65fad6a77089d7,2024_04_09,42.946,-70.786,Plaice Cove,2.75,0.4399,0.7461,5,4,"NIGHT_CLEAR,NIGHT_CLEAR,NIGHT_CLEAR,CLEAR","Offshore,Offshore,Offshore,Cross-shore",4
5842041f4e65fad6a77089d9,2024_04_09,42.911574,-70.80831,The Main Beach,2.25,0.6228806250000001,0.933960625,6,4,"NIGHT_CLEAR,NIGHT_CLEAR,NIGHT_CLEAR,CLEAR","Offshore,Offshore,Offshore,Offshore",4
5842041f4e65fad6a77089da,2024_04_09,42.97583846220203,-70.764,Sawyer's Beach,2,0.2374,0.5411,5,4,"NIGHT_CLEAR,NIGHT_CLEAR,NIGHT_CLEAR,CLEAR","Offshore,Offshore,Offshore,Offshore",4
5842041f4e65fad6a77089db,2024_04_09,42.97,-70.77,Rye on the Rocks / 5-0's,2.25,0.62137125,0.93375125,6,4,"NIGHT_CLEAR,NIGHT_CLEAR,NIGHT_CLEAR,CLEAR","Offshore,Offshore,Offshore,Offshore",4
5842041f4e65fad6a77089dc,2024_04_09,43.55902946610303,-70.27795,Higgins Beach,2.125,0.39755000000000007,0.700475,5,4,"NIGHT_CLEAR,NIGHT_CLEAR,NIGHT_CLEAR,CLEAR","Offshore,Offshore,Offshore,Offshore",4
5842041f4e65fad6a77089dd,2024_04_09,43.302676,-70.5652,Wells Beach,2,0.2874,0.5936,5,4,"NIGHT_CLEAR,NIGHT_CLEAR,NIGHT_CLEAR,CLEAR","Offshore,Cross-shore,Cross-shore,Offshore",4
5842041f4e65fad6a77089de,2024_04_09,43.545359,-70.30479,Scarborough Beach State Park,2,0.48751,0.7522075,5,4,"NIGHT_CLEAR,NIGHT_CLEAR,NIGHT_CLEAR,CLEAR","Offshore,Offshore,Offshore,Offshore",4
5842041f4e65fad6a77089df,2024_04_09,43.514481,-70.372146,Old Orchard Beach,2,0.6046,0.9239250000000001,5,4,"NIGHT_CLEAR,NIGHT_CLEAR,NIGHT_CLEAR,CLEAR","Cross-shore,Offshore,Offshore,Offshore",4
5842041f4e65fad6a77089e0,2024_04_09,43.34711,-70.48165,Gooch's Beach,2,0.1912,0.4949,5,4,"NIGHT_CLEAR,NIGHT_CLEAR,NIGHT_CLEAR,CLEAR","Offshore,Offshore,Offshore,Offshore",4
5842041f4e65fad6a77089e2,2024_04_09,40.58433,-73.62953,Lido Beach,0.6675,0.29470833333333335,0.5997166666666667,8,7,"NIGHT_MOSTLY_CLEAR,NIGHT_CLEAR,NIGHT_CLEAR,CLEAR","Onshore,Onshore,Onshore,Cross-shore",4
5842041f4e65fad6a77089e3,2024_04_09,43.163135,-70.61689,Long Sands Beach,2,0.604309375,0.915661875,5,4,"NIGHT_CLEAR,NIGHT_CLEAR,NIGHT_CLEAR,CLEAR","Offshore,Offshore,Offshore,Offshore",4
5842041f4e65fad6a77089e4,2024_04_09,40.61695351251805,-73.39376,Gilgo Beach,1.25,0.1187,0.4224,8,7,"NIGHT_CLEAR,NIGHT_CLEAR,NIGHT_CLEAR,CLEAR","Onshore,Onshore,Onshore,Onshore",4
5842041f4e65fad6a77089e5,2024_04_09,40.62530081928036,-73.23827,Robert Moses,1,0.095,0.4,6,6,"NIGHT_MOSTLY_CLEAR,NIGHT_MOSTLY_CLEAR,NIGHT_CLEAR,CLEAR","Onshore,Onshore,Onshore,Onshore",4
5842041f4e65fad6a77089e6,2024_04_09,40.64313317632791,-73.15727,Fire Island,1,0.1,0.4,6,6,"NIGHT_MIST,NIGHT_CLEAR,NIGHT_CLEAR,CLEAR","Cross-shore,Onshore,Onshore,Cross-shore",4
5842041f4e65fad6a77089e8,2024_04_09,40.76653118828782,-72.74579619372713,Cupsogue,1.5,0.2425,0.55,6,6,"NIGHT_CLEAR,NIGHT_CLEAR,NIGHT_CLEAR,CLEAR","Cross-shore,Onshore,Cross-shore,Cross-shore",4
5842041f4e65fad6a77089e9,2024_04_09,42.9376373334092,-70.79141,The Wall ,2.25,0.6219425000000001,0.93249625,6,4,"NIGHT_CLEAR,NIGHT_CLEAR,NIGHT_CLEAR,CLEAR","Offshore,Offshore,Offshore,Cross-shore",4
5842041f4e65fad6a77089ea,2024_04_09,40.887088,-72.33856,Flys,1.75,0.2575,0.565,6,6,"NIGHT_MOSTLY_CLOUDY,NIGHT_CLEAR,NIGHT_CLEAR,CLEAR","Cross-shore,Cross-shore,Cross-shore,Cross-shore",4
5842041f4e65fad6a77089eb,2024_04_09,41.0389266436591,-71.91068529316958,Trailer Park,1.75,0.32484250000000003,0.629145625,8,7,"NIGHT_CLEAR,NIGHT_CLEAR,NIGHT_CLEAR,CLEAR","Cross-shore,Cross-shore,Cross-shore,Cross-shore",4
5842041f4e65fad6a77089ec,2024_04_09,41.039505402729105,-71.9142,Ditch Plains,2,0.4669075,0.729545,6,6,"NIGHT_CLEAR,NIGHT_CLEAR,NIGHT_CLEAR,CLEAR","Cross-shore,Cross-shore,Offshore,Offshore",4
5842041f4e65fad6a77089ee,2024_04_09,40.57633275206492,-73.56895305108567,"West End, Jones Beach",2,0.1175,0.4225,8,7,"NIGHT_MOSTLY_CLEAR,NIGHT_CLEAR,NIGHT_CLEAR,CLEAR","Onshore,Onshore,Onshore,Onshore",4
5842041f4e65fad6a77089f1,2024_04_09,41.038286691230795,-71.91991567611694,Poles,1.75,0.3238525,0.6311775000000001,8,7,"NIGHT_CLEAR,NIGHT_CLEAR,NIGHT_CLEAR,CLEAR","Cross-shore,Cross-shore,Cross-shore,Cross-shore",4
5842041f4e65fad6a77089f3,2024_04_09,40.84077769766295,-72.47989493724765,The Bowl,1.5,0.25,0.5575,6,6,"NIGHT_MOSTLY_CLOUDY,NIGHT_MOSTLY_CLOUDY,NIGHT_CLEAR,CLEAR","Onshore,Onshore,Cross-shore,Cross-shore",4
5842041f4e65fad6a77089f4,2024_04_09,40.94235535243154,-72.19286,Main Beach,1.25,0.2562,0.5624,14,13,"NIGHT_CLEAR,NIGHT_CLEAR,NIGHT_CLEAR,CLEAR","Onshore,Onshore,Cross-shore,Cross-shore",4
5842041f4e65fad6a77089f5,2024_04_09,40.58270702399518,-73.67251552079799,Laurelton Blvd.,1,0.00680583333333333,0.3116058333333333,8,7,"NIGHT_CLEAR,NIGHT_CLEAR,NIGHT_CLEAR,CLEAR","Onshore,Onshore,Onshore,Onshore",4
5842041f4e65fad6a77089f6,2024_04_09,41.033752854071416,-71.93696,Terrace,1.75,0.32822500000000004,0.630525,8,7,"NIGHT_CLEAR,NIGHT_CLEAR,NIGHT_CLEAR,CLEAR","Cross-shore,Cross-shore,Cross-shore,Cross-shore",4
5842041f4e65fad6a77089f7,2024_04_09,40.83372943645748,-72.50426173210144,K Road,2,0.2425,0.5475,6,6,"NIGHT_MOSTLY_CLOUDY,NIGHT_MOSTLY_CLEAR,NIGHT_CLEAR,CLEAR","Cross-shore,Cross-shore,Cross-shore,Cross-shore",4
5842041f4e65fad6a77089f8,2024_04_09,40.58456099581507,-73.80730032920837,84th Street,2,0.3127166666666667,0.6229333333333333,8,7,"NIGHT_MOSTLY_CLEAR,NIGHT_CLEAR,NIGHT_CLEAR,CLEAR","Onshore,Onshore,Onshore,Onshore",4
5842041f4e65fad6a77089fa,2024_04_09,40.1319,-74.02788,Sea Girt,2,0.23249999999999998,0.535,8,7,"NIGHT_CLEAR,NIGHT_CLEAR,NIGHT_CLEAR,CLEAR","Offshore,Cross-shore,Offshore,Cross-shore",4
5842041f4e65fad6a77089fb,2024_04_09,40.54698301868125,-73.9268,Breezy Point,2,0.14500000000000002,0.45,7,7,"NIGHT_MOSTLY_CLEAR,NIGHT_CLEAR,NIGHT_CLEAR,CLEAR","Cross-shore,Onshore,Onshore,Onshore",4
5842041f4e65fad6a77089fc,2024_04_09,40.152504,-74.021383,Spring Lake,2,0.28,0.585,8,7,"NIGHT_CLEAR,NIGHT_CLEAR,NIGHT_CLEAR,CLEAR","Offshore,Onshore,Offshore,Offshore",4
5842041f4e65fad6a77089fd,2024_04_09,40.591277,-73.770792,30th - 39th Streets,2,0.05,0.3575,8,7,"NIGHT_MOSTLY_CLEAR,NIGHT_CLEAR,NIGHT_CLEAR,CLEAR","Onshore,Onshore,Onshore,Onshore",4
5842041f4e65fad6a77089fe,2024_04_09,40.18834955871439,-74.00860982500222,Avon,3,0.35,0.6575,8,7,"NIGHT_CLEAR,NIGHT_CLEAR,NIGHT_CLEAR,CLEAR","Offshore,Onshore,Offshore,Offshore",4
5842041f4e65fad6a77089ff,2024_04_09,40.1974229100932,-74.00650533798255,Bradley Beach,3,0.3225,0.625,8,7,"NIGHT_CLEAR,NIGHT_CLEAR,NIGHT_CLEAR,CLEAR","Cross-shore,Onshore,Offshore,Offshore",4
5842041f4e65fad6a7708a01,2024_04_09,40.17202,-74.01503,"16th Ave., Belmar",2,0.315425,0.6225166666666667,8,7,"NIGHT_CLEAR,NIGHT_CLEAR,NIGHT_CLEAR,CLEAR","Cross-shore,Onshore,Offshore,Offshore",4
5842041f4e65fad6a7708a02,2024_04_09,40.217443,-73.99982,Asbury Park,2,0.25,0.5575,8,7,"NIGHT_CLEAR,NIGHT_MOSTLY_CLEAR,NIGHT_CLEAR,CLEAR","Offshore,Onshore,Offshore,Offshore",4
5842041f4e65fad6a7708a03,2024_04_09,40.229841,-73.996782,Loch Arbour and Deal,2,0.185,0.4925,8,7,"NIGHT_CLEAR,NIGHT_CLEAR,NIGHT_CLEAR,CLEAR","Cross-shore,Cross-shore,Cross-shore,Offshore",4
5842041f4e65fad6a7708a05,2024_04_09,40.41754,-73.97935,Sandy Hook,1,0,0.1675,7,7,"NIGHT_CLEAR,NIGHT_CLEAR,NIGHT_CLEAR,CLEAR","Offshore,Offshore,Offshore,Offshore",4
5842041f4e65fad6a7708a06,2024_04_09,39.36353,-74.40873,Crystals,2,0.506335,0.7911475,8,7,"NIGHT_CLEAR,NIGHT_CLEAR,NIGHT_MIST,MIST","Cross-shore,Cross-shore,Cross-shore,Offshore",4
5842041f4e65fad6a7708a07,2024_04_09,39.31443,-74.51863,32nd Street,2.79,0.6009,0.9186616666666667,8,7,"NIGHT_CLEAR,NIGHT_CLEAR,NIGHT_MIST,MIST","Cross-shore,Cross-shore,Cross-shore,Offshore",4
5842041f4e65fad6a7708a08,2024_04_09,39.327688,-74.49524,Margate Pier Northside,2.8325,0.6009,0.9186616666666667,8,7,"NIGHT_CLEAR,NIGHT_CLEAR,NIGHT_MIST,MIST","Cross-shore,Cross-shore,Cross-shore,Offshore",4
5842041f4e65fad6a7708a09,2024_04_09,39.336276,-74.47782,Ventnor Pier,2,0.4967125,0.7761075,8,7,"NIGHT_CLEAR,NIGHT_CLEAR,NIGHT_MIST,MIST","Onshore,Cross-shore,Cross-shore,Offshore",4
5842041f4e65fad6a7708a0a,2024_04_09,39.35929751441085,-74.41683,States Avenue,2.5,0.506335,0.7911475,8,7,"NIGHT_CLEAR,NIGHT_CLEAR,NIGHT_MIST,MIST","Cross-shore,Cross-shore,Cross-shore,Offshore",4
5842041f4e65fad6a7708a0b,2024_04_09,39.37274173278517,-74.40454,Brigantine Jetty,2,0.3686075,0.5759475000000001,8,7,"NIGHT_CLEAR,NIGHT_CLEAR,NIGHT_MIST,MIST","Onshore,Onshore,Onshore,Offshore",4
5842041f4e65fad6a7708a0c,2024_04_09,39.356505,-74.42263,South Carolina Avenue,2,0.3686075,0.5759475000000001,8,7,"NIGHT_CLEAR,NIGHT_CLEAR,NIGHT_MIST,MIST","Onshore,Onshore,Onshore,Offshore",4
5842041f4e65fad6a7708a0d,2024_04_09,39.413485,-74.35476,14th Street North,2,0.39,0.6925,8,7,"NIGHT_MIST,NIGHT_MIST,NIGHT_MIST,MIST","Onshore,Cross-shore,Cross-shore,Onshore",4
5842041f4e65fad6a7708a0e,2024_04_09,39.531319,-74.263252,The Wooden Jetty,2.0425,0.5991910416666667,0.902320625,8,7,"NIGHT_CLEAR,NIGHT_CLEAR,NIGHT_MIST,CLEAR","Onshore,Onshore,Cross-shore,Offshore",4
5842041f4e65fad6a7708a0f,2024_04_09,39.552472,-74.24344,Holyoke,2.0425,0.612799375,0.930115625,8,7,"NIGHT_CLEAR,NIGHT_CLEAR,NIGHT_MIST,CLEAR","Cross-shore,Cross-shore,Cross-shore,Offshore",4
5842041f4e65fad6a7708a10,2024_04_09,39.692364,-74.14068,Hudson Ave.,2.0425,0.606175,0.905975,8,7,"NIGHT_CLEAR,NIGHT_CLEAR,NIGHT_MIST,MIST","Onshore,Cross-shore,Cross-shore,Offshore",4
5842041f4e65fad6a7708a11,2024_04_09,39.79614,-74.09248,Island Beach State Park,2.25,0.445,0.7525,8,7,"NIGHT_CLEAR,NIGHT_MOSTLY_CLEAR,NIGHT_MIST,CLEAR","Cross-shore,Cross-shore,Cross-shore,Offshore",4
5842041f4e65fad6a7708a12,2024_04_09,39.91813588078152,-74.07527,Seaside Park,2.25,0.325,0.63,8,7,"NIGHT_CLEAR,NIGHT_CLEAR,NIGHT_CLEAR,CLEAR","Offshore,Offshore,Cross-shore,Offshore",4
5842041f4e65fad6a7708a14,2024_04_09,39.946638,-74.06884,Seaside Heights,2.5,0.4825,0.7875000000000001,8,7,"NIGHT_CLEAR,NIGHT_CLEAR,NIGHT_CLEAR,CLEAR","Cross-shore,Cross-shore,Cross-shore,Offshore",4
5842041f4e65fad6a7708a15,2024_04_09,39.95745637606704,-74.06736,Ortley Beach,2,0.2975,0.605,8,7,"NIGHT_CLEAR,NIGHT_CLEAR,NIGHT_CLEAR,CLEAR","Cross-shore,Cross-shore,Cross-shore,Offshore",4
5842041f4e65fad6a7708a16,2024_04_09,39.98313468342945,-74.06265685577506,Lavallette,2,0.3275,0.63,8,7,"NIGHT_CLEAR,NIGHT_CLEAR,NIGHT_CLEAR,CLEAR","Cross-shore,Cross-shore,Cross-shore,Offshore",4
5842041f4e65fad6a7708a17,2024_04_09,40.0699319967757,-74.04144910856634,Bay Head,2.25,0.3525,0.6575,8,7,"NIGHT_CLEAR,NIGHT_MOSTLY_CLEAR,NIGHT_CLEAR,CLEAR","Cross-shore,Cross-shore,Cross-shore,Offshore",4
5842041f4e65fad6a7708a18,2024_04_09,40.094041,-74.034859,Jenkinson's,2.25,0.28,0.5874999999999999,8,7,"NIGHT_CLEAR,NIGHT_CLEAR,NIGHT_CLEAR,CLEAR","Offshore,Offshore,Offshore,Offshore",4
5842041f4e65fad6a7708a1a,2024_04_09,38.148058,-75.17704,Assateague,1.5,0.5875,0.895,8,7,"NIGHT_CLEAR,NIGHT_CLEAR,NIGHT_CLEAR,CLEAR","Cross-shore,Cross-shore,Offshore,Offshore",4
5842041f4e65fad6a7708a1b,2024_04_09,38.33889038664497,-75.08017670566352,North End to Ocean City Inlet,3,0.6375,0.9425,8,7,"NIGHT_CLEAR,NIGHT_CLEAR,NIGHT_CLEAR,CLEAR","Offshore,Offshore,Offshore,Offshore",4
5842041f4e65fad6a7708a1c,2024_04_09,38.603993,-75.06271,Indian River Inlet,2.25,0.6381574999999999,0.9971225,8,7,"NIGHT_MOSTLY_CLEAR,NIGHT_CLEAR,NIGHT_CLEAR,CLEAR","Cross-shore,Cross-shore,Offshore,Offshore",4
5842041f4e65fad6a7708a1d,2024_04_09,38.460477,-75.052069,Fenwick Island,2,0.325,0.6325000000000001,8,7,"NIGHT_MOSTLY_CLEAR,NIGHT_CLEAR,NIGHT_CLEAR,CLEAR","Offshore,Offshore,Offshore,Offshore",4
5842041f4e65fad6a7708a1e,2024_04_09,38.538767,-75.05619,Bethany Beach,2.75,0.6410275,1.00161,8,7,"NIGHT_CLEAR,NIGHT_CLEAR,NIGHT_CLEAR,CLEAR","Offshore,Offshore,Offshore,Offshore",4
5842041f4e65fad6a7708a1f,2024_04_09,38.697657,-75.075951,Dewey Beach,2,0.3075,0.6125,8,7,"NIGHT_MOSTLY_CLEAR,NIGHT_MOSTLY_CLEAR,NIGHT_CLEAR,CLEAR","Offshore,Offshore,Offshore,Offshore",4
5842041f4e65fad6a7708a20,2024_04_09,38.75034741676525,-75.08194,Gordons Pond,2,0.4264975,0.6664025,8,7,"NIGHT_CLEAR,NIGHT_CLEAR,NIGHT_CLEAR,CLEAR","Offshore,Offshore,Offshore,Offshore",4
5842041f4e65fad6a7708a21,2024_04_09,38.767837,-75.082841,Naval Jetties,3,0.345,0.65,8,7,"NIGHT_CLEAR,NIGHT_CLEAR,NIGHT_CLEAR,CLEAR","Offshore,Offshore,Offshore,Offshore",4
5842041f4e65fad6a7708a22,2024_04_09,36.81735875786576,-75.96624,Camp Pendleton,2.5,0.7080500000000001,0.959075,10,9,"NIGHT_CLEAR,NIGHT_MOSTLY_CLEAR,NIGHT_CLEAR,CLEAR","Offshore,Offshore,Offshore,Offshore",4
5842041f4e65fad6a7708a23,2024_04_09,36.9102212316428,-75.98732471466064,North End,2.125,0.37975000000000003,0.724525,10,9,"NIGHT_CLEAR,NIGHT_MOSTLY_CLEAR,NIGHT_CLEAR,CLEAR","Offshore,Offshore,Offshore,Offshore",4
5842041f4e65fad6a7708a24,2024_04_09,36.737117517621314,-75.93924,Sandbridge Beach,2.25,0.5710999999999999,0.8723000000000001,10,9,"NIGHT_CLEAR,NIGHT_MOSTLY_CLEAR,NIGHT_CLEAR,CLEAR","Offshore,Offshore,Offshore,Offshore",4
5842041f4e65fad6a7708a26,2024_04_09,36.818257440557794,-75.96666,Croatan to Pendleton,2.8325,0.5968,0.9397,10,9,"NIGHT_CLEAR,NIGHT_MOSTLY_CLEAR,NIGHT_CLEAR,CLEAR","Offshore,Offshore,Offshore,Offshore",4
5842041f4e65fad6a7708a27,2024_04_09,36.84318777204769,-75.9719,South End,2,0.4149,0.7211000000000001,10,9,"NIGHT_CLEAR,NIGHT_MOSTLY_CLEAR,NIGHT_CLEAR,CLEAR","Offshore,Offshore,Offshore,Offshore",4
5842041f4e65fad6a7708a28,2024_04_09,37.08612627584661,-75.976121638199,Fishermans Island,0,0.011,0.133,11,11,"NIGHT_CLEAR,NIGHT_CLEAR,NIGHT_CLEAR,CLEAR","Cross-shore,Cross-shore,Cross-shore,Cross-shore",4
5842041f4e65fad6a7708a38,2024_04_09,35.254619418229026,-75.52074,Cape Hatteras Lighthouse,3.875,1.179611875,1.549060625,16,14,"NIGHT_CLEAR,NIGHT_MOSTLY_CLOUDY,NIGHT_CLEAR,CLEAR","Offshore,Offshore,Offshore,Offshore",4
5842041f4e65fad6a7708a3a,2024_04_09,35.54572934093336,-75.46477,Waves and Salvo,3.25,1.7673,2.1303,15,13,"NIGHT_MOSTLY_CLOUDY,NIGHT_CLEAR,NIGHT_CLEAR,MOSTLY_CLEAR","Offshore,Offshore,Offshore,Cross-shore",4
5842041f4e65fad6a7708a3b,2024_04_09,35.22565892751075,-75.63606,Frisco,1,0.22240000000000001,0.5206999999999999,17,16,"NIGHT_CLEAR,NIGHT_OVERCAST,NIGHT_CLEAR,CLEAR","Onshore,Onshore,Onshore,Onshore",4
5842041f4e65fad6a7708a3c,2024_04_09,35.13086,-75.90591,Ocracoke,1,0.229955,0.359305,14,14,"NIGHT_CLEAR,NIGHT_MOSTLY_CLOUDY,NIGHT_MOSTLY_CLOUDY,CLEAR","Cross-shore,Cross-shore,Cross-shore,Cross-shore",4
5842041f4e65fad6a7708a3d,2024_04_09,35.34721340158342,-75.50084,Avon Pier,3.875,1.246975,1.82815,16,14,"NIGHT_MOSTLY_CLEAR,NIGHT_MOSTLY_CLOUDY,NIGHT_MOSTLY_CLEAR,CLEAR","Offshore,Offshore,Offshore,Offshore",4
5842041f4e65fad6a7708a3f,2024_04_09,35.71680821253768,-75.49243,Pea Island,4,1.2375,1.5225,10,10,"NIGHT_OVERCAST,NIGHT_MOSTLY_CLOUDY,NIGHT_MOSTLY_CLOUDY,MOSTLY_CLEAR","Offshore,Offshore,Offshore,Offshore",4
5842041f4e65fad6a7708a40,2024_04_09,35.97427620657821,-75.62984,Nags Head Pier,2.5825,0.8928499999999999,1.3424,12,10,"NIGHT_MOSTLY_CLOUDY,NIGHT_MOSTLY_CLOUDY,NIGHT_CLEAR,MOSTLY_CLOUDY","Offshore,Offshore,Offshore,Offshore",4
5842041f4e65fad6a7708a41,2024_04_09,36.0439998039079,-75.67288,Avalon Pier,3,0.9936,1.3129,12,10,"NIGHT_MOSTLY_CLOUDY,NIGHT_CLEAR,NIGHT_MOSTLY_CLOUDY,MOSTLY_CLOUDY","Offshore,Offshore,Offshore,Offshore",4
5842041f4e65fad6a7708a42,2024_04_09,36.03043116489792,-75.66413,First Street,2.8325,0.993425,1.3736249999999999,12,10,"NIGHT_MOSTLY_CLOUDY,NIGHT_CLEAR,NIGHT_MOSTLY_CLOUDY,MOSTLY_CLOUDY","Offshore,Offshore,Offshore,Offshore",4
5842041f4e65fad6a7708a43,2024_04_09,36.06829910590498,-75.6899,Old Station/Laundromats,3,0.9836,1.3085,12,10,"NIGHT_MOSTLY_CLOUDY,NIGHT_BRIEF_SHOWERS_POSSIBLE,NIGHT_MOSTLY_CLOUDY,MOSTLY_CLOUDY","Offshore,Offshore,Offshore,Offshore",4
5842041f4e65fad6a7708a44,2024_04_09,36.10126676607491,-75.71107,Kitty Hawk Pier,2.8325,0.940925,1.4884000000000002,12,10,"NIGHT_CLEAR,NIGHT_CLEAR,NIGHT_MOSTLY_CLOUDY,MOSTLY_CLOUDY","Offshore,Offshore,Offshore,Offshore",4
5842041f4e65fad6a7708a45,2024_04_09,36.18220630068973,-75.75013580649097,Duck Pier,2.75,0.7286,1.0323,11,9,"NIGHT_MOSTLY_CLOUDY,NIGHT_MOSTLY_CLOUDY,NIGHT_CLEAR,MOSTLY_CLEAR","Offshore,Offshore,Offshore,Offshore",4
5842041f4e65fad6a7708a46,2024_04_09,36.37660668125033,-75.82409701687456,Corolla,3,0.7136,1.0148,11,9,"NIGHT_MOSTLY_CLOUDY,NIGHT_MOSTLY_CLOUDY,NIGHT_CLEAR,CLEAR","Offshore,Offshore,Offshore,Offshore",4
5842041f4e65fad6a7708a47,2024_04_09,33.90373404124834,-78.08241431707907,Oak Island,0.75,0,0.175,16,16,"NIGHT_CLEAR,NIGHT_CLEAR,NIGHT_CLEAR,CLEAR","Onshore,Onshore,Onshore,Onshore",4
5842041f4e65fad6a7708a48,2024_04_09,33.91108837766468,-78.29653,South Brunswick Beaches,0.75,0.1421225,0.222065,16,16,"NIGHT_CLEAR,NIGHT_CLEAR,NIGHT_CLEAR,CLEAR","Onshore,Onshore,Onshore,Onshore",4
5842041f4e65fad6a7708a49,2024_04_09,34.05683595651973,-77.88128,Carolina Beach Pier,0.75,0,0.3045,15,14,"NIGHT_CLEAR,NIGHT_CLEAR,NIGHT_CLEAR,CLEAR","Cross-shore,Cross-shore,Cross-shore,Cross-shore",4
5842041f4e65fad6a7708a4a,2024_04_09,33.96841191816696,-77.9180242565498,Fort Fisher,1,0.001874999999999999,0.30700000000000005,15,14,"NIGHT_MOSTLY_CLOUDY,NIGHT_CLEAR,NIGHT_CLEAR,CLEAR","Cross-shore,Cross-shore,Cross-shore,Cross-shore",4
5842041f4e65fad6a7708a4b,2024_04_09,34.46776662988774,-77.47083191635772,Topsail Beach,0,0,0.3012,15,14,"NIGHT_CLEAR,NIGHT_CLEAR,NIGHT_CLEAR,CLEAR","Onshore,Onshore,Onshore,Onshore",4
5842041f4e65fad6a7708a4c,2024_04_09,34.69270354752445,-76.82854854446575,Iron Steamer,0.75,0.20892500000000003,0.47345000000000004,16,14,"NIGHT_CLEAR,NIGHT_CLEAR,NIGHT_CLEAR,CLEAR","Onshore,Onshore,Onshore,Onshore",4
5842041f4e65fad6a7708a4f,2024_04_09,30.85132684893727,-81.42283496231143,Cumberland Island,1.5,0.2925,0.5925,18,18,"NIGHT_CLEAR,NIGHT_CLEAR,NIGHT_CLEAR,NIGHT_CLEAR","Onshore,Onshore,Onshore,Onshore",4
5842041f4e65fad6a7708a50,2024_04_09,34.686741128540874,-76.47516712138378,Cape Lookout National Seashore,1,0.235,0.54,16,16,"NIGHT_CLEAR,NIGHT_CLEAR,NIGHT_CLEAR,CLEAR","Cross-shore,Cross-shore,Cross-shore,Cross-shore",4
5842041f4e65fad6a7708a51,2024_04_09,31.10585419260024,-81.40422767604812,Jekyll Island,1,0.05,0.36,18,18,"NIGHT_CLEAR,NIGHT_CLEAR,NIGHT_CLEAR,NIGHT_CLEAR","Onshore,Onshore,Onshore,Onshore",4
5842041f4e65fad6a7708a52,2024_04_09,31.16212806376699,-81.32512426500224,Harbor Marker Buoys,2,0.05,0.3575,18,18,"NIGHT_CLEAR,NIGHT_CLEAR,NIGHT_CLEAR,NIGHT_CLEAR","Onshore,Onshore,Onshore,Onshore",4
5842041f4e65fad6a7708a53,2024_04_09,31.20076299997009,-81.32629,Sea Island,1,0.11750000000000001,0.425,18,18,"NIGHT_CLEAR,NIGHT_MIST,NIGHT_CLEAR,NIGHT_CLEAR","Onshore,Onshore,Onshore,Onshore",4
5842041f4e65fad6a7708a54,2024_04_09,31.13553222995767,-81.38457634790909,St. Simons Island,1,0.18,0.485,18,18,"NIGHT_CLEAR,NIGHT_CLEAR,NIGHT_CLEAR,NIGHT_CLEAR","Onshore,Onshore,Onshore,Onshore",4
5842041f4e65fad6a7708a55,2024_04_09,31.33550077186516,-81.28383377408417,Wolf Island,1,0.08499999999999999,0.39,18,18,"NIGHT_CLEAR,NIGHT_CLEAR,NIGHT_CLEAR,NIGHT_CLEAR","Onshore,Onshore,Onshore,Onshore",4
5842041f4e65fad6a7708a56,2024_04_09,31.2704493877174,-81.27324039152315,Little St. Simons Island,1.25,0.1125,0.4175,18,18,"NIGHT_CLEAR,NIGHT_CLEAR,NIGHT_CLEAR,NIGHT_CLEAR","Cross-shore,Cross-shore,Onshore,Onshore",4
5842041f4e65fad6a7708a57,2024_04_09,31.39261761368919,-81.26190520231917,Sapelo Island,1,0.07500000000000001,0.38,18,18,"NIGHT_CLEAR,NIGHT_CLEAR,NIGHT_CLEAR,NIGHT_CLEAR","Onshore,Onshore,Onshore,Onshore",4
5842041f4e65fad6a7708a58,2024_04_09,34.42458783809001,-77.54492,Surf City Pier,0.75,0.0025,0.3087,15,14,"NIGHT_CLEAR,NIGHT_CLEAR,NIGHT_CLEAR,CLEAR","Cross-shore,Onshore,Cross-shore,Cross-shore",4
5842041f4e65fad6a7708a59,2024_04_09,31.4231993614213,-81.24725340591522,Cabretta Island,1,0.08499999999999999,0.3875,18,18,"NIGHT_CLEAR,NIGHT_CLEAR,NIGHT_CLEAR,NIGHT_CLEAR","Onshore,Onshore,Onshore,Onshore",4
5842041f4e65fad6a7708a5a,2024_04_09,31.46684389030369,-81.2100056410468,Blackbeard Island,1,0.07500000000000001,0.38,18,18,"NIGHT_CLEAR,NIGHT_CLEAR,NIGHT_CLEAR,NIGHT_CLEAR","Onshore,Onshore,Onshore,Onshore",4
5842041f4e65fad6a7708a5b,2024_04_09,31.85953587631629,-80.99031310336719,Wassaw Island/South End,0.25,0,0.1875,18,18,"NIGHT_CLEAR,NIGHT_CLEAR,NIGHT_CLEAR,NIGHT_CLEAR","Onshore,Onshore,Onshore,Onshore",4
5842041f4e65fad6a7708a5c,2024_04_09,31.62535662342983,-81.13328352167974,St. Catherines Island,1,0.07500000000000001,0.375,18,18,"NIGHT_CLEAR,NIGHT_CLEAR,NIGHT_CLEAR,NIGHT_CLEAR","Onshore,Onshore,Onshore,Onshore",4
5842041f4e65fad6a7708a5d,2024_04_09,31.76502169596568,-81.07655443806622,Ossabaw Island,1,0,0.2875,18,18,"NIGHT_CLEAR,NIGHT_CLEAR,NIGHT_MIST,NIGHT_MIST","Onshore,Onshore,Onshore,Onshore",4
5842041f4e65fad6a7708a5e,2024_04_09,31.90593619092352,-80.93589231700857,Wassaw Island/North End,1,0.01,0.31,17,17,"NIGHT_CLEAR,NIGHT_CLEAR,NIGHT_CLEAR,NIGHT_CLEAR","Onshore,Onshore,Onshore,Onshore",4
5842041f4e65fad6a7708a5f,2024_04_09,31.96738675414547,-80.86977980706155,Little Tybee Island,1,0,0.2775,17,17,"NIGHT_CLEAR,NIGHT_CLEAR,NIGHT_CLEAR,CLEAR","Onshore,Onshore,Onshore,Onshore",4
5842041f4e65fad6a7708a60,2024_04_09,31.9812255780179,-80.84773973467009,South Tybee Sandbars,1,0,0.2775,17,17,"NIGHT_CLEAR,NIGHT_CLEAR,NIGHT_CLEAR,CLEAR","Cross-shore,Onshore,Onshore,Onshore",4
5842041f4e65fad6a7708a61,2024_04_09,32.01226,-80.83983,Sugar Shack,0,0,0.2425,17,17,"NIGHT_CLEAR,NIGHT_CLEAR,NIGHT_CLEAR,CLEAR","Cross-shore,Cross-shore,Cross-shore,Cross-shore",4
5842041f4e65fad6a7708a62,2024_04_09,31.98722842396969,-80.84773,18th St. Jetty,1,0.17670249999999998,0.2761,17,17,"NIGHT_CLEAR,NIGHT_CLEAR,NIGHT_CLEAR,CLEAR","Cross-shore,Cross-shore,Onshore,Onshore",4
5842041f4e65fad6a7708a64,2024_04_09,34.013473721006676,-77.8991,"Alabama Ave., Kure Beach",1.25,0.0025,0.3025,16,16,"NIGHT_CLEAR,NIGHT_CLEAR,NIGHT_CLEAR,CLEAR","Cross-shore,Offshore,Offshore,Offshore",4
5842041f4e65fad6a7708a65,2024_04_09,34.20859853336924,-77.79293,"C Street, Wrightsville Beach",1,0.0025,0.3087,15,14,"NIGHT_CLEAR,NIGHT_CLEAR,NIGHT_CLEAR,CLEAR","Cross-shore,Cross-shore,Cross-shore,Cross-shore",4
5842041f4e65fad6a7708a66,2024_04_09,32.831,-79.71,Dewees Island,1,0,0.2225,17,17,"NIGHT_MIST,NIGHT_MIST,NIGHT_MIST,CLEAR","Cross-shore,Cross-shore,Cross-shore,Cross-shore",4
5842041f4e65fad6a7708a67,2024_04_09,33.82924423172106,-78.62813,Cherry Grove Pier,0,0,0.1675,16,16,"NIGHT_CLEAR,NIGHT_CLEAR,NIGHT_CLEAR,CLEAR","Onshore,Onshore,Onshore,Onshore",4
5842041f4e65fad6a7708a69,2024_04_09,34.27197439666496,-77.74050223196774,Figure Eight and Shell Islands,1,0,0.30620000000000003,15,14,"NIGHT_CLEAR,NIGHT_CLEAR,NIGHT_CLEAR,CLEAR","Cross-shore,Onshore,Onshore,Onshore",4
5842041f4e65fad6a7708a6b,2024_04_09,33.49041958261793,-79.07666070599386,North End,1,0,0.2,17,17,"NIGHT_CLEAR,NIGHT_CLEAR,NIGHT_CLEAR,CLEAR","Cross-shore,Cross-shore,Onshore,Onshore",4
5842041f4e65fad6a7708a6c,2024_04_09,33.39537062495087,-79.13835037835189,The South End,1,0,0.2,17,17,"NIGHT_CLEAR,NIGHT_CLEAR,NIGHT_CLEAR,CLEAR","Cross-shore,Cross-shore,Cross-shore,Cross-shore",4
5842041f4e65fad6a7708a6d,2024_04_09,33.29001727666697,-79.17190003352977,North Island,1,0,0.2725,17,17,"NIGHT_CLEAR,NIGHT_CLEAR,NIGHT_CLEAR,CLEAR","Cross-shore,Cross-shore,Cross-shore,Cross-shore",4
5842041f4e65fad6a7708a6e,2024_04_09,32.90929771158952,-79.57810400297359,Bull Island,1,0,0.23,17,17,"NIGHT_CLEAR,NIGHT_CLEAR,NIGHT_CLEAR,CLEAR","Cross-shore,Cross-shore,Onshore,Onshore",4
5842041f4e65fad6a7708a6f,2024_04_09,31.99153112815895,-80.84543050470074,Tybee Island Pier,0,0,0.1625,17,17,"NIGHT_CLEAR,NIGHT_CLEAR,NIGHT_CLEAR,CLEAR","Onshore,Onshore,Onshore,Onshore",4
5842041f4e65fad6a7708a70,2024_04_09,33.03478144356316,-79.35021028265125,Cape Romain,1,0.015,0.315,17,17,"NIGHT_CLEAR,NIGHT_CLEAR,NIGHT_CLEAR,CLEAR","Cross-shore,Cross-shore,Cross-shore,Cross-shore",4
5842041f4e65fad6a7708a71,2024_04_09,33.43231073271028,-79.11789,The Pier,0,0.13728,0.2145,17,17,"NIGHT_CLEAR,NIGHT_CLEAR,NIGHT_CLEAR,CLEAR","Cross-shore,Cross-shore,Cross-shore,Cross-shore",4
5842041f4e65fad6a7708a72,2024_04_09,33.45423621397969,-79.10497798178424,South Litchfield,1,0,0.22,17,17,"NIGHT_CLEAR,NIGHT_CLEAR,NIGHT_CLEAR,CLEAR","Cross-shore,Cross-shore,Cross-shore,Cross-shore",4
5842041f4e65fad6a7708a73,2024_04_09,34.19316590251396,-77.8045,Crystal Pier,1,0.20955000000000001,0.509675,15,14,"NIGHT_CLEAR,NIGHT_CLEAR,NIGHT_CLEAR,CLEAR","Cross-shore,Cross-shore,Cross-shore,Cross-shore",4
5842041f4e65fad6a7708a74,2024_04_09,33.68628680045124,-78.88346,Myrtle Beach,0.5,0,0.20500000000000002,17,17,"NIGHT_CLEAR,NIGHT_CLEAR,NIGHT_CLEAR,CLEAR","Cross-shore,Cross-shore,Cross-shore,Cross-shore",4
5842041f4e65fad6a7708a75,2024_04_09,32.66166297145973,-79.91951806398808,10th Street,1,0,0.2725,17,17,"NIGHT_MIST,NIGHT_MIST,NIGHT_MIST,CLEAR","Onshore,Cross-shore,Onshore,Onshore",4
5842041f4e65fad6a7708a76,2024_04_09,33.16729555197199,-79.19829236867845,South Island,1,0,0.3025,17,17,"NIGHT_CLEAR,NIGHT_CLEAR,NIGHT_CLEAR,CLEAR","Cross-shore,Cross-shore,Cross-shore,Cross-shore",4
5842041f4e65fad6a7708a77,2024_04_09,32.595,-80.088,Kiawah Island/Seabrook Island,1,0,0.22,17,17,"NIGHT_CLEAR,NIGHT_CLEAR,NIGHT_CLEAR,CLEAR","Onshore,Onshore,Onshore,Onshore",4
5842041f4e65fad6a7708a78,2024_04_09,32.51356930575787,-80.28223,Edisto Beach,1,0.16327999999999998,0.255125,17,17,"NIGHT_CLEAR,NIGHT_CLEAR,NIGHT_CLEAR,MIST","Onshore,Onshore,Onshore,Onshore",4
5842041f4e65fad6a7708a79,2024_04_09,32.366270751262,-80.43911,Hunting Island,1,0.191645,0.2994475,18,18,"NIGHT_CLEAR,NIGHT_CLEAR,NIGHT_CLEAR,CLEAR","Cross-shore,Cross-shore,Onshore,Onshore",4
5842041f4e65fad6a7708a7a,2024_04_09,32.65337734408365,-79.93983,Folly Beach Pier,1,0,0.2075,17,16,"NIGHT_MOSTLY_CLOUDY,NIGHT_CLEAR,NIGHT_CLEAR,CLEAR","Onshore,Onshore,Onshore,Onshore",4
5842041f4e65fad6a7708a7b,2024_04_09,33.41209545530049,-79.13026341393126,South Jetty,1,0,0.2,17,17,"NIGHT_CLEAR,NIGHT_CLEAR,NIGHT_CLEAR,CLEAR","Cross-shore,Cross-shore,Cross-shore,Cross-shore",4
5842041f4e65fad6a7708a7c,2024_04_09,32.31115640606869,-80.48564,Fripp Island,1,0.16762,0.26191,17,17,"NIGHT_CLEAR,NIGHT_CLEAR,NIGHT_CLEAR,CLEAR","Onshore,Onshore,Onshore,Onshore",4
5842041f4e65fad6a7708a7d,2024_04_09,32.14365226036034,-80.74402,Hilton Head Island,0,0,0.0925,17,17,"NIGHT_CLEAR,NIGHT_CLEAR,NIGHT_CLEAR,CLEAR","Onshore,Onshore,Onshore,Onshore",4
5842041f4e65fad6a7708a7e,2024_04_09,29.70405364733744,-81.22426,Matanzas Inlet,1,0.2125,0.5225,19,18,"NIGHT_CLOUDY,NIGHT_CLEAR,NIGHT_CLEAR,NIGHT_CLEAR","Cross-shore,Cross-shore,Onshore,Cross-shore",4
5842041f4e65fad6a7708a81,2024_04_09,29.76878537149042,-81.25109,Crescent Beach,1,0.2375,0.5425,19,19,"NIGHT_CLEAR,NIGHT_CLEAR,NIGHT_CLEAR,NIGHT_MOSTLY_CLEAR","Cross-shore,Cross-shore,Onshore,Onshore",4
5842041f4e65fad6a7708a82,2024_04_09,32.80251718689188,-79.73221919500764,Wild Dunes,0.75,0,0.2625,17,17,"NIGHT_CLEAR,NIGHT_CLEAR,NIGHT_CLEAR,CLEAR","Onshore,Onshore,Onshore,Onshore",4
5842041f4e65fad6a7708a84,2024_04_09,32.75733539419244,-79.83258856064796,Bert's Bar,1,0,0.165,17,17,"NIGHT_CLEAR,NIGHT_CLEAR,NIGHT_CLEAR,CLEAR","Onshore,Onshore,Onshore,Onshore",4
5842041f4e65fad6a7708a85,2024_04_09,32.66829212943039,-79.90735,Washout,1.25,0.1397,0.3835666666666667,17,16,"NIGHT_CLEAR,NIGHT_CLEAR,NIGHT_CLEAR,CLEAR","Onshore,Cross-shore,Onshore,Onshore",4
5842041f4e65fad6a7708a86,2024_04_09,32.78452968219067,-79.78540233488354,The Pier/Windjammer,1,0,0.2475,17,17,"NIGHT_MIST,NIGHT_MIST,NIGHT_CLEAR,CLEAR","Onshore,Onshore,Onshore,Onshore",4
5842041f4e65fad6a7708a87,2024_04_09,29.86618162637438,-81.2662150259608,Anastasia Park (The Entrance),1,0.2375,0.5425,19,19,"NIGHT_CLEAR,NIGHT_CLEAR,NIGHT_CLEAR,NIGHT_MOSTLY_CLEAR","Cross-shore,Cross-shore,Onshore,Onshore",4
5842041f4e65fad6a7708a89,2024_04_09,29.89149785916623,-81.2723223244215,Blowholes,1,0.20500000000000002,0.51,24,22,"NIGHT_CLEAR,NIGHT_CLEAR,NIGHT_CLEAR,NIGHT_CLEAR","Cross-shore,Cross-shore,Onshore,Onshore",4
5842041f4e65fad6a7708a8a,2024_04_09,30.16227112983666,-81.35502907491218,Crossroads,1.5,0.3825,0.6875,24,22,"NIGHT_CLEAR,NIGHT_CLEAR,NIGHT_CLOUDY,NIGHT_CLEAR","Cross-shore,Cross-shore,Cross-shore,Onshore",4
5842041f4e65fad6a7708a8b,2024_04_09,30.19308537587637,-81.36314247820911,Sawgrass,1.5,0.4025,0.705,24,22,"NIGHT_CLEAR,NIGHT_CLEAR,NIGHT_CLOUDY,NIGHT_CLEAR","Cross-shore,Cross-shore,Cross-shore,Onshore",4
5842041f4e65fad6a7708a8c,2024_04_09,30.34696027700899,-81.39451,18th Street,1,0.268005,0.418755,18,18,"NIGHT_CLEAR,NIGHT_CLEAR,NIGHT_CLEAR,NIGHT_MOSTLY_CLOUDY","Cross-shore,Cross-shore,Onshore,Onshore",4
5842041f4e65fad6a7708a8d,2024_04_09,30.381793,-81.39686,Mayport Poles,1.5,0.2925,0.5974999999999999,18,18,"NIGHT_CLEAR,NIGHT_CLEAR,NIGHT_CLOUDY,NIGHT_CLEAR","Onshore,Onshore,Onshore,Onshore",4
5842041f4e65fad6a7708a8e,2024_04_09,30.390516,-81.395591,Blue Roofs,2,0.3275,0.6325000000000001,18,18,"NIGHT_CLEAR,NIGHT_CLEAR,NIGHT_CLOUDY,NIGHT_CLEAR","Onshore,Onshore,Onshore,Onshore",4
5842041f4e65fad6a7708a8f,2024_04_09,30.40517712722211,-81.40074116169004,Huguenot Park (North Jetty),1.5,0.28,0.585,18,18,"NIGHT_CLEAR,NIGHT_CLEAR,NIGHT_CLOUDY,NIGHT_CLEAR","Cross-shore,Onshore,Onshore,Cross-shore",4
5842041f4e65fad6a7708a90,2024_04_09,30.47788918872762,-81.41055821335078,Talbot Island,2,0.5523075,0.713055,19,18,"NIGHT_CLEAR,NIGHT_CLEAR,NIGHT_CLEAR,NIGHT_CLEAR","Onshore,Onshore,Onshore,Onshore",4
5842041f4e65fad6a7708a91,2024_04_09,30.66753984549761,-81.42983,Main Beach,1,0.19,0.495,18,18,"NIGHT_CLEAR,NIGHT_CLEAR,NIGHT_CLEAR,NIGHT_CLEAR","Onshore,Onshore,Onshore,Onshore",4
5842041f4e65fad6a7708a92,2024_04_09,30.69983581209126,-81.42483,Ft. Clinch State Park,1,0.2425,0.5475000000000001,18,18,"NIGHT_CLEAR,NIGHT_CLEAR,NIGHT_CLEAR,NIGHT_CLEAR","Onshore,Onshore,Onshore,Onshore",4
5842041f4e65fad6a7708a93,2024_04_09,30.62059700777582,-81.437252942757425,Amelia Pier,1,0.245,0.55,18,18,"NIGHT_CLEAR,NIGHT_CLEAR,NIGHT_CLEAR,NIGHT_CLEAR","Onshore,Onshore,Onshore,Onshore",4
5842041f4e65fad6a7708a95,2024_04_09,28.95125170929067,-80.83837,Bethune Beach,1,0.385,0.69,21,21,"NIGHT_CLOUDY,NIGHT_CLEAR,NIGHT_CLOUDY,NIGHT_CLOUDY","Onshore,Onshore,Onshore,Onshore",4
5842041f4e65fad6a7708a96,2024_04_09,29.03874288905362,-80.8933424949646,Flagler Ave.,1,0.335,0.64,24,22,"NIGHT_CLOUDY,NIGHT_CLEAR,NIGHT_MOSTLY_CLOUDY,NIGHT_CLOUDY","Onshore,Onshore,Onshore,Onshore",4
5842041f4e65fad6a7708a98,2024_04_09,30.332297686992757,-81.39319,Atlantic Beach,1,0.248805,0.38876,18,18,"NIGHT_CLEAR,NIGHT_CLEAR,NIGHT_CLEAR,NIGHT_MOSTLY_CLOUDY","Cross-shore,Cross-shore,Onshore,Cross-shore",4
5842041f4e65fad6a7708a99,2024_04_09,29.87530059952514,-81.26757958498874,Middles,1,0.225,0.5325,24,22,"NIGHT_CLEAR,NIGHT_CLEAR,NIGHT_CLEAR,NIGHT_CLEAR","Cross-shore,Cross-shore,Onshore,Onshore",4
5842041f4e65fad6a7708a9a,2024_04_09,29.146475528378218,-80.96347,Sunglow Pier,1,0.315,0.62,21,21,"NIGHT_CLEAR,NIGHT_CLEAR,NIGHT_MOSTLY_CLOUDY,NIGHT_CLOUDY","Onshore,Onshore,Onshore,Onshore",4
5842041f4e65fad6a7708a9b,2024_04_09,30.02251238001095,-81.32183077344881,Gate Station,1,0.2025,0.5075000000000001,24,22,"NIGHT_CLEAR,NIGHT_CLEAR,NIGHT_CLEAR,NIGHT_CLEAR","Cross-shore,Cross-shore,Onshore,Onshore",4
5842041f4e65fad6a7708a9c,2024_04_09,29.33976495417899,-81.0606,Bicentennial Park,1,0.325,0.63,20,20,"NIGHT_CLEAR,NIGHT_CLEAR,NIGHT_MOSTLY_CLEAR,NIGHT_MOSTLY_CLOUDY","Onshore,Onshore,Onshore,Cross-shore",4
5842041f4e65fad6a7708a9d,2024_04_09,29.08257353385602,-80.92137,Ponce Inlet,1,0.5025,0.8075,20,19,"NIGHT_CLEAR,NIGHT_CLOUDY,NIGHT_MOSTLY_CLOUDY,NIGHT_OVERCAST","Cross-shore,Cross-shore,Onshore,Cross-shore",4
5842041f4e65fad6a7708a9f,2024_04_09,27.862962005874696,-80.44668,Sebastian Inlet,1,0.7539775,0.9114,24,23,"NIGHT_MOSTLY_CLOUDY,NIGHT_MOSTLY_CLOUDY,NIGHT_MOSTLY_CLOUDY,NIGHT_CLOUDY","Onshore,Onshore,Onshore,Onshore",4
5842041f4e65fad6a7708aa0,2024_04_09,30.292626880836885,-81.38579,Jacksonville Beach Pier,3,0.3375,0.6375,19,18,"NIGHT_CLEAR,NIGHT_CLEAR,NIGHT_CLEAR,NIGHT_MOSTLY_CLOUDY","Cross-shore,Cross-shore,Cross-shore,Onshore",4
5842041f4e65fad6a7708aa1,2024_04_09,29.22878213864532,-81.00551,Main Street North,1.25,0.50779,0.67734,20,20,"NIGHT_CLEAR,NIGHT_CLEAR,NIGHT_MOSTLY_CLOUDY,NIGHT_CLEAR","Onshore,Onshore,Cross-shore,Offshore",4
5842041f4e65fad6a7708aa2,2024_04_09,29.21860397328164,-81.0019,Daytona Beach,1.25,0.325,0.63,20,20,"NIGHT_CLEAR,NIGHT_CLEAR,NIGHT_MOSTLY_CLOUDY,NIGHT_CLEAR","Onshore,Cross-shore,Cross-shore,Offshore",4
5842041f4e65fad6a7708aa3,2024_04_09,27.47531255634912,-80.28914,Ft. Pierce Inlet,1.75,0.51,0.815,24,23,"NIGHT_OVERCAST,NIGHT_MOSTLY_CLOUDY,NIGHT_MOSTLY_CLOUDY,NIGHT_OVERCAST","Onshore,Onshore,Cross-shore,Onshore",4
5842041f4e65fad6a7708aa4,2024_04_09,29.29239875585548,-81.0386,Ormond Beach,1,0.365,0.67,20,20,"NIGHT_CLEAR,NIGHT_CLEAR,NIGHT_MOSTLY_CLOUDY,NIGHT_CLEAR","Onshore,Onshore,Onshore,Onshore",4
5842041f4e65fad6a7708aa5,2024_04_09,29.91629441498523,-81.28801,Vilano,1,0.20500000000000002,0.5075000000000001,19,19,"NIGHT_CLEAR,NIGHT_CLEAR,NIGHT_MOSTLY_CLOUDY,NIGHT_CLEAR","Cross-shore,Cross-shore,Onshore,Onshore",4
5842041f4e65fad6a7708aa6,2024_04_09,27.876230736320828,-80.4551,Spanish House,1,0.68,0.9824999999999999,24,23,"NIGHT_MOSTLY_CLOUDY,NIGHT_MOSTLY_CLOUDY,NIGHT_CLEAR,NIGHT_CLOUDY","Onshore,Onshore,Onshore,Onshore",4
5842041f4e65fad6a7708aa7,2024_04_09,28.64397251741012,-80.62328519781694,Playalinda,1,0.485,0.7875000000000001,22,22,"NIGHT_CLEAR,NIGHT_CLOUDY,NIGHT_MOSTLY_CLOUDY,NIGHT_MOSTLY_CLOUDY","Onshore,Onshore,Onshore,Onshore",4
5842041f4e65fad6a7708aa8,2024_04_09,28.406142,-80.588858,Jetty Park,2,0.3425,0.65,22,22,"NIGHT_MOSTLY_CLOUDY,NIGHT_CLOUDY,NIGHT_MOSTLY_CLOUDY,NIGHT_MOSTLY_CLOUDY","Onshore,Onshore,Onshore,Onshore",4
5842041f4e65fad6a7708aa9,2024_04_09,28.49083243010974,-80.58001715986319,Kennedy Space Center,1,0.495,0.7975,22,22,"NIGHT_MOSTLY_CLOUDY,NIGHT_CLOUDY,NIGHT_CLEAR,NIGHT_MOSTLY_CLOUDY","Onshore,Onshore,Onshore,Onshore",4
5842041f4e65fad6a7708aab,2024_04_09,28.336757013024314,-80.60568,Lori Wilson Park,1,0.4325,0.735,24,23,"NIGHT_MOSTLY_CLOUDY,NIGHT_CLOUDY,NIGHT_MOSTLY_CLOUDY,NIGHT_CLEAR","Onshore,Onshore,Onshore,Onshore",4
5842041f4e65fad6a7708aad,2024_04_09,27.76388821683801,-80.3962958234027,Wabasso,1,0.59,0.8925000000000001,23,23,"NIGHT_MOSTLY_CLOUDY,NIGHT_CLEAR,NIGHT_MOSTLY_CLOUDY,NIGHT_OVERCAST","Onshore,Onshore,Onshore,Onshore",4
5842041f4e65fad6a7708aae,2024_04_09,27.521583322459,-80.30987620353699,P.V. Martin's,1,0.6575,0.9625,24,23,"NIGHT_OVERCAST,NIGHT_MOSTLY_CLOUDY,NIGHT_CLEAR,NIGHT_OVERCAST","Onshore,Onshore,Onshore,Onshore",4
5842041f4e65fad6a7708aaf,2024_04_09,27.644996047720046,-80.35242676734924,Riomar,1,0.6375,0.9425,24,23,"NIGHT_MOSTLY_CLOUDY,NIGHT_MOSTLY_CLOUDY,NIGHT_CLEAR,NIGHT_CLOUDY","Onshore,Onshore,Onshore,Onshore",4
5842041f4e65fad6a7708ab1,2024_04_09,27.670121806659253,-80.36026954650879,Vero Pier,1,0.7175,1.0225,24,23,"NIGHT_MOSTLY_CLOUDY,NIGHT_MOSTLY_CLOUDY,NIGHT_MOSTLY_CLOUDY,NIGHT_OVERCAST","Onshore,Onshore,Onshore,Onshore",4
5842041f4e65fad6a7708ab2,2024_04_09,28.047705032021486,-80.54680109024048,Spessard Holland,1,0.7230675,0.972085,24,23,"NIGHT_CLEAR,NIGHT_MOSTLY_CLOUDY,NIGHT_CLEAR,NIGHT_CLEAR","Cross-shore,Cross-shore,Cross-shore,Cross-shore",4
5842041f4e65fad6a7708ab7,2024_04_09,28.135426226217064,-80.57895541191101,The Radisson,1,0.6125,0.915,24,23,"NIGHT_CLEAR,NIGHT_MOSTLY_CLOUDY,NIGHT_OVERCAST,NIGHT_CLEAR","Onshore,Onshore,Onshore,Onshore",4
5842041f4e65fad6a7708ab8,2024_04_09,28.26664623907351,-80.60448467731476,Picnic Tables,1,0.625,0.9275,22,22,"NIGHT_MOSTLY_CLOUDY,NIGHT_OVERCAST,NIGHT_CLOUDY,NIGHT_CLEAR","Onshore,Onshore,Onshore,Onshore",4
5842041f4e65fad6a7708ab9,2024_04_09,28.200840983180232,-80.59493,Perkins,1,0.575,0.8825000000000001,24,23,"NIGHT_CLEAR,NIGHT_OVERCAST,NIGHT_CLEAR,NIGHT_CLEAR","Onshore,Onshore,Onshore,Onshore",4
5842041f4e65fad6a7708aba,2024_04_09,28.185652556759443,-80.59154,RC's,2,0.605,0.9125000000000001,24,23,"NIGHT_MOSTLY_CLOUDY,NIGHT_MOSTLY_CLOUDY,NIGHT_CLEAR,NIGHT_CLEAR","Onshore,Onshore,Onshore,Onshore",4
5842041f4e65fad6a7708abc,2024_04_09,28.252541991968208,-80.60269,2nd Light,1,0.615,0.9175,22,22,"NIGHT_MOSTLY_CLOUDY,NIGHT_OVERCAST,NIGHT_CLOUDY,NIGHT_CLEAR","Onshore,Onshore,Onshore,Onshore",4
5842041f4e65fad6a7708abd,2024_04_09,27.901611308716447,-80.4697,Bonsteel Park,1,0.6925,0.995,24,23,"NIGHT_MOSTLY_CLOUDY,NIGHT_MOSTLY_CLOUDY,NIGHT_MOSTLY_CLOUDY,NIGHT_CLOUDY","Onshore,Onshore,Onshore,Onshore",4
5842041f4e65fad6a7708abe,2024_04_09,28.2423394657007,-80.60104,Hangar's Beach,1,0.605,0.91,24,23,"NIGHT_MOSTLY_CLOUDY,NIGHT_CLOUDY,NIGHT_CLEAR,NIGHT_CLEAR","Onshore,Onshore,Onshore,Onshore",4
5842041f4e65fad6a7708abf,2024_04_09,27.34018197146798,-80.23278,Walton Rocks,1,0.6424000000000001,0.9866999999999999,24,23,"NIGHT_CLOUDY,NIGHT_CLEAR,NIGHT_SHOWERS,NIGHT_MOSTLY_CLOUDY","Onshore,Onshore,Onshore,Onshore",4
5842041f4e65fad6a7708ac0,2024_04_09,25.80407401902198,-80.1222227290161,30th Street,1,0.3025,0.6074999999999999,25,25,"NIGHT_BRIEF_SHOWERS,NIGHT_MOSTLY_CLOUDY,NIGHT_BRIEF_SHOWERS,NIGHT_MOSTLY_CLOUDY","Onshore,Onshore,Onshore,Onshore",4
5842041f4e65fad6a7708ac1,2024_04_09,25.76570280215999,-80.12983,South Beach,1,0.5249,0.8286,26,24,"NIGHT_MOSTLY_CLOUDY,NIGHT_MOSTLY_CLOUDY,NIGHT_CLEAR,NIGHT_MOSTLY_CLOUDY","Onshore,Onshore,Onshore,Onshore",4
5842041f4e65fad6a7708ac2,2024_04_09,26.058022412197,-80.10873562327671,Dania Pier,1,0.28,0.5825,24,24,"NIGHT_CLEAR,NIGHT_SHOWERS,NIGHT_CLEAR,NIGHT_CLEAR","Onshore,Onshore,Onshore,Onshore",4
5842041f4e65fad6a7708ac3,2024_04_09,26.04825428257198,-80.11153150137932,Franklin Street,1,0.4125,0.7124999999999999,24,24,"NIGHT_CLEAR,NIGHT_SHOWERS,NIGHT_CLEAR,NIGHT_CLEAR","Onshore,Onshore,Onshore,Onshore",4
5842041f4e65fad6a7708ac4,2024_04_09,26.09086461141498,-80.10728410144065,John Lloyd State Park,1,0.41,0.7124999999999999,24,24,"NIGHT_MOSTLY_CLOUDY,NIGHT_MOSTLY_CLOUDY,NIGHT_CLEAR,NIGHT_CLEAR","Onshore,Onshore,Onshore,Onshore",4
5842041f4e65fad6a7708ac5,2024_04_09,26.0971397396683,-80.10298876028907,Spoils,0,0.26,0.565,24,24,"NIGHT_MOSTLY_CLOUDY,NIGHT_MOSTLY_CLOUDY,NIGHT_CLEAR,NIGHT_CLEAR","Onshore,Onshore,Onshore,Onshore",4
5842041f4e65fad6a7708ac6,2024_04_09,26.18920557475824,-80.09224470008016,Commercial Pier,1,0.315,0.62,24,24,"NIGHT_MOSTLY_CLOUDY,NIGHT_MOSTLY_CLOUDY,NIGHT_CLEAR,NIGHT_CLEAR","Onshore,Onshore,Onshore,Onshore",4
5842041f4e65fad6a7708ac7,2024_04_09,28.289851576629342,-80.6063,16th St. South,1,0.48,0.785,24,23,"NIGHT_MOSTLY_CLOUDY,NIGHT_CLEAR,NIGHT_CLOUDY,NIGHT_CLEAR","Onshore,Onshore,Onshore,Onshore",4
5842041f4e65fad6a7708ac8,2024_04_09,26.23467460139735,-80.0874,Pompano Pier,1,0.4749,0.7811,26,24,"NIGHT_MOSTLY_CLOUDY,NIGHT_MOSTLY_CLOUDY,NIGHT_MOSTLY_CLOUDY,NIGHT_MOSTLY_CLOUDY","Onshore,Onshore,Onshore,Onshore",4
5842041f4e65fad6a7708acb,2024_04_09,26.44179551370651,-80.05928855229453,Atlantic Dunes Park,0.75,0.4143075,0.6205025,26,24,"NIGHT_BRIEF_SHOWERS,NIGHT_MOSTLY_CLOUDY,NIGHT_MOSTLY_CLOUDY,NIGHT_MOSTLY_CLOUDY","Onshore,Onshore,Onshore,Onshore",4
5842041f4e65fad6a7708acd,2024_04_09,26.62215707439298,-80.03599398392342,Hilton Hotel Backyard,1,0.5899,0.9317,26,24,"NIGHT_MOSTLY_CLOUDY,NIGHT_MOSTLY_CLOUDY,NIGHT_MOSTLY_CLOUDY,NIGHT_MOSTLY_CLOUDY","Onshore,Onshore,Onshore,Onshore",4
5842041f4e65fad6a7708ace,2024_04_09,26.96418190555367,-80.07769168113562,Coral Cove Park,1,0.6861999999999999,0.978,24,23,"NIGHT_OVERCAST,NIGHT_MOSTLY_CLOUDY,NIGHT_MOSTLY_CLOUDY,NIGHT_MOSTLY_CLOUDY","Onshore,Onshore,Onshore,Onshore",4
5842041f4e65fad6a7708acf,2024_04_09,26.7029496416037,-80.0318372872607,Palm Beach,1.25,0.6424000000000001,0.9866999999999999,26,24,"NIGHT_MOSTLY_CLOUDY,NIGHT_MOSTLY_CLOUDY,NIGHT_MOSTLY_CLOUDY,NIGHT_MOSTLY_CLOUDY","Onshore,Onshore,Onshore,Onshore",4
5842041f4e65fad6a7708ad0,2024_04_09,26.97679878167375,-80.08141631388132,Blowing Rocks,1,0.6387,0.9805,24,23,"NIGHT_OVERCAST,NIGHT_CLEAR,NIGHT_MOSTLY_CLOUDY,NIGHT_MOSTLY_CLOUDY","Onshore,Onshore,Onshore,Onshore",4
5842041f4e65fad6a7708ad2,2024_04_09,26.45661880078336,-80.057,Delray Beach,1,0.4674,0.7686,26,24,"NIGHT_BRIEF_SHOWERS,NIGHT_MOSTLY_CLOUDY,NIGHT_MOSTLY_CLOUDY,NIGHT_MOSTLY_CLOUDY","Onshore,Onshore,Onshore,Onshore",4
5842041f4e65fad6a7708ad3,2024_04_09,27.205685534312778,-80.16826629638672,Fletcher's,1,0.5887,0.933,24,23,"NIGHT_OVERCAST,NIGHT_MOSTLY_CLOUDY,NIGHT_CLEAR,NIGHT_MOSTLY_CLOUDY","Onshore,Onshore,Cross-shore,Onshore",4
5842041f4e65fad6a7708ad5,2024_04_09,26.5848450388814,-80.03649735753257,Lantana Public Beach,1,0.61240000000000006,0.9592,26,24,"NIGHT_MOSTLY_CLOUDY,NIGHT_MOSTLY_CLOUDY,NIGHT_MOSTLY_CLOUDY,NIGHT_MOSTLY_CLOUDY","Onshore,Onshore,Onshore,Onshore",4
5842041f4e65fad6a7708ad6,2024_04_09,25.77468432731322,-80.12884045797499,5th Street,1,0.35,0.655,25,25,"NIGHT_BRIEF_SHOWERS,NIGHT_MOSTLY_CLOUDY,NIGHT_MOSTLY_CLOUDY,NIGHT_MOSTLY_CLOUDY","Onshore,Onshore,Onshore,Onshore",4
5842041f4e65fad6a7708ad7,2024_04_09,25.795157990715975,-80.12527585029602,21st Street,1,0.2675,0.5725,25,25,"NIGHT_BRIEF_SHOWERS,NIGHT_MOSTLY_CLOUDY,NIGHT_MOSTLY_CLOUDY,NIGHT_MOSTLY_CLOUDY","Onshore,Onshore,Onshore,Onshore",4
5842041f4e65fad6a7708ad8,2024_04_09,25.897806453088073,-80.1211827993393,Haulover Inlet (South Jetty),1,0.28,0.58,24,24,"NIGHT_MOSTLY_CLOUDY,NIGHT_MOSTLY_CLOUDY,NIGHT_BRIEF_SHOWERS,NIGHT_MOSTLY_CLOUDY","Onshore,Onshore,Onshore,Onshore",4
5842041f4e65fad6a7708ad9,2024_04_09,25.90147392328634,-80.12110769748688,Haulover Inlet (North Jetty),1,0.38,0.69,24,24,"NIGHT_MOSTLY_CLOUDY,NIGHT_MOSTLY_CLOUDY,NIGHT_BRIEF_SHOWERS,NIGHT_MOSTLY_CLOUDY","Onshore,Onshore,Onshore,Onshore",4
5842041f4e65fad6a7708ada,2024_04_09,25.87049374242476,-80.11828560342356,85th Street,1,0.2975,0.6,25,25,"NIGHT_MOSTLY_CLOUDY,NIGHT_MOSTLY_CLOUDY,NIGHT_SHOWERS,NIGHT_MOSTLY_CLOUDY","Onshore,Onshore,Onshore,Onshore",4
5842041f4e65fad6a7708adb,2024_04_09,26.25486382031396,-80.0805,Hillsboro Inlet,1,0.622945,1.00669,28,27,"NIGHT_BRIEF_SHOWERS,NIGHT_MOSTLY_CLOUDY,NIGHT_MOSTLY_CLOUDY,NIGHT_CLEAR","Onshore,Onshore,Onshore,Onshore",4
5842041f4e65fad6a7708add,2024_04_09,26.29705672965111,-80.07612393274484,Hillsboro Beach,1,0.2962,0.6024,28,27,"NIGHT_MOSTLY_CLOUDY,NIGHT_MOSTLY_CLOUDY,NIGHT_MOSTLY_CLOUDY,NIGHT_CLEAR","Onshore,Onshore,Onshore,Onshore",4
5842041f4e65fad6a7708ade,2024_04_09,26.36569956413266,-80.06717936869391,Red Reef Park,1,0.3962,0.6999,26,24,"NIGHT_CLEAR,NIGHT_CLEAR,NIGHT_MOSTLY_CLOUDY,NIGHT_MOSTLY_CLOUDY","Onshore,Onshore,Onshore,Onshore",4
5842041f4e65fad6a7708adf,2024_04_09,26.54593873498907,-80.04104359585143,Boynton Beach Inlet (Northside),1,0.4299,0.7692,26,24,"NIGHT_MOSTLY_CLOUDY,NIGHT_MOSTLY_CLOUDY,NIGHT_CLEAR,NIGHT_MOSTLY_CLOUDY","Onshore,Onshore,Onshore,Onshore",4
5842041f4e65fad6a7708ae0,2024_04_09,26.92746505629809,-80.06721138954163,Corners,1,0.7534425,1.0058325,26,24,"NIGHT_OVERCAST,NIGHT_CLEAR,NIGHT_MOSTLY_CLOUDY,NIGHT_MOSTLY_CLOUDY","Onshore,Onshore,Onshore,Onshore",4
5842041f4e65fad6a7708ae1,2024_04_09,26.76983179886943,-80.03413481937037,The Cove,1,0.6324000000000001,0.9767,26,24,"NIGHT_MOSTLY_CLOUDY,NIGHT_MOSTLY_CLOUDY,NIGHT_MOSTLY_CLOUDY,NIGHT_BRIEF_SHOWERS","Onshore,Onshore,Onshore,Onshore",4
5842041f4e65fad6a7708ae3,2024_04_09,26.39224485175123,-80.0650461233983,Japanese Rock,1,0.36870000000000003,0.6698999999999999,26,24,"NIGHT_MOSTLY_CLOUDY,NIGHT_MOSTLY_CLOUDY,NIGHT_MOSTLY_CLOUDY,NIGHT_MOSTLY_CLOUDY","Onshore,Onshore,Onshore,Onshore",4
5842041f4e65fad6a7708ae4,2024_04_09,29.94810928551321,-85.42545434612366,Mexico Beach,2,0.1,0.4075,20,20,"NIGHT_CLEAR,NIGHT_CLEAR,NIGHT_CLEAR,NIGHT_CLEAR","Offshore,Offshore,Offshore,Offshore",4
5842041f4e65fad6a7708ae5,2024_04_09,30.11752500931267,-85.7306039427457,Shell Island,1.75,0.2025,0.51,20,20,"NIGHT_CLEAR,NIGHT_CLEAR,NIGHT_CLEAR,NIGHT_CLEAR","Offshore,Offshore,Offshore,Cross-shore",4
5842041f4e65fad6a7708ae7,2024_04_09,29.94901514702268,-85.43042978529013,D.J.'s,2,0.1,0.4075,20,20,"NIGHT_CLEAR,NIGHT_CLEAR,NIGHT_CLEAR,NIGHT_CLEAR","Offshore,Cross-shore,Offshore,Offshore",4
5842041f4e65fad6a7708ae8,2024_04_09,30.12396111446713,-85.73636797034509,St. Andrew's Park,2,0.2025,0.51,19,18,"NIGHT_CLEAR,NIGHT_CLEAR,NIGHT_CLEAR,NIGHT_CLEAR","Offshore,Offshore,Offshore,Offshore",4
5842041f4e65fad6a7708ae9,2024_04_09,30.16781531760227,-85.79604918824084,Spinnaker,2,0.3275,0.63,19,18,"NIGHT_CLEAR,NIGHT_CLEAR,NIGHT_CLEAR,NIGHT_CLEAR","Cross-shore,Cross-shore,Cross-shore,Cross-shore",4
5842041f4e65fad6a7708aea,2024_04_09,30.18877050526983,-85.83243530466363,Wood Pier,2,0.345,0.6475,19,18,"NIGHT_CLEAR,NIGHT_CLEAR,NIGHT_CLEAR,NIGHT_CLEAR","Offshore,Offshore,Offshore,Offshore",4
5842041f4e65fad6a7708aeb,2024_04_09,30.2676205895555,-85.9938578144113,Inlet Beach Pier,2,0.4075,0.715,19,18,"NIGHT_CLEAR,NIGHT_CLEAR,NIGHT_CLEAR,NIGHT_CLEAR","Offshore,Offshore,Offshore,Offshore",4
5842041f4e65fad6a7708aec,2024_04_09,30.31815542759119,-86.1383771867044,Bud and Alley's,2,0.43,0.735,19,18,"NIGHT_CLEAR,NIGHT_CLEAR,NIGHT_CLEAR,NIGHT_CLEAR","Cross-shore,Cross-shore,Cross-shore,Offshore",4
5842041f4e65fad6a7708aed,2024_04_09,30.32686082481946,-86.16650590275447,Grayton Beach,2,0.46749999999999997,0.775,19,18,"NIGHT_CLEAR,NIGHT_CLEAR,NIGHT_CLEAR,NIGHT_CLEAR","Cross-shore,Cross-shore,Cross-shore,Offshore",4
5842041f4e65fad6a7708aee,2024_04_09,30.33661488976303,-86.20094370184573,Blue Mountain Beach,1.5,0.45,0.7525,19,18,"NIGHT_CLEAR,NIGHT_CLEAR,NIGHT_CLEAR,NIGHT_CLEAR","Cross-shore,Cross-shore,Cross-shore,Offshore",4
5842041f4e65fad6a7708aef,2024_04_09,30.37677202831587,-86.38513326644897,Pompano Joe's,2,0.5925,0.9,19,18,"NIGHT_CLEAR,NIGHT_CLEAR,NIGHT_CLEAR,NIGHT_CLEAR","Offshore,Cross-shore,Cross-shore,Offshore",4
5842041f4e65fad6a7708af0,2024_04_09,30.37429731725911,-86.36686966905461,Seascape,2,0.4825,0.7875000000000001,19,18,"NIGHT_CLEAR,NIGHT_CLEAR,NIGHT_CLEAR,NIGHT_CLEAR","Offshore,Cross-shore,Cross-shore,Offshore",4
5842041f4e65fad6a7708af1,2024_04_09,30.382815988547186,-86.45838975906372,The Back Porch,1.5,0.61,0.92,19,18,"NIGHT_CLEAR,NIGHT_CLEAR,NIGHT_CLEAR,NIGHT_CLEAR","Cross-shore,Cross-shore,Cross-shore,Cross-shore",4
5842041f4e65fad6a7708af2,2024_04_09,30.21207176798612,-85.87989730830542,Panama City Pier,2,0.365,0.6725,19,18,"NIGHT_CLEAR,NIGHT_CLEAR,NIGHT_CLEAR,NIGHT_CLEAR","Offshore,Offshore,Offshore,Offshore",4
5842041f4e65fad6a7708af3,2024_04_09,30.37521499110326,-86.37169944119874,Whale's Tail,2,0.565,0.8725,19,18,"NIGHT_CLEAR,NIGHT_CLEAR,NIGHT_CLEAR,NIGHT_CLEAR","Offshore,Cross-shore,Offshore,Offshore",4
5842041f4e65fad6a7708af4,2024_04_09,30.38120596658251,-86.43045768307817,Old Crystal Pier,1.5,0.5525,0.8525,19,18,"NIGHT_CLEAR,NIGHT_CLEAR,NIGHT_CLEAR,NIGHT_CLEAR","Cross-shore,Cross-shore,Cross-shore,Cross-shore",4
5842041f4e65fad6a7708af5,2024_04_09,30.38090573159031,-86.50654862060082,Jetty East,1.5,0.5925,0.8975,19,18,"NIGHT_CLEAR,NIGHT_CLEAR,NIGHT_CLEAR,NIGHT_CLEAR","Cross-shore,Cross-shore,Cross-shore,Cross-shore",4
5842041f4e65fad6a7708af6,2024_04_09,30.37584509640838,-86.50563273884252,HMO's,1.5,0.5975,0.9,19,18,"NIGHT_CLEAR,NIGHT_CLEAR,NIGHT_CLEAR,NIGHT_CLEAR","Cross-shore,Cross-shore,Cross-shore,Cross-shore",4
5842041f4e65fad6a7708af7,2024_04_09,30.38124006131522,-86.50052254675529,Two By Fours,1,0.6025,0.9075,19,18,"NIGHT_CLEAR,NIGHT_CLEAR,NIGHT_CLEAR,NIGHT_CLEAR","Cross-shore,Cross-shore,Cross-shore,Cross-shore",4
5842041f4e65fad6a7708af8,2024_04_09,30.38250751017554,-86.45775957227345,The Pumphouse,1.5,0.6275,0.9325,19,18,"NIGHT_CLEAR,NIGHT_CLEAR,NIGHT_CLEAR,NIGHT_CLEAR","Cross-shore,Cross-shore,Cross-shore,Cross-shore",4
5842041f4e65fad6a7708af9,2024_04_09,30.38655981578935,-86.52475380603576,NCO Club,1.25,0.5975,0.9,19,18,"NIGHT_CLEAR,NIGHT_CLEAR,NIGHT_CLEAR,NIGHT_CLEAR","Cross-shore,Cross-shore,Cross-shore,Cross-shore",4
5842041f4e65fad6a7708afa,2024_04_09,30.39024516541047,-86.59341,Okaloosa Pier,1.5,0.585,0.89,19,18,"NIGHT_CLEAR,NIGHT_CLEAR,NIGHT_CLEAR,NIGHT_CLEAR","Cross-shore,Cross-shore,Cross-shore,Cross-shore",4
5842041f4e65fad6a7708afb,2024_04_09,30.39281125722673,-86.59766184693287,Dead Man's,1,0.635,0.94,19,18,"NIGHT_CLEAR,NIGHT_CLEAR,NIGHT_CLEAR,NIGHT_CLEAR","Cross-shore,Cross-shore,Cross-shore,Cross-shore",4
5842041f4e65fad6a7708afc,2024_04_09,30.32703176167034,-87.14196,Pensacola Pier,1.25,0.8975,1.205,19,19,"NIGHT_CLEAR,NIGHT_CLEAR,NIGHT_CLEAR,NIGHT_CLEAR","Cross-shore,Onshore,Onshore,Onshore",4
5842041f4e65fad6a7708afd,2024_04_09,30.37920054094992,-86.85583,Navarre Beach,1.25,0.638115,0.9970525,19,18,"NIGHT_CLEAR,NIGHT_CLEAR,NIGHT_CLEAR,NIGHT_CLEAR","Offshore,Offshore,Cross-shore,Offshore",4
5842041f4e65fad6a7708afe,2024_04_09,30.39491626029151,-86.61248004999744,Blue Horizon Motel,1,0.6225,0.9299999999999999,19,18,"NIGHT_CLEAR,NIGHT_CLEAR,NIGHT_CLEAR,NIGHT_CLEAR","Cross-shore,Cross-shore,Cross-shore,Cross-shore",4
5842041f4e65fad6a7708aff,2024_04_09,30.29345899260828,-87.43546812169637,First Parking Lot,2,0.8825000000000001,1.1875,19,19,"NIGHT_CLEAR,NIGHT_CLEAR,NIGHT_OVERCAST,NIGHT_OVERCAST","Cross-shore,Cross-shore,Cross-shore,Cross-shore",4
5842041f4e65fad6a7708b00,2024_04_09,30.29767401311303,-87.41361598257893,Johnsons Beach,1.25,0.9025000000000001,1.2075,19,19,"NIGHT_CLEAR,NIGHT_CLEAR,NIGHT_OVERCAST,NIGHT_OVERCAST","Cross-shore,Cross-shore,Cross-shore,Cross-shore",4
5842041f4e65fad6a7708b01,2024_04_09,30.29513397370759,-87.42642359089679,Sandy Key,2,0.885,1.19,19,19,"NIGHT_CLEAR,NIGHT_CLEAR,NIGHT_OVERCAST,NIGHT_OVERCAST","Cross-shore,Cross-shore,Cross-shore,Cross-shore",4
5842041f4e65fad6a7708b03,2024_04_09,30.377504907388026,-86.86444,Navarre Pier,1.25,0.53,0.8375,19,18,"NIGHT_CLEAR,NIGHT_CLEAR,NIGHT_CLEAR,NIGHT_CLEAR","Cross-shore,Offshore,Cross-shore,Offshore",4
5842041f4e65fad6a7708b04,2024_04_09,30.31482647791307,-87.26163894669438,Pickens Point Dunes,1.25,0.925,1.225,19,19,"NIGHT_CLEAR,NIGHT_CLEAR,NIGHT_CLOUDY,NIGHT_CLOUDY","Cross-shore,Cross-shore,Cross-shore,Cross-shore",4
5842041f4e65fad6a7708b05,2024_04_09,30.32632110836516,-87.16019503253068,Slabs,1,0.8225,1.1325,19,19,"NIGHT_CLEAR,NIGHT_CLEAR,NIGHT_CLEAR,NIGHT_CLEAR","Onshore,Onshore,Onshore,Onshore",4
5842041f4e65fad6a7708b06,2024_04_09,30.32739721382043,-87.30406515493348,Pickens Point,2,0.91,1.22,19,19,"NIGHT_CLEAR,NIGHT_CLEAR,NIGHT_MIST,NIGHT_CLOUDY","Offshore,Offshore,Offshore,Offshore",4
5842041f4e65fad6a7708b07,2024_04_09,30.27406893266753,-87.5436749948929,Bungalows,1,0.9475,1.25,19,19,"NIGHT_CLEAR,NIGHT_CLEAR,NIGHT_OVERCAST,NIGHT_OVERCAST","Onshore,Onshore,Onshore,Cross-shore",4
5842041f4e65fad6a7708b08,2024_04_09,27.99627311846992,-82.82942,880,0,0,0,22,22,"NIGHT_CLEAR,NIGHT_CLEAR,NIGHT_CLEAR,NIGHT_CLEAR","Offshore,Offshore,Offshore,Offshore",4
5842041f4e65fad6a7708b09,2024_04_09,27.97779860371595,-82.83246509090527,Pier 60,1,0,0.26,22,22,"NIGHT_CLEAR,NIGHT_CLEAR,NIGHT_CLEAR,NIGHT_CLEAR","Offshore,Offshore,Offshore,Offshore",4
5842041f4e65fad6a7708b0a,2024_04_09,27.96296387618043,-82.8332635965418,Sand Key,1,0,0.225,22,22,"NIGHT_CLEAR,NIGHT_CLEAR,NIGHT_CLEAR,NIGHT_CLEAR","Offshore,Offshore,Offshore,Offshore",4
5842041f4e65fad6a7708b0b,2024_04_09,27.92492619212885,-82.8449122845279,Belleair,1,0,0.2225,22,22,"NIGHT_CLEAR,NIGHT_CLEAR,NIGHT_CLEAR,NIGHT_CLEAR","Offshore,Offshore,Offshore,Offshore",4
5842041f4e65fad6a7708b0c,2024_04_09,27.882,-82.854,Indian Rocks Beach,1,0,0.25,22,22,"NIGHT_CLEAR,NIGHT_CLEAR,NIGHT_CLEAR,NIGHT_CLEAR","Offshore,Offshore,Offshore,Offshore",4
5842041f4e65fad6a7708b0d,2024_04_09,27.83106104966094,-82.83550218771384,Redington Breakwater,1,0,0.21,22,22,"NIGHT_CLEAR,NIGHT_CLEAR,NIGHT_CLEAR,NIGHT_CLEAR","Offshore,Offshore,Offshore,Offshore",4
5842041f4e65fad6a7708b0e,2024_04_09,27.74369029906206,-82.76053473435867,Middle Jetty,1,0,0.2325,22,22,"NIGHT_CLEAR,NIGHT_CLEAR,NIGHT_CLEAR,NIGHT_CLEAR","Offshore,Offshore,Offshore,Offshore",4
5842041f4e65fad6a7708b0f,2024_04_09,27.82174178852146,-82.83148664631841,Redington Pier,0.25,0,0.20500000000000002,22,22,"NIGHT_CLEAR,NIGHT_CLEAR,NIGHT_CLEAR,NIGHT_CLEAR","Offshore,Offshore,Offshore,Offshore",4
5842041f4e65fad6a7708b10,2024_04_09,27.31496308261514,-82.5830466912004,Lido Beach,0.5,0,0.16,23,23,"NIGHT_CLEAR,NIGHT_CLEAR,NIGHT_CLEAR,NIGHT_CLEAR","Offshore,Offshore,Offshore,Offshore",4
5842041f4e65fad6a7708b11,2024_04_09,27.31122010159892,-82.57833234007632,Coolidge,0.25,0,0.1575,23,23,"NIGHT_CLEAR,NIGHT_CLEAR,NIGHT_CLEAR,NIGHT_CLEAR","Offshore,Offshore,Offshore,Offshore",4
5842041f4e65fad6a7708b12,2024_04_09,27.26471672017615,-82.55464835167173,Siesta Key,0,0,0.057499999999999996,23,22,"NIGHT_CLEAR,NIGHT_CLEAR,NIGHT_CLEAR,NIGHT_CLEAR","Offshore,Offshore,Offshore,Offshore",4
5842041f4e65fad6a7708b13,2024_04_09,27.24638693488133,-82.53809115716797,Stickney Point,0.75,0,0.165,23,23,"NIGHT_CLEAR,NIGHT_CLEAR,NIGHT_CLEAR,NIGHT_CLEAR","Offshore,Offshore,Offshore,Offshore",4
5842041f4e65fad6a7708b14,2024_04_09,27.21907878229092,-82.51813937562073,Turtles,0.5,0,0.14750000000000002,23,23,"NIGHT_CLEAR,NIGHT_CLEAR,NIGHT_CLEAR,NIGHT_CLEAR","Offshore,Offshore,Offshore,Offshore",4
5842041f4e65fad6a7708b15,2024_04_09,27.11375765852028,-82.47039,Venice Jetties North,0,0,0.08499999999999999,23,22,"NIGHT_CLEAR,NIGHT_CLEAR,NIGHT_CLEAR,NIGHT_CLEAR","Offshore,Offshore,Offshore,Offshore",4
5842041f4e65fad6a7708b16,2024_04_09,27.111485758834025,-82.46756550419744,Venice Jetties South,0,0,0.0925,23,22,"NIGHT_CLEAR,NIGHT_CLEAR,NIGHT_CLEAR,NIGHT_CLEAR","Offshore,Offshore,Offshore,Offshore",4
5842041f4e65fad6a7708b17,2024_04_09,27.07249378831575,-82.4530285256104,Venice Pier,0.5,0,0.15000000000000002,23,22,"NIGHT_CLEAR,NIGHT_CLEAR,NIGHT_CLEAR,NIGHT_CLEAR","Offshore,Offshore,Offshore,Offshore",4
5842041f4e65fad6a7708b19,2024_04_09,27.49680446426314,-82.7140145455959,Holmes Beach Pier,0,0,0.195,22,22,"NIGHT_CLEAR,NIGHT_CLEAR,NIGHT_CLEAR,NIGHT_CLEAR","Offshore,Offshore,Offshore,Offshore",4
5842041f4e65fad6a7708b1a,2024_04_09,27.7390348493064,-82.75763,Sunset Beach,1,0,0.2325,22,22,"NIGHT_CLEAR,NIGHT_CLEAR,NIGHT_CLEAR,NIGHT_CLEAR","Offshore,Offshore,Offshore,Offshore",4
5842041f4e65fad6a7708b1b,2024_04_09,26.80347307599041,-82.28564775623539,Gasparilla Point,0.75,0,0.1725,23,23,"NIGHT_CLEAR,NIGHT_CLEAR,NIGHT_CLEAR,NIGHT_CLEAR","Offshore,Offshore,Offshore,Offshore",4
5842041f4e65fad6a7708b1c,2024_04_09,27.45365831548911,-82.69609,Coquina Jetties,1,0,0.185,22,22,"NIGHT_CLEAR,NIGHT_CLEAR,NIGHT_CLEAR,NIGHT_CLEAR","Offshore,Offshore,Offshore,Offshore",4
5842041f4e65fad6a7708b1d,2024_04_09,27.46077315206043,-82.69924,Twin Piers,0,0,0.0975,23,22,"NIGHT_CLEAR,NIGHT_CLEAR,NIGHT_CLEAR,NIGHT_CLEAR","Offshore,Offshore,Offshore,Offshore",4
5842041f4e65fad6a7708b1e,2024_04_09,26.91007316019612,-82.35352,Englewood,0,0,0.0175,23,23,"NIGHT_CLEAR,NIGHT_CLEAR,NIGHT_CLEAR,NIGHT_CLEAR","Offshore,Offshore,Offshore,Offshore",4
5842041f4e65fad6a7708b1f,2024_04_09,26.88221101560038,-82.3359828282636,Knight's Point,0.75,0,0.1725,23,23,"NIGHT_CLEAR,NIGHT_CLEAR,NIGHT_CLEAR,NIGHT_CLEAR","Offshore,Offshore,Offshore,Offshore",4
5842041f4e65fad6a7708b20,2024_04_09,26.51219285784982,-82.1928203289264,Tween Waters,1,0,0.215,23,23,"NIGHT_CLEAR,NIGHT_CLEAR,NIGHT_CLEAR,NIGHT_CLEAR","Offshore,Offshore,Offshore,Offshore",4
5842041f4e65fad6a7708b21,2024_04_09,26.55130241615096,-82.20222762415648,Redfish Pass,1,0,0.2175,23,23,"NIGHT_CLEAR,NIGHT_CLEAR,NIGHT_CLEAR,NIGHT_CLEAR","Offshore,Offshore,Offshore,Offshore",4
5842041f4e65fad6a7708b22,2024_04_09,26.71713432926596,-82.26287777058234,Boca Grande,1,0,0.1825,23,23,"NIGHT_CLEAR,NIGHT_CLEAR,NIGHT_CLEAR,NIGHT_CLEAR","Offshore,Offshore,Offshore,Offshore",4
5842041f4e65fad6a7708b23,2024_04_09,26.47856785808584,-82.181288592828,Blind Pass,1,0,0.2175,23,23,"NIGHT_CLEAR,NIGHT_CLEAR,NIGHT_CLEAR,NIGHT_CLEAR","Offshore,Offshore,Offshore,Offshore",4
