_id,date,lat,lon,name,daily_mean_swell_rating,daily_mean_wave_height_min,daily_mean_wave_height_max,daily_mean_water_temperature_max,daily_mean_water_temperature_min,weather_per_timestamp,wind_per_timestamp,n_samples_per_day
5842041f4e65fad6a77087f9,2024_03_25,37.741668,-122.51038,South Ocean Beach,0.63,1.403388888888889,1.8301703703703702,14,14,"NIGHT_MOSTLY_CLOUDY,NIGHT_MOSTLY_CLOUDY,NIGHT_MOSTLY_CLOUDY,NIGHT_MOSTLY_CLOUDY,NIGHT_MOSTLY_CLOUDY,MOSTLY_CLOUDY,MOSTLY_CLOUDY,MOSTLY_CLOUDY,MOSTLY_CLOUDY","Onshore,Onshore,Onshore,Onshore,Onshore,Onshore,Onshore,Onshore,Onshore",9
5842041f4e65fad6a7708801,2024_03_25,37.49142,-122.50428,Maverick's,NA,2.06,2.2844444444444445,13,13,"NIGHT_OVERCAST,NIGHT_OVERCAST,NIGHT_OVERCAST,NIGHT_OVERCAST,NIGHT_OVERCAST,MIST,MIST,OVERCAST,MOSTLY_CLOUDY","Offshore,Offshore,Offshore,Offshore,Offshore,Offshore,Offshore,Offshore,Cross-shore",9
5842041f4e65fad6a7708804,2024_03_25,44.997,-124.018,Roads End,2.111111111111111,1.298888888888889,1.56,11,11,"NIGHT_OVERCAST,NIGHT_DRIZZLE,NIGHT_OVERCAST,NIGHT_MOSTLY_CLOUDY,NIGHT_CLOUDY,OVERCAST,OVERCAST,DRIZZLE,MOSTLY_CLOUDY","Onshore,Onshore,Onshore,Cross-shore,Cross-shore,Cross-shore,Cross-shore,Cross-shore,Cross-shore",9
5842041f4e65fad6a7708805,2024_03_25,36.95188851423011,-122.02522,Steamer Lane,2.9444444444444446,1.0913666666666668,1.3631666666666669,14,14,"NIGHT_CLEAR,NIGHT_CLEAR,NIGHT_MIST,NIGHT_CLEAR,NIGHT_CLEAR,CLEAR,CLEAR,MOSTLY_CLOUDY,CLEAR","Offshore,Offshore,Offshore,Cross-shore,Offshore,Offshore,Offshore,Offshore,Offshore",9
5842041f4e65fad6a7708806,2024_03_25,36.95918781542251,-122.02489,Cowells,2.2222222222222223,0.13075555555555557,0.4089777777777778,14,14,"NIGHT_CLEAR,NIGHT_CLEAR,NIGHT_MIST,NIGHT_CLEAR,NIGHT_CLEAR,CLEAR,CLEAR,MOSTLY_CLOUDY,CLEAR","Cross-shore,Offshore,Cross-shore,Cross-shore,Offshore,Offshore,Offshore,Offshore,Offshore",9
5842041f4e65fad6a7708807,2024_03_25,36.95468082526536,-121.97234,Pleasure Point,3,0.8966962962962963,1.2373592592592593,14,14,"NIGHT_CLEAR,NIGHT_CLEAR,NIGHT_CLEAR,NIGHT_CLEAR,NIGHT_CLEAR,CLEAR,CLEAR,CLEAR,CLEAR","Offshore,Offshore,Offshore,Cross-shore,Offshore,Offshore,Cross-shore,Offshore,Offshore",9
5842041f4e65fad6a770880a,2024_03_25,35.37815414378748,-120.86589,Morro Bay,2.667777777777778,1.482437037037037,1.8734444444444445,13,13,"NIGHT_MOSTLY_CLOUDY,NIGHT_MIST,NIGHT_MIST,NIGHT_MIST,MIST,MIST,CLEAR,CLEAR,CLEAR","Offshore,Offshore,Cross-shore,Cross-shore,Offshore,Offshore,Onshore,Onshore,Onshore",9
5842041f4e65fad6a770880b,2024_03_25,36.95782765000708,-121.9672887511276,Jack's,2.352222222222222,0.3123444444444445,0.6159962962962963,14,14,"NIGHT_CLEAR,NIGHT_CLEAR,NIGHT_CLEAR,NIGHT_CLEAR,NIGHT_CLEAR,CLEAR,CLEAR,CLEAR,CLEAR","Offshore,Offshore,Offshore,Offshore,Offshore,Offshore,Offshore,Offshore,Offshore",9
5842041f4e65fad6a770880d,2024_03_25,34.29982939936656,-119.3489016603669,Gold Coast Beachbreaks,2.7777777777777777,0.55,0.8544444444444445,15,15,"NIGHT_CLEAR,NIGHT_CLEAR,NIGHT_CLEAR,NIGHT_CLEAR,CLEAR,CLEAR,CLEAR,CLEAR,CLEAR","Offshore,Cross-shore,Offshore,Offshore,Cross-shore,Onshore,Cross-shore,Cross-shore,Onshore",9
5842041f4e65fad6a7708811,2024_03_25,34.245076,-119.26799,Ventura Harbor,2.9255555555555555,1.1826788888888888,1.5745151851851853,13.777777777777779,13.777777777777779,"NIGHT_CLEAR,NIGHT_CLEAR,NIGHT_CLEAR,NIGHT_CLEAR,CLEAR,CLEAR,CLEAR,CLEAR,CLEAR","Onshore,Onshore,Onshore,Offshore,Cross-shore,Onshore,Onshore,Onshore,Cross-shore",9
5842041f4e65fad6a7708813,2024_03_25,34.051,-118.964,County Line,2.8333333333333335,0.8935333333333333,1.1978,15,15,"NIGHT_CLEAR,NIGHT_CLEAR,NIGHT_CLEAR,NIGHT_CLEAR,CLEAR,CLEAR,CLEAR,CLEAR,CLEAR","Cross-shore,Cross-shore,Cross-shore,Cross-shore,Offshore,Offshore,Onshore,Onshore,Onshore",9
5842041f4e65fad6a7708814,2024_03_25,34.37256264378892,-119.47797,Rincon,2.7777777777777777,0.6977777777777778,0.99,15,15,"NIGHT_CLEAR,NIGHT_CLEAR,NIGHT_CLEAR,NIGHT_CLEAR,CLEAR,CLEAR,CLEAR,CLEAR,CLEAR","Cross-shore,Cross-shore,Cross-shore,Offshore,Onshore,Onshore,Cross-shore,Onshore,Cross-shore",9
5842041f4e65fad6a7708817,2024_03_25,34.03096101876324,-118.68109,Malibu Third Point,1.8888888888888888,0.39111111111111113,0.6933333333333334,15,15,"NIGHT_CLEAR,NIGHT_CLEAR,NIGHT_CLEAR,NIGHT_CLEAR,CLEAR,CLEAR,CLEAR,CLEAR,CLEAR","Offshore,Offshore,Offshore,Offshore,Offshore,Offshore,Offshore,Cross-shore,Cross-shore",9
5842041f4e65fad6a7708819,2024_03_25,33.984079047970035,-118.47381591796875,Venice Beach,2.6855555555555557,1.132562962962963,1.5469259259259258,14,14,"NIGHT_CLEAR,NIGHT_CLEAR,NIGHT_CLEAR,NIGHT_CLEAR,CLEAR,CLEAR,CLEAR,CLEAR,CLEAR","Onshore,Cross-shore,Cross-shore,Cross-shore,Onshore,Onshore,Onshore,Offshore,Onshore",9
5842041f4e65fad6a770881e,2024_03_25,34.037508438646746,-118.5834,Topanga Beach,3,0.8899222222222223,1.2011333333333334,15,15,"NIGHT_CLEAR,NIGHT_CLEAR,NIGHT_CLEAR,NIGHT_CLEAR,CLEAR,CLEAR,CLEAR,CLEAR,CLEAR","Cross-shore,Offshore,Offshore,Offshore,Offshore,Cross-shore,Onshore,Cross-shore,Onshore",9
5842041f4e65fad6a7708820,2024_03_25,33.73954373690184,-118.11414,Seal Beach Jetty,2.888888888888889,0.49333333333333335,0.7966666666666666,16,16,"NIGHT_CLEAR,NIGHT_CLEAR,NIGHT_CLEAR,NIGHT_CLEAR,CLEAR,CLEAR,CLEAR,CLEAR,CLEAR","Offshore,Offshore,Offshore,Offshore,Offshore,Offshore,Offshore,Onshore,Onshore",9
5842041f4e65fad6a7708822,2024_03_25,33.72309983348433,-118.08078,Anderson Street,2.7777777777777777,0.92,1.1944444444444444,16,16,"NIGHT_CLEAR,NIGHT_CLEAR,NIGHT_CLEAR,NIGHT_CLEAR,CLEAR,CLEAR,CLEAR,CLEAR,CLEAR","Offshore,Offshore,Offshore,Offshore,Offshore,Offshore,Offshore,Onshore,Onshore",9
5842041f4e65fad6a7708827,2024_03_25,33.65574085629463,-118.00397,Huntington Beach Pier Northside,3.0188888888888887,1.563474074074074,2.0343333333333335,13.333333333333334,13.333333333333334,"NIGHT_CLEAR,NIGHT_CLEAR,NIGHT_CLEAR,NIGHT_CLEAR,CLEAR,CLEAR,CLEAR,CLEAR,CLEAR","Offshore,Offshore,Cross-shore,Offshore,Cross-shore,Cross-shore,Cross-shore,Cross-shore,Onshore",9
5842041f4e65fad6a7708828,2024_03_25,34.272041739333,-119.29976,C St.,2.8333333333333335,0.8564111111111111,1.1993444444444445,13.777777777777779,13.777777777777779,"NIGHT_CLEAR,NIGHT_CLEAR,NIGHT_CLEAR,NIGHT_CLEAR,CLEAR,CLEAR,CLEAR,CLEAR,CLEAR","Offshore,Offshore,Onshore,Offshore,Offshore,Offshore,Offshore,Cross-shore,Cross-shore",9
5842041f4e65fad6a770882a,2024_03_25,33.61555743705257,-117.93676,Newport Lower Jetties,2.852222222222222,0.9450592592592593,1.408925925925926,13.666666666666666,13.666666666666666,"NIGHT_CLEAR,NIGHT_CLEAR,NIGHT_CLEAR,NIGHT_CLEAR,CLEAR,CLEAR,CLEAR,CLEAR,CLEAR","Offshore,Cross-shore,Offshore,Cross-shore,Cross-shore,Cross-shore,Cross-shore,Cross-shore,Onshore",9
5842041f4e65fad6a770882b,2024_03_25,33.5930302087,-117.88199,The Wedge,1.5377777777777777,0.7395312037037037,1.1846359259259258,13.666666666666666,13.666666666666666,"NIGHT_CLEAR,NIGHT_CLEAR,NIGHT_CLEAR,NIGHT_CLEAR,CLEAR,CLEAR,CLEAR,CLEAR,CLEAR","Offshore,Offshore,Offshore,Offshore,Cross-shore,Cross-shore,Cross-shore,Cross-shore,Onshore",9
5842041f4e65fad6a770882c,2024_03_25,33.60577342582,-117.9315376281,Newport Beach Pier,2.8333333333333335,1.0880222222222222,1.4579592592592592,13.666666666666666,13.666666666666666,"NIGHT_CLEAR,NIGHT_CLEAR,NIGHT_CLEAR,NIGHT_CLEAR,CLEAR,CLEAR,CLEAR,CLEAR,CLEAR","Offshore,Offshore,Offshore,Offshore,Cross-shore,Cross-shore,Onshore,Onshore,Onshore",9
5842041f4e65fad6a770882e,2024_03_25,33.475793399792984,-117.72291,Salt Creek,3.111111111111111,1.3123777777777779,1.7685555555555557,13.666666666666666,13.666666666666666,"NIGHT_CLEAR,NIGHT_CLEAR,NIGHT_CLEAR,NIGHT_CLEAR,CLEAR,CLEAR,CLEAR,CLEAR,CLEAR","Cross-shore,Offshore,Offshore,Offshore,Offshore,Offshore,Cross-shore,Cross-shore,Onshore",9
5842041f4e65fad6a7708830,2024_03_25,33.41800974113613,-117.61952,T-Street,2.258888888888889,1.0528777777777778,1.3725222222222222,13.666666666666666,13.666666666666666,"NIGHT_CLEAR,NIGHT_CLEAR,NIGHT_CLEAR,NIGHT_CLEAR,CLEAR,CLEAR,CLEAR,CLEAR,CLEAR","Offshore,Offshore,Offshore,Offshore,Offshore,Onshore,Onshore,Onshore,Onshore",9
5842041f4e65fad6a7708832,2024_03_25,33.202391008646,-117.39475,Oceanside Harbor,2.5188888888888887,1.1871222222222222,1.4755,15.11111111111111,15.11111111111111,"NIGHT_CLEAR,NIGHT_CLEAR,NIGHT_CLEAR,NIGHT_CLEAR,CLEAR,CLEAR,CLEAR,CLEAR,CLEAR","Offshore,Offshore,Offshore,Offshore,Offshore,Offshore,Cross-shore,Cross-shore,Onshore",9
5842041f4e65fad6a7708835,2024_03_25,33.19477795952803,-117.38667,Oceanside Pier,2.4444444444444446,1.0584666666666667,1.3568666666666667,15.11111111111111,15.11111111111111,"NIGHT_CLEAR,NIGHT_CLEAR,NIGHT_CLEAR,NIGHT_MIST,MIST,CLEAR,CLEAR,CLEAR,CLEAR","Offshore,Offshore,Offshore,Offshore,Offshore,Offshore,Cross-shore,Onshore,Onshore",9
5842041f4e65fad6a7708837,2024_03_25,33.14948100706,-117.35029,Tamarack,2.7777777777777777,0.9077777777777778,1.1222222222222222,17,17,"NIGHT_CLEAR,NIGHT_CLEAR,NIGHT_CLEAR,NIGHT_MIST,MIST,MIST,CLEAR,CLEAR,MOSTLY_CLEAR","Offshore,Offshore,Offshore,Offshore,Offshore,Offshore,Offshore,Cross-shore,Onshore",9
5842041f4e65fad6a7708839,2024_03_25,32.865777159358856,-117.25614,Scripps,2.111111111111111,1.3262444444444446,1.7177,16,16,"NIGHT_MOSTLY_CLEAR,NIGHT_CLEAR,NIGHT_CLEAR,NIGHT_CLEAR,CLEAR,CLEAR,CLEAR,CLEAR,MOSTLY_CLOUDY","Onshore,Onshore,Offshore,Offshore,Offshore,Offshore,Offshore,Cross-shore,Onshore",9
5842041f4e65fad6a770883a,2024_03_25,32.813094,-117.27381,Birdrock,3,1.5244444444444445,1.8222222222222222,17,17,"NIGHT_MOSTLY_CLEAR,NIGHT_MOSTLY_CLEAR,NIGHT_CLEAR,NIGHT_CLEAR,CLEAR,MOSTLY_CLEAR,CLEAR,MOSTLY_CLEAR,MOSTLY_CLOUDY","Cross-shore,Offshore,Offshore,Cross-shore,Offshore,Offshore,Offshore,Onshore,Onshore",9
5842041f4e65fad6a770883b,2024_03_25,32.877231,-117.25303,Blacks,2.2777777777777777,1.6471222222222224,2.1427666666666667,16,16,"NIGHT_MOSTLY_CLEAR,NIGHT_CLEAR,NIGHT_CLEAR,NIGHT_CLEAR,CLEAR,CLEAR,CLEAR,CLEAR,MOSTLY_CLOUDY","Cross-shore,Cross-shore,Offshore,Offshore,Offshore,Onshore,Onshore,Onshore,Onshore",9
5842041f4e65fad6a770883c,2024_03_25,32.82978974229765,-117.28161740727381,Windansea,2.388888888888889,1.5707333333333333,1.8966111111111112,15,15,"NIGHT_MOSTLY_CLEAR,NIGHT_MOSTLY_CLEAR,NIGHT_CLEAR,NIGHT_CLEAR,MIST,CLEAR,CLEAR,CLEAR,MOSTLY_CLOUDY","Cross-shore,Cross-shore,Offshore,Offshore,Offshore,Offshore,Offshore,Cross-shore,Onshore",9
5842041f4e65fad6a770883d,2024_03_25,32.838278,-117.28396,Horseshoe,2.7777777777777777,1.8777777777777778,2.16,17,17,"NIGHT_MOSTLY_CLEAR,NIGHT_MOSTLY_CLEAR,NIGHT_CLEAR,NIGHT_CLEAR,MIST,CLEAR,CLEAR,CLEAR,MOSTLY_CLOUDY","Cross-shore,Cross-shore,Offshore,Offshore,Offshore,Offshore,Offshore,Cross-shore,Onshore",9
5842041f4e65fad6a770883f,2024_03_25,32.75034717673179,-117.25337,Ocean Beach,1.8144444444444445,1.5524,1.885777777777778,15,15,"NIGHT_MOSTLY_CLEAR,NIGHT_MOSTLY_CLEAR,NIGHT_MOSTLY_CLEAR,NIGHT_MOSTLY_CLEAR,CLEAR,MOSTLY_CLEAR,MOSTLY_CLOUDY,MOSTLY_CLOUDY,MOSTLY_CLOUDY","Onshore,Onshore,Cross-shore,Offshore,Offshore,Offshore,Offshore,Cross-shore,Onshore",9
5842041f4e65fad6a7708840,2024_03_25,32.73693,-117.25718,Sunset Cliffs,2.4444444444444446,1.6933333333333334,2.022222222222222,17,17,"NIGHT_MOSTLY_CLOUDY,NIGHT_CLEAR,NIGHT_MOSTLY_CLEAR,NIGHT_CLEAR,CLEAR,MOSTLY_CLEAR,MOSTLY_CLOUDY,MOSTLY_CLOUDY,MOSTLY_CLOUDY","Onshore,Onshore,Cross-shore,Offshore,Offshore,Offshore,Offshore,Cross-shore,Onshore",9
5842041f4e65fad6a7708841,2024_03_25,32.796582258728826,-117.25779,Pacific Beach,2.258888888888889,1.3834666666666666,1.8599444444444444,15,15,"NIGHT_CLEAR,NIGHT_MOSTLY_CLEAR,NIGHT_CLEAR,NIGHT_MOSTLY_CLEAR,CLEAR,CLEAR,CLEAR,MOSTLY_CLOUDY,MOSTLY_CLOUDY","Cross-shore,Offshore,Offshore,Offshore,Offshore,Offshore,Cross-shore,Onshore,Onshore",9
5842041f4e65fad6a7708842,2024_03_25,32.776636,-117.25514,Mission Beach,2.3333333333333335,1.3181888888888889,1.7882777777777779,15,15,"NIGHT_CLEAR,NIGHT_MOSTLY_CLEAR,NIGHT_CLEAR,NIGHT_MOSTLY_CLEAR,CLEAR,CLEAR,CLEAR,MOSTLY_CLOUDY,MOSTLY_CLOUDY","Onshore,Offshore,Offshore,Offshore,Offshore,Offshore,Offshore,Onshore,Onshore",9
5842041f4e65fad6a7708844,2024_03_25,32.577195519016,-117.13475,Imperial Beach Pier,1.7777777777777777,1.998888888888889,2.3922222222222222,17,17,"NIGHT_CLEAR,NIGHT_MOSTLY_CLOUDY,NIGHT_MOSTLY_CLEAR,NIGHT_MOSTLY_CLEAR,CLEAR,CLEAR,MOSTLY_CLOUDY,BRIEF_SHOWERS,MOSTLY_CLOUDY","Onshore,Cross-shore,Cross-shore,Cross-shore,Offshore,Offshore,Offshore,Cross-shore,Onshore",9
5842041f4e65fad6a770884a,2024_03_25,42.88678181061,-70.80843,Seabrook,0.5366666666666666,1.0836444444444444,1.7533378703703704,5,4,"NIGHT_CLEAR,CLEAR,CLEAR,CLEAR,CLEAR,CLEAR,CLEAR,CLEAR,CLEAR","Cross-shore,Cross-shore,Onshore,Onshore,Onshore,Onshore,Onshore,Onshore,Onshore",9
5842041f4e65fad6a770884e,2024_03_25,41.434181432898335,-71.45312118111178,Narragansett,2.3055555555555554,0.6851303703703704,1.0493377777777777,6,5,"NIGHT_CLEAR,CLEAR,CLEAR,CLEAR,CLEAR,CLEAR,CLEAR,CLEAR,CLEAR","Offshore,Offshore,Offshore,Offshore,Offshore,Offshore,Offshore,Offshore,Offshore",9
5842041f4e65fad6a7708850,2024_03_25,40.582703230722,-73.65247,Lincoln Blvd,2.8666666666666667,0.8846785185185185,1.2901192592592592,8,7,"NIGHT_CLEAR,CLEAR,CLEAR,CLEAR,CLEAR,CLEAR,CLEAR,CLEAR,CLEAR","Offshore,Offshore,Offshore,Offshore,Offshore,Offshore,Offshore,Offshore,Offshore",9
5842041f4e65fad6a7708852,2024_03_25,40.58342841721757,-73.81182,Rockaways,2.5277777777777777,1.0745555555555555,1.6479881481481482,8,7,"NIGHT_CLEAR,CLEAR,CLEAR,CLEAR,CLEAR,CLEAR,CLEAR,CLEAR,CLEAR","Offshore,Offshore,Offshore,Offshore,Offshore,Offshore,Offshore,Offshore,Offshore",9
5842041f4e65fad6a7708853,2024_03_25,40.330474,-73.9734,Monmouth Beach,1.2044444444444444,1.1492962962962963,1.657,9,7,"NIGHT_CLEAR,CLEAR,CLEAR,CLEAR,CLEAR,CLEAR,CLEAR,CLEAR,CLEAR","Cross-shore,Cross-shore,Cross-shore,Onshore,Onshore,Onshore,Onshore,Onshore,Cross-shore",9
5842041f4e65fad6a7708856,2024_03_25,40.113,-74.028,Manasquan Inlet,1,1.518888888888889,2.1010370370370373,9,7,"NIGHT_CLEAR,CLEAR,CLEAR,CLEAR,CLEAR,CLEAR,CLEAR,CLEAR,CLEAR","Onshore,Onshore,Onshore,Onshore,Onshore,Onshore,Onshore,Onshore,Onshore",9
5842041f4e65fad6a7708857,2024_03_25,39.941519877445664,-74.06829,Casino Pier,1,1.4874074074074075,2.086,9,7,"NIGHT_CLEAR,CLEAR,CLEAR,CLEAR,CLEAR,CLEAR,CLEAR,CLEAR,CLEAR","Cross-shore,Onshore,Onshore,Onshore,Onshore,Onshore,Onshore,Cross-shore,Cross-shore",9
5842041f4e65fad6a7708858,2024_03_25,39.28223089949212,-74.55766,North End OC,0.8888888888888888,1.3961237037037038,1.9947325925925927,9,7,"NIGHT_CLEAR,CLEAR,CLEAR,CLEAR,CLEAR,CLEAR,MOSTLY_CLOUDY,CLEAR,CLEAR","Offshore,Cross-shore,Cross-shore,Cross-shore,Cross-shore,Cross-shore,Offshore,Cross-shore,Cross-shore",9
5842041f4e65fad6a770885b,2024_03_25,39.65080599934257,-74.17146,Ship Bottom,1,1.4291525925925925,2.06896,9,7,"NIGHT_CLEAR,CLEAR,CLEAR,CLEAR,CLEAR,CLEAR,MOSTLY_CLOUDY,CLEAR,CLEAR","Onshore,Cross-shore,Cross-shore,Onshore,Onshore,Cross-shore,Cross-shore,Cross-shore,Cross-shore",9
5842041f4e65fad6a7708863,2024_03_25,36.034151543144,-75.66791,Third Street,0.6488888888888888,2.2762592592592594,2.9357407407407408,10,9,"NIGHT_CLEAR,CLEAR,CLEAR,CLEAR,CLEAR,CLEAR,CLEAR,CLEAR,CLEAR","Onshore,Onshore,Onshore,Onshore,Onshore,Onshore,Onshore,Onshore,Onshore",9
5842041f4e65fad6a7708867,2024_03_25,35.605833221351425,-75.46303,S-Turns,0.4388888888888889,2.4050444444444445,3.0033703703703702,15,12,"NIGHT_CLEAR,CLEAR,CLEAR,CLEAR,CLEAR,CLEAR,CLEAR,CLEAR,CLEAR","Onshore,Onshore,Onshore,Onshore,Onshore,Onshore,Onshore,Cross-shore,Cross-shore",9
5842041f4e65fad6a770886d,2024_03_25,38.338461,-75.08117,Ocean City Boardwalk,0.7188888888888889,1.267774814814815,1.964954074074074,9,8,"NIGHT_CLEAR,CLEAR,CLEAR,CLEAR,CLEAR,CLEAR,CLEAR,MOSTLY_CLEAR,CLEAR","Onshore,Onshore,Onshore,Onshore,Onshore,Onshore,Onshore,Onshore,Onshore",9
5842041f4e65fad6a770886f,2024_03_25,29.844757212379562,-81.26136,A St.,1.7777777777777777,1.3533333333333333,1.6077777777777778,18,18,"NIGHT_MOSTLY_CLOUDY,NIGHT_LIGHT_RAIN,LIGHT_RAIN,MIST,CLEAR,CLEAR,CLEAR,SHOWERS,BRIEF_SHOWERS","Onshore,Onshore,Onshore,Onshore,Onshore,Onshore,Onshore,Onshore,Onshore",9
5842041f4e65fad6a7708871,2024_03_25,29.069417851135093,-80.90824,New Smyrna Beach,1,1.4393703703703704,2.085762962962963,20,19,"NIGHT_MOSTLY_CLOUDY,NIGHT_MOSTLY_CLEAR,CLEAR,CLEAR,CLEAR,CLEAR,CLOUDY,LIGHT_RAIN,MOSTLY_CLOUDY","Onshore,Onshore,Onshore,Onshore,Onshore,Onshore,Onshore,Onshore,Onshore",9
5842041f4e65fad6a7708872,2024_03_25,28.367707417566,-80.60171,Cocoa Beach Pier,1.3055555555555556,0.9830962962962964,1.371451851851852,22,22,"NIGHT_OVERCAST,NIGHT_MOSTLY_CLOUDY,CLEAR,MOSTLY_CLOUDY,MOSTLY_CLOUDY,MOSTLY_CLOUDY,OVERCAST,OVERCAST,CLEAR","Onshore,Onshore,Onshore,Onshore,Onshore,Onshore,Onshore,Onshore,Onshore",9
5842041f4e65fad6a7708873,2024_03_25,28.091782738658846,-80.56479,Indialantic,1,1.3961481481481481,1.8631111111111112,23,22,"NIGHT_CLOUDY,NIGHT_MOSTLY_CLOUDY,MOSTLY_CLOUDY,MOSTLY_CLOUDY,BRIEF_SHOWERS,MOSTLY_CLOUDY,MOSTLY_CLOUDY,BRIEF_SHOWERS,CLEAR","Onshore,Onshore,Onshore,Onshore,Onshore,Onshore,Onshore,Onshore,Onshore",9
5842041f4e65fad6a7708876,2024_03_25,27.25392904143517,-80.19455,Jensen Beach,1,1.1617748148148148,1.7365555555555556,24,23,"NIGHT_OVERCAST,NIGHT_CLOUDY,OVERCAST,CLOUDY,CLOUDY,OVERCAST,CLOUDY,MOSTLY_CLOUDY,CLEAR","Onshore,Onshore,Onshore,Onshore,Onshore,Onshore,Onshore,Onshore,Onshore",9
5842041f4e65fad6a7708879,2024_03_25,26.76346795333825,-80.0360655784607,Reef Road,1.0888888888888888,0.9863185185185185,1.450725925925926,26,24,"NIGHT_MOSTLY_CLOUDY,NIGHT_LIGHT_RAIN,OVERCAST,OVERCAST,OVERCAST,OVERCAST,OVERCAST,OVERCAST,BRIEF_SHOWERS","Onshore,Onshore,Onshore,Onshore,Onshore,Onshore,Onshore,Onshore,Onshore",9
5842041f4e65fad6a770887c,2024_03_25,26.336499228484,-80.06956100463,Boca Raton Inlet,1.018888888888889,0.6698888888888889,1.0754814814814815,26,24,"NIGHT_MOSTLY_CLOUDY,NIGHT_LIGHT_RAIN,OVERCAST,MOSTLY_CLOUDY,OVERCAST,OVERCAST,MOSTLY_CLOUDY,CLEAR,MOSTLY_CLOUDY","Onshore,Onshore,Onshore,Onshore,Onshore,Onshore,Onshore,Onshore,Onshore",9
5842041f4e65fad6a770887d,2024_03_25,26.31719311695038,-80.07452525176168,Deerfield Beach Pier,1,0.8215933703703704,1.2333933703703703,26,24,"NIGHT_BRIEF_SHOWERS,NIGHT_OVERCAST,DRIZZLE,MOSTLY_CLOUDY,OVERCAST,OVERCAST,MOSTLY_CLOUDY,MOSTLY_CLOUDY,CLEAR","Onshore,Onshore,Onshore,Onshore,Onshore,Onshore,Onshore,Onshore,Onshore",9
5842041f4e65fad6a7708881,2024_03_25,30.20276320866628,-85.85626528676136,"Spyglass Dr., Panama City",1.2866666666666666,0.42235925925925927,0.7269518518518518,19,18,"NIGHT_CLEAR,NIGHT_CLEAR,CLEAR,MOSTLY_CLOUDY,OVERCAST,OVERCAST,CLEAR,CLEAR,MOSTLY_CLEAR","Offshore,Offshore,Offshore,Offshore,Cross-shore,Cross-shore,Cross-shore,Cross-shore,Cross-shore",9
5842041f4e65fad6a7708884,2024_03_25,33.39000832738053,-117.59852,Cottons,3.0366666666666666,1.3196,1.6299,13.666666666666666,13.666666666666666,"NIGHT_CLEAR,NIGHT_CLEAR,NIGHT_CLEAR,NIGHT_CLEAR,CLEAR,CLEAR,CLEAR,CLEAR,CLEAR","Cross-shore,Cross-shore,Offshore,Cross-shore,Cross-shore,Cross-shore,Cross-shore,Cross-shore,Cross-shore",9
5842041f4e65fad6a7708885,2024_03_25,33.359416282661,-117.54167901405711,Trails,2.888888888888889,0.9855555555555555,1.268888888888889,16.77777777777778,16.77777777777778,"NIGHT_CLEAR,NIGHT_CLEAR,NIGHT_CLEAR,NIGHT_CLEAR,CLEAR,CLEAR,CLEAR,CLEAR,MOSTLY_CLEAR","Offshore,Offshore,Cross-shore,Offshore,Offshore,Offshore,Offshore,Onshore,Onshore",9
5842041f4e65fad6a7708886,2024_03_25,33.38042605929805,-117.58332,Middles,2.258888888888889,0.7692333333333333,1.040922222222222,13.666666666666666,13.666666666666666,"NIGHT_CLEAR,NIGHT_CLEAR,NIGHT_CLEAR,NIGHT_CLEAR,CLEAR,CLEAR,CLEAR,CLEAR,CLEAR","Offshore,Offshore,Offshore,Offshore,Offshore,Offshore,Cross-shore,Cross-shore,Onshore",9
5842041f4e65fad6a7708887,2024_03_25,33.38445596302903,-117.59445,Upper Trestles,3.0555555555555554,1.3015444444444446,1.5579555555555555,13.666666666666666,13.666666666666666,"NIGHT_CLEAR,NIGHT_CLEAR,NIGHT_CLEAR,NIGHT_CLEAR,CLEAR,CLEAR,CLEAR,CLEAR,CLEAR","Offshore,Offshore,Offshore,Offshore,Offshore,Offshore,Cross-shore,Cross-shore,Onshore",9
5842041f4e65fad6a7708889,2024_03_25,28.944414,-95.28883,Surfside,1.2222222222222223,1.3585255555555555,2.122697777777778,19,19,"NIGHT_MIST,NIGHT_LIGHT_RAIN,NIGHT_LIGHT_RAIN,MIST,LIGHT_RAIN,MIST,LIGHT_RAIN,MIST,CLEAR","Onshore,Onshore,Onshore,Onshore,Onshore,Onshore,Onshore,Cross-shore,Offshore",9
5842041f4e65fad6a770888a,2024_03_25,33.38143999849023,-117.58843,Lower Trestles,2.4811111111111113,0.9979,1.2862555555555555,14.222222222222221,14.222222222222221,"NIGHT_CLEAR,NIGHT_CLEAR,NIGHT_CLEAR,NIGHT_CLEAR,CLEAR,CLEAR,CLEAR,CLEAR,CLEAR","Offshore,Offshore,Offshore,Offshore,Offshore,Offshore,Cross-shore,Cross-shore,Onshore",9
5842041f4e65fad6a770888b,2024_03_25,33.379622288757,-117.57894,Church,2.258888888888889,0.7953444444444445,1.1037000000000001,13.666666666666666,13.666666666666666,"NIGHT_CLEAR,NIGHT_CLEAR,NIGHT_CLEAR,NIGHT_CLEAR,CLEAR,CLEAR,CLEAR,CLEAR,CLEAR","Offshore,Offshore,Offshore,Offshore,Offshore,Offshore,Cross-shore,Cross-shore,Cross-shore",9
5842041f4e65fad6a770888d,2024_03_25,21.679,-158.042,Sunset Beach,3.5,2.5618518518518516,3.234814814814815,26,25,"NIGHT_MOSTLY_CLEAR,NIGHT_MOSTLY_CLEAR,NIGHT_CLEAR,NIGHT_MOSTLY_CLOUDY,NIGHT_BRIEF_SHOWERS,NIGHT_SHOWERS,NIGHT_SHOWERS,SHOWERS,BRIEF_SHOWERS","Offshore,Offshore,Offshore,Offshore,Offshore,Onshore,Cross-shore,Offshore,Offshore",9
5842041f4e65fad6a770888e,2024_03_25,21.670550036401,-158.0482,Rocky Point,3.4444444444444446,2.4878518518518518,3.1121481481481483,26,25,"NIGHT_CLEAR,NIGHT_MOSTLY_CLEAR,NIGHT_BRIEF_SHOWERS_POSSIBLE,NIGHT_BRIEF_SHOWERS,NIGHT_CLEAR,NIGHT_BRIEF_SHOWERS_POSSIBLE,NIGHT_BRIEF_SHOWERS_POSSIBLE,SHOWERS,CLEAR","Offshore,Cross-shore,Cross-shore,Offshore,Cross-shore,Cross-shore,Cross-shore,Cross-shore,Offshore",9
5842041f4e65fad6a770888f,2024_03_25,21.668,-158.05,Chambers,3,2.52,3.0100000000000002,24,24,"NIGHT_CLEAR,NIGHT_MOSTLY_CLEAR,NIGHT_BRIEF_SHOWERS_POSSIBLE,NIGHT_BRIEF_SHOWERS,NIGHT_CLEAR,NIGHT_BRIEF_SHOWERS_POSSIBLE,NIGHT_BRIEF_SHOWERS_POSSIBLE,SHOWERS,CLEAR","Cross-shore,Offshore,Cross-shore,Cross-shore,Cross-shore,Offshore,Cross-shore,Offshore,Cross-shore",9
5842041f4e65fad6a7708890,2024_03_25,21.66522,-158.0526,Pipeline,4.147777777777778,3.3825925925925926,4.215925925925926,26,25,"NIGHT_CLEAR,NIGHT_MOSTLY_CLEAR,NIGHT_BRIEF_SHOWERS_POSSIBLE,NIGHT_BRIEF_SHOWERS,NIGHT_CLEAR,NIGHT_BRIEF_SHOWERS_POSSIBLE,NIGHT_BRIEF_SHOWERS_POSSIBLE,SHOWERS,CLEAR","Offshore,Cross-shore,Cross-shore,Offshore,Cross-shore,Cross-shore,Cross-shore,Cross-shore,Offshore",9
5842041f4e65fad6a7708891,2024_03_25,21.665,-158.054,Backdoor,3.296666666666667,3.3825925925925926,4.215925925925926,26,25,"NIGHT_CLEAR,NIGHT_MOSTLY_CLEAR,NIGHT_BRIEF_SHOWERS_POSSIBLE,NIGHT_BRIEF_SHOWERS,NIGHT_CLEAR,NIGHT_BRIEF_SHOWERS_POSSIBLE,NIGHT_BRIEF_SHOWERS_POSSIBLE,SHOWERS,CLEAR","Offshore,Cross-shore,Cross-shore,Offshore,Cross-shore,Cross-shore,Cross-shore,Cross-shore,Cross-shore",9
5842041f4e65fad6a7708892,2024_03_25,21.662,-158.057,Rockpile,3,3.008888888888889,3.5933333333333333,24,24,"NIGHT_CLEAR,NIGHT_MOSTLY_CLEAR,NIGHT_BRIEF_SHOWERS_POSSIBLE,NIGHT_BRIEF_SHOWERS,NIGHT_CLEAR,NIGHT_BRIEF_SHOWERS_POSSIBLE,NIGHT_BRIEF_SHOWERS_POSSIBLE,SHOWERS,CLEAR","Offshore,Cross-shore,Cross-shore,Cross-shore,Cross-shore,Cross-shore,Cross-shore,Cross-shore,Offshore",9
5842041f4e65fad6a7708893,2024_03_25,21.65870453806827,-158.06058,Log Cabins,3,2.19,2.617777777777778,24,24,"NIGHT_CLEAR,NIGHT_MOSTLY_CLEAR,NIGHT_BRIEF_SHOWERS_POSSIBLE,NIGHT_BRIEF_SHOWERS,NIGHT_CLEAR,NIGHT_BRIEF_SHOWERS_POSSIBLE,NIGHT_BRIEF_SHOWERS_POSSIBLE,SHOWERS,CLEAR","Offshore,Cross-shore,Cross-shore,Offshore,Cross-shore,Cross-shore,Cross-shore,Cross-shore,Cross-shore",9
5842041f4e65fad6a7708894,2024_03_25,21.66203493640557,-158.05495,Off-The-Wall,3,2.9233333333333333,3.493333333333333,24,24,"NIGHT_CLEAR,NIGHT_MOSTLY_CLEAR,NIGHT_BRIEF_SHOWERS_POSSIBLE,NIGHT_BRIEF_SHOWERS,NIGHT_CLEAR,NIGHT_BRIEF_SHOWERS_POSSIBLE,NIGHT_BRIEF_SHOWERS_POSSIBLE,SHOWERS,CLEAR","Offshore,Offshore,Offshore,Cross-shore,Cross-shore,Cross-shore,Cross-shore,Cross-shore,Offshore",9
5842041f4e65fad6a7708895,2024_03_25,21.643,-158.067,Waimea Bay,NA,2.955925925925926,3.7062962962962964,26,25,"NIGHT_CLEAR,NIGHT_MOSTLY_CLEAR,NIGHT_BRIEF_SHOWERS_POSSIBLE,NIGHT_BRIEF_SHOWERS,NIGHT_CLEAR,NIGHT_BRIEF_SHOWERS_POSSIBLE,NIGHT_BRIEF_SHOWERS_POSSIBLE,SHOWERS,CLEAR","Offshore,Offshore,Offshore,Offshore,Offshore,Cross-shore,Offshore,Offshore,Offshore",9
5842041f4e65fad6a7708896,2024_03_25,21.622,-158.087,Hultin's,3.852222222222222,2.9385925925925926,3.649925925925926,26,25,"NIGHT_CLEAR,NIGHT_CLEAR,NIGHT_CLEAR,NIGHT_CLEAR,NIGHT_CLEAR,NIGHT_CLEAR,NIGHT_CLEAR,CLEAR,CLEAR","Offshore,Offshore,Offshore,Offshore,Offshore,Offshore,Offshore,Offshore,Offshore",9
5842041f4e65fad6a7708897,2024_03_25,21.623,-158.085,Jocko's,3,2.283333333333333,2.7288888888888887,24,24,"NIGHT_CLEAR,NIGHT_CLEAR,NIGHT_CLEAR,NIGHT_CLEAR,NIGHT_CLEAR,NIGHT_CLEAR,NIGHT_CLEAR,CLEAR,CLEAR","Cross-shore,Cross-shore,Cross-shore,Cross-shore,Cross-shore,Cross-shore,Cross-shore,Cross-shore,Cross-shore",9
5842041f4e65fad6a7708898,2024_03_25,21.62,-158.088,Laniakea,3.852222222222222,2.528962962962963,3.0474074074074076,26,25,"NIGHT_CLEAR,NIGHT_CLEAR,NIGHT_CLEAR,NIGHT_CLEAR,NIGHT_CLEAR,NIGHT_CLEAR,NIGHT_CLEAR,CLEAR,CLEAR","Offshore,Offshore,Offshore,Offshore,Offshore,Offshore,Offshore,Offshore,Offshore",9
5842041f4e65fad6a7708899,2024_03_25,21.625,-158.083,Chun's,3.888888888888889,2.32,2.772222222222222,24,24,"NIGHT_CLEAR,NIGHT_CLEAR,NIGHT_CLEAR,NIGHT_CLEAR,NIGHT_CLEAR,NIGHT_CLEAR,NIGHT_CLEAR,CLEAR,CLEAR","Offshore,Offshore,Offshore,Offshore,Offshore,Offshore,Offshore,Offshore,Offshore",9
5842041f4e65fad6a770889c,2024_03_25,21.286357895152136,-157.8515,South Shore - Ala Moana Park,2.3333333333333335,0.6777777777777778,0.98,24.22222222222222,24.22222222222222,"NIGHT_CLEAR,NIGHT_MOSTLY_CLEAR,NIGHT_CLEAR,NIGHT_CLEAR,NIGHT_CLEAR,NIGHT_CLEAR,NIGHT_CLEAR,CLEAR,CLEAR","Offshore,Offshore,Offshore,Offshore,Offshore,Offshore,Offshore,Offshore,Offshore",9
5842041f4e65fad6a770889d,2024_03_25,19.606,-155.978,Banyans,3.888888888888889,1.4979888888888888,1.836211111111111,26,25,"NIGHT_CLEAR,NIGHT_CLEAR,NIGHT_CLEAR,NIGHT_CLEAR,NIGHT_CLEAR,NIGHT_CLEAR,NIGHT_CLEAR,CLEAR,CLEAR","Offshore,Offshore,Offshore,Cross-shore,Offshore,Offshore,Offshore,Offshore,Onshore",9
5842041f4e65fad6a770889e,2024_03_25,20.029,-155.831,Kawaihae,2.5555555555555554,0.5384133333333333,0.9301355555555556,24,24,"NIGHT_MOSTLY_CLEAR,NIGHT_CLEAR,NIGHT_CLEAR,NIGHT_CLEAR,NIGHT_CLEAR,NIGHT_CLEAR,NIGHT_CLEAR,CLEAR,CLEAR","Cross-shore,Onshore,Offshore,Offshore,Offshore,Offshore,Offshore,Offshore,Onshore",9
5842041f4e65fad6a770889f,2024_03_25,33.07541383424675,-117.3105,Grandview,3.4444444444444446,1.7777777777777777,2.0122222222222224,17,17,"NIGHT_CLEAR,NIGHT_CLEAR,NIGHT_MIST,NIGHT_MIST,CLEAR,CLEAR,CLEAR,CLEAR,MOSTLY_CLEAR","Offshore,Offshore,Offshore,Cross-shore,Cross-shore,Offshore,Offshore,Offshore,Onshore",9
5842041f4e65fad6a77088a0,2024_03_25,33.065267421296596,-117.30577,Beacons,3.7777777777777777,1.7333333333333334,1.9777777777777779,17,17,"NIGHT_CLEAR,NIGHT_CLEAR,NIGHT_MIST,NIGHT_MIST,CLEAR,CLEAR,CLEAR,CLEAR,MOSTLY_CLEAR","Offshore,Offshore,Offshore,Offshore,Offshore,Offshore,Cross-shore,Onshore,Onshore",9
5842041f4e65fad6a77088a2,2024_03_25,21.252,-157.805,Diamond Head,3,0.7913959259259259,1.1364188888888889,26,25,"NIGHT_MOSTLY_CLEAR,NIGHT_MOSTLY_CLEAR,NIGHT_MOSTLY_CLOUDY,NIGHT_MOSTLY_CLOUDY,NIGHT_MOSTLY_CLOUDY,NIGHT_MOSTLY_CLOUDY,NIGHT_CLEAR,MOSTLY_CLEAR,MOSTLY_CLOUDY","Cross-shore,Cross-shore,Cross-shore,Cross-shore,Cross-shore,Cross-shore,Cross-shore,Cross-shore,Cross-shore",9
5842041f4e65fad6a77088a3,2024_03_25,33.04694255008896,-117.29966,Moonlight State Beach,3.6666666666666665,1.7133333333333334,1.95,17,17,"NIGHT_CLEAR,NIGHT_CLEAR,NIGHT_MIST,NIGHT_MIST,MIST,CLEAR,CLEAR,CLEAR,MOSTLY_CLEAR","Offshore,Offshore,Offshore,Offshore,Offshore,Offshore,Offshore,Onshore,Onshore",9
5842041f4e65fad6a77088a5,2024_03_25,33.08685865930869,-117.31532,Ponto,3,1.8577777777777778,2.101111111111111,17,17,"NIGHT_CLEAR,NIGHT_CLEAR,NIGHT_MIST,NIGHT_MIST,CLEAR,CLEAR,CLEAR,CLEAR,MOSTLY_CLEAR","Offshore,Offshore,Offshore,Offshore,Offshore,Offshore,Offshore,Cross-shore,Onshore",9
5842041f4e65fad6a77088a6,2024_03_25,33.130343587871906,-117.33667796442558,Terra Mar Point,2.7777777777777777,1.2746222222222223,1.536888888888889,15.11111111111111,15.11111111111111,"NIGHT_CLEAR,NIGHT_CLEAR,NIGHT_MIST,NIGHT_MIST,MIST,CLEAR,CLEAR,CLEAR,MOSTLY_CLEAR","Offshore,Offshore,Offshore,Offshore,Offshore,Offshore,Offshore,Cross-shore,Onshore",9
5842041f4e65fad6a77088af,2024_03_25,32.95916304183685,-117.26963,Del Mar,2.888888888888889,1.4733333333333334,1.76,17,17,"NIGHT_CLEAR,NIGHT_CLEAR,NIGHT_CLEAR,NIGHT_CLEAR,CLEAR,CLEAR,CLEAR,CLEAR,MIST","Offshore,Offshore,Offshore,Offshore,Offshore,Offshore,Cross-shore,Onshore,Onshore",9
5842041f4e65fad6a77088b0,2024_03_25,32.97527261243354,-117.2721061331305,Del Mar Rivermouth,2.888888888888889,1.8377777777777777,2.131111111111111,17,17,"NIGHT_CLEAR,NIGHT_CLEAR,NIGHT_CLEAR,NIGHT_MIST,MIST,CLEAR,CLEAR,CLEAR,CLEAR","Offshore,Offshore,Offshore,Offshore,Offshore,Offshore,Cross-shore,Onshore,Onshore",9
5842041f4e65fad6a77088b1,2024_03_25,33.01352178146273,-117.28219,Cardiff Reef,2.7777777777777777,1.6796222222222221,2.036888888888889,15.11111111111111,15.11111111111111,"NIGHT_CLEAR,NIGHT_CLEAR,NIGHT_MIST,NIGHT_MIST,MIST,CLEAR,CLEAR,CLEAR,CLEAR","Cross-shore,Offshore,Offshore,Offshore,Offshore,Offshore,Offshore,Cross-shore,Onshore",9
5842041f4e65fad6a77088b3,2024_03_25,33.00211185876003,-117.2811,Seaside Reef,2.4444444444444446,1.5601777777777779,1.893,15.11111111111111,15.11111111111111,"NIGHT_CLEAR,NIGHT_CLEAR,NIGHT_CLEAR,NIGHT_MIST,CLEAR,CLEAR,CLEAR,CLEAR,MOSTLY_CLEAR","Offshore,Offshore,Offshore,Offshore,Offshore,Offshore,Cross-shore,Onshore,Onshore",9
5842041f4e65fad6a77088b4,2024_03_25,33.0341859796287,-117.29552,Swami's,2.5555555555555554,1.2970777777777778,1.7541111111111112,15.11111111111111,15.11111111111111,"NIGHT_CLEAR,NIGHT_CLEAR,NIGHT_MIST,NIGHT_MIST,MIST,CLEAR,CLEAR,CLEAR,CLEAR","Offshore,Offshore,Offshore,Offshore,Offshore,Offshore,Offshore,Onshore,Onshore",9
5842041f4e65fad6a77088b7,2024_03_25,33.04569760260221,-117.2994,D Street,3.6666666666666665,1.8322222222222222,2.0955555555555554,17,17,"NIGHT_CLEAR,NIGHT_CLEAR,NIGHT_MIST,NIGHT_MIST,MIST,CLEAR,CLEAR,CLEAR,MOSTLY_CLEAR","Offshore,Offshore,Offshore,Offshore,Offshore,Offshore,Offshore,Onshore,Onshore",9
5842041f4e65fad6a77088b8,2024_03_25,33.02090944350196,-117.28535,San Elijo State Beach,2.8333333333333335,1.402677777777778,1.7077222222222221,15.11111111111111,15.11111111111111,"NIGHT_CLEAR,NIGHT_CLEAR,NIGHT_MIST,NIGHT_MIST,MIST,CLEAR,CLEAR,CLEAR,CLEAR","Cross-shore,Offshore,Offshore,Offshore,Offshore,Offshore,Offshore,Cross-shore,Onshore",9
5842041f4e65fad6a77088c2,2024_03_25,32.80662846492798,-117.2688764333725,PB Point,3,1.6255555555555556,1.8822222222222222,17,17,"NIGHT_MOSTLY_CLEAR,NIGHT_MOSTLY_CLEAR,NIGHT_CLEAR,NIGHT_CLEAR,CLEAR,MOSTLY_CLEAR,CLEAR,MOSTLY_CLEAR,MOSTLY_CLOUDY","Cross-shore,Cross-shore,Cross-shore,Cross-shore,Cross-shore,Cross-shore,Cross-shore,Onshore,Onshore",9
5842041f4e65fad6a77088c4,2024_03_25,32.8060476681448,-117.26479,Old Man's at Tourmaline,2.888888888888889,1.1488888888888888,1.4100000000000001,17,17,"NIGHT_MOSTLY_CLEAR,NIGHT_MOSTLY_CLEAR,NIGHT_CLEAR,NIGHT_CLEAR,CLEAR,MOSTLY_CLEAR,CLEAR,MOSTLY_CLEAR,MOSTLY_CLOUDY","Cross-shore,Offshore,Cross-shore,Cross-shore,Offshore,Cross-shore,Cross-shore,Onshore,Onshore",9
5842041f4e65fad6a77088cb,2024_03_25,32.557056711256,-117.1327445020322,Tijuana Slough,2.5555555555555554,1.5466666666666666,1.778888888888889,17,17,"NIGHT_CLEAR,NIGHT_MOSTLY_CLOUDY,NIGHT_SHOWERS,NIGHT_MOSTLY_CLEAR,CLEAR,MOSTLY_CLEAR,MOSTLY_CLOUDY,MOSTLY_CLOUDY,MOSTLY_CLOUDY","Cross-shore,Cross-shore,Cross-shore,Cross-shore,Offshore,Offshore,Cross-shore,Onshore,Onshore",9
5842041f4e65fad6a77088cc,2024_03_25,32.863,-117.257,La Jolla Shores,2.5555555555555554,1.52,1.7566666666666666,17,17,"NIGHT_MOSTLY_CLEAR,NIGHT_CLEAR,NIGHT_CLEAR,NIGHT_CLEAR,CLEAR,CLEAR,CLEAR,CLEAR,MOSTLY_CLOUDY","Onshore,Onshore,Offshore,Offshore,Offshore,Offshore,Offshore,Cross-shore,Onshore",9
5842041f4e65fad6a77088ce,2024_03_25,32.67443657790586,-117.17421316238693,Coronado Beach,2.888888888888889,1.3122222222222222,1.5677777777777777,17,17,"NIGHT_CLEAR,NIGHT_MOSTLY_CLEAR,NIGHT_MOSTLY_CLEAR,NIGHT_CLEAR,CLEAR,CLEAR,CLEAR,CLEAR,MOSTLY_CLOUDY","Offshore,Offshore,Offshore,Offshore,Cross-shore,Cross-shore,Onshore,Onshore,Onshore",9
5842041f4e65fad6a77088cf,2024_03_25,33.40484417640326,-117.60749,San Clemente State Beach,3.2222222222222223,1.0755555555555556,1.3244444444444445,16.77777777777778,16.77777777777778,"NIGHT_CLEAR,NIGHT_CLEAR,NIGHT_CLEAR,NIGHT_CLEAR,CLEAR,CLEAR,CLEAR,CLEAR,CLEAR","Offshore,Offshore,Offshore,Offshore,Offshore,Onshore,Onshore,Onshore,Onshore",9
5842041f4e65fad6a77088d5,2024_03_25,33.4663042002114,-117.7168352817103,Strands,3.3333333333333335,1.4101555555555556,1.839388888888889,13.666666666666666,13.666666666666666,"NIGHT_CLEAR,NIGHT_CLEAR,NIGHT_CLEAR,NIGHT_CLEAR,CLEAR,CLEAR,CLEAR,CLEAR,CLEAR","Offshore,Offshore,Offshore,Offshore,Offshore,Cross-shore,Cross-shore,Cross-shore,Onshore",9
5842041f4e65fad6a77088d7,2024_03_25,33.4609858001748,-117.68535,Doheny State Beach,2.388888888888889,0.2567,0.5584,13.666666666666666,13.666666666666666,"NIGHT_CLEAR,NIGHT_CLEAR,NIGHT_CLEAR,NIGHT_CLEAR,CLEAR,CLEAR,CLEAR,CLEAR,CLEAR","Offshore,Offshore,Offshore,Offshore,Offshore,Cross-shore,Offshore,Onshore,Onshore",9
5842041f4e65fad6a77088dc,2024_03_25,33.50894790083017,-117.75243,Aliso Creek,2.5555555555555554,0.8688888888888889,1.1233333333333333,16,16,"NIGHT_CLEAR,NIGHT_CLEAR,NIGHT_CLEAR,NIGHT_CLEAR,CLEAR,CLEAR,CLEAR,CLEAR,CLEAR","Offshore,Offshore,Offshore,Cross-shore,Cross-shore,Cross-shore,Onshore,Onshore,Onshore",9
5842041f4e65fad6a77088dd,2024_03_25,33.5326591767067,-117.77764,Brooks Street,2.5555555555555554,0.7644444444444445,1.0033333333333334,16,16,"NIGHT_CLEAR,NIGHT_CLEAR,NIGHT_CLEAR,NIGHT_CLEAR,CLEAR,CLEAR,CLEAR,CLEAR,CLEAR","Offshore,Offshore,Offshore,Cross-shore,Cross-shore,Cross-shore,Onshore,Onshore,Onshore",9
5842041f4e65fad6a77088de,2024_03_25,33.53561225884637,-117.7799,Thalia Street,2.5555555555555554,0.6777777777777778,0.9822222222222222,16,16,"NIGHT_CLEAR,NIGHT_CLEAR,NIGHT_CLEAR,NIGHT_CLEAR,CLEAR,CLEAR,CLEAR,CLEAR,CLEAR","Offshore,Offshore,Offshore,Cross-shore,Cross-shore,Cross-shore,Onshore,Onshore,Onshore",9
5842041f4e65fad6a77088e3,2024_03_25,33.54268310353641,-117.7916,Rockpile,2.6666666666666665,0.61,0.9133333333333333,16,16,"NIGHT_CLEAR,NIGHT_CLEAR,NIGHT_CLEAR,NIGHT_CLEAR,CLEAR,CLEAR,CLEAR,CLEAR,CLEAR","Offshore,Offshore,Offshore,Cross-shore,Cross-shore,Cross-shore,Onshore,Onshore,Onshore",9
5842041f4e65fad6a77088e4,2024_03_25,33.7368459504689,-118.10342,"Seal Beach Pier, Southside",2.6666666666666665,0.39444444444444443,0.6966666666666667,16,16,"NIGHT_CLEAR,NIGHT_CLEAR,NIGHT_CLEAR,NIGHT_CLEAR,CLEAR,CLEAR,CLEAR,CLEAR,CLEAR","Offshore,Offshore,Offshore,Offshore,Offshore,Offshore,Offshore,Onshore,Onshore",9
5842041f4e65fad6a77088e5,2024_03_25,33.73933701820233,-118.117,Ray Bay,1.8888888888888888,0.19,0.49444444444444446,16,16,"NIGHT_CLEAR,NIGHT_CLEAR,NIGHT_CLEAR,NIGHT_CLEAR,CLEAR,CLEAR,CLEAR,CLEAR,CLEAR","Offshore,Offshore,Offshore,Offshore,Offshore,Offshore,Offshore,Cross-shore,Onshore",9
5842041f4e65fad6a77088e7,2024_03_25,33.728733,-118.08982,Surfside,2.7777777777777777,0.5877777777777777,0.8911111111111111,16,16,"NIGHT_CLEAR,NIGHT_CLEAR,NIGHT_CLEAR,NIGHT_CLEAR,CLEAR,CLEAR,CLEAR,CLEAR,CLEAR","Offshore,Offshore,Offshore,Offshore,Offshore,Offshore,Offshore,Onshore,Onshore",9
5842041f4e65fad6a77088e8,2024_03_25,33.68760321488161,-118.04236,Bolsa Chica State Beach,2.796666666666667,1.3664111111111112,1.8194592592592593,13.333333333333334,13.333333333333334,"NIGHT_CLEAR,NIGHT_CLEAR,NIGHT_CLEAR,NIGHT_CLEAR,CLEAR,CLEAR,CLEAR,CLEAR,CLEAR","Cross-shore,Cross-shore,Cross-shore,Offshore,Offshore,Offshore,Onshore,Onshore,Onshore",9
5842041f4e65fad6a77088ea,2024_03_25,33.66704400178788,-118.0192,North HB Streets,2.9077777777777776,1.4690037037037038,1.9481296296296298,13.333333333333334,13.333333333333334,"NIGHT_CLEAR,NIGHT_CLEAR,NIGHT_CLEAR,NIGHT_CLEAR,CLEAR,CLEAR,CLEAR,CLEAR,CLEAR","Cross-shore,Cross-shore,Cross-shore,Offshore,Offshore,Offshore,Onshore,Onshore,Onshore",9
5842041f4e65fad6a77088ed,2024_03_25,33.65475101379567,-118.00291,Huntington Beach Pier Southside,2.982222222222222,1.6019555555555556,2.0020925925925925,13.333333333333334,13.333333333333334,"NIGHT_CLEAR,NIGHT_CLEAR,NIGHT_CLEAR,NIGHT_CLEAR,CLEAR,CLEAR,CLEAR,CLEAR,CLEAR","Offshore,Offshore,Cross-shore,Offshore,Offshore,Cross-shore,Cross-shore,Cross-shore,Onshore",9
5842041f4e65fad6a77088ee,2024_03_25,33.62778647706099,-117.95939,River Jetties,2.2777777777777777,1.2586333333333333,1.5620148148148147,13.333333333333334,13.333333333333334,"NIGHT_CLEAR,NIGHT_CLEAR,NIGHT_CLEAR,NIGHT_CLEAR,CLEAR,CLEAR,CLEAR,CLEAR,CLEAR","Offshore,Cross-shore,Cross-shore,Cross-shore,Cross-shore,Cross-shore,Cross-shore,Cross-shore,Onshore",9
5842041f4e65fad6a77088f2,2024_03_25,33.605165797643664,-117.92500376701355,Newport Point,2.4444444444444446,0.37333333333333335,0.6788888888888889,16.22222222222222,16.22222222222222,"NIGHT_CLEAR,NIGHT_CLEAR,NIGHT_CLEAR,NIGHT_CLEAR,CLEAR,CLEAR,CLEAR,CLEAR,CLEAR","Cross-shore,Offshore,Offshore,Offshore,Cross-shore,Cross-shore,Onshore,Onshore,Onshore",9
5842041f4e65fad6a77088f3,2024_03_25,33.58982984726977,-117.87713,Corona del Mar,1,0.12382555555555555,0.19347777777777778,16.22222222222222,16.22222222222222,"NIGHT_CLEAR,NIGHT_CLEAR,NIGHT_CLEAR,NIGHT_CLEAR,CLEAR,CLEAR,CLEAR,CLEAR,CLEAR","Offshore,Offshore,Offshore,Offshore,Cross-shore,Offshore,Cross-shore,Cross-shore,Onshore",9
5842041f4e65fad6a77088f7,2024_03_25,34.00750300824362,-118.4971783496269,Santa Monica Pier,2.888888888888889,0.7055555555555556,1.008888888888889,15,15,"NIGHT_CLEAR,NIGHT_CLEAR,NIGHT_CLEAR,NIGHT_CLEAR,CLEAR,CLEAR,CLEAR,CLEAR,CLEAR","Cross-shore,Cross-shore,Cross-shore,Cross-shore,Cross-shore,Offshore,Offshore,Offshore,Onshore",9
5842041f4e65fad6a77088ff,2024_03_25,33.94070283102945,-118.44321,Dockweiler Beach,2.9811111111111113,1.2753714814814814,1.5693037962962961,14,14,"NIGHT_CLEAR,NIGHT_CLEAR,NIGHT_CLEAR,NIGHT_CLEAR,CLEAR,CLEAR,CLEAR,CLEAR,CLEAR","Cross-shore,Cross-shore,Onshore,Onshore,Onshore,Cross-shore,Offshore,Offshore,Onshore",9
5842041f4e65fad6a7708900,2024_03_25,33.9231846937237,-118.4341465777908,Shitpipe,2.87,1.248725925925926,1.618248148148148,14,14,"NIGHT_CLEAR,NIGHT_CLEAR,NIGHT_CLEAR,NIGHT_CLEAR,CLEAR,CLEAR,CLEAR,CLEAR,CLEAR","Cross-shore,Cross-shore,Onshore,Onshore,Onshore,Cross-shore,Offshore,Offshore,Onshore",9
5842041f4e65fad6a7708902,2024_03_25,33.9108528052242,-118.4279133138721,Hammerland,2.9811111111111113,1.2972444444444444,1.7727444444444445,14,14,"NIGHT_CLEAR,NIGHT_CLEAR,NIGHT_CLEAR,NIGHT_CLEAR,CLEAR,CLEAR,CLEAR,CLEAR,CLEAR","Cross-shore,Cross-shore,Onshore,Onshore,Onshore,Cross-shore,Offshore,Offshore,Onshore",9
5842041f4e65fad6a7708904,2024_03_25,33.87201368173932,-118.4075151286262,Hermosa Beach,2.4255555555555555,1.2715962962962963,1.7891333333333332,14,14,"NIGHT_CLEAR,NIGHT_CLEAR,NIGHT_CLEAR,NIGHT_CLEAR,CLEAR,CLEAR,CLEAR,CLEAR,CLEAR","Cross-shore,Cross-shore,Onshore,Onshore,Onshore,Cross-shore,Offshore,Offshore,Onshore",9
5842041f4e65fad6a7708906,2024_03_25,33.90129336911256,-118.42184,El Porto,2.87,1.575948148148148,2.067096296296296,14,14,"NIGHT_CLEAR,NIGHT_CLEAR,NIGHT_CLEAR,NIGHT_CLEAR,CLEAR,CLEAR,CLEAR,CLEAR,CLEAR","Cross-shore,Cross-shore,Onshore,Onshore,Onshore,Cross-shore,Offshore,Offshore,Onshore",9
5842041f4e65fad6a7708907,2024_03_25,33.87963506431794,-118.41102,Manhattan Beach Pier,2.4255555555555555,1.554651851851852,1.950151851851852,14,14,"NIGHT_CLEAR,NIGHT_CLEAR,NIGHT_CLEAR,NIGHT_CLEAR,CLEAR,CLEAR,CLEAR,CLEAR,CLEAR","Cross-shore,Cross-shore,Onshore,Onshore,Onshore,Cross-shore,Offshore,Offshore,Onshore",9
5842041f4e65fad6a7708914,2024_03_25,34.038053387863464,-118.5532,Sunset Point,3,0.5744444444444444,0.8811111111111112,15,15,"NIGHT_CLEAR,NIGHT_CLEAR,NIGHT_CLEAR,NIGHT_CLEAR,CLEAR,CLEAR,CLEAR,CLEAR,CLEAR","Cross-shore,Offshore,Offshore,Offshore,Offshore,Onshore,Onshore,Cross-shore,Onshore",9
5842041f4e65fad6a7708920,2024_03_25,33.80930828074364,-118.3933198342649,Haggerty's,2.5555555555555554,0.5566666666666666,0.7386666666666667,15.222222222222221,15.222222222222221,"NIGHT_CLEAR,NIGHT_CLEAR,NIGHT_CLEAR,NIGHT_CLEAR,CLEAR,CLEAR,CLEAR,CLEAR,CLEAR","Onshore,Onshore,Onshore,Cross-shore,Onshore,Cross-shore,Onshore,Offshore,Onshore",9
5842041f4e65fad6a7708921,2024_03_25,33.85044519861206,-118.40048,Redondo Breakwater,2.4444444444444446,1.4311111111111112,1.6655555555555557,15.222222222222221,15.222222222222221,"NIGHT_CLEAR,NIGHT_CLEAR,NIGHT_CLEAR,NIGHT_CLEAR,CLEAR,CLEAR,CLEAR,CLEAR,CLEAR","Cross-shore,Cross-shore,Onshore,Onshore,Onshore,Cross-shore,Offshore,Offshore,Onshore",9
5842041f4e65fad6a7708927,2024_03_25,33.70877301002487,-118.2840112858389,Cabrillo Beach,2.2222222222222223,0.4066666666666667,0.71,16,16,"NIGHT_CLEAR,NIGHT_CLEAR,NIGHT_CLEAR,NIGHT_CLEAR,CLEAR,CLEAR,CLEAR,CLEAR,CLEAR","Cross-shore,Cross-shore,Offshore,Offshore,Offshore,Offshore,Offshore,Cross-shore,Onshore",9
5842041f4e65fad6a770892c,2024_03_25,33.77209986806257,-118.4268428476672,Lunada Bay,2.2222222222222223,1.6833333333333333,1.9477777777777778,15.222222222222221,15.222222222222221,"NIGHT_CLEAR,NIGHT_CLEAR,NIGHT_CLEAR,NIGHT_CLEAR,CLEAR,CLEAR,CLEAR,CLEAR,CLEAR","Cross-shore,Cross-shore,Cross-shore,Cross-shore,Cross-shore,Cross-shore,Cross-shore,Cross-shore,Onshore",9
5842041f4e65fad6a770892d,2024_03_25,33.79294656286144,-118.4070316699825,PV Cove,2.2222222222222223,1.1934177777777777,1.4207233333333333,15.222222222222221,15.222222222222221,"NIGHT_CLEAR,NIGHT_CLEAR,NIGHT_CLEAR,NIGHT_CLEAR,CLEAR,CLEAR,CLEAR,CLEAR,CLEAR","Onshore,Onshore,Onshore,Onshore,Onshore,Onshore,Onshore,Onshore,Onshore",9
5842041f4e65fad6a7708930,2024_03_25,34.03944902292561,-118.57539,Chart House,2.888888888888889,0.45,0.7555555555555555,15,15,"NIGHT_CLEAR,NIGHT_CLEAR,NIGHT_CLEAR,NIGHT_CLEAR,CLEAR,CLEAR,CLEAR,CLEAR,CLEAR","Cross-shore,Offshore,Offshore,Offshore,Offshore,Cross-shore,Cross-shore,Cross-shore,Cross-shore",9
5842041f4e65fad6a7708936,2024_03_25,34.0016731994772,-118.80456,Point Dume,2.2777777777777777,0.3581888888888889,0.6629777777777778,15,15,"NIGHT_CLEAR,NIGHT_CLEAR,NIGHT_CLEAR,NIGHT_CLEAR,CLEAR,CLEAR,CLEAR,CLEAR,CLEAR","Offshore,Offshore,Offshore,Offshore,Offshore,Offshore,Onshore,Onshore,Cross-shore",9
5842041f4e65fad6a7708937,2024_03_25,34.02587527588963,-118.7554939066114,Latigo Point,1.8888888888888888,0.07444444444444445,0.3788888888888889,15,15,"NIGHT_CLEAR,NIGHT_CLEAR,NIGHT_CLEAR,NIGHT_CLEAR,CLEAR,CLEAR,CLEAR,CLEAR,CLEAR","Offshore,Offshore,Offshore,Offshore,Offshore,Offshore,Offshore,Offshore,Cross-shore",9
5842041f4e65fad6a770893f,2024_03_25,34.043762,-118.93294,Leo Carrillo,2.7222222222222223,0.6818666666666666,1.1528666666666665,15,15,"NIGHT_CLEAR,NIGHT_CLEAR,NIGHT_CLEAR,NIGHT_CLEAR,CLEAR,CLEAR,CLEAR,CLEAR,CLEAR","Offshore,Offshore,Offshore,Offshore,Offshore,Offshore,Cross-shore,Cross-shore,Cross-shore",9
5842041f4e65fad6a7708941,2024_03_25,36.69388179265737,-121.81289,Marina State Beach,1.8888888888888888,1.8177777777777777,2.0955555555555554,13.222222222222221,13.222222222222221,"NIGHT_MOSTLY_CLOUDY,NIGHT_MOSTLY_CLOUDY,NIGHT_MOSTLY_CLOUDY,NIGHT_MOSTLY_CLOUDY,NIGHT_MOSTLY_CLOUDY,MOSTLY_CLOUDY,MOSTLY_CLOUDY,MOSTLY_CLOUDY,MOSTLY_CLOUDY","Onshore,Onshore,Onshore,Onshore,Onshore,Onshore,Onshore,Onshore,Onshore",9
5842041f4e65fad6a7708944,2024_03_25,34.34145077331085,-119.416999352654,Stanley's,2.6666666666666665,0.6322222222222222,0.9355555555555556,15,15,"NIGHT_CLEAR,NIGHT_CLEAR,NIGHT_CLEAR,NIGHT_CLEAR,CLEAR,CLEAR,CLEAR,CLEAR,CLEAR","Cross-shore,Onshore,Cross-shore,Offshore,Offshore,Offshore,Offshore,Onshore,Onshore",9
5842041f4e65fad6a7708945,2024_03_25,34.35113017313915,-119.426921498899,Oil Piers,2.6666666666666665,0.5366666666666666,0.8422222222222222,15,15,"NIGHT_CLEAR,NIGHT_CLEAR,NIGHT_CLEAR,NIGHT_CLEAR,CLEAR,CLEAR,CLEAR,CLEAR,CLEAR","Offshore,Offshore,Offshore,Offshore,Offshore,Offshore,Offshore,Offshore,Cross-shore",9
5842041f4e65fad6a770894c,2024_03_25,34.17876333306018,-119.2399483564372,Oxnard,2.4444444444444446,1.0122222222222221,1.2422222222222221,15,15,"NIGHT_CLEAR,NIGHT_CLEAR,NIGHT_CLEAR,NIGHT_CLEAR,CLEAR,CLEAR,CLEAR,CLEAR,CLEAR","Cross-shore,Cross-shore,Cross-shore,Cross-shore,Offshore,Offshore,Offshore,Onshore,Onshore",9
5842041f4e65fad6a7708957,2024_03_25,34.31720331100517,-119.3882324751725,Pitas Point,2.5555555555555554,0.6622222222222223,0.9333333333333333,15,15,"NIGHT_CLEAR,NIGHT_CLEAR,NIGHT_CLEAR,NIGHT_CLEAR,CLEAR,CLEAR,CLEAR,CLEAR,MIST","Offshore,Cross-shore,Offshore,Offshore,Offshore,Offshore,Onshore,Onshore,Onshore",9
5842041f4e65fad6a7708959,2024_03_25,34.27851754384724,-119.316202617226,Emma Wood,2.888888888888889,0.5933333333333334,0.8977777777777778,15,15,"NIGHT_CLEAR,NIGHT_CLEAR,NIGHT_CLEAR,NIGHT_CLEAR,CLEAR,CLEAR,CLEAR,CLEAR,CLEAR","Offshore,Offshore,Offshore,Offshore,Offshore,Offshore,Offshore,Onshore,Cross-shore",9
5842041f4e65fad6a770895a,2024_03_25,34.35513640390276,-119.4400589884255,Mussel Shoals (aka Little Rincon),2.7777777777777777,0.6388888888888888,0.9422222222222222,15,15,"NIGHT_CLEAR,NIGHT_CLEAR,NIGHT_CLEAR,NIGHT_CLEAR,CLEAR,CLEAR,CLEAR,CLEAR,CLEAR","Offshore,Offshore,Cross-shore,Offshore,Offshore,Offshore,Cross-shore,Onshore,Cross-shore",9
5842041f4e65fad6a770895e,2024_03_25,34.28991757054902,-119.3366646794652,Summer Beach,2.7777777777777777,0.4266666666666667,0.7333333333333333,15,15,"NIGHT_CLEAR,NIGHT_CLEAR,NIGHT_CLEAR,NIGHT_CLEAR,CLEAR,CLEAR,CLEAR,CLEAR,CLEAR","Offshore,Offshore,Offshore,Offshore,Offshore,Cross-shore,Offshore,Onshore,Onshore",9
5842041f4e65fad6a770895f,2024_03_25,34.30897456105926,-119.3582501170116,Solimar,2.888888888888889,0.4666666666666667,0.7711111111111111,15,15,"NIGHT_CLEAR,NIGHT_CLEAR,NIGHT_CLEAR,NIGHT_CLEAR,CLEAR,CLEAR,CLEAR,CLEAR,MIST","Offshore,Cross-shore,Onshore,Cross-shore,Cross-shore,Onshore,Onshore,Onshore,Cross-shore",9
5842041f4e65fad6a7708960,2024_03_25,34.39836265281686,-119.70213,Leadbetter Point,1.8888888888888888,0.12222222222222222,0.4255555555555556,15,15,"NIGHT_CLEAR,NIGHT_CLEAR,NIGHT_CLEAR,NIGHT_CLEAR,CLEAR,CLEAR,CLEAR,CLEAR,CLEAR","Offshore,Offshore,Offshore,Offshore,Offshore,Offshore,Offshore,Offshore,Offshore",9
5842041f4e65fad6a7708961,2024_03_25,34.46052293893899,-120.07328,Refugio,1.1111111111111112,0.11,0.41888888888888887,14.222222222222221,14.222222222222221,"NIGHT_CLEAR,NIGHT_CLEAR,NIGHT_CLEAR,NIGHT_CLEAR,CLEAR,CLEAR,CLEAR,CLEAR,CLEAR","Offshore,Offshore,Offshore,Offshore,Offshore,Offshore,Offshore,Offshore,Offshore",9
5842041f4e65fad6a7708962,2024_03_25,34.40754276777778,-119.87639,Devereux,2.7777777777777777,0.5344444444444445,0.8388888888888889,14.222222222222221,14.222222222222221,"NIGHT_CLEAR,NIGHT_CLEAR,NIGHT_CLEAR,NIGHT_CLEAR,CLEAR,CLEAR,CLEAR,CLEAR,CLEAR","Offshore,Offshore,Offshore,Offshore,Offshore,Offshore,Offshore,Offshore,Offshore",9
5842041f4e65fad6a7708963,2024_03_25,34.27479983305182,-119.3133222656776,Ventura Overhead,2.888888888888889,0.6488888888888888,0.9244444444444445,15,15,"NIGHT_CLEAR,NIGHT_CLEAR,NIGHT_CLEAR,NIGHT_CLEAR,CLEAR,CLEAR,CLEAR,CLEAR,CLEAR","Offshore,Offshore,Offshore,Offshore,Offshore,Offshore,Offshore,Onshore,Cross-shore",9
5842041f4e65fad6a7708964,2024_03_25,34.41023236011655,-119.88261,Sands,2,0.6244444444444445,0.9322222222222222,14.222222222222221,14.222222222222221,"NIGHT_CLEAR,NIGHT_CLEAR,NIGHT_CLEAR,NIGHT_CLEAR,CLEAR,CLEAR,CLEAR,CLEAR,CLEAR","Cross-shore,Cross-shore,Cross-shore,Cross-shore,Cross-shore,Cross-shore,Cross-shore,Cross-shore,Onshore",9
5842041f4e65fad6a7708966,2024_03_25,34.40450193869233,-119.68752,Sandspit,1.3333333333333333,0.008888888888888889,0.29444444444444445,15,15,"NIGHT_CLEAR,NIGHT_CLEAR,NIGHT_CLEAR,NIGHT_CLEAR,CLEAR,CLEAR,CLEAR,CLEAR,CLEAR","Offshore,Offshore,Offshore,Offshore,Offshore,Offshore,Offshore,Cross-shore,Offshore",9
5842041f4e65fad6a7708967,2024_03_25,34.41549098334453,-119.6375149840203,Hammond's,2,0.1811111111111111,0.48777777777777775,15,15,"NIGHT_CLEAR,NIGHT_CLEAR,NIGHT_CLEAR,NIGHT_CLEAR,CLEAR,CLEAR,CLEAR,CLEAR,CLEAR","Offshore,Offshore,Offshore,Offshore,Offshore,Offshore,Cross-shore,Offshore,Cross-shore",9
5842041f4e65fad6a7708968,2024_03_25,34.45759322742309,-120.0220251867315,El Capitan,1.8888888888888888,0.25333333333333335,0.5566666666666666,14.222222222222221,14.222222222222221,"NIGHT_CLEAR,NIGHT_CLEAR,NIGHT_CLEAR,NIGHT_CLEAR,CLEAR,CLEAR,CLEAR,CLEAR,CLEAR","Offshore,Offshore,Offshore,Offshore,Offshore,Offshore,Cross-shore,Cross-shore,Offshore",9
5842041f4e65fad6a770896c,2024_03_25,34.405117655616,-119.84317,Campus Point,2.4444444444444446,0.2966666666666667,0.6033333333333334,14.222222222222221,14.222222222222221,"NIGHT_CLEAR,NIGHT_CLEAR,NIGHT_CLEAR,NIGHT_CLEAR,CLEAR,CLEAR,CLEAR,CLEAR,CLEAR","Offshore,Offshore,Offshore,Offshore,Offshore,Offshore,Offshore,Offshore,Offshore",9
5842041f4e65fad6a770896e,2024_03_25,34.38935162233354,-119.51955,Carpinteria State Beach,2.2222222222222223,0.45111111111111113,0.7577777777777778,15,15,"NIGHT_CLEAR,NIGHT_CLEAR,NIGHT_CLEAR,NIGHT_CLEAR,CLEAR,CLEAR,CLEAR,CLEAR,CLEAR","Onshore,Onshore,Onshore,Cross-shore,Offshore,Onshore,Offshore,Offshore,Offshore",9
5842041f4e65fad6a770896f,2024_03_25,37.48296565175612,-122.4549300127824,Half Moon Bay,2,1.2477777777777779,1.4966666666666666,14,14,"NIGHT_CLOUDY,NIGHT_OVERCAST,NIGHT_OVERCAST,NIGHT_OVERCAST,NIGHT_OVERCAST,OVERCAST,MIST,MIST,MOSTLY_CLOUDY","Cross-shore,Cross-shore,Cross-shore,Cross-shore,Cross-shore,Cross-shore,Onshore,Onshore,Onshore",9
5842041f4e65fad6a7708970,2024_03_25,37.499,-122.471,Princeton Jetty,2.4444444444444446,1.0455555555555556,1.251111111111111,14,14,"NIGHT_OVERCAST,NIGHT_OVERCAST,NIGHT_OVERCAST,NIGHT_OVERCAST,NIGHT_OVERCAST,DRIZZLE,DRIZZLE,DRIZZLE,MOSTLY_CLOUDY","Cross-shore,Cross-shore,Cross-shore,Cross-shore,Cross-shore,Cross-shore,Cross-shore,Cross-shore,Cross-shore",9
5842041f4e65fad6a7708972,2024_03_25,37.35699547365155,-122.4069534707252,Tunitas Creek,2,2.163333333333333,2.4222222222222225,14.222222222222221,14.222222222222221,"NIGHT_DRIZZLE,NIGHT_OVERCAST,NIGHT_OVERCAST,NIGHT_OVERCAST,NIGHT_OVERCAST,MIST,CLOUDY,CLOUDY,CLEAR","Cross-shore,Cross-shore,Cross-shore,Cross-shore,Cross-shore,Cross-shore,Cross-shore,Cross-shore,Cross-shore",9
5842041f4e65fad6a7708974,2024_03_25,37.54735589428842,-122.5161090212687,Montara,1.3333333333333333,1.828888888888889,2.1555555555555554,13.222222222222221,13.222222222222221,"NIGHT_DRIZZLE,NIGHT_OVERCAST,NIGHT_OVERCAST,NIGHT_OVERCAST,NIGHT_OVERCAST,MIST,MIST,MIST,MOSTLY_CLOUDY","Onshore,Onshore,Onshore,Onshore,Onshore,Onshore,Onshore,Onshore,Onshore",9
5842041f4e65fad6a7708975,2024_03_25,34.3869373724559,-119.5142334209018,Tarpits,2.2222222222222223,0.44222222222222224,0.7455555555555555,15,15,"NIGHT_CLEAR,NIGHT_CLEAR,NIGHT_CLEAR,NIGHT_CLEAR,CLEAR,CLEAR,CLEAR,CLEAR,CLEAR","Onshore,Onshore,Onshore,Onshore,Offshore,Onshore,Cross-shore,Offshore,Offshore",9
5842041f4e65fad6a7708976,2024_03_25,37.59881852720143,-122.50463,Pacifica / Linda Mar,1.3333333333333333,0.5984148148148148,0.9053074074074074,14,14,"NIGHT_OVERCAST,NIGHT_OVERCAST,NIGHT_DRIZZLE,NIGHT_OVERCAST,NIGHT_OVERCAST,OVERCAST,MIST,MIST,MIST","Onshore,Onshore,Onshore,Onshore,Onshore,Onshore,Onshore,Onshore,Onshore",9
5842041f4e65fad6a7708978,2024_03_25,37.59883098461164,-122.5143843582282,Pedro Point,2,1.8255555555555556,2.1144444444444446,14,14,"NIGHT_OVERCAST,NIGHT_OVERCAST,NIGHT_CLOUDY,NIGHT_OVERCAST,NIGHT_OVERCAST,CLOUDY,OVERCAST,OVERCAST,MOSTLY_CLOUDY","Onshore,Onshore,Onshore,Onshore,Onshore,Cross-shore,Onshore,Onshore,Onshore",9
5842041f4e65fad6a7708979,2024_03_25,37.61081996647663,-122.4973287570634,Rockaway,2.2222222222222223,1.7833333333333332,2.086666666666667,14,14,"NIGHT_OVERCAST,NIGHT_OVERCAST,NIGHT_DRIZZLE,NIGHT_OVERCAST,NIGHT_OVERCAST,OVERCAST,MIST,MIST,MIST","Onshore,Onshore,Onshore,Onshore,Onshore,Onshore,Onshore,Onshore,Onshore",9
5842041f4e65fad6a770897a,2024_03_25,37.809987384424446,-122.4751353263855,Fort Point,2.7777777777777777,1.0244444444444445,1.33,14,14,"NIGHT_CLEAR,NIGHT_CLEAR,NIGHT_CLEAR,NIGHT_CLEAR,NIGHT_CLEAR,CLEAR,MOSTLY_CLOUDY,MIST,CLEAR","Offshore,Cross-shore,Cross-shore,Cross-shore,Cross-shore,Cross-shore,Cross-shore,Cross-shore,Cross-shore",9
5842041f4e65fad6a770897c,2024_03_25,37.63422542967464,-122.4951,Sharp Park,2,1.9922222222222221,2.2544444444444443,14,14,"NIGHT_CLOUDY,NIGHT_OVERCAST,NIGHT_OVERCAST,NIGHT_OVERCAST,NIGHT_CLOUDY,MOSTLY_CLOUDY,MIST,CLOUDY,BRIEF_SHOWERS","Onshore,Onshore,Onshore,Onshore,Onshore,Onshore,Onshore,Onshore,Onshore",9
5842041f4e65fad6a770897d,2024_03_25,37.27313605072472,-122.4127387912554,Pescadero,1.5555555555555556,2.1166666666666667,2.362222222222222,14.222222222222221,14.222222222222221,"NIGHT_OVERCAST,NIGHT_OVERCAST,NIGHT_DRIZZLE,NIGHT_OVERCAST,NIGHT_OVERCAST,OVERCAST,OVERCAST,CLOUDY,MOSTLY_CLOUDY","Onshore,Onshore,Onshore,Onshore,Onshore,Onshore,Onshore,Onshore,Onshore",9
5842041f4e65fad6a770897e,2024_03_25,37.18140279972666,-122.3926685899327,Pigeon Point,3.3333333333333335,1.9777777777777779,2.223333333333333,14.222222222222221,14.222222222222221,"NIGHT_OVERCAST,NIGHT_OVERCAST,NIGHT_OVERCAST,NIGHT_OVERCAST,NIGHT_OVERCAST,DRIZZLE,OVERCAST,CLOUDY,CLOUDY","Offshore,Offshore,Offshore,Offshore,Offshore,Offshore,Offshore,Offshore,Offshore",9
5842041f4e65fad6a770897f,2024_03_25,37.11578956919415,-122.314699271291,Ano Nuevo,4,1.3855555555555557,1.6300000000000001,14.222222222222221,14.222222222222221,"NIGHT_OVERCAST,NIGHT_OVERCAST,NIGHT_DRIZZLE,NIGHT_DRIZZLE,NIGHT_OVERCAST,OVERCAST,OVERCAST,OVERCAST,MOSTLY_CLOUDY","Offshore,Offshore,Offshore,Offshore,Offshore,Offshore,Offshore,Offshore,Offshore",9
5842041f4e65fad6a7708980,2024_03_25,37.09520872681598,-122.2805474707768,Waddell Creek,3,1.6755555555555555,1.891111111111111,14.222222222222221,14.222222222222221,"NIGHT_OVERCAST,NIGHT_OVERCAST,NIGHT_CLOUDY,NIGHT_LIGHT_RAIN,NIGHT_OVERCAST,DRIZZLE,OVERCAST,MIST,MOSTLY_CLOUDY","Cross-shore,Cross-shore,Cross-shore,Cross-shore,Cross-shore,Cross-shore,Cross-shore,Cross-shore,Onshore",9
5842041f4e65fad6a7708981,2024_03_25,36.96512852130351,-122.1252825495626,Four Mile,3.6666666666666665,1.3133333333333335,1.5611111111111111,14.222222222222221,14.222222222222221,"NIGHT_BRIEF_SHOWERS,NIGHT_BRIEF_SHOWERS,NIGHT_BRIEF_SHOWERS,NIGHT_BRIEF_SHOWERS,NIGHT_BRIEF_SHOWERS,BRIEF_SHOWERS,MOSTLY_CLOUDY,MOSTLY_CLOUDY,CLEAR","Offshore,Offshore,Offshore,Offshore,Cross-shore,Cross-shore,Offshore,Offshore,Cross-shore",9
5842041f4e65fad6a7708982,2024_03_25,37.04122807048655,-122.2333684729756,Scott Creek,3,1.6222222222222222,1.9288888888888889,14.222222222222221,14.222222222222221,"NIGHT_MOSTLY_CLOUDY,NIGHT_MOSTLY_CLOUDY,NIGHT_BRIEF_SHOWERS,NIGHT_MOSTLY_CLOUDY,NIGHT_BRIEF_SHOWERS,BRIEF_SHOWERS,MOSTLY_CLOUDY,MIST,BRIEF_SHOWERS","Cross-shore,Cross-shore,Cross-shore,Cross-shore,Cross-shore,Cross-shore,Cross-shore,Cross-shore,Onshore",9
5842041f4e65fad6a7708983,2024_03_25,37.02350229387179,-122.21908,Davenport,2.7777777777777777,1.47,1.732222222222222,14.222222222222221,14.222222222222221,"NIGHT_MOSTLY_CLOUDY,NIGHT_BRIEF_SHOWERS,NIGHT_BRIEF_SHOWERS,NIGHT_MOSTLY_CLOUDY,NIGHT_BRIEF_SHOWERS,BRIEF_SHOWERS,MOSTLY_CLOUDY,MIST,MOSTLY_CLOUDY","Cross-shore,Cross-shore,Cross-shore,Cross-shore,Cross-shore,Cross-shore,Cross-shore,Cross-shore,Onshore",9
5842041f4e65fad6a7708986,2024_03_25,36.94905295955728,-122.0611823912244,Natural Bridges,2.888888888888889,1.3900000000000001,1.6199999999999999,14.222222222222221,14.222222222222221,"NIGHT_CLEAR,NIGHT_CLEAR,NIGHT_CLEAR,NIGHT_CLEAR,NIGHT_CLEAR,CLEAR,MOSTLY_CLOUDY,MOSTLY_CLOUDY,CLEAR","Offshore,Offshore,Offshore,Cross-shore,Cross-shore,Offshore,Cross-shore,Cross-shore,Cross-shore",9
5842041f4e65fad6a7708987,2024_03_25,36.95154854910425,-122.0420693940968,Mitchell's Cove,2.888888888888889,0.6522222222222223,0.9566666666666667,14.222222222222221,14.222222222222221,"NIGHT_CLEAR,NIGHT_CLEAR,NIGHT_MIST,NIGHT_CLEAR,NIGHT_CLEAR,CLEAR,CLEAR,MOSTLY_CLOUDY,CLEAR","Cross-shore,Offshore,Offshore,Offshore,Offshore,Offshore,Cross-shore,Offshore,Cross-shore",9
5842041f4e65fad6a770898a,2024_03_25,36.9572312370203,-121.98177,26th Ave,2.7777777777777777,1.02,1.2566666666666666,14.222222222222221,14.222222222222221,"NIGHT_CLEAR,NIGHT_CLEAR,NIGHT_CLEAR,NIGHT_CLEAR,NIGHT_CLEAR,CLEAR,CLEAR,CLEAR,CLEAR","Cross-shore,Cross-shore,Cross-shore,Cross-shore,Offshore,Cross-shore,Onshore,Cross-shore,Onshore",9
5842041f4e65fad6a770898e,2024_03_25,36.91899972819882,-121.85536,Manresa,3.4444444444444446,1.48,1.72,14.222222222222221,14.222222222222221,"NIGHT_CLEAR,NIGHT_CLEAR,NIGHT_CLEAR,NIGHT_CLEAR,NIGHT_CLEAR,CLEAR,CLEAR,CLEAR,CLEAR","Cross-shore,Offshore,Offshore,Offshore,Offshore,Offshore,Offshore,Onshore,Onshore",9
5842041f4e65fad6a7708990,2024_03_25,34.45747731928454,-120.34242,The Ranch,2,0.5166666666666667,0.8222222222222222,13.444444444444445,13.444444444444445,"NIGHT_CLEAR,NIGHT_CLEAR,NIGHT_CLEAR,NIGHT_CLEAR,CLEAR,CLEAR,CLEAR,CLEAR,CLEAR","Offshore,Offshore,Offshore,Offshore,Offshore,Offshore,Offshore,Offshore,Offshore",9
5842041f4e65fad6a7708991,2024_03_25,34.50875036590315,-120.50348,Jalama,1.8888888888888888,1.1677777777777778,1.4077777777777778,13.222222222222221,13.222222222222221,"NIGHT_OVERCAST,NIGHT_CLOUDY,NIGHT_MOSTLY_CLOUDY,NIGHT_CLEAR,CLEAR,CLEAR,CLEAR,CLEAR,CLEAR","Cross-shore,Cross-shore,Cross-shore,Cross-shore,Cross-shore,Cross-shore,Cross-shore,Cross-shore,Cross-shore",9
5842041f4e65fad6a7708996,2024_03_25,34.68700870220497,-120.6111611019887,Surf Beach,1.1111111111111112,2.7744444444444443,3.0344444444444445,13,13,"NIGHT_OVERCAST,NIGHT_OVERCAST,NIGHT_OVERCAST,NIGHT_MIST,MIST,MIST,CLEAR,CLEAR,MOSTLY_CLOUDY","Onshore,Onshore,Onshore,Onshore,Onshore,Onshore,Onshore,Onshore,Onshore",9
5842041f4e65fad6a770899c,2024_03_25,35.5730538161116,-121.1143362345574,Moonstone,2.888888888888889,1.62,1.8711111111111112,13.222222222222221,13.222222222222221,"NIGHT_MOSTLY_CLOUDY,NIGHT_CLEAR,NIGHT_CLEAR,NIGHT_CLEAR,CLEAR,CLEAR,CLEAR,CLEAR,CLEAR","Cross-shore,Cross-shore,Offshore,Offshore,Offshore,Offshore,Onshore,Onshore,Onshore",9
5842041f4e65fad6a770899d,2024_03_25,35.61533716776573,-121.1502053073914,Pico Creek,2.888888888888889,1.41,1.7166666666666666,13.222222222222221,13.222222222222221,"NIGHT_MIST,NIGHT_MIST,NIGHT_MOSTLY_CLOUDY,NIGHT_CLEAR,CLEAR,CLEAR,CLEAR,CLEAR,CLEAR","Offshore,Offshore,Cross-shore,Offshore,Offshore,Offshore,Cross-shore,Onshore,Onshore",9
5842041f4e65fad6a770899e,2024_03_25,35.56829031927379,-121.1120653023953,Santa Rosa Creek,2.888888888888889,1.62,1.8711111111111112,13.222222222222221,13.222222222222221,"NIGHT_MIST,NIGHT_MIST,NIGHT_CLEAR,NIGHT_CLEAR,CLEAR,CLEAR,CLEAR,CLEAR,MIST","Cross-shore,Cross-shore,Cross-shore,Offshore,Offshore,Offshore,Onshore,Onshore,Cross-shore",9
5842041f4e65fad6a77089a2,2024_03_25,35.44820114936284,-120.90715,"Cayucos Pier, Southside ",2.7777777777777777,0.6211111111111112,0.9244444444444444,13.222222222222221,13.222222222222221,"NIGHT_CLEAR,NIGHT_CLEAR,NIGHT_CLEAR,NIGHT_CLEAR,CLEAR,CLEAR,CLEAR,CLEAR,MOSTLY_CLEAR","Offshore,Offshore,Offshore,Offshore,Offshore,Offshore,Offshore,Offshore,Cross-shore",9
5842041f4e65fad6a77089a4,2024_03_25,35.30143372628852,-120.877819239902,Cable Landing,2.5555555555555554,2.9922222222222223,3.25,13,13,"NIGHT_MOSTLY_CLOUDY,NIGHT_MIST,NIGHT_MIST,NIGHT_CLEAR,CLEAR,CLEAR,CLEAR,CLEAR,MIST","Onshore,Onshore,Cross-shore,Offshore,Offshore,Offshore,Cross-shore,Onshore,Onshore",9
5842041f4e65fad6a77089a9,2024_03_25,35.61269103500222,-121.1480725356606,San Simeon,2.7777777777777777,0.9263333333333333,1.1036666666666666,13.222222222222221,13.222222222222221,"NIGHT_CLEAR,NIGHT_CLEAR,NIGHT_CLEAR,NIGHT_CLEAR,CLEAR,CLEAR,CLEAR,CLEAR,CLEAR","Offshore,Offshore,Offshore,Offshore,Offshore,Offshore,Offshore,Onshore,Onshore",9
5842041f4e65fad6a77089ab,2024_03_25,35.1775325966252,-120.7341125142258,Avila Beach,0.8888888888888888,0,0.20555555555555555,13,13,"NIGHT_CLEAR,NIGHT_CLEAR,NIGHT_CLEAR,NIGHT_CLEAR,CLEAR,CLEAR,CLEAR,CLEAR,CLEAR","Offshore,Cross-shore,Offshore,Offshore,Cross-shore,Offshore,Offshore,Offshore,Onshore",9
5842041f4e65fad6a77089ac,2024_03_25,35.13877877884115,-120.64535,Pismo Beach Pier,2.5188888888888887,1.1673333333333333,1.4803333333333333,13,13,"NIGHT_CLEAR,NIGHT_MIST,NIGHT_MIST,NIGHT_MIST,MIST,CLEAR,CLEAR,CLEAR,CLEAR","Cross-shore,Cross-shore,Cross-shore,Cross-shore,Cross-shore,Cross-shore,Cross-shore,Cross-shore,Cross-shore",9
5842041f4e65fad6a77089ad,2024_03_25,46.8907710233147,-124.12964,Westport/Olympic Peninsula,2.5555555555555554,0.9877777777777778,1.18,10,10,"NIGHT_DRIZZLE,NIGHT_OVERCAST,NIGHT_OVERCAST,NIGHT_CLEAR,NIGHT_CLEAR,MOSTLY_CLOUDY,DRIZZLE,LIGHT_RAIN,MIST","Onshore,Onshore,Onshore,Onshore,Onshore,Onshore,Onshore,Onshore,Onshore",9
5842041f4e65fad6a77089ae,2024_03_25,46.35185177248545,-124.06747,Long Beach Peninsula,2.111111111111111,1.43,1.722222222222222,10,10,"NIGHT_OVERCAST,NIGHT_OVERCAST,NIGHT_DRIZZLE,NIGHT_OVERCAST,NIGHT_FOG,CLOUDY,MOSTLY_CLOUDY,MOSTLY_CLOUDY,RAIN","Onshore,Onshore,Onshore,Onshore,Cross-shore,Onshore,Onshore,Onshore,Cross-shore",9
5842041f4e65fad6a77089af,2024_03_25,47.90649175554033,-124.6370864743483,La Push,3,1.238888888888889,1.482222222222222,10,10,"NIGHT_OVERCAST,NIGHT_FOG,NIGHT_FOG,NIGHT_MIST,NIGHT_CLOUDY,OVERCAST,CLEAR,OVERCAST,MOSTLY_CLOUDY","Onshore,Onshore,Onshore,Onshore,Onshore,Onshore,Cross-shore,Onshore,Onshore",9
5842041f4e65fad6a77089b0,2024_03_25,42.04368239985442,-124.26828,Brookings Jetty,2.6666666666666665,0.6611288888888889,1.0330133333333333,12,12,"NIGHT_FOG,NIGHT_FOG,NIGHT_FOG,NIGHT_CLEAR,NIGHT_MOSTLY_CLOUDY,FOG,CLEAR,OVERCAST,DRIZZLE","Onshore,Cross-shore,Cross-shore,Onshore,Onshore,Onshore,Onshore,Onshore,Onshore",9
5842041f4e65fad6a77089b1,2024_03_25,42.74071837900346,-124.4983727491047,Port Orford,1.7777777777777777,0.8022222222222222,1.0533333333333332,12,12,"NIGHT_FOG,NIGHT_MOSTLY_CLOUDY,NIGHT_MOSTLY_CLOUDY,NIGHT_MOSTLY_CLOUDY,NIGHT_MOSTLY_CLOUDY,MOSTLY_CLOUDY,LIGHT_RAIN,RAIN,OVERCAST","Onshore,Onshore,Onshore,Onshore,Onshore,Onshore,Onshore,Onshore,Offshore",9
5842041f4e65fad6a77089b2,2024_03_25,44.01532689312291,-124.13865,Florence South Jetty,2,1.468888888888889,1.76,11,11,"NIGHT_MOSTLY_CLOUDY,NIGHT_MOSTLY_CLOUDY,NIGHT_CLEAR,NIGHT_MOSTLY_CLOUDY,NIGHT_LIGHT_RAIN,DRIZZLE,DRIZZLE,LIGHT_RAIN,LIGHT_RAIN","Onshore,Onshore,Onshore,Onshore,Cross-shore,Cross-shore,Onshore,Cross-shore,Onshore",9
5842041f4e65fad6a77089b3,2024_03_25,42.41812540774362,-124.42945,Gold Beach South Jetty,2.3333333333333335,1.241111111111111,1.4933333333333334,12,12,"NIGHT_MIST,NIGHT_FOG,NIGHT_FOG,NIGHT_BRIEF_SHOWERS,NIGHT_MOSTLY_CLOUDY,BRIEF_SHOWERS,OVERCAST,LIGHT_RAIN,LIGHT_RAIN","Onshore,Onshore,Onshore,Onshore,Onshore,Onshore,Onshore,Onshore,Onshore",9
5842041f4e65fad6a77089b4,2024_03_25,44.95857310226525,-124.0219017690976,Lincoln City,2.3333333333333335,1.4044444444444444,1.6822222222222223,11,11,"NIGHT_LIGHT_RAIN,NIGHT_DRIZZLE,NIGHT_OVERCAST,NIGHT_CLOUDY,NIGHT_OVERCAST,OVERCAST,DRIZZLE,LIGHT_RAIN,MOSTLY_CLOUDY","Onshore,Onshore,Onshore,Cross-shore,Cross-shore,Cross-shore,Onshore,Cross-shore,Cross-shore",9
5842041f4e65fad6a77089b5,2024_03_25,44.63792761362982,-124.0657,Newport,2.111111111111111,1.6211111111111112,1.9355555555555555,11,11,"NIGHT_OVERCAST,NIGHT_OVERCAST,NIGHT_CLOUDY,NIGHT_DRIZZLE,NIGHT_CLOUDY,LIGHT_RAIN,OVERCAST,LIGHT_RAIN,MOSTLY_CLOUDY","Onshore,Onshore,Onshore,Onshore,Onshore,Cross-shore,Cross-shore,Cross-shore,Onshore",9
5842041f4e65fad6a77089b6,2024_03_25,45.61468496266301,-123.94643,Rockaway Beach,2.7777777777777777,1.4477777777777778,1.732222222222222,10.777777777777779,10.777777777777779,"NIGHT_OVERCAST,NIGHT_FOG,NIGHT_OVERCAST,NIGHT_OVERCAST,NIGHT_CLOUDY,OVERCAST,MOSTLY_CLOUDY,CLEAR,CLOUDY","Onshore,Onshore,Onshore,Onshore,Onshore,Cross-shore,Cross-shore,Cross-shore,Offshore",9
5842041f4e65fad6a77089b7,2024_03_25,45.20252914186085,-123.96975,Pacific City,2.2222222222222223,1.1744444444444444,1.4455555555555555,11,11,"NIGHT_FOG,NIGHT_LIGHT_RAIN,NIGHT_FOG,NIGHT_FOG,NIGHT_LIGHT_RAIN_AND_FOG,MOSTLY_CLOUDY,DRIZZLE,BRIEF_SHOWERS,DRIZZLE","Onshore,Onshore,Onshore,Onshore,Onshore,Onshore,Onshore,Onshore,Cross-shore",9
5842041f4e65fad6a77089b8,2024_03_25,45.88179930310263,-123.96681,Cannon Beach,2.3333333333333335,1.3977777777777778,1.68,9.777777777777779,9.777777777777779,"NIGHT_LIGHT_RAIN,NIGHT_OVERCAST,NIGHT_OVERCAST,NIGHT_RAIN_AND_FOG,NIGHT_LIGHT_RAIN,DRIZZLE,OVERCAST,LIGHT_RAIN,OVERCAST","Onshore,Onshore,Onshore,Onshore,Onshore,Onshore,Onshore,Cross-shore,Onshore",9
5842041f4e65fad6a77089ba,2024_03_25,40.02528754746774,-124.06372,Shelter Cove,2.4444444444444446,0.3924766666666667,0.6132422222222222,12,12,"NIGHT_CLEAR,NIGHT_CLEAR,NIGHT_CLEAR,NIGHT_MOSTLY_CLEAR,NIGHT_CLEAR,CLEAR,CLEAR,CLEAR,CLEAR","Offshore,Offshore,Offshore,Offshore,Offshore,Offshore,Onshore,Cross-shore,Offshore",9
5842041f4e65fad6a77089bb,2024_03_25,40.76816197136951,-124.24248,Humboldt Harbor Entrance,3,1.6777777777777778,2.0044444444444443,12,12,"NIGHT_FOG,NIGHT_OVERCAST,NIGHT_FOG,NIGHT_FOG,NIGHT_MOSTLY_CLOUDY,MOSTLY_CLOUDY,MOSTLY_CLOUDY,MOSTLY_CLOUDY,MOSTLY_CLOUDY","Onshore,Cross-shore,Onshore,Offshore,Offshore,Offshore,Cross-shore,Onshore,Onshore",9
5842041f4e65fad6a77089bc,2024_03_25,40.76684246920174,-124.23107,North Jetty,3,1.921111111111111,2.2977777777777777,12,12,"NIGHT_FOG,NIGHT_FOG,NIGHT_FOG,NIGHT_FOG,NIGHT_BRIEF_SHOWERS,MOSTLY_CLOUDY,MOSTLY_CLOUDY,MOSTLY_CLOUDY,MOSTLY_CLOUDY","Onshore,Cross-shore,Onshore,Offshore,Offshore,Offshore,Cross-shore,Onshore,Onshore",9
5842041f4e65fad6a77089bd,2024_03_25,41.02731183893966,-124.1149972888982,Westhaven,2.3333333333333335,2.2511111111111113,2.6911111111111112,12,12,"NIGHT_CLOUDY,NIGHT_OVERCAST,NIGHT_OVERCAST,NIGHT_MOSTLY_CLOUDY,NIGHT_MIST,FOG,MOSTLY_CLOUDY,BRIEF_SHOWERS,CLEAR","Cross-shore,Onshore,Onshore,Onshore,Onshore,Onshore,Onshore,Onshore,Cross-shore",9
5842041f4e65fad6a77089be,2024_03_25,41.13016238153297,-124.16466,Sue-meg,3,1.4677777777777778,1.7377777777777779,12,12,"NIGHT_FOG,NIGHT_FOG,NIGHT_FOG,NIGHT_FOG,NIGHT_MOSTLY_CLOUDY,MOSTLY_CLOUDY,MOSTLY_CLEAR,MOSTLY_CLOUDY,MOSTLY_CLOUDY","Onshore,Onshore,Onshore,Onshore,Onshore,Cross-shore,Onshore,Cross-shore,Offshore",9
5842041f4e65fad6a77089bf,2024_03_25,37.8289474958188,-122.5376795097543,Fort Cronkite/Rodeo Beach,2.6666666666666665,1.4466666666666668,1.708888888888889,14,14,"NIGHT_CLEAR,NIGHT_CLEAR,NIGHT_CLEAR,NIGHT_MOSTLY_CLOUDY,NIGHT_MIST,CLEAR,MIST,MIST,CLEAR","Cross-shore,Cross-shore,Cross-shore,Cross-shore,Cross-shore,Cross-shore,Cross-shore,Cross-shore,Cross-shore",9
5842041f4e65fad6a77089c0,2024_03_25,41.74415759876137,-124.17717,South Beach CA,2.888888888888889,0.73,1.0322222222222222,12,12,"NIGHT_MOSTLY_CLOUDY,NIGHT_MOSTLY_CLOUDY,NIGHT_FOG,NIGHT_FOG,NIGHT_FOG,MOSTLY_CLOUDY,MOSTLY_CLOUDY,OVERCAST,OVERCAST","Onshore,Onshore,Onshore,Onshore,Onshore,Onshore,Onshore,Onshore,Onshore",9
5842041f4e65fad6a77089c1,2024_03_25,37.89801283969752,-122.64519,Stinson Beach,3,0.49777777777777776,0.8011111111111111,13.222222222222221,13.222222222222221,"NIGHT_CLEAR,NIGHT_BRIEF_SHOWERS,NIGHT_MOSTLY_CLOUDY,NIGHT_MOSTLY_CLOUDY,NIGHT_MOSTLY_CLOUDY,MIST,BRIEF_SHOWERS,MIST,CLEAR","Offshore,Offshore,Offshore,Offshore,Offshore,Offshore,Offshore,Offshore,Offshore",9
5842041f4e65fad6a77089c2,2024_03_25,37.90514516176495,-122.68151,Bolinas,2,0.2940711111111111,0.45948555555555554,13.222222222222221,13.222222222222221,"NIGHT_MOSTLY_CLOUDY,NIGHT_MOSTLY_CLOUDY,NIGHT_BRIEF_SHOWERS,NIGHT_BRIEF_SHOWERS,NIGHT_MOSTLY_CLOUDY,BRIEF_SHOWERS,MIST,MOSTLY_CLOUDY,MOSTLY_CLEAR","Cross-shore,Cross-shore,Cross-shore,Cross-shore,Cross-shore,Offshore,Offshore,Offshore,Offshore",9
5842041f4e65fad6a77089c3,2024_03_25,38.04892513158693,-122.9892494965416,Point Reyes (north),0.8888888888888888,2.3433333333333333,2.6077777777777778,12.222222222222221,12.222222222222221,"NIGHT_CLOUDY,NIGHT_CLOUDY,NIGHT_CLOUDY,NIGHT_CLOUDY,NIGHT_CLOUDY,CLOUDY,MOSTLY_CLOUDY,CLOUDY,MOSTLY_CLEAR","Onshore,Onshore,Onshore,Onshore,Onshore,Onshore,Onshore,Onshore,Onshore",9
5842041f4e65fad6a77089c6,2024_03_25,38.31088736605785,-123.0496777333731,Doran Beach,1,0.1,0.40555555555555556,12,12,"NIGHT_MOSTLY_CLOUDY,NIGHT_MOSTLY_CLOUDY,NIGHT_MOSTLY_CLEAR,NIGHT_MOSTLY_CLOUDY,NIGHT_MOSTLY_CLOUDY,MOSTLY_CLOUDY,MOSTLY_CLEAR,MOSTLY_CLOUDY,CLEAR","Offshore,Offshore,Offshore,Offshore,Offshore,Offshore,Offshore,Offshore,Offshore",9
5842041f4e65fad6a77089c7,2024_03_25,38.45077228660809,-123.13008,Russian Rivermouth,2.888888888888889,1.5566666666666666,1.8344444444444443,12,12,"NIGHT_CLEAR,NIGHT_CLEAR,NIGHT_CLEAR,NIGHT_CLEAR,NIGHT_MOSTLY_CLEAR,MOSTLY_CLOUDY,CLEAR,CLEAR,CLEAR","Cross-shore,Cross-shore,Cross-shore,Cross-shore,Cross-shore,Cross-shore,Cross-shore,Onshore,Onshore",9
5842041f4e65fad6a77089c8,2024_03_25,38.35329968518107,-123.06906,Salmon Creek,1.7777777777777777,1.8833333333333333,2.1433333333333335,12,12,"NIGHT_CLEAR,NIGHT_CLEAR,NIGHT_CLEAR,NIGHT_CLEAR,NIGHT_CLEAR,MOSTLY_CLOUDY,CLEAR,MIST,CLEAR","Onshore,Onshore,Onshore,Onshore,Onshore,Onshore,Onshore,Onshore,Onshore",9
5842041f4e65fad6a77089c9,2024_03_25,38.6845180197959,-123.4322714291198,Black Point Beach,2.6666666666666665,0.9277777777777778,1.1422222222222222,12,12,"NIGHT_CLEAR,NIGHT_CLEAR,NIGHT_CLEAR,NIGHT_CLEAR,NIGHT_CLEAR,CLEAR,MOSTLY_CLOUDY,MOSTLY_CLOUDY,CLEAR","Onshore,Onshore,Onshore,Onshore,Onshore,Onshore,Onshore,Onshore,Onshore",9
5842041f4e65fad6a77089ca,2024_03_25,43.251076,-70.59144,Ogunquit,1.0922222222222222,1.3298592592592593,1.7854444444444444,5,4,"NIGHT_CLEAR,CLEAR,CLEAR,CLEAR,CLEAR,CLEAR,CLEAR,CLEAR,CLEAR","Cross-shore,Cross-shore,Cross-shore,Cross-shore,Onshore,Cross-shore,Onshore,Onshore,Onshore",9
5842041f4e65fad6a77089cb,2024_03_25,41.362631366305415,-71.48006772942608,Point Judith,0.9444444444444444,0.9118814814814815,1.289122962962963,6,5,"NIGHT_CLEAR,CLEAR,CLEAR,CLEAR,CLEAR,CLEAR,CLEAR,CLEAR,CLEAR","Onshore,Onshore,Onshore,Onshore,Onshore,Onshore,Onshore,Onshore,Onshore",9
5842041f4e65fad6a77089cd,2024_03_25,41.422678090954726,-71.45413,Monahan's - Narragansett,0,0.5713788888888889,0.8927822222222221,5,5,"NIGHT_CLEAR,CLEAR,CLEAR,CLEAR,CLEAR,CLEAR,CLEAR,CLEAR,CLEAR","Cross-shore,Cross-shore,Cross-shore,Cross-shore,Cross-shore,Cross-shore,Cross-shore,Cross-shore,Cross-shore",9
5842041f4e65fad6a77089ce,2024_03_25,41.469,-71.293,Ruggles - Newport,2.3333333333333335,0.8135655555555555,1.2711977777777779,5,5,"NIGHT_CLEAR,CLEAR,CLEAR,CLEAR,CLEAR,CLEAR,CLEAR,CLEAR,CLEAR","Offshore,Offshore,Offshore,Offshore,Offshore,Offshore,Offshore,Offshore,Offshore",9
5842041f4e65fad6a77089cf,2024_03_25,43.175394,-70.606351,Short Sands Beach,1,1.3744444444444444,1.5966666666666667,5,5,"NIGHT_CLEAR,CLEAR,CLEAR,CLEAR,CLEAR,CLEAR,CLEAR,CLEAR,CLEAR","Onshore,Onshore,Onshore,Onshore,Onshore,Onshore,Onshore,Onshore,Onshore",9
5842041f4e65fad6a77089d0,2024_03_25,41.487408,-71.29017,First Beach,1.4444444444444444,0.6255555555555555,0.9177777777777778,5,5,"NIGHT_CLEAR,CLEAR,CLEAR,CLEAR,CLEAR,CLEAR,CLEAR,CLEAR,CLEAR","Offshore,Offshore,Offshore,Offshore,Offshore,Offshore,Offshore,Offshore,Offshore",9
5842041f4e65fad6a77089d1,2024_03_25,42.27916830233153,-70.86498,Nantasket Beach,0.76,1.132562962962963,1.4306518518518518,6,4,"NIGHT_CLEAR,CLEAR,CLEAR,CLEAR,CLEAR,CLEAR,CLEAR,CLEAR,CLEAR","Onshore,Onshore,Onshore,Onshore,Onshore,Onshore,Onshore,Onshore,Onshore",9
5842041f4e65fad6a77089d2,2024_03_25,41.817,-69.935,Cape Cod,0,2.052222222222222,2.365555555555556,5,5,"NIGHT_CLEAR,CLEAR,CLEAR,CLEAR,CLEAR,CLEAR,CLEAR,CLEAR,CLEAR","Onshore,Onshore,Onshore,Onshore,Onshore,Onshore,Onshore,Onshore,Onshore",9
5842041f4e65fad6a77089d3,2024_03_25,42.22055448975661,-70.70634873403819,Egypt Beach,0,1.54,1.7755555555555556,5,5,"NIGHT_CLEAR,CLEAR,CLEAR,CLEAR,CLEAR,CLEAR,CLEAR,CLEAR,CLEAR","Onshore,Onshore,Onshore,Onshore,Onshore,Onshore,Onshore,Onshore,Onshore",9
5842041f4e65fad6a77089d4,2024_03_25,41.48739647744607,-71.25723,Second Beach,2.5,0.5613805555555555,0.8524596296296296,6,5,"NIGHT_CLEAR,CLEAR,CLEAR,CLEAR,CLEAR,CLEAR,CLEAR,CLEAR,CLEAR","Offshore,Offshore,Offshore,Offshore,Offshore,Offshore,Offshore,Offshore,Offshore",9
5842041f4e65fad6a77089d5,2024_03_25,42.964,-70.769,Fox Hill,1.3155555555555556,1.1561555555555556,1.6942111111111111,5,4,"NIGHT_CLEAR,CLEAR,CLEAR,CLEAR,CLEAR,CLEAR,CLEAR,CLEAR,CLEAR","Cross-shore,Cross-shore,Cross-shore,Cross-shore,Cross-shore,Cross-shore,Cross-shore,Cross-shore,Cross-shore",9
5842041f4e65fad6a77089d6,2024_03_25,42.991359,-70.75149,Straws Point,1.3711111111111112,1.1643962962962964,1.664211111111111,5,4,"NIGHT_CLEAR,CLEAR,CLEAR,CLEAR,CLEAR,CLEAR,CLEAR,CLEAR,CLEAR","Offshore,Cross-shore,Cross-shore,Cross-shore,Cross-shore,Cross-shore,Cross-shore,Cross-shore,Cross-shore",9
5842041f4e65fad6a77089d7,2024_03_25,42.946,-70.786,Plaice Cove,1,1.1561555555555556,1.6942111111111111,5,4,"NIGHT_CLEAR,CLEAR,CLEAR,CLEAR,CLEAR,CLEAR,CLEAR,CLEAR,CLEAR","Cross-shore,Cross-shore,Cross-shore,Onshore,Onshore,Onshore,Onshore,Onshore,Onshore",9
5842041f4e65fad6a77089d9,2024_03_25,42.911574,-70.80831,The Main Beach,1,1.0147073333333334,1.4148756666666666,6,4,"NIGHT_CLEAR,CLEAR,CLEAR,CLEAR,CLEAR,CLEAR,CLEAR,CLEAR,CLEAR","Offshore,Cross-shore,Cross-shore,Cross-shore,Cross-shore,Cross-shore,Cross-shore,Cross-shore,Cross-shore",9
5842041f4e65fad6a77089da,2024_03_25,42.97583846220203,-70.764,Sawyer's Beach,1.3333333333333333,1.0444888888888888,1.5887481481481482,5,4,"NIGHT_CLEAR,CLEAR,CLEAR,CLEAR,CLEAR,CLEAR,CLEAR,CLEAR,CLEAR","Cross-shore,Cross-shore,Cross-shore,Cross-shore,Cross-shore,Cross-shore,Cross-shore,Cross-shore,Cross-shore",9
5842041f4e65fad6a77089db,2024_03_25,42.97,-70.77,Rye on the Rocks / 5-0's,1,1.0567195555555555,1.488058111111111,6,4,"NIGHT_CLEAR,CLEAR,CLEAR,CLEAR,CLEAR,CLEAR,CLEAR,CLEAR,CLEAR","Cross-shore,Cross-shore,Cross-shore,Cross-shore,Cross-shore,Cross-shore,Cross-shore,Cross-shore,Cross-shore",9
5842041f4e65fad6a77089dc,2024_03_25,43.55902946610303,-70.27795,Higgins Beach,3.3333333333333335,0.8915111111111111,1.3082933333333333,5,4,"NIGHT_CLEAR,CLEAR,CLEAR,CLEAR,CLEAR,CLEAR,CLEAR,CLEAR,CLEAR","Offshore,Offshore,Offshore,Offshore,Offshore,Offshore,Cross-shore,Cross-shore,Offshore",9
5842041f4e65fad6a77089dd,2024_03_25,43.302676,-70.5652,Wells Beach,1.4444444444444444,1.1311555555555555,1.5687777777777778,5,4,"NIGHT_CLEAR,CLEAR,CLEAR,CLEAR,CLEAR,CLEAR,CLEAR,CLEAR,CLEAR","Cross-shore,Cross-shore,Cross-shore,Cross-shore,Onshore,Onshore,Onshore,Onshore,Onshore",9
5842041f4e65fad6a77089de,2024_03_25,43.545359,-70.30479,Scarborough Beach State Park,1.5366666666666666,1.0433662037037037,1.6099714814814816,5,4,"NIGHT_CLEAR,CLEAR,CLEAR,CLEAR,CLEAR,CLEAR,CLEAR,CLEAR,CLEAR","Cross-shore,Offshore,Offshore,Cross-shore,Cross-shore,Cross-shore,Cross-shore,Cross-shore,Cross-shore",9
5842041f4e65fad6a77089df,2024_03_25,43.514481,-70.372146,Old Orchard Beach,2.0444444444444443,0.8702074074074073,1.4473703703703704,5,4,"NIGHT_CLEAR,CLEAR,CLEAR,CLEAR,CLEAR,CLEAR,CLEAR,CLEAR,CLEAR","Cross-shore,Cross-shore,Cross-shore,Cross-shore,Cross-shore,Cross-shore,Cross-shore,Cross-shore,Cross-shore",9
5842041f4e65fad6a77089e0,2024_03_25,43.34711,-70.48165,Gooch's Beach,2.648888888888889,1.0358222222222222,1.3920851851851852,5,4,"NIGHT_CLEAR,CLEAR,CLEAR,CLEAR,CLEAR,CLEAR,CLEAR,CLEAR,CLEAR","Offshore,Offshore,Offshore,Offshore,Offshore,Offshore,Offshore,Offshore,Offshore",9
5842041f4e65fad6a77089e2,2024_03_25,40.58433,-73.62953,Lido Beach,2.8666666666666667,1.0240266666666666,1.4026103703703705,8,7,"NIGHT_CLEAR,CLEAR,CLEAR,CLEAR,CLEAR,CLEAR,CLEAR,CLEAR,CLEAR","Offshore,Offshore,Offshore,Offshore,Offshore,Offshore,Offshore,Offshore,Offshore",9
5842041f4e65fad6a77089e3,2024_03_25,43.163135,-70.61689,Long Sands Beach,2.088888888888889,0.8602139444444444,1.4243399444444445,5,4,"NIGHT_CLEAR,CLEAR,CLEAR,CLEAR,CLEAR,CLEAR,CLEAR,CLEAR,CLEAR","Offshore,Cross-shore,Cross-shore,Cross-shore,Cross-shore,Cross-shore,Cross-shore,Cross-shore,Cross-shore",9
5842041f4e65fad6a77089e4,2024_03_25,40.61695351251805,-73.39376,Gilgo Beach,2.258888888888889,1.063925925925926,1.4405925925925926,8,7,"NIGHT_CLEAR,CLEAR,CLEAR,CLEAR,CLEAR,CLEAR,CLEAR,CLEAR,CLEAR","Offshore,Offshore,Offshore,Offshore,Offshore,Offshore,Offshore,Offshore,Offshore",9
5842041f4e65fad6a77089e5,2024_03_25,40.62530081928036,-73.23827,Robert Moses,2.5555555555555554,0.9611111111111111,1.211111111111111,6,6,"NIGHT_CLEAR,CLEAR,CLEAR,CLEAR,CLEAR,CLEAR,CLEAR,CLEAR,CLEAR","Offshore,Offshore,Offshore,Offshore,Offshore,Offshore,Offshore,Offshore,Offshore",9
5842041f4e65fad6a77089e6,2024_03_25,40.64313317632791,-73.15727,Fire Island,3,0.9411111111111111,1.1766666666666667,6,6,"NIGHT_CLEAR,CLEAR,CLEAR,CLEAR,CLEAR,CLEAR,CLEAR,CLEAR,CLEAR","Offshore,Offshore,Offshore,Offshore,Offshore,Offshore,Offshore,Offshore,Offshore",9
5842041f4e65fad6a77089e8,2024_03_25,40.76653118828782,-72.74579619372713,Cupsogue,2.6666666666666665,1.6855555555555555,1.948888888888889,6,6,"NIGHT_CLEAR,CLEAR,CLEAR,CLEAR,CLEAR,CLEAR,CLEAR,CLEAR,CLEAR","Offshore,Offshore,Offshore,Offshore,Offshore,Offshore,Offshore,Offshore,Offshore",9
5842041f4e65fad6a77089e9,2024_03_25,42.9376373334092,-70.79141,The Wall ,0.9777777777777777,1.0321445555555555,1.4421252222222223,6,4,"NIGHT_CLEAR,CLEAR,CLEAR,CLEAR,CLEAR,CLEAR,CLEAR,CLEAR,CLEAR","Onshore,Onshore,Onshore,Onshore,Onshore,Onshore,Onshore,Onshore,Onshore",9
5842041f4e65fad6a77089ea,2024_03_25,40.887088,-72.33856,Flys,2.4444444444444446,1.4855555555555555,1.7755555555555556,6,6,"NIGHT_CLEAR,CLEAR,CLEAR,CLEAR,CLEAR,CLEAR,CLEAR,CLEAR,CLEAR","Offshore,Offshore,Offshore,Offshore,Offshore,Offshore,Offshore,Offshore,Offshore",9
5842041f4e65fad6a77089eb,2024_03_25,41.0389266436591,-71.91068529316958,Trailer Park,2.203333333333333,1.1883346296296295,1.6065548148148148,8,7,"NIGHT_CLEAR,CLEAR,CLEAR,CLEAR,CLEAR,CLEAR,CLEAR,CLEAR,CLEAR","Offshore,Offshore,Offshore,Offshore,Offshore,Offshore,Offshore,Offshore,Offshore",9
5842041f4e65fad6a77089ec,2024_03_25,41.039505402729105,-71.9142,Ditch Plains,0.3333333333333333,1.1478522222222223,1.7935166666666666,6,6,"NIGHT_CLEAR,CLEAR,CLEAR,CLEAR,CLEAR,CLEAR,CLEAR,CLEAR,CLEAR","Offshore,Cross-shore,Cross-shore,Cross-shore,Cross-shore,Cross-shore,Cross-shore,Offshore,Cross-shore",9
5842041f4e65fad6a77089ee,2024_03_25,40.57633275206492,-73.56895305108567,"West End, Jones Beach",2.7044444444444444,0.8271111111111111,1.158259259259259,8,7,"NIGHT_CLEAR,CLEAR,CLEAR,CLEAR,CLEAR,CLEAR,CLEAR,CLEAR,CLEAR","Offshore,Offshore,Offshore,Offshore,Offshore,Offshore,Offshore,Offshore,Offshore",9
5842041f4e65fad6a77089f1,2024_03_25,41.038286691230795,-71.91991567611694,Poles,2.203333333333333,1.0473174074074074,1.5378446296296298,8,7,"NIGHT_CLEAR,CLEAR,CLEAR,CLEAR,CLEAR,CLEAR,CLEAR,CLEAR,CLEAR","Offshore,Offshore,Offshore,Offshore,Offshore,Offshore,Offshore,Offshore,Offshore",9
5842041f4e65fad6a77089f3,2024_03_25,40.84077769766295,-72.47989493724765,The Bowl,3,1.4644444444444444,1.75,6,6,"NIGHT_CLEAR,CLEAR,CLEAR,CLEAR,CLEAR,CLEAR,CLEAR,CLEAR,CLEAR","Offshore,Offshore,Offshore,Offshore,Offshore,Offshore,Offshore,Offshore,Offshore",9
5842041f4e65fad6a77089f4,2024_03_25,40.94235535243154,-72.19286,Main Beach,1.518888888888889,1.1169259259259259,1.474074074074074,14,13,"NIGHT_CLEAR,CLEAR,CLEAR,CLEAR,CLEAR,CLEAR,CLEAR,CLEAR,CLEAR","Offshore,Offshore,Offshore,Offshore,Offshore,Offshore,Offshore,Offshore,Offshore",9
5842041f4e65fad6a77089f5,2024_03_25,40.58270702399518,-73.67251552079799,Laurelton Blvd.,3.07,0.9087532407407407,1.3126543518518519,8,7,"NIGHT_CLEAR,CLEAR,CLEAR,CLEAR,CLEAR,CLEAR,CLEAR,CLEAR,CLEAR","Offshore,Offshore,Offshore,Offshore,Offshore,Offshore,Offshore,Offshore,Offshore",9
5842041f4e65fad6a77089f6,2024_03_25,41.033752854071416,-71.93695522488403,Terrace,2.111111111111111,1.2546666666666666,1.7116296296296296,8,7,"NIGHT_CLEAR,CLEAR,CLEAR,CLEAR,CLEAR,CLEAR,CLEAR,CLEAR,CLEAR","Offshore,Offshore,Offshore,Offshore,Offshore,Offshore,Offshore,Offshore,Offshore",9
5842041f4e65fad6a77089f7,2024_03_25,40.83372943645748,-72.50426173210144,K Road,2.6666666666666665,1.74,1.9833333333333334,6,6,"NIGHT_CLEAR,CLEAR,CLEAR,CLEAR,CLEAR,CLEAR,CLEAR,CLEAR,CLEAR","Offshore,Offshore,Offshore,Offshore,Offshore,Offshore,Offshore,Offshore,Offshore",9
5842041f4e65fad6a77089f8,2024_03_25,40.58456099581507,-73.80730032920837,84th Street,2.4166666666666665,0.9946666666666667,1.6515807407407408,8,7,"NIGHT_CLEAR,CLEAR,CLEAR,CLEAR,CLEAR,CLEAR,CLEAR,CLEAR,CLEAR","Offshore,Offshore,Offshore,Offshore,Offshore,Offshore,Offshore,Offshore,Offshore",9
5842041f4e65fad6a77089fa,2024_03_25,40.1319,-74.02788,Sea Girt,0.9633333333333334,1.4361481481481482,2.027925925925926,9,7,"NIGHT_CLEAR,CLEAR,CLEAR,CLEAR,CLEAR,CLEAR,CLEAR,CLEAR,CLEAR","Cross-shore,Onshore,Onshore,Onshore,Onshore,Onshore,Onshore,Onshore,Cross-shore",9
5842041f4e65fad6a77089fb,2024_03_25,40.54698301868125,-73.9268,Breezy Point,3.2222222222222223,0.9600000000000001,1.261111111111111,7,7,"NIGHT_CLEAR,CLEAR,CLEAR,CLEAR,CLEAR,CLEAR,CLEAR,CLEAR,CLEAR","Offshore,Offshore,Offshore,Offshore,Offshore,Offshore,Offshore,Offshore,Offshore",9
5842041f4e65fad6a77089fc,2024_03_25,40.152504,-74.021383,Spring Lake,0.7966666666666666,1.4733703703703704,1.9961481481481482,9,7,"NIGHT_CLEAR,CLEAR,CLEAR,CLEAR,CLEAR,CLEAR,CLEAR,CLEAR,CLEAR","Onshore,Onshore,Onshore,Onshore,Onshore,Onshore,Onshore,Onshore,Onshore",9
5842041f4e65fad6a77089fd,2024_03_25,40.591277,-73.770792,30th - 39th Streets,2.8333333333333335,0.896,1.2603703703703704,8,7,"NIGHT_CLEAR,CLEAR,CLEAR,CLEAR,CLEAR,CLEAR,CLEAR,CLEAR,CLEAR","Offshore,Offshore,Offshore,Offshore,Offshore,Offshore,Offshore,Offshore,Offshore",9
5842041f4e65fad6a77089fe,2024_03_25,40.18834955871439,-74.00860982500222,Avon,0.6855555555555556,1.488,2.021703703703704,9,7,"NIGHT_CLEAR,CLEAR,CLEAR,CLEAR,CLEAR,CLEAR,CLEAR,CLEAR,CLEAR","Onshore,Onshore,Onshore,Onshore,Onshore,Onshore,Onshore,Onshore,Onshore",9
5842041f4e65fad6a77089ff,2024_03_25,40.1974229100932,-74.00650533798255,Bradley Beach,0.76,1.4574444444444445,1.9522592592592591,9,7,"NIGHT_CLEAR,CLEAR,CLEAR,CLEAR,CLEAR,CLEAR,CLEAR,CLEAR,CLEAR","Onshore,Onshore,Onshore,Onshore,Onshore,Onshore,Onshore,Onshore,Onshore",9
5842041f4e65fad6a7708a01,2024_03_25,40.17202,-74.01503,"16th Ave., Belmar",0.8533333333333333,1.3974444444444445,1.9011481481481483,9,7,"NIGHT_CLEAR,CLEAR,CLEAR,CLEAR,CLEAR,CLEAR,CLEAR,CLEAR,CLEAR","Onshore,Onshore,Onshore,Onshore,Onshore,Onshore,Onshore,Onshore,Onshore",9
5842041f4e65fad6a7708a02,2024_03_25,40.217443,-73.99982,Asbury Park,0.6855555555555556,1.4192962962962963,1.9548518518518518,9,7,"NIGHT_CLEAR,CLEAR,CLEAR,CLEAR,CLEAR,CLEAR,CLEAR,CLEAR,CLEAR","Onshore,Onshore,Onshore,Onshore,Onshore,Onshore,Onshore,Onshore,Onshore",9
5842041f4e65fad6a7708a03,2024_03_25,40.229841,-73.996782,Loch Arbour and Deal,1.0744444444444445,1.4178148148148149,1.939851851851852,9,7,"NIGHT_CLEAR,CLEAR,CLEAR,CLEAR,CLEAR,CLEAR,CLEAR,CLEAR,CLEAR","Cross-shore,Cross-shore,Onshore,Onshore,Onshore,Onshore,Onshore,Onshore,Cross-shore",9
5842041f4e65fad6a7708a05,2024_03_25,40.41754,-73.97935,Sandy Hook,1,0.6266666666666667,0.9288888888888889,7,7,"NIGHT_CLEAR,CLEAR,CLEAR,CLEAR,CLEAR,CLEAR,CLEAR,CLEAR,CLEAR","Cross-shore,Cross-shore,Onshore,Onshore,Onshore,Onshore,Onshore,Onshore,Onshore",9
5842041f4e65fad6a7708a06,2024_03_25,39.36353,-74.40873,Crystals,0.7233333333333334,1.1883625925925927,1.6945403703703705,9,7,"NIGHT_CLEAR,CLEAR,CLEAR,CLEAR,CLEAR,CLEAR,CLEAR,CLEAR,CLEAR","Cross-shore,Cross-shore,Cross-shore,Cross-shore,Cross-shore,Cross-shore,Cross-shore,Cross-shore,Offshore",9
5842041f4e65fad6a7708a07,2024_03_25,39.31443,-74.51863,32nd Street,1,1.3575915185185186,1.9537380555555557,9,7,"NIGHT_CLEAR,CLEAR,CLEAR,CLEAR,CLEAR,CLEAR,MOSTLY_CLEAR,CLEAR,CLEAR","Cross-shore,Cross-shore,Cross-shore,Cross-shore,Cross-shore,Cross-shore,Cross-shore,Cross-shore,Cross-shore",9
5842041f4e65fad6a7708a08,2024_03_25,39.327688,-74.49524,Margate Pier Northside,1,1.3575915185185186,1.9537380555555557,9,7,"NIGHT_CLEAR,CLEAR,CLEAR,CLEAR,CLEAR,CLEAR,MOSTLY_CLEAR,CLEAR,CLEAR","Cross-shore,Cross-shore,Cross-shore,Cross-shore,Cross-shore,Cross-shore,Cross-shore,Cross-shore,Cross-shore",9
5842041f4e65fad6a7708a09,2024_03_25,39.336276,-74.47782,Ventnor Pier,0.8711111111111111,1.1665135185185185,1.6603981481481482,9,7,"NIGHT_CLEAR,CLEAR,CLEAR,CLEAR,CLEAR,CLEAR,MOSTLY_CLEAR,CLEAR,CLEAR","Cross-shore,Cross-shore,Cross-shore,Cross-shore,Cross-shore,Cross-shore,Cross-shore,Cross-shore,Offshore",9
5842041f4e65fad6a7708a0a,2024_03_25,39.35929751441085,-74.41683,States Avenue,0.6855555555555556,1.1883625925925927,1.6945403703703705,9,7,"NIGHT_CLEAR,CLEAR,CLEAR,CLEAR,CLEAR,CLEAR,MOSTLY_CLEAR,CLEAR,CLEAR","Cross-shore,Cross-shore,Cross-shore,Cross-shore,Cross-shore,Cross-shore,Cross-shore,Cross-shore,Offshore",9
5842041f4e65fad6a7708a0b,2024_03_25,39.37274173278517,-74.40454,Brigantine Jetty,1.0744444444444445,1.091676111111111,1.5434683333333334,9,7,"NIGHT_CLEAR,CLEAR,CLEAR,CLEAR,CLEAR,CLEAR,CLEAR,CLEAR,CLEAR","Offshore,Offshore,Offshore,Offshore,Offshore,Offshore,Offshore,Offshore,Offshore",9
5842041f4e65fad6a7708a0c,2024_03_25,39.356505,-74.42263,South Carolina Avenue,1.0744444444444445,1.091676111111111,1.5434683333333334,9,7,"NIGHT_CLEAR,CLEAR,CLEAR,CLEAR,CLEAR,CLEAR,MOSTLY_CLEAR,CLEAR,CLEAR","Offshore,Offshore,Offshore,Offshore,Offshore,Offshore,Offshore,Offshore,Offshore",9
5842041f4e65fad6a7708a0d,2024_03_25,39.413485,-74.35476,14th Street North,1.2966666666666666,1.4144814814814815,1.7724444444444445,9,7,"NIGHT_CLEAR,CLEAR,CLEAR,CLEAR,CLEAR,CLEAR,CLEAR,CLEAR,CLEAR","Cross-shore,Cross-shore,Cross-shore,Cross-shore,Cross-shore,Cross-shore,Cross-shore,Offshore,Cross-shore",9
5842041f4e65fad6a7708a0e,2024_03_25,39.531319,-74.263252,The Wooden Jetty,1,1.521019111111111,2.1150242592592594,9,7,"NIGHT_CLEAR,CLEAR,CLEAR,CLEAR,CLEAR,CLEAR,MOSTLY_CLEAR,CLEAR,CLEAR","Cross-shore,Cross-shore,Cross-shore,Cross-shore,Cross-shore,Cross-shore,Cross-shore,Cross-shore,Cross-shore",9
5842041f4e65fad6a7708a0f,2024_03_25,39.552472,-74.24344,Holyoke,0.9166666666666666,1.4775601296296297,2.050384296296296,9,7,"NIGHT_CLEAR,CLEAR,CLEAR,CLEAR,CLEAR,CLEAR,MOSTLY_CLEAR,CLEAR,CLEAR","Cross-shore,Cross-shore,Cross-shore,Cross-shore,Cross-shore,Cross-shore,Cross-shore,Cross-shore,Cross-shore",9
5842041f4e65fad6a7708a10,2024_03_25,39.692364,-74.14068,Hudson Ave.,0.9255555555555556,1.5854118518518518,2.141385925925926,9,7,"NIGHT_CLEAR,CLEAR,CLEAR,CLEAR,CLEAR,CLEAR,MOSTLY_CLOUDY,CLEAR,CLEAR","Cross-shore,Cross-shore,Cross-shore,Cross-shore,Cross-shore,Cross-shore,Cross-shore,Cross-shore,Cross-shore",9
5842041f4e65fad6a7708a11,2024_03_25,39.79614,-74.09248,Island Beach State Park,0.5366666666666666,1.5648148148148149,2.280814814814815,9,7,"NIGHT_CLEAR,CLEAR,CLEAR,CLEAR,CLEAR,CLEAR,CLEAR,CLEAR,CLEAR","Cross-shore,Onshore,Onshore,Onshore,Onshore,Cross-shore,Onshore,Cross-shore,Cross-shore",9
5842041f4e65fad6a7708a12,2024_03_25,39.91813588078152,-74.07527,Seaside Park,0.6477777777777778,1.512962962962963,2.1487777777777777,9,7,"NIGHT_CLEAR,CLEAR,CLEAR,CLEAR,CLEAR,CLEAR,CLEAR,CLEAR,CLEAR","Onshore,Cross-shore,Cross-shore,Onshore,Onshore,Onshore,Onshore,Onshore,Cross-shore",9
5842041f4e65fad6a7708a14,2024_03_25,39.946638,-74.06884,Seaside Heights,0.6111111111111112,1.7127777777777777,2.2956296296296297,9,7,"NIGHT_CLEAR,CLEAR,CLEAR,CLEAR,CLEAR,CLEAR,CLEAR,CLEAR,CLEAR","Cross-shore,Onshore,Onshore,Onshore,Onshore,Onshore,Onshore,Cross-shore,Cross-shore",9
5842041f4e65fad6a7708a15,2024_03_25,39.95745637606704,-74.06736,Ortley Beach,0.6111111111111112,1.465,2.105814814814815,9,7,"NIGHT_CLEAR,CLEAR,CLEAR,CLEAR,CLEAR,CLEAR,CLEAR,CLEAR,CLEAR","Cross-shore,Onshore,Onshore,Onshore,Onshore,Onshore,Onshore,Cross-shore,Cross-shore",9
5842041f4e65fad6a7708a16,2024_03_25,39.98313468342945,-74.06265685577506,Lavallette,0.6111111111111112,1.5683333333333334,2.199888888888889,9,7,"NIGHT_CLEAR,CLEAR,CLEAR,CLEAR,CLEAR,CLEAR,CLEAR,CLEAR,CLEAR","Cross-shore,Cross-shore,Onshore,Onshore,Onshore,Cross-shore,Onshore,Cross-shore,Cross-shore",9
5842041f4e65fad6a7708a17,2024_03_25,40.0699319967757,-74.04144910856634,Bay Head,0.6111111111111112,1.537962962962963,2.1621111111111113,9,7,"NIGHT_CLEAR,CLEAR,CLEAR,CLEAR,CLEAR,CLEAR,CLEAR,CLEAR,CLEAR","Cross-shore,Cross-shore,Onshore,Onshore,Onshore,Onshore,Onshore,Cross-shore,Cross-shore",9
5842041f4e65fad6a7708a18,2024_03_25,40.094041,-74.034859,Jenkinson's,0.9633333333333334,1.5920370370370371,2.1884074074074076,9,7,"NIGHT_CLEAR,CLEAR,CLEAR,CLEAR,CLEAR,CLEAR,CLEAR,CLEAR,CLEAR","Cross-shore,Cross-shore,Onshore,Onshore,Onshore,Cross-shore,Cross-shore,Cross-shore,Cross-shore",9
5842041f4e65fad6a7708a1a,2024_03_25,38.148058,-75.17704,Assateague,0.5366666666666666,1.525037037037037,2.019851851851852,9,8,"NIGHT_CLEAR,CLEAR,CLEAR,CLEAR,CLEAR,CLEAR,CLEAR,CLEAR,CLEAR","Cross-shore,Cross-shore,Cross-shore,Cross-shore,Cross-shore,Cross-shore,Cross-shore,Cross-shore,Cross-shore",9
5842041f4e65fad6a7708a1b,2024_03_25,38.33889038664497,-75.08017670566352,North End to Ocean City Inlet,0.6655555555555556,1.5504074074074075,2.0415185185185187,9,8,"NIGHT_CLEAR,CLEAR,CLEAR,CLEAR,CLEAR,CLEAR,CLEAR,MOSTLY_CLEAR,CLEAR","Onshore,Onshore,Onshore,Onshore,Onshore,Onshore,Onshore,Onshore,Onshore",9
5842041f4e65fad6a7708a1c,2024_03_25,38.603993,-75.06271,Indian River Inlet,0.5366666666666666,1.3652703703703704,2.041513888888889,9,8,"NIGHT_CLEAR,CLEAR,CLEAR,CLEAR,CLEAR,CLEAR,CLEAR,MOSTLY_CLOUDY,CLEAR","Cross-shore,Cross-shore,Onshore,Cross-shore,Cross-shore,Cross-shore,Cross-shore,Cross-shore,Cross-shore",9
5842041f4e65fad6a7708a1d,2024_03_25,38.460477,-75.052069,Fenwick Island,0.5,1.347074074074074,1.7944814814814813,9,8,"NIGHT_CLEAR,CLEAR,CLEAR,CLEAR,CLEAR,CLEAR,MOSTLY_CLOUDY,MOSTLY_CLOUDY,CLEAR","Onshore,Onshore,Onshore,Onshore,Onshore,Onshore,Onshore,Onshore,Onshore",9
5842041f4e65fad6a7708a1e,2024_03_25,38.538767,-75.05619,Bethany Beach,0.5366666666666666,1.3672496296296297,2.044607592592593,9,8,"NIGHT_CLEAR,CLEAR,CLEAR,CLEAR,CLEAR,CLEAR,MOSTLY_CLOUDY,MOSTLY_CLOUDY,CLEAR","Onshore,Onshore,Onshore,Onshore,Onshore,Onshore,Onshore,Onshore,Onshore",9
5842041f4e65fad6a7708a1f,2024_03_25,38.697657,-75.075951,Dewey Beach,0.6855555555555556,1.450037037037037,1.8915185185185184,9,8,"NIGHT_CLEAR,CLEAR,CLEAR,CLEAR,CLEAR,CLEAR,MOSTLY_CLOUDY,MOSTLY_CLEAR,CLEAR","Onshore,Onshore,Onshore,Onshore,Onshore,Onshore,Onshore,Onshore,Onshore",9
5842041f4e65fad6a7708a20,2024_03_25,38.75034741676525,-75.08194,Gordons Pond,0.5,1.1937244444444446,1.773475185185185,9,8,"NIGHT_CLEAR,CLEAR,CLEAR,CLEAR,CLEAR,CLEAR,MOSTLY_CLOUDY,MOSTLY_CLEAR,CLEAR","Onshore,Onshore,Onshore,Onshore,Onshore,Onshore,Onshore,Onshore,Onshore",9
5842041f4e65fad6a7708a21,2024_03_25,38.767837,-75.082841,Naval Jetties,0.9077777777777778,1.365037037037037,1.8211481481481482,9,8,"NIGHT_CLEAR,CLEAR,CLEAR,CLEAR,CLEAR,CLEAR,MOSTLY_CLOUDY,MOSTLY_CLEAR,CLEAR","Onshore,Onshore,Onshore,Onshore,Onshore,Onshore,Onshore,Onshore,Onshore",9
5842041f4e65fad6a7708a22,2024_03_25,36.81735875786576,-75.96624,Camp Pendleton,0.9033333333333333,1.371434074074074,1.9670933333333334,10,9,"NIGHT_CLEAR,CLEAR,CLEAR,CLEAR,CLEAR,CLEAR,CLEAR,MOSTLY_CLEAR,CLEAR","Onshore,Onshore,Onshore,Onshore,Onshore,Onshore,Onshore,Onshore,Onshore",9
5842041f4e65fad6a7708a23,2024_03_25,36.9102212316428,-75.98732471466064,North End,0.6477777777777778,1.195962962962963,1.7412592592592593,10,9,"NIGHT_CLEAR,CLEAR,CLEAR,CLEAR,CLEAR,CLEAR,CLEAR,MOSTLY_CLOUDY,CLEAR","Onshore,Onshore,Onshore,Onshore,Onshore,Onshore,Onshore,Onshore,Onshore",9
5842041f4e65fad6a7708a24,2024_03_25,36.737117517621314,-75.93923719853362,Sandbridge Beach,0.5744444444444444,1.3372592592592591,1.9217037037037037,10,9,"NIGHT_CLEAR,CLEAR,CLEAR,CLEAR,CLEAR,CLEAR,CLEAR,MOSTLY_CLEAR,CLEAR","Onshore,Onshore,Onshore,Onshore,Onshore,Onshore,Onshore,Onshore,Onshore",9
5842041f4e65fad6a7708a26,2024_03_25,36.818257440557794,-75.96666,Croatan to Pendleton,0.9777777777777777,1.270322962962963,1.9159081481481481,10,9,"NIGHT_CLEAR,CLEAR,CLEAR,CLEAR,CLEAR,CLEAR,CLEAR,MOSTLY_CLEAR,CLEAR","Onshore,Onshore,Onshore,Onshore,Onshore,Onshore,Onshore,Onshore,Onshore",9
5842041f4e65fad6a7708a27,2024_03_25,36.84318777204769,-75.9719,South End,0.5744444444444444,1.3924444444444444,1.8012592592592591,10,9,"NIGHT_CLEAR,CLEAR,CLEAR,CLEAR,CLEAR,CLEAR,CLEAR,MOSTLY_CLEAR,CLEAR","Onshore,Onshore,Onshore,Onshore,Onshore,Onshore,Onshore,Onshore,Onshore",9
5842041f4e65fad6a7708a28,2024_03_25,37.08612627584661,-75.976121638199,Fishermans Island,0.5555555555555556,0.37066666666666664,0.4497777777777778,10,10,"NIGHT_CLEAR,CLEAR,CLEAR,CLEAR,CLEAR,CLEAR,CLEAR,CLEAR,CLEAR","Cross-shore,Cross-shore,Cross-shore,Cross-shore,Cross-shore,Cross-shore,Cross-shore,Cross-shore,Cross-shore",9
5842041f4e65fad6a7708a38,2024_03_25,35.254619418229026,-75.52074,Cape Hatteras Lighthouse,0.5366666666666666,1.8901637037037038,2.900465740740741,18,17,"NIGHT_CLEAR,CLEAR,CLEAR,CLEAR,CLEAR,CLEAR,CLEAR,CLEAR,CLEAR","Cross-shore,Cross-shore,Cross-shore,Cross-shore,Cross-shore,Cross-shore,Cross-shore,Cross-shore,Cross-shore",9
5842041f4e65fad6a7708a3a,2024_03_25,35.54572934093336,-75.46477,Waves and Salvo,0.5366666666666666,2.7084074074074076,3.265185185185185,16,13,"NIGHT_CLEAR,CLEAR,CLEAR,CLEAR,CLEAR,CLEAR,CLEAR,CLEAR,CLEAR","Cross-shore,Cross-shore,Cross-shore,Cross-shore,Cross-shore,Cross-shore,Cross-shore,Cross-shore,Cross-shore",9
5842041f4e65fad6a7708a3b,2024_03_25,35.22565892751075,-75.63606,Frisco,2.111111111111111,1.1906666666666665,1.6062222222222222,18,17,"NIGHT_CLEAR,CLEAR,CLEAR,CLEAR,CLEAR,CLEAR,CLEAR,CLEAR,CLEAR","Offshore,Offshore,Offshore,Offshore,Offshore,Offshore,Offshore,Offshore,Offshore",9
5842041f4e65fad6a7708a3c,2024_03_25,35.13086,-75.90591,Ocracoke,1,0.8646044444444444,1.3509455555555556,15,15,"NIGHT_CLEAR,CLEAR,CLEAR,CLEAR,CLEAR,CLEAR,CLEAR,CLEAR,CLEAR","Offshore,Offshore,Offshore,Offshore,Offshore,Offshore,Offshore,Offshore,Offshore",9
5842041f4e65fad6a7708a3d,2024_03_25,35.34721340158342,-75.50084,Avon Pier,0.4388888888888889,2.443214814814815,3.6466740740740744,17,14,"NIGHT_CLEAR,CLEAR,CLEAR,CLEAR,CLEAR,CLEAR,CLEAR,CLEAR,CLEAR","Cross-shore,Cross-shore,Cross-shore,Cross-shore,Cross-shore,Cross-shore,Cross-shore,Cross-shore,Cross-shore",9
5842041f4e65fad6a7708a3f,2024_03_25,35.71680821253768,-75.49243,Pea Island,0.6666666666666666,2.5722222222222224,2.858888888888889,10.777777777777779,10.777777777777779,"NIGHT_CLEAR,CLEAR,CLEAR,CLEAR,CLEAR,CLEAR,CLEAR,CLEAR,CLEAR","Onshore,Onshore,Onshore,Onshore,Onshore,Onshore,Onshore,Onshore,Onshore",9
5842041f4e65fad6a7708a40,2024_03_25,35.97427620657821,-75.62984,Nags Head Pier,0.4388888888888889,2.4576962962962963,3.0964,10,9,"NIGHT_CLEAR,CLEAR,CLEAR,CLEAR,CLEAR,CLEAR,CLEAR,CLEAR,CLEAR","Onshore,Onshore,Onshore,Onshore,Onshore,Onshore,Onshore,Onshore,Onshore",9
5842041f4e65fad6a7708a41,2024_03_25,36.0439998039079,-75.67288,Avalon Pier,0.5366666666666666,2.3607037037037037,2.974074074074074,10,9,"NIGHT_CLEAR,CLEAR,CLEAR,CLEAR,CLEAR,CLEAR,CLEAR,CLEAR,CLEAR","Onshore,Onshore,Onshore,Onshore,Onshore,Onshore,Onshore,Onshore,Onshore",9
5842041f4e65fad6a7708a42,2024_03_25,36.03043116489792,-75.66413,First Street,0.4388888888888889,2.348490370370371,3.0759185185185185,10,9,"NIGHT_CLEAR,CLEAR,CLEAR,CLEAR,CLEAR,CLEAR,CLEAR,CLEAR,CLEAR","Onshore,Onshore,Onshore,Onshore,Onshore,Onshore,Onshore,Onshore,Onshore",9
5842041f4e65fad6a7708a43,2024_03_25,36.06829910590498,-75.6899,Old Station/Laundromats,0.5366666666666666,2.259777777777778,2.892777777777778,10,9,"NIGHT_CLEAR,CLEAR,CLEAR,CLEAR,CLEAR,CLEAR,CLEAR,CLEAR,CLEAR","Onshore,Onshore,Onshore,Onshore,Onshore,Onshore,Onshore,Onshore,Onshore",9
5842041f4e65fad6a7708a44,2024_03_25,36.10126676607491,-75.71107462163894,Kitty Hawk Pier,0.4388888888888889,2.370971851851852,3.070362962962963,10,9,"NIGHT_CLEAR,CLEAR,CLEAR,CLEAR,CLEAR,CLEAR,CLEAR,CLEAR,CLEAR","Onshore,Onshore,Onshore,Onshore,Onshore,Onshore,Onshore,Onshore,Onshore",9
5842041f4e65fad6a7708a45,2024_03_25,36.18220630068973,-75.75013580649097,Duck Pier,0.5366666666666666,1.8055555555555556,2.310814814814815,10,9,"NIGHT_CLEAR,CLEAR,CLEAR,CLEAR,CLEAR,CLEAR,CLEAR,CLEAR,CLEAR","Onshore,Onshore,Onshore,Onshore,Onshore,Onshore,Onshore,Onshore,Onshore",9
5842041f4e65fad6a7708a46,2024_03_25,36.37660668125033,-75.82409701687456,Corolla,0.5366666666666666,1.7912962962962964,2.2895185185185185,10,9,"NIGHT_CLEAR,CLEAR,CLEAR,CLEAR,CLEAR,CLEAR,CLEAR,CLEAR,CLEAR","Onshore,Onshore,Onshore,Onshore,Onshore,Onshore,Onshore,Onshore,Onshore",9
5842041f4e65fad6a7708a47,2024_03_25,33.90373404124834,-78.08241431707907,Oak Island,2.5555555555555554,0.39555555555555555,0.6988888888888889,15.777777777777779,15.777777777777779,"NIGHT_CLEAR,NIGHT_CLEAR,CLEAR,CLEAR,MOSTLY_CLEAR,CLEAR,CLEAR,CLEAR,CLEAR","Offshore,Offshore,Offshore,Offshore,Offshore,Offshore,Offshore,Offshore,Offshore",9
5842041f4e65fad6a7708a48,2024_03_25,33.91108837766468,-78.29653,South Brunswick Beaches,2,0.4526788888888889,0.7073122222222222,15,15,"NIGHT_CLEAR,NIGHT_CLEAR,CLEAR,CLEAR,CLEAR,CLEAR,CLEAR,CLEAR,CLEAR","Offshore,Offshore,Offshore,Offshore,Offshore,Offshore,Offshore,Offshore,Offshore",9
5842041f4e65fad6a7708a49,2024_03_25,34.05683595651973,-77.88128,Carolina Beach Pier,1.6944444444444444,0.9101407407407407,1.3111762962962963,16,14,"NIGHT_CLEAR,NIGHT_CLEAR,CLEAR,CLEAR,CLEAR,CLEAR,CLOUDY,MOSTLY_CLEAR,CLEAR","Cross-shore,Cross-shore,Cross-shore,Cross-shore,Cross-shore,Cross-shore,Cross-shore,Cross-shore,Onshore",9
5842041f4e65fad6a7708a4a,2024_03_25,33.96841191816696,-77.9180242565498,Fort Fisher,1.6944444444444444,0.9285481481481481,1.3144355555555556,16,14,"NIGHT_CLEAR,NIGHT_CLEAR,CLEAR,MOSTLY_CLOUDY,MOSTLY_CLOUDY,CLEAR,CLOUDY,CLEAR,CLEAR","Cross-shore,Cross-shore,Cross-shore,Cross-shore,Cross-shore,Cross-shore,Cross-shore,Cross-shore,Onshore",9
5842041f4e65fad6a7708a4b,2024_03_25,34.46776662988774,-77.47083191635772,Topsail Beach,2.4444444444444446,0.8680740740740741,1.1708888888888889,17,16,"NIGHT_CLEAR,NIGHT_CLEAR,CLEAR,CLEAR,CLEAR,CLEAR,CLEAR,CLEAR,CLEAR","Offshore,Offshore,Offshore,Offshore,Offshore,Offshore,Offshore,Offshore,Offshore",9
5842041f4e65fad6a7708a4c,2024_03_25,34.69270354752445,-76.82854854446575,Iron Steamer,2.911111111111111,0.5836177777777778,0.88864,18,17,"NIGHT_CLEAR,NIGHT_CLEAR,CLEAR,CLEAR,CLEAR,CLEAR,CLEAR,CLEAR,CLEAR","Offshore,Offshore,Offshore,Offshore,Offshore,Offshore,Offshore,Offshore,Offshore",9
5842041f4e65fad6a7708a4f,2024_03_25,30.85132684893727,-81.42283496231143,Cumberland Island,0.2222222222222222,1.5811111111111111,1.8611111111111112,17,17,"NIGHT_OVERCAST,NIGHT_OVERCAST,OVERCAST,CLOUDY,CLOUDY,OVERCAST,CLOUDY,LIGHT_RAIN,OVERCAST","Cross-shore,Cross-shore,Cross-shore,Cross-shore,Cross-shore,Cross-shore,Cross-shore,Cross-shore,Cross-shore",9
5842041f4e65fad6a7708a50,2024_03_25,34.686741128540874,-76.47516712138378,Cape Lookout National Seashore,0.3333333333333333,1.3966666666666667,1.6655555555555557,14.777777777777779,14.777777777777779,"NIGHT_CLEAR,NIGHT_CLEAR,CLEAR,CLEAR,CLEAR,CLEAR,MOSTLY_CLOUDY,CLEAR,CLEAR","Cross-shore,Cross-shore,Cross-shore,Cross-shore,Cross-shore,Cross-shore,Cross-shore,Cross-shore,Cross-shore",9
5842041f4e65fad6a7708a51,2024_03_25,31.10585419260024,-81.40422767604812,Jekyll Island,0.3333333333333333,1.04,1.3444444444444443,16.22222222222222,16.22222222222222,"NIGHT_OVERCAST,NIGHT_OVERCAST,OVERCAST,OVERCAST,OVERCAST,OVERCAST,OVERCAST,OVERCAST,DRIZZLE","Onshore,Onshore,Onshore,Onshore,Onshore,Onshore,Onshore,Onshore,Onshore",9
5842041f4e65fad6a7708a52,2024_03_25,31.16212806376699,-81.32512426500224,Harbor Marker Buoys,0,0.9666666666666667,1.1566666666666667,16.22222222222222,16.22222222222222,"NIGHT_OVERCAST,NIGHT_OVERCAST,CLOUDY,OVERCAST,CLOUDY,OVERCAST,CLOUDY,LIGHT_RAIN,LIGHT_RAIN","Onshore,Onshore,Onshore,Onshore,Cross-shore,Cross-shore,Cross-shore,Cross-shore,Cross-shore",9
5842041f4e65fad6a7708a53,2024_03_25,31.20076299997009,-81.32629,Sea Island,0,1.3788888888888888,1.6288888888888888,16.22222222222222,16.22222222222222,"NIGHT_OVERCAST,NIGHT_OVERCAST,OVERCAST,OVERCAST,OVERCAST,OVERCAST,DRIZZLE,OVERCAST,DRIZZLE","Cross-shore,Cross-shore,Cross-shore,Cross-shore,Cross-shore,Cross-shore,Cross-shore,Cross-shore,Cross-shore",9
