_id,date,lat,lon,name,daily_mean_swell_rating,daily_mean_wave_height_min,daily_mean_wave_height_max,daily_mean_water_temperature_max,daily_mean_water_temperature_min,weather_per_timestamp,wind_per_timestamp,n_samples_per_day
5842041f4e65fad6a77087f9,2024_04_16,37.741668,-122.51038,South Ocean Beach,2.4285714285714284,1.0912285714285714,1.3254142857142857,14,14,"NIGHT_BRIEF_SHOWERS_POSSIBLE,NIGHT_BRIEF_SHOWERS_POSSIBLE,NIGHT_MIST,NIGHT_MIST,NIGHT_MIST,NIGHT_MIST,NIGHT_CLEAR","Onshore,Onshore,Onshore,Onshore,Offshore,Offshore,Cross-shore",7
5842041f4e65fad6a7708801,2024_04_16,37.49142,-122.50428,Maverick's,NA,1.4975,1.7958,13,13,"NIGHT_BRIEF_SHOWERS,NIGHT_BRIEF_SHOWERS,NIGHT_MIST,NIGHT_MIST,NIGHT_MIST,NIGHT_MIST,NIGHT_CLEAR","Offshore,Cross-shore,Offshore,Offshore,Offshore,Cross-shore,Cross-shore",7
5842041f4e65fad6a7708804,2024_04_16,44.997,-124.018,Roads End,2.7142857142857144,1.4914285714285713,1.76,11,11,"NIGHT_MOSTLY_CLOUDY,NIGHT_MOSTLY_CLOUDY,NIGHT_MOSTLY_CLOUDY,NIGHT_CLEAR,NIGHT_MOSTLY_CLOUDY,NIGHT_MOSTLY_CLOUDY,NIGHT_LIGHT_SHOWERS","Cross-shore,Cross-shore,Onshore,Cross-shore,Cross-shore,Cross-shore,Cross-shore",7
5842041f4e65fad6a7708805,2024_04_16,36.95188851423011,-122.02522,Steamer Lane,3,0.9662285714285714,1.1606857142857143,14,14,"NIGHT_MIST,NIGHT_MIST,NIGHT_MOSTLY_CLEAR,NIGHT_MOSTLY_CLEAR,NIGHT_MOSTLY_CLEAR,NIGHT_MIST,NIGHT_CLEAR","Onshore,Cross-shore,Cross-shore,Cross-shore,Offshore,Offshore,Offshore",7
5842041f4e65fad6a7708806,2024_04_16,36.95918781542251,-122.02489,Cowells,1,0,0.20338571428571428,14,14,"NIGHT_MIST,NIGHT_MIST,NIGHT_MOSTLY_CLEAR,NIGHT_MOSTLY_CLEAR,NIGHT_MOSTLY_CLEAR,NIGHT_MIST,NIGHT_CLEAR","Onshore,Onshore,Cross-shore,Cross-shore,Offshore,Offshore,Cross-shore",7
5842041f4e65fad6a7708807,2024_04_16,36.95468082526536,-121.97234,Pleasure Point,3,0.9849857142857142,1.1834571428571428,14,14,"NIGHT_CLEAR,NIGHT_CLEAR,NIGHT_CLEAR,NIGHT_MOSTLY_CLEAR,NIGHT_MOSTLY_CLEAR,NIGHT_CLEAR,NIGHT_CLEAR","Offshore,Onshore,Cross-shore,Offshore,Cross-shore,Onshore,Cross-shore",7
5842041f4e65fad6a770880a,2024_04_16,35.37815414378748,-120.86589,Morro Bay,3,0.7730142857142857,1.0446142857142857,12,12,"NIGHT_CLEAR,NIGHT_MIST,NIGHT_MIST,NIGHT_MIST,NIGHT_CLEAR,NIGHT_CLEAR,NIGHT_CLEAR","Offshore,Offshore,Offshore,Cross-shore,Cross-shore,Onshore,Offshore",7
5842041f4e65fad6a770880b,2024_04_16,36.95782765000708,-121.96729,Jack's,3,0.4266,0.7310571428571428,14,14,"NIGHT_CLEAR,NIGHT_CLEAR,NIGHT_CLEAR,NIGHT_MOSTLY_CLEAR,NIGHT_MOSTLY_CLEAR,NIGHT_CLEAR,NIGHT_CLEAR","Onshore,Onshore,Onshore,Offshore,Offshore,Onshore,Cross-shore",7
5842041f4e65fad6a770880d,2024_04_16,34.29982939936656,-119.3489016603669,Gold Coast Beachbreaks,3,0.43714285714285717,0.7442857142857143,13,13,"NIGHT_CLEAR,NIGHT_CLEAR,NIGHT_CLEAR,NIGHT_CLEAR,NIGHT_CLEAR,NIGHT_CLEAR,NIGHT_CLEAR","Onshore,Cross-shore,Cross-shore,Cross-shore,Cross-shore,Cross-shore,Cross-shore",7
5842041f4e65fad6a7708811,2024_04_16,34.245076,-119.26799,Ventura Harbor,3,0.9472357142857143,1.2211685714285714,13,13,"NIGHT_MOSTLY_CLEAR,NIGHT_MIST,NIGHT_CLEAR,NIGHT_CLEAR,NIGHT_CLEAR,NIGHT_CLEAR,NIGHT_CLEAR","Cross-shore,Cross-shore,Offshore,Offshore,Offshore,Onshore,Cross-shore",7
5842041f4e65fad6a7708813,2024_04_16,34.051,-118.964,County Line,2.5714285714285716,0.6542571428571429,0.9704857142857143,14,14,"NIGHT_CLEAR,NIGHT_MIST,NIGHT_MIST,NIGHT_CLEAR,NIGHT_CLEAR,NIGHT_CLEAR,NIGHT_CLEAR","Onshore,Offshore,Offshore,Offshore,Offshore,Offshore,Offshore",7
5842041f4e65fad6a7708814,2024_04_16,34.37256264378892,-119.47797,Rincon,2.5714285714285716,0.3142857142857143,0.6185714285714285,13,13,"NIGHT_MIST,NIGHT_CLEAR,NIGHT_CLEAR,NIGHT_CLEAR,NIGHT_CLEAR,NIGHT_CLEAR,NIGHT_CLEAR","Onshore,Cross-shore,Cross-shore,Cross-shore,Cross-shore,Offshore,Cross-shore",7
5842041f4e65fad6a7708817,2024_04_16,34.03096101876324,-118.68109,Malibu Third Point,3,0.9185714285714286,1.12,13.857142857142858,13.857142857142858,"NIGHT_CLEAR,NIGHT_CLEAR,NIGHT_MIST,NIGHT_CLEAR,NIGHT_MIST,NIGHT_MIST,NIGHT_CLEAR","Onshore,Cross-shore,Cross-shore,Cross-shore,Cross-shore,Cross-shore,Offshore",7
5842041f4e65fad6a7708819,2024_04_16,33.984079047970035,-118.47382,Venice Beach,3,0.7715857142857143,1.0811285714285714,14,14,"NIGHT_MOSTLY_CLOUDY,NIGHT_MOSTLY_CLOUDY,NIGHT_MOSTLY_CLOUDY,NIGHT_MIST,NIGHT_MIST,NIGHT_MIST,NIGHT_CLEAR","Cross-shore,Offshore,Offshore,Cross-shore,Cross-shore,Cross-shore,Cross-shore",7
5842041f4e65fad6a770881e,2024_04_16,34.037508438646746,-118.5834,Topanga Beach,3,0.5235428571428572,0.8303142857142857,14,14,"NIGHT_MOSTLY_CLEAR,NIGHT_MOSTLY_CLOUDY,NIGHT_MIST,NIGHT_CLEAR,NIGHT_CLEAR,NIGHT_CLEAR,NIGHT_CLEAR","Offshore,Cross-shore,Offshore,Offshore,Offshore,Offshore,Offshore",7
5842041f4e65fad6a7708820,2024_04_16,33.73954373690184,-118.11414,Seal Beach Jetty,3,0.3457142857142857,0.6514285714285715,14,14,"NIGHT_CLEAR,NIGHT_CLEAR,NIGHT_CLEAR,NIGHT_CLEAR,NIGHT_CLOUDY,NIGHT_CLOUDY,NIGHT_CLEAR","Offshore,Cross-shore,Cross-shore,Onshore,Cross-shore,Offshore,Cross-shore",7
5842041f4e65fad6a7708822,2024_04_16,33.72309983348433,-118.08078,Anderson Street,2,0.2332,0.5431,14,14,"NIGHT_CLEAR,NIGHT_CLEAR,NIGHT_CLEAR,NIGHT_CLEAR,NIGHT_CLEAR,NIGHT_CLOUDY,NIGHT_CLEAR","Offshore,Offshore,Offshore,Cross-shore,Cross-shore,Offshore,Cross-shore",7
5842041f4e65fad6a7708827,2024_04_16,33.65574085629463,-118.00397,Huntington Beach Pier Northside,3,1.0119428571428573,1.2682714285714285,14,14,"NIGHT_MIST,NIGHT_MIST,NIGHT_CLEAR,NIGHT_CLEAR,NIGHT_CLOUDY,NIGHT_CLOUDY,NIGHT_CLEAR","Onshore,Offshore,Onshore,Cross-shore,Cross-shore,Offshore,Cross-shore",7
5842041f4e65fad6a7708828,2024_04_16,34.272041739333,-119.29976,C St.,3,0.5735428571428571,0.8774571428571428,13,13,"NIGHT_MIST,NIGHT_CLEAR,NIGHT_CLEAR,NIGHT_CLEAR,NIGHT_CLEAR,NIGHT_CLEAR,NIGHT_CLEAR","Cross-shore,Offshore,Offshore,Offshore,Offshore,Offshore,Offshore",7
5842041f4e65fad6a770882a,2024_04_16,33.61555743705257,-117.93676,Newport Lower Jetties,3,0.5207,0.8219428571428572,15,15,"NIGHT_MIST,NIGHT_CLEAR,NIGHT_CLEAR,NIGHT_CLEAR,NIGHT_CLOUDY,NIGHT_OVERCAST,NIGHT_CLEAR","Cross-shore,Cross-shore,Cross-shore,Cross-shore,Offshore,Offshore,Offshore",7
5842041f4e65fad6a770882b,2024_04_16,33.5930302087,-117.88199,The Wedge,3.142857142857143,1.5883182142857142,1.9598032142857142,15,15,"NIGHT_MIST,NIGHT_MOSTLY_CLOUDY,NIGHT_MOSTLY_CLOUDY,NIGHT_MOSTLY_CLOUDY,NIGHT_OVERCAST,NIGHT_OVERCAST,NIGHT_CLEAR","Offshore,Offshore,Offshore,Offshore,Offshore,Offshore,Offshore",7
5842041f4e65fad6a770882c,2024_04_16,33.60577342582,-117.9315376281,Newport Beach Pier,2.4285714285714284,0.4314142857142857,0.7373000000000001,15,15,"NIGHT_MOSTLY_CLOUDY,NIGHT_MIST,NIGHT_MOSTLY_CLOUDY,NIGHT_OVERCAST,NIGHT_OVERCAST,NIGHT_OVERCAST,NIGHT_CLEAR","Cross-shore,Cross-shore,Cross-shore,Offshore,Offshore,Offshore,Onshore",7
5842041f4e65fad6a770882e,2024_04_16,33.475793399792984,-117.72291,Salt Creek,3,0.8444428571428572,1.0846142857142858,14,14,"NIGHT_CLEAR,NIGHT_CLEAR,NIGHT_CLEAR,NIGHT_CLEAR,NIGHT_MOSTLY_CLOUDY,NIGHT_MOSTLY_CLOUDY,NIGHT_CLEAR","Cross-shore,Cross-shore,Cross-shore,Offshore,Offshore,Offshore,Onshore",7
5842041f4e65fad6a7708830,2024_04_16,33.41800974113613,-117.61952,T-Street,3,0.6728428571428572,0.9884571428571428,16,16,"NIGHT_CLEAR,NIGHT_CLEAR,NIGHT_CLEAR,NIGHT_MOSTLY_CLOUDY,NIGHT_MOSTLY_CLOUDY,NIGHT_MOSTLY_CLOUDY,NIGHT_CLEAR","Cross-shore,Offshore,Cross-shore,Offshore,Cross-shore,Cross-shore,Offshore",7
5842041f4e65fad6a7708832,2024_04_16,33.202391008646,-117.39475,Oceanside Harbor,3,0.7205238095238095,1.0463809523809524,14,14,"NIGHT_MOSTLY_CLOUDY,NIGHT_MOSTLY_CLOUDY,NIGHT_MIST,NIGHT_BRIEF_SHOWERS,NIGHT_BRIEF_SHOWERS,NIGHT_MOSTLY_CLOUDY,NIGHT_CLEAR","Cross-shore,Offshore,Offshore,Offshore,Offshore,Offshore,Onshore",7
5842041f4e65fad6a7708835,2024_04_16,33.19477795952803,-117.38667,Oceanside Pier,3,0.629095238095238,0.9368095238095239,14,14,"NIGHT_MOSTLY_CLOUDY,NIGHT_MOSTLY_CLOUDY,NIGHT_BRIEF_SHOWERS,NIGHT_MIST,NIGHT_MIST,NIGHT_MOSTLY_CLOUDY,NIGHT_CLEAR","Onshore,Cross-shore,Cross-shore,Offshore,Offshore,Offshore,Onshore",7
5842041f4e65fad6a7708837,2024_04_16,33.14948100706,-117.35029,Tamarack,3,1.0114285714285713,1.2085714285714286,15,15,"NIGHT_MIST,NIGHT_MOSTLY_CLOUDY,NIGHT_OVERCAST,NIGHT_MIST,NIGHT_MIST,NIGHT_OVERCAST,NIGHT_CLEAR","Cross-shore,Offshore,Offshore,Offshore,Offshore,Offshore,Offshore",7
5842041f4e65fad6a7708839,2024_04_16,32.865777159358856,-117.25614,Scripps,2.857142857142857,0.7762380952380953,1.0994761904761905,16,16,"NIGHT_MIST,NIGHT_OVERCAST,NIGHT_OVERCAST,NIGHT_MOSTLY_CLOUDY,NIGHT_MOSTLY_CLOUDY,NIGHT_MOSTLY_CLOUDY,NIGHT_CLEAR","Onshore,Onshore,Cross-shore,Cross-shore,Onshore,Cross-shore,Onshore",7
5842041f4e65fad6a770883a,2024_04_16,32.813094,-117.27381,Birdrock,3,0.6785714285714286,0.9814285714285714,15,15,"NIGHT_OVERCAST,NIGHT_OVERCAST,NIGHT_OVERCAST,NIGHT_MOSTLY_CLOUDY,NIGHT_MOSTLY_CLOUDY,NIGHT_MOSTLY_CLOUDY,NIGHT_CLEAR","Offshore,Offshore,Offshore,Offshore,Offshore,Offshore,Offshore",7
5842041f4e65fad6a770883b,2024_04_16,32.877231,-117.25303,Blacks,2.857142857142857,1.0064761904761905,1.255,16,16,"NIGHT_MIST,NIGHT_OVERCAST,NIGHT_OVERCAST,NIGHT_MOSTLY_CLOUDY,NIGHT_MOSTLY_CLOUDY,NIGHT_MOSTLY_CLOUDY,NIGHT_CLEAR","Onshore,Onshore,Onshore,Onshore,Cross-shore,Offshore,Cross-shore",7
5842041f4e65fad6a770883c,2024_04_16,32.82978974229765,-117.28162,Windansea,2.857142857142857,0.8836190476190476,1.2247619047619047,15,15,"NIGHT_OVERCAST,NIGHT_OVERCAST,NIGHT_MIST,NIGHT_MIST,NIGHT_MOSTLY_CLOUDY,NIGHT_MOSTLY_CLOUDY,NIGHT_CLEAR","Cross-shore,Cross-shore,Cross-shore,Cross-shore,Cross-shore,Cross-shore,Cross-shore",7
5842041f4e65fad6a770883d,2024_04_16,32.838278,-117.28396,Horseshoe,3,0.8628571428571429,1.167142857142857,15,15,"NIGHT_OVERCAST,NIGHT_OVERCAST,NIGHT_MIST,NIGHT_MIST,NIGHT_MOSTLY_CLOUDY,NIGHT_MOSTLY_CLOUDY,NIGHT_CLEAR","Cross-shore,Cross-shore,Offshore,Cross-shore,Cross-shore,Cross-shore,Cross-shore",7
5842041f4e65fad6a770883f,2024_04_16,32.75034717673179,-117.25337,Ocean Beach,3,0.8402857142857143,1.128809523809524,15,15,"NIGHT_MIST,NIGHT_MIST,NIGHT_MIST,NIGHT_MIST,NIGHT_MOSTLY_CLOUDY,NIGHT_CLOUDY,NIGHT_CLEAR","Onshore,Cross-shore,Onshore,Cross-shore,Cross-shore,Offshore,Offshore",7
5842041f4e65fad6a7708840,2024_04_16,32.73693,-117.25718,Sunset Cliffs,2,0.6857142857142857,0.9885714285714285,15,15,"NIGHT_MIST,NIGHT_MIST,NIGHT_MIST,NIGHT_MIST,NIGHT_MIST,NIGHT_OVERCAST,NIGHT_CLEAR","Onshore,Cross-shore,Onshore,Cross-shore,Cross-shore,Offshore,Cross-shore",7
5842041f4e65fad6a7708841,2024_04_16,32.796582258728826,-117.25779,Pacific Beach,3,0.8090952380952381,1.1335238095238094,15,15,"NIGHT_MIST,NIGHT_MIST,NIGHT_MIST,NIGHT_MIST,NIGHT_MIST,NIGHT_MOSTLY_CLOUDY,NIGHT_CLEAR","Offshore,Offshore,Offshore,Offshore,Offshore,Offshore,Offshore",7
5842041f4e65fad6a7708842,2024_04_16,32.776636,-117.25514,Mission Beach,3,0.8264761904761905,1.1482857142857141,15,15,"NIGHT_MIST,NIGHT_MIST,NIGHT_MIST,NIGHT_MIST,NIGHT_MIST,NIGHT_MOSTLY_CLOUDY,NIGHT_CLEAR","Cross-shore,Offshore,Offshore,Offshore,Offshore,Offshore,Offshore",7
5842041f4e65fad6a7708844,2024_04_16,32.577195519016,-117.13475,Imperial Beach Pier,2.857142857142857,0.7542857142857143,1.0585714285714285,15,15,"NIGHT_MIST,NIGHT_MIST,NIGHT_MIST,NIGHT_MOSTLY_CLOUDY,NIGHT_MOSTLY_CLOUDY,NIGHT_MOSTLY_CLOUDY,NIGHT_CLEAR","Onshore,Cross-shore,Cross-shore,Cross-shore,Onshore,Onshore,Cross-shore",7
5842041f4e65fad6a770884a,2024_04_16,42.88678181061,-70.80843,Seabrook,2.7142857142857144,0.5992005952380952,0.9258220238095238,6,4,"NIGHT_CLEAR,NIGHT_CLEAR,NIGHT_CLEAR,NIGHT_CLEAR,CLEAR,CLEAR,CLEAR","Offshore,Offshore,Offshore,Offshore,Offshore,Offshore,Offshore",7
5842041f4e65fad6a770884e,2024_04_16,41.434181432898335,-71.45312,Narragansett,2.9757142857142855,0.5232238095238095,0.8288238095238095,9,8,"NIGHT_CLEAR,NIGHT_CLEAR,NIGHT_CLEAR,NIGHT_CLEAR,NIGHT_CLEAR,CLEAR,CLEAR","Offshore,Offshore,Offshore,Offshore,Offshore,Offshore,Offshore",7
5842041f4e65fad6a7708850,2024_04_16,40.582703230722,-73.65247,Lincoln Blvd,1.8814285714285715,0.5913190476190476,0.8956095238095239,9,7,"NIGHT_CLEAR,NIGHT_CLEAR,NIGHT_CLEAR,NIGHT_CLEAR,NIGHT_CLEAR,CLEAR,CLEAR","Cross-shore,Offshore,Offshore,Offshore,Offshore,Offshore,Offshore",7
5842041f4e65fad6a7708852,2024_04_16,40.58342841721757,-73.81182,Rockaways,2.9757142857142855,0.5725095238095238,0.9199571428571428,9,7,"NIGHT_CLEAR,NIGHT_CLEAR,NIGHT_CLEAR,NIGHT_CLEAR,NIGHT_CLEAR,CLEAR,CLEAR","Offshore,Offshore,Offshore,Offshore,Offshore,Offshore,Offshore",7
5842041f4e65fad6a7708853,2024_04_16,40.330474,-73.9734,Monmouth Beach,2.2857142857142856,0.4654809523809524,0.7683428571428571,10,8,"NIGHT_CLEAR,NIGHT_CLEAR,NIGHT_CLEAR,NIGHT_CLEAR,NIGHT_CLEAR,CLEAR,CLEAR","Offshore,Offshore,Offshore,Offshore,Offshore,Offshore,Cross-shore",7
5842041f4e65fad6a7708856,2024_04_16,40.113,-74.028,Manasquan Inlet,2.6957142857142857,0.5952190476190476,0.8968761904761905,10,8,"NIGHT_MOSTLY_CLEAR,NIGHT_CLEAR,NIGHT_CLEAR,NIGHT_CLEAR,NIGHT_CLEAR,CLEAR,CLEAR","Cross-shore,Cross-shore,Offshore,Offshore,Offshore,Offshore,Offshore",7
5842041f4e65fad6a7708857,2024_04_16,39.941519877445664,-74.06829,Casino Pier,2.737142857142857,0.5538904761904763,0.9157666666666666,10,8,"NIGHT_MOSTLY_CLEAR,NIGHT_MOSTLY_CLEAR,NIGHT_CLEAR,NIGHT_CLEAR,NIGHT_CLEAR,CLEAR,CLEAR","Cross-shore,Cross-shore,Offshore,Offshore,Offshore,Offshore,Cross-shore",7
5842041f4e65fad6a7708858,2024_04_16,39.28223089949212,-74.55766,North End OC,2.7142857142857144,0.5175095238095238,0.8203714285714286,10,8,"NIGHT_MOSTLY_CLOUDY,NIGHT_MOSTLY_CLEAR,NIGHT_CLEAR,NIGHT_CLEAR,NIGHT_CLEAR,CLEAR,CLEAR","Offshore,Cross-shore,Offshore,Offshore,Offshore,Offshore,Offshore",7
5842041f4e65fad6a770885b,2024_04_16,39.65080599934257,-74.17146,Ship Bottom,2.5714285714285716,0.5690095238095239,0.9336238095238095,10,8,"NIGHT_CLEAR,NIGHT_CLEAR,NIGHT_CLEAR,NIGHT_CLEAR,NIGHT_CLEAR,CLEAR,CLEAR","Cross-shore,Offshore,Onshore,Cross-shore,Offshore,Offshore,Offshore",7
5842041f4e65fad6a7708863,2024_04_16,36.034151543144,-75.66791,Third Street,1.4285714285714286,0.16130952380952382,0.4683380952380953,13,10,"NIGHT_CLEAR,NIGHT_CLEAR,NIGHT_CLEAR,NIGHT_CLEAR,NIGHT_CLEAR,CLEAR,CLEAR","Offshore,Offshore,Cross-shore,Cross-shore,Onshore,Onshore,Onshore",7
5842041f4e65fad6a7708867,2024_04_16,35.605833221351425,-75.46303,S-Turns,1.9714285714285715,0.5328666666666667,0.8371571428571429,16,14,"NIGHT_CLEAR,NIGHT_CLEAR,NIGHT_CLEAR,NIGHT_CLEAR,NIGHT_CLEAR,CLEAR,CLEAR","Offshore,Offshore,Offshore,Offshore,Offshore,Offshore,Cross-shore",7
5842041f4e65fad6a770886d,2024_04_16,38.338461,-75.08117,Ocean City Boardwalk,1.7385714285714287,0.5163190476190477,0.817752380952381,12,10,"NIGHT_CLEAR,NIGHT_MIST,NIGHT_CLEAR,NIGHT_CLEAR,NIGHT_CLEAR,MOSTLY_CLEAR,CLEAR","Cross-shore,Onshore,Onshore,Onshore,Onshore,Onshore,Onshore",7
5842041f4e65fad6a770886f,2024_04_16,29.844757212379562,-81.26136,A St.,1.4285714285714286,0.28285714285714286,0.5885714285714285,20,20,"NIGHT_CLEAR,NIGHT_CLEAR,NIGHT_CLEAR,NIGHT_CLEAR,NIGHT_CLEAR,CLEAR,CLEAR","Cross-shore,Offshore,Offshore,Cross-shore,Cross-shore,Cross-shore,Cross-shore",7
5842041f4e65fad6a7708871,2024_04_16,29.069417851135093,-80.90824,New Smyrna Beach,1.9528571428571428,0.5527000000000001,0.8533952380952381,22,20,"NIGHT_CLEAR,NIGHT_CLEAR,NIGHT_CLEAR,NIGHT_CLEAR,NIGHT_CLEAR,CLEAR,CLEAR","Cross-shore,Cross-shore,Cross-shore,Offshore,Cross-shore,Cross-shore,Offshore",7
5842041f4e65fad6a7708872,2024_04_16,28.367707417566,-80.60171,Cocoa Beach Pier,1.7142857142857142,0.30756190476190476,0.6066476190476191,24,23,"NIGHT_CLEAR,NIGHT_CLEAR,NIGHT_CLEAR,NIGHT_CLEAR,NIGHT_CLEAR,CLEAR,CLEAR","Onshore,Onshore,Onshore,Onshore,Onshore,Onshore,Onshore",7
5842041f4e65fad6a7708873,2024_04_16,28.091782738658846,-80.56479,Indialantic,1,0.25774285714285716,0.5620333333333334,24,23,"NIGHT_CLEAR,NIGHT_CLEAR,NIGHT_CLEAR,NIGHT_MOSTLY_CLEAR,NIGHT_MOSTLY_CLEAR,CLEAR,CLEAR","Onshore,Onshore,Onshore,Onshore,Onshore,Onshore,Onshore",7
5842041f4e65fad6a7708876,2024_04_16,27.25392904143517,-80.19455,Jensen Beach,0.7428571428571429,0.22456571428571434,0.5338895238095238,24,23,"NIGHT_MOSTLY_CLOUDY,NIGHT_MOSTLY_CLOUDY,NIGHT_CLEAR,NIGHT_MOSTLY_CLOUDY,NIGHT_MOSTLY_CLOUDY,MOSTLY_CLOUDY,CLEAR","Onshore,Onshore,Onshore,Onshore,Onshore,Onshore,Onshore",7
5842041f4e65fad6a7708879,2024_04_16,26.76346795333825,-80.0360655784607,Reef Road,0.028571428571428574,0.004333333333333332,0.30775238095238094,26,24,"NIGHT_MOSTLY_CLOUDY,NIGHT_OVERCAST,NIGHT_OVERCAST,NIGHT_OVERCAST,NIGHT_OVERCAST,BRIEF_SHOWERS,CLEAR","Onshore,Onshore,Onshore,Onshore,Onshore,Onshore,Onshore",7
5842041f4e65fad6a770887c,2024_04_16,26.336499228484,-80.06956100463,Boca Raton Inlet,0,0,0.2681,26,24,"NIGHT_MOSTLY_CLOUDY,NIGHT_MOSTLY_CLOUDY,NIGHT_CLOUDY,NIGHT_MOSTLY_CLOUDY,NIGHT_CLEAR,BRIEF_SHOWERS,CLEAR","Onshore,Onshore,Onshore,Onshore,Onshore,Onshore,Onshore",7
5842041f4e65fad6a770887d,2024_04_16,26.31719311695038,-80.07453,Deerfield Beach Pier,0.028571428571428574,1.6790476190476394e-4,0.3041298095238095,26,24,"NIGHT_MOSTLY_CLOUDY,NIGHT_MOSTLY_CLOUDY,NIGHT_OVERCAST,NIGHT_MOSTLY_CLOUDY,NIGHT_MOSTLY_CLOUDY,MOSTLY_CLOUDY,CLEAR","Onshore,Onshore,Onshore,Onshore,Onshore,Onshore,Onshore",7
5842041f4e65fad6a7708881,2024_04_16,30.20276320866628,-85.85626528676136,"Spyglass Dr., Panama City",0,0,0.1566857142857143,19,18,"NIGHT_MIST,NIGHT_CLEAR,NIGHT_CLEAR,NIGHT_CLEAR,NIGHT_OVERCAST,NIGHT_MIST,CLEAR","Onshore,Onshore,Onshore,Onshore,Cross-shore,Offshore,Cross-shore",7
5842041f4e65fad6a7708884,2024_04_16,33.39000832738053,-117.59852,Cottons,3,0.8594428571428572,1.1250571428571428,16,16,"NIGHT_CLEAR,NIGHT_MOSTLY_CLOUDY,NIGHT_MOSTLY_CLOUDY,NIGHT_MOSTLY_CLOUDY,NIGHT_MOSTLY_CLOUDY,NIGHT_MOSTLY_CLOUDY,NIGHT_CLEAR","Cross-shore,Offshore,Offshore,Cross-shore,Offshore,Offshore,Cross-shore",7
5842041f4e65fad6a7708885,2024_04_16,33.359416282661,-117.54167901405711,Trails,3,0.5628571428571428,0.8685714285714285,14.857142857142858,14.857142857142858,"NIGHT_MOSTLY_CLEAR,NIGHT_MOSTLY_CLOUDY,NIGHT_MIST,NIGHT_MIST,NIGHT_MOSTLY_CLOUDY,NIGHT_MOSTLY_CLOUDY,NIGHT_CLEAR","Offshore,Offshore,Offshore,Offshore,Cross-shore,Offshore,Offshore",7
5842041f4e65fad6a7708886,2024_04_16,33.38042605929805,-117.58332,Middles,3.4285714285714284,1.0830142857142857,1.3628285714285715,16,16,"NIGHT_CLEAR,NIGHT_MOSTLY_CLOUDY,NIGHT_MOSTLY_CLOUDY,NIGHT_MOSTLY_CLOUDY,NIGHT_MOSTLY_CLOUDY,NIGHT_MOSTLY_CLOUDY,NIGHT_CLEAR","Offshore,Offshore,Offshore,Offshore,Offshore,Offshore,Offshore",7
5842041f4e65fad6a7708887,2024_04_16,33.38445596302903,-117.59445,Upper Trestles,3,0.8462285714285714,1.0900571428571428,16,16,"NIGHT_CLEAR,NIGHT_MOSTLY_CLOUDY,NIGHT_MOSTLY_CLOUDY,NIGHT_MOSTLY_CLOUDY,NIGHT_MOSTLY_CLOUDY,NIGHT_MOSTLY_CLOUDY,NIGHT_CLEAR","Offshore,Offshore,Offshore,Offshore,Offshore,Offshore,Offshore",7
5842041f4e65fad6a7708889,2024_04_16,28.944414,-95.28883,Surfside,1,0.9180285714285714,1.4344185714285715,22,22,"NIGHT_MIST,NIGHT_DRIZZLE,NIGHT_MIST,NIGHT_MIST,NIGHT_DRIZZLE,NIGHT_DRIZZLE,CLOUDY","Onshore,Onshore,Onshore,Onshore,Onshore,Onshore,Onshore",7
5842041f4e65fad6a770888a,2024_04_16,33.38143999849023,-117.58843,Lower Trestles,3,0.9908714285714286,1.3072857142857144,16,16,"NIGHT_CLEAR,NIGHT_MOSTLY_CLOUDY,NIGHT_MOSTLY_CLOUDY,NIGHT_MOSTLY_CLOUDY,NIGHT_MOSTLY_CLOUDY,NIGHT_MOSTLY_CLOUDY,NIGHT_CLEAR","Offshore,Offshore,Offshore,Offshore,Offshore,Offshore,Offshore",7
5842041f4e65fad6a770888b,2024_04_16,33.379622288757,-117.57894,Church,4,1.2401571428571427,1.4860428571428572,16,16,"NIGHT_CLEAR,NIGHT_MOSTLY_CLOUDY,NIGHT_MOSTLY_CLOUDY,NIGHT_MOSTLY_CLOUDY,NIGHT_MOSTLY_CLOUDY,NIGHT_MOSTLY_CLOUDY,NIGHT_CLEAR","Cross-shore,Offshore,Offshore,Offshore,Offshore,Offshore,Offshore",7
5842041f4e65fad6a770888d,2024_04_16,21.679,-158.042,Sunset Beach,1.4285714285714286,3.1153285714285714,3.6354,26,25,"NIGHT_CLEAR,NIGHT_CLEAR,NIGHT_CLEAR,NIGHT_MOSTLY_CLOUDY,NIGHT_SHOWERS,NIGHT_MOSTLY_CLEAR,NIGHT_BRIEF_SHOWERS","Onshore,Onshore,Onshore,Onshore,Onshore,Onshore,Onshore",7
5842041f4e65fad6a770888e,2024_04_16,21.670550036401,-158.0482,Rocky Point,1.7142857142857142,2.9664,3.4143285714285714,26,25,"NIGHT_CLEAR,NIGHT_CLEAR,NIGHT_CLEAR,NIGHT_MOSTLY_CLEAR,NIGHT_MOSTLY_CLEAR,NIGHT_MOSTLY_CLEAR,NIGHT_BRIEF_SHOWERS","Onshore,Onshore,Onshore,Onshore,Onshore,Onshore,Onshore",7
5842041f4e65fad6a770888f,2024_04_16,21.668,-158.05,Chambers,1.7142857142857142,2.8485714285714288,3.287142857142857,25,25,"NIGHT_CLEAR,NIGHT_CLEAR,NIGHT_CLEAR,NIGHT_MOSTLY_CLEAR,NIGHT_MOSTLY_CLEAR,NIGHT_MOSTLY_CLEAR,NIGHT_BRIEF_SHOWERS","Onshore,Onshore,Onshore,Onshore,Onshore,Onshore,Onshore",7
5842041f4e65fad6a7708890,2024_04_16,21.66522,-158.0526,Pipeline,1.5714285714285714,2.673542857142857,3.161928571428571,26,25,"NIGHT_CLEAR,NIGHT_CLEAR,NIGHT_CLEAR,NIGHT_MOSTLY_CLEAR,NIGHT_MOSTLY_CLEAR,NIGHT_MOSTLY_CLEAR,NIGHT_BRIEF_SHOWERS","Onshore,Onshore,Onshore,Onshore,Onshore,Onshore,Onshore",7
5842041f4e65fad6a7708891,2024_04_16,21.665,-158.054,Backdoor,1.8571428571428572,2.673542857142857,3.161928571428571,26,25,"NIGHT_CLEAR,NIGHT_CLEAR,NIGHT_CLEAR,NIGHT_MOSTLY_CLEAR,NIGHT_MOSTLY_CLEAR,NIGHT_MOSTLY_CLEAR,NIGHT_BRIEF_SHOWERS","Onshore,Onshore,Onshore,Onshore,Onshore,Onshore,Onshore",7
5842041f4e65fad6a7708892,2024_04_16,21.662,-158.057,Rockpile,1.1428571428571428,3.0485714285714285,3.56,25,25,"NIGHT_CLEAR,NIGHT_CLEAR,NIGHT_CLEAR,NIGHT_MOSTLY_CLEAR,NIGHT_MOSTLY_CLEAR,NIGHT_MOSTLY_CLEAR,NIGHT_BRIEF_SHOWERS","Onshore,Onshore,Onshore,Onshore,Onshore,Onshore,Onshore",7
5842041f4e65fad6a7708893,2024_04_16,21.65870453806827,-158.06058,Log Cabins,2,2.4385714285714286,2.717142857142857,25,25,"NIGHT_CLEAR,NIGHT_CLEAR,NIGHT_CLEAR,NIGHT_MOSTLY_CLEAR,NIGHT_MOSTLY_CLEAR,NIGHT_MOSTLY_CLEAR,NIGHT_BRIEF_SHOWERS","Onshore,Onshore,Onshore,Onshore,Onshore,Onshore,Onshore",7
5842041f4e65fad6a7708894,2024_04_16,21.66203493640557,-158.05495,Off-The-Wall,1.4285714285714286,2.8457142857142856,3.4014285714285712,25,25,"NIGHT_CLEAR,NIGHT_CLEAR,NIGHT_CLEAR,NIGHT_MOSTLY_CLEAR,NIGHT_MOSTLY_CLEAR,NIGHT_MOSTLY_CLEAR,NIGHT_BRIEF_SHOWERS","Onshore,Onshore,Onshore,Onshore,Onshore,Onshore,Onshore",7
5842041f4e65fad6a7708895,2024_04_16,21.643,-158.067,Waimea Bay,NA,3.3849714285714287,3.885757142857143,26,25,"NIGHT_CLEAR,NIGHT_CLEAR,NIGHT_CLEAR,NIGHT_MOSTLY_CLEAR,NIGHT_MOSTLY_CLEAR,NIGHT_MOSTLY_CLEAR,NIGHT_BRIEF_SHOWERS","Onshore,Onshore,Onshore,Onshore,Onshore,Onshore,Onshore",7
5842041f4e65fad6a7708896,2024_04_16,21.622,-158.087,Hultin's,2.142857142857143,3.6564,4.275757142857143,26,25,"NIGHT_MOSTLY_CLEAR,NIGHT_CLEAR,NIGHT_CLEAR,NIGHT_MOSTLY_CLEAR,NIGHT_MOSTLY_CLEAR,NIGHT_MOSTLY_CLEAR,NIGHT_BRIEF_SHOWERS","Onshore,Onshore,Onshore,Onshore,Onshore,Onshore,Onshore",7
5842041f4e65fad6a7708897,2024_04_16,21.623,-158.085,Jocko's,3,2.64,2.992857142857143,25,25,"NIGHT_MOSTLY_CLEAR,NIGHT_CLEAR,NIGHT_CLEAR,NIGHT_MOSTLY_CLEAR,NIGHT_MOSTLY_CLEAR,NIGHT_MOSTLY_CLEAR,NIGHT_BRIEF_SHOWERS","Offshore,Cross-shore,Cross-shore,Onshore,Cross-shore,Cross-shore,Onshore",7
5842041f4e65fad6a7708898,2024_04_16,21.62,-158.088,Laniakea,2.2857142857142856,2.646585714285714,2.971214285714286,26,25,"NIGHT_MOSTLY_CLEAR,NIGHT_CLEAR,NIGHT_CLEAR,NIGHT_MOSTLY_CLEAR,NIGHT_MOSTLY_CLEAR,NIGHT_MOSTLY_CLEAR,NIGHT_BRIEF_SHOWERS","Cross-shore,Onshore,Onshore,Onshore,Onshore,Onshore,Onshore",7
5842041f4e65fad6a7708899,2024_04_16,21.625,-158.083,Chun's,2,2.704285714285714,3.15,25,25,"NIGHT_MOSTLY_CLEAR,NIGHT_CLEAR,NIGHT_CLEAR,NIGHT_MOSTLY_CLEAR,NIGHT_MOSTLY_CLEAR,NIGHT_MOSTLY_CLEAR,NIGHT_BRIEF_SHOWERS","Onshore,Onshore,Onshore,Onshore,Onshore,Onshore,Onshore",7
5842041f4e65fad6a770889c,2024_04_16,21.286357895152136,-157.8515,South Shore - Ala Moana Park,2.7142857142857144,0.7585714285714286,1.0285714285714287,24,24,"NIGHT_CLEAR,NIGHT_CLEAR,NIGHT_CLEAR,NIGHT_CLEAR,NIGHT_CLEAR,NIGHT_CLEAR,NIGHT_CLEAR","Onshore,Cross-shore,Cross-shore,Cross-shore,Cross-shore,Cross-shore,Onshore",7
5842041f4e65fad6a770889d,2024_04_16,19.606,-155.978,Banyans,3.142857142857143,1.1557142857142857,1.3957142857142857,26,25,"NIGHT_CLEAR,NIGHT_MOSTLY_CLEAR,NIGHT_MOSTLY_CLEAR,NIGHT_CLEAR,NIGHT_CLEAR,NIGHT_CLEAR,NIGHT_CLEAR","Cross-shore,Onshore,Cross-shore,Offshore,Offshore,Offshore,Cross-shore",7
5842041f4e65fad6a770889e,2024_04_16,20.029,-155.831,Kawaihae,3,0.7630685714285714,1.1531628571428572,24,24,"NIGHT_MIST,NIGHT_SHOWERS,NIGHT_SHOWERS,NIGHT_CLEAR,NIGHT_MOSTLY_CLOUDY,NIGHT_LIGHT_SHOWERS_POSSIBLE,NIGHT_MOSTLY_CLOUDY","Onshore,Cross-shore,Offshore,Offshore,Offshore,Offshore,Onshore",7
5842041f4e65fad6a770889f,2024_04_16,33.07541383424675,-117.3105,Grandview,2.857142857142857,0.65,0.9571428571428571,15,15,"NIGHT_MIST,NIGHT_CLOUDY,NIGHT_OVERCAST,NIGHT_OVERCAST,NIGHT_BRIEF_SHOWERS,NIGHT_CLOUDY,NIGHT_CLEAR","Onshore,Onshore,Onshore,Cross-shore,Cross-shore,Cross-shore,Offshore",7
5842041f4e65fad6a77088a0,2024_04_16,33.065267421296596,-117.30577,Beacons,3,0.6442857142857142,0.95,15,15,"NIGHT_MIST,NIGHT_CLOUDY,NIGHT_OVERCAST,NIGHT_OVERCAST,NIGHT_BRIEF_SHOWERS,NIGHT_CLOUDY,NIGHT_CLEAR","Onshore,Onshore,Onshore,Cross-shore,Cross-shore,Cross-shore,Offshore",7
5842041f4e65fad6a77088a2,2024_04_16,21.252,-157.805,Diamond Head,3,0.9845771428571428,1.3053314285714286,26,25,"NIGHT_CLEAR,NIGHT_CLEAR,NIGHT_CLEAR,NIGHT_CLEAR,NIGHT_CLEAR,NIGHT_CLEAR,NIGHT_CLEAR","Cross-shore,Cross-shore,Cross-shore,Cross-shore,Cross-shore,Offshore,Onshore",7
5842041f4e65fad6a77088a3,2024_04_16,33.04694255008896,-117.29966,Moonlight State Beach,3,0.6371428571428571,0.9442857142857143,15,15,"NIGHT_MIST,NIGHT_CLOUDY,NIGHT_OVERCAST,NIGHT_OVERCAST,NIGHT_CLOUDY,NIGHT_CLOUDY,NIGHT_CLEAR","Onshore,Cross-shore,Offshore,Offshore,Offshore,Offshore,Offshore",7
5842041f4e65fad6a77088a5,2024_04_16,33.08685865930869,-117.31532,Ponto,2.857142857142857,0.7657142857142857,1.0685714285714287,15,15,"NIGHT_MIST,NIGHT_CLOUDY,NIGHT_OVERCAST,NIGHT_OVERCAST,NIGHT_BRIEF_SHOWERS,NIGHT_CLOUDY,NIGHT_CLEAR","Onshore,Offshore,Offshore,Offshore,Offshore,Offshore,Offshore",7
5842041f4e65fad6a77088a6,2024_04_16,33.130343587871906,-117.33668,Terra Mar Point,3,0.5695714285714286,0.8954285714285715,14,14,"NIGHT_MIST,NIGHT_MOSTLY_CLOUDY,NIGHT_MOSTLY_CLOUDY,NIGHT_MIST,NIGHT_OVERCAST,NIGHT_OVERCAST,NIGHT_CLEAR","Onshore,Offshore,Offshore,Offshore,Offshore,Offshore,Offshore",7
5842041f4e65fad6a77088af,2024_04_16,32.95916304183685,-117.26963,Del Mar,3,0.6771428571428572,0.98,15,15,"NIGHT_MIST,NIGHT_OVERCAST,NIGHT_CLOUDY,NIGHT_CLOUDY,NIGHT_MOSTLY_CLOUDY,NIGHT_MOSTLY_CLOUDY,NIGHT_CLEAR","Onshore,Cross-shore,Cross-shore,Cross-shore,Cross-shore,Offshore,Offshore",7
5842041f4e65fad6a77088b0,2024_04_16,32.97527261243354,-117.2721061331305,Del Mar Rivermouth,3,0.7271428571428571,1.032857142857143,15,15,"NIGHT_MIST,NIGHT_CLOUDY,NIGHT_CLOUDY,NIGHT_CLOUDY,NIGHT_CLOUDY,NIGHT_MOSTLY_CLOUDY,NIGHT_CLEAR","Onshore,Cross-shore,Cross-shore,Cross-shore,Offshore,Offshore,Offshore",7
5842041f4e65fad6a77088b1,2024_04_16,33.01352178146273,-117.28219,Cardiff Reef,3,0.754095238095238,1.0787619047619048,14,14,"NIGHT_MIST,NIGHT_CLOUDY,NIGHT_OVERCAST,NIGHT_CLOUDY,NIGHT_CLOUDY,NIGHT_CLOUDY,NIGHT_CLEAR","Offshore,Offshore,Offshore,Offshore,Onshore,Offshore,Offshore",7
5842041f4e65fad6a77088b3,2024_04_16,33.00211185876003,-117.2811,Seaside Reef,3,0.7324285714285714,1.0528095238095239,14,14,"NIGHT_DRIZZLE,NIGHT_DRIZZLE,NIGHT_CLOUDY,NIGHT_CLOUDY,NIGHT_CLOUDY,NIGHT_CLOUDY,NIGHT_CLEAR","Onshore,Onshore,Cross-shore,Offshore,Offshore,Offshore,Offshore",7
5842041f4e65fad6a77088b4,2024_04_16,33.0341859796287,-117.29552,Swami's,3,0.6821904761904762,0.9872857142857142,14,14,"NIGHT_MIST,NIGHT_CLOUDY,NIGHT_OVERCAST,NIGHT_CLOUDY,NIGHT_CLOUDY,NIGHT_CLOUDY,NIGHT_CLEAR","Onshore,Cross-shore,Cross-shore,Offshore,Offshore,Offshore,Offshore",7
5842041f4e65fad6a77088b7,2024_04_16,33.04569760260221,-117.2994,D Street,3,0.6428571428571428,0.9500000000000001,15,15,"NIGHT_MIST,NIGHT_CLOUDY,NIGHT_OVERCAST,NIGHT_OVERCAST,NIGHT_CLOUDY,NIGHT_CLOUDY,NIGHT_CLEAR","Onshore,Cross-shore,Offshore,Offshore,Offshore,Offshore,Offshore",7
5842041f4e65fad6a77088b8,2024_04_16,33.02090944350196,-117.28535,San Elijo State Beach,3,0.4940952380952381,0.8170952380952381,14,14,"NIGHT_MIST,NIGHT_CLOUDY,NIGHT_OVERCAST,NIGHT_CLOUDY,NIGHT_CLOUDY,NIGHT_CLOUDY,NIGHT_CLEAR","Offshore,Offshore,Offshore,Offshore,Onshore,Offshore,Offshore",7
5842041f4e65fad6a77088c2,2024_04_16,32.80662846492798,-117.2688764333725,PB Point,3,0.68,0.9828571428571429,15,15,"NIGHT_OVERCAST,NIGHT_OVERCAST,NIGHT_OVERCAST,NIGHT_MOSTLY_CLOUDY,NIGHT_MOSTLY_CLOUDY,NIGHT_MOSTLY_CLOUDY,NIGHT_CLEAR","Offshore,Offshore,Cross-shore,Offshore,Offshore,Offshore,Offshore",7
5842041f4e65fad6a77088c4,2024_04_16,32.8060476681448,-117.26479,Old Man's at Tourmaline,3,0.58,0.8842857142857143,15,15,"NIGHT_OVERCAST,NIGHT_OVERCAST,NIGHT_OVERCAST,NIGHT_MOSTLY_CLOUDY,NIGHT_MOSTLY_CLOUDY,NIGHT_MOSTLY_CLOUDY,NIGHT_CLEAR","Offshore,Offshore,Offshore,Offshore,Cross-shore,Offshore,Offshore",7
5842041f4e65fad6a77088cb,2024_04_16,32.557056711256,-117.1327445020322,Tijuana Slough,2.7142857142857144,0.6214285714285714,0.9228571428571428,15,15,"NIGHT_MIST,NIGHT_MIST,NIGHT_MIST,NIGHT_MOSTLY_CLOUDY,NIGHT_MOSTLY_CLOUDY,NIGHT_MOSTLY_CLOUDY,NIGHT_CLEAR","Cross-shore,Cross-shore,Cross-shore,Cross-shore,Cross-shore,Cross-shore,Cross-shore",7
5842041f4e65fad6a77088cc,2024_04_16,32.863,-117.257,La Jolla Shores,2.7142857142857144,0.6514285714285715,0.9557142857142856,15,15,"NIGHT_MIST,NIGHT_OVERCAST,NIGHT_OVERCAST,NIGHT_MOSTLY_CLOUDY,NIGHT_MOSTLY_CLOUDY,NIGHT_MOSTLY_CLOUDY,NIGHT_CLEAR","Onshore,Onshore,Cross-shore,Cross-shore,Onshore,Cross-shore,Onshore",7
5842041f4e65fad6a77088ce,2024_04_16,32.67443657790586,-117.17421316238693,Coronado Beach,3,1.0085714285714287,1.312857142857143,15,15,"NIGHT_MIST,NIGHT_MOSTLY_CLOUDY,NIGHT_MIST,NIGHT_MIST,NIGHT_MOSTLY_CLOUDY,NIGHT_MOSTLY_CLOUDY,NIGHT_CLEAR","Offshore,Offshore,Offshore,Offshore,Offshore,Offshore,Offshore",7
5842041f4e65fad6a77088cf,2024_04_16,33.40484417640326,-117.60749,San Clemente State Beach,3,0.6542857142857142,0.9557142857142857,14.857142857142858,14.857142857142858,"NIGHT_CLEAR,NIGHT_MOSTLY_CLEAR,NIGHT_MOSTLY_CLOUDY,NIGHT_MOSTLY_CLOUDY,NIGHT_MOSTLY_CLOUDY,NIGHT_MOSTLY_CLOUDY,NIGHT_CLEAR","Cross-shore,Offshore,Onshore,Cross-shore,Cross-shore,Cross-shore,Offshore",7
5842041f4e65fad6a77088d5,2024_04_16,33.4663042002114,-117.7168352817103,Strands,3,0.8448,1.1017571428571429,14,14,"NIGHT_CLEAR,NIGHT_CLEAR,NIGHT_CLEAR,NIGHT_CLEAR,NIGHT_MOSTLY_CLOUDY,NIGHT_MOSTLY_CLOUDY,NIGHT_CLEAR","Cross-shore,Cross-shore,Offshore,Offshore,Offshore,Offshore,Onshore",7
5842041f4e65fad6a77088d7,2024_04_16,33.4609858001748,-117.68535,Doheny State Beach,2,0.2566,0.5621285714285714,16,16,"NIGHT_CLEAR,NIGHT_CLEAR,NIGHT_CLEAR,NIGHT_MOSTLY_CLOUDY,NIGHT_MOSTLY_CLOUDY,NIGHT_MOSTLY_CLOUDY,NIGHT_CLEAR","Cross-shore,Offshore,Offshore,Offshore,Offshore,Offshore,Onshore",7
5842041f4e65fad6a77088dc,2024_04_16,33.50894790083017,-117.75243,Aliso Creek,3,0.8628571428571429,1.08,14,14,"NIGHT_CLEAR,NIGHT_CLEAR,NIGHT_CLEAR,NIGHT_CLEAR,NIGHT_CLEAR,NIGHT_MIST,NIGHT_CLEAR","Cross-shore,Offshore,Offshore,Offshore,Offshore,Offshore,Onshore",7
5842041f4e65fad6a77088dd,2024_04_16,33.5326591767067,-117.77764,Brooks Street,2.142857142857143,0.45,0.7557142857142857,14,14,"NIGHT_MIST,NIGHT_MIST,NIGHT_MOSTLY_CLOUDY,NIGHT_MOSTLY_CLOUDY,NIGHT_MOSTLY_CLOUDY,NIGHT_CLOUDY,NIGHT_CLEAR","Offshore,Offshore,Offshore,Offshore,Offshore,Offshore,Onshore",7
5842041f4e65fad6a77088de,2024_04_16,33.53561225884637,-117.7799,Thalia Street,3,0.5757142857142857,0.8828571428571429,14,14,"NIGHT_MIST,NIGHT_MIST,NIGHT_MOSTLY_CLOUDY,NIGHT_MOSTLY_CLOUDY,NIGHT_MOSTLY_CLOUDY,NIGHT_CLOUDY,NIGHT_CLEAR","Offshore,Offshore,Offshore,Offshore,Offshore,Offshore,Onshore",7
5842041f4e65fad6a77088e3,2024_04_16,33.54268310353641,-117.7916,Rockpile,3,1.022857142857143,1.237142857142857,14,14,"NIGHT_MIST,NIGHT_MIST,NIGHT_MOSTLY_CLOUDY,NIGHT_MOSTLY_CLOUDY,NIGHT_MOSTLY_CLOUDY,NIGHT_CLOUDY,NIGHT_CLEAR","Offshore,Offshore,Offshore,Offshore,Offshore,Offshore,Onshore",7
5842041f4e65fad6a77088e4,2024_04_16,33.7368459504689,-118.10342,"Seal Beach Pier, Southside",2,0.13428571428571429,0.43857142857142856,14,14,"NIGHT_CLEAR,NIGHT_CLEAR,NIGHT_CLEAR,NIGHT_CLEAR,NIGHT_CLEAR,NIGHT_CLOUDY,NIGHT_CLEAR","Offshore,Offshore,Offshore,Offshore,Cross-shore,Offshore,Cross-shore",7
5842041f4e65fad6a77088e5,2024_04_16,33.73933701820233,-118.117,Ray Bay,2,0.20714285714285716,0.5128571428571429,14,14,"NIGHT_CLEAR,NIGHT_CLEAR,NIGHT_CLEAR,NIGHT_CLEAR,NIGHT_CLOUDY,NIGHT_CLOUDY,NIGHT_CLEAR","Offshore,Offshore,Offshore,Offshore,Cross-shore,Offshore,Cross-shore",7
5842041f4e65fad6a77088e7,2024_04_16,33.728733,-118.08982,Surfside,2,0.10857142857142857,0.41428571428571426,14,14,"NIGHT_CLEAR,NIGHT_CLEAR,NIGHT_CLEAR,NIGHT_CLEAR,NIGHT_CLEAR,NIGHT_CLOUDY,NIGHT_CLEAR","Offshore,Offshore,Offshore,Offshore,Cross-shore,Offshore,Cross-shore",7
5842041f4e65fad6a77088e8,2024_04_16,33.68760321488161,-118.04236,Bolsa Chica State Beach,3,0.6524857142857143,0.9652428571428571,14,14,"NIGHT_CLEAR,NIGHT_MIST,NIGHT_CLEAR,NIGHT_CLEAR,NIGHT_CLOUDY,NIGHT_OVERCAST,NIGHT_CLEAR","Onshore,Onshore,Onshore,Onshore,Offshore,Offshore,Onshore",7
5842041f4e65fad6a77088ea,2024_04_16,33.66704400178788,-118.0192,North HB Streets,2.857142857142857,0.8687285714285714,1.0957714285714286,14,14,"NIGHT_MIST,NIGHT_MIST,NIGHT_CLEAR,NIGHT_CLEAR,NIGHT_CLEAR,NIGHT_CLOUDY,NIGHT_CLEAR","Onshore,Onshore,Onshore,Onshore,Offshore,Offshore,Onshore",7
5842041f4e65fad6a77088ed,2024_04_16,33.65475101379567,-118.00291,Huntington Beach Pier Southside,3,1.0130142857142856,1.2697,14,14,"NIGHT_MIST,NIGHT_MIST,NIGHT_CLEAR,NIGHT_CLEAR,NIGHT_CLOUDY,NIGHT_CLOUDY,NIGHT_CLEAR","Onshore,Offshore,Onshore,Cross-shore,Cross-shore,Offshore,Cross-shore",7
5842041f4e65fad6a77088ee,2024_04_16,33.62778647706099,-117.95939,River Jetties,3,0.8640857142857142,1.096842857142857,15,15,"NIGHT_MIST,NIGHT_CLEAR,NIGHT_CLEAR,NIGHT_CLEAR,NIGHT_CLOUDY,NIGHT_OVERCAST,NIGHT_CLEAR","Offshore,Onshore,Offshore,Offshore,Offshore,Offshore,Offshore",7
5842041f4e65fad6a77088f2,2024_04_16,33.605165797643664,-117.92500376701355,Newport Point,3,0.7242857142857143,0.99,14,14,"NIGHT_MOSTLY_CLOUDY,NIGHT_MIST,NIGHT_MOSTLY_CLOUDY,NIGHT_OVERCAST,NIGHT_OVERCAST,NIGHT_OVERCAST,NIGHT_CLEAR","Cross-shore,Cross-shore,Cross-shore,Offshore,Offshore,Offshore,Onshore",7
5842041f4e65fad6a77088f3,2024_04_16,33.58982984726977,-117.87713,Corona del Mar,2,0.24466714285714286,0.38229142857142856,14,14,"NIGHT_MIST,NIGHT_MOSTLY_CLOUDY,NIGHT_MOSTLY_CLOUDY,NIGHT_MOSTLY_CLOUDY,NIGHT_OVERCAST,NIGHT_OVERCAST,NIGHT_CLEAR","Offshore,Offshore,Offshore,Offshore,Offshore,Offshore,Offshore",7
5842041f4e65fad6a77088f7,2024_04_16,34.00750300824362,-118.4971783496269,Santa Monica Pier,3,0.6028571428571429,0.9085714285714286,13.857142857142858,13.857142857142858,"NIGHT_MOSTLY_CLOUDY,NIGHT_MOSTLY_CLOUDY,NIGHT_MIST,NIGHT_MIST,NIGHT_MIST,NIGHT_MOSTLY_CLOUDY,NIGHT_CLEAR","Onshore,Offshore,Offshore,Offshore,Offshore,Offshore,Offshore",7
5842041f4e65fad6a77088ff,2024_04_16,33.94070283102945,-118.44321,Dockweiler Beach,3,1.0379528571428571,1.2090864285714285,14,14,"NIGHT_MOSTLY_CLOUDY,NIGHT_OVERCAST,NIGHT_OVERCAST,NIGHT_MIST,NIGHT_MIST,NIGHT_MIST,NIGHT_CLEAR","Onshore,Cross-shore,Offshore,Offshore,Offshore,Offshore,Offshore",7
5842041f4e65fad6a7708900,2024_04_16,33.9231846937237,-118.4341465777908,Shitpipe,3,0.6490857142857143,0.9612142857142857,14,14,"NIGHT_MIST,NIGHT_CLOUDY,NIGHT_CLOUDY,NIGHT_CLOUDY,NIGHT_DRIZZLE,NIGHT_MIST,NIGHT_CLEAR","Onshore,Cross-shore,Offshore,Offshore,Offshore,Offshore,Offshore",7
5842041f4e65fad6a7708902,2024_04_16,33.9108528052242,-118.4279133138721,Hammerland,3,0.7933714285714286,1.053,14,14,"NIGHT_MIST,NIGHT_CLOUDY,NIGHT_CLOUDY,NIGHT_CLOUDY,NIGHT_DRIZZLE,NIGHT_MIST,NIGHT_CLEAR","Onshore,Cross-shore,Offshore,Offshore,Offshore,Offshore,Offshore",7
5842041f4e65fad6a7708904,2024_04_16,33.87201368173932,-118.40752,Hermosa Beach,2.857142857142857,0.6892714285714285,1.0006,14,14,"NIGHT_MIST,NIGHT_CLEAR,NIGHT_CLEAR,NIGHT_CLEAR,NIGHT_MIST,NIGHT_MIST,NIGHT_CLEAR","Onshore,Onshore,Cross-shore,Offshore,Offshore,Offshore,Cross-shore",7
5842041f4e65fad6a7708906,2024_04_16,33.90129336911256,-118.42184,El Porto,3,0.6955142857142858,1.0133571428571428,14,14,"NIGHT_BRIEF_SHOWERS_POSSIBLE,NIGHT_CLEAR,NIGHT_CLEAR,NIGHT_CLEAR,NIGHT_MIST,NIGHT_MIST,NIGHT_CLEAR","Onshore,Cross-shore,Offshore,Offshore,Offshore,Offshore,Offshore",7
5842041f4e65fad6a7708907,2024_04_16,33.87963506431794,-118.41102,Manhattan Beach Pier,3,0.6923,1.0047,14,14,"NIGHT_BRIEF_SHOWERS_POSSIBLE,NIGHT_CLEAR,NIGHT_CLEAR,NIGHT_CLEAR,NIGHT_MIST,NIGHT_MIST,NIGHT_CLEAR","Onshore,Cross-shore,Offshore,Offshore,Offshore,Offshore,Offshore",7
5842041f4e65fad6a7708914,2024_04_16,34.038053387863464,-118.5532,Sunset Point,3,0.36714285714285716,0.6742857142857144,13.857142857142858,13.857142857142858,"NIGHT_MOSTLY_CLOUDY,NIGHT_MOSTLY_CLOUDY,NIGHT_MOSTLY_CLOUDY,NIGHT_MOSTLY_CLOUDY,NIGHT_MIST,NIGHT_MIST,NIGHT_CLEAR","Offshore,Offshore,Offshore,Offshore,Cross-shore,Offshore,Cross-shore",7
5842041f4e65fad6a7708920,2024_04_16,33.80930828074364,-118.3933198342649,Haggerty's,2,0.23485714285714285,0.42,13.857142857142858,13.857142857142858,"NIGHT_MIST,NIGHT_MIST,NIGHT_MOSTLY_CLOUDY,NIGHT_CLEAR,NIGHT_MIST,NIGHT_MIST,NIGHT_CLEAR","Cross-shore,Cross-shore,Offshore,Offshore,Offshore,Cross-shore,Offshore",7
5842041f4e65fad6a7708921,2024_04_16,33.85044519861206,-118.40048,Redondo Breakwater,3,0.6514285714285715,0.9571428571428572,13.857142857142858,13.857142857142858,"NIGHT_MIST,NIGHT_CLEAR,NIGHT_CLEAR,NIGHT_CLEAR,NIGHT_MIST,NIGHT_MIST,NIGHT_CLEAR","Onshore,Onshore,Cross-shore,Offshore,Offshore,Offshore,Cross-shore",7
5842041f4e65fad6a7708927,2024_04_16,33.70877301002487,-118.2840112858389,Cabrillo Beach,1.8571428571428572,0.07714285714285714,0.38142857142857145,14,14,"NIGHT_CLEAR,NIGHT_CLEAR,NIGHT_CLEAR,NIGHT_MOSTLY_CLOUDY,NIGHT_MIST,NIGHT_MIST,NIGHT_CLEAR","Cross-shore,Offshore,Cross-shore,Cross-shore,Offshore,Cross-shore,Onshore",7
5842041f4e65fad6a770892c,2024_04_16,33.77209986806257,-118.4268428476672,Lunada Bay,2,0.6814285714285714,0.9857142857142857,13.857142857142858,13.857142857142858,"NIGHT_MIST,NIGHT_MIST,NIGHT_MIST,NIGHT_CLOUDY,NIGHT_CLOUDY,NIGHT_CLOUDY,NIGHT_CLEAR","Onshore,Onshore,Cross-shore,Cross-shore,Offshore,Offshore,Cross-shore",7
5842041f4e65fad6a770892d,2024_04_16,33.79294656286144,-118.4070316699825,PV Cove,2.857142857142857,0.7027728571428572,0.9558185714285714,13.857142857142858,13.857142857142858,"NIGHT_MIST,NIGHT_MIST,NIGHT_MOSTLY_CLOUDY,NIGHT_CLEAR,NIGHT_MIST,NIGHT_MIST,NIGHT_CLEAR","Cross-shore,Cross-shore,Offshore,Offshore,Offshore,Offshore,Offshore",7
5842041f4e65fad6a7708930,2024_04_16,34.03944902292561,-118.57539,Chart House,2,0.06857142857142857,0.3757142857142857,13.857142857142858,13.857142857142858,"NIGHT_MOSTLY_CLEAR,NIGHT_MOSTLY_CLOUDY,NIGHT_MOSTLY_CLOUDY,NIGHT_MOSTLY_CLOUDY,NIGHT_MIST,NIGHT_MIST,NIGHT_CLEAR","Offshore,Offshore,Offshore,Cross-shore,Cross-shore,Offshore,Offshore",7
5842041f4e65fad6a7708936,2024_04_16,34.0016731994772,-118.80456,Point Dume,2.7142857142857144,0.40640000000000004,0.7117428571428571,14,14,"NIGHT_CLEAR,NIGHT_MIST,NIGHT_MIST,NIGHT_MIST,NIGHT_MIST,NIGHT_MIST,NIGHT_CLEAR","Onshore,Onshore,Cross-shore,Onshore,Cross-shore,Cross-shore,Offshore",7
5842041f4e65fad6a7708937,2024_04_16,34.02587527588963,-118.7554939066114,Latigo Point,3,0.8228571428571428,1.0585714285714285,13.857142857142858,13.857142857142858,"NIGHT_CLEAR,NIGHT_CLEAR,NIGHT_MIST,NIGHT_MIST,NIGHT_MIST,NIGHT_MIST,NIGHT_CLEAR","Offshore,Offshore,Offshore,Offshore,Offshore,Offshore,Offshore",7
5842041f4e65fad6a770893f,2024_04_16,34.043762,-118.93294,Leo Carrillo,3,0.8342571428571428,1.0904857142857143,14,14,"NIGHT_CLEAR,NIGHT_MIST,NIGHT_MIST,NIGHT_CLEAR,NIGHT_CLEAR,NIGHT_CLEAR,NIGHT_CLEAR","Offshore,Offshore,Offshore,Offshore,Offshore,Offshore,Offshore",7
5842041f4e65fad6a7708941,2024_04_16,36.69388179265737,-121.81289,Marina State Beach,3,1.0785714285714285,1.3828571428571428,12.857142857142858,12.857142857142858,"NIGHT_MOSTLY_CLOUDY,NIGHT_MIST,NIGHT_MOSTLY_CLEAR,NIGHT_CLEAR,NIGHT_CLEAR,NIGHT_CLEAR,NIGHT_CLEAR","Onshore,Cross-shore,Onshore,Onshore,Onshore,Cross-shore,Offshore",7
5842041f4e65fad6a7708944,2024_04_16,34.34145077331085,-119.416999352654,Stanley's,2.857142857142857,0.40285714285714286,0.7057142857142857,13,13,"NIGHT_CLEAR,NIGHT_CLEAR,NIGHT_CLEAR,NIGHT_CLEAR,NIGHT_CLEAR,NIGHT_CLEAR,NIGHT_CLEAR","Offshore,Offshore,Offshore,Offshore,Offshore,Offshore,Onshore",7
5842041f4e65fad6a7708945,2024_04_16,34.35113017313915,-119.426921498899,Oil Piers,3,0.37142857142857144,0.6742857142857143,13,13,"NIGHT_CLEAR,NIGHT_CLEAR,NIGHT_CLEAR,NIGHT_CLEAR,NIGHT_CLEAR,NIGHT_CLEAR,NIGHT_CLEAR","Offshore,Offshore,Offshore,Offshore,Offshore,Offshore,Offshore",7
5842041f4e65fad6a770894c,2024_04_16,34.17876333306018,-119.2399483564372,Oxnard,3,1.0214285714285714,1.25,13,13,"NIGHT_MIST,NIGHT_MIST,NIGHT_MIST,NIGHT_MIST,NIGHT_MIST,NIGHT_MIST,NIGHT_CLEAR","Offshore,Offshore,Offshore,Offshore,Offshore,Offshore,Cross-shore",7
5842041f4e65fad6a7708957,2024_04_16,34.31720331100517,-119.3882324751725,Pitas Point,3,0.4157142857142857,0.7185714285714285,13,13,"NIGHT_MIST,NIGHT_MIST,NIGHT_CLEAR,NIGHT_CLEAR,NIGHT_CLEAR,NIGHT_CLEAR,NIGHT_CLEAR","Onshore,Offshore,Offshore,Offshore,Offshore,Offshore,Offshore",7
5842041f4e65fad6a7708959,2024_04_16,34.27851754384724,-119.316202617226,Emma Wood,3,0.41714285714285715,0.7214285714285714,13,13,"NIGHT_MIST,NIGHT_MIST,NIGHT_MIST,NIGHT_CLEAR,NIGHT_CLEAR,NIGHT_CLEAR,NIGHT_CLEAR","Offshore,Offshore,Offshore,Offshore,Offshore,Cross-shore,Offshore",7
5842041f4e65fad6a770895a,2024_04_16,34.35513640390276,-119.4400589884255,Mussel Shoals (aka Little Rincon),2.4285714285714284,0.3028571428571429,0.6071428571428571,13,13,"NIGHT_CLEAR,NIGHT_CLEAR,NIGHT_CLEAR,NIGHT_CLEAR,NIGHT_CLEAR,NIGHT_CLEAR,NIGHT_CLEAR","Offshore,Offshore,Offshore,Offshore,Offshore,Offshore,Offshore",7
5842041f4e65fad6a770895e,2024_04_16,34.28991757054902,-119.3366646794652,Summer Beach,3,0.39571428571428574,0.7014285714285714,13,13,"NIGHT_MIST,NIGHT_MIST,NIGHT_MIST,NIGHT_CLEAR,NIGHT_CLEAR,NIGHT_CLEAR,NIGHT_CLEAR","Offshore,Offshore,Offshore,Offshore,Offshore,Onshore,Offshore",7
5842041f4e65fad6a770895f,2024_04_16,34.30897456105926,-119.3582501170116,Solimar,3,0.36428571428571427,0.67,13,13,"NIGHT_MIST,NIGHT_MIST,NIGHT_CLEAR,NIGHT_CLEAR,NIGHT_CLEAR,NIGHT_CLEAR,NIGHT_CLEAR","Onshore,Offshore,Offshore,Offshore,Offshore,Offshore,Offshore",7
5842041f4e65fad6a7708960,2024_04_16,34.39836265281686,-119.70213,Leadbetter Point,2,0.06285714285714286,0.36857142857142855,13,13,"NIGHT_CLEAR,NIGHT_CLEAR,NIGHT_CLEAR,NIGHT_CLEAR,NIGHT_CLEAR,NIGHT_CLEAR,NIGHT_CLEAR","Offshore,Offshore,Offshore,Offshore,Offshore,Offshore,Offshore",7
5842041f4e65fad6a7708961,2024_04_16,34.46052293893899,-120.07328,Refugio,2,0.18285714285714286,0.48857142857142855,13,13,"NIGHT_CLEAR,NIGHT_CLEAR,NIGHT_CLEAR,NIGHT_CLEAR,NIGHT_CLEAR,NIGHT_CLEAR,NIGHT_CLEAR","Cross-shore,Cross-shore,Cross-shore,Cross-shore,Onshore,Offshore,Onshore",7
5842041f4e65fad6a7708962,2024_04_16,34.40754276777778,-119.87639,Devereux,3,0.3385714285714286,0.6442857142857144,13,13,"NIGHT_CLEAR,NIGHT_MIST,NIGHT_CLEAR,NIGHT_CLEAR,NIGHT_CLEAR,NIGHT_CLEAR,NIGHT_CLEAR","Cross-shore,Onshore,Cross-shore,Cross-shore,Cross-shore,Onshore,Offshore",7
5842041f4e65fad6a7708963,2024_04_16,34.27479983305182,-119.3133222656776,Ventura Overhead,3,0.43,0.7357142857142857,13,13,"NIGHT_MIST,NIGHT_CLEAR,NIGHT_CLEAR,NIGHT_CLEAR,NIGHT_CLEAR,NIGHT_CLEAR,NIGHT_CLEAR","Offshore,Offshore,Offshore,Offshore,Offshore,Cross-shore,Offshore",7
5842041f4e65fad6a7708964,2024_04_16,34.41023236011655,-119.88261,Sands,3,0.37714285714285717,0.6842857142857143,13,13,"NIGHT_CLEAR,NIGHT_MIST,NIGHT_CLEAR,NIGHT_CLEAR,NIGHT_CLEAR,NIGHT_CLEAR,NIGHT_CLEAR","Offshore,Offshore,Offshore,Offshore,Offshore,Cross-shore,Offshore",7
5842041f4e65fad6a7708966,2024_04_16,34.40450193869233,-119.68752,Sandspit,1,0,0.24571428571428572,13,13,"NIGHT_CLEAR,NIGHT_CLEAR,NIGHT_CLEAR,NIGHT_CLEAR,NIGHT_CLEAR,NIGHT_CLEAR,NIGHT_CLEAR","Offshore,Offshore,Offshore,Offshore,Offshore,Offshore,Offshore",7
5842041f4e65fad6a7708967,2024_04_16,34.41549098334453,-119.6375149840203,Hammond's,1,0,0.24714285714285714,13,13,"NIGHT_CLEAR,NIGHT_CLEAR,NIGHT_CLEAR,NIGHT_CLEAR,NIGHT_CLEAR,NIGHT_CLEAR,NIGHT_CLEAR","Cross-shore,Cross-shore,Offshore,Cross-shore,Offshore,Offshore,Offshore",7
5842041f4e65fad6a7708968,2024_04_16,34.45759322742309,-120.0220251867315,El Capitan,2,0.24285714285714285,0.55,13,13,"NIGHT_CLEAR,NIGHT_CLEAR,NIGHT_CLEAR,NIGHT_CLEAR,NIGHT_CLEAR,NIGHT_CLEAR,NIGHT_CLEAR","Onshore,Cross-shore,Cross-shore,Offshore,Cross-shore,Cross-shore,Cross-shore",7
5842041f4e65fad6a770896c,2024_04_16,34.405117655616,-119.84317,Campus Point,2,0.1442857142857143,0.4471428571428571,13,13,"NIGHT_CLEAR,NIGHT_MIST,NIGHT_CLEAR,NIGHT_CLEAR,NIGHT_CLEAR,NIGHT_CLEAR,NIGHT_CLEAR","Cross-shore,Cross-shore,Cross-shore,Cross-shore,Cross-shore,Onshore,Offshore",7
5842041f4e65fad6a770896e,2024_04_16,34.38935162233354,-119.51955,Carpinteria State Beach,2,0.23,0.53,13,13,"NIGHT_MIST,NIGHT_CLEAR,NIGHT_CLEAR,NIGHT_CLEAR,NIGHT_CLEAR,NIGHT_CLEAR,NIGHT_CLEAR","Onshore,Onshore,Onshore,Onshore,Onshore,Onshore,Onshore",7
5842041f4e65fad6a770896f,2024_04_16,37.48296565175612,-122.4549300127824,Half Moon Bay,3,1.04,1.3314285714285714,13.857142857142858,13.857142857142858,"NIGHT_MOSTLY_CLOUDY,NIGHT_MOSTLY_CLOUDY,NIGHT_MOSTLY_CLOUDY,NIGHT_MIST,NIGHT_MOSTLY_CLOUDY,NIGHT_MIST,NIGHT_CLEAR","Onshore,Onshore,Onshore,Onshore,Offshore,Offshore,Offshore",7
5842041f4e65fad6a7708970,2024_04_16,37.499,-122.471,Princeton Jetty,3,0.7771428571428571,1.05,13.857142857142858,13.857142857142858,"NIGHT_MOSTLY_CLOUDY,NIGHT_MOSTLY_CLOUDY,NIGHT_MIST,NIGHT_MIST,NIGHT_MOSTLY_CLOUDY,NIGHT_MIST,NIGHT_CLEAR","Onshore,Onshore,Cross-shore,Cross-shore,Offshore,Offshore,Cross-shore",7
5842041f4e65fad6a7708972,2024_04_16,37.35699547365155,-122.4069534707252,Tunitas Creek,3.142857142857143,1.8971428571428572,2.1271428571428572,14,14,"NIGHT_MOSTLY_CLOUDY,NIGHT_MOSTLY_CLOUDY,NIGHT_MIST,NIGHT_BRIEF_SHOWERS,NIGHT_MIST,NIGHT_MOSTLY_CLOUDY,NIGHT_CLEAR","Offshore,Offshore,Cross-shore,Cross-shore,Offshore,Offshore,Cross-shore",7
5842041f4e65fad6a7708974,2024_04_16,37.54735589428842,-122.5161090212687,Montara,2.7142857142857144,1.6214285714285714,1.8114285714285714,13,13,"NIGHT_BRIEF_SHOWERS,NIGHT_BRIEF_SHOWERS,NIGHT_BRIEF_SHOWERS,NIGHT_BRIEF_SHOWERS,NIGHT_MIST,NIGHT_MIST,NIGHT_CLEAR","Onshore,Onshore,Onshore,Onshore,Onshore,Offshore,Offshore",7
5842041f4e65fad6a7708975,2024_04_16,34.3869373724559,-119.5142334209018,Tarpits,2,0.21857142857142858,0.5228571428571429,13,13,"NIGHT_CLEAR,NIGHT_CLEAR,NIGHT_CLEAR,NIGHT_CLEAR,NIGHT_CLEAR,NIGHT_CLEAR,NIGHT_CLEAR","Onshore,Onshore,Onshore,Onshore,Onshore,Onshore,Onshore",7
5842041f4e65fad6a7708976,2024_04_16,37.59881852720143,-122.50463,Pacifica / Linda Mar,2.2857142857142856,0.4708857142857143,0.7764142857142857,14,14,"NIGHT_BRIEF_SHOWERS,NIGHT_BRIEF_SHOWERS,NIGHT_BRIEF_SHOWERS,NIGHT_BRIEF_SHOWERS,NIGHT_BRIEF_SHOWERS,NIGHT_MIST,NIGHT_CLEAR","Onshore,Onshore,Onshore,Onshore,Onshore,Offshore,Offshore",7
5842041f4e65fad6a7708978,2024_04_16,37.59883098461164,-122.5143843582282,Pedro Point,2.7142857142857144,1.4957142857142858,1.8014285714285714,13,13,"NIGHT_MIST,NIGHT_MIST,NIGHT_MIST,NIGHT_BRIEF_SHOWERS,NIGHT_MIST,NIGHT_MIST,NIGHT_CLEAR","Onshore,Onshore,Onshore,Onshore,Onshore,Offshore,Offshore",7
5842041f4e65fad6a7708979,2024_04_16,37.61081996647663,-122.4973287570634,Rockaway,3,1.5385714285714285,1.7571428571428571,13.857142857142858,13.857142857142858,"NIGHT_BRIEF_SHOWERS,NIGHT_BRIEF_SHOWERS,NIGHT_BRIEF_SHOWERS,NIGHT_BRIEF_SHOWERS,NIGHT_BRIEF_SHOWERS,NIGHT_MIST,NIGHT_CLEAR","Onshore,Onshore,Onshore,Onshore,Cross-shore,Offshore,Offshore",7
5842041f4e65fad6a770897a,2024_04_16,37.809987384424446,-122.4751353263855,Fort Point,2.4285714285714284,0.8128571428571428,1.0642857142857143,13.857142857142858,13.857142857142858,"NIGHT_CLEAR,NIGHT_MIST,NIGHT_MIST,NIGHT_MIST,NIGHT_MIST,NIGHT_MIST,NIGHT_CLEAR","Onshore,Onshore,Onshore,Cross-shore,Onshore,Onshore,Onshore",7
5842041f4e65fad6a770897c,2024_04_16,37.63422542967464,-122.4951,Sharp Park,2.857142857142857,1.6728571428571428,1.9428571428571428,13.857142857142858,13.857142857142858,"NIGHT_MIST,NIGHT_BRIEF_SHOWERS,NIGHT_BRIEF_SHOWERS,NIGHT_BRIEF_SHOWERS,NIGHT_MIST,NIGHT_MIST,NIGHT_CLEAR","Onshore,Onshore,Onshore,Onshore,Onshore,Offshore,Offshore",7
5842041f4e65fad6a770897d,2024_04_16,37.27313605072472,-122.4127387912554,Pescadero,2.7142857142857144,1.8571428571428572,2.11,13,13,"NIGHT_MIST,NIGHT_MIST,NIGHT_BRIEF_SHOWERS,NIGHT_BRIEF_SHOWERS,NIGHT_BRIEF_SHOWERS,NIGHT_MIST,NIGHT_CLEAR","Cross-shore,Cross-shore,Cross-shore,Cross-shore,Cross-shore,Offshore,Onshore",7
5842041f4e65fad6a770897e,2024_04_16,37.18140279972666,-122.3926685899327,Pigeon Point,4,1.7328571428571429,2.0085714285714285,13,13,"NIGHT_MIST,NIGHT_MIST,NIGHT_MIST,NIGHT_MIST,NIGHT_BRIEF_SHOWERS,NIGHT_CLEAR,NIGHT_CLEAR","Offshore,Offshore,Offshore,Offshore,Offshore,Offshore,Cross-shore",7
5842041f4e65fad6a770897f,2024_04_16,37.11578956919415,-122.314699271291,Ano Nuevo,4,1.252857142857143,1.4985714285714287,13,13,"NIGHT_CLEAR,NIGHT_CLEAR,NIGHT_CLEAR,NIGHT_CLEAR,NIGHT_CLEAR,NIGHT_CLEAR,NIGHT_CLEAR","Offshore,Offshore,Offshore,Offshore,Offshore,Offshore,Offshore",7
5842041f4e65fad6a7708980,2024_04_16,37.09520872681598,-122.2805474707768,Waddell Creek,3,1.3914285714285715,1.67,13,13,"NIGHT_CLEAR,NIGHT_CLEAR,NIGHT_CLEAR,NIGHT_CLEAR,NIGHT_CLEAR,NIGHT_CLEAR,NIGHT_CLEAR","Offshore,Offshore,Offshore,Onshore,Offshore,Cross-shore,Cross-shore",7
5842041f4e65fad6a7708981,2024_04_16,36.96512852130351,-122.1252825495626,Four Mile,3,1.0542857142857143,1.26,13,13,"NIGHT_CLEAR,NIGHT_CLEAR,NIGHT_CLEAR,NIGHT_CLEAR,NIGHT_CLEAR,NIGHT_CLEAR,NIGHT_CLEAR","Offshore,Cross-shore,Onshore,Cross-shore,Offshore,Cross-shore,Offshore",7
5842041f4e65fad6a7708982,2024_04_16,37.04122807048655,-122.23337,Scott Creek,3,1.4928571428571429,1.762857142857143,13,13,"NIGHT_CLEAR,NIGHT_CLEAR,NIGHT_CLEAR,NIGHT_CLEAR,NIGHT_CLEAR,NIGHT_CLEAR,NIGHT_CLEAR","Offshore,Offshore,Onshore,Offshore,Offshore,Cross-shore,Offshore",7
5842041f4e65fad6a7708983,2024_04_16,37.02350229387179,-122.21908,Davenport,4,1.5585714285714287,1.8657142857142857,13,13,"NIGHT_CLEAR,NIGHT_CLEAR,NIGHT_CLEAR,NIGHT_CLEAR,NIGHT_CLEAR,NIGHT_CLEAR,NIGHT_CLEAR","Offshore,Offshore,Cross-shore,Offshore,Cross-shore,Cross-shore,Offshore",7
5842041f4e65fad6a7708986,2024_04_16,36.94905295955728,-122.06118,Natural Bridges,3.142857142857143,1.352857142857143,1.6142857142857143,13,13,"NIGHT_CLEAR,NIGHT_CLEAR,NIGHT_CLEAR,NIGHT_CLEAR,NIGHT_CLEAR,NIGHT_MIST,NIGHT_CLEAR","Offshore,Cross-shore,Offshore,Cross-shore,Cross-shore,Onshore,Offshore",7
5842041f4e65fad6a7708987,2024_04_16,36.95154854910425,-122.04207,Mitchell's Cove,3,1.0185714285714287,1.282857142857143,13,13,"NIGHT_MIST,NIGHT_MIST,NIGHT_MOSTLY_CLEAR,NIGHT_MOSTLY_CLEAR,NIGHT_MOSTLY_CLEAR,NIGHT_MIST,NIGHT_CLEAR","Cross-shore,Onshore,Offshore,Cross-shore,Onshore,Onshore,Offshore",7
5842041f4e65fad6a770898a,2024_04_16,36.9572312370203,-121.98177,26th Ave,3.142857142857143,1.3771428571428572,1.657142857142857,13,13,"NIGHT_MIST,NIGHT_MIST,NIGHT_CLEAR,NIGHT_CLEAR,NIGHT_MOSTLY_CLEAR,NIGHT_MIST,NIGHT_CLEAR","Onshore,Offshore,Offshore,Cross-shore,Onshore,Onshore,Offshore",7
5842041f4e65fad6a770898e,2024_04_16,36.91899972819882,-121.85536,Manresa,3,0.79,1.06,13.857142857142858,13.857142857142858,"NIGHT_CLEAR,NIGHT_CLEAR,NIGHT_CLEAR,NIGHT_CLEAR,NIGHT_CLEAR,NIGHT_MIST,NIGHT_CLEAR","Offshore,Offshore,Cross-shore,Offshore,Cross-shore,Cross-shore,Offshore",7
5842041f4e65fad6a7708990,2024_04_16,34.45747731928454,-120.34242,The Ranch,2.4285714285714284,0.6771428571428572,0.9828571428571429,13,13,"NIGHT_CLEAR,NIGHT_CLEAR,NIGHT_CLEAR,NIGHT_CLEAR,NIGHT_CLEAR,NIGHT_CLEAR,NIGHT_CLEAR","Offshore,Offshore,Offshore,Offshore,Offshore,Offshore,Cross-shore",7
5842041f4e65fad6a7708991,2024_04_16,34.50875036590315,-120.50348,Jalama,2.2857142857142856,1.0771428571428572,1.3557142857142856,13,13,"NIGHT_CLEAR,NIGHT_CLEAR,NIGHT_CLEAR,NIGHT_CLEAR,NIGHT_CLEAR,NIGHT_CLEAR,NIGHT_CLEAR","Offshore,Offshore,Offshore,Offshore,Offshore,Offshore,Cross-shore",7
5842041f4e65fad6a7708996,2024_04_16,34.68700870220497,-120.6111611019887,Surf Beach,2.142857142857143,1.64,1.94,12.857142857142858,12.857142857142858,"NIGHT_CLEAR,NIGHT_CLEAR,NIGHT_MOSTLY_CLEAR,NIGHT_CLEAR,NIGHT_CLEAR,NIGHT_CLEAR,NIGHT_CLEAR","Onshore,Onshore,Onshore,Onshore,Onshore,Onshore,Cross-shore",7
5842041f4e65fad6a770899c,2024_04_16,35.5730538161116,-121.1143362345574,Moonstone,3,1.09,1.3657142857142857,12.857142857142858,12.857142857142858,"NIGHT_CLEAR,NIGHT_CLEAR,NIGHT_CLEAR,NIGHT_CLEAR,NIGHT_CLEAR,NIGHT_CLEAR,NIGHT_CLEAR","Onshore,Offshore,Offshore,Offshore,Offshore,Cross-shore,Offshore",7
5842041f4e65fad6a770899d,2024_04_16,35.61533716776573,-121.1502053073914,Pico Creek,3,1.2385714285714287,1.4785714285714286,12.857142857142858,12.857142857142858,"NIGHT_CLEAR,NIGHT_CLEAR,NIGHT_CLEAR,NIGHT_CLEAR,NIGHT_CLEAR,NIGHT_CLEAR,NIGHT_CLEAR","Offshore,Offshore,Offshore,Offshore,Offshore,Offshore,Offshore",7
5842041f4e65fad6a770899e,2024_04_16,35.56829031927379,-121.11207,Santa Rosa Creek,3.142857142857143,1.09,1.3657142857142857,12.857142857142858,12.857142857142858,"NIGHT_MIST,NIGHT_MIST,NIGHT_MIST,NIGHT_CLEAR,NIGHT_CLEAR,NIGHT_CLEAR,NIGHT_CLEAR","Cross-shore,Cross-shore,Offshore,Offshore,Offshore,Cross-shore,Offshore",7
5842041f4e65fad6a77089a2,2024_04_16,35.44820114936284,-120.90715,"Cayucos Pier, Southside ",3,0.44857142857142857,0.7542857142857143,12.857142857142858,12.857142857142858,"NIGHT_CLEAR,NIGHT_CLEAR,NIGHT_CLEAR,NIGHT_CLEAR,NIGHT_CLEAR,NIGHT_CLEAR,NIGHT_CLEAR","Offshore,Offshore,Offshore,Offshore,Offshore,Offshore,Offshore",7
5842041f4e65fad6a77089a4,2024_04_16,35.30143372628852,-120.877819239902,Cable Landing,2.5714285714285716,1.9142857142857144,2.19,12.857142857142858,12.857142857142858,"NIGHT_MIST,NIGHT_MIST,NIGHT_CLEAR,NIGHT_MIST,NIGHT_MIST,NIGHT_MIST,NIGHT_CLEAR","Onshore,Onshore,Offshore,Offshore,Cross-shore,Onshore,Cross-shore",7
5842041f4e65fad6a77089a9,2024_04_16,35.61269103500222,-121.14807,San Simeon,3,0.9,1.076,12.857142857142858,12.857142857142858,"NIGHT_CLEAR,NIGHT_CLEAR,NIGHT_CLEAR,NIGHT_CLEAR,NIGHT_CLEAR,NIGHT_CLEAR,NIGHT_CLEAR","Offshore,Offshore,Offshore,Offshore,Offshore,Offshore,Cross-shore",7
5842041f4e65fad6a77089ab,2024_04_16,35.1775325966252,-120.73411,Avila Beach,2,0.22714285714285715,0.5328571428571429,12.857142857142858,12.857142857142858,"NIGHT_CLEAR,NIGHT_CLEAR,NIGHT_CLEAR,NIGHT_CLEAR,NIGHT_CLEAR,NIGHT_CLEAR,NIGHT_CLEAR","Offshore,Offshore,Offshore,Offshore,Cross-shore,Offshore,Cross-shore",7
5842041f4e65fad6a77089ac,2024_04_16,35.13877877884115,-120.64535,Pismo Beach Pier,2.857142857142857,0.7596285714285714,1.0720285714285716,12,12,"NIGHT_CLEAR,NIGHT_CLEAR,NIGHT_CLEAR,NIGHT_CLEAR,NIGHT_CLEAR,NIGHT_CLEAR,NIGHT_CLEAR","Offshore,Offshore,Offshore,Offshore,Offshore,Offshore,Cross-shore",7
5842041f4e65fad6a77089ad,2024_04_16,46.8907710233147,-124.12964,Westport/Olympic Peninsula,1,0.9028571428571428,1.1642857142857141,11,11,"NIGHT_MOSTLY_CLOUDY,NIGHT_CLEAR,NIGHT_LIGHT_RAIN,NIGHT_CLEAR,NIGHT_CLEAR,NIGHT_BRIEF_SHOWERS,NIGHT_CLEAR","Onshore,Cross-shore,Cross-shore,Cross-shore,Cross-shore,Cross-shore,Onshore",7
5842041f4e65fad6a77089ae,2024_04_16,46.35185177248545,-124.06747,Long Beach Peninsula,2,1.5814285714285714,1.7942857142857143,11,11,"NIGHT_CLEAR,NIGHT_CLEAR,NIGHT_CLEAR,NIGHT_CLEAR,NIGHT_CLEAR,NIGHT_MOSTLY_CLOUDY,NIGHT_CLEAR","Onshore,Onshore,Onshore,Cross-shore,Cross-shore,Cross-shore,Onshore",7
5842041f4e65fad6a77089af,2024_04_16,47.90649175554033,-124.6370864743483,La Push,1.8571428571428572,1.2114285714285715,1.4457142857142857,10.142857142857142,10.142857142857142,"NIGHT_CLEAR,NIGHT_CLEAR,NIGHT_CLEAR,NIGHT_MOSTLY_CLOUDY,NIGHT_MOSTLY_CLOUDY,NIGHT_CLEAR,NIGHT_CLEAR","Cross-shore,Cross-shore,Cross-shore,Cross-shore,Cross-shore,Cross-shore,Cross-shore",7
5842041f4e65fad6a77089b0,2024_04_16,42.04368239985442,-124.26828,Brookings Jetty,2.857142857142857,0.4942557142857143,0.7722742857142857,10.857142857142858,10.857142857142858,"NIGHT_CLEAR,NIGHT_CLEAR,NIGHT_CLEAR,NIGHT_CLEAR,NIGHT_CLEAR,NIGHT_CLEAR,NIGHT_CLEAR","Offshore,Offshore,Offshore,Offshore,Offshore,Offshore,Offshore",7
5842041f4e65fad6a77089b1,2024_04_16,42.74071837900346,-124.4983727491047,Port Orford,2.142857142857143,0.6471428571428571,0.9514285714285714,10.142857142857142,10.142857142857142,"NIGHT_CLEAR,NIGHT_CLEAR,NIGHT_CLEAR,NIGHT_CLEAR,NIGHT_CLEAR,NIGHT_CLEAR,NIGHT_CLEAR","Offshore,Offshore,Offshore,Offshore,Offshore,Offshore,Offshore",7
5842041f4e65fad6a77089b2,2024_04_16,44.01532689312291,-124.13865,Florence South Jetty,3,1.582857142857143,1.7985714285714287,11,11,"NIGHT_CLEAR,NIGHT_SHOWERS,NIGHT_MOSTLY_CLOUDY,NIGHT_CLEAR,NIGHT_CLEAR,NIGHT_CLEAR,NIGHT_MOSTLY_CLOUDY","Cross-shore,Cross-shore,Cross-shore,Cross-shore,Cross-shore,Cross-shore,Cross-shore",7
5842041f4e65fad6a77089b3,2024_04_16,42.41812540774362,-124.42945,Gold Beach South Jetty,3.7142857142857144,1.2257142857142858,1.4657142857142857,10,10,"NIGHT_CLEAR,NIGHT_CLEAR,NIGHT_CLEAR,NIGHT_CLEAR,NIGHT_CLEAR,NIGHT_CLEAR,NIGHT_CLEAR","Offshore,Offshore,Offshore,Offshore,Offshore,Offshore,Offshore",7
5842041f4e65fad6a77089b4,2024_04_16,44.95857310226525,-124.0219017690976,Lincoln City,3,1.5685714285714285,1.747142857142857,11,11,"NIGHT_MOSTLY_CLOUDY,NIGHT_MOSTLY_CLOUDY,NIGHT_MOSTLY_CLOUDY,NIGHT_MOSTLY_CLOUDY,NIGHT_DRIZZLE,NIGHT_MOSTLY_CLOUDY,NIGHT_LIGHT_SHOWERS","Cross-shore,Cross-shore,Cross-shore,Cross-shore,Cross-shore,Cross-shore,Cross-shore",7
5842041f4e65fad6a77089b5,2024_04_16,44.63792761362982,-124.0657,Newport,3,1.6085714285714285,1.83,11,11,"NIGHT_CLEAR,NIGHT_MOSTLY_CLOUDY,NIGHT_MOSTLY_CLOUDY,NIGHT_MOSTLY_CLOUDY,NIGHT_MOSTLY_CLOUDY,NIGHT_CLEAR,NIGHT_LIGHT_SHOWERS","Offshore,Cross-shore,Cross-shore,Cross-shore,Cross-shore,Cross-shore,Cross-shore",7
5842041f4e65fad6a77089b6,2024_04_16,45.61468496266301,-123.94643,Rockaway Beach,2.857142857142857,1.5871428571428572,1.8257142857142858,11,11,"NIGHT_CLEAR,NIGHT_MOSTLY_CLOUDY,NIGHT_MOSTLY_CLEAR,NIGHT_DRIZZLE,NIGHT_CLOUDY,NIGHT_LIGHT_RAIN,NIGHT_CLEAR","Onshore,Onshore,Onshore,Onshore,Onshore,Cross-shore,Onshore",7
5842041f4e65fad6a77089b7,2024_04_16,45.20252914186085,-123.96975,Pacific City,2.857142857142857,1.1300000000000001,1.3371428571428572,11,11,"NIGHT_CLEAR,NIGHT_MOSTLY_CLOUDY,NIGHT_CLEAR,NIGHT_CLOUDY,NIGHT_FOG,NIGHT_CLEAR,NIGHT_CLOUDY","Cross-shore,Cross-shore,Cross-shore,Cross-shore,Cross-shore,Cross-shore,Cross-shore",7
5842041f4e65fad6a77089b8,2024_04_16,45.88179930310263,-123.96681,Cannon Beach,2.857142857142857,1.4514285714285715,1.6642857142857141,11,11,"NIGHT_LIGHT_RAIN_AND_FOG,NIGHT_CLOUDY,NIGHT_MOSTLY_CLOUDY,NIGHT_CLEAR,NIGHT_CLEAR,NIGHT_MOSTLY_CLOUDY,NIGHT_CLOUDY","Onshore,Onshore,Cross-shore,Cross-shore,Cross-shore,Cross-shore,Cross-shore",7
5842041f4e65fad6a77089ba,2024_04_16,40.02528754746774,-124.06372,Shelter Cove,2.7142857142857144,0.40216857142857143,0.6283885714285714,11,11,"NIGHT_CLEAR,NIGHT_CLEAR,NIGHT_CLEAR,NIGHT_CLEAR,NIGHT_CLEAR,NIGHT_CLEAR,NIGHT_CLEAR","Offshore,Offshore,Offshore,Offshore,Offshore,Offshore,Offshore",7
5842041f4e65fad6a77089bb,2024_04_16,40.76816197136951,-124.24248,Humboldt Harbor Entrance,2.857142857142857,2.184285714285714,2.5014285714285713,11,11,"NIGHT_CLOUDY,NIGHT_CLEAR,NIGHT_CLEAR,NIGHT_CLEAR,NIGHT_CLEAR,NIGHT_CLEAR,NIGHT_CLEAR","Cross-shore,Cross-shore,Cross-shore,Onshore,Onshore,Offshore,Cross-shore",7
5842041f4e65fad6a77089bc,2024_04_16,40.76684246920174,-124.23107,North Jetty,3.2857142857142856,2.835714285714286,3.315714285714286,11,11,"NIGHT_CLOUDY,NIGHT_CLEAR,NIGHT_MOSTLY_CLOUDY,NIGHT_CLEAR,NIGHT_CLEAR,NIGHT_CLEAR,NIGHT_CLEAR","Cross-shore,Cross-shore,Cross-shore,Onshore,Onshore,Offshore,Offshore",7
5842041f4e65fad6a77089bd,2024_04_16,41.02731183893966,-124.1149972888982,Westhaven,3.142857142857143,2.44,2.757142857142857,11,11,"NIGHT_MOSTLY_CLOUDY,NIGHT_CLEAR,NIGHT_CLEAR,NIGHT_CLEAR,NIGHT_CLEAR,NIGHT_CLEAR,NIGHT_CLEAR","Offshore,Offshore,Offshore,Offshore,Cross-shore,Offshore,Offshore",7
5842041f4e65fad6a77089be,2024_04_16,41.13016238153297,-124.16466,Sue-meg,2,2.072857142857143,2.4485714285714284,11,11,"NIGHT_CLEAR,NIGHT_CLEAR,NIGHT_CLEAR,NIGHT_CLEAR,NIGHT_CLEAR,NIGHT_CLEAR,NIGHT_CLEAR","Cross-shore,Cross-shore,Cross-shore,Cross-shore,Cross-shore,Cross-shore,Cross-shore",7
5842041f4e65fad6a77089bf,2024_04_16,37.8289474958188,-122.5376795097543,Fort Cronkite/Rodeo Beach,3,1.0314285714285714,1.247142857142857,13,13,"NIGHT_CLEAR,NIGHT_CLEAR,NIGHT_MIST,NIGHT_MIST,NIGHT_MIST,NIGHT_BRIEF_SHOWERS_POSSIBLE,NIGHT_CLEAR","Onshore,Onshore,Onshore,Cross-shore,Cross-shore,Cross-shore,Cross-shore",7
5842041f4e65fad6a77089c0,2024_04_16,41.74415759876137,-124.17717,South Beach CA,3,0.65,0.9514285714285714,11,11,"NIGHT_CLEAR,NIGHT_CLEAR,NIGHT_CLEAR,NIGHT_CLEAR,NIGHT_CLEAR,NIGHT_CLEAR,NIGHT_CLEAR","Offshore,Offshore,Offshore,Offshore,Offshore,Offshore,Offshore",7
5842041f4e65fad6a77089c1,2024_04_16,37.89801283969752,-122.64519,Stinson Beach,3,0.5142857142857143,0.8214285714285714,12.857142857142858,12.857142857142858,"NIGHT_CLEAR,NIGHT_CLEAR,NIGHT_CLEAR,NIGHT_CLEAR,NIGHT_CLEAR,NIGHT_CLEAR,NIGHT_CLEAR","Cross-shore,Offshore,Cross-shore,Cross-shore,Cross-shore,Cross-shore,Onshore",7
5842041f4e65fad6a77089c2,2024_04_16,37.90514516176495,-122.68151,Bolinas,3,0.5981857142857143,0.9346628571428571,12.857142857142858,12.857142857142858,"NIGHT_CLEAR,NIGHT_CLEAR,NIGHT_CLEAR,NIGHT_CLEAR,NIGHT_CLEAR,NIGHT_CLEAR,NIGHT_CLEAR","Cross-shore,Cross-shore,Cross-shore,Cross-shore,Onshore,Onshore,Onshore",7
5842041f4e65fad6a77089c3,2024_04_16,38.04892513158693,-122.9892494965416,Point Reyes (north),2.142857142857143,2.362857142857143,2.67,11,11,"NIGHT_MIST,NIGHT_MIST,NIGHT_MIST,NIGHT_MIST,NIGHT_MIST,NIGHT_BRIEF_SHOWERS_POSSIBLE,NIGHT_CLEAR","Onshore,Onshore,Onshore,Onshore,Cross-shore,Onshore,Onshore",7
5842041f4e65fad6a77089c6,2024_04_16,38.31088736605785,-123.0496777333731,Doran Beach,2,0.17714285714285713,0.4857142857142857,11,11,"NIGHT_MIST,NIGHT_MIST,NIGHT_MIST,NIGHT_MIST,NIGHT_MIST,NIGHT_MIST,NIGHT_CLEAR","Offshore,Offshore,Offshore,Offshore,Cross-shore,Offshore,Offshore",7
5842041f4e65fad6a77089c7,2024_04_16,38.45077228660809,-123.13008,Russian Rivermouth,3.4285714285714284,1.4942857142857142,1.7642857142857142,11,11,"NIGHT_CLEAR,NIGHT_CLEAR,NIGHT_CLEAR,NIGHT_CLEAR,NIGHT_CLEAR,NIGHT_CLEAR,NIGHT_CLEAR","Offshore,Cross-shore,Cross-shore,Offshore,Offshore,Cross-shore,Offshore",7
5842041f4e65fad6a77089c8,2024_04_16,38.35329968518107,-123.06906,Salmon Creek,3.142857142857143,2.0685714285714285,2.3414285714285716,11,11,"NIGHT_MIST,NIGHT_MIST,NIGHT_MIST,NIGHT_MIST,NIGHT_CLEAR,NIGHT_MIST,NIGHT_CLEAR","Offshore,Onshore,Onshore,Cross-shore,Offshore,Onshore,Offshore",7
5842041f4e65fad6a77089c9,2024_04_16,38.6845180197959,-123.4322714291198,Black Point Beach,3,0.8871428571428571,1.0814285714285714,10,10,"NIGHT_CLEAR,NIGHT_CLEAR,NIGHT_CLEAR,NIGHT_CLEAR,NIGHT_CLEAR,NIGHT_CLEAR,NIGHT_CLEAR","Onshore,Onshore,Onshore,Cross-shore,Onshore,Onshore,Onshore",7
5842041f4e65fad6a77089ca,2024_04_16,43.251076,-70.59144,Ogunquit,2.7385714285714284,0.6459619047619048,0.9516809523809524,6,4,"NIGHT_CLEAR,NIGHT_CLEAR,NIGHT_CLEAR,NIGHT_CLEAR,CLEAR,CLEAR,CLEAR","Offshore,Offshore,Offshore,Offshore,Offshore,Offshore,Offshore",7
5842041f4e65fad6a77089cb,2024_04_16,41.362631366305415,-71.48007,Point Judith,2.7385714285714284,0.5845333333333333,0.8888238095238096,9,8,"NIGHT_CLEAR,NIGHT_CLEAR,NIGHT_CLEAR,NIGHT_CLEAR,NIGHT_CLEAR,CLEAR,CLEAR","Offshore,Offshore,Offshore,Offshore,Offshore,Offshore,Offshore",7
5842041f4e65fad6a77089cd,2024_04_16,41.422678090954726,-71.45413,Monahan's - Narragansett,2.7142857142857144,0.4150214285714286,0.6484742857142857,7,7,"NIGHT_CLEAR,NIGHT_CLEAR,NIGHT_CLEAR,NIGHT_CLEAR,NIGHT_CLEAR,CLEAR,CLEAR","Offshore,Offshore,Offshore,Offshore,Offshore,Offshore,Offshore",7
5842041f4e65fad6a77089ce,2024_04_16,41.469,-71.293,Ruggles - Newport,3,0.6857914285714286,1.0715485714285713,7,7,"NIGHT_CLEAR,NIGHT_CLEAR,NIGHT_CLEAR,NIGHT_CLEAR,NIGHT_CLEAR,CLEAR,CLEAR","Offshore,Offshore,Offshore,Offshore,Offshore,Offshore,Offshore",7
5842041f4e65fad6a77089cf,2024_04_16,43.175394,-70.606351,Short Sands Beach,2.857142857142857,0.6,0.9014285714285715,6,6,"NIGHT_CLEAR,NIGHT_CLEAR,NIGHT_CLEAR,NIGHT_CLEAR,CLEAR,CLEAR,CLEAR","Offshore,Offshore,Offshore,Offshore,Offshore,Offshore,Offshore",7
5842041f4e65fad6a77089d0,2024_04_16,41.487408,-71.29017,First Beach,2.7142857142857144,0.44857142857142857,0.7557142857142857,7,7,"NIGHT_CLEAR,NIGHT_CLEAR,NIGHT_CLEAR,NIGHT_CLEAR,NIGHT_CLEAR,CLEAR,CLEAR","Offshore,Offshore,Offshore,Offshore,Offshore,Offshore,Offshore",7
5842041f4e65fad6a77089d1,2024_04_16,42.27916830233153,-70.86498,Nantasket Beach,1.2614285714285713,0.005714285714285714,0.30988571428571426,6,5,"NIGHT_CLEAR,NIGHT_CLEAR,NIGHT_CLEAR,NIGHT_CLEAR,CLEAR,CLEAR,CLEAR","Offshore,Offshore,Offshore,Offshore,Offshore,Offshore,Cross-shore",7
5842041f4e65fad6a77089d2,2024_04_16,41.817,-69.935,Cape Cod,2,0.2785714285714286,0.5842857142857143,6,6,"NIGHT_CLEAR,NIGHT_MOSTLY_CLEAR,NIGHT_CLEAR,NIGHT_CLEAR,CLEAR,CLEAR,CLEAR","Offshore,Offshore,Offshore,Offshore,Offshore,Offshore,Offshore",7
5842041f4e65fad6a77089d3,2024_04_16,42.22055448975661,-70.70634873403819,Egypt Beach,1.1428571428571428,0.008571428571428572,0.3157142857142857,6,6,"NIGHT_CLEAR,NIGHT_CLEAR,NIGHT_CLEAR,NIGHT_CLEAR,CLEAR,CLEAR,CLEAR","Offshore,Offshore,Offshore,Offshore,Offshore,Offshore,Offshore",7
5842041f4e65fad6a77089d4,2024_04_16,41.48739647744607,-71.25723,Second Beach,2.2614285714285716,0.4701208333333333,0.7241303571428571,9,8,"NIGHT_CLEAR,NIGHT_CLEAR,NIGHT_CLEAR,NIGHT_CLEAR,NIGHT_CLEAR,CLEAR,CLEAR","Offshore,Offshore,Offshore,Cross-shore,Cross-shore,Cross-shore,Offshore",7
5842041f4e65fad6a77089d5,2024_04_16,42.964,-70.769,Fox Hill,2.7142857142857144,0.5007238095238096,0.8064428571428571,6,4,"NIGHT_CLEAR,NIGHT_CLEAR,NIGHT_CLEAR,NIGHT_CLEAR,CLEAR,CLEAR,CLEAR","Offshore,Offshore,Offshore,Offshore,Offshore,Offshore,Offshore",7
5842041f4e65fad6a77089d6,2024_04_16,42.991359,-70.75149,Straws Point,2.7142857142857144,0.48774761904761904,0.7947761904761905,6,4,"NIGHT_CLEAR,NIGHT_CLEAR,NIGHT_CLEAR,NIGHT_CLEAR,CLEAR,CLEAR,CLEAR","Offshore,Offshore,Offshore,Offshore,Offshore,Offshore,Offshore",7
5842041f4e65fad6a77089d7,2024_04_16,42.946,-70.786,Plaice Cove,2.7142857142857144,0.5007238095238096,0.8064428571428571,6,4,"NIGHT_CLEAR,NIGHT_CLEAR,NIGHT_CLEAR,NIGHT_CLEAR,CLEAR,CLEAR,CLEAR","Offshore,Offshore,Offshore,Offshore,Offshore,Offshore,Offshore",7
5842041f4e65fad6a77089d9,2024_04_16,42.911574,-70.80831,The Main Beach,2.0285714285714285,0.6075715476190476,0.9388988095238096,6,4,"NIGHT_CLEAR,NIGHT_CLEAR,NIGHT_CLEAR,NIGHT_CLEAR,CLEAR,CLEAR,CLEAR","Offshore,Offshore,Offshore,Offshore,Offshore,Offshore,Offshore",7
5842041f4e65fad6a77089da,2024_04_16,42.97583846220203,-70.764,Sawyer's Beach,2.7142857142857144,0.49060476190476193,0.7948952380952381,6,4,"NIGHT_CLEAR,NIGHT_CLEAR,NIGHT_CLEAR,NIGHT_CLEAR,CLEAR,CLEAR,CLEAR","Offshore,Offshore,Offshore,Offshore,Offshore,Offshore,Offshore",7
5842041f4e65fad6a77089db,2024_04_16,42.97,-70.77,Rye on the Rocks / 5-0's,2.0285714285714285,0.6770927380952381,0.9331791666666667,6,4,"NIGHT_CLEAR,NIGHT_CLEAR,NIGHT_CLEAR,NIGHT_CLEAR,CLEAR,CLEAR,CLEAR","Offshore,Offshore,Offshore,Offshore,Offshore,Offshore,Offshore",7
5842041f4e65fad6a77089dc,2024_04_16,43.55902946610303,-70.27795,Higgins Beach,3,0.5659619047619048,0.8715619047619048,6,5,"NIGHT_CLEAR,NIGHT_CLEAR,NIGHT_CLEAR,NIGHT_CLEAR,CLEAR,CLEAR,CLEAR","Cross-shore,Cross-shore,Cross-shore,Offshore,Offshore,Offshore,Offshore",7
5842041f4e65fad6a77089dd,2024_04_16,43.302676,-70.5652,Wells Beach,2.7142857142857144,0.6342952380952381,0.9398952380952381,6,4,"NIGHT_CLEAR,NIGHT_CLEAR,NIGHT_CLEAR,NIGHT_CLEAR,CLEAR,CLEAR,CLEAR","Offshore,Offshore,Offshore,Offshore,Offshore,Offshore,Offshore",7
5842041f4e65fad6a77089de,2024_04_16,43.545359,-70.30479,Scarborough Beach State Park,2.7385714285714284,0.6100086904761904,0.9427080952380953,6,4,"NIGHT_CLEAR,NIGHT_CLEAR,NIGHT_CLEAR,NIGHT_CLEAR,CLEAR,CLEAR,CLEAR","Offshore,Offshore,Offshore,Offshore,Offshore,Offshore,Offshore",7
5842041f4e65fad6a77089df,2024_04_16,43.514481,-70.372146,Old Orchard Beach,2.9757142857142855,0.4702476190476191,0.775847619047619,6,5,"NIGHT_CLEAR,NIGHT_CLEAR,NIGHT_CLEAR,NIGHT_CLEAR,CLEAR,CLEAR,CLEAR","Offshore,Offshore,Offshore,Offshore,Offshore,Offshore,Offshore",7
5842041f4e65fad6a77089e0,2024_04_16,43.34711,-70.48165,Gooch's Beach,2.142857142857143,0.609652380952381,0.9152523809523809,6,5,"NIGHT_CLEAR,NIGHT_CLEAR,NIGHT_CLEAR,NIGHT_CLEAR,CLEAR,CLEAR,CLEAR","Cross-shore,Cross-shore,Cross-shore,Cross-shore,Cross-shore,Offshore,Offshore",7
5842041f4e65fad6a77089e2,2024_04_16,40.58433,-73.62953,Lido Beach,2.617142857142857,0.5955571428571429,0.9602904761904762,9,7,"NIGHT_CLEAR,NIGHT_CLEAR,NIGHT_CLEAR,NIGHT_CLEAR,NIGHT_CLEAR,CLEAR,CLEAR","Cross-shore,Cross-shore,Offshore,Offshore,Offshore,Offshore,Offshore",7
5842041f4e65fad6a77089e3,2024_04_16,43.163135,-70.61689,Long Sands Beach,2.547142857142857,0.4872457142857143,0.7508897619047619,6,5,"NIGHT_CLEAR,NIGHT_CLEAR,NIGHT_CLEAR,NIGHT_CLEAR,CLEAR,CLEAR,CLEAR","Offshore,Offshore,Offshore,Offshore,Offshore,Offshore,Offshore",7
5842041f4e65fad6a77089e4,2024_04_16,40.61695351251805,-73.39376,Gilgo Beach,2.2614285714285716,0.5769142857142857,0.9228142857142857,9,7,"NIGHT_CLEAR,NIGHT_CLEAR,NIGHT_CLEAR,NIGHT_CLEAR,NIGHT_CLEAR,CLEAR,CLEAR","Offshore,Offshore,Offshore,Offshore,Offshore,Offshore,Offshore",7
5842041f4e65fad6a77089e5,2024_04_16,40.62530081928036,-73.23827,Robert Moses,2.142857142857143,0.45714285714285713,0.7614285714285715,8,8,"NIGHT_CLEAR,NIGHT_CLEAR,NIGHT_CLEAR,NIGHT_CLEAR,NIGHT_CLEAR,CLEAR,CLEAR","Offshore,Offshore,Offshore,Offshore,Offshore,Offshore,Offshore",7
5842041f4e65fad6a77089e6,2024_04_16,40.64313317632791,-73.15727,Fire Island,2.4285714285714284,0.4585714285714286,0.7642857142857143,8,8,"NIGHT_MOSTLY_CLEAR,NIGHT_CLEAR,NIGHT_CLEAR,NIGHT_CLEAR,NIGHT_CLEAR,CLEAR,CLEAR","Offshore,Offshore,Offshore,Offshore,Offshore,Offshore,Offshore",7
5842041f4e65fad6a77089e8,2024_04_16,40.76653118828782,-72.74579619372713,Cupsogue,3,0.9885714285714285,1.2085714285714286,8,8,"NIGHT_CLEAR,NIGHT_CLEAR,NIGHT_CLEAR,NIGHT_CLEAR,NIGHT_CLEAR,CLEAR,CLEAR","Offshore,Offshore,Offshore,Offshore,Offshore,Offshore,Offshore",7
5842041f4e65fad6a77089e9,2024_04_16,42.9376373334092,-70.79141,The Wall ,2,0.5457814285714285,0.8423535714285715,6,4,"NIGHT_CLEAR,NIGHT_CLEAR,NIGHT_CLEAR,NIGHT_CLEAR,CLEAR,CLEAR,CLEAR","Offshore,Offshore,Offshore,Offshore,Offshore,Offshore,Offshore",7
5842041f4e65fad6a77089ea,2024_04_16,40.887088,-72.33856,Flys,3,0.7914285714285714,1.0942857142857143,8,8,"NIGHT_CLEAR,NIGHT_CLEAR,NIGHT_CLEAR,NIGHT_CLEAR,NIGHT_CLEAR,CLEAR,CLEAR","Offshore,Offshore,Offshore,Offshore,Offshore,Offshore,Offshore",7
5842041f4e65fad6a77089eb,2024_04_16,41.0389266436591,-71.91068529316958,Trailer Park,2.7085714285714286,0.7145665476190477,1.110519761904762,9,7,"NIGHT_CLEAR,NIGHT_CLEAR,NIGHT_CLEAR,NIGHT_CLEAR,NIGHT_CLEAR,CLEAR,CLEAR","Offshore,Offshore,Offshore,Offshore,Offshore,Offshore,Offshore",7
5842041f4e65fad6a77089ec,2024_04_16,41.039505402729105,-71.9142,Ditch Plains,3,0.7484757142857142,1.1694942857142856,7,7,"NIGHT_CLEAR,NIGHT_CLEAR,NIGHT_CLEAR,NIGHT_CLEAR,NIGHT_CLEAR,CLEAR,CLEAR","Offshore,Offshore,Offshore,Offshore,Offshore,Offshore,Offshore",7
5842041f4e65fad6a77089ee,2024_04_16,40.57633275206492,-73.56895305108567,"West End, Jones Beach",2.7142857142857144,0.6277476190476191,0.973647619047619,9,7,"NIGHT_CLEAR,NIGHT_CLEAR,NIGHT_CLEAR,NIGHT_CLEAR,NIGHT_CLEAR,CLEAR,CLEAR","Offshore,Offshore,Offshore,Offshore,Cross-shore,Cross-shore,Offshore",7
5842041f4e65fad6a77089f1,2024_04_16,41.038286691230795,-71.91991567611694,Poles,2.7085714285714286,0.7202559523809524,1.1143084523809523,9,7,"NIGHT_CLEAR,NIGHT_CLEAR,NIGHT_CLEAR,NIGHT_CLEAR,NIGHT_CLEAR,CLEAR,CLEAR","Offshore,Offshore,Offshore,Offshore,Offshore,Offshore,Offshore",7
5842041f4e65fad6a77089f3,2024_04_16,40.84077769766295,-72.47989493724765,The Bowl,3,0.8342857142857143,1.0542857142857143,8,8,"NIGHT_CLEAR,NIGHT_CLEAR,NIGHT_CLEAR,NIGHT_CLEAR,NIGHT_CLEAR,CLEAR,CLEAR","Offshore,Offshore,Offshore,Offshore,Offshore,Offshore,Offshore",7
5842041f4e65fad6a77089f4,2024_04_16,40.94235535243154,-72.19286,Main Beach,2.7142857142857144,0.6982238095238095,1.0023952380952381,15,13,"NIGHT_CLEAR,NIGHT_CLEAR,NIGHT_CLEAR,NIGHT_CLEAR,NIGHT_CLEAR,CLEAR,CLEAR","Offshore,Offshore,Offshore,Cross-shore,Cross-shore,Cross-shore,Offshore",7
5842041f4e65fad6a77089f5,2024_04_16,40.58270702399518,-73.67251552079799,Laurelton Blvd.,2,0.6659767857142858,0.8697009523809524,9,7,"NIGHT_CLEAR,NIGHT_CLEAR,NIGHT_CLEAR,NIGHT_CLEAR,NIGHT_CLEAR,CLEAR,CLEAR","Cross-shore,Offshore,Offshore,Offshore,Offshore,Offshore,Offshore",7
5842041f4e65fad6a77089f6,2024_04_16,41.033752854071416,-71.93696,Terrace,2.6614285714285715,0.7136333333333333,1.1108761904761906,9,7,"NIGHT_CLEAR,NIGHT_CLEAR,NIGHT_CLEAR,NIGHT_CLEAR,NIGHT_CLEAR,CLEAR,CLEAR","Offshore,Offshore,Offshore,Offshore,Offshore,Offshore,Offshore",7
5842041f4e65fad6a77089f7,2024_04_16,40.83372943645748,-72.50426173210144,K Road,3,0.9914285714285714,1.1542857142857141,8,8,"NIGHT_CLEAR,NIGHT_CLEAR,NIGHT_CLEAR,NIGHT_CLEAR,NIGHT_CLEAR,CLEAR,CLEAR","Offshore,Offshore,Offshore,Offshore,Offshore,Offshore,Offshore",7
5842041f4e65fad6a77089f8,2024_04_16,40.58456099581507,-73.80730032920837,84th Street,2.9757142857142855,0.6073904761904761,0.9547190476190477,9,7,"NIGHT_CLEAR,NIGHT_CLEAR,NIGHT_CLEAR,NIGHT_CLEAR,NIGHT_CLEAR,CLEAR,CLEAR","Offshore,Offshore,Offshore,Offshore,Offshore,Offshore,Offshore",7
5842041f4e65fad6a77089fa,2024_04_16,40.1319,-74.02788,Sea Girt,2.2857142857142856,0.5332238095238095,0.8416809523809524,10,8,"NIGHT_CLEAR,NIGHT_CLEAR,NIGHT_CLEAR,NIGHT_CLEAR,NIGHT_CLEAR,CLEAR,CLEAR","Cross-shore,Cross-shore,Offshore,Offshore,Offshore,Offshore,Offshore",7
5842041f4e65fad6a77089fb,2024_04_16,40.54698301868125,-73.9268,Breezy Point,2.5714285714285716,0.3485714285714286,0.6571428571428571,9,9,"NIGHT_CLEAR,NIGHT_CLEAR,NIGHT_CLEAR,NIGHT_CLEAR,NIGHT_CLEAR,CLEAR,CLEAR","Offshore,Offshore,Offshore,Offshore,Offshore,Offshore,Offshore",7
5842041f4e65fad6a77089fc,2024_04_16,40.152504,-74.021383,Spring Lake,2.142857142857143,0.5258428571428572,0.8315619047619048,10,8,"NIGHT_MOSTLY_CLEAR,NIGHT_CLEAR,NIGHT_CLEAR,NIGHT_CLEAR,NIGHT_CLEAR,CLEAR,CLEAR","Cross-shore,Cross-shore,Offshore,Offshore,Offshore,Offshore,Offshore",7
5842041f4e65fad6a77089fd,2024_04_16,40.591277,-73.770792,30th - 39th Streets,2,0.4664380952380952,0.8151952380952381,9,7,"NIGHT_CLEAR,NIGHT_CLEAR,NIGHT_CLEAR,NIGHT_CLEAR,NIGHT_CLEAR,CLEAR,CLEAR","Offshore,Offshore,Offshore,Offshore,Offshore,Offshore,Offshore",7
5842041f4e65fad6a77089fe,2024_04_16,40.18834955871439,-74.00860982500222,Avon,2.142857142857143,0.5040571428571429,0.8097761904761905,10,8,"NIGHT_CLEAR,NIGHT_CLEAR,NIGHT_CLEAR,NIGHT_CLEAR,NIGHT_CLEAR,CLEAR,CLEAR","Cross-shore,Cross-shore,Offshore,Offshore,Offshore,Offshore,Offshore",7
5842041f4e65fad6a77089ff,2024_04_16,40.1974229100932,-74.00650533798255,Bradley Beach,2.142857142857143,0.5201285714285714,0.8257285714285715,10,8,"NIGHT_CLEAR,NIGHT_CLEAR,NIGHT_CLEAR,NIGHT_CLEAR,NIGHT_CLEAR,CLEAR,CLEAR","Cross-shore,Cross-shore,Offshore,Offshore,Offshore,Offshore,Offshore",7
5842041f4e65fad6a7708a01,2024_04_16,40.17202,-74.01503,"16th Ave., Belmar",2.9057142857142857,0.5948857142857144,0.9133047619047618,10,8,"NIGHT_CLEAR,NIGHT_CLEAR,NIGHT_CLEAR,NIGHT_CLEAR,NIGHT_CLEAR,CLEAR,CLEAR","Cross-shore,Cross-shore,Offshore,Offshore,Offshore,Offshore,Offshore",7
5842041f4e65fad6a7708a02,2024_04_16,40.217443,-73.99982,Asbury Park,2.142857142857143,0.5563190476190476,0.8606095238095238,10,8,"NIGHT_CLEAR,NIGHT_CLEAR,NIGHT_CLEAR,NIGHT_CLEAR,NIGHT_CLEAR,CLEAR,CLEAR","Cross-shore,Cross-shore,Offshore,Offshore,Offshore,Offshore,Offshore",7
5842041f4e65fad6a7708a03,2024_04_16,40.229841,-73.996782,Loch Arbour and Deal,2.2857142857142856,0.5389380952380952,0.8431095238095239,10,8,"NIGHT_CLEAR,NIGHT_CLEAR,NIGHT_CLEAR,NIGHT_CLEAR,NIGHT_CLEAR,CLEAR,CLEAR","Offshore,Offshore,Offshore,Offshore,Offshore,Offshore,Offshore",7
5842041f4e65fad6a7708a05,2024_04_16,40.41754,-73.97935,Sandy Hook,1.7142857142857142,0.13142857142857142,0.44,9,9,"NIGHT_CLEAR,NIGHT_CLEAR,NIGHT_CLEAR,NIGHT_CLEAR,NIGHT_CLEAR,CLEAR,CLEAR","Cross-shore,Offshore,Offshore,Offshore,Offshore,Offshore,Offshore",7
5842041f4e65fad6a7708a06,2024_04_16,39.36353,-74.40873,Crystals,2,0.6399228571428571,0.9894444047619048,10,8,"NIGHT_CLEAR,NIGHT_MOSTLY_CLEAR,NIGHT_CLEAR,NIGHT_CLEAR,NIGHT_CLEAR,CLEAR,CLEAR","Offshore,Offshore,Offshore,Offshore,Offshore,Offshore,Offshore",7
5842041f4e65fad6a7708a07,2024_04_16,39.31443,-74.51863,32nd Street,2.4285714285714284,0.625145119047619,0.9663615476190477,10,8,"NIGHT_CLEAR,NIGHT_CLEAR,NIGHT_CLEAR,NIGHT_CLEAR,NIGHT_CLEAR,CLEAR,CLEAR","Offshore,Offshore,Offshore,Offshore,Offshore,Offshore,Offshore",7
5842041f4e65fad6a7708a08,2024_04_16,39.327688,-74.49524,Margate Pier Northside,2.4285714285714284,0.625145119047619,0.9663615476190477,10,8,"NIGHT_CLEAR,NIGHT_CLEAR,NIGHT_CLEAR,NIGHT_CLEAR,NIGHT_CLEAR,CLEAR,CLEAR","Offshore,Offshore,Offshore,Offshore,Offshore,Offshore,Offshore",7
5842041f4e65fad6a7708a09,2024_04_16,39.336276,-74.47782,Ventnor Pier,2.4285714285714284,0.6279340476190476,0.9707147619047619,10,8,"NIGHT_CLEAR,NIGHT_CLEAR,NIGHT_CLEAR,NIGHT_CLEAR,NIGHT_CLEAR,CLEAR,CLEAR","Offshore,Offshore,Offshore,Offshore,Offshore,Offshore,Offshore",7
5842041f4e65fad6a7708a0a,2024_04_16,39.35929751441085,-74.41683,States Avenue,2,0.6399228571428571,0.9894444047619048,10,8,"NIGHT_MOSTLY_CLOUDY,NIGHT_MOSTLY_CLOUDY,NIGHT_CLEAR,NIGHT_CLEAR,NIGHT_CLEAR,CLEAR,CLEAR","Offshore,Offshore,Offshore,Offshore,Offshore,Offshore,Offshore",7
5842041f4e65fad6a7708a0b,2024_04_16,39.37274173278517,-74.40454,Brigantine Jetty,2.2857142857142856,0.6400690476190476,0.989672380952381,10,8,"NIGHT_CLEAR,NIGHT_MOSTLY_CLEAR,NIGHT_CLEAR,NIGHT_CLEAR,NIGHT_CLEAR,CLEAR,CLEAR","Offshore,Offshore,Offshore,Offshore,Offshore,Offshore,Offshore",7
5842041f4e65fad6a7708a0c,2024_04_16,39.356505,-74.42263,South Carolina Avenue,2.2857142857142856,0.6400690476190476,0.989672380952381,10,8,"NIGHT_MOSTLY_CLOUDY,NIGHT_MOSTLY_CLOUDY,NIGHT_CLEAR,NIGHT_CLEAR,NIGHT_CLEAR,CLEAR,CLEAR","Offshore,Offshore,Offshore,Offshore,Offshore,Offshore,Offshore",7
5842041f4e65fad6a7708a0d,2024_04_16,39.413485,-74.35476,14th Street North,2.4285714285714284,0.5114380952380952,0.8170380952380952,10,8,"NIGHT_MOSTLY_CLOUDY,NIGHT_CLEAR,NIGHT_CLEAR,NIGHT_CLEAR,NIGHT_CLEAR,CLEAR,CLEAR","Cross-shore,Offshore,Cross-shore,Cross-shore,Offshore,Offshore,Offshore",7
5842041f4e65fad6a7708a0e,2024_04_16,39.531319,-74.263252,The Wooden Jetty,2.8814285714285712,0.63495,0.9494496428571428,10,8,"NIGHT_CLEAR,NIGHT_CLEAR,NIGHT_CLEAR,NIGHT_CLEAR,NIGHT_CLEAR,CLEAR,CLEAR","Cross-shore,Offshore,Cross-shore,Offshore,Offshore,Offshore,Offshore",7
5842041f4e65fad6a7708a0f,2024_04_16,39.552472,-74.24344,Holyoke,2.8328571428571427,0.6064108333333333,0.9924208333333333,10,8,"NIGHT_CLEAR,NIGHT_CLEAR,NIGHT_CLEAR,NIGHT_CLEAR,NIGHT_CLEAR,CLEAR,CLEAR","Cross-shore,Offshore,Cross-shore,Offshore,Offshore,Offshore,Offshore",7
5842041f4e65fad6a7708a10,2024_04_16,39.692364,-74.14068,Hudson Ave.,2.4285714285714284,0.5732952380952381,0.9366,10,8,"NIGHT_CLEAR,NIGHT_CLEAR,NIGHT_CLEAR,NIGHT_CLEAR,NIGHT_CLEAR,CLEAR,CLEAR","Cross-shore,Offshore,Cross-shore,Cross-shore,Offshore,Offshore,Offshore",7
5842041f4e65fad6a7708a11,2024_04_16,39.79614,-74.09248,Island Beach State Park,1.832857142857143,0.5520333333333334,0.8980523809523809,10,8,"NIGHT_CLEAR,NIGHT_CLEAR,NIGHT_CLEAR,NIGHT_CLEAR,NIGHT_CLEAR,CLEAR,CLEAR","Cross-shore,Cross-shore,Cross-shore,Cross-shore,Offshore,Offshore,Offshore",7
5842041f4e65fad6a7708a12,2024_04_16,39.91813588078152,-74.07527,Seaside Park,2.2614285714285716,0.5026285714285714,0.8486476190476191,10,8,"NIGHT_MOSTLY_CLEAR,NIGHT_CLEAR,NIGHT_CLEAR,NIGHT_CLEAR,NIGHT_CLEAR,CLEAR,CLEAR","Cross-shore,Cross-shore,Cross-shore,Cross-shore,Offshore,Offshore,Offshore",7
5842041f4e65fad6a7708a14,2024_04_16,39.946638,-74.06884,Seaside Heights,2,0.5389380952380952,0.8835285714285714,10,8,"NIGHT_MOSTLY_CLEAR,NIGHT_MOSTLY_CLEAR,NIGHT_CLEAR,NIGHT_CLEAR,NIGHT_CLEAR,CLEAR,CLEAR","Cross-shore,Cross-shore,Offshore,Offshore,Offshore,Offshore,Cross-shore",7
5842041f4e65fad6a7708a15,2024_04_16,39.95745637606704,-74.06736,Ortley Beach,2,0.4735809523809524,0.7778714285714285,10,8,"NIGHT_MOSTLY_CLEAR,NIGHT_MOSTLY_CLEAR,NIGHT_CLEAR,NIGHT_CLEAR,NIGHT_CLEAR,CLEAR,CLEAR","Cross-shore,Cross-shore,Offshore,Offshore,Offshore,Offshore,Cross-shore",7
5842041f4e65fad6a7708a16,2024_04_16,39.98313468342945,-74.06265685577506,Lavallette,2.142857142857143,0.5259619047619047,0.8301333333333334,10,8,"NIGHT_MOSTLY_CLEAR,NIGHT_CLEAR,NIGHT_CLEAR,NIGHT_CLEAR,NIGHT_CLEAR,CLEAR,CLEAR","Cross-shore,Cross-shore,Offshore,Offshore,Offshore,Offshore,Cross-shore",7
5842041f4e65fad6a7708a17,2024_04_16,40.0699319967757,-74.04144910856634,Bay Head,2.142857142857143,0.5098904761904762,0.8141809523809524,10,8,"NIGHT_MOSTLY_CLEAR,NIGHT_CLEAR,NIGHT_CLEAR,NIGHT_CLEAR,NIGHT_CLEAR,CLEAR,CLEAR","Offshore,Offshore,Offshore,Offshore,Offshore,Offshore,Cross-shore",7
5842041f4e65fad6a7708a18,2024_04_16,40.094041,-74.034859,Jenkinson's,2.2857142857142856,0.5273904761904762,0.8358476190476191,10,8,"NIGHT_MOSTLY_CLEAR,NIGHT_CLEAR,NIGHT_CLEAR,NIGHT_CLEAR,NIGHT_CLEAR,CLEAR,CLEAR","Offshore,Cross-shore,Offshore,Offshore,Offshore,Offshore,Offshore",7
5842041f4e65fad6a7708a1a,2024_04_16,38.148058,-75.17704,Assateague,1.31,0.5848904761904762,0.8904904761904762,11,9,"NIGHT_CLEAR,NIGHT_MOSTLY_CLEAR,NIGHT_CLEAR,NIGHT_CLEAR,NIGHT_MIST,CLEAR,CLEAR","Offshore,Cross-shore,Cross-shore,Cross-shore,Cross-shore,Cross-shore,Cross-shore",7
5842041f4e65fad6a7708a1b,2024_04_16,38.33889038664497,-75.08017670566352,North End to Ocean City Inlet,1.5957142857142856,0.5959619047619048,0.9044190476190477,11,9,"NIGHT_CLEAR,NIGHT_MIST,NIGHT_CLEAR,NIGHT_CLEAR,NIGHT_CLEAR,MOSTLY_CLEAR,CLEAR","Onshore,Onshore,Onshore,Onshore,Onshore,Onshore,Onshore",7
5842041f4e65fad6a7708a1c,2024_04_16,38.603993,-75.06271,Indian River Inlet,1.1428571428571428,0.5185513095238096,0.7998038095238096,11,9,"NIGHT_CLEAR,NIGHT_CLEAR,NIGHT_CLEAR,NIGHT_MIST,NIGHT_MIST,CLEAR,CLEAR","Cross-shore,Onshore,Onshore,Onshore,Cross-shore,Cross-shore,Cross-shore",7
5842041f4e65fad6a7708a1d,2024_04_16,38.460477,-75.052069,Fenwick Island,1.1428571428571428,0.38203333333333334,0.6890619047619048,11,9,"NIGHT_CLEAR,NIGHT_CLEAR,NIGHT_CLEAR,NIGHT_CLEAR,NIGHT_CLEAR,CLEAR,CLEAR","Onshore,Onshore,Onshore,Onshore,Onshore,Onshore,Onshore",7
5842041f4e65fad6a7708a1e,2024_04_16,38.538767,-75.05619,Bethany Beach,1.1428571428571428,0.49501011904761905,0.7630220238095238,11,9,"NIGHT_CLEAR,NIGHT_CLEAR,NIGHT_BRIEF_SHOWERS_POSSIBLE,NIGHT_MIST,NIGHT_MIST,MIST,CLEAR","Cross-shore,Onshore,Onshore,Onshore,Onshore,Onshore,Onshore",7
5842041f4e65fad6a7708a1f,2024_04_16,38.697657,-75.075951,Dewey Beach,1.7385714285714287,0.4960809523809524,0.8016809523809524,11,9,"NIGHT_CLEAR,NIGHT_MIST,NIGHT_CLEAR,NIGHT_CLEAR,NIGHT_MIST,MOSTLY_CLOUDY,CLEAR","Onshore,Onshore,Onshore,Onshore,Onshore,Onshore,Onshore",7
5842041f4e65fad6a7708a20,2024_04_16,38.75034741676525,-75.08194,Gordons Pond,1.2857142857142858,0.43402107142857144,0.6677219047619047,11,9,"NIGHT_CLEAR,NIGHT_MIST,NIGHT_MIST,NIGHT_MIST,NIGHT_MIST,CLEAR,CLEAR","Cross-shore,Cross-shore,Onshore,Onshore,Cross-shore,Offshore,Onshore",7
5842041f4e65fad6a7708a21,2024_04_16,38.767837,-75.082841,Naval Jetties,1.7614285714285713,0.3975095238095238,0.6989428571428571,11,9,"NIGHT_CLEAR,NIGHT_MIST,NIGHT_MIST,NIGHT_MIST,NIGHT_MIST,CLEAR,CLEAR","Onshore,Onshore,Onshore,Onshore,Onshore,Offshore,Onshore",7
5842041f4e65fad6a7708a22,2024_04_16,36.81735875786576,-75.96624,Camp Pendleton,1.262857142857143,0.2236904761904762,0.5279809523809523,13,10,"NIGHT_CLEAR,NIGHT_CLEAR,NIGHT_CLEAR,NIGHT_MOSTLY_CLEAR,NIGHT_FOG,MOSTLY_CLOUDY,CLEAR","Offshore,Offshore,Offshore,Cross-shore,Onshore,Onshore,Onshore",7
5842041f4e65fad6a7708a23,2024_04_16,36.9102212316428,-75.98732471466064,North End,0.7385714285714285,0.0494047619047619,0.31670476190476193,13,10,"NIGHT_CLEAR,NIGHT_CLEAR,NIGHT_CLEAR,NIGHT_MIST,NIGHT_MOSTLY_CLOUDY,MOSTLY_CLOUDY,CLEAR","Offshore,Offshore,Cross-shore,Cross-shore,Cross-shore,Onshore,Onshore",7
5842041f4e65fad6a7708a24,2024_04_16,36.737117517621314,-75.93924,Sandbridge Beach,1.5714285714285714,0.1954809523809524,0.5010809523809524,13,10,"NIGHT_CLEAR,NIGHT_MOSTLY_CLEAR,NIGHT_CLEAR,NIGHT_CLEAR,NIGHT_FOG,MOSTLY_CLOUDY,CLEAR","Offshore,Offshore,Offshore,Onshore,Onshore,Onshore,Onshore",7
5842041f4e65fad6a7708a26,2024_04_16,36.818257440557794,-75.96666,Croatan to Pendleton,1.2385714285714287,0.12654761904761905,0.4335761904761905,13,10,"NIGHT_CLEAR,NIGHT_CLEAR,NIGHT_CLEAR,NIGHT_MOSTLY_CLEAR,NIGHT_FOG,MOSTLY_CLOUDY,CLEAR","Offshore,Offshore,Offshore,Cross-shore,Onshore,Onshore,Onshore",7
5842041f4e65fad6a7708a27,2024_04_16,36.84318777204769,-75.9719,South End,1,0.09023809523809524,0.3958380952380952,13,10,"NIGHT_CLEAR,NIGHT_CLEAR,NIGHT_CLEAR,NIGHT_MIST,NIGHT_OVERCAST,MOSTLY_CLOUDY,CLEAR","Offshore,Offshore,Cross-shore,Cross-shore,Onshore,Onshore,Onshore",7
5842041f4e65fad6a7708a28,2024_04_16,37.08612627584661,-75.976121638199,Fishermans Island,1,0.14914285714285713,0.27142857142857146,13.142857142857142,13.142857142857142,"NIGHT_CLEAR,NIGHT_MIST,NIGHT_MIST,NIGHT_MIST,NIGHT_MIST,CLEAR,CLEAR","Offshore,Offshore,Offshore,Offshore,Cross-shore,Cross-shore,Cross-shore",7
5842041f4e65fad6a7708a38,2024_04_16,35.254619418229026,-75.52074,Cape Hatteras Lighthouse,2,0.6035515714285715,1.0045559047619046,17,16,"NIGHT_CLEAR,NIGHT_CLEAR,NIGHT_CLEAR,NIGHT_CLEAR,NIGHT_CLEAR,CLEAR,CLEAR","Cross-shore,Cross-shore,Offshore,Offshore,Offshore,Offshore,Offshore",7
5842041f4e65fad6a7708a3a,2024_04_16,35.54572934093336,-75.46477,Waves and Salvo,1.832857142857143,0.6190571428571429,0.9260857142857143,16,14,"NIGHT_CLEAR,NIGHT_CLEAR,NIGHT_CLEAR,NIGHT_CLEAR,NIGHT_CLEAR,CLEAR,CLEAR","Cross-shore,Offshore,Offshore,Offshore,Offshore,Offshore,Cross-shore",7
5842041f4e65fad6a7708a3b,2024_04_16,35.22565892751075,-75.63606,Frisco,1.0242857142857142,0.8300857142857143,1.019447619047619,18,17,"NIGHT_CLEAR,NIGHT_CLEAR,NIGHT_CLEAR,NIGHT_CLEAR,NIGHT_CLEAR,CLEAR,CLEAR","Onshore,Onshore,Onshore,Cross-shore,Cross-shore,Cross-shore,Offshore",7
5842041f4e65fad6a7708a3c,2024_04_16,35.13086,-75.90591,Ocracoke,1.2857142857142858,0.5757014285714286,0.8995314285714285,18,18,"NIGHT_CLEAR,NIGHT_CLEAR,NIGHT_CLEAR,NIGHT_CLEAR,NIGHT_CLEAR,CLEAR,CLEAR","Cross-shore,Cross-shore,Cross-shore,Cross-shore,Cross-shore,Cross-shore,Offshore",7
5842041f4e65fad6a7708a3d,2024_04_16,35.34721340158342,-75.50084,Avon Pier,1.8571428571428572,0.6413142857142857,1.0576571428571429,17,16,"NIGHT_CLEAR,NIGHT_CLEAR,NIGHT_CLEAR,NIGHT_CLEAR,NIGHT_CLEAR,CLEAR,CLEAR","Offshore,Cross-shore,Offshore,Offshore,Offshore,Offshore,Offshore",7
5842041f4e65fad6a7708a3f,2024_04_16,35.71680821253768,-75.49243,Pea Island,1.5714285714285714,0.30428571428571427,0.6128571428571429,12.142857142857142,12.142857142857142,"NIGHT_CLEAR,NIGHT_CLEAR,NIGHT_CLEAR,NIGHT_CLEAR,NIGHT_CLEAR,CLEAR,CLEAR","Onshore,Cross-shore,Offshore,Offshore,Offshore,Cross-shore,Onshore",7
5842041f4e65fad6a7708a40,2024_04_16,35.97427620657821,-75.62984,Nags Head Pier,1.262857142857143,0.2870857142857143,0.5930285714285715,14,11,"NIGHT_CLEAR,NIGHT_CLEAR,NIGHT_CLEAR,NIGHT_CLEAR,NIGHT_MOSTLY_CLEAR,CLEAR,CLEAR","Offshore,Cross-shore,Offshore,Offshore,Offshore,Cross-shore,Cross-shore",7
5842041f4e65fad6a7708a41,2024_04_16,36.0439998039079,-75.67288,Avalon Pier,1.5714285714285714,0.16845238095238096,0.47262380952380956,13,10,"NIGHT_CLEAR,NIGHT_CLEAR,NIGHT_CLEAR,NIGHT_CLEAR,NIGHT_CLEAR,CLEAR,CLEAR","Offshore,Offshore,Cross-shore,Cross-shore,Onshore,Onshore,Onshore",7
5842041f4e65fad6a7708a42,2024_04_16,36.03043116489792,-75.66413,First Street,1.262857142857143,0.2592904761904762,0.5664380952380953,13,10,"NIGHT_CLEAR,NIGHT_CLEAR,NIGHT_CLEAR,NIGHT_CLEAR,NIGHT_CLEAR,CLEAR,CLEAR","Offshore,Offshore,Cross-shore,Cross-shore,Onshore,Onshore,Onshore",7
5842041f4e65fad6a7708a43,2024_04_16,36.06829910590498,-75.6899,Old Station/Laundromats,1.5714285714285714,0.2752428571428571,0.5808428571428572,12,10,"NIGHT_CLEAR,NIGHT_CLEAR,NIGHT_CLEAR,NIGHT_CLEAR,NIGHT_MOSTLY_CLEAR,CLEAR,CLEAR","Offshore,Offshore,Cross-shore,Cross-shore,Onshore,Onshore,Onshore",7
5842041f4e65fad6a7708a44,2024_04_16,36.10126676607491,-75.71107,Kitty Hawk Pier,1.262857142857143,0.2856571428571429,0.5913142857142857,12,10,"NIGHT_CLEAR,NIGHT_CLEAR,NIGHT_CLEAR,NIGHT_CLEAR,NIGHT_CLEAR,CLEAR,CLEAR","Offshore,Cross-shore,Cross-shore,Offshore,Onshore,Onshore,Onshore",7
5842041f4e65fad6a7708a45,2024_04_16,36.18220630068973,-75.75013580649097,Duck Pier,0.9757142857142858,0.19536190476190476,0.4953666666666667,12,10,"NIGHT_CLEAR,NIGHT_MOSTLY_CLOUDY,NIGHT_CLEAR,NIGHT_CLEAR,NIGHT_CLEAR,CLEAR,CLEAR","Cross-shore,Offshore,Offshore,Offshore,Cross-shore,Cross-shore,Onshore",7
5842041f4e65fad6a7708a46,2024_04_16,36.37660668125033,-75.82409701687456,Corolla,1.4285714285714286,0.2606,0.5662,12,10,"NIGHT_MIST,NIGHT_CLEAR,NIGHT_CLEAR,NIGHT_MOSTLY_CLEAR,NIGHT_CLEAR,MOSTLY_CLOUDY,CLEAR","Offshore,Cross-shore,Offshore,Offshore,Cross-shore,Onshore,Onshore",7
5842041f4e65fad6a7708a47,2024_04_16,33.90373404124834,-78.08241431707907,Oak Island,1.5714285714285714,0.36714285714285716,0.6728571428571428,18,18,"NIGHT_CLEAR,NIGHT_CLEAR,NIGHT_CLEAR,NIGHT_CLEAR,NIGHT_CLEAR,CLEAR,CLEAR","Onshore,Onshore,Onshore,Onshore,Onshore,Onshore,Onshore",7
5842041f4e65fad6a7708a48,2024_04_16,33.91108837766468,-78.29653,South Brunswick Beaches,1.4285714285714286,0.4514714285714286,0.7054285714285714,18,18,"NIGHT_CLEAR,NIGHT_CLEAR,NIGHT_CLEAR,NIGHT_CLEAR,NIGHT_CLEAR,CLEAR,CLEAR","Onshore,Onshore,Onshore,Onshore,Onshore,Onshore,Onshore",7
5842041f4e65fad6a7708a49,2024_04_16,34.05683595651973,-77.88128,Carolina Beach Pier,1.667142857142857,0.31013333333333337,0.6106476190476191,18,17,"NIGHT_CLEAR,NIGHT_CLEAR,NIGHT_CLEAR,NIGHT_CLEAR,NIGHT_CLEAR,CLEAR,CLEAR","Cross-shore,Cross-shore,Offshore,Offshore,Offshore,Cross-shore,Offshore",7
5842041f4e65fad6a7708a4a,2024_04_16,33.96841191816696,-77.9180242565498,Fort Fisher,1.7142857142857142,0.3162761904761905,0.6222666666666667,18,17,"NIGHT_CLEAR,NIGHT_CLEAR,NIGHT_CLEAR,NIGHT_CLEAR,NIGHT_CLEAR,CLEAR,CLEAR","Offshore,Offshore,Offshore,Offshore,Offshore,Offshore,Offshore",7
5842041f4e65fad6a7708a4b,2024_04_16,34.46776662988774,-77.47083,Topsail Beach,1.5957142857142856,0.516195238095238,0.8247714285714286,18,17,"NIGHT_CLEAR,NIGHT_CLEAR,NIGHT_CLEAR,NIGHT_CLEAR,NIGHT_CLEAR,CLEAR,CLEAR","Onshore,Onshore,Onshore,Onshore,Onshore,Onshore,Offshore",7
5842041f4e65fad6a7708a4c,2024_04_16,34.69270354752445,-76.82854854446575,Iron Steamer,1,0.6105104761904763,0.9535942857142857,18,17,"NIGHT_CLEAR,NIGHT_CLEAR,NIGHT_CLEAR,NIGHT_CLEAR,NIGHT_CLEAR,CLEAR,CLEAR","Onshore,Onshore,Onshore,Onshore,Onshore,Onshore,Cross-shore",7
5842041f4e65fad6a7708a4f,2024_04_16,30.85132684893727,-81.42283496231143,Cumberland Island,2,0.35,0.6528571428571429,20,20,"NIGHT_CLEAR,NIGHT_CLEAR,NIGHT_CLEAR,NIGHT_CLEAR,NIGHT_CLEAR,CLEAR,CLEAR","Cross-shore,Cross-shore,Cross-shore,Cross-shore,Cross-shore,Cross-shore,Cross-shore",7
5842041f4e65fad6a7708a50,2024_04_16,34.686741128540874,-76.47516712138378,Cape Lookout National Seashore,1.2857142857142858,0.73,1.0314285714285716,17.142857142857142,17.142857142857142,"NIGHT_CLEAR,NIGHT_CLEAR,NIGHT_CLEAR,NIGHT_CLEAR,NIGHT_CLEAR,CLEAR,CLEAR","Cross-shore,Cross-shore,Cross-shore,Cross-shore,Cross-shore,Cross-shore,Offshore",7
5842041f4e65fad6a7708a51,2024_04_16,31.10585419260024,-81.40422767604812,Jekyll Island,1.2857142857142858,0.03142857142857143,0.33714285714285713,20,20,"NIGHT_CLEAR,NIGHT_CLEAR,NIGHT_CLEAR,NIGHT_CLEAR,NIGHT_CLEAR,CLEAR,CLEAR","Cross-shore,Cross-shore,Offshore,Offshore,Offshore,Cross-shore,Offshore",7
5842041f4e65fad6a7708a52,2024_04_16,31.16212806376699,-81.32512426500224,Harbor Marker Buoys,1.7142857142857142,0.27,0.5742857142857143,20,20,"NIGHT_CLEAR,NIGHT_CLEAR,NIGHT_CLEAR,NIGHT_CLEAR,NIGHT_CLEAR,CLEAR,CLEAR","Cross-shore,Cross-shore,Cross-shore,Cross-shore,Cross-shore,Cross-shore,Cross-shore",7
5842041f4e65fad6a7708a53,2024_04_16,31.20076299997009,-81.32629,Sea Island,1.4285714285714286,0.20857142857142857,0.5128571428571429,20,20,"NIGHT_CLEAR,NIGHT_CLEAR,NIGHT_CLEAR,NIGHT_CLEAR,NIGHT_CLEAR,CLEAR,CLEAR","Onshore,Onshore,Cross-shore,Cross-shore,Cross-shore,Onshore,Cross-shore",7
5842041f4e65fad6a7708a54,2024_04_16,31.13553222995767,-81.38457634790909,St. Simons Island,1.7142857142857142,0.22857142857142856,0.5328571428571429,20,20,"NIGHT_CLEAR,NIGHT_CLEAR,NIGHT_CLEAR,NIGHT_CLEAR,NIGHT_CLEAR,CLEAR,CLEAR","Onshore,Onshore,Onshore,Cross-shore,Onshore,Onshore,Cross-shore",7
5842041f4e65fad6a7708a55,2024_04_16,31.33550077186516,-81.28383377408417,Wolf Island,1.5714285714285714,0.23142857142857143,0.5371428571428571,19.142857142857142,19.142857142857142,"NIGHT_CLEAR,NIGHT_CLEAR,NIGHT_CLEAR,NIGHT_CLEAR,NIGHT_CLEAR,CLEAR,CLEAR","Cross-shore,Cross-shore,Cross-shore,Offshore,Cross-shore,Cross-shore,Offshore",7
5842041f4e65fad6a7708a56,2024_04_16,31.2704493877174,-81.27324039152315,Little St. Simons Island,2,0.2957142857142857,0.6014285714285714,19.142857142857142,19.142857142857142,"NIGHT_CLEAR,NIGHT_CLEAR,NIGHT_CLEAR,NIGHT_CLEAR,NIGHT_CLEAR,CLEAR,CLEAR","Cross-shore,Cross-shore,Offshore,Offshore,Cross-shore,Cross-shore,Offshore",7
5842041f4e65fad6a7708a57,2024_04_16,31.39261761368919,-81.26190520231917,Sapelo Island,1.8571428571428572,0.22,0.5257142857142857,19.142857142857142,19.142857142857142,"NIGHT_CLEAR,NIGHT_CLEAR,NIGHT_CLEAR,NIGHT_CLEAR,NIGHT_CLEAR,CLEAR,CLEAR","Cross-shore,Cross-shore,Cross-shore,Cross-shore,Cross-shore,Onshore,Offshore",7
5842041f4e65fad6a7708a58,2024_04_16,34.42458783809001,-77.54492,Surf City Pier,1.7385714285714287,0.48714761904761905,0.794295238095238,18,17,"NIGHT_CLEAR,NIGHT_CLEAR,NIGHT_CLEAR,NIGHT_CLEAR,NIGHT_CLEAR,CLEAR,CLEAR","Cross-shore,Cross-shore,Cross-shore,Cross-shore,Cross-shore,Cross-shore,Offshore",7
5842041f4e65fad6a7708a59,2024_04_16,31.4231993614213,-81.24725340591522,Cabretta Island,1.8571428571428572,0.2857142857142857,0.5928571428571429,19.142857142857142,19.142857142857142,"NIGHT_CLEAR,NIGHT_CLEAR,NIGHT_CLEAR,NIGHT_CLEAR,NIGHT_CLEAR,CLEAR,CLEAR","Onshore,Cross-shore,Cross-shore,Cross-shore,Cross-shore,Onshore,Cross-shore",7
5842041f4e65fad6a7708a5a,2024_04_16,31.46684389030369,-81.2100056410468,Blackbeard Island,1.5714285714285714,0.22,0.5257142857142857,19.142857142857142,19.142857142857142,"NIGHT_CLEAR,NIGHT_CLEAR,NIGHT_CLEAR,NIGHT_CLEAR,NIGHT_CLEAR,CLEAR,CLEAR","Onshore,Cross-shore,Cross-shore,Cross-shore,Cross-shore,Onshore,Cross-shore",7
5842041f4e65fad6a7708a5b,2024_04_16,31.85953587631629,-80.99031310336719,Wassaw Island/South End,1,0.08571428571428572,0.39,19,19,"NIGHT_CLEAR,NIGHT_CLEAR,NIGHT_CLEAR,NIGHT_CLEAR,NIGHT_CLEAR,CLEAR,CLEAR","Cross-shore,Cross-shore,Cross-shore,Cross-shore,Cross-shore,Cross-shore,Cross-shore",7
5842041f4e65fad6a7708a5c,2024_04_16,31.62535662342983,-81.13328352167974,St. Catherines Island,2,0.31142857142857144,0.6185714285714285,20,20,"NIGHT_CLEAR,NIGHT_CLEAR,NIGHT_CLEAR,NIGHT_CLEAR,NIGHT_CLEAR,CLEAR,CLEAR","Cross-shore,Cross-shore,Offshore,Offshore,Cross-shore,Cross-shore,Offshore",7
5842041f4e65fad6a7708a5d,2024_04_16,31.76502169596568,-81.07655443806622,Ossabaw Island,1.4285714285714286,0.18142857142857144,0.48428571428571426,19.142857142857142,19.142857142857142,"NIGHT_CLEAR,NIGHT_CLEAR,NIGHT_CLEAR,NIGHT_CLEAR,NIGHT_CLEAR,CLEAR,CLEAR","Cross-shore,Cross-shore,Cross-shore,Offshore,Cross-shore,Cross-shore,Offshore",7
5842041f4e65fad6a7708a5e,2024_04_16,31.90593619092352,-80.93589231700857,Wassaw Island/North End,1.8571428571428572,0.30142857142857143,0.6057142857142858,19,19,"NIGHT_CLEAR,NIGHT_CLEAR,NIGHT_CLEAR,NIGHT_CLEAR,NIGHT_CLEAR,CLEAR,CLEAR","Onshore,Onshore,Cross-shore,Cross-shore,Cross-shore,Cross-shore,Cross-shore",7
5842041f4e65fad6a7708a5f,2024_04_16,31.96738675414547,-80.86977980706155,Little Tybee Island,1.4285714285714286,0.31857142857142856,0.62,19,19,"NIGHT_CLEAR,NIGHT_CLEAR,NIGHT_CLEAR,NIGHT_CLEAR,NIGHT_CLEAR,CLEAR,CLEAR","Cross-shore,Cross-shore,Cross-shore,Cross-shore,Cross-shore,Cross-shore,Offshore",7
5842041f4e65fad6a7708a60,2024_04_16,31.9812255780179,-80.84773973467009,South Tybee Sandbars,2,0.3342857142857143,0.6385714285714286,19,19,"NIGHT_CLEAR,NIGHT_CLEAR,NIGHT_CLEAR,NIGHT_CLEAR,NIGHT_CLEAR,CLEAR,CLEAR","Cross-shore,Cross-shore,Cross-shore,Offshore,Cross-shore,Cross-shore,Offshore",7
5842041f4e65fad6a7708a61,2024_04_16,32.01226,-80.83983,Sugar Shack,2,0.22428571428571428,0.53,19,19,"NIGHT_CLEAR,NIGHT_CLEAR,NIGHT_CLEAR,NIGHT_CLEAR,NIGHT_CLEAR,CLEAR,CLEAR","Offshore,Offshore,Offshore,Offshore,Offshore,Offshore,Offshore",7
5842041f4e65fad6a7708a62,2024_04_16,31.98722842396969,-80.84773,18th St. Jetty,2,0.3961857142857143,0.61904,19,19,"NIGHT_CLEAR,NIGHT_CLEAR,NIGHT_CLEAR,NIGHT_CLEAR,NIGHT_CLEAR,CLEAR,CLEAR","Cross-shore,Cross-shore,Offshore,Offshore,Offshore,Cross-shore,Offshore",7
5842041f4e65fad6a7708a64,2024_04_16,34.013473721006676,-77.8991,"Alabama Ave., Kure Beach",2,0.3028571428571428,0.6057142857142856,17,17,"NIGHT_CLEAR,NIGHT_CLEAR,NIGHT_CLEAR,NIGHT_CLEAR,NIGHT_CLEAR,CLEAR,CLEAR","Offshore,Offshore,Offshore,Offshore,Offshore,Cross-shore,Offshore",7
5842041f4e65fad6a7708a65,2024_04_16,34.20859853336924,-77.79293,"C Street, Wrightsville Beach",1.8528571428571428,0.3109428571428572,0.6174095238095239,18,17,"NIGHT_CLEAR,NIGHT_CLEAR,NIGHT_CLEAR,NIGHT_CLEAR,NIGHT_CLEAR,CLEAR,CLEAR","Cross-shore,Cross-shore,Cross-shore,Cross-shore,Cross-shore,Cross-shore,Cross-shore",7
5842041f4e65fad6a7708a66,2024_04_16,32.831,-79.71,Dewees Island,1,0.13714285714285715,0.44142857142857145,19,19,"NIGHT_CLEAR,NIGHT_CLEAR,NIGHT_CLEAR,NIGHT_CLEAR,NIGHT_CLEAR,CLEAR,CLEAR","Offshore,Cross-shore,Offshore,Offshore,Offshore,Offshore,Offshore",7
5842041f4e65fad6a7708a67,2024_04_16,33.82924423172106,-78.62813,Cherry Grove Pier,1,0.3038476190476191,0.6072190476190477,18,18,"NIGHT_CLEAR,NIGHT_CLEAR,NIGHT_CLEAR,NIGHT_CLEAR,NIGHT_CLEAR,CLEAR,CLEAR","Onshore,Onshore,Onshore,Onshore,Onshore,Onshore,Cross-shore",7
5842041f4e65fad6a7708a69,2024_04_16,34.27197439666496,-77.74050223196774,Figure Eight and Shell Islands,1.9714285714285715,0.3109904761904762,0.6177428571428571,18,17,"NIGHT_CLEAR,NIGHT_CLEAR,NIGHT_CLEAR,NIGHT_CLEAR,NIGHT_CLEAR,CLEAR,CLEAR","Cross-shore,Cross-shore,Cross-shore,Cross-shore,Cross-shore,Cross-shore,Cross-shore",7
5842041f4e65fad6a7708a6b,2024_04_16,33.49041958261793,-79.07666070599386,North End,1.8571428571428572,0.2957142857142857,0.5985714285714285,18,18,"NIGHT_CLEAR,NIGHT_CLEAR,NIGHT_CLEAR,NIGHT_CLEAR,NIGHT_CLEAR,CLEAR,CLEAR","Cross-shore,Cross-shore,Cross-shore,Cross-shore,Cross-shore,Cross-shore,Cross-shore",7
5842041f4e65fad6a7708a6c,2024_04_16,33.39537062495087,-79.13835037835189,The South End,1.5714285714285714,0.22428571428571428,0.5285714285714286,18,18,"NIGHT_CLEAR,NIGHT_CLEAR,NIGHT_CLEAR,NIGHT_CLEAR,NIGHT_CLEAR,CLEAR,CLEAR","Cross-shore,Cross-shore,Cross-shore,Cross-shore,Cross-shore,Cross-shore,Offshore",7
5842041f4e65fad6a7708a6d,2024_04_16,33.29001727666697,-79.17190003352977,North Island,2.142857142857143,0.3657142857142857,0.67,18,18,"NIGHT_CLEAR,NIGHT_CLEAR,NIGHT_CLEAR,NIGHT_CLEAR,NIGHT_CLEAR,CLEAR,CLEAR","Offshore,Offshore,Offshore,Offshore,Offshore,Offshore,Offshore",7
5842041f4e65fad6a7708a6e,2024_04_16,32.90929771158952,-79.57810400297359,Bull Island,1,0.24714285714285714,0.5514285714285715,19,19,"NIGHT_CLEAR,NIGHT_CLEAR,NIGHT_CLEAR,NIGHT_CLEAR,NIGHT_CLEAR,CLEAR,CLEAR","Cross-shore,Cross-shore,Cross-shore,Cross-shore,Cross-shore,Cross-shore,Cross-shore",7
5842041f4e65fad6a7708a6f,2024_04_16,31.99153112815895,-80.84543050470074,Tybee Island Pier,1,0.05714285714285714,0.3628571428571429,19,19,"NIGHT_CLEAR,NIGHT_CLEAR,NIGHT_CLEAR,NIGHT_CLEAR,NIGHT_CLEAR,CLEAR,CLEAR","Cross-shore,Cross-shore,Cross-shore,Offshore,Cross-shore,Cross-shore,Offshore",7
