_id,date,lat,lon,name,daily_mean_swell_rating,daily_mean_wave_height_min,daily_mean_wave_height_max,daily_mean_water_temperature_max,daily_mean_water_temperature_min,weather_per_timestamp,wind_per_timestamp,n_samples_per_day
5842041f4e65fad6a77087f9,2024_03_12,37.741668,-122.51038,South Ocean Beach,2.215294117647059,3.1625,3.8919588235294116,14,14,"CLOUDY,CLOUDY,CLEAR,CLEAR,NIGHT_MOSTLY_CLOUDY,NIGHT_MOSTLY_CLOUDY,NIGHT_OVERCAST,NIGHT_DRIZZLE,NIGHT_CLOUDY,NIGHT_OVERCAST,NIGHT_DRIZZLE,NIGHT_DRIZZLE,NIGHT_RAIN,NIGHT_MIST,BRIEF_SHOWERS,MIST,MIST","Onshore,Onshore,Onshore,Onshore,Onshore,Onshore,Cross-shore,Cross-shore,Cross-shore,Cross-shore,Offshore,Offshore,Offshore,Offshore,Onshore,Onshore,Onshore",17
5842041f4e65fad6a7708801,2024_03_12,37.49142,-122.50428,Maverick's,NA,3.1139117647058825,3.8130098039215685,13,13,"OVERCAST,DRIZZLE,OVERCAST,MOSTLY_CLOUDY,NIGHT_MOSTLY_CLOUDY,NIGHT_MOSTLY_CLEAR,NIGHT_CLOUDY,NIGHT_OVERCAST,NIGHT_MOSTLY_CLOUDY,NIGHT_CLOUDY,NIGHT_BRIEF_SHOWERS,NIGHT_LIGHT_RAIN,NIGHT_BRIEF_SHOWERS,NIGHT_MIST,BRIEF_SHOWERS,MIST,CLEAR","Onshore,Onshore,Onshore,Onshore,Onshore,Onshore,Onshore,Onshore,Onshore,Onshore,Onshore,Onshore,Onshore,Onshore,Onshore,Onshore,Cross-shore",17
5842041f4e65fad6a7708804,2024_03_12,44.997,-124.018,Roads End,0.7647058823529411,3.565294117647059,4.24235294117647,10.352941176470589,10.352941176470589,"RAIN,DRIZZLE,HEAVY_RAIN,SHOWERS,NIGHT_BRIEF_SHOWERS,NIGHT_OVERCAST,NIGHT_OVERCAST,NIGHT_OVERCAST,NIGHT_MOSTLY_CLOUDY,NIGHT_CLEAR,NIGHT_MOSTLY_CLOUDY,NIGHT_LIGHT_RAIN,NIGHT_MOSTLY_CLOUDY,NIGHT_MOSTLY_CLOUDY,CLEAR,BRIEF_SHOWERS,CLEAR","Cross-shore,Cross-shore,Cross-shore,Cross-shore,Onshore,Onshore,Onshore,Onshore,Onshore,Onshore,Onshore,Onshore,Onshore,Onshore,Onshore,Onshore,Onshore",17
5842041f4e65fad6a7708805,2024_03_12,36.95188851423011,-122.02522,Steamer Lane,3.4605882352941175,1.9974980392156862,2.6397372549019607,14,14,"CLEAR,CLEAR,CLEAR,CLEAR,NIGHT_CLEAR,NIGHT_CLEAR,NIGHT_MOSTLY_CLOUDY,NIGHT_MOSTLY_CLOUDY,NIGHT_MOSTLY_CLOUDY,NIGHT_LIGHT_SHOWERS_POSSIBLE,NIGHT_FOG,NIGHT_FOG,NIGHT_LIGHT_RAIN,NIGHT_FOG,FOG,LIGHT_RAIN,CLEAR","Offshore,Offshore,Offshore,Offshore,Offshore,Offshore,Offshore,Offshore,Offshore,Offshore,Offshore,Cross-shore,Offshore,Onshore,Onshore,Onshore,Onshore",17
5842041f4e65fad6a7708806,2024_03_12,36.95918781542251,-122.02489,Cowells,2.215294117647059,0.35486078431372553,0.7458333333333333,14,14,"CLEAR,CLEAR,CLEAR,CLEAR,NIGHT_CLEAR,NIGHT_CLEAR,NIGHT_MOSTLY_CLOUDY,NIGHT_MOSTLY_CLOUDY,NIGHT_MOSTLY_CLOUDY,NIGHT_LIGHT_SHOWERS_POSSIBLE,NIGHT_FOG,NIGHT_FOG,NIGHT_LIGHT_RAIN,NIGHT_FOG,FOG,LIGHT_RAIN,CLEAR","Offshore,Offshore,Offshore,Offshore,Offshore,Offshore,Offshore,Cross-shore,Offshore,Offshore,Offshore,Onshore,Cross-shore,Onshore,Onshore,Onshore,Onshore",17
5842041f4e65fad6a7708807,2024_03_12,36.95468082526536,-121.97234,Pleasure Point,3.166470588235294,1.6789862745098039,2.267735294117647,14,14,"CLOUDY,CLOUDY,CLEAR,CLEAR,NIGHT_CLEAR,NIGHT_CLEAR,NIGHT_MOSTLY_CLEAR,NIGHT_MOSTLY_CLOUDY,NIGHT_BRIEF_SHOWERS,NIGHT_LIGHT_RAIN,NIGHT_FOG,NIGHT_FOG,NIGHT_FOG,NIGHT_LIGHT_RAIN_AND_FOG,FOG,MIST,MIST","Cross-shore,Cross-shore,Cross-shore,Cross-shore,Cross-shore,Cross-shore,Cross-shore,Cross-shore,Cross-shore,Cross-shore,Onshore,Onshore,Onshore,Onshore,Onshore,Onshore,Onshore",17
5842041f4e65fad6a770880a,2024_03_12,35.37815414378748,-120.86589,Morro Bay,3.166470588235294,2.121458823529412,2.6353235294117647,14,14,"MOSTLY_CLOUDY,MOSTLY_CLOUDY,CLEAR,CLOUDY,NIGHT_CLEAR,NIGHT_CLEAR,NIGHT_CLEAR,NIGHT_CLEAR,NIGHT_CLEAR,NIGHT_MOSTLY_CLOUDY,NIGHT_MOSTLY_CLOUDY,NIGHT_CLOUDY,NIGHT_MOSTLY_CLOUDY,NIGHT_CLEAR,BRIEF_SHOWERS,CLEAR,MOSTLY_CLEAR","Onshore,Onshore,Onshore,Onshore,Onshore,Onshore,Onshore,Offshore,Offshore,Onshore,Offshore,Offshore,Cross-shore,Offshore,Offshore,Offshore,Onshore",17
5842041f4e65fad6a770880b,2024_03_12,36.95782765000708,-121.9672887511276,Jack's,2.764705882352941,0.9119450980392156,1.2540843137254902,14,14,"CLOUDY,CLOUDY,CLEAR,CLEAR,NIGHT_CLEAR,NIGHT_CLEAR,NIGHT_MOSTLY_CLEAR,NIGHT_MOSTLY_CLOUDY,NIGHT_BRIEF_SHOWERS,NIGHT_LIGHT_RAIN,NIGHT_FOG,NIGHT_FOG,NIGHT_FOG,NIGHT_LIGHT_RAIN_AND_FOG,FOG,MIST,MIST","Cross-shore,Offshore,Offshore,Cross-shore,Offshore,Offshore,Offshore,Offshore,Cross-shore,Cross-shore,Onshore,Onshore,Onshore,Onshore,Onshore,Onshore,Onshore",17
5842041f4e65fad6a770880d,2024_03_12,34.29982939936656,-119.3489016603669,Gold Coast Beachbreaks,2.2941176470588234,0.4176470588235294,0.721764705882353,14,14,"CLEAR,CLEAR,MOSTLY_CLEAR,MIST,NIGHT_CLEAR,NIGHT_CLEAR,NIGHT_CLEAR,NIGHT_CLEAR,NIGHT_MIST,NIGHT_MIST,NIGHT_MIST,NIGHT_FOG,NIGHT_MIST,NIGHT_MIST,BRIEF_SHOWERS,MOSTLY_CLEAR,CLEAR","Onshore,Onshore,Onshore,Onshore,Onshore,Onshore,Onshore,Cross-shore,Cross-shore,Cross-shore,Offshore,Offshore,Cross-shore,Offshore,Cross-shore,Cross-shore,Onshore",17
5842041f4e65fad6a7708811,2024_03_12,34.245076,-119.26799,Ventura Harbor,2.764705882352941,1.3034300980392157,1.6346204411764707,14,14,"CLEAR,MOSTLY_CLEAR,CLEAR,MIST,NIGHT_MOSTLY_CLEAR,NIGHT_CLEAR,NIGHT_CLEAR,NIGHT_CLEAR,NIGHT_MIST,NIGHT_CLEAR,NIGHT_MIST,NIGHT_FOG,NIGHT_MIST,NIGHT_MIST,CLEAR,MIST,CLEAR","Onshore,Onshore,Onshore,Onshore,Onshore,Onshore,Onshore,Onshore,Offshore,Offshore,Offshore,Offshore,Cross-shore,Cross-shore,Cross-shore,Offshore,Onshore",17
5842041f4e65fad6a7708813,2024_03_12,34.051,-118.964,County Line,2.578235294117647,0.7714882352941176,1.0754745098039216,15,15,"MOSTLY_CLEAR,MOSTLY_CLEAR,MOSTLY_CLEAR,NIGHT_MOSTLY_CLEAR,NIGHT_MIST,NIGHT_MIST,NIGHT_OVERCAST,NIGHT_MOSTLY_CLOUDY,NIGHT_MOSTLY_CLOUDY,NIGHT_MOSTLY_CLEAR,NIGHT_MOSTLY_CLEAR,NIGHT_MOSTLY_CLEAR,NIGHT_MOSTLY_CLEAR,NIGHT_MOSTLY_CLEAR,MIST,CLEAR,MOSTLY_CLEAR","Onshore,Onshore,Onshore,Onshore,Cross-shore,Cross-shore,Cross-shore,Cross-shore,Cross-shore,Offshore,Offshore,Offshore,Offshore,Offshore,Offshore,Offshore,Onshore",17
5842041f4e65fad6a7708814,2024_03_12,34.37256264378892,-119.47797,Rincon,3,0.8123529411764706,1.066470588235294,14,14,"CLEAR,MOSTLY_CLEAR,MOSTLY_CLEAR,CLEAR,NIGHT_CLEAR,NIGHT_CLEAR,NIGHT_CLEAR,NIGHT_CLEAR,NIGHT_CLEAR,NIGHT_CLEAR,NIGHT_CLEAR,NIGHT_CLEAR,NIGHT_CLEAR,NIGHT_CLEAR,CLEAR,CLEAR,MIST","Cross-shore,Cross-shore,Cross-shore,Cross-shore,Cross-shore,Cross-shore,Onshore,Onshore,Onshore,Cross-shore,Onshore,Onshore,Onshore,Onshore,Onshore,Onshore,Onshore",17
5842041f4e65fad6a7708817,2024_03_12,34.03096101876324,-118.68109,Malibu Third Point,2.823529411764706,0.44588235294117645,0.7523529411764706,15,15,"MOSTLY_CLEAR,CLEAR,CLEAR,NIGHT_CLEAR,NIGHT_CLEAR,NIGHT_CLEAR,NIGHT_CLEAR,NIGHT_MIST,NIGHT_MIST,NIGHT_CLEAR,NIGHT_MIST,NIGHT_MIST,NIGHT_MIST,NIGHT_MIST,MIST,MIST,MIST","Cross-shore,Cross-shore,Offshore,Cross-shore,Offshore,Offshore,Cross-shore,Offshore,Offshore,Offshore,Cross-shore,Onshore,Onshore,Onshore,Onshore,Cross-shore,Onshore",17
5842041f4e65fad6a7708819,2024_03_12,33.984079047970035,-118.47381591796875,Venice Beach,2.156470588235294,0.858564705882353,1.1405529411764705,14,14,"CLEAR,CLEAR,CLEAR,NIGHT_CLEAR,NIGHT_CLEAR,NIGHT_CLEAR,NIGHT_CLEAR,NIGHT_CLEAR,NIGHT_CLEAR,NIGHT_MOSTLY_CLOUDY,NIGHT_MOSTLY_CLOUDY,NIGHT_MOSTLY_CLOUDY,NIGHT_MIST,NIGHT_MIST,MIST,CLOUDY,CLEAR","Cross-shore,Cross-shore,Cross-shore,Cross-shore,Cross-shore,Cross-shore,Onshore,Cross-shore,Onshore,Onshore,Cross-shore,Cross-shore,Cross-shore,Onshore,Onshore,Onshore,Onshore",17
5842041f4e65fad6a770881e,2024_03_12,34.037508438646746,-118.58339846155594,Topanga Beach,2.5294117647058822,0.48230196078431375,0.7860607843137255,15,15,"MOSTLY_CLEAR,CLEAR,MOSTLY_CLEAR,NIGHT_CLEAR,NIGHT_MIST,NIGHT_CLEAR,NIGHT_CLEAR,NIGHT_MIST,NIGHT_MOSTLY_CLOUDY,NIGHT_MOSTLY_CLOUDY,NIGHT_MIST,NIGHT_FOG,NIGHT_FOG,NIGHT_MIST,CLOUDY,MIST,MIST","Onshore,Onshore,Onshore,Onshore,Cross-shore,Cross-shore,Offshore,Cross-shore,Offshore,Cross-shore,Offshore,Cross-shore,Offshore,Offshore,Offshore,Offshore,Onshore",17
5842041f4e65fad6a7708820,2024_03_12,33.73954373690184,-118.11414,Seal Beach Jetty,2.3529411764705883,0.46647058823529414,0.771764705882353,15,15,"CLEAR,CLEAR,CLEAR,NIGHT_MOSTLY_CLEAR,NIGHT_CLEAR,NIGHT_MOSTLY_CLEAR,NIGHT_CLEAR,NIGHT_MOSTLY_CLOUDY,NIGHT_CLOUDY,NIGHT_FOG,NIGHT_MOSTLY_CLOUDY,NIGHT_MOSTLY_CLOUDY,NIGHT_BRIEF_SHOWERS,NIGHT_MIST,MIST,CLOUDY,MOSTLY_CLOUDY","Onshore,Onshore,Onshore,Onshore,Onshore,Onshore,Onshore,Onshore,Onshore,Onshore,Onshore,Onshore,Cross-shore,Onshore,Offshore,Offshore,Onshore",17
5842041f4e65fad6a7708822,2024_03_12,33.72309983348433,-118.08078,Anderson Street,2.1176470588235294,0.5323529411764706,0.8376470588235294,15.352941176470589,15.352941176470589,"CLEAR,CLEAR,CLEAR,NIGHT_MOSTLY_CLEAR,NIGHT_MOSTLY_CLOUDY,NIGHT_MOSTLY_CLOUDY,NIGHT_MOSTLY_CLEAR,NIGHT_CLEAR,NIGHT_OVERCAST,NIGHT_FOG,NIGHT_MOSTLY_CLOUDY,NIGHT_MOSTLY_CLOUDY,NIGHT_MOSTLY_CLOUDY,NIGHT_MOSTLY_CLOUDY,MOSTLY_CLOUDY,OVERCAST,MOSTLY_CLOUDY","Onshore,Onshore,Onshore,Onshore,Onshore,Onshore,Onshore,Onshore,Onshore,Onshore,Onshore,Onshore,Cross-shore,Cross-shore,Offshore,Offshore,Onshore",17
5842041f4e65fad6a7708827,2024_03_12,33.65574085629463,-118.00397,Huntington Beach Pier Northside,1.99,1.1114627450980392,1.4292039215686274,15,15,"CLEAR,CLEAR,CLEAR,NIGHT_MOSTLY_CLEAR,NIGHT_CLEAR,NIGHT_CLEAR,NIGHT_MOSTLY_CLOUDY,NIGHT_MOSTLY_CLOUDY,NIGHT_FOG,NIGHT_FOG,NIGHT_FOG,NIGHT_OVERCAST,NIGHT_OVERCAST,NIGHT_OVERCAST,MIST,MIST,MOSTLY_CLOUDY","Onshore,Onshore,Onshore,Onshore,Onshore,Onshore,Onshore,Onshore,Onshore,Onshore,Onshore,Onshore,Onshore,Onshore,Onshore,Offshore,Onshore",17
5842041f4e65fad6a7708828,2024_03_12,34.272041739333,-119.2997646331,C St.,2.99,0.9662176470588236,1.2455764705882353,14,14,"MIST,MIST,CLEAR,MOSTLY_CLEAR,NIGHT_CLEAR,NIGHT_CLEAR,NIGHT_CLEAR,NIGHT_CLEAR,NIGHT_CLEAR,NIGHT_CLEAR,NIGHT_CLEAR,NIGHT_CLEAR,NIGHT_MOSTLY_CLEAR,NIGHT_MIST,MIST,MIST,MIST","Cross-shore,Cross-shore,Cross-shore,Cross-shore,Cross-shore,Cross-shore,Cross-shore,Offshore,Cross-shore,Offshore,Offshore,Offshore,Offshore,Offshore,Offshore,Offshore,Cross-shore",17
5842041f4e65fad6a770882a,2024_03_12,33.61555743705257,-117.93676,Newport Lower Jetties,2.235294117647059,0.5956588235294118,0.9317058823529412,15,15,"CLEAR,CLEAR,MOSTLY_CLEAR,NIGHT_CLEAR,NIGHT_MOSTLY_CLOUDY,NIGHT_CLEAR,NIGHT_MOSTLY_CLOUDY,NIGHT_MOSTLY_CLOUDY,NIGHT_MIST,NIGHT_FOG,NIGHT_OVERCAST,NIGHT_OVERCAST,NIGHT_OVERCAST,NIGHT_OVERCAST,OVERCAST,MIST,MOSTLY_CLOUDY","Onshore,Onshore,Cross-shore,Onshore,Cross-shore,Onshore,Onshore,Cross-shore,Onshore,Onshore,Onshore,Onshore,Onshore,Onshore,Onshore,Onshore,Onshore",17
5842041f4e65fad6a770882b,2024_03_12,33.5930302087,-117.88199,The Wedge,2,0.8308944117647059,1.1577334313725491,17,17,"CLEAR,CLEAR,MOSTLY_CLEAR,NIGHT_CLEAR,NIGHT_CLEAR,NIGHT_MOSTLY_CLEAR,NIGHT_MOSTLY_CLOUDY,NIGHT_FOG,NIGHT_FOG,NIGHT_FOG,NIGHT_FOG,NIGHT_OVERCAST,NIGHT_OVERCAST,NIGHT_OVERCAST,OVERCAST,MIST,MOSTLY_CLOUDY","Onshore,Onshore,Cross-shore,Onshore,Onshore,Cross-shore,Onshore,Cross-shore,Cross-shore,Cross-shore,Cross-shore,Cross-shore,Cross-shore,Offshore,Offshore,Offshore,Onshore",17
5842041f4e65fad6a770882c,2024_03_12,33.60577342582,-117.9315376281,Newport Beach Pier,2,0.5336,0.8388588235294118,15,15,"CLEAR,CLEAR,CLEAR,NIGHT_CLEAR,NIGHT_CLEAR,NIGHT_CLEAR,NIGHT_FOG,NIGHT_MOSTLY_CLOUDY,NIGHT_DRIZZLE,NIGHT_FOG,NIGHT_CLOUDY,NIGHT_CLOUDY,NIGHT_CLOUDY,NIGHT_CLOUDY,DRIZZLE,MIST,MIST","Onshore,Onshore,Cross-shore,Cross-shore,Cross-shore,Cross-shore,Cross-shore,Cross-shore,Cross-shore,Cross-shore,Cross-shore,Onshore,Onshore,Onshore,Onshore,Onshore,Onshore",17
5842041f4e65fad6a770882e,2024_03_12,33.475793399792984,-117.72291,Salt Creek,3,1.071792156862745,1.4083254901960784,15,15,"CLEAR,CLEAR,CLEAR,NIGHT_MOSTLY_CLOUDY,NIGHT_MOSTLY_CLOUDY,NIGHT_MOSTLY_CLOUDY,NIGHT_MOSTLY_CLOUDY,NIGHT_FOG,NIGHT_FOG,NIGHT_LIGHT_RAIN_AND_FOG,NIGHT_FOG,NIGHT_FOG,NIGHT_FOG,NIGHT_MIST,MIST,MOSTLY_CLOUDY,BRIEF_SHOWERS","Onshore,Onshore,Onshore,Onshore,Onshore,Onshore,Onshore,Onshore,Onshore,Onshore,Onshore,Onshore,Onshore,Onshore,Onshore,Onshore,Onshore",17
5842041f4e65fad6a7708830,2024_03_12,33.41800974113613,-117.61952,T-Street,2.9311764705882353,1.021105882352941,1.2760117647058824,16,16,"CLEAR,CLEAR,MOSTLY_CLEAR,NIGHT_CLEAR,NIGHT_CLEAR,NIGHT_MOSTLY_CLOUDY,NIGHT_MOSTLY_CLOUDY,NIGHT_MOSTLY_CLOUDY,NIGHT_MIST,NIGHT_FOG,NIGHT_BRIEF_SHOWERS,NIGHT_FOG,NIGHT_FOG,NIGHT_FOG,CLOUDY,BRIEF_SHOWERS,MIST","Onshore,Onshore,Onshore,Cross-shore,Cross-shore,Cross-shore,Cross-shore,Onshore,Cross-shore,Offshore,Onshore,Onshore,Onshore,Onshore,Onshore,Onshore,Onshore",17
5842041f4e65fad6a7708832,2024_03_12,33.202391008646,-117.39475,Oceanside Harbor,2.9023529411764706,0.9799058823529412,1.3477999999999999,16,16,"CLEAR,CLEAR,CLEAR,NIGHT_CLEAR,NIGHT_MOSTLY_CLOUDY,NIGHT_MOSTLY_CLOUDY,NIGHT_MOSTLY_CLOUDY,NIGHT_OVERCAST,NIGHT_FOG,NIGHT_MOSTLY_CLOUDY,NIGHT_MOSTLY_CLOUDY,NIGHT_FOG,NIGHT_FOG,NIGHT_FOG,FOG,BRIEF_SHOWERS,CLEAR","Onshore,Onshore,Onshore,Onshore,Onshore,Onshore,Onshore,Cross-shore,Cross-shore,Offshore,Offshore,Offshore,Offshore,Offshore,Offshore,Offshore,Onshore",17
5842041f4e65fad6a7708835,2024_03_12,33.19477795952803,-117.38667,Oceanside Pier,2.823529411764706,1.0159843137254903,1.2383058823529411,16,16,"MOSTLY_CLOUDY,MOSTLY_CLOUDY,CLEAR,NIGHT_CLEAR,NIGHT_MOSTLY_CLOUDY,NIGHT_CLEAR,NIGHT_MOSTLY_CLOUDY,NIGHT_OVERCAST,NIGHT_FOG,NIGHT_MOSTLY_CLOUDY,NIGHT_CLEAR,NIGHT_MOSTLY_CLOUDY,NIGHT_FOG,NIGHT_FOG,FOG,MIST,MOSTLY_CLEAR","Onshore,Onshore,Onshore,Onshore,Onshore,Onshore,Onshore,Cross-shore,Offshore,Offshore,Onshore,Cross-shore,Cross-shore,Offshore,Offshore,Offshore,Onshore",17
5842041f4e65fad6a7708837,2024_03_12,33.14948100706,-117.35029,Tamarack,2.6470588235294117,0.46647058823529414,0.77,15,15,"MOSTLY_CLOUDY,CLEAR,CLEAR,NIGHT_CLEAR,NIGHT_CLOUDY,NIGHT_MOSTLY_CLOUDY,NIGHT_MOSTLY_CLOUDY,NIGHT_OVERCAST,NIGHT_FOG,NIGHT_MOSTLY_CLOUDY,NIGHT_FOG,NIGHT_BRIEF_SHOWERS,NIGHT_FOG,NIGHT_FOG,FOG,MIST,CLEAR","Onshore,Onshore,Onshore,Cross-shore,Cross-shore,Cross-shore,Cross-shore,Cross-shore,Cross-shore,Offshore,Offshore,Onshore,Cross-shore,Cross-shore,Cross-shore,Offshore,Onshore",17
5842041f4e65fad6a7708839,2024_03_12,32.865777159358856,-117.25614295356122,Scripps,2.293529411764706,1.066278431372549,1.343992156862745,16,16,"MOSTLY_CLOUDY,MOSTLY_CLOUDY,CLEAR,NIGHT_CLOUDY,NIGHT_CLOUDY,NIGHT_MOSTLY_CLOUDY,NIGHT_MOSTLY_CLOUDY,NIGHT_OVERCAST,NIGHT_MOSTLY_CLOUDY,NIGHT_FOG,NIGHT_FOG,NIGHT_BRIEF_SHOWERS,NIGHT_LIGHT_RAIN_AND_FOG,NIGHT_FOG,FOG,MIST,MIST","Onshore,Onshore,Onshore,Onshore,Onshore,Onshore,Onshore,Onshore,Onshore,Cross-shore,Onshore,Onshore,Onshore,Onshore,Onshore,Onshore,Onshore",17
5842041f4e65fad6a770883a,2024_03_12,32.813094,-117.27381,Birdrock,3.2941176470588234,1.433529411764706,1.7152941176470589,16,16,"MOSTLY_CLOUDY,MOSTLY_CLOUDY,MOSTLY_CLOUDY,NIGHT_OVERCAST,NIGHT_MOSTLY_CLOUDY,NIGHT_MOSTLY_CLOUDY,NIGHT_MOSTLY_CLOUDY,NIGHT_MOSTLY_CLOUDY,NIGHT_FOG,NIGHT_FOG,NIGHT_FOG,NIGHT_FOG,NIGHT_FOG,NIGHT_FOG,FOG,MIST,MIST","Onshore,Cross-shore,Onshore,Cross-shore,Cross-shore,Offshore,Offshore,Offshore,Offshore,Offshore,Offshore,Offshore,Offshore,Cross-shore,Cross-shore,Onshore,Onshore",17
5842041f4e65fad6a770883b,2024_03_12,32.877231,-117.25303,Blacks,2.735294117647059,1.4538274509803921,1.9111176470588236,16,16,"MOSTLY_CLOUDY,MOSTLY_CLOUDY,CLEAR,NIGHT_CLOUDY,NIGHT_CLOUDY,NIGHT_MOSTLY_CLOUDY,NIGHT_MOSTLY_CLOUDY,NIGHT_OVERCAST,NIGHT_MOSTLY_CLOUDY,NIGHT_FOG,NIGHT_FOG,NIGHT_BRIEF_SHOWERS,NIGHT_LIGHT_RAIN_AND_FOG,NIGHT_FOG,FOG,MIST,MIST","Onshore,Onshore,Onshore,Onshore,Onshore,Onshore,Onshore,Onshore,Onshore,Onshore,Cross-shore,Onshore,Onshore,Onshore,Onshore,Onshore,Onshore",17
5842041f4e65fad6a770883c,2024_03_12,32.82978974229765,-117.28161740727381,Windansea,2.822941176470588,1.3200039215686274,1.730078431372549,15,15,"MOSTLY_CLOUDY,CLEAR,CLEAR,NIGHT_OVERCAST,NIGHT_OVERCAST,NIGHT_MOSTLY_CLOUDY,NIGHT_MOSTLY_CLOUDY,NIGHT_MOSTLY_CLOUDY,NIGHT_FOG,NIGHT_FOG,NIGHT_FOG,NIGHT_FOG,NIGHT_FOG,NIGHT_FOG,FOG,MIST,MIST","Onshore,Onshore,Onshore,Onshore,Onshore,Onshore,Onshore,Onshore,Onshore,Offshore,Offshore,Onshore,Onshore,Onshore,Onshore,Onshore,Onshore",17
5842041f4e65fad6a770883d,2024_03_12,32.838278,-117.28396,Horseshoe,3.176470588235294,1.494705882352941,1.7876470588235294,16,16,"MOSTLY_CLOUDY,CLEAR,CLEAR,NIGHT_OVERCAST,NIGHT_MOSTLY_CLOUDY,NIGHT_MOSTLY_CLOUDY,NIGHT_MOSTLY_CLOUDY,NIGHT_MOSTLY_CLOUDY,NIGHT_FOG,NIGHT_FOG,NIGHT_FOG,NIGHT_FOG,NIGHT_FOG,NIGHT_FOG,FOG,MIST,MIST","Onshore,Onshore,Onshore,Onshore,Cross-shore,Offshore,Offshore,Offshore,Offshore,Offshore,Offshore,Offshore,Offshore,Offshore,Offshore,Onshore,Onshore",17
5842041f4e65fad6a770883f,2024_03_12,32.75034717673179,-117.25337,Ocean Beach,2.5288235294117647,1.4425725490196077,1.8465098039215686,15,15,"CLEAR,CLEAR,CLEAR,NIGHT_CLOUDY,NIGHT_CLOUDY,NIGHT_MOSTLY_CLOUDY,NIGHT_MOSTLY_CLOUDY,NIGHT_OVERCAST,NIGHT_FOG,NIGHT_FOG,NIGHT_FOG,NIGHT_BRIEF_SHOWERS,NIGHT_FOG,NIGHT_CLOUDY,DRIZZLE,BRIEF_SHOWERS,MIST","Onshore,Onshore,Onshore,Onshore,Onshore,Cross-shore,Cross-shore,Onshore,Onshore,Offshore,Offshore,Onshore,Onshore,Onshore,Onshore,Onshore,Onshore",17
5842041f4e65fad6a7708840,2024_03_12,32.73693,-117.25718,Sunset Cliffs,2.9411764705882355,1.501764705882353,1.7958823529411765,15.352941176470589,15.352941176470589,"MOSTLY_CLEAR,CLEAR,CLEAR,NIGHT_OVERCAST,NIGHT_OVERCAST,NIGHT_MOSTLY_CLOUDY,NIGHT_OVERCAST,NIGHT_OVERCAST,NIGHT_FOG,NIGHT_MOSTLY_CLOUDY,NIGHT_FOG,NIGHT_BRIEF_SHOWERS,NIGHT_FOG,NIGHT_CLOUDY,LIGHT_RAIN,BRIEF_SHOWERS,CLEAR","Onshore,Onshore,Onshore,Onshore,Onshore,Cross-shore,Cross-shore,Onshore,Onshore,Offshore,Offshore,Cross-shore,Onshore,Onshore,Onshore,Onshore,Onshore",17
5842041f4e65fad6a7708841,2024_03_12,32.796582258728826,-117.25779,Pacific Beach,2.7741176470588234,1.3402,1.719172549019608,15,15,"MOSTLY_CLOUDY,CLEAR,CLEAR,NIGHT_CLOUDY,NIGHT_MOSTLY_CLOUDY,NIGHT_MOSTLY_CLOUDY,NIGHT_MOSTLY_CLOUDY,NIGHT_DRIZZLE,NIGHT_FOG,NIGHT_FOG,NIGHT_FOG,NIGHT_FOG,NIGHT_FOG,NIGHT_FOG,FOG,BRIEF_SHOWERS,MIST","Onshore,Cross-shore,Onshore,Cross-shore,Cross-shore,Offshore,Offshore,Offshore,Offshore,Offshore,Offshore,Offshore,Offshore,Cross-shore,Cross-shore,Onshore,Onshore",17
5842041f4e65fad6a7708842,2024_03_12,32.776636,-117.25514,Mission Beach,2.7052941176470586,1.3561803921568627,1.7323098039215685,15,15,"MOSTLY_CLOUDY,CLEAR,CLEAR,NIGHT_CLOUDY,NIGHT_CLOUDY,NIGHT_MOSTLY_CLOUDY,NIGHT_MOSTLY_CLOUDY,NIGHT_DRIZZLE,NIGHT_FOG,NIGHT_FOG,NIGHT_FOG,NIGHT_FOG,NIGHT_FOG,NIGHT_FOG,FOG,BRIEF_SHOWERS,MIST","Onshore,Onshore,Onshore,Onshore,Onshore,Offshore,Offshore,Offshore,Offshore,Offshore,Offshore,Offshore,Offshore,Offshore,Offshore,Onshore,Onshore",17
5842041f4e65fad6a7708844,2024_03_12,32.577195519016,-117.13475,Imperial Beach Pier,2.6470588235294117,1.6488235294117646,1.97,15,15,"MOSTLY_CLEAR,CLEAR,CLEAR,NIGHT_CLOUDY,NIGHT_CLOUDY,NIGHT_OVERCAST,NIGHT_OVERCAST,NIGHT_MOSTLY_CLOUDY,NIGHT_FOG,NIGHT_FOG,NIGHT_FOG,NIGHT_FOG,NIGHT_FOG,NIGHT_FOG,FOG,BRIEF_SHOWERS,CLEAR","Onshore,Onshore,Onshore,Onshore,Onshore,Cross-shore,Cross-shore,Cross-shore,Cross-shore,Cross-shore,Offshore,Offshore,Offshore,Offshore,Cross-shore,Cross-shore,Onshore",17
5842041f4e65fad6a770884a,2024_03_12,42.88678181061,-70.80843,Seabrook,1.5588235294117647,0.3477569117647059,0.627598137254902,4,3,"NIGHT_CLEAR,NIGHT_CLEAR,NIGHT_CLEAR,NIGHT_CLEAR,NIGHT_CLEAR,NIGHT_CLEAR,NIGHT_CLEAR,NIGHT_CLEAR,NIGHT_CLEAR,NIGHT_CLEAR,CLEAR,CLEAR,CLEAR,CLEAR,CLEAR,CLEAR,CLEAR","Offshore,Offshore,Offshore,Offshore,Offshore,Offshore,Offshore,Offshore,Offshore,Offshore,Offshore,Offshore,Offshore,Offshore,Offshore,Offshore,Offshore",17
5842041f4e65fad6a770884e,2024_03_12,41.434181432898335,-71.45312118111178,Narragansett,0.8041176470588235,0.019464705882352943,0.3039372549019608,6,4,"NIGHT_CLEAR,NIGHT_CLEAR,NIGHT_CLEAR,NIGHT_CLEAR,NIGHT_CLEAR,NIGHT_CLEAR,NIGHT_CLEAR,NIGHT_CLEAR,NIGHT_CLEAR,NIGHT_CLEAR,NIGHT_CLEAR,CLEAR,CLEAR,CLEAR,CLEAR,CLEAR,CLEAR","Offshore,Offshore,Offshore,Offshore,Offshore,Offshore,Offshore,Offshore,Offshore,Offshore,Cross-shore,Offshore,Offshore,Offshore,Offshore,Offshore,Offshore",17
5842041f4e65fad6a7708850,2024_03_12,40.582703230722,-73.65247,Lincoln Blvd,0.6852941176470588,0.024705882352941175,0.3305,7,6,"NIGHT_CLEAR,NIGHT_CLEAR,NIGHT_CLEAR,NIGHT_CLEAR,NIGHT_CLEAR,NIGHT_CLEAR,NIGHT_CLEAR,NIGHT_CLEAR,NIGHT_CLEAR,NIGHT_CLEAR,NIGHT_CLEAR,CLEAR,CLEAR,CLEAR,CLEAR,CLEAR,CLEAR","Onshore,Onshore,Onshore,Onshore,Onshore,Onshore,Onshore,Onshore,Cross-shore,Cross-shore,Cross-shore,Cross-shore,Cross-shore,Cross-shore,Cross-shore,Cross-shore,Offshore",17
5842041f4e65fad6a7708852,2024_03_12,40.58342841721757,-73.81182,Rockaways,0.1423529411764706,-0.012352941176470589,0.2550588235294118,7,6,"NIGHT_CLEAR,NIGHT_CLEAR,NIGHT_CLEAR,NIGHT_CLEAR,NIGHT_CLEAR,NIGHT_CLEAR,NIGHT_CLEAR,NIGHT_CLEAR,NIGHT_CLEAR,NIGHT_CLEAR,NIGHT_CLEAR,CLEAR,CLEAR,CLEAR,CLEAR,CLEAR,CLEAR","Offshore,Cross-shore,Cross-shore,Cross-shore,Cross-shore,Cross-shore,Cross-shore,Cross-shore,Cross-shore,Cross-shore,Cross-shore,Cross-shore,Cross-shore,Cross-shore,Cross-shore,Cross-shore,Cross-shore",17
5842041f4e65fad6a7708853,2024_03_12,40.330474,-73.9734,Monmouth Beach,0.5588235294117647,-0.006029411764705884,0.23260980392156863,7,6,"NIGHT_CLEAR,NIGHT_CLEAR,NIGHT_CLEAR,NIGHT_CLEAR,NIGHT_CLEAR,NIGHT_CLEAR,NIGHT_CLEAR,NIGHT_CLEAR,NIGHT_CLEAR,NIGHT_CLEAR,NIGHT_CLEAR,CLEAR,CLEAR,CLEAR,CLEAR,CLEAR,CLEAR","Offshore,Offshore,Offshore,Offshore,Offshore,Offshore,Offshore,Offshore,Offshore,Offshore,Offshore,Offshore,Offshore,Offshore,Offshore,Offshore,Offshore",17
5842041f4e65fad6a7708856,2024_03_12,40.113,-74.028,Manasquan Inlet,0.6823529411764706,-0.011323529411764708,0.21815686274509805,7,6,"NIGHT_CLEAR,NIGHT_CLEAR,NIGHT_CLEAR,NIGHT_CLEAR,NIGHT_CLEAR,NIGHT_CLEAR,NIGHT_CLEAR,NIGHT_CLEAR,NIGHT_CLEAR,NIGHT_CLEAR,NIGHT_CLEAR,CLEAR,CLEAR,CLEAR,CLEAR,CLEAR,CLEAR","Offshore,Offshore,Offshore,Offshore,Offshore,Offshore,Offshore,Offshore,Offshore,Offshore,Offshore,Offshore,Offshore,Offshore,Offshore,Offshore,Offshore",17
5842041f4e65fad6a7708857,2024_03_12,39.941519877445664,-74.06829,Casino Pier,0.7941176470588235,-0.011323529411764708,0.2586470588235294,7,6,"NIGHT_CLEAR,NIGHT_CLEAR,NIGHT_CLEAR,NIGHT_CLEAR,NIGHT_CLEAR,NIGHT_CLEAR,NIGHT_CLEAR,NIGHT_CLEAR,NIGHT_CLEAR,NIGHT_CLEAR,NIGHT_CLEAR,CLEAR,CLEAR,CLEAR,CLEAR,CLEAR,CLEAR","Offshore,Offshore,Offshore,Offshore,Offshore,Offshore,Offshore,Offshore,Offshore,Offshore,Offshore,Offshore,Offshore,Offshore,Offshore,Offshore,Offshore",17
5842041f4e65fad6a7708858,2024_03_12,39.28223089949212,-74.55766,North End OC,0.9658823529411764,-0.0072058823529411765,0.2625686274509804,8,6,"NIGHT_CLEAR,NIGHT_CLEAR,NIGHT_CLEAR,NIGHT_CLEAR,NIGHT_CLEAR,NIGHT_CLEAR,NIGHT_CLEAR,NIGHT_CLEAR,NIGHT_CLEAR,NIGHT_CLEAR,NIGHT_CLEAR,CLEAR,CLEAR,CLEAR,CLEAR,CLEAR,CLEAR","Offshore,Offshore,Offshore,Offshore,Offshore,Offshore,Offshore,Offshore,Offshore,Offshore,Offshore,Offshore,Offshore,Offshore,Offshore,Offshore,Offshore",17
5842041f4e65fad6a770885b,2024_03_12,39.65080599934257,-74.17146,Ship Bottom,0.9658823529411764,-0.012794117647058824,0.2642843137254902,8,6,"NIGHT_CLEAR,NIGHT_CLEAR,NIGHT_CLEAR,NIGHT_CLEAR,NIGHT_CLEAR,NIGHT_CLEAR,NIGHT_CLEAR,NIGHT_CLEAR,NIGHT_CLEAR,NIGHT_CLEAR,NIGHT_CLEAR,CLEAR,CLEAR,CLEAR,CLEAR,CLEAR,CLEAR","Offshore,Offshore,Offshore,Offshore,Offshore,Offshore,Offshore,Offshore,Offshore,Offshore,Offshore,Offshore,Offshore,Offshore,Offshore,Offshore,Offshore",17
5842041f4e65fad6a7708863,2024_03_12,36.034151543144,-75.66791,Third Street,2.176470588235294,0.3246686274509804,0.6408156862745098,9,8,"CLEAR,NIGHT_CLEAR,NIGHT_CLEAR,NIGHT_CLEAR,NIGHT_CLEAR,NIGHT_CLEAR,NIGHT_CLEAR,NIGHT_CLEAR,NIGHT_CLEAR,NIGHT_CLEAR,NIGHT_CLEAR,CLEAR,CLEAR,CLEAR,CLEAR,CLEAR,CLEAR","Offshore,Offshore,Offshore,Offshore,Offshore,Offshore,Offshore,Offshore,Offshore,Offshore,Offshore,Offshore,Offshore,Offshore,Offshore,Offshore,Offshore",17
5842041f4e65fad6a7708867,2024_03_12,35.605833221351425,-75.46303,S-Turns,2.0688235294117647,0.6032745098039216,0.9090980392156862,10,9,"CLEAR,NIGHT_CLEAR,NIGHT_CLEAR,NIGHT_CLEAR,NIGHT_CLEAR,NIGHT_CLEAR,NIGHT_CLEAR,NIGHT_CLEAR,NIGHT_CLEAR,NIGHT_CLEAR,NIGHT_CLEAR,CLEAR,CLEAR,CLEAR,CLEAR,CLEAR,CLEAR","Offshore,Offshore,Offshore,Offshore,Offshore,Offshore,Offshore,Offshore,Offshore,Offshore,Offshore,Offshore,Offshore,Offshore,Offshore,Offshore,Offshore",17
5842041f4e65fad6a770886d,2024_03_12,38.338461,-75.08117,Ocean City Boardwalk,0.9705882352941176,-0.0061764705882352946,0.2684019607843137,8,7,"CLEAR,NIGHT_CLEAR,NIGHT_CLEAR,NIGHT_CLEAR,NIGHT_CLEAR,NIGHT_CLEAR,NIGHT_CLEAR,NIGHT_CLEAR,NIGHT_CLEAR,NIGHT_CLEAR,NIGHT_CLEAR,CLEAR,CLEAR,CLEAR,CLEAR,CLEAR,CLEAR","Offshore,Offshore,Offshore,Offshore,Offshore,Offshore,Offshore,Offshore,Offshore,Offshore,Offshore,Offshore,Offshore,Offshore,Offshore,Offshore,Offshore",17
5842041f4e65fad6a770886f,2024_03_12,29.844757212379562,-81.26136,A St.,2,0.48705882352941177,0.7917647058823529,18,18,"CLEAR,NIGHT_CLEAR,NIGHT_CLEAR,NIGHT_CLEAR,NIGHT_CLEAR,NIGHT_CLEAR,NIGHT_CLEAR,NIGHT_CLEAR,NIGHT_CLEAR,NIGHT_CLEAR,NIGHT_CLEAR,CLEAR,CLEAR,CLEAR,CLEAR,CLEAR,CLEAR","Onshore,Onshore,Onshore,Onshore,Onshore,Onshore,Onshore,Onshore,Onshore,Onshore,Onshore,Onshore,Onshore,Onshore,Onshore,Onshore,Onshore",17
5842041f4e65fad6a7708871,2024_03_12,29.069417851135093,-80.90824,New Smyrna Beach,2.078235294117647,0.9994627450980392,1.419670588235294,19,17,"CLEAR,NIGHT_CLEAR,NIGHT_CLEAR,NIGHT_CLEAR,NIGHT_CLEAR,NIGHT_CLEAR,NIGHT_CLEAR,NIGHT_CLEAR,NIGHT_MOSTLY_CLOUDY,NIGHT_CLEAR,NIGHT_CLEAR,CLEAR,CLEAR,CLEAR,CLEAR,CLEAR,CLEAR","Onshore,Onshore,Onshore,Onshore,Onshore,Onshore,Onshore,Onshore,Onshore,Onshore,Onshore,Onshore,Onshore,Onshore,Onshore,Onshore,Onshore",17
5842041f4e65fad6a7708872,2024_03_12,28.367707417566,-80.60171,Cocoa Beach Pier,2.23,0.618178431372549,0.9252549019607843,23,21,"MOSTLY_CLEAR,NIGHT_MOSTLY_CLEAR,NIGHT_CLEAR,NIGHT_MOSTLY_CLOUDY,NIGHT_MOSTLY_CLOUDY,NIGHT_CLEAR,NIGHT_MOSTLY_CLOUDY,NIGHT_CLEAR,NIGHT_MOSTLY_CLOUDY,NIGHT_CLOUDY,NIGHT_OVERCAST,MOSTLY_CLOUDY,MOSTLY_CLOUDY,MOSTLY_CLOUDY,CLEAR,CLEAR,CLEAR","Onshore,Onshore,Onshore,Onshore,Onshore,Onshore,Onshore,Onshore,Onshore,Onshore,Onshore,Onshore,Onshore,Onshore,Onshore,Onshore,Onshore",17
5842041f4e65fad6a7708873,2024_03_12,28.091782738658846,-80.56479,Indialantic,1.7841176470588236,0.6593764705882353,1.0232470588235294,23,21,"MOSTLY_CLEAR,NIGHT_CLEAR,NIGHT_CLEAR,NIGHT_CLEAR,NIGHT_MOSTLY_CLEAR,NIGHT_CLEAR,NIGHT_CLEAR,NIGHT_MOSTLY_CLOUDY,NIGHT_CLEAR,NIGHT_CLOUDY,NIGHT_OVERCAST,CLOUDY,CLOUDY,MOSTLY_CLOUDY,MOSTLY_CLOUDY,CLEAR,CLEAR","Onshore,Onshore,Onshore,Onshore,Onshore,Onshore,Onshore,Onshore,Onshore,Onshore,Onshore,Onshore,Onshore,Onshore,Onshore,Onshore,Onshore",17
5842041f4e65fad6a7708876,2024_03_12,27.25392904143517,-80.19455,Jensen Beach,1.8670588235294119,0.8894,1.1894450980392157,23,22,"MOSTLY_CLOUDY,NIGHT_MOSTLY_CLOUDY,NIGHT_MOSTLY_CLOUDY,NIGHT_OVERCAST,NIGHT_MOSTLY_CLOUDY,NIGHT_OVERCAST,NIGHT_OVERCAST,NIGHT_OVERCAST,NIGHT_OVERCAST,NIGHT_CLOUDY,NIGHT_CLOUDY,CLOUDY,CLOUDY,OVERCAST,CLOUDY,CLEAR,MOSTLY_CLOUDY","Onshore,Onshore,Onshore,Onshore,Onshore,Onshore,Onshore,Onshore,Onshore,Onshore,Onshore,Onshore,Onshore,Onshore,Onshore,Onshore,Onshore",17
5842041f4e65fad6a7708879,2024_03_12,26.76346795333825,-80.0360655784607,Reef Road,1.4164705882352941,0.38171764705882355,0.707743137254902,24,23,"OVERCAST,NIGHT_OVERCAST,NIGHT_MOSTLY_CLOUDY,NIGHT_CLOUDY,NIGHT_OVERCAST,NIGHT_OVERCAST,NIGHT_MOSTLY_CLOUDY,NIGHT_CLEAR,NIGHT_OVERCAST,NIGHT_OVERCAST,NIGHT_MOSTLY_CLOUDY,OVERCAST,OVERCAST,DRIZZLE,OVERCAST,MOSTLY_CLOUDY,MOSTLY_CLOUDY","Onshore,Onshore,Onshore,Onshore,Onshore,Onshore,Onshore,Onshore,Onshore,Onshore,Onshore,Onshore,Onshore,Onshore,Onshore,Onshore,Onshore",17
5842041f4e65fad6a770887c,2024_03_12,26.336499228484,-80.06956100463,Boca Raton Inlet,0.7447058823529412,0.14450980392156862,0.44883529411764705,25,23,"OVERCAST,NIGHT_CLOUDY,NIGHT_MOSTLY_CLOUDY,NIGHT_MOSTLY_CLOUDY,NIGHT_MOSTLY_CLOUDY,NIGHT_MOSTLY_CLOUDY,NIGHT_MOSTLY_CLOUDY,NIGHT_DRIZZLE,NIGHT_MOSTLY_CLOUDY,NIGHT_OVERCAST,NIGHT_OVERCAST,OVERCAST,OVERCAST,OVERCAST,MOSTLY_CLOUDY,MOSTLY_CLOUDY,CLEAR","Onshore,Onshore,Onshore,Onshore,Onshore,Onshore,Onshore,Onshore,Onshore,Onshore,Onshore,Onshore,Onshore,Onshore,Onshore,Onshore,Onshore",17
5842041f4e65fad6a770887d,2024_03_12,26.31719311695038,-80.07452525176168,Deerfield Beach Pier,0.6370588235294118,0.09002196078431374,0.36814352941176476,25,23,"OVERCAST,NIGHT_CLOUDY,NIGHT_SHOWERS,NIGHT_MOSTLY_CLOUDY,NIGHT_OVERCAST,NIGHT_MOSTLY_CLOUDY,NIGHT_MOSTLY_CLOUDY,NIGHT_OVERCAST,NIGHT_MOSTLY_CLOUDY,NIGHT_OVERCAST,NIGHT_OVERCAST,CLOUDY,OVERCAST,OVERCAST,MOSTLY_CLOUDY,CLEAR,CLEAR","Onshore,Onshore,Onshore,Onshore,Onshore,Onshore,Onshore,Onshore,Onshore,Onshore,Onshore,Onshore,Onshore,Onshore,Onshore,Onshore,Onshore",17
5842041f4e65fad6a7708881,2024_03_12,30.20276320866628,-85.85626528676136,"Spyglass Dr., Panama City",0,0,0.15148823529411767,19,18,"CLEAR,NIGHT_CLEAR,NIGHT_CLEAR,NIGHT_CLEAR,NIGHT_CLEAR,NIGHT_CLEAR,NIGHT_CLEAR,NIGHT_CLEAR,NIGHT_CLEAR,NIGHT_CLEAR,NIGHT_CLEAR,CLEAR,CLEAR,CLEAR,CLEAR,CLEAR,CLEAR","Offshore,Offshore,Offshore,Offshore,Offshore,Offshore,Offshore,Offshore,Offshore,Offshore,Offshore,Offshore,Offshore,Offshore,Offshore,Offshore,Onshore",17
5842041f4e65fad6a7708884,2024_03_12,33.39000832738053,-117.59852,Cottons,3,0.952043137254902,1.2275686274509803,16,16,"MOSTLY_CLEAR,CLEAR,CLEAR,NIGHT_MOSTLY_CLOUDY,NIGHT_MOSTLY_CLOUDY,NIGHT_MOSTLY_CLOUDY,NIGHT_MOSTLY_CLOUDY,NIGHT_FOG,NIGHT_MOSTLY_CLOUDY,NIGHT_FOG,NIGHT_BRIEF_SHOWERS,NIGHT_FOG,NIGHT_LIGHT_RAIN_AND_FOG,NIGHT_FOG,FOG,BRIEF_SHOWERS,CLEAR","Onshore,Onshore,Onshore,Onshore,Onshore,Cross-shore,Cross-shore,Cross-shore,Cross-shore,Offshore,Offshore,Offshore,Cross-shore,Cross-shore,Cross-shore,Onshore,Onshore",17
5842041f4e65fad6a7708885,2024_03_12,33.359416282661,-117.54167901405711,Trails,2.764705882352941,0.7041176470588235,1.0105882352941176,15,15,"MOSTLY_CLEAR,CLEAR,CLEAR,NIGHT_BRIEF_SHOWERS,NIGHT_BRIEF_SHOWERS,NIGHT_CLEAR,NIGHT_MOSTLY_CLOUDY,NIGHT_BRIEF_SHOWERS,NIGHT_FOG,NIGHT_MOSTLY_CLOUDY,NIGHT_MOSTLY_CLOUDY,NIGHT_LIGHT_RAIN_AND_FOG,NIGHT_FOG,NIGHT_FOG,FOG,BRIEF_SHOWERS,CLEAR","Onshore,Onshore,Onshore,Cross-shore,Cross-shore,Offshore,Offshore,Offshore,Offshore,Offshore,Offshore,Cross-shore,Offshore,Offshore,Offshore,Offshore,Onshore",17
5842041f4e65fad6a7708886,2024_03_12,33.38042605929805,-117.58332,Middles,2.99,0.8025568627450981,1.158921568627451,16,16,"MOSTLY_CLEAR,CLEAR,CLEAR,NIGHT_MOSTLY_CLOUDY,NIGHT_MOSTLY_CLOUDY,NIGHT_MOSTLY_CLOUDY,NIGHT_MOSTLY_CLOUDY,NIGHT_FOG,NIGHT_MOSTLY_CLOUDY,NIGHT_FOG,NIGHT_BRIEF_SHOWERS,NIGHT_FOG,NIGHT_LIGHT_RAIN_AND_FOG,NIGHT_FOG,FOG,BRIEF_SHOWERS,CLEAR","Onshore,Onshore,Onshore,Onshore,Cross-shore,Offshore,Offshore,Offshore,Offshore,Offshore,Offshore,Offshore,Offshore,Offshore,Offshore,Onshore,Onshore",17
5842041f4e65fad6a7708887,2024_03_12,33.38445596302903,-117.59445,Upper Trestles,3,1.0582196078431374,1.3828627450980393,16,16,"MOSTLY_CLEAR,CLEAR,CLEAR,NIGHT_MOSTLY_CLOUDY,NIGHT_MOSTLY_CLOUDY,NIGHT_MOSTLY_CLOUDY,NIGHT_MOSTLY_CLOUDY,NIGHT_FOG,NIGHT_MOSTLY_CLOUDY,NIGHT_FOG,NIGHT_BRIEF_SHOWERS,NIGHT_FOG,NIGHT_LIGHT_RAIN_AND_FOG,NIGHT_FOG,FOG,BRIEF_SHOWERS,CLEAR","Onshore,Onshore,Onshore,Cross-shore,Cross-shore,Offshore,Offshore,Offshore,Offshore,Offshore,Offshore,Offshore,Offshore,Offshore,Offshore,Cross-shore,Onshore",17
5842041f4e65fad6a7708889,2024_03_12,28.944414,-95.28883,Surfside,1.3529411764705883,0.28623764705882354,0.44724411764705885,19,19,"CLEAR,CLEAR,NIGHT_CLEAR,NIGHT_CLEAR,NIGHT_CLEAR,NIGHT_CLEAR,NIGHT_CLEAR,NIGHT_CLEAR,NIGHT_CLEAR,NIGHT_CLEAR,NIGHT_CLEAR,NIGHT_CLEAR,CLEAR,CLEAR,CLEAR,MOSTLY_CLOUDY,CLEAR","Onshore,Onshore,Onshore,Onshore,Onshore,Onshore,Onshore,Onshore,Onshore,Onshore,Onshore,Onshore,Onshore,Onshore,Onshore,Onshore,Onshore",17
5842041f4e65fad6a770888a,2024_03_12,33.38143999849023,-117.58843,Lower Trestles,3,1.0524352941176471,1.463407843137255,16,16,"MOSTLY_CLEAR,CLEAR,CLEAR,NIGHT_MOSTLY_CLOUDY,NIGHT_MOSTLY_CLOUDY,NIGHT_MOSTLY_CLOUDY,NIGHT_MOSTLY_CLOUDY,NIGHT_FOG,NIGHT_MOSTLY_CLOUDY,NIGHT_FOG,NIGHT_BRIEF_SHOWERS,NIGHT_FOG,NIGHT_LIGHT_RAIN_AND_FOG,NIGHT_FOG,FOG,BRIEF_SHOWERS,CLEAR","Onshore,Onshore,Onshore,Cross-shore,Cross-shore,Offshore,Offshore,Offshore,Offshore,Offshore,Offshore,Offshore,Offshore,Offshore,Offshore,Cross-shore,Onshore",17
5842041f4e65fad6a770888b,2024_03_12,33.379622288757,-117.57894,Church,2.99,0.8503019607843137,1.1768627450980393,16,16,"MOSTLY_CLEAR,CLEAR,CLEAR,NIGHT_MOSTLY_CLOUDY,NIGHT_CLEAR,NIGHT_MOSTLY_CLOUDY,NIGHT_MOSTLY_CLOUDY,NIGHT_FOG,NIGHT_MOSTLY_CLOUDY,NIGHT_FOG,NIGHT_BRIEF_SHOWERS,NIGHT_FOG,NIGHT_LIGHT_RAIN_AND_FOG,NIGHT_FOG,FOG,BRIEF_SHOWERS,CLEAR","Onshore,Onshore,Onshore,Onshore,Cross-shore,Offshore,Cross-shore,Offshore,Cross-shore,Offshore,Offshore,Offshore,Cross-shore,Offshore,Cross-shore,Onshore,Onshore",17
5842041f4e65fad6a770888d,2024_03_12,21.679,-158.042,Sunset Beach,3.9805882352941175,2.189458823529412,2.654694117647059,26,25,"BRIEF_SHOWERS,OVERCAST,BRIEF_SHOWERS,CLEAR,BRIEF_SHOWERS,MOSTLY_CLOUDY,NIGHT_CLEAR,NIGHT_BRIEF_SHOWERS,NIGHT_MOSTLY_CLOUDY,NIGHT_SHOWERS,NIGHT_BRIEF_SHOWERS,NIGHT_CLEAR,NIGHT_MOSTLY_CLEAR,NIGHT_MOSTLY_CLEAR,NIGHT_MOSTLY_CLEAR,NIGHT_BRIEF_SHOWERS,CLEAR","Cross-shore,Offshore,Cross-shore,Offshore,Cross-shore,Cross-shore,Cross-shore,Offshore,Cross-shore,Cross-shore,Offshore,Cross-shore,Cross-shore,Cross-shore,Offshore,Offshore,Cross-shore",17
5842041f4e65fad6a770888e,2024_03_12,21.670550036401,-158.0482,Rocky Point,3.49,1.8014823529411765,2.2463588235294116,26,25,"CLEAR,CLEAR,BRIEF_SHOWERS_POSSIBLE,CLEAR,CLEAR,BRIEF_SHOWERS,NIGHT_BRIEF_SHOWERS_POSSIBLE,NIGHT_BRIEF_SHOWERS_POSSIBLE,NIGHT_CLEAR,NIGHT_MOSTLY_CLEAR,NIGHT_MOSTLY_CLEAR,NIGHT_CLEAR,NIGHT_CLEAR,NIGHT_CLEAR,NIGHT_CLEAR,NIGHT_BRIEF_SHOWERS,CLEAR","Cross-shore,Cross-shore,Cross-shore,Cross-shore,Onshore,Cross-shore,Cross-shore,Cross-shore,Cross-shore,Cross-shore,Cross-shore,Cross-shore,Onshore,Cross-shore,Offshore,Cross-shore,Offshore",17
5842041f4e65fad6a770888f,2024_03_12,21.668,-158.05,Chambers,3.2941176470588234,1.918235294117647,2.2941176470588234,24,24,"CLEAR,CLEAR,BRIEF_SHOWERS_POSSIBLE,CLEAR,BRIEF_SHOWERS_POSSIBLE,BRIEF_SHOWERS,NIGHT_BRIEF_SHOWERS_POSSIBLE,NIGHT_BRIEF_SHOWERS_POSSIBLE,NIGHT_CLEAR,NIGHT_MOSTLY_CLEAR,NIGHT_MOSTLY_CLEAR,NIGHT_CLEAR,NIGHT_CLEAR,NIGHT_CLEAR,NIGHT_CLEAR,NIGHT_BRIEF_SHOWERS,CLEAR","Cross-shore,Cross-shore,Cross-shore,Cross-shore,Onshore,Cross-shore,Offshore,Offshore,Cross-shore,Offshore,Offshore,Offshore,Cross-shore,Cross-shore,Offshore,Offshore,Offshore",17
5842041f4e65fad6a7708890,2024_03_12,21.66522,-158.0526,Pipeline,3.911764705882353,2.213394117647059,2.6895882352941176,26,25,"CLEAR,CLEAR,BRIEF_SHOWERS_POSSIBLE,CLEAR,BRIEF_SHOWERS_POSSIBLE,BRIEF_SHOWERS,NIGHT_BRIEF_SHOWERS_POSSIBLE,NIGHT_BRIEF_SHOWERS_POSSIBLE,NIGHT_CLEAR,NIGHT_MOSTLY_CLEAR,NIGHT_MOSTLY_CLEAR,NIGHT_CLEAR,NIGHT_CLEAR,NIGHT_CLEAR,NIGHT_CLEAR,NIGHT_BRIEF_SHOWERS,CLEAR","Cross-shore,Cross-shore,Cross-shore,Cross-shore,Cross-shore,Cross-shore,Cross-shore,Offshore,Cross-shore,Cross-shore,Cross-shore,Cross-shore,Cross-shore,Cross-shore,Offshore,Offshore,Offshore",17
5842041f4e65fad6a7708891,2024_03_12,21.665,-158.054,Backdoor,3.7841176470588236,2.213394117647059,2.6895882352941176,26,25,"CLEAR,CLEAR,BRIEF_SHOWERS_POSSIBLE,CLEAR,BRIEF_SHOWERS_POSSIBLE,BRIEF_SHOWERS,NIGHT_BRIEF_SHOWERS_POSSIBLE,NIGHT_BRIEF_SHOWERS_POSSIBLE,NIGHT_CLEAR,NIGHT_MOSTLY_CLEAR,NIGHT_MOSTLY_CLEAR,NIGHT_CLEAR,NIGHT_CLEAR,NIGHT_CLEAR,NIGHT_CLEAR,NIGHT_BRIEF_SHOWERS,CLEAR","Cross-shore,Cross-shore,Cross-shore,Cross-shore,Cross-shore,Cross-shore,Cross-shore,Offshore,Cross-shore,Cross-shore,Cross-shore,Cross-shore,Cross-shore,Offshore,Offshore,Offshore,Offshore",17
5842041f4e65fad6a7708892,2024_03_12,21.662,-158.057,Rockpile,3,2.0111764705882353,2.4035294117647057,24,24,"CLEAR,CLEAR,BRIEF_SHOWERS_POSSIBLE,CLEAR,BRIEF_SHOWERS_POSSIBLE,BRIEF_SHOWERS,NIGHT_BRIEF_SHOWERS_POSSIBLE,NIGHT_BRIEF_SHOWERS_POSSIBLE,NIGHT_CLEAR,NIGHT_MOSTLY_CLEAR,NIGHT_MOSTLY_CLEAR,NIGHT_CLEAR,NIGHT_CLEAR,NIGHT_CLEAR,NIGHT_CLEAR,NIGHT_BRIEF_SHOWERS,CLEAR","Cross-shore,Cross-shore,Cross-shore,Cross-shore,Cross-shore,Cross-shore,Cross-shore,Cross-shore,Cross-shore,Cross-shore,Offshore,Cross-shore,Onshore,Cross-shore,Offshore,Cross-shore,Cross-shore",17
5842041f4e65fad6a7708893,2024_03_12,21.65870453806827,-158.06058,Log Cabins,3.1176470588235294,1.6341176470588235,1.9523529411764706,24,24,"CLEAR,CLEAR,BRIEF_SHOWERS_POSSIBLE,CLEAR,BRIEF_SHOWERS_POSSIBLE,BRIEF_SHOWERS,NIGHT_BRIEF_SHOWERS_POSSIBLE,NIGHT_BRIEF_SHOWERS_POSSIBLE,NIGHT_CLEAR,NIGHT_MOSTLY_CLEAR,NIGHT_MOSTLY_CLEAR,NIGHT_CLEAR,NIGHT_CLEAR,NIGHT_CLEAR,NIGHT_CLEAR,NIGHT_BRIEF_SHOWERS,CLEAR","Cross-shore,Cross-shore,Cross-shore,Cross-shore,Cross-shore,Cross-shore,Cross-shore,Cross-shore,Cross-shore,Cross-shore,Cross-shore,Cross-shore,Cross-shore,Offshore,Offshore,Offshore,Offshore",17
5842041f4e65fad6a7708894,2024_03_12,21.66203493640557,-158.05495,Off-The-Wall,3.176470588235294,2.045294117647059,2.4435294117647057,24,24,"CLEAR,CLEAR,BRIEF_SHOWERS_POSSIBLE,CLEAR,CLEAR,BRIEF_SHOWERS,NIGHT_BRIEF_SHOWERS_POSSIBLE,NIGHT_BRIEF_SHOWERS_POSSIBLE,NIGHT_CLEAR,NIGHT_MOSTLY_CLEAR,NIGHT_MOSTLY_CLEAR,NIGHT_CLEAR,NIGHT_CLEAR,NIGHT_CLEAR,NIGHT_CLEAR,NIGHT_BRIEF_SHOWERS,CLEAR","Cross-shore,Cross-shore,Cross-shore,Cross-shore,Onshore,Cross-shore,Cross-shore,Offshore,Cross-shore,Cross-shore,Cross-shore,Cross-shore,Cross-shore,Cross-shore,Offshore,Offshore,Cross-shore",17
5842041f4e65fad6a7708895,2024_03_12,21.643,-158.067,Waimea Bay,NA,2.2457294117647058,2.7447411764705882,26,25,"CLEAR,CLEAR,BRIEF_SHOWERS_POSSIBLE,CLEAR,BRIEF_SHOWERS_POSSIBLE,BRIEF_SHOWERS,NIGHT_BRIEF_SHOWERS_POSSIBLE,NIGHT_BRIEF_SHOWERS_POSSIBLE,NIGHT_CLEAR,NIGHT_MOSTLY_CLEAR,NIGHT_MOSTLY_CLEAR,NIGHT_CLEAR,NIGHT_CLEAR,NIGHT_CLEAR,NIGHT_CLEAR,NIGHT_BRIEF_SHOWERS,CLEAR","Offshore,Offshore,Offshore,Offshore,Cross-shore,Cross-shore,Cross-shore,Offshore,Cross-shore,Cross-shore,Cross-shore,Cross-shore,Cross-shore,Offshore,Offshore,Offshore,Cross-shore",17
5842041f4e65fad6a7708896,2024_03_12,21.622,-158.087,Hultin's,3.9605882352941175,2.6317764705882354,3.2379764705882352,26,25,"CLEAR,CLEAR,CLEAR,CLEAR,CLEAR,MOSTLY_CLOUDY,NIGHT_CLEAR,NIGHT_CLEAR,NIGHT_MOSTLY_CLOUDY,NIGHT_MOSTLY_CLEAR,NIGHT_BRIEF_SHOWERS,NIGHT_MOSTLY_CLEAR,NIGHT_CLEAR,NIGHT_CLEAR,NIGHT_CLEAR,NIGHT_MOSTLY_CLOUDY,CLEAR","Offshore,Offshore,Offshore,Offshore,Offshore,Offshore,Offshore,Offshore,Offshore,Offshore,Offshore,Offshore,Offshore,Offshore,Offshore,Offshore,Offshore",17
5842041f4e65fad6a7708897,2024_03_12,21.623,-158.085,Jocko's,3,1.6258823529411766,1.9429411764705882,24,24,"CLEAR,CLEAR,CLEAR,CLEAR,CLEAR,MOSTLY_CLOUDY,NIGHT_CLEAR,NIGHT_CLEAR,NIGHT_MOSTLY_CLOUDY,NIGHT_MOSTLY_CLEAR,NIGHT_BRIEF_SHOWERS,NIGHT_MOSTLY_CLEAR,NIGHT_CLEAR,NIGHT_CLEAR,NIGHT_CLEAR,NIGHT_MOSTLY_CLOUDY,CLEAR","Cross-shore,Cross-shore,Cross-shore,Cross-shore,Cross-shore,Cross-shore,Cross-shore,Cross-shore,Onshore,Cross-shore,Cross-shore,Cross-shore,Cross-shore,Cross-shore,Cross-shore,Cross-shore,Cross-shore",17
5842041f4e65fad6a7708898,2024_03_12,21.62,-158.088,Laniakea,3.842941176470588,1.558329411764706,1.9000470588235294,26,25,"CLEAR,CLEAR,CLEAR,CLEAR,CLEAR,MOSTLY_CLOUDY,NIGHT_CLEAR,NIGHT_CLEAR,NIGHT_MOSTLY_CLOUDY,NIGHT_MOSTLY_CLEAR,NIGHT_BRIEF_SHOWERS,NIGHT_MOSTLY_CLEAR,NIGHT_CLEAR,NIGHT_CLEAR,NIGHT_CLEAR,NIGHT_MOSTLY_CLOUDY,CLEAR","Offshore,Offshore,Offshore,Offshore,Offshore,Offshore,Offshore,Offshore,Cross-shore,Offshore,Offshore,Offshore,Offshore,Offshore,Offshore,Offshore,Offshore",17
5842041f4e65fad6a7708899,2024_03_12,21.625,-158.083,Chun's,3.823529411764706,1.7088235294117646,2.041176470588235,24,24,"CLEAR,CLEAR,CLEAR,CLEAR,CLEAR,MOSTLY_CLOUDY,NIGHT_CLEAR,NIGHT_CLEAR,NIGHT_MOSTLY_CLOUDY,NIGHT_MOSTLY_CLEAR,NIGHT_BRIEF_SHOWERS,NIGHT_MOSTLY_CLEAR,NIGHT_CLEAR,NIGHT_CLEAR,NIGHT_CLEAR,NIGHT_MOSTLY_CLOUDY,CLEAR","Offshore,Offshore,Offshore,Offshore,Offshore,Offshore,Offshore,Offshore,Offshore,Offshore,Offshore,Offshore,Offshore,Offshore,Offshore,Offshore,Offshore",17
5842041f4e65fad6a770889c,2024_03_12,21.286357895152136,-157.8515,South Shore - Ala Moana Park,2,0.5317647058823529,0.8370588235294117,24,24,"CLEAR,CLEAR,SHOWERS,MOSTLY_CLOUDY,CLEAR,BRIEF_SHOWERS,NIGHT_MOSTLY_CLOUDY,NIGHT_MOSTLY_CLOUDY,NIGHT_MOSTLY_CLOUDY,NIGHT_MOSTLY_CLOUDY,NIGHT_MOSTLY_CLOUDY,NIGHT_MOSTLY_CLOUDY,NIGHT_MOSTLY_CLOUDY,NIGHT_MOSTLY_CLOUDY,NIGHT_MOSTLY_CLOUDY,NIGHT_CLEAR,MOSTLY_CLEAR","Offshore,Offshore,Offshore,Offshore,Offshore,Offshore,Offshore,Offshore,Offshore,Offshore,Offshore,Offshore,Offshore,Offshore,Offshore,Offshore,Cross-shore",17
5842041f4e65fad6a770889d,2024_03_12,19.606,-155.978,Banyans,2.4511764705882353,0.422,0.7265294117647059,26,25,"OVERCAST,CLOUDY,CLEAR,CLEAR,CLEAR,MOSTLY_CLOUDY,NIGHT_MOSTLY_CLOUDY,NIGHT_OVERCAST,NIGHT_MOSTLY_CLOUDY,NIGHT_CLEAR,NIGHT_CLEAR,NIGHT_MOSTLY_CLEAR,NIGHT_CLEAR,NIGHT_CLEAR,NIGHT_CLEAR,NIGHT_CLEAR,MIST","Onshore,Onshore,Cross-shore,Onshore,Onshore,Cross-shore,Cross-shore,Cross-shore,Cross-shore,Cross-shore,Cross-shore,Offshore,Cross-shore,Offshore,Cross-shore,Cross-shore,Onshore",17
5842041f4e65fad6a770889e,2024_03_12,20.029,-155.831,Kawaihae,1.8823529411764706,0.4444,0.581649411764706,24.352941176470587,24.352941176470587,"CLEAR,CLEAR,MOSTLY_CLOUDY,MOSTLY_CLOUDY,CLEAR,MOSTLY_CLOUDY,NIGHT_MOSTLY_CLOUDY,NIGHT_CLEAR,NIGHT_MOSTLY_CLEAR,NIGHT_MOSTLY_CLEAR,NIGHT_CLEAR,NIGHT_CLEAR,NIGHT_MOSTLY_CLEAR,NIGHT_MOSTLY_CLEAR,NIGHT_SHOWERS,NIGHT_MOSTLY_CLEAR,MOSTLY_CLEAR","Onshore,Onshore,Onshore,Onshore,Onshore,Onshore,Cross-shore,Offshore,Onshore,Cross-shore,Cross-shore,Cross-shore,Offshore,Offshore,Offshore,Cross-shore,Onshore",17
5842041f4e65fad6a770889f,2024_03_12,33.07541383424675,-117.3105,Grandview,3,0.918235294117647,1.131764705882353,15,15,"MOSTLY_CLOUDY,CLEAR,CLEAR,NIGHT_CLEAR,NIGHT_CLEAR,NIGHT_MOSTLY_CLOUDY,NIGHT_OVERCAST,NIGHT_OVERCAST,NIGHT_CLOUDY,NIGHT_MOSTLY_CLOUDY,NIGHT_BRIEF_SHOWERS,NIGHT_FOG,NIGHT_FOG,NIGHT_FOG,FOG,CLEAR,CLEAR","Onshore,Onshore,Onshore,Onshore,Onshore,Cross-shore,Cross-shore,Cross-shore,Offshore,Offshore,Offshore,Offshore,Offshore,Cross-shore,Offshore,Offshore,Onshore",17
5842041f4e65fad6a77088a0,2024_03_12,33.065267421296596,-117.30577,Beacons,2.764705882352941,0.9217647058823529,1.1329411764705881,15,15,"MOSTLY_CLOUDY,CLEAR,CLEAR,NIGHT_CLEAR,NIGHT_CLEAR,NIGHT_MOSTLY_CLOUDY,NIGHT_OVERCAST,NIGHT_OVERCAST,NIGHT_CLOUDY,NIGHT_MOSTLY_CLOUDY,NIGHT_BRIEF_SHOWERS,NIGHT_FOG,NIGHT_FOG,NIGHT_FOG,FOG,CLEAR,CLEAR","Onshore,Onshore,Onshore,Onshore,Cross-shore,Onshore,Onshore,Onshore,Onshore,Offshore,Offshore,Offshore,Offshore,Offshore,Offshore,Offshore,Onshore",17
5842041f4e65fad6a77088a2,2024_03_12,21.252,-157.805,Diamond Head,3,0.9038963235294117,1.2254583823529412,26,25,"CLEAR,MOSTLY_CLOUDY,MOSTLY_CLOUDY,MOSTLY_CLOUDY,CLEAR,BRIEF_SHOWERS,NIGHT_MOSTLY_CLOUDY,NIGHT_MOSTLY_CLOUDY,NIGHT_MOSTLY_CLOUDY,NIGHT_MOSTLY_CLOUDY,NIGHT_MOSTLY_CLOUDY,NIGHT_MOSTLY_CLOUDY,NIGHT_CLEAR,NIGHT_MOSTLY_CLOUDY,NIGHT_MOSTLY_CLEAR,NIGHT_CLEAR,CLEAR","Cross-shore,Cross-shore,Cross-shore,Cross-shore,Cross-shore,Cross-shore,Cross-shore,Cross-shore,Offshore,Cross-shore,Cross-shore,Cross-shore,Cross-shore,Offshore,Offshore,Cross-shore,Cross-shore",17
5842041f4e65fad6a77088a3,2024_03_12,33.04694255008896,-117.29966,Moonlight State Beach,2.9411764705882355,0.9958823529411764,1.1894117647058824,15,15,"MOSTLY_CLOUDY,MOSTLY_CLOUDY,CLEAR,NIGHT_CLEAR,NIGHT_CLEAR,NIGHT_MOSTLY_CLOUDY,NIGHT_OVERCAST,NIGHT_OVERCAST,NIGHT_CLOUDY,NIGHT_MOSTLY_CLOUDY,NIGHT_MOSTLY_CLOUDY,NIGHT_FOG,NIGHT_FOG,NIGHT_FOG,FOG,MIST,MOSTLY_CLEAR","Onshore,Onshore,Onshore,Onshore,Onshore,Cross-shore,Offshore,Offshore,Offshore,Offshore,Offshore,Offshore,Offshore,Offshore,Offshore,Offshore,Onshore",17
5842041f4e65fad6a77088a5,2024_03_12,33.08685865930869,-117.31532,Ponto,2.8823529411764706,1.1423529411764706,1.4029411764705881,15,15,"MOSTLY_CLOUDY,CLEAR,CLEAR,NIGHT_CLEAR,NIGHT_CLEAR,NIGHT_MOSTLY_CLOUDY,NIGHT_OVERCAST,NIGHT_OVERCAST,NIGHT_CLOUDY,NIGHT_MOSTLY_CLOUDY,NIGHT_BRIEF_SHOWERS,NIGHT_FOG,NIGHT_FOG,NIGHT_FOG,FOG,CLEAR,CLEAR","Onshore,Onshore,Onshore,Onshore,Onshore,Onshore,Offshore,Offshore,Offshore,Offshore,Offshore,Offshore,Offshore,Offshore,Offshore,Offshore,Onshore",17
5842041f4e65fad6a77088a6,2024_03_12,33.130343587871906,-117.33667796442558,Terra Mar Point,3,0.761964705882353,1.1284862745098039,16,16,"MOSTLY_CLOUDY,MOSTLY_CLOUDY,CLEAR,NIGHT_CLEAR,NIGHT_CLEAR,NIGHT_MOSTLY_CLOUDY,NIGHT_MOSTLY_CLOUDY,NIGHT_OVERCAST,NIGHT_FOG,NIGHT_MOSTLY_CLOUDY,NIGHT_MOSTLY_CLOUDY,NIGHT_MOSTLY_CLOUDY,NIGHT_FOG,NIGHT_FOG,FOG,MIST,MOSTLY_CLEAR","Onshore,Onshore,Onshore,Onshore,Cross-shore,Onshore,Onshore,Onshore,Cross-shore,Offshore,Offshore,Offshore,Cross-shore,Cross-shore,Offshore,Offshore,Onshore",17
5842041f4e65fad6a77088af,2024_03_12,32.95916304183685,-117.26963,Del Mar,2.823529411764706,1.2452941176470589,1.4952941176470589,16,16,"MOSTLY_CLOUDY,CLEAR,CLEAR,NIGHT_CLOUDY,NIGHT_CLEAR,NIGHT_MOSTLY_CLOUDY,NIGHT_MOSTLY_CLOUDY,NIGHT_CLOUDY,NIGHT_CLOUDY,NIGHT_CLEAR,NIGHT_FOG,NIGHT_BRIEF_SHOWERS,NIGHT_FOG,NIGHT_FOG,FOG,MIST,CLEAR","Onshore,Onshore,Onshore,Onshore,Onshore,Offshore,Offshore,Offshore,Offshore,Offshore,Offshore,Offshore,Offshore,Cross-shore,Offshore,Offshore,Onshore",17
5842041f4e65fad6a77088b0,2024_03_12,32.97527261243354,-117.2721061331305,Del Mar Rivermouth,2.823529411764706,1.1923529411764706,1.4494117647058824,15.352941176470589,15.352941176470589,"MOSTLY_CLOUDY,CLEAR,CLEAR,NIGHT_CLOUDY,NIGHT_MOSTLY_CLOUDY,NIGHT_MOSTLY_CLOUDY,NIGHT_MOSTLY_CLOUDY,NIGHT_OVERCAST,NIGHT_CLOUDY,NIGHT_CLEAR,NIGHT_FOG,NIGHT_FOG,NIGHT_FOG,NIGHT_FOG,FOG,BRIEF_SHOWERS,MOSTLY_CLOUDY","Onshore,Onshore,Onshore,Onshore,Onshore,Cross-shore,Offshore,Offshore,Offshore,Offshore,Offshore,Offshore,Offshore,Cross-shore,Offshore,Offshore,Onshore",17
5842041f4e65fad6a77088b1,2024_03_12,33.01352178146273,-117.28219,Cardiff Reef,3,1.2354941176470589,1.6539607843137256,16,16,"MOSTLY_CLOUDY,CLEAR,CLEAR,NIGHT_CLEAR,NIGHT_CLOUDY,NIGHT_MOSTLY_CLOUDY,NIGHT_OVERCAST,NIGHT_OVERCAST,NIGHT_CLOUDY,NIGHT_MOSTLY_CLOUDY,NIGHT_MOSTLY_CLOUDY,NIGHT_FOG,NIGHT_FOG,NIGHT_FOG,FOG,BRIEF_SHOWERS,MOSTLY_CLOUDY","Onshore,Onshore,Onshore,Onshore,Cross-shore,Cross-shore,Cross-shore,Cross-shore,Cross-shore,Offshore,Offshore,Offshore,Offshore,Offshore,Cross-shore,Cross-shore,Cross-shore",17
5842041f4e65fad6a77088b3,2024_03_12,33.00211185876003,-117.2811,Seaside Reef,3,1.2054941176470588,1.5908235294117647,16,16,"MOSTLY_CLOUDY,CLEAR,CLEAR,NIGHT_CLOUDY,NIGHT_CLEAR,NIGHT_CLEAR,NIGHT_MOSTLY_CLOUDY,NIGHT_CLOUDY,NIGHT_CLOUDY,NIGHT_MOSTLY_CLOUDY,NIGHT_FOG,NIGHT_FOG,NIGHT_FOG,NIGHT_FOG,FOG,SHOWERS,MOSTLY_CLOUDY","Onshore,Onshore,Onshore,Onshore,Cross-shore,Cross-shore,Cross-shore,Cross-shore,Cross-shore,Offshore,Offshore,Offshore,Offshore,Offshore,Onshore,Cross-shore,Cross-shore",17
5842041f4e65fad6a77088b4,2024_03_12,33.0341859796287,-117.29552,Swami's,3.235294117647059,1.2551019607843137,1.5933882352941175,16,16,"MOSTLY_CLOUDY,CLEAR,CLEAR,NIGHT_CLEAR,NIGHT_CLOUDY,NIGHT_MOSTLY_CLOUDY,NIGHT_OVERCAST,NIGHT_OVERCAST,NIGHT_CLOUDY,NIGHT_MOSTLY_CLOUDY,NIGHT_MOSTLY_CLOUDY,NIGHT_FOG,NIGHT_FOG,NIGHT_FOG,FOG,BRIEF_SHOWERS,MOSTLY_CLOUDY","Onshore,Onshore,Onshore,Onshore,Onshore,Cross-shore,Offshore,Offshore,Offshore,Offshore,Offshore,Offshore,Offshore,Offshore,Cross-shore,Cross-shore,Onshore",17
5842041f4e65fad6a77088b7,2024_03_12,33.04569760260221,-117.2994,D Street,3.0588235294117645,1.1176470588235294,1.368235294117647,15,15,"MOSTLY_CLOUDY,MOSTLY_CLOUDY,CLEAR,NIGHT_CLEAR,NIGHT_CLEAR,NIGHT_MOSTLY_CLOUDY,NIGHT_OVERCAST,NIGHT_OVERCAST,NIGHT_CLOUDY,NIGHT_MOSTLY_CLOUDY,NIGHT_MOSTLY_CLOUDY,NIGHT_FOG,NIGHT_FOG,NIGHT_FOG,FOG,MIST,MOSTLY_CLEAR","Onshore,Onshore,Onshore,Onshore,Onshore,Cross-shore,Offshore,Offshore,Offshore,Offshore,Offshore,Offshore,Offshore,Offshore,Offshore,Onshore,Onshore",17
5842041f4e65fad6a77088b8,2024_03_12,33.02090944350196,-117.28535,San Elijo State Beach,2.99,0.9940235294117648,1.3650392156862745,16,16,"MOSTLY_CLOUDY,CLEAR,CLEAR,NIGHT_CLEAR,NIGHT_CLOUDY,NIGHT_MOSTLY_CLOUDY,NIGHT_OVERCAST,NIGHT_OVERCAST,NIGHT_CLOUDY,NIGHT_MOSTLY_CLOUDY,NIGHT_MOSTLY_CLOUDY,NIGHT_FOG,NIGHT_FOG,NIGHT_FOG,FOG,BRIEF_SHOWERS,MOSTLY_CLOUDY","Onshore,Onshore,Onshore,Onshore,Cross-shore,Cross-shore,Cross-shore,Cross-shore,Cross-shore,Offshore,Offshore,Offshore,Offshore,Offshore,Cross-shore,Cross-shore,Cross-shore",17
5842041f4e65fad6a77088c2,2024_03_12,32.80662846492798,-117.2688764333725,PB Point,3.3529411764705883,1.3358823529411765,1.6058823529411765,16,16,"MOSTLY_CLOUDY,MOSTLY_CLOUDY,MOSTLY_CLOUDY,NIGHT_OVERCAST,NIGHT_OVERCAST,NIGHT_MOSTLY_CLOUDY,NIGHT_MOSTLY_CLOUDY,NIGHT_MOSTLY_CLOUDY,NIGHT_FOG,NIGHT_FOG,NIGHT_FOG,NIGHT_FOG,NIGHT_FOG,NIGHT_FOG,FOG,MIST,MIST","Cross-shore,Cross-shore,Cross-shore,Cross-shore,Offshore,Offshore,Offshore,Offshore,Offshore,Cross-shore,Cross-shore,Offshore,Offshore,Onshore,Cross-shore,Cross-shore,Onshore",17
5842041f4e65fad6a77088c4,2024_03_12,32.8060476681448,-117.26479,Old Man's at Tourmaline,3.2941176470588234,1.0770588235294118,1.3111764705882352,16,16,"MOSTLY_CLOUDY,MOSTLY_CLOUDY,MOSTLY_CLOUDY,NIGHT_OVERCAST,NIGHT_OVERCAST,NIGHT_MOSTLY_CLOUDY,NIGHT_MOSTLY_CLOUDY,NIGHT_MOSTLY_CLOUDY,NIGHT_FOG,NIGHT_FOG,NIGHT_FOG,NIGHT_FOG,NIGHT_FOG,NIGHT_FOG,FOG,MIST,MIST","Cross-shore,Cross-shore,Cross-shore,Cross-shore,Offshore,Offshore,Offshore,Offshore,Offshore,Cross-shore,Cross-shore,Offshore,Offshore,Onshore,Cross-shore,Onshore,Cross-shore",17
5842041f4e65fad6a77088cb,2024_03_12,32.557056711256,-117.1327445020322,Tijuana Slough,2.764705882352941,1.003529411764706,1.2,15,15,"MOSTLY_CLEAR,CLEAR,CLEAR,NIGHT_OVERCAST,NIGHT_MOSTLY_CLOUDY,NIGHT_CLOUDY,NIGHT_OVERCAST,NIGHT_MOSTLY_CLOUDY,NIGHT_FOG,NIGHT_MOSTLY_CLOUDY,NIGHT_FOG,NIGHT_FOG,NIGHT_FOG,NIGHT_FOG,LIGHT_RAIN_AND_FOG,MIST,MOSTLY_CLOUDY","Onshore,Onshore,Cross-shore,Cross-shore,Cross-shore,Cross-shore,Cross-shore,Cross-shore,Offshore,Offshore,Offshore,Offshore,Offshore,Offshore,Offshore,Onshore,Onshore",17
5842041f4e65fad6a77088cc,2024_03_12,32.863,-117.257,La Jolla Shores,2.411764705882353,0.9841176470588235,1.2329411764705882,16,16,"MOSTLY_CLOUDY,MOSTLY_CLOUDY,CLEAR,NIGHT_CLOUDY,NIGHT_CLOUDY,NIGHT_MOSTLY_CLOUDY,NIGHT_MOSTLY_CLOUDY,NIGHT_OVERCAST,NIGHT_MOSTLY_CLOUDY,NIGHT_FOG,NIGHT_FOG,NIGHT_BRIEF_SHOWERS,NIGHT_LIGHT_RAIN_AND_FOG,NIGHT_FOG,FOG,MIST,MIST","Onshore,Onshore,Onshore,Onshore,Onshore,Onshore,Onshore,Onshore,Onshore,Cross-shore,Onshore,Onshore,Onshore,Onshore,Onshore,Onshore,Onshore",17
5842041f4e65fad6a77088ce,2024_03_12,32.67443657790586,-117.17421316238693,Coronado Beach,2.764705882352941,0.8394117647058823,1.098235294117647,15,15,"CLEAR,CLEAR,CLEAR,NIGHT_CLOUDY,NIGHT_OVERCAST,NIGHT_CLOUDY,NIGHT_CLOUDY,NIGHT_CLOUDY,NIGHT_FOG,NIGHT_FOG,NIGHT_FOG,NIGHT_MOSTLY_CLOUDY,NIGHT_OVERCAST,NIGHT_BRIEF_SHOWERS,FOG,BRIEF_SHOWERS,CLEAR","Cross-shore,Cross-shore,Offshore,Offshore,Offshore,Offshore,Offshore,Offshore,Offshore,Offshore,Cross-shore,Cross-shore,Cross-shore,Cross-shore,Cross-shore,Onshore,Cross-shore",17
5842041f4e65fad6a77088cf,2024_03_12,33.40484417640326,-117.60749,San Clemente State Beach,2.6470588235294117,0.8147058823529412,1.0611764705882354,15,15,"MOSTLY_CLEAR,CLEAR,CLEAR,NIGHT_MOSTLY_CLOUDY,NIGHT_MOSTLY_CLOUDY,NIGHT_MOSTLY_CLOUDY,NIGHT_MOSTLY_CLOUDY,NIGHT_MOSTLY_CLOUDY,NIGHT_CLEAR,NIGHT_MOSTLY_CLOUDY,NIGHT_BRIEF_SHOWERS,NIGHT_FOG,NIGHT_FOG,NIGHT_FOG,FOG,MIST,CLEAR","Onshore,Onshore,Onshore,Cross-shore,Cross-shore,Cross-shore,Offshore,Cross-shore,Cross-shore,Offshore,Onshore,Onshore,Onshore,Onshore,Onshore,Onshore,Onshore",17
5842041f4e65fad6a77088d5,2024_03_12,33.4663042002114,-117.7168352817103,Strands,3,1.029929411764706,1.3829333333333333,15,15,"CLEAR,CLEAR,CLEAR,NIGHT_MOSTLY_CLOUDY,NIGHT_MOSTLY_CLOUDY,NIGHT_MOSTLY_CLOUDY,NIGHT_MOSTLY_CLOUDY,NIGHT_FOG,NIGHT_FOG,NIGHT_LIGHT_RAIN_AND_FOG,NIGHT_FOG,NIGHT_FOG,NIGHT_FOG,NIGHT_MIST,MIST,MOSTLY_CLOUDY,BRIEF_SHOWERS","Onshore,Onshore,Onshore,Onshore,Cross-shore,Cross-shore,Onshore,Onshore,Onshore,Onshore,Onshore,Onshore,Onshore,Onshore,Onshore,Onshore,Onshore",17
5842041f4e65fad6a77088d7,2024_03_12,33.4609858001748,-117.68535,Doheny State Beach,2.0688235294117647,0.16711372549019607,0.46993333333333337,16,16,"CLEAR,CLEAR,MOSTLY_CLEAR,NIGHT_MOSTLY_CLOUDY,NIGHT_MOSTLY_CLOUDY,NIGHT_MOSTLY_CLOUDY,NIGHT_MOSTLY_CLOUDY,NIGHT_MOSTLY_CLOUDY,NIGHT_FOG,NIGHT_FOG,NIGHT_FOG,NIGHT_FOG,NIGHT_FOG,NIGHT_FOG,MIST,MIST,CLEAR","Onshore,Onshore,Onshore,Cross-shore,Cross-shore,Offshore,Offshore,Offshore,Offshore,Cross-shore,Offshore,Offshore,Offshore,Cross-shore,Onshore,Onshore,Onshore",17
5842041f4e65fad6a77088dc,2024_03_12,33.50894790083017,-117.75243,Aliso Creek,2.1176470588235294,0.6888235294117647,0.9929411764705882,15,15,"CLEAR,CLEAR,MOSTLY_CLEAR,NIGHT_MOSTLY_CLOUDY,NIGHT_CLEAR,NIGHT_CLEAR,NIGHT_CLEAR,NIGHT_FOG,NIGHT_FOG,NIGHT_LIGHT_RAIN,NIGHT_FOG,NIGHT_FOG,NIGHT_CLOUDY,NIGHT_MIST,MIST,MOSTLY_CLOUDY,MIST","Onshore,Onshore,Onshore,Cross-shore,Cross-shore,Cross-shore,Cross-shore,Onshore,Onshore,Onshore,Onshore,Onshore,Onshore,Onshore,Onshore,Onshore,Onshore",17
5842041f4e65fad6a77088dd,2024_03_12,33.5326591767067,-117.77764,Brooks Street,2.1176470588235294,0.46058823529411763,0.7635294117647059,15,15,"CLEAR,CLEAR,MOSTLY_CLEAR,NIGHT_CLEAR,NIGHT_MIST,NIGHT_CLEAR,NIGHT_CLEAR,NIGHT_FOG,NIGHT_CLOUDY,NIGHT_MIST,NIGHT_FOG,NIGHT_CLOUDY,NIGHT_CLOUDY,NIGHT_OVERCAST,MIST,MIST,MIST","Onshore,Onshore,Onshore,Cross-shore,Cross-shore,Cross-shore,Cross-shore,Onshore,Cross-shore,Onshore,Cross-shore,Onshore,Onshore,Onshore,Onshore,Onshore,Onshore",17
5842041f4e65fad6a77088de,2024_03_12,33.53561225884637,-117.7799,Thalia Street,2.0588235294117645,0.5117647058823529,0.8152941176470588,15,15,"CLEAR,CLEAR,MOSTLY_CLEAR,NIGHT_CLEAR,NIGHT_CLEAR,NIGHT_CLEAR,NIGHT_CLEAR,NIGHT_FOG,NIGHT_CLOUDY,NIGHT_MIST,NIGHT_FOG,NIGHT_CLOUDY,NIGHT_CLOUDY,NIGHT_OVERCAST,MIST,MIST,MIST","Onshore,Onshore,Onshore,Cross-shore,Cross-shore,Cross-shore,Cross-shore,Onshore,Cross-shore,Onshore,Cross-shore,Onshore,Onshore,Onshore,Onshore,Onshore,Onshore",17
5842041f4e65fad6a77088e3,2024_03_12,33.54268310353641,-117.7916,Rockpile,2.9411764705882355,0.8941176470588236,1.0876470588235294,15,15,"CLEAR,CLEAR,MOSTLY_CLEAR,NIGHT_CLEAR,NIGHT_MIST,NIGHT_CLEAR,NIGHT_CLEAR,NIGHT_FOG,NIGHT_CLOUDY,NIGHT_MIST,NIGHT_FOG,NIGHT_CLOUDY,NIGHT_CLOUDY,NIGHT_OVERCAST,MIST,MIST,MIST","Onshore,Onshore,Cross-shore,Cross-shore,Cross-shore,Cross-shore,Cross-shore,Cross-shore,Cross-shore,Cross-shore,Cross-shore,Cross-shore,Onshore,Onshore,Onshore,Onshore,Onshore",17
5842041f4e65fad6a77088e4,2024_03_12,33.7368459504689,-118.10342,"Seal Beach Pier, Southside",1.5294117647058822,0.22294117647058823,0.5276470588235295,15,15,"CLEAR,CLEAR,CLEAR,NIGHT_MOSTLY_CLEAR,NIGHT_MOSTLY_CLEAR,NIGHT_CLEAR,NIGHT_CLEAR,NIGHT_CLEAR,NIGHT_CLOUDY,NIGHT_FOG,NIGHT_MOSTLY_CLOUDY,NIGHT_MOSTLY_CLOUDY,NIGHT_MIST,NIGHT_MOSTLY_CLOUDY,MOSTLY_CLOUDY,CLEAR,MOSTLY_CLOUDY","Onshore,Onshore,Onshore,Onshore,Onshore,Onshore,Onshore,Cross-shore,Onshore,Onshore,Onshore,Onshore,Cross-shore,Cross-shore,Offshore,Offshore,Onshore",17
5842041f4e65fad6a77088e5,2024_03_12,33.73933701820233,-118.117,Ray Bay,1.588235294117647,0.23,0.5335294117647059,15,15,"CLEAR,CLEAR,CLEAR,NIGHT_MOSTLY_CLEAR,NIGHT_CLEAR,NIGHT_MOSTLY_CLEAR,NIGHT_CLEAR,NIGHT_MOSTLY_CLOUDY,NIGHT_CLOUDY,NIGHT_FOG,NIGHT_MOSTLY_CLOUDY,NIGHT_MOSTLY_CLOUDY,NIGHT_BRIEF_SHOWERS,NIGHT_MIST,MIST,CLOUDY,MOSTLY_CLOUDY","Onshore,Onshore,Onshore,Onshore,Onshore,Onshore,Onshore,Onshore,Onshore,Onshore,Onshore,Onshore,Cross-shore,Cross-shore,Offshore,Offshore,Onshore",17
5842041f4e65fad6a77088e7,2024_03_12,33.728733,-118.08982,Surfside,2.5294117647058822,0.7123529411764706,0.9682352941176471,15.352941176470589,15.352941176470589,"CLEAR,CLEAR,CLEAR,NIGHT_MOSTLY_CLEAR,NIGHT_MOSTLY_CLOUDY,NIGHT_MOSTLY_CLOUDY,NIGHT_MOSTLY_CLEAR,NIGHT_CLEAR,NIGHT_OVERCAST,NIGHT_FOG,NIGHT_MOSTLY_CLOUDY,NIGHT_MOSTLY_CLOUDY,NIGHT_MOSTLY_CLOUDY,NIGHT_MOSTLY_CLOUDY,MOSTLY_CLOUDY,OVERCAST,MOSTLY_CLOUDY","Onshore,Onshore,Onshore,Onshore,Onshore,Onshore,Onshore,Onshore,Onshore,Onshore,Onshore,Onshore,Cross-shore,Cross-shore,Offshore,Offshore,Onshore",17
5842041f4e65fad6a77088e8,2024_03_12,33.68760321488161,-118.04236,Bolsa Chica State Beach,2.391764705882353,1.0859725490196077,1.3582901960784313,15,15,"CLEAR,CLEAR,CLEAR,NIGHT_CLEAR,NIGHT_MOSTLY_CLOUDY,NIGHT_BRIEF_SHOWERS,NIGHT_MOSTLY_CLOUDY,NIGHT_MOSTLY_CLOUDY,NIGHT_CLOUDY,NIGHT_FOG,NIGHT_OVERCAST,NIGHT_MOSTLY_CLOUDY,NIGHT_OVERCAST,NIGHT_OVERCAST,OVERCAST,OVERCAST,MOSTLY_CLOUDY","Onshore,Onshore,Onshore,Onshore,Onshore,Onshore,Onshore,Onshore,Onshore,Onshore,Onshore,Onshore,Onshore,Onshore,Onshore,Onshore,Onshore",17
5842041f4e65fad6a77088ea,2024_03_12,33.66704400178788,-118.0192,North HB Streets,2.215294117647059,1.0790117647058823,1.3994,15,15,"CLEAR,CLEAR,CLEAR,NIGHT_CLEAR,NIGHT_CLEAR,NIGHT_MOSTLY_CLEAR,NIGHT_MOSTLY_CLOUDY,NIGHT_CLEAR,NIGHT_OVERCAST,NIGHT_FOG,NIGHT_CLOUDY,NIGHT_CLOUDY,NIGHT_OVERCAST,NIGHT_OVERCAST,MIST,OVERCAST,MIST","Onshore,Onshore,Onshore,Onshore,Cross-shore,Cross-shore,Onshore,Onshore,Onshore,Onshore,Onshore,Onshore,Onshore,Onshore,Onshore,Onshore,Onshore",17
5842041f4e65fad6a77088ed,2024_03_12,33.65475101379567,-118.00291,Huntington Beach Pier Southside,1.99,1.059164705882353,1.3955058823529412,15,15,"CLEAR,CLEAR,CLEAR,NIGHT_MOSTLY_CLEAR,NIGHT_CLEAR,NIGHT_CLEAR,NIGHT_MOSTLY_CLOUDY,NIGHT_MOSTLY_CLOUDY,NIGHT_FOG,NIGHT_FOG,NIGHT_FOG,NIGHT_OVERCAST,NIGHT_OVERCAST,NIGHT_OVERCAST,MIST,MIST,MOSTLY_CLOUDY","Onshore,Onshore,Onshore,Onshore,Onshore,Onshore,Onshore,Onshore,Onshore,Onshore,Onshore,Onshore,Onshore,Onshore,Onshore,Offshore,Onshore",17
5842041f4e65fad6a77088ee,2024_03_12,33.62778647706099,-117.95939,River Jetties,1.99,0.9379333333333334,1.2896941176470589,15,15,"CLEAR,CLEAR,MOSTLY_CLEAR,NIGHT_CLEAR,NIGHT_MOSTLY_CLOUDY,NIGHT_CLEAR,NIGHT_MOSTLY_CLOUDY,NIGHT_MOSTLY_CLOUDY,NIGHT_MIST,NIGHT_FOG,NIGHT_OVERCAST,NIGHT_OVERCAST,NIGHT_OVERCAST,NIGHT_OVERCAST,OVERCAST,MIST,MOSTLY_CLOUDY","Onshore,Onshore,Onshore,Onshore,Onshore,Onshore,Onshore,Onshore,Onshore,Onshore,Onshore,Onshore,Onshore,Onshore,Onshore,Cross-shore,Onshore",17
5842041f4e65fad6a77088f2,2024_03_12,33.605165797643664,-117.92500376701355,Newport Point,2.2941176470588234,0.7405882352941177,1.0223529411764707,15.352941176470589,15.352941176470589,"CLEAR,CLEAR,CLEAR,NIGHT_CLEAR,NIGHT_CLEAR,NIGHT_CLEAR,NIGHT_FOG,NIGHT_MOSTLY_CLOUDY,NIGHT_DRIZZLE,NIGHT_FOG,NIGHT_CLOUDY,NIGHT_CLOUDY,NIGHT_CLOUDY,NIGHT_CLOUDY,DRIZZLE,MIST,MIST","Onshore,Onshore,Cross-shore,Cross-shore,Cross-shore,Cross-shore,Onshore,Cross-shore,Cross-shore,Cross-shore,Cross-shore,Onshore,Onshore,Onshore,Onshore,Onshore,Onshore",17
5842041f4e65fad6a77088f3,2024_03_12,33.58982984726977,-117.87713,Corona del Mar,2,0.26675529411764703,0.4168047058823529,15,15,"CLEAR,CLEAR,MOSTLY_CLEAR,NIGHT_CLEAR,NIGHT_CLEAR,NIGHT_MOSTLY_CLEAR,NIGHT_FOG,NIGHT_MOSTLY_CLOUDY,NIGHT_MIST,NIGHT_FOG,NIGHT_FOG,NIGHT_CLOUDY,NIGHT_CLOUDY,NIGHT_OVERCAST,MIST,MIST,MOSTLY_CLOUDY","Onshore,Onshore,Onshore,Onshore,Onshore,Onshore,Onshore,Onshore,Onshore,Onshore,Onshore,Cross-shore,Onshore,Offshore,Offshore,Offshore,Onshore",17
5842041f4e65fad6a77088f7,2024_03_12,34.00750300824362,-118.4971783496269,Santa Monica Pier,2.176470588235294,0.45882352941176474,0.7623529411764706,15,15,"MOSTLY_CLEAR,CLEAR,CLEAR,NIGHT_CLEAR,NIGHT_CLEAR,NIGHT_CLEAR,NIGHT_CLEAR,NIGHT_MIST,NIGHT_MIST,NIGHT_CLEAR,NIGHT_MOSTLY_CLOUDY,NIGHT_MOSTLY_CLOUDY,NIGHT_OVERCAST,NIGHT_DRIZZLE,DRIZZLE,MOSTLY_CLOUDY,MOSTLY_CLOUDY","Onshore,Onshore,Onshore,Onshore,Onshore,Onshore,Onshore,Onshore,Onshore,Onshore,Onshore,Onshore,Onshore,Cross-shore,Offshore,Cross-shore,Onshore",17
5842041f4e65fad6a77088ff,2024_03_12,33.94070283102945,-118.44321,Dockweiler Beach,2.117058823529412,0.8465589215686274,1.1403762745098038,14,14,"CLEAR,CLEAR,CLEAR,NIGHT_MOSTLY_CLOUDY,NIGHT_CLEAR,NIGHT_MOSTLY_CLEAR,NIGHT_MOSTLY_CLOUDY,NIGHT_CLOUDY,NIGHT_CLOUDY,NIGHT_CLOUDY,NIGHT_MOSTLY_CLOUDY,NIGHT_OVERCAST,NIGHT_MIST,NIGHT_MIST,OVERCAST,CLOUDY,CLEAR","Onshore,Onshore,Onshore,Onshore,Onshore,Onshore,Onshore,Onshore,Onshore,Onshore,Onshore,Onshore,Onshore,Cross-shore,Offshore,Onshore,Onshore",17
5842041f4e65fad6a7708900,2024_03_12,33.9231846937237,-118.4341465777908,Shitpipe,2.0094117647058822,0.7743490196078432,1.1140078431372549,14,14,"CLEAR,CLEAR,CLEAR,NIGHT_CLEAR,NIGHT_CLEAR,NIGHT_CLEAR,NIGHT_BRIEF_SHOWERS,NIGHT_CLOUDY,NIGHT_MIST,NIGHT_CLOUDY,NIGHT_CLOUDY,NIGHT_OVERCAST,NIGHT_OVERCAST,NIGHT_OVERCAST,OVERCAST,CLOUDY,MOSTLY_CLOUDY","Onshore,Onshore,Onshore,Onshore,Onshore,Onshore,Onshore,Onshore,Onshore,Onshore,Onshore,Onshore,Onshore,Onshore,Cross-shore,Onshore,Onshore",17
5842041f4e65fad6a7708902,2024_03_12,33.9108528052242,-118.4279133138721,Hammerland,2.1270588235294117,0.9540235294117647,1.2833882352941175,14,14,"CLEAR,CLEAR,CLEAR,NIGHT_CLEAR,NIGHT_CLEAR,NIGHT_CLEAR,NIGHT_BRIEF_SHOWERS,NIGHT_CLOUDY,NIGHT_MIST,NIGHT_CLOUDY,NIGHT_CLOUDY,NIGHT_OVERCAST,NIGHT_OVERCAST,NIGHT_OVERCAST,OVERCAST,CLOUDY,MOSTLY_CLOUDY","Onshore,Onshore,Onshore,Onshore,Onshore,Onshore,Onshore,Onshore,Onshore,Onshore,Onshore,Onshore,Onshore,Onshore,Cross-shore,Onshore,Onshore",17
5842041f4e65fad6a7708904,2024_03_12,33.87201368173932,-118.4075151286262,Hermosa Beach,1.8329411764705883,0.7018,0.9917686274509804,14,14,"CLEAR,CLEAR,MOSTLY_CLEAR,NIGHT_MOSTLY_CLOUDY,NIGHT_MOSTLY_CLEAR,NIGHT_MOSTLY_CLEAR,NIGHT_MOSTLY_CLOUDY,NIGHT_CLEAR,NIGHT_CLOUDY,NIGHT_CLOUDY,NIGHT_CLOUDY,NIGHT_OVERCAST,NIGHT_OVERCAST,NIGHT_DRIZZLE,CLOUDY,CLOUDY,MOSTLY_CLOUDY","Onshore,Onshore,Onshore,Onshore,Onshore,Onshore,Onshore,Onshore,Onshore,Onshore,Onshore,Onshore,Onshore,Onshore,Cross-shore,Onshore,Onshore",17
5842041f4e65fad6a7708906,2024_03_12,33.90129336911256,-118.42184,El Porto,2.117058823529412,1.1920627450980392,1.543486274509804,14,14,"CLEAR,CLEAR,CLEAR,NIGHT_MOSTLY_CLOUDY,NIGHT_CLEAR,NIGHT_CLEAR,NIGHT_MOSTLY_CLOUDY,NIGHT_OVERCAST,NIGHT_MIST,NIGHT_CLOUDY,NIGHT_CLOUDY,NIGHT_OVERCAST,NIGHT_OVERCAST,NIGHT_OVERCAST,OVERCAST,CLOUDY,MOSTLY_CLOUDY","Onshore,Onshore,Onshore,Onshore,Onshore,Onshore,Onshore,Onshore,Onshore,Onshore,Onshore,Onshore,Onshore,Onshore,Cross-shore,Onshore,Onshore",17
5842041f4e65fad6a7708907,2024_03_12,33.87963506431794,-118.41102,Manhattan Beach Pier,2.117058823529412,1.1550039215686274,1.402913725490196,14,14,"CLEAR,CLEAR,CLEAR,NIGHT_MOSTLY_CLOUDY,NIGHT_CLEAR,NIGHT_CLEAR,NIGHT_MOSTLY_CLOUDY,NIGHT_OVERCAST,NIGHT_MIST,NIGHT_CLOUDY,NIGHT_CLOUDY,NIGHT_OVERCAST,NIGHT_OVERCAST,NIGHT_OVERCAST,OVERCAST,CLOUDY,MOSTLY_CLOUDY","Onshore,Onshore,Onshore,Onshore,Onshore,Onshore,Onshore,Onshore,Onshore,Onshore,Onshore,Onshore,Onshore,Onshore,Cross-shore,Onshore,Onshore",17
5842041f4e65fad6a7708914,2024_03_12,34.038053387863464,-118.5532,Sunset Point,1.7647058823529411,0.24588235294117647,0.5494117647058824,15,15,"CLEAR,CLEAR,CLEAR,NIGHT_CLEAR,NIGHT_CLEAR,NIGHT_CLEAR,NIGHT_CLEAR,NIGHT_MIST,NIGHT_MOSTLY_CLOUDY,NIGHT_CLEAR,NIGHT_CLEAR,NIGHT_MOSTLY_CLOUDY,NIGHT_MOSTLY_CLOUDY,NIGHT_MIST,MIST,CLEAR,CLEAR","Onshore,Onshore,Onshore,Onshore,Offshore,Offshore,Offshore,Cross-shore,Offshore,Offshore,Offshore,Offshore,Offshore,Offshore,Offshore,Cross-shore,Cross-shore",17
5842041f4e65fad6a7708920,2024_03_12,33.80930828074364,-118.3933198342649,Haggerty's,1.3529411764705883,0.21882352941176472,0.4016470588235294,15.352941176470589,15.352941176470589,"CLEAR,CLEAR,MOSTLY_CLEAR,NIGHT_MOSTLY_CLOUDY,NIGHT_MOSTLY_CLOUDY,NIGHT_MOSTLY_CLEAR,NIGHT_MOSTLY_CLOUDY,NIGHT_CLOUDY,NIGHT_CLOUDY,NIGHT_CLOUDY,NIGHT_CLOUDY,NIGHT_MIST,NIGHT_DRIZZLE,NIGHT_CLOUDY,CLOUDY,MIST,CLEAR","Onshore,Onshore,Onshore,Onshore,Onshore,Onshore,Onshore,Onshore,Onshore,Onshore,Onshore,Onshore,Onshore,Cross-shore,Cross-shore,Onshore,Cross-shore",17
5842041f4e65fad6a7708921,2024_03_12,33.85044519861206,-118.40048,Redondo Breakwater,2.6470588235294117,1.1241176470588234,1.3747058823529412,16,16,"CLEAR,CLEAR,MOSTLY_CLEAR,NIGHT_MOSTLY_CLOUDY,NIGHT_MOSTLY_CLEAR,NIGHT_MOSTLY_CLEAR,NIGHT_MOSTLY_CLOUDY,NIGHT_CLEAR,NIGHT_CLOUDY,NIGHT_CLOUDY,NIGHT_CLOUDY,NIGHT_OVERCAST,NIGHT_OVERCAST,NIGHT_DRIZZLE,CLOUDY,CLOUDY,MOSTLY_CLOUDY","Onshore,Onshore,Onshore,Onshore,Onshore,Onshore,Onshore,Onshore,Onshore,Onshore,Onshore,Onshore,Onshore,Onshore,Cross-shore,Onshore,Onshore",17
5842041f4e65fad6a7708927,2024_03_12,33.70877301002487,-118.2840112858389,Cabrillo Beach,2,0.10235294117647059,0.40705882352941175,15,15,"CLEAR,CLEAR,CLEAR,NIGHT_MOSTLY_CLEAR,NIGHT_MOSTLY_CLOUDY,NIGHT_MOSTLY_CLEAR,NIGHT_CLEAR,NIGHT_MIST,NIGHT_OVERCAST,NIGHT_MOSTLY_CLOUDY,NIGHT_OVERCAST,NIGHT_OVERCAST,NIGHT_OVERCAST,NIGHT_DRIZZLE,DRIZZLE,OVERCAST,MOSTLY_CLOUDY","Cross-shore,Offshore,Offshore,Offshore,Offshore,Offshore,Offshore,Cross-shore,Offshore,Offshore,Offshore,Cross-shore,Cross-shore,Cross-shore,Onshore,Cross-shore,Onshore",17
5842041f4e65fad6a770892c,2024_03_12,33.77209986806257,-118.4268428476672,Lunada Bay,1.5294117647058822,1.0205882352941176,1.2558823529411764,15,15,"MOSTLY_CLEAR,CLEAR,CLEAR,NIGHT_MOSTLY_CLOUDY,NIGHT_MOSTLY_CLOUDY,NIGHT_MOSTLY_CLEAR,NIGHT_MOSTLY_CLOUDY,NIGHT_MOSTLY_CLOUDY,NIGHT_OVERCAST,NIGHT_CLOUDY,NIGHT_CLOUDY,NIGHT_OVERCAST,NIGHT_DRIZZLE,NIGHT_OVERCAST,CLOUDY,CLOUDY,MOSTLY_CLOUDY","Onshore,Onshore,Onshore,Onshore,Onshore,Onshore,Onshore,Onshore,Onshore,Cross-shore,Onshore,Onshore,Onshore,Onshore,Onshore,Onshore,Onshore",17
5842041f4e65fad6a770892d,2024_03_12,33.79294656286144,-118.4070316699825,PV Cove,1.9411764705882353,0.780064705882353,1.0339464705882353,15.352941176470589,15.352941176470589,"CLEAR,CLEAR,MOSTLY_CLEAR,NIGHT_MOSTLY_CLOUDY,NIGHT_MOSTLY_CLOUDY,NIGHT_MOSTLY_CLEAR,NIGHT_MOSTLY_CLOUDY,NIGHT_CLOUDY,NIGHT_CLOUDY,NIGHT_CLOUDY,NIGHT_CLOUDY,NIGHT_MIST,NIGHT_DRIZZLE,NIGHT_CLOUDY,CLOUDY,MIST,CLEAR","Onshore,Onshore,Onshore,Onshore,Onshore,Onshore,Onshore,Onshore,Onshore,Onshore,Onshore,Onshore,Onshore,Cross-shore,Cross-shore,Onshore,Cross-shore",17
5842041f4e65fad6a7708930,2024_03_12,34.03944902292561,-118.57539,Chart House,1.588235294117647,0.0888235294117647,0.39235294117647057,15,15,"MOSTLY_CLEAR,MOSTLY_CLEAR,MOSTLY_CLEAR,NIGHT_CLEAR,NIGHT_CLEAR,NIGHT_CLEAR,NIGHT_CLEAR,NIGHT_CLEAR,NIGHT_MOSTLY_CLOUDY,NIGHT_MOSTLY_CLOUDY,NIGHT_MIST,NIGHT_FOG,NIGHT_FOG,NIGHT_FOG,CLOUDY,MIST,MIST","Cross-shore,Onshore,Onshore,Onshore,Offshore,Offshore,Offshore,Cross-shore,Offshore,Cross-shore,Cross-shore,Offshore,Offshore,Offshore,Offshore,Cross-shore,Cross-shore",17
5842041f4e65fad6a7708936,2024_03_12,34.0016731994772,-118.80456,Point Dume,2.157058823529412,0.38190980392156865,0.6870901960784314,15,15,"CLEAR,CLEAR,CLEAR,NIGHT_CLEAR,NIGHT_CLEAR,NIGHT_CLEAR,NIGHT_MOSTLY_CLOUDY,NIGHT_BRIEF_SHOWERS,NIGHT_BRIEF_SHOWERS,NIGHT_MOSTLY_CLOUDY,NIGHT_MOSTLY_CLOUDY,NIGHT_MOSTLY_CLOUDY,NIGHT_MOSTLY_CLOUDY,NIGHT_MOSTLY_CLOUDY,MIST,MOSTLY_CLEAR,MIST","Cross-shore,Cross-shore,Cross-shore,Offshore,Offshore,Offshore,Cross-shore,Cross-shore,Offshore,Offshore,Offshore,Onshore,Onshore,Cross-shore,Cross-shore,Cross-shore,Onshore",17
5842041f4e65fad6a7708937,2024_03_12,34.02587527588963,-118.7554939066114,Latigo Point,2.235294117647059,0.32823529411764707,0.6323529411764706,15,15,"CLEAR,CLEAR,CLEAR,NIGHT_CLEAR,NIGHT_CLEAR,NIGHT_CLEAR,NIGHT_CLEAR,NIGHT_CLEAR,NIGHT_CLEAR,NIGHT_CLEAR,NIGHT_CLEAR,NIGHT_MOSTLY_CLOUDY,NIGHT_MIST,NIGHT_MIST,MIST,MOSTLY_CLEAR,MIST","Cross-shore,Cross-shore,Offshore,Offshore,Offshore,Offshore,Cross-shore,Cross-shore,Offshore,Offshore,Cross-shore,Onshore,Onshore,Cross-shore,Cross-shore,Cross-shore,Onshore",17
5842041f4e65fad6a770893f,2024_03_12,34.043762,-118.93294,Leo Carrillo,2.568235294117647,0.6178117647058824,0.9696411764705882,15,15,"CLEAR,CLEAR,CLEAR,NIGHT_CLEAR,NIGHT_MOSTLY_CLEAR,NIGHT_MIST,NIGHT_MIST,NIGHT_CLEAR,NIGHT_CLEAR,NIGHT_CLEAR,NIGHT_CLEAR,NIGHT_CLEAR,NIGHT_CLEAR,NIGHT_CLEAR,MOSTLY_CLEAR,CLEAR,MIST","Cross-shore,Cross-shore,Cross-shore,Offshore,Offshore,Offshore,Offshore,Offshore,Offshore,Offshore,Offshore,Offshore,Offshore,Offshore,Offshore,Offshore,Onshore",17
5842041f4e65fad6a7708941,2024_03_12,36.69388179265737,-121.81289,Marina State Beach,2.5294117647058822,2.5523529411764705,3.014705882352941,13,13,"MOSTLY_CLOUDY,MOSTLY_CLOUDY,BRIEF_SHOWERS,CLOUDY,NIGHT_MOSTLY_CLOUDY,NIGHT_OVERCAST,NIGHT_MOSTLY_CLOUDY,NIGHT_MOSTLY_CLOUDY,NIGHT_OVERCAST,NIGHT_OVERCAST,NIGHT_CLEAR,NIGHT_MOSTLY_CLOUDY,NIGHT_DRIZZLE,NIGHT_OVERCAST,OVERCAST,MOSTLY_CLOUDY,BRIEF_SHOWERS","Onshore,Onshore,Onshore,Onshore,Onshore,Onshore,Onshore,Onshore,Onshore,Onshore,Cross-shore,Offshore,Offshore,Offshore,Offshore,Offshore,Onshore",17
5842041f4e65fad6a7708944,2024_03_12,34.34145077331085,-119.416999352654,Stanley's,2.4705882352941178,0.5429411764705883,0.8488235294117648,14,14,"CLEAR,CLEAR,MOSTLY_CLEAR,MOSTLY_CLEAR,NIGHT_CLOUDY,NIGHT_MIST,NIGHT_CLEAR,NIGHT_CLEAR,NIGHT_MIST,NIGHT_MIST,NIGHT_MIST,NIGHT_MIST,NIGHT_BRIEF_SHOWERS,NIGHT_MIST,MOSTLY_CLOUDY,CLEAR,CLEAR","Onshore,Onshore,Onshore,Onshore,Onshore,Onshore,Onshore,Onshore,Offshore,Offshore,Cross-shore,Cross-shore,Cross-shore,Offshore,Offshore,Cross-shore,Onshore",17
5842041f4e65fad6a7708945,2024_03_12,34.35113017313915,-119.426921498899,Oil Piers,2.3529411764705883,0.49117647058823527,0.7958823529411765,14,14,"CLEAR,CLEAR,MOSTLY_CLEAR,MOSTLY_CLEAR,NIGHT_CLEAR,NIGHT_MIST,NIGHT_CLEAR,NIGHT_CLEAR,NIGHT_MIST,NIGHT_MIST,NIGHT_MIST,NIGHT_MIST,NIGHT_BRIEF_SHOWERS,NIGHT_MIST,MOSTLY_CLOUDY,CLEAR,CLEAR","Onshore,Onshore,Onshore,Onshore,Onshore,Cross-shore,Onshore,Onshore,Offshore,Cross-shore,Onshore,Onshore,Cross-shore,Cross-shore,Offshore,Onshore,Onshore",17
5842041f4e65fad6a770894c,2024_03_12,34.17876333306018,-119.2399483564372,Oxnard,2.4705882352941178,0.9947058823529412,1.2405882352941178,14,14,"CLEAR,CLEAR,CLEAR,CLEAR,NIGHT_MOSTLY_CLOUDY,NIGHT_CLEAR,NIGHT_CLEAR,NIGHT_CLEAR,NIGHT_CLEAR,NIGHT_CLEAR,NIGHT_MIST,NIGHT_FOG,NIGHT_MIST,NIGHT_MIST,MIST,CLEAR,CLEAR","Onshore,Onshore,Onshore,Onshore,Onshore,Onshore,Onshore,Onshore,Onshore,Cross-shore,Offshore,Offshore,Offshore,Offshore,Offshore,Offshore,Onshore",17
5842041f4e65fad6a7708957,2024_03_12,34.31720331100517,-119.3882324751725,Pitas Point,2.3529411764705883,0.5541176470588235,0.8576470588235294,14,14,"MIST,CLEAR,CLEAR,MOSTLY_CLEAR,NIGHT_OVERCAST,NIGHT_CLEAR,NIGHT_CLEAR,NIGHT_CLEAR,NIGHT_CLEAR,NIGHT_CLEAR,NIGHT_CLEAR,NIGHT_MOSTLY_CLEAR,NIGHT_MOSTLY_CLEAR,NIGHT_CLEAR,CLEAR,CLEAR,MIST","Onshore,Cross-shore,Cross-shore,Cross-shore,Cross-shore,Cross-shore,Cross-shore,Cross-shore,Offshore,Offshore,Offshore,Offshore,Offshore,Offshore,Cross-shore,Onshore,Onshore",17
5842041f4e65fad6a7708959,2024_03_12,34.27851754384724,-119.316202617226,Emma Wood,2.1176470588235294,0.4829411764705882,0.788235294117647,14,14,"MIST,MIST,MOSTLY_CLEAR,MOSTLY_CLEAR,NIGHT_CLEAR,NIGHT_CLEAR,NIGHT_CLEAR,NIGHT_CLEAR,NIGHT_CLEAR,NIGHT_CLEAR,NIGHT_CLEAR,NIGHT_CLEAR,NIGHT_CLEAR,NIGHT_MIST,MIST,CLEAR,MIST","Onshore,Onshore,Onshore,Onshore,Onshore,Onshore,Onshore,Offshore,Offshore,Offshore,Offshore,Offshore,Offshore,Offshore,Offshore,Offshore,Onshore",17
5842041f4e65fad6a770895a,2024_03_12,34.35513640390276,-119.4400589884255,Mussel Shoals (aka Little Rincon),2.588235294117647,0.6858823529411765,0.9558823529411765,14,14,"MIST,CLEAR,MOSTLY_CLEAR,CLEAR,NIGHT_CLEAR,NIGHT_CLEAR,NIGHT_CLEAR,NIGHT_CLEAR,NIGHT_CLEAR,NIGHT_CLEAR,NIGHT_CLEAR,NIGHT_CLEAR,NIGHT_CLEAR,NIGHT_MOSTLY_CLEAR,CLEAR,CLEAR,CLEAR","Onshore,Cross-shore,Onshore,Onshore,Cross-shore,Cross-shore,Onshore,Onshore,Cross-shore,Cross-shore,Onshore,Onshore,Cross-shore,Cross-shore,Offshore,Onshore,Onshore",17
5842041f4e65fad6a770895e,2024_03_12,34.28991757054902,-119.3366646794652,Summer Beach,2,0.34058823529411764,0.6464705882352941,14,14,"MIST,MIST,MOSTLY_CLEAR,MOSTLY_CLEAR,NIGHT_MOSTLY_CLOUDY,NIGHT_CLEAR,NIGHT_CLEAR,NIGHT_CLEAR,NIGHT_CLEAR,NIGHT_CLEAR,NIGHT_CLEAR,NIGHT_CLEAR,NIGHT_CLEAR,NIGHT_MIST,MIST,CLEAR,MIST","Onshore,Onshore,Onshore,Onshore,Onshore,Onshore,Onshore,Offshore,Offshore,Offshore,Offshore,Offshore,Offshore,Offshore,Offshore,Offshore,Onshore",17
5842041f4e65fad6a770895f,2024_03_12,34.30897456105926,-119.3582501170116,Solimar,2.235294117647059,0.37588235294117645,0.6811764705882353,14,14,"MIST,CLEAR,CLEAR,MOSTLY_CLEAR,NIGHT_OVERCAST,NIGHT_CLEAR,NIGHT_CLEAR,NIGHT_CLEAR,NIGHT_CLEAR,NIGHT_CLEAR,NIGHT_CLEAR,NIGHT_MOSTLY_CLEAR,NIGHT_MOSTLY_CLEAR,NIGHT_CLEAR,CLEAR,CLEAR,MIST","Onshore,Cross-shore,Cross-shore,Onshore,Cross-shore,Cross-shore,Cross-shore,Cross-shore,Offshore,Offshore,Offshore,Offshore,Offshore,Offshore,Cross-shore,Onshore,Onshore",17
5842041f4e65fad6a7708960,2024_03_12,34.39836265281686,-119.70213,Leadbetter Point,1.8235294117647058,0.061764705882352944,0.36941176470588233,14,14,"CLEAR,CLEAR,CLEAR,CLEAR,NIGHT_CLEAR,NIGHT_CLEAR,NIGHT_CLEAR,NIGHT_CLEAR,NIGHT_CLEAR,NIGHT_CLEAR,NIGHT_CLEAR,NIGHT_CLEAR,NIGHT_CLEAR,NIGHT_CLEAR,CLEAR,MIST,CLEAR","Offshore,Offshore,Offshore,Offshore,Offshore,Cross-shore,Offshore,Offshore,Offshore,Offshore,Offshore,Offshore,Cross-shore,Offshore,Offshore,Cross-shore,Onshore",17
5842041f4e65fad6a7708961,2024_03_12,34.46052293893899,-120.07328,Refugio,1,0.0911764705882353,0.3982352941176471,14,14,"CLEAR,CLEAR,CLEAR,CLEAR,NIGHT_CLEAR,NIGHT_CLEAR,NIGHT_CLEAR,NIGHT_CLEAR,NIGHT_CLEAR,NIGHT_CLEAR,NIGHT_CLEAR,NIGHT_CLEAR,NIGHT_CLEAR,NIGHT_CLEAR,CLEAR,CLEAR,CLEAR","Offshore,Offshore,Offshore,Offshore,Offshore,Offshore,Offshore,Offshore,Offshore,Offshore,Offshore,Offshore,Offshore,Offshore,Offshore,Offshore,Offshore",17
5842041f4e65fad6a7708962,2024_03_12,34.40754276777778,-119.87639,Devereux,2.6470588235294117,0.48764705882352943,0.7905882352941177,14,14,"MIST,CLEAR,CLEAR,CLEAR,NIGHT_CLEAR,NIGHT_CLEAR,NIGHT_CLEAR,NIGHT_CLEAR,NIGHT_CLEAR,NIGHT_CLEAR,NIGHT_CLEAR,NIGHT_CLEAR,NIGHT_CLEAR,NIGHT_CLEAR,CLEAR,CLEAR,CLEAR","Cross-shore,Offshore,Offshore,Offshore,Offshore,Offshore,Offshore,Offshore,Offshore,Offshore,Offshore,Offshore,Offshore,Offshore,Offshore,Offshore,Cross-shore",17
5842041f4e65fad6a7708963,2024_03_12,34.27479983305182,-119.3133222656776,Ventura Overhead,2.2941176470588234,0.5217647058823529,0.8258823529411765,14,14,"MIST,MIST,CLEAR,MOSTLY_CLEAR,NIGHT_CLEAR,NIGHT_CLEAR,NIGHT_CLEAR,NIGHT_CLEAR,NIGHT_CLEAR,NIGHT_CLEAR,NIGHT_CLEAR,NIGHT_CLEAR,NIGHT_MOSTLY_CLEAR,NIGHT_MIST,MIST,MIST,MIST","Onshore,Onshore,Onshore,Onshore,Onshore,Onshore,Onshore,Offshore,Offshore,Cross-shore,Offshore,Offshore,Offshore,Offshore,Offshore,Offshore,Onshore",17
5842041f4e65fad6a7708964,2024_03_12,34.41023236011655,-119.88261,Sands,2.1176470588235294,0.5688235294117647,0.8723529411764706,14,14,"MIST,CLEAR,CLEAR,CLEAR,NIGHT_CLEAR,NIGHT_CLEAR,NIGHT_CLEAR,NIGHT_CLEAR,NIGHT_CLEAR,NIGHT_CLEAR,NIGHT_CLEAR,NIGHT_CLEAR,NIGHT_CLEAR,NIGHT_CLEAR,CLEAR,CLEAR,CLEAR","Onshore,Onshore,Onshore,Cross-shore,Cross-shore,Cross-shore,Cross-shore,Cross-shore,Cross-shore,Cross-shore,Cross-shore,Cross-shore,Offshore,Offshore,Offshore,Offshore,Onshore",17
5842041f4e65fad6a7708966,2024_03_12,34.40450193869233,-119.68752,Sandspit,1,0,0.23823529411764707,14,14,"CLEAR,CLEAR,MOSTLY_CLEAR,CLEAR,NIGHT_CLEAR,NIGHT_CLEAR,NIGHT_CLEAR,NIGHT_CLEAR,NIGHT_CLEAR,NIGHT_CLEAR,NIGHT_CLEAR,NIGHT_CLEAR,NIGHT_MIST,NIGHT_MIST,MOSTLY_CLEAR,MIST,CLEAR","Offshore,Offshore,Offshore,Offshore,Offshore,Cross-shore,Offshore,Offshore,Offshore,Offshore,Offshore,Offshore,Offshore,Offshore,Offshore,Cross-shore,Onshore",17
5842041f4e65fad6a7708967,2024_03_12,34.41549098334453,-119.6375149840203,Hammond's,2,0.0811764705882353,0.38294117647058823,14,14,"CLEAR,CLEAR,MOSTLY_CLEAR,CLEAR,NIGHT_CLOUDY,NIGHT_CLEAR,NIGHT_CLEAR,NIGHT_CLEAR,NIGHT_CLEAR,NIGHT_CLEAR,NIGHT_CLEAR,NIGHT_CLEAR,NIGHT_MIST,NIGHT_MIST,BRIEF_SHOWERS,MIST,CLEAR","Cross-shore,Cross-shore,Cross-shore,Offshore,Offshore,Offshore,Offshore,Offshore,Offshore,Cross-shore,Cross-shore,Cross-shore,Onshore,Onshore,Onshore,Onshore,Onshore",17
5842041f4e65fad6a7708968,2024_03_12,34.45759322742309,-120.0220251867315,El Capitan,1,0.19705882352941176,0.5011764705882353,14,14,"CLEAR,CLEAR,CLEAR,CLEAR,NIGHT_CLEAR,NIGHT_CLEAR,NIGHT_CLEAR,NIGHT_CLEAR,NIGHT_CLEAR,NIGHT_CLEAR,NIGHT_CLEAR,NIGHT_CLEAR,NIGHT_CLEAR,NIGHT_CLEAR,CLEAR,CLEAR,CLEAR","Offshore,Offshore,Offshore,Offshore,Offshore,Offshore,Offshore,Offshore,Offshore,Offshore,Offshore,Offshore,Offshore,Offshore,Offshore,Offshore,Offshore",17
5842041f4e65fad6a770896c,2024_03_12,34.405117655616,-119.84317,Campus Point,1.8823529411764706,0.1988235294117647,0.5052941176470588,14,14,"CLEAR,CLEAR,CLEAR,CLEAR,NIGHT_CLEAR,NIGHT_CLEAR,NIGHT_CLEAR,NIGHT_CLEAR,NIGHT_CLEAR,NIGHT_CLEAR,NIGHT_CLEAR,NIGHT_CLEAR,NIGHT_CLEAR,NIGHT_CLEAR,CLEAR,CLEAR,CLEAR","Cross-shore,Cross-shore,Offshore,Offshore,Offshore,Offshore,Offshore,Offshore,Offshore,Offshore,Offshore,Offshore,Offshore,Offshore,Offshore,Offshore,Cross-shore",17
5842041f4e65fad6a770896e,2024_03_12,34.38935162233354,-119.51955,Carpinteria State Beach,2.6470588235294117,0.6123529411764705,0.871764705882353,14,14,"MOSTLY_CLEAR,MOSTLY_CLEAR,MOSTLY_CLEAR,CLEAR,NIGHT_CLEAR,NIGHT_CLEAR,NIGHT_CLEAR,NIGHT_CLEAR,NIGHT_CLEAR,NIGHT_CLEAR,NIGHT_CLEAR,NIGHT_CLEAR,NIGHT_CLEAR,NIGHT_CLEAR,CLEAR,CLEAR,CLEAR","Onshore,Onshore,Onshore,Onshore,Offshore,Offshore,Offshore,Offshore,Offshore,Offshore,Offshore,Offshore,Offshore,Offshore,Offshore,Cross-shore,Onshore",17
5842041f4e65fad6a770896f,2024_03_12,37.48296565175612,-122.4549300127824,Half Moon Bay,2.176470588235294,1.7564705882352942,2.1029411764705883,13,13,"OVERCAST,LIGHT_RAIN,LIGHT_RAIN,BRIEF_SHOWERS,NIGHT_BRIEF_SHOWERS,NIGHT_BRIEF_SHOWERS,NIGHT_DRIZZLE,NIGHT_DRIZZLE,NIGHT_BRIEF_SHOWERS,NIGHT_DRIZZLE,NIGHT_BRIEF_SHOWERS,NIGHT_SHOWERS,NIGHT_SHOWERS,NIGHT_BRIEF_SHOWERS,SHOWERS,HEAVY_SHOWERS,CLEAR","Onshore,Onshore,Onshore,Onshore,Onshore,Onshore,Onshore,Onshore,Onshore,Onshore,Onshore,Onshore,Onshore,Onshore,Onshore,Onshore,Onshore",17
5842041f4e65fad6a7708970,2024_03_12,37.499,-122.471,Princeton Jetty,2.3529411764705883,1.8911764705882352,2.258235294117647,13,13,"OVERCAST,OVERCAST,MIST,MIST,NIGHT_OVERCAST,NIGHT_MOSTLY_CLEAR,NIGHT_OVERCAST,NIGHT_LIGHT_RAIN,NIGHT_BRIEF_SHOWERS,NIGHT_RAIN,NIGHT_SHOWERS,NIGHT_SHOWERS,NIGHT_MOSTLY_CLOUDY,NIGHT_BRIEF_SHOWERS,SHOWERS,HEAVY_SHOWERS,MOSTLY_CLEAR","Onshore,Onshore,Onshore,Onshore,Onshore,Onshore,Onshore,Onshore,Onshore,Onshore,Onshore,Onshore,Onshore,Onshore,Onshore,Onshore,Cross-shore",17
5842041f4e65fad6a7708972,2024_03_12,37.35699547365155,-122.4069534707252,Tunitas Creek,2,3.1947058823529413,3.8147058823529414,13.352941176470589,13.352941176470589,"DRIZZLE,OVERCAST,OVERCAST,MOSTLY_CLOUDY,NIGHT_BRIEF_SHOWERS,NIGHT_MOSTLY_CLOUDY,NIGHT_MOSTLY_CLOUDY,NIGHT_OVERCAST,NIGHT_MOSTLY_CLOUDY,NIGHT_DRIZZLE,NIGHT_BRIEF_SHOWERS,NIGHT_BRIEF_SHOWERS,NIGHT_MOSTLY_CLOUDY,NIGHT_MOSTLY_CLOUDY,MIST,BRIEF_SHOWERS,CLEAR","Onshore,Onshore,Onshore,Onshore,Onshore,Onshore,Onshore,Onshore,Onshore,Cross-shore,Cross-shore,Onshore,Onshore,Onshore,Onshore,Onshore,Cross-shore",17
5842041f4e65fad6a7708974,2024_03_12,37.54735589428842,-122.5161090212687,Montara,2.3529411764705883,2.393529411764706,2.8541176470588234,13,13,"CLOUDY,CLOUDY,MIST,MOSTLY_CLOUDY,NIGHT_MOSTLY_CLOUDY,NIGHT_MOSTLY_CLOUDY,NIGHT_DRIZZLE,NIGHT_DRIZZLE,NIGHT_OVERCAST,NIGHT_OVERCAST,NIGHT_BRIEF_SHOWERS,NIGHT_OVERCAST,NIGHT_MIST,NIGHT_BRIEF_SHOWERS,BRIEF_SHOWERS,BRIEF_SHOWERS,MIST","Cross-shore,Cross-shore,Cross-shore,Cross-shore,Cross-shore,Cross-shore,Cross-shore,Cross-shore,Cross-shore,Offshore,Offshore,Offshore,Cross-shore,Cross-shore,Onshore,Cross-shore,Onshore",17
5842041f4e65fad6a7708975,2024_03_12,34.3869373724559,-119.5142334209018,Tarpits,2.176470588235294,0.49470588235294116,0.7994117647058824,14,14,"CLEAR,MOSTLY_CLEAR,MOSTLY_CLEAR,CLEAR,NIGHT_CLEAR,NIGHT_CLEAR,NIGHT_CLEAR,NIGHT_CLEAR,NIGHT_CLEAR,NIGHT_MIST,NIGHT_CLEAR,NIGHT_CLEAR,NIGHT_CLEAR,NIGHT_CLEAR,CLEAR,CLEAR,CLEAR","Cross-shore,Cross-shore,Cross-shore,Onshore,Cross-shore,Offshore,Offshore,Onshore,Offshore,Cross-shore,Cross-shore,Offshore,Offshore,Offshore,Offshore,Cross-shore,Onshore",17
5842041f4e65fad6a7708976,2024_03_12,37.59881852720143,-122.50463,Pacifica / Linda Mar,2.2252941176470586,1.081307843137255,1.464513725490196,14,14,"MIST,MIST,CLOUDY,CLEAR,NIGHT_MOSTLY_CLOUDY,NIGHT_MOSTLY_CLOUDY,NIGHT_OVERCAST,NIGHT_OVERCAST,NIGHT_LIGHT_RAIN,NIGHT_OVERCAST,NIGHT_BRIEF_SHOWERS,NIGHT_OVERCAST,NIGHT_MOSTLY_CLOUDY,NIGHT_MIST,BRIEF_SHOWERS,SHOWERS,MIST","Onshore,Onshore,Onshore,Cross-shore,Cross-shore,Cross-shore,Cross-shore,Cross-shore,Cross-shore,Cross-shore,Offshore,Cross-shore,Cross-shore,Cross-shore,Onshore,Onshore,Onshore",17
5842041f4e65fad6a7708978,2024_03_12,37.59883098461164,-122.5143843582282,Pedro Point,2.7058823529411766,2.3441176470588236,2.7941176470588234,13,13,"CLOUDY,OVERCAST,CLOUDY,CLEAR,NIGHT_MOSTLY_CLOUDY,NIGHT_MOSTLY_CLOUDY,NIGHT_OVERCAST,NIGHT_OVERCAST,NIGHT_DRIZZLE,NIGHT_OVERCAST,NIGHT_LIGHT_RAIN,NIGHT_RAIN,NIGHT_BRIEF_SHOWERS,NIGHT_MIST,MIST,BRIEF_SHOWERS,MOSTLY_CLEAR","Cross-shore,Cross-shore,Cross-shore,Cross-shore,Cross-shore,Cross-shore,Cross-shore,Cross-shore,Offshore,Offshore,Offshore,Offshore,Offshore,Cross-shore,Onshore,Onshore,Onshore",17
5842041f4e65fad6a7708979,2024_03_12,37.61081996647663,-122.4973287570634,Rockaway,2,2.366470588235294,2.811764705882353,13,13,"MIST,MIST,CLOUDY,CLEAR,NIGHT_MOSTLY_CLOUDY,NIGHT_MOSTLY_CLOUDY,NIGHT_OVERCAST,NIGHT_OVERCAST,NIGHT_LIGHT_RAIN,NIGHT_OVERCAST,NIGHT_BRIEF_SHOWERS,NIGHT_OVERCAST,NIGHT_MOSTLY_CLOUDY,NIGHT_MIST,BRIEF_SHOWERS,SHOWERS,MIST","Onshore,Onshore,Onshore,Onshore,Onshore,Onshore,Cross-shore,Cross-shore,Cross-shore,Cross-shore,Cross-shore,Cross-shore,Cross-shore,Cross-shore,Onshore,Onshore,Onshore",17
5842041f4e65fad6a770897a,2024_03_12,37.809987384424446,-122.4751353263855,Fort Point,2.764705882352941,1.4676470588235293,1.7582352941176471,13,13,"CLOUDY,OVERCAST,CLOUDY,CLEAR,NIGHT_MOSTLY_CLOUDY,NIGHT_MOSTLY_CLOUDY,NIGHT_OVERCAST,NIGHT_DRIZZLE,NIGHT_CLEAR,NIGHT_OVERCAST,NIGHT_LIGHT_RAIN,NIGHT_LIGHT_RAIN,NIGHT_LIGHT_RAIN,NIGHT_BRIEF_SHOWERS,BRIEF_SHOWERS,MIST,CLEAR","Cross-shore,Cross-shore,Onshore,Onshore,Cross-shore,Onshore,Onshore,Onshore,Onshore,Onshore,Onshore,Onshore,Onshore,Onshore,Cross-shore,Onshore,Cross-shore",17
5842041f4e65fad6a770897c,2024_03_12,37.63422542967464,-122.4951,Sharp Park,1.7647058823529411,2.481176470588235,2.9594117647058824,13,13,"DRIZZLE,OVERCAST,CLOUDY,CLEAR,NIGHT_MOSTLY_CLOUDY,NIGHT_CLEAR,NIGHT_MOSTLY_CLOUDY,NIGHT_OVERCAST,NIGHT_LIGHT_RAIN,NIGHT_OVERCAST,NIGHT_LIGHT_RAIN,NIGHT_SHOWERS,NIGHT_BRIEF_SHOWERS,NIGHT_MIST,SHOWERS,SHOWERS,MIST","Onshore,Onshore,Onshore,Onshore,Onshore,Onshore,Onshore,Onshore,Cross-shore,Cross-shore,Cross-shore,Cross-shore,Cross-shore,Onshore,Onshore,Onshore,Onshore",17
5842041f4e65fad6a770897d,2024_03_12,37.27313605072472,-122.4127387912554,Pescadero,2.3529411764705883,3.0723529411764705,3.6705882352941175,13.352941176470589,13.352941176470589,"CLOUDY,CLOUDY,CLOUDY,MOSTLY_CLOUDY,NIGHT_CLOUDY,NIGHT_CLEAR,NIGHT_MOSTLY_CLOUDY,NIGHT_MOSTLY_CLOUDY,NIGHT_MOSTLY_CLOUDY,NIGHT_DRIZZLE,NIGHT_OVERCAST,NIGHT_RAIN,NIGHT_HEAVY_RAIN,NIGHT_RAIN,MIST,RAIN,MOSTLY_CLEAR","Onshore,Onshore,Onshore,Cross-shore,Onshore,Cross-shore,Cross-shore,Cross-shore,Cross-shore,Cross-shore,Cross-shore,Cross-shore,Cross-shore,Cross-shore,Cross-shore,Cross-shore,Onshore",17
5842041f4e65fad6a770897e,2024_03_12,37.18140279972666,-122.3926685899327,Pigeon Point,2.3529411764705883,2.998823529411765,3.5823529411764707,13.352941176470589,13.352941176470589,"CLOUDY,CLOUDY,OVERCAST,MOSTLY_CLOUDY,NIGHT_MIST,NIGHT_BRIEF_SHOWERS,NIGHT_MOSTLY_CLEAR,NIGHT_MOSTLY_CLOUDY,NIGHT_MOSTLY_CLOUDY,NIGHT_OVERCAST,NIGHT_OVERCAST,NIGHT_RAIN,NIGHT_OVERCAST,NIGHT_DRIZZLE,RAIN,LIGHT_RAIN,MOSTLY_CLEAR","Cross-shore,Cross-shore,Cross-shore,Onshore,Onshore,Onshore,Onshore,Onshore,Onshore,Onshore,Onshore,Onshore,Onshore,Onshore,Onshore,Onshore,Offshore",17
5842041f4e65fad6a770897f,2024_03_12,37.11578956919415,-122.314699271291,Ano Nuevo,2.823529411764706,2.276470588235294,2.722941176470588,13.352941176470589,13.352941176470589,"MOSTLY_CLOUDY,CLEAR,CLOUDY,MOSTLY_CLOUDY,NIGHT_DRIZZLE,NIGHT_CLEAR,NIGHT_MOSTLY_CLEAR,NIGHT_MOSTLY_CLEAR,NIGHT_OVERCAST,NIGHT_DRIZZLE,NIGHT_BRIEF_SHOWERS,NIGHT_RAIN,NIGHT_LIGHT_RAIN,NIGHT_RAIN,RAIN,LIGHT_RAIN,MOSTLY_CLEAR","Offshore,Offshore,Offshore,Cross-shore,Cross-shore,Cross-shore,Onshore,Onshore,Onshore,Onshore,Onshore,Onshore,Onshore,Onshore,Onshore,Onshore,Offshore",17
5842041f4e65fad6a7708980,2024_03_12,37.09520872681598,-122.2805474707768,Waddell Creek,3,2.323529411764706,2.7758823529411765,13.352941176470589,13.352941176470589,"MOSTLY_CLOUDY,CLOUDY,CLOUDY,CLEAR,NIGHT_CLEAR,NIGHT_CLEAR,NIGHT_MOSTLY_CLEAR,NIGHT_CLEAR,NIGHT_OVERCAST,NIGHT_FOG,NIGHT_BRIEF_SHOWERS,NIGHT_SHOWERS,NIGHT_DRIZZLE,NIGHT_RAIN,MIST,MIST,MIST","Cross-shore,Cross-shore,Cross-shore,Onshore,Onshore,Onshore,Onshore,Onshore,Onshore,Cross-shore,Onshore,Onshore,Onshore,Onshore,Onshore,Onshore,Cross-shore",17
5842041f4e65fad6a7708981,2024_03_12,36.96512852130351,-122.1252825495626,Four Mile,3.235294117647059,2.62,3.123529411764706,13.352941176470589,13.352941176470589,"CLEAR,CLEAR,CLEAR,MOSTLY_CLOUDY,NIGHT_CLEAR,NIGHT_MOSTLY_CLEAR,NIGHT_MOSTLY_CLOUDY,NIGHT_MOSTLY_CLOUDY,NIGHT_BRIEF_SHOWERS,NIGHT_RAIN,NIGHT_FOG,NIGHT_LIGHT_RAIN,NIGHT_LIGHT_RAIN,NIGHT_LIGHT_RAIN,LIGHT_RAIN,LIGHT_RAIN,CLEAR","Offshore,Offshore,Offshore,Offshore,Offshore,Cross-shore,Cross-shore,Cross-shore,Onshore,Onshore,Onshore,Onshore,Onshore,Onshore,Onshore,Onshore,Offshore",17
5842041f4e65fad6a7708982,2024_03_12,37.04122807048655,-122.2333684729756,Scott Creek,3,2.3794117647058823,2.842941176470588,13.352941176470589,13.352941176470589,"CLEAR,CLOUDY,CLEAR,CLEAR,NIGHT_OVERCAST,NIGHT_BRIEF_SHOWERS,NIGHT_BRIEF_SHOWERS,NIGHT_SHOWERS,NIGHT_MOSTLY_CLOUDY,NIGHT_FOG,NIGHT_FOG,NIGHT_LIGHT_RAIN,NIGHT_OVERCAST,NIGHT_DRIZZLE,MIST,LIGHT_RAIN,CLEAR","Cross-shore,Cross-shore,Cross-shore,Cross-shore,Onshore,Onshore,Onshore,Onshore,Onshore,Onshore,Onshore,Onshore,Onshore,Onshore,Onshore,Onshore,Cross-shore",17
5842041f4e65fad6a7708983,2024_03_12,37.02350229387179,-122.21908,Davenport,3,2.6058823529411765,3.1123529411764705,13.352941176470589,13.352941176470589,"CLEAR,CLEAR,CLEAR,CLEAR,NIGHT_OVERCAST,NIGHT_BRIEF_SHOWERS,NIGHT_MOSTLY_CLOUDY,NIGHT_MOSTLY_CLOUDY,NIGHT_BRIEF_SHOWERS,NIGHT_LIGHT_RAIN_AND_FOG,NIGHT_MOSTLY_CLOUDY,NIGHT_RAIN,NIGHT_OVERCAST,NIGHT_LIGHT_RAIN,MIST,RAIN,MIST","Cross-shore,Cross-shore,Cross-shore,Cross-shore,Cross-shore,Onshore,Onshore,Onshore,Onshore,Onshore,Onshore,Onshore,Onshore,Onshore,Onshore,Onshore,Cross-shore",17
5842041f4e65fad6a7708986,2024_03_12,36.94905295955728,-122.0611823912244,Natural Bridges,3,2.081176470588235,2.486470588235294,13.352941176470589,13.352941176470589,"CLEAR,CLEAR,CLEAR,CLEAR,NIGHT_CLEAR,NIGHT_MOSTLY_CLEAR,NIGHT_MOSTLY_CLOUDY,NIGHT_MOSTLY_CLOUDY,NIGHT_BRIEF_SHOWERS,NIGHT_LIGHT_SHOWERS_POSSIBLE,NIGHT_FOG,NIGHT_LIGHT_RAIN,NIGHT_LIGHT_RAIN,NIGHT_DRIZZLE,LIGHT_RAIN_AND_FOG,RAIN,CLEAR","Cross-shore,Cross-shore,Cross-shore,Cross-shore,Cross-shore,Cross-shore,Cross-shore,Onshore,Onshore,Onshore,Onshore,Onshore,Onshore,Onshore,Onshore,Onshore,Offshore",17
5842041f4e65fad6a7708987,2024_03_12,36.95154854910425,-122.0420693940968,Mitchell's Cove,3.4705882352941178,1.5776470588235294,1.8852941176470588,13.352941176470589,13.352941176470589,"CLEAR,CLEAR,CLEAR,CLEAR,NIGHT_CLEAR,NIGHT_CLEAR,NIGHT_MOSTLY_CLOUDY,NIGHT_MOSTLY_CLOUDY,NIGHT_MOSTLY_CLOUDY,NIGHT_LIGHT_SHOWERS_POSSIBLE,NIGHT_FOG,NIGHT_FOG,NIGHT_LIGHT_RAIN,NIGHT_FOG,FOG,LIGHT_RAIN,CLEAR","Cross-shore,Cross-shore,Cross-shore,Cross-shore,Cross-shore,Cross-shore,Cross-shore,Cross-shore,Onshore,Onshore,Onshore,Onshore,Onshore,Onshore,Onshore,Onshore,Onshore",17
5842041f4e65fad6a770898a,2024_03_12,36.9572312370203,-121.98177,26th Ave,3,1.9323529411764706,2.3088235294117645,13.352941176470589,13.352941176470589,"CLEAR,CLEAR,CLEAR,CLEAR,NIGHT_CLEAR,NIGHT_CLEAR,NIGHT_MOSTLY_CLEAR,NIGHT_CLEAR,NIGHT_MOSTLY_CLOUDY,NIGHT_LIGHT_RAIN,NIGHT_FOG,NIGHT_FOG,NIGHT_LIGHT_RAIN,NIGHT_FOG,FOG,MIST,MOSTLY_CLOUDY","Onshore,Onshore,Onshore,Onshore,Onshore,Onshore,Onshore,Onshore,Onshore,Onshore,Onshore,Onshore,Onshore,Cross-shore,Cross-shore,Onshore,Cross-shore",17
5842041f4e65fad6a770898e,2024_03_12,36.91899972819882,-121.85536,Manresa,2.6470588235294117,2.1876470588235293,2.588235294117647,13.352941176470589,13.352941176470589,"CLEAR,CLEAR,CLEAR,CLEAR,NIGHT_CLEAR,NIGHT_CLEAR,NIGHT_CLEAR,NIGHT_MOSTLY_CLOUDY,NIGHT_MOSTLY_CLOUDY,NIGHT_DRIZZLE,NIGHT_FOG,NIGHT_FOG,NIGHT_LIGHT_RAIN_AND_FOG,NIGHT_FOG,FOG,DRIZZLE,MIST","Onshore,Onshore,Onshore,Onshore,Onshore,Onshore,Onshore,Onshore,Onshore,Onshore,Onshore,Onshore,Onshore,Cross-shore,Cross-shore,Onshore,Onshore",17
5842041f4e65fad6a7708990,2024_03_12,34.45747731928454,-120.34242,The Ranch,2.7058823529411766,0.7717647058823529,1.0505882352941176,13,13,"CLEAR,CLEAR,CLEAR,CLEAR,NIGHT_CLEAR,NIGHT_CLEAR,NIGHT_CLEAR,NIGHT_CLEAR,NIGHT_CLEAR,NIGHT_CLEAR,NIGHT_CLEAR,NIGHT_CLEAR,NIGHT_CLEAR,NIGHT_OVERCAST,CLEAR,CLEAR,CLEAR","Offshore,Offshore,Offshore,Offshore,Offshore,Offshore,Offshore,Offshore,Offshore,Offshore,Offshore,Offshore,Offshore,Offshore,Offshore,Offshore,Offshore",17
5842041f4e65fad6a7708991,2024_03_12,34.50875036590315,-120.50348,Jalama,2.764705882352941,1.6870588235294117,2.0152941176470587,13,13,"CLEAR,CLEAR,CLEAR,CLEAR,NIGHT_CLEAR,NIGHT_MOSTLY_CLOUDY,NIGHT_MOSTLY_CLOUDY,NIGHT_MOSTLY_CLOUDY,NIGHT_MOSTLY_CLOUDY,NIGHT_CLEAR,NIGHT_CLEAR,NIGHT_CLEAR,NIGHT_CLEAR,NIGHT_CLEAR,CLEAR,CLEAR,CLEAR","Cross-shore,Cross-shore,Cross-shore,Cross-shore,Cross-shore,Cross-shore,Cross-shore,Cross-shore,Cross-shore,Cross-shore,Cross-shore,Cross-shore,Cross-shore,Cross-shore,Cross-shore,Cross-shore,Cross-shore",17
5842041f4e65fad6a7708996,2024_03_12,34.68700870220497,-120.6111611019887,Surf Beach,1.6470588235294117,4.073529411764706,4.87,13,13,"CLEAR,MOSTLY_CLOUDY,MOSTLY_CLOUDY,CLOUDY,NIGHT_CLOUDY,NIGHT_MOSTLY_CLOUDY,NIGHT_MOSTLY_CLOUDY,NIGHT_CLOUDY,NIGHT_CLOUDY,NIGHT_CLOUDY,NIGHT_CLOUDY,NIGHT_CLOUDY,NIGHT_OVERCAST,NIGHT_MOSTLY_CLOUDY,MOSTLY_CLOUDY,CLEAR,CLEAR","Onshore,Onshore,Onshore,Onshore,Onshore,Onshore,Onshore,Onshore,Onshore,Onshore,Onshore,Onshore,Onshore,Onshore,Onshore,Onshore,Onshore",17
5842041f4e65fad6a770899c,2024_03_12,35.5730538161116,-121.1143362345574,Moonstone,3,2.9411764705882355,3.514705882352941,13.352941176470589,13.352941176470589,"CLEAR,CLEAR,CLEAR,CLEAR,NIGHT_CLEAR,NIGHT_CLEAR,NIGHT_CLEAR,NIGHT_CLEAR,NIGHT_CLEAR,NIGHT_CLEAR,NIGHT_CLEAR,NIGHT_CLEAR,NIGHT_MOSTLY_CLEAR,NIGHT_OVERCAST,CLEAR,CLEAR,CLEAR","Onshore,Onshore,Onshore,Onshore,Cross-shore,Onshore,Cross-shore,Cross-shore,Offshore,Cross-shore,Cross-shore,Cross-shore,Offshore,Offshore,Offshore,Offshore,Onshore",17
5842041f4e65fad6a770899d,2024_03_12,35.61533716776573,-121.1502053073914,Pico Creek,3,2.0541176470588236,2.4558823529411766,13,13,"CLEAR,CLEAR,CLEAR,CLEAR,NIGHT_CLOUDY,NIGHT_CLEAR,NIGHT_CLEAR,NIGHT_CLEAR,NIGHT_CLEAR,NIGHT_MOSTLY_CLOUDY,NIGHT_CLEAR,NIGHT_CLEAR,NIGHT_CLEAR,NIGHT_DRIZZLE,MOSTLY_CLOUDY,CLEAR,MOSTLY_CLOUDY","Onshore,Onshore,Onshore,Onshore,Cross-shore,Cross-shore,Cross-shore,Cross-shore,Cross-shore,Cross-shore,Cross-shore,Cross-shore,Offshore,Offshore,Offshore,Onshore,Onshore",17
5842041f4e65fad6a770899e,2024_03_12,35.56829031927379,-121.1120653023953,Santa Rosa Creek,2.823529411764706,2.9411764705882355,3.514705882352941,13.352941176470589,13.352941176470589,"CLEAR,CLEAR,CLEAR,MIST,NIGHT_CLEAR,NIGHT_CLEAR,NIGHT_CLEAR,NIGHT_CLEAR,NIGHT_CLEAR,NIGHT_MOSTLY_CLOUDY,NIGHT_CLOUDY,NIGHT_CLEAR,NIGHT_MOSTLY_CLEAR,NIGHT_OVERCAST,MOSTLY_CLOUDY,CLEAR,CLEAR","Cross-shore,Cross-shore,Cross-shore,Cross-shore,Cross-shore,Cross-shore,Cross-shore,Cross-shore,Offshore,Offshore,Offshore,Cross-shore,Onshore,Cross-shore,Offshore,Offshore,Cross-shore",17
5842041f4e65fad6a77089a2,2024_03_12,35.44820114936284,-120.90715,"Cayucos Pier, Southside ",3.235294117647059,1.4717647058823529,1.7623529411764705,13,13,"MOSTLY_CLOUDY,CLEAR,CLEAR,MIST,NIGHT_CLEAR,NIGHT_CLEAR,NIGHT_CLEAR,NIGHT_CLEAR,NIGHT_MIST,NIGHT_MIST,NIGHT_MOSTLY_CLOUDY,NIGHT_CLEAR,NIGHT_CLEAR,NIGHT_MOSTLY_CLOUDY,BRIEF_SHOWERS,CLEAR,MOSTLY_CLEAR","Cross-shore,Cross-shore,Cross-shore,Cross-shore,Cross-shore,Offshore,Offshore,Offshore,Offshore,Offshore,Offshore,Offshore,Offshore,Offshore,Offshore,Offshore,Cross-shore",17
5842041f4e65fad6a77089a4,2024_03_12,35.30143372628852,-120.877819239902,Cable Landing,2.4705882352941178,4.017647058823529,4.801176470588235,13.352941176470589,13.352941176470589,"MOSTLY_CLOUDY,MOSTLY_CLOUDY,CLEAR,CLOUDY,NIGHT_MOSTLY_CLEAR,NIGHT_MOSTLY_CLEAR,NIGHT_MOSTLY_CLOUDY,NIGHT_MOSTLY_CLOUDY,NIGHT_MIST,NIGHT_MIST,NIGHT_MIST,NIGHT_CLOUDY,NIGHT_MOSTLY_CLOUDY,NIGHT_MOSTLY_CLOUDY,BRIEF_SHOWERS,CLEAR,MIST","Onshore,Onshore,Onshore,Onshore,Onshore,Onshore,Onshore,Onshore,Onshore,Cross-shore,Offshore,Offshore,Offshore,Offshore,Offshore,Onshore,Onshore",17
5842041f4e65fad6a77089a9,2024_03_12,35.61269103500222,-121.1480725356606,San Simeon,3,1.4123529411764706,1.688235294117647,13,13,"CLEAR,CLEAR,CLEAR,CLEAR,NIGHT_CLEAR,NIGHT_CLEAR,NIGHT_CLEAR,NIGHT_CLEAR,NIGHT_CLEAR,NIGHT_MIST,NIGHT_CLOUDY,NIGHT_CLOUDY,NIGHT_MOSTLY_CLOUDY,NIGHT_MOSTLY_CLOUDY,CLEAR,CLEAR,CLEAR","Cross-shore,Cross-shore,Cross-shore,Cross-shore,Cross-shore,Cross-shore,Cross-shore,Cross-shore,Offshore,Cross-shore,Offshore,Onshore,Cross-shore,Cross-shore,Offshore,Cross-shore,Cross-shore",17
5842041f4e65fad6a77089ab,2024_03_12,35.1775325966252,-120.7341125142258,Avila Beach,2,0.13470588235294118,0.43823529411764706,14,14,"CLEAR,MOSTLY_CLOUDY,CLEAR,CLEAR,NIGHT_CLEAR,NIGHT_CLEAR,NIGHT_CLEAR,NIGHT_CLEAR,NIGHT_CLEAR,NIGHT_MOSTLY_CLOUDY,NIGHT_MOSTLY_CLOUDY,NIGHT_CLEAR,NIGHT_CLEAR,NIGHT_MOSTLY_CLEAR,MOSTLY_CLOUDY,CLEAR,CLEAR","Cross-shore,Cross-shore,Cross-shore,Cross-shore,Offshore,Offshore,Offshore,Offshore,Offshore,Offshore,Offshore,Offshore,Offshore,Offshore,Offshore,Offshore,Cross-shore",17
5842041f4e65fad6a77089ac,2024_03_12,35.13877877884115,-120.64535,Pismo Beach Pier,2.823529411764706,1.7987666666666666,2.253378431372549,14,14,"CLEAR,MOSTLY_CLOUDY,CLEAR,MOSTLY_CLOUDY,NIGHT_MIST,NIGHT_MOSTLY_CLEAR,NIGHT_CLEAR,NIGHT_MOSTLY_CLEAR,NIGHT_MOSTLY_CLOUDY,NIGHT_MOSTLY_CLOUDY,NIGHT_MOSTLY_CLOUDY,NIGHT_MOSTLY_CLOUDY,NIGHT_OVERCAST,NIGHT_MOSTLY_CLEAR,MOSTLY_CLOUDY,CLEAR,CLEAR","Cross-shore,Cross-shore,Cross-shore,Cross-shore,Cross-shore,Cross-shore,Cross-shore,Cross-shore,Cross-shore,Cross-shore,Cross-shore,Cross-shore,Cross-shore,Cross-shore,Cross-shore,Cross-shore,Cross-shore",17
5842041f4e65fad6a77089ad,2024_03_12,46.8907710233147,-124.12964,Westport/Olympic Peninsula,0.8235294117647058,2.9441176470588237,3.518823529411765,9.352941176470589,9.352941176470589,"RAIN,LIGHT_RAIN,DRIZZLE,DRIZZLE,NIGHT_OVERCAST,NIGHT_OVERCAST,NIGHT_HEAVY_SHOWERS,NIGHT_BRIEF_SHOWERS,NIGHT_MOSTLY_CLOUDY,NIGHT_LIGHT_RAIN,NIGHT_MOSTLY_CLOUDY,NIGHT_CLEAR,NIGHT_BRIEF_SHOWERS_POSSIBLE,NIGHT_CLEAR,MOSTLY_CLEAR,CLEAR,MOSTLY_CLOUDY","Cross-shore,Cross-shore,Cross-shore,Onshore,Onshore,Onshore,Onshore,Onshore,Onshore,Onshore,Onshore,Onshore,Onshore,Onshore,Onshore,Onshore,Onshore",17
5842041f4e65fad6a77089ae,2024_03_12,46.35185177248545,-124.06747,Long Beach Peninsula,0,3.7347058823529413,4.464117647058823,9.352941176470589,9.352941176470589,"RAIN,RAIN,LIGHT_RAIN,MOSTLY_CLOUDY,NIGHT_OVERCAST,NIGHT_MOSTLY_CLOUDY,NIGHT_CLOUDY,NIGHT_MOSTLY_CLOUDY,NIGHT_OVERCAST,NIGHT_CLOUDY,NIGHT_MOSTLY_CLOUDY,NIGHT_MOSTLY_CLOUDY,NIGHT_SHOWERS,NIGHT_CLEAR,CLEAR,CLEAR,CLEAR","Cross-shore,Cross-shore,Cross-shore,Onshore,Onshore,Onshore,Onshore,Onshore,Onshore,Onshore,Onshore,Onshore,Onshore,Onshore,Onshore,Onshore,Onshore",17
5842041f4e65fad6a77089af,2024_03_12,47.90649175554033,-124.6370864743483,La Push,0.4117647058823529,3.0458823529411765,3.641764705882353,8.647058823529411,8.647058823529411,"RAIN,RAIN,LIGHT_RAIN,SHOWERS,NIGHT_OVERCAST,NIGHT_MOSTLY_CLOUDY,NIGHT_CLEAR,NIGHT_CLOUDY,NIGHT_CLEAR,NIGHT_MOSTLY_CLOUDY,NIGHT_MOSTLY_CLOUDY,NIGHT_MOSTLY_CLOUDY,NIGHT_CLEAR,NIGHT_MOSTLY_CLOUDY,MOSTLY_CLOUDY,CLEAR,CLEAR","Cross-shore,Onshore,Cross-shore,Onshore,Onshore,Onshore,Onshore,Onshore,Onshore,Onshore,Onshore,Onshore,Onshore,Onshore,Onshore,Onshore,Onshore",17
5842041f4e65fad6a77089b0,2024_03_12,42.04368239985442,-124.26828,Brookings Jetty,1.1176470588235294,1.6147423529411764,2.5230364705882353,11,11,"RAIN,RAIN,DRIZZLE,DRIZZLE,NIGHT_OVERCAST,NIGHT_LIGHT_RAIN,NIGHT_RAIN,NIGHT_OVERCAST,NIGHT_BRIEF_SHOWERS,NIGHT_MOSTLY_CLOUDY,NIGHT_MOSTLY_CLOUDY,NIGHT_MOSTLY_CLOUDY,NIGHT_RAIN,NIGHT_BRIEF_SHOWERS,MOSTLY_CLOUDY,MOSTLY_CLOUDY,RAIN","Onshore,Onshore,Onshore,Onshore,Onshore,Onshore,Onshore,Onshore,Onshore,Onshore,Onshore,Onshore,Onshore,Onshore,Onshore,Onshore,Onshore",17
5842041f4e65fad6a77089b1,2024_03_12,42.74071837900346,-124.4983727491047,Port Orford,1,2.9311764705882353,3.39,10.352941176470589,10.352941176470589,"RAIN,SHOWERS,BRIEF_SHOWERS,CLEAR,NIGHT_RAIN,NIGHT_LIGHT_RAIN,NIGHT_BRIEF_SHOWERS,NIGHT_MOSTLY_CLOUDY,NIGHT_OVERCAST,NIGHT_MOSTLY_CLOUDY,NIGHT_MOSTLY_CLOUDY,NIGHT_OVERCAST,NIGHT_DRIZZLE,NIGHT_MOSTLY_CLOUDY,MOSTLY_CLOUDY,MOSTLY_CLEAR,CLEAR","Onshore,Onshore,Onshore,Onshore,Onshore,Onshore,Onshore,Onshore,Onshore,Onshore,Onshore,Onshore,Onshore,Cross-shore,Cross-shore,Cross-shore,Cross-shore",17
5842041f4e65fad6a77089b2,2024_03_12,44.01532689312291,-124.13865,Florence South Jetty,0.7058823529411765,3.8276470588235294,4.561764705882353,10.352941176470589,10.352941176470589,"LIGHT_RAIN,LIGHT_RAIN,DRIZZLE,DRIZZLE,NIGHT_DRIZZLE,NIGHT_BRIEF_SHOWERS,NIGHT_MIST,NIGHT_OVERCAST,NIGHT_OVERCAST,NIGHT_MOSTLY_CLOUDY,NIGHT_MOSTLY_CLOUDY,NIGHT_SHOWERS,NIGHT_BRIEF_SHOWERS,NIGHT_MOSTLY_CLOUDY,CLOUDY,MOSTLY_CLOUDY,MOSTLY_CLOUDY","Cross-shore,Cross-shore,Cross-shore,Onshore,Onshore,Onshore,Onshore,Onshore,Onshore,Onshore,Onshore,Onshore,Onshore,Onshore,Onshore,Onshore,Onshore",17
5842041f4e65fad6a77089b3,2024_03_12,42.41812540774362,-124.42945,Gold Beach South Jetty,0.5882352941176471,3.473529411764706,4.149411764705882,11,11,"RAIN,DRIZZLE,BRIEF_SHOWERS,BRIEF_SHOWERS,NIGHT_BRIEF_SHOWERS,NIGHT_DRIZZLE,NIGHT_BRIEF_SHOWERS,NIGHT_MOSTLY_CLOUDY,NIGHT_MOSTLY_CLOUDY,NIGHT_MOSTLY_CLOUDY,NIGHT_MOSTLY_CLOUDY,NIGHT_DRIZZLE,NIGHT_MOSTLY_CLOUDY,NIGHT_MOSTLY_CLOUDY,MOSTLY_CLOUDY,MOSTLY_CLEAR,CLEAR","Onshore,Onshore,Onshore,Onshore,Onshore,Onshore,Onshore,Onshore,Onshore,Onshore,Onshore,Onshore,Onshore,Onshore,Cross-shore,Onshore,Onshore",17
5842041f4e65fad6a77089b4,2024_03_12,44.95857310226525,-124.0219017690976,Lincoln City,0.7647058823529411,3.658235294117647,4.372941176470588,10.352941176470589,10.352941176470589,"RAIN,RAIN,LIGHT_RAIN,SHOWERS,NIGHT_MOSTLY_CLOUDY,NIGHT_DRIZZLE,NIGHT_OVERCAST,NIGHT_OVERCAST,NIGHT_MOSTLY_CLOUDY,NIGHT_CLEAR,NIGHT_CLOUDY,NIGHT_LIGHT_RAIN,NIGHT_MOSTLY_CLOUDY,NIGHT_CLOUDY,BRIEF_SHOWERS,MOSTLY_CLOUDY,CLEAR","Cross-shore,Cross-shore,Cross-shore,Cross-shore,Onshore,Onshore,Onshore,Onshore,Onshore,Onshore,Onshore,Onshore,Onshore,Onshore,Onshore,Onshore,Onshore",17
5842041f4e65fad6a77089b5,2024_03_12,44.63792761362982,-124.0657,Newport,0.47058823529411764,4.084117647058823,4.854117647058824,10,10,"LIGHT_RAIN,LIGHT_RAIN,DRIZZLE,RAIN,NIGHT_BRIEF_SHOWERS,NIGHT_MOSTLY_CLOUDY,NIGHT_CLOUDY,NIGHT_CLOUDY,NIGHT_OVERCAST,NIGHT_BRIEF_SHOWERS,NIGHT_SHOWERS,NIGHT_BRIEF_SHOWERS,NIGHT_MOSTLY_CLOUDY,NIGHT_MOSTLY_CLOUDY,MOSTLY_CLOUDY,OVERCAST,CLEAR","Cross-shore,Cross-shore,Cross-shore,Onshore,Onshore,Onshore,Onshore,Onshore,Onshore,Onshore,Onshore,Onshore,Onshore,Onshore,Onshore,Onshore,Onshore",17
5842041f4e65fad6a77089b6,2024_03_12,45.61468496266301,-123.94643,Rockaway Beach,1,3.771764705882353,4.5058823529411764,9.352941176470589,9.352941176470589,"LIGHT_RAIN,LIGHT_RAIN,LIGHT_RAIN,MOSTLY_CLOUDY,NIGHT_CLEAR,NIGHT_MIST,NIGHT_DRIZZLE,NIGHT_CLEAR,NIGHT_BRIEF_SHOWERS,NIGHT_MOSTLY_CLOUDY,NIGHT_CLOUDY,NIGHT_MOSTLY_CLOUDY,NIGHT_BRIEF_SHOWERS,NIGHT_BRIEF_SHOWERS,MOSTLY_CLOUDY,OVERCAST,MOSTLY_CLOUDY","Cross-shore,Cross-shore,Cross-shore,Cross-shore,Onshore,Onshore,Onshore,Onshore,Onshore,Onshore,Onshore,Onshore,Onshore,Onshore,Onshore,Onshore,Onshore",17
5842041f4e65fad6a77089b7,2024_03_12,45.20252914186085,-123.96975,Pacific City,0.5294117647058824,3.586470588235294,4.2688235294117645,10,10,"LIGHT_RAIN,LIGHT_RAIN,DRIZZLE,RAIN,NIGHT_MOSTLY_CLOUDY,NIGHT_LIGHT_RAIN,NIGHT_OVERCAST,NIGHT_RAIN,NIGHT_MOSTLY_CLOUDY,NIGHT_MOSTLY_CLOUDY,NIGHT_OVERCAST,NIGHT_MOSTLY_CLOUDY,NIGHT_MOSTLY_CLOUDY,NIGHT_MOSTLY_CLOUDY,SHOWERS,BRIEF_SHOWERS_POSSIBLE,CLEAR","Cross-shore,Onshore,Onshore,Onshore,Onshore,Onshore,Onshore,Onshore,Onshore,Onshore,Onshore,Onshore,Onshore,Onshore,Onshore,Onshore,Onshore",17
