_id,date,lat,lon,name,daily_mean_swell_rating,daily_mean_wave_height_min,daily_mean_wave_height_max,daily_mean_water_temperature_max,daily_mean_water_temperature_min,weather_per_timestamp,wind_per_timestamp,n_samples_per_day
5842041f4e65fad6a77087f9,2024_04_21,37.741668,-122.51038,South Ocean Beach,1,0.8403083333333334,1.0947583333333333,14,14,"CLEAR,NIGHT_CLEAR,NIGHT_CLEAR,NIGHT_CLEAR","Onshore,Onshore,Onshore,Onshore",4
5842041f4e65fad6a7708801,2024_04_21,37.49142,-122.50428,Maverick's,NA,0.7458333333333333,1.0102333333333333,13,13,"MIST,NIGHT_CLEAR,NIGHT_MOSTLY_CLEAR,NIGHT_MOSTLY_CLOUDY","Cross-shore,Offshore,Offshore,Offshore",4
5842041f4e65fad6a7708804,2024_04_21,44.997,-124.018,Roads End,1.75,1.16,1.4625,10,10,"DRIZZLE,NIGHT_MOSTLY_CLEAR,NIGHT_MOSTLY_CLOUDY,NIGHT_MOSTLY_CLOUDY","Onshore,Onshore,Offshore,Offshore",4
5842041f4e65fad6a7708805,2024_04_21,36.95188851423011,-122.02522,Steamer Lane,3,0.9584833333333334,1.2229333333333332,14,14,"CLEAR,NIGHT_MIST,NIGHT_MOSTLY_CLEAR,NIGHT_MIST","Cross-shore,Onshore,Offshore,Offshore",4
5842041f4e65fad6a7708806,2024_04_21,36.95918781542251,-122.02489,Cowells,1.6675,0.08255,0.343225,14,14,"CLEAR,NIGHT_MIST,NIGHT_MOSTLY_CLEAR,NIGHT_MIST","Onshore,Onshore,Offshore,Cross-shore",4
5842041f4e65fad6a7708807,2024_04_21,36.95468082526536,-121.97234,Pleasure Point,3,0.9249416666666667,1.1800166666666667,14,14,"CLEAR,NIGHT_CLEAR,NIGHT_MIST,NIGHT_MIST","Onshore,Onshore,Onshore,Offshore",4
5842041f4e65fad6a770880a,2024_04_21,35.37815414378748,-120.86589,Morro Bay,2.5825,0.5147916666666666,0.8185916666666666,12,12,"CLEAR,NIGHT_MIST,NIGHT_CLEAR,NIGHT_CLEAR","Onshore,Offshore,Cross-shore,Cross-shore",4
5842041f4e65fad6a770880b,2024_04_21,36.95782765000708,-121.96729,Jack's,3,0.49598333333333333,0.8047833333333334,14,14,"CLEAR,NIGHT_CLEAR,NIGHT_MIST,NIGHT_MIST","Onshore,Onshore,Onshore,Onshore",4
5842041f4e65fad6a770880d,2024_04_21,34.29982939936656,-119.3489016603669,Gold Coast Beachbreaks,2.75,0.315,0.6174999999999999,15,15,"CLEAR,NIGHT_MIST,NIGHT_MIST,NIGHT_MIST","Onshore,Cross-shore,Offshore,Offshore",4
5842041f4e65fad6a7708811,2024_04_21,34.245076,-119.26799,Ventura Harbor,2.9175,0.7317060416666668,1.0081025,13,13,"CLEAR,NIGHT_CLEAR,NIGHT_MIST,NIGHT_MIST","Onshore,Offshore,Offshore,Offshore",4
5842041f4e65fad6a7708813,2024_04_21,34.051,-118.964,County Line,2.8325,0.7399416666666667,1.0462416666666667,14,14,"CLEAR,NIGHT_MOSTLY_CLEAR,NIGHT_MOSTLY_CLOUDY,NIGHT_MOSTLY_CLOUDY","Onshore,Cross-shore,Offshore,Offshore",4
5842041f4e65fad6a7708814,2024_04_21,34.37256264378892,-119.47797,Rincon,2,0.09,0.395,15,15,"CLEAR,NIGHT_CLEAR,NIGHT_CLEAR,NIGHT_MIST","Cross-shore,Onshore,Onshore,Onshore",4
5842041f4e65fad6a7708817,2024_04_21,34.03096101876324,-118.68109,Malibu Third Point,3,0.965,1.1549999999999998,15,15,"CLEAR,NIGHT_MOSTLY_CLEAR,NIGHT_MOSTLY_CLEAR,NIGHT_MOSTLY_CLOUDY","Cross-shore,Cross-shore,Cross-shore,Cross-shore",4
5842041f4e65fad6a7708819,2024_04_21,33.984079047970035,-118.47382,Venice Beach,1.75,0.4965833333333333,0.83225,14,14,"CLEAR,NIGHT_MIST,NIGHT_MOSTLY_CLOUDY,NIGHT_MOSTLY_CLOUDY","Cross-shore,Cross-shore,Onshore,Onshore",4
5842041f4e65fad6a770881e,2024_04_21,34.037508438646746,-118.5834,Topanga Beach,2.75,0.4492666666666667,0.7580666666666667,14,14,"CLEAR,NIGHT_MOSTLY_CLEAR,NIGHT_MOSTLY_CLEAR,NIGHT_MOSTLY_CLOUDY","Onshore,Offshore,Cross-shore,Offshore",4
5842041f4e65fad6a7708820,2024_04_21,33.73954373690184,-118.11414,Seal Beach Jetty,2.75,0.3275,0.63,15,15,"CLEAR,NIGHT_CLEAR,NIGHT_CLEAR,NIGHT_CLEAR","Onshore,Offshore,Offshore,Offshore",4
5842041f4e65fad6a7708822,2024_04_21,33.72309983348433,-118.08078,Anderson Street,1.875,0.18241666666666667,0.5226666666666666,14,14,"CLEAR,NIGHT_CLEAR,NIGHT_CLEAR,NIGHT_CLEAR","Onshore,Offshore,Offshore,Offshore",4
5842041f4e65fad6a7708827,2024_04_21,33.65574085629463,-118.00397,Huntington Beach Pier Northside,2.75,0.9117500000000001,1.11525,14,14,"CLEAR,NIGHT_CLEAR,NIGHT_MOSTLY_CLEAR,NIGHT_MOSTLY_CLEAR","Onshore,Onshore,Onshore,Onshore",4
5842041f4e65fad6a7708828,2024_04_21,34.272041739333,-119.29976,C St.,2.9175,0.33900833333333336,0.6451,13,13,"CLEAR,NIGHT_CLEAR,NIGHT_MIST,NIGHT_MIST","Cross-shore,Offshore,Cross-shore,Cross-shore",4
5842041f4e65fad6a770882a,2024_04_21,33.61555743705257,-117.93676,Newport Lower Jetties,2.75,0.4199166666666667,0.7555833333333334,15,15,"CLEAR,NIGHT_CLEAR,NIGHT_MOSTLY_CLOUDY,NIGHT_MOSTLY_CLOUDY","Onshore,Cross-shore,Cross-shore,Onshore",4
5842041f4e65fad6a770882b,2024_04_21,33.5930302087,-117.88199,The Wedge,3.5,1.6039091666666667,2.0756983333333334,15,15,"CLEAR,NIGHT_MOSTLY_CLEAR,NIGHT_MOSTLY_CLOUDY,NIGHT_MOSTLY_CLOUDY","Onshore,Offshore,Offshore,Offshore",4
5842041f4e65fad6a770882e,2024_04_21,33.475793399792984,-117.72291,Salt Creek,3,0.7788333333333333,1.08525,14,14,"CLEAR,NIGHT_CLEAR,NIGHT_CLEAR,NIGHT_MOSTLY_CLOUDY","Onshore,Onshore,Cross-shore,Cross-shore",4
5842041f4e65fad6a7708830,2024_04_21,33.41800974113613,-117.61952,T-Street,3,0.7659166666666666,1.0694166666666667,16,16,"CLEAR,NIGHT_CLEAR,NIGHT_CLEAR,NIGHT_CLEAR","Onshore,Cross-shore,Offshore,Cross-shore",4
5842041f4e65fad6a7708832,2024_04_21,33.202391008646,-117.39475,Oceanside Harbor,2.75,0.7454999999999999,1.08575,14,14,"CLEAR,NIGHT_CLEAR,NIGHT_CLEAR,NIGHT_CLEAR","Onshore,Cross-shore,Offshore,Offshore",4
5842041f4e65fad6a7708835,2024_04_21,33.19477795952803,-117.38667,Oceanside Pier,2.75,0.5571666666666666,0.8631666666666666,14,14,"CLEAR,NIGHT_CLEAR,NIGHT_CLEAR,NIGHT_CLEAR","Onshore,Offshore,Offshore,Offshore",4
5842041f4e65fad6a7708837,2024_04_21,33.14948100706,-117.35029,Tamarack,3.25,1.0475,1.2475,16,16,"CLEAR,NIGHT_CLEAR,NIGHT_CLEAR,NIGHT_CLEAR","Onshore,Cross-shore,Onshore,Cross-shore",4
5842041f4e65fad6a7708839,2024_04_21,32.865777159358856,-117.25614,Scripps,2.25,0.37933333333333336,0.6832499999999999,16,16,"CLEAR,NIGHT_CLEAR,NIGHT_CLEAR,NIGHT_CLEAR","Onshore,Onshore,Onshore,Onshore",4
5842041f4e65fad6a770883a,2024_04_21,32.813094,-117.27381,Birdrock,2.75,0.6425000000000001,0.945,17,17,"CLEAR,NIGHT_MOSTLY_CLEAR,NIGHT_MOSTLY_CLEAR,NIGHT_MOSTLY_CLEAR","Cross-shore,Onshore,Onshore,Onshore",4
5842041f4e65fad6a770883b,2024_04_21,32.877231,-117.25303,Blacks,3,0.9175833333333333,1.1653333333333333,16,16,"CLEAR,NIGHT_CLEAR,NIGHT_CLEAR,NIGHT_CLEAR","Onshore,Onshore,Onshore,Onshore",4
5842041f4e65fad6a770883c,2024_04_21,32.82978974229765,-117.28162,Windansea,2.25,0.7588333333333332,1.097,15,15,"CLEAR,NIGHT_MOSTLY_CLEAR,NIGHT_MOSTLY_CLEAR,NIGHT_MOSTLY_CLEAR","Onshore,Cross-shore,Cross-shore,Cross-shore",4
5842041f4e65fad6a770883d,2024_04_21,32.838278,-117.28396,Horseshoe,2,0.71,1.0175,17,17,"CLEAR,NIGHT_MOSTLY_CLEAR,NIGHT_MOSTLY_CLEAR,NIGHT_MOSTLY_CLEAR","Onshore,Cross-shore,Cross-shore,Cross-shore",4
5842041f4e65fad6a770883f,2024_04_21,32.75034717673179,-117.25337,Ocean Beach,2.75,0.758,1.0615,15,15,"CLEAR,NIGHT_CLEAR,NIGHT_CLEAR,NIGHT_MOSTLY_CLEAR","Onshore,Onshore,Onshore,Onshore",4
5842041f4e65fad6a7708840,2024_04_21,32.73693,-117.25718,Sunset Cliffs,2,0.39,0.6975,17,17,"CLEAR,NIGHT_CLEAR,NIGHT_CLEAR,NIGHT_CLEAR","Onshore,Onshore,Onshore,Onshore",4
5842041f4e65fad6a7708841,2024_04_21,32.796582258728826,-117.25779,Pacific Beach,3,0.64075,0.981,15,15,"CLEAR,NIGHT_CLEAR,NIGHT_CLEAR,NIGHT_CLEAR","Cross-shore,Onshore,Onshore,Onshore",4
5842041f4e65fad6a7708842,2024_04_21,32.776636,-117.25514,Mission Beach,2.75,0.6099166666666667,0.9501666666666667,15,15,"CLEAR,NIGHT_CLEAR,NIGHT_CLEAR,NIGHT_CLEAR","Onshore,Onshore,Onshore,Onshore",4
5842041f4e65fad6a7708844,2024_04_21,32.577195519016,-117.13475,Imperial Beach Pier,2.75,0.675,0.98,16,16,"CLEAR,NIGHT_MOSTLY_CLOUDY,NIGHT_MOSTLY_CLOUDY,NIGHT_MOSTLY_CLOUDY","Onshore,Cross-shore,Onshore,Cross-shore",4
5842041f4e65fad6a770884a,2024_04_21,42.88678181061,-70.80843,Seabrook,1.4175,0.32033875,0.51997375,7,6,"CLEAR,NIGHT_CLEAR,NIGHT_CLEAR,NIGHT_CLEAR","Offshore,Offshore,Offshore,Offshore",4
5842041f4e65fad6a770884e,2024_04_21,41.434181432898335,-71.45312,Narragansett,2,0.302925,0.600225,9,8,"CLEAR,NIGHT_CLEAR,NIGHT_CLEAR,NIGHT_CLEAR","Cross-shore,Offshore,Offshore,Offshore",4
5842041f4e65fad6a7708850,2024_04_21,40.582703230722,-73.65247,Lincoln Blvd,1,0.11960000000000004,0.42127500000000007,9,8,"MIST,NIGHT_CLEAR,NIGHT_CLEAR,NIGHT_CLEAR","Cross-shore,Offshore,Offshore,Offshore",4
5842041f4e65fad6a7708852,2024_04_21,40.58342841721757,-73.81182,Rockaways,2,0.421275,0.7267,9,8,"CLEAR,NIGHT_CLEAR,NIGHT_CLEAR,NIGHT_CLEAR","Cross-shore,Offshore,Offshore,Offshore",4
5842041f4e65fad6a7708853,2024_04_21,40.330474,-73.9734,Monmouth Beach,1.75,0.4916833333333333,0.7948833333333334,10,9,"CLEAR,NIGHT_CLEAR,NIGHT_CLEAR,NIGHT_CLEAR","Offshore,Offshore,Offshore,Offshore",4
5842041f4e65fad6a7708856,2024_04_21,40.113,-74.028,Manasquan Inlet,2.25,0.42565000000000003,0.79775,10,9,"CLEAR,NIGHT_CLEAR,NIGHT_CLEAR,NIGHT_CLEAR","Offshore,Cross-shore,Cross-shore,Offshore",4
5842041f4e65fad6a7708857,2024_04_21,39.941519877445664,-74.06829,Casino Pier,2.9175,0.73045,1.038375,10,9,"CLEAR,NIGHT_CLEAR,NIGHT_CLEAR,NIGHT_CLEAR","Offshore,Cross-shore,Cross-shore,Offshore",4
5842041f4e65fad6a7708858,2024_04_21,39.28223089949212,-74.55766,North End OC,2.25,0.42315,0.73045,10,9,"CLEAR,NIGHT_CLEAR,NIGHT_CLEAR,NIGHT_CLEAR","Offshore,Offshore,Offshore,Offshore",4
5842041f4e65fad6a770885b,2024_04_21,39.65080599934257,-74.17146,Ship Bottom,2.25,0.728575,1.0365,10,9,"MOSTLY_CLOUDY,NIGHT_CLEAR,NIGHT_CLEAR,NIGHT_CLOUDY","Cross-shore,Cross-shore,Cross-shore,Offshore",4
5842041f4e65fad6a7708863,2024_04_21,36.034151543144,-75.66791,Third Street,2.25,0.6049416666666667,0.9473083333333334,16,13,"MOSTLY_CLOUDY,NIGHT_MIST,NIGHT_MIST,NIGHT_CLEAR","Onshore,Cross-shore,Onshore,Onshore",4
5842041f4e65fad6a7708867,2024_04_21,35.605833221351425,-75.46303,S-Turns,1.5425,0.74295,1.1384750000000001,17,15,"MOSTLY_CLOUDY,NIGHT_MOSTLY_CLEAR,NIGHT_MOSTLY_CLOUDY,NIGHT_CLEAR","Onshore,Onshore,Onshore,Onshore",4
5842041f4e65fad6a770886d,2024_04_21,38.338461,-75.08117,Ocean City Boardwalk,1.8325,0.703575,1.010875,13,11,"CLEAR,NIGHT_MOSTLY_CLOUDY,NIGHT_CLEAR,NIGHT_CLEAR","Offshore,Onshore,Onshore,Onshore",4
5842041f4e65fad6a770886f,2024_04_21,29.844757212379562,-81.26136,A St.,1.75,0.2375,0.545,22,22,"MIST,NIGHT_CLEAR,NIGHT_CLEAR,NIGHT_MOSTLY_CLOUDY","Onshore,Offshore,Offshore,Offshore",4
5842041f4e65fad6a7708871,2024_04_21,29.069417851135093,-80.90824,New Smyrna Beach,2.3325,0.61585,1.06805,25,23,"CLEAR,NIGHT_CLEAR,NIGHT_CLEAR,NIGHT_CLEAR","Cross-shore,Offshore,Offshore,Offshore",4
5842041f4e65fad6a7708872,2024_04_21,28.367707417566,-80.60171,Cocoa Beach Pier,1,0.25400833333333334,0.5578083333333334,26,24,"CLEAR,NIGHT_CLEAR,NIGHT_CLEAR,NIGHT_CLEAR","Onshore,Cross-shore,Cross-shore,Cross-shore",4
5842041f4e65fad6a7708873,2024_04_21,28.091782738658846,-80.56479,Indialantic,2,0.33010000000000006,0.6361916666666667,26,24,"CLEAR,NIGHT_CLEAR,NIGHT_CLEAR,NIGHT_CLEAR","Onshore,Cross-shore,Cross-shore,Cross-shore",4
5842041f4e65fad6a7708876,2024_04_21,27.25392904143517,-80.19455,Jensen Beach,1,0.14840833333333334,0.45515,24,23,"CLEAR,NIGHT_CLEAR,NIGHT_MOSTLY_CLEAR,NIGHT_CLEAR","Cross-shore,Cross-shore,Offshore,Offshore",4
5842041f4e65fad6a7708879,2024_04_21,26.76346795333825,-80.0360655784607,Reef Road,0,-0.013125000000000001,0.1449,26,24,"MOSTLY_CLEAR,NIGHT_CLEAR,NIGHT_CLEAR,NIGHT_CLEAR","Onshore,Cross-shore,Cross-shore,Cross-shore",4
5842041f4e65fad6a770887c,2024_04_21,26.336499228484,-80.06956100463,Boca Raton Inlet,0.75,0,0.2629916666666667,26,24,"CLEAR,NIGHT_MOSTLY_CLOUDY,NIGHT_MOSTLY_CLOUDY,NIGHT_MOSTLY_CLOUDY","Onshore,Cross-shore,Cross-shore,Cross-shore",4
5842041f4e65fad6a770887d,2024_04_21,26.31719311695038,-80.07453,Deerfield Beach Pier,0,-0.004125000000000004,0.148275,26,24,"CLEAR,NIGHT_MOSTLY_CLOUDY,NIGHT_MOSTLY_CLOUDY,NIGHT_MOSTLY_CLOUDY","Onshore,Cross-shore,Cross-shore,Cross-shore",4
5842041f4e65fad6a7708881,2024_04_21,30.20276320866628,-85.85626528676136,"Spyglass Dr., Panama City",0.75,0,0.21698333333333336,23,22,"CLEAR,NIGHT_MIST,NIGHT_MIST,NIGHT_OVERCAST","Onshore,Onshore,Onshore,Onshore",4
5842041f4e65fad6a7708884,2024_04_21,33.39000832738053,-117.59852,Cottons,3,0.8405,1.1428333333333334,16,16,"CLEAR,NIGHT_CLEAR,NIGHT_CLEAR,NIGHT_CLEAR","Onshore,Offshore,Offshore,Cross-shore",4
5842041f4e65fad6a7708885,2024_04_21,33.359416282661,-117.54168,Trails,2.75,0.44,0.7424999999999999,16,16,"CLEAR,NIGHT_CLEAR,NIGHT_CLEAR,NIGHT_CLEAR","Onshore,Offshore,Cross-shore,Cross-shore",4
5842041f4e65fad6a7708886,2024_04_21,33.38042605929805,-117.58332,Middles,3.75,1.08425,1.4091666666666667,16,16,"CLEAR,NIGHT_CLEAR,NIGHT_CLEAR,NIGHT_CLEAR","Onshore,Offshore,Offshore,Offshore",4
5842041f4e65fad6a7708887,2024_04_21,33.38445596302903,-117.59445,Upper Trestles,3,0.9704999999999999,1.2211666666666665,16,16,"CLEAR,NIGHT_CLEAR,NIGHT_CLEAR,NIGHT_CLEAR","Onshore,Offshore,Offshore,Offshore",4
5842041f4e65fad6a7708889,2024_04_21,28.944414,-95.28883,Surfside,1,0.583915,0.9123675,24,24,"MIST,NIGHT_DRIZZLE,NIGHT_LIGHT_RAIN,NIGHT_LIGHT_RAIN","Onshore,Cross-shore,Cross-shore,Offshore",4
5842041f4e65fad6a770888a,2024_04_21,33.38143999849023,-117.58843,Lower Trestles,3,1.0496666666666665,1.3970833333333335,16,16,"CLEAR,NIGHT_CLEAR,NIGHT_CLEAR,NIGHT_CLEAR","Onshore,Offshore,Offshore,Offshore",4
5842041f4e65fad6a770888b,2024_04_21,33.379622288757,-117.57894,Church,3.75,1.0230000000000001,1.3179166666666666,16,16,"CLEAR,NIGHT_CLEAR,NIGHT_CLEAR,NIGHT_CLEAR","Onshore,Offshore,Offshore,Cross-shore",4
5842041f4e65fad6a770888d,2024_04_21,21.679,-158.042,Sunset Beach,2.8325,0.9091,1.2103000000000002,26,25,"MOSTLY_CLEAR,NIGHT_CLEAR,NIGHT_CLEAR,NIGHT_CLEAR","Cross-shore,Cross-shore,Offshore,Offshore",4
5842041f4e65fad6a770888e,2024_04_21,21.670550036401,-158.0482,Rocky Point,2.8325,0.9324333333333333,1.2111333333333334,26,25,"CLEAR,NIGHT_CLEAR,NIGHT_CLEAR,NIGHT_CLEAR","Cross-shore,Cross-shore,Cross-shore,Offshore",4
5842041f4e65fad6a770888f,2024_04_21,21.668,-158.05,Chambers,3,0.915,1.17,24,24,"CLEAR,NIGHT_CLEAR,NIGHT_CLEAR,NIGHT_CLEAR","Cross-shore,Cross-shore,Offshore,Offshore",4
5842041f4e65fad6a7708890,2024_04_21,21.66522,-158.0526,Pipeline,1,0.4766,0.7849,26,25,"CLEAR,NIGHT_CLEAR,NIGHT_CLEAR,NIGHT_CLEAR","Cross-shore,Cross-shore,Cross-shore,Offshore",4
5842041f4e65fad6a7708891,2024_04_21,21.665,-158.054,Backdoor,2.8325,0.4766,0.7849,26,25,"CLEAR,NIGHT_CLEAR,NIGHT_CLEAR,NIGHT_CLEAR","Cross-shore,Cross-shore,Cross-shore,Offshore",4
5842041f4e65fad6a7708892,2024_04_21,21.662,-158.057,Rockpile,3,0.96,1.1825,24,24,"CLEAR,NIGHT_CLEAR,NIGHT_CLEAR,NIGHT_CLEAR","Cross-shore,Cross-shore,Offshore,Offshore",4
5842041f4e65fad6a7708893,2024_04_21,21.65870453806827,-158.06058,Log Cabins,2.75,0.7075,0.985,24,24,"CLEAR,NIGHT_CLEAR,NIGHT_CLEAR,NIGHT_CLEAR","Cross-shore,Cross-shore,Cross-shore,Offshore",4
5842041f4e65fad6a7708894,2024_04_21,21.66203493640557,-158.05495,Off-The-Wall,3,0.8925,1.1099999999999999,24,24,"CLEAR,NIGHT_CLEAR,NIGHT_CLEAR,NIGHT_CLEAR","Cross-shore,Cross-shore,Cross-shore,Cross-shore",4
5842041f4e65fad6a7708895,2024_04_21,21.643,-158.067,Waimea Bay,NA,1.0216666666666667,1.2529,26,25,"CLEAR,NIGHT_CLEAR,NIGHT_CLEAR,NIGHT_CLEAR","Offshore,Cross-shore,Offshore,Offshore",4
5842041f4e65fad6a7708896,2024_04_21,21.622,-158.087,Hultin's,2.8325,0.8849333333333333,1.1294666666666666,26,25,"CLEAR,NIGHT_CLEAR,NIGHT_CLEAR,NIGHT_CLEAR","Offshore,Offshore,Offshore,Offshore",4
5842041f4e65fad6a7708897,2024_04_21,21.623,-158.085,Jocko's,2.75,0.6475,0.9475,24,24,"CLEAR,NIGHT_CLEAR,NIGHT_CLEAR,NIGHT_CLEAR","Cross-shore,Cross-shore,Cross-shore,Cross-shore",4
5842041f4e65fad6a7708898,2024_04_21,21.62,-158.088,Laniakea,2.875,0.8682666666666667,1.1478000000000002,26,25,"CLEAR,NIGHT_CLEAR,NIGHT_CLEAR,NIGHT_CLEAR","Offshore,Offshore,Offshore,Offshore",4
5842041f4e65fad6a7708899,2024_04_21,21.625,-158.083,Chun's,2.75,0.7424999999999999,1.0150000000000001,24,24,"CLEAR,NIGHT_CLEAR,NIGHT_CLEAR,NIGHT_CLEAR","Offshore,Offshore,Offshore,Offshore",4
5842041f4e65fad6a770889c,2024_04_21,21.286357895152136,-157.8515,South Shore - Ala Moana Park,3,0.5650000000000001,0.87,24,24,"CLEAR,NIGHT_CLEAR,NIGHT_CLEAR,NIGHT_CLEAR","Offshore,Offshore,Offshore,Offshore",4
5842041f4e65fad6a770889d,2024_04_21,19.606,-155.978,Banyans,2.8325,0.4207666666666667,0.7494666666666666,26,25,"CLEAR,NIGHT_CLEAR,NIGHT_CLEAR,NIGHT_CLEAR","Onshore,Onshore,Onshore,Cross-shore",4
5842041f4e65fad6a770889e,2024_04_21,20.029,-155.831,Kawaihae,2,0.4444,0.5629850000000001,25,25,"CLEAR,NIGHT_CLEAR,NIGHT_CLEAR,NIGHT_CLEAR","Onshore,Cross-shore,Offshore,Offshore",4
5842041f4e65fad6a770889f,2024_04_21,33.07541383424675,-117.3105,Grandview,2.75,0.4575,0.7625,16,16,"CLEAR,NIGHT_MOSTLY_CLEAR,NIGHT_MOSTLY_CLEAR,NIGHT_MOSTLY_CLEAR","Onshore,Cross-shore,Cross-shore,Cross-shore",4
5842041f4e65fad6a77088a0,2024_04_21,33.065267421296596,-117.30577,Beacons,2.75,0.4475,0.755,16,16,"CLEAR,NIGHT_MOSTLY_CLEAR,NIGHT_MOSTLY_CLEAR,NIGHT_MOSTLY_CLEAR","Onshore,Cross-shore,Cross-shore,Cross-shore",4
5842041f4e65fad6a77088a2,2024_04_21,21.252,-157.805,Diamond Head,3.125,0.8073825,1.1493816666666667,26,25,"CLEAR,NIGHT_MOSTLY_CLEAR,NIGHT_CLEAR,NIGHT_CLEAR","Cross-shore,Offshore,Offshore,Offshore",4
5842041f4e65fad6a77088a3,2024_04_21,33.04694255008896,-117.29966,Moonlight State Beach,2.5,0.5449999999999999,0.8500000000000001,16,16,"CLEAR,NIGHT_CLEAR,NIGHT_CLEAR,NIGHT_CLEAR","Onshore,Onshore,Onshore,Onshore",4
5842041f4e65fad6a77088a5,2024_04_21,33.08685865930869,-117.31532,Ponto,2.5,0.645,0.9524999999999999,16,16,"CLEAR,NIGHT_MOSTLY_CLEAR,NIGHT_MOSTLY_CLEAR,NIGHT_MOSTLY_CLEAR","Onshore,Onshore,Cross-shore,Onshore",4
5842041f4e65fad6a77088a6,2024_04_21,33.130343587871906,-117.33668,Terra Mar Point,2.75,0.4649166666666667,0.8030833333333334,14,14,"CLEAR,NIGHT_CLEAR,NIGHT_CLEAR,NIGHT_CLEAR","Onshore,Cross-shore,Onshore,Offshore",4
5842041f4e65fad6a77088af,2024_04_21,32.95916304183685,-117.26963,Del Mar,2.75,0.48,0.785,16,16,"CLEAR,NIGHT_CLEAR,NIGHT_CLEAR,NIGHT_CLEAR","Onshore,Onshore,Onshore,Onshore",4
5842041f4e65fad6a77088b0,2024_04_21,32.97527261243354,-117.2721061331305,Del Mar Rivermouth,2.75,0.46499999999999997,0.77,16,16,"CLEAR,NIGHT_CLEAR,NIGHT_CLEAR,NIGHT_CLEAR","Onshore,Onshore,Onshore,Onshore",4
5842041f4e65fad6a77088b1,2024_04_21,33.01352178146273,-117.28219,Cardiff Reef,2.1675,0.24783333333333335,0.5810000000000001,14,14,"CLEAR,NIGHT_MOSTLY_CLEAR,NIGHT_MOSTLY_CLEAR,NIGHT_MOSTLY_CLEAR","Onshore,Onshore,Onshore,Onshore",4
5842041f4e65fad6a77088b3,2024_04_21,33.00211185876003,-117.2811,Seaside Reef,2.9175,0.49075,0.831,14,14,"CLEAR,NIGHT_CLEAR,NIGHT_CLEAR,NIGHT_CLEAR","Onshore,Cross-shore,Cross-shore,Cross-shore",4
5842041f4e65fad6a77088b4,2024_04_21,33.0341859796287,-117.29552,Swami's,2.75,0.48991666666666667,0.7984166666666667,14,14,"CLEAR,NIGHT_MOSTLY_CLEAR,NIGHT_MOSTLY_CLEAR,NIGHT_MOSTLY_CLEAR","Onshore,Onshore,Onshore,Onshore",4
5842041f4e65fad6a77088b7,2024_04_21,33.04569760260221,-117.2994,D Street,2.75,0.6025,0.9099999999999999,16,16,"CLEAR,NIGHT_CLEAR,NIGHT_CLEAR,NIGHT_CLEAR","Onshore,Onshore,Onshore,Onshore",4
5842041f4e65fad6a77088b8,2024_04_21,33.02090944350196,-117.28535,San Elijo State Beach,2,0.3145,0.6526666666666667,14,14,"CLEAR,NIGHT_MOSTLY_CLEAR,NIGHT_MOSTLY_CLEAR,NIGHT_MOSTLY_CLEAR","Onshore,Onshore,Onshore,Onshore",4
5842041f4e65fad6a77088c2,2024_04_21,32.80662846492798,-117.26888,PB Point,2.75,0.54,0.8425,17,17,"CLEAR,NIGHT_MOSTLY_CLEAR,NIGHT_MOSTLY_CLEAR,NIGHT_MOSTLY_CLEAR","Cross-shore,Onshore,Onshore,Onshore",4
5842041f4e65fad6a77088c4,2024_04_21,32.8060476681448,-117.26479,Old Man's at Tourmaline,2.75,0.3325,0.6375,17,17,"CLEAR,NIGHT_MOSTLY_CLEAR,NIGHT_MOSTLY_CLEAR,NIGHT_MOSTLY_CLEAR","Cross-shore,Cross-shore,Onshore,Onshore",4
5842041f4e65fad6a77088cb,2024_04_21,32.557056711256,-117.1327445020322,Tijuana Slough,1.75,0.425,0.7324999999999999,16,16,"CLEAR,NIGHT_CLEAR,NIGHT_MOSTLY_CLOUDY,NIGHT_MOSTLY_CLOUDY","Onshore,Cross-shore,Cross-shore,Cross-shore",4
5842041f4e65fad6a77088cc,2024_04_21,32.863,-117.257,La Jolla Shores,2,0.3675,0.6725000000000001,17,17,"CLEAR,NIGHT_CLEAR,NIGHT_CLEAR,NIGHT_CLEAR","Onshore,Onshore,Onshore,Onshore",4
5842041f4e65fad6a77088ce,2024_04_21,32.67443657790586,-117.17421,Coronado Beach,3,1.0025,1.1975,17,17,"CLEAR,NIGHT_CLEAR,NIGHT_CLEAR,NIGHT_MOSTLY_CLOUDY","Cross-shore,Offshore,Offshore,Offshore",4
5842041f4e65fad6a77088cf,2024_04_21,33.40484417640326,-117.60749,San Clemente State Beach,2.5,0.6375,0.945,16,16,"CLEAR,NIGHT_CLEAR,NIGHT_CLEAR,NIGHT_CLEAR","Onshore,Offshore,Offshore,Cross-shore",4
5842041f4e65fad6a77088d5,2024_04_21,33.4663042002114,-117.7168352817103,Strands,3,0.7505,1.0565,14,14,"CLEAR,NIGHT_CLEAR,NIGHT_CLEAR,NIGHT_MOSTLY_CLOUDY","Onshore,Cross-shore,Cross-shore,Cross-shore",4
5842041f4e65fad6a77088d7,2024_04_21,33.4609858001748,-117.68535,Doheny State Beach,2,0.31575000000000003,0.6539166666666667,16,16,"CLEAR,NIGHT_CLEAR,NIGHT_CLEAR,NIGHT_CLEAR","Onshore,Cross-shore,Offshore,Cross-shore",4
5842041f4e65fad6a77088dc,2024_04_21,33.50894790083017,-117.75243,Aliso Creek,2.75,0.95,1.1375,16,16,"CLEAR,NIGHT_CLEAR,NIGHT_MOSTLY_CLEAR,NIGHT_CLEAR","Onshore,Cross-shore,Offshore,Offshore",4
5842041f4e65fad6a77088dd,2024_04_21,33.5326591767067,-117.77764,Brooks Street,1.75,0.4275,0.73,16,16,"CLEAR,NIGHT_CLEAR,NIGHT_MOSTLY_CLOUDY,NIGHT_MOSTLY_CLOUDY","Onshore,Cross-shore,Offshore,Offshore",4
5842041f4e65fad6a77088de,2024_04_21,33.53561225884637,-117.7799,Thalia Street,2.5,0.585,0.8925000000000001,16,16,"CLEAR,NIGHT_CLEAR,NIGHT_MOSTLY_CLOUDY,NIGHT_MOSTLY_CLOUDY","Onshore,Cross-shore,Offshore,Offshore",4
5842041f4e65fad6a77088e3,2024_04_21,33.54268310353641,-117.7916,Rockpile,2.75,1.005,1.2875,16,16,"CLEAR,NIGHT_CLEAR,NIGHT_MOSTLY_CLOUDY,NIGHT_MOSTLY_CLOUDY","Cross-shore,Cross-shore,Offshore,Offshore",4
5842041f4e65fad6a77088e4,2024_04_21,33.7368459504689,-118.10342,"Seal Beach Pier, Southside",1.75,0.1625,0.465,15,15,"CLEAR,NIGHT_CLEAR,NIGHT_CLEAR,NIGHT_CLEAR","Onshore,Offshore,Offshore,Offshore",4
5842041f4e65fad6a77088e5,2024_04_21,33.73933701820233,-118.117,Ray Bay,1.75,0.2525,0.5525,15,15,"CLEAR,NIGHT_CLEAR,NIGHT_CLEAR,NIGHT_CLEAR","Onshore,Offshore,Offshore,Offshore",4
5842041f4e65fad6a77088e7,2024_04_21,33.728733,-118.08982,Surfside,1.75,0.06,0.37,16,16,"CLEAR,NIGHT_CLEAR,NIGHT_CLEAR,NIGHT_CLEAR","Onshore,Offshore,Offshore,Offshore",4
5842041f4e65fad6a77088e8,2024_04_21,33.68760321488161,-118.04236,Bolsa Chica State Beach,2.5,0.47991666666666666,0.8155833333333333,14,14,"CLEAR,NIGHT_CLEAR,NIGHT_CLEAR,NIGHT_CLEAR","Onshore,Onshore,Onshore,Onshore",4
5842041f4e65fad6a77088ea,2024_04_21,33.66704400178788,-118.0192,North HB Streets,2.5,0.7563333333333333,1.0579583333333333,14,14,"CLEAR,NIGHT_CLEAR,NIGHT_MOSTLY_CLEAR,NIGHT_MOSTLY_CLEAR","Onshore,Onshore,Onshore,Onshore",4
5842041f4e65fad6a77088ed,2024_04_21,33.65475101379567,-118.00291,Huntington Beach Pier Southside,2.5,0.9888333333333333,1.2349166666666667,14,14,"CLEAR,NIGHT_CLEAR,NIGHT_MOSTLY_CLEAR,NIGHT_MOSTLY_CLEAR","Onshore,Onshore,Onshore,Onshore",4
5842041f4e65fad6a77088ee,2024_04_21,33.62778647706099,-117.95939,River Jetties,2.75,0.9384166666666667,1.1786666666666665,15,15,"CLEAR,NIGHT_CLEAR,NIGHT_MOSTLY_CLOUDY,NIGHT_MOSTLY_CLOUDY","Onshore,Onshore,Onshore,Onshore",4
5842041f4e65fad6a77088f2,2024_04_21,33.605165797643664,-117.925,Newport Point,3,0.865,1.0750000000000002,16,16,"CLEAR,NIGHT_CLEAR,NIGHT_MOSTLY_CLOUDY,NIGHT_MIST","Onshore,Cross-shore,Cross-shore,Cross-shore",4
5842041f4e65fad6a77088f3,2024_04_21,33.58982984726977,-117.87713,Corona del Mar,2,0.2746425,0.42913,16,16,"CLEAR,NIGHT_MOSTLY_CLEAR,NIGHT_MIST,NIGHT_MIST","Onshore,Offshore,Offshore,Offshore",4
5842041f4e65fad6a77088f7,2024_04_21,34.00750300824362,-118.4971783496269,Santa Monica Pier,2.5,0.715,1.0175,15,15,"CLEAR,NIGHT_MOSTLY_CLEAR,NIGHT_MOSTLY_CLEAR,NIGHT_MOSTLY_CLOUDY","Onshore,Onshore,Cross-shore,Offshore",4
5842041f4e65fad6a77088ff,2024_04_21,33.94070283102945,-118.44321,Dockweiler Beach,2.75,0.7559575,1.00779625,14,14,"CLEAR,NIGHT_MIST,NIGHT_MOSTLY_CLOUDY,NIGHT_MOSTLY_CLOUDY","Onshore,Onshore,Onshore,Cross-shore",4
5842041f4e65fad6a7708900,2024_04_21,33.9231846937237,-118.4341465777908,Shitpipe,2.0825,0.4365833333333334,0.7722499999999999,14,14,"CLEAR,NIGHT_MIST,NIGHT_MOSTLY_CLOUDY,NIGHT_MOSTLY_CLOUDY","Onshore,Onshore,Onshore,Cross-shore",4
5842041f4e65fad6a7708902,2024_04_21,33.9108528052242,-118.4279133138721,Hammerland,2.75,0.6815833333333333,1.01975,14,14,"CLEAR,NIGHT_MIST,NIGHT_MOSTLY_CLOUDY,NIGHT_MOSTLY_CLOUDY","Onshore,Onshore,Onshore,Cross-shore",4
5842041f4e65fad6a7708904,2024_04_21,33.87201368173932,-118.40752,Hermosa Beach,2.0825,0.3426666666666667,0.6465833333333334,14,14,"CLEAR,NIGHT_MOSTLY_CLEAR,NIGHT_MOSTLY_CLOUDY,NIGHT_MOSTLY_CLOUDY","Onshore,Onshore,Onshore,Onshore",4
5842041f4e65fad6a7708906,2024_04_21,33.90129336911256,-118.42184,El Porto,2.3325,0.45866666666666667,0.8014166666666667,14,14,"CLEAR,NIGHT_MOSTLY_CLEAR,NIGHT_MOSTLY_CLOUDY,NIGHT_MOSTLY_CLOUDY","Onshore,Onshore,Onshore,Cross-shore",4
5842041f4e65fad6a7708907,2024_04_21,33.87963506431794,-118.41102,Manhattan Beach Pier,2.5,0.45825,0.76925,14,14,"CLEAR,NIGHT_MOSTLY_CLEAR,NIGHT_MOSTLY_CLOUDY,NIGHT_MOSTLY_CLOUDY","Onshore,Onshore,Onshore,Onshore",4
5842041f4e65fad6a7708914,2024_04_21,34.038053387863464,-118.5532,Sunset Point,2.75,0.3075,0.6174999999999999,15,15,"CLEAR,NIGHT_MOSTLY_CLEAR,NIGHT_MOSTLY_CLOUDY,NIGHT_MOSTLY_CLOUDY","Onshore,Offshore,Offshore,Offshore",4
5842041f4e65fad6a7708920,2024_04_21,33.80282,-118.39989,Haggerty's,2,0.1305,0.312,15,15,"MIST,NIGHT_MIST,NIGHT_MOSTLY_CLOUDY,NIGHT_MOSTLY_CLOUDY","Onshore,Onshore,Onshore,Onshore",4
5842041f4e65fad6a7708921,2024_04_21,33.85044519861206,-118.40048,Redondo Breakwater,1.75,0.28250000000000003,0.5874999999999999,15,15,"CLEAR,NIGHT_MOSTLY_CLEAR,NIGHT_MOSTLY_CLOUDY,NIGHT_MOSTLY_CLOUDY","Onshore,Onshore,Onshore,Onshore",4
5842041f4e65fad6a7708927,2024_04_21,33.70877301002487,-118.2840112858389,Cabrillo Beach,1,0,0.27,15,15,"CLEAR,NIGHT_CLEAR,NIGHT_MIST,NIGHT_MIST","Cross-shore,Offshore,Offshore,Offshore",4
5842041f4e65fad6a770892c,2024_04_21,33.77209986806257,-118.4268428476672,Lunada Bay,1.5,0.3425,0.6525000000000001,15,15,"CLEAR,NIGHT_MIST,NIGHT_MOSTLY_CLOUDY,NIGHT_MOSTLY_CLOUDY","Onshore,Onshore,Cross-shore,Offshore",4
5842041f4e65fad6a770892d,2024_04_21,33.79294656286144,-118.40703,PV Cove,2,0.4865575,0.7401975000000001,15,15,"MIST,NIGHT_MIST,NIGHT_MOSTLY_CLOUDY,NIGHT_MOSTLY_CLOUDY","Onshore,Onshore,Onshore,Onshore",4
5842041f4e65fad6a7708930,2024_04_21,34.03944902292561,-118.57539,Chart House,1.75,0.04,0.34249999999999997,15,15,"CLEAR,NIGHT_MOSTLY_CLEAR,NIGHT_MOSTLY_CLEAR,NIGHT_MOSTLY_CLEAR","Cross-shore,Offshore,Offshore,Offshore",4
5842041f4e65fad6a7708936,2024_04_21,34.0016731994772,-118.80456,Point Dume,2.6675,0.4421833333333334,0.7916333333333333,14,14,"CLEAR,NIGHT_CLEAR,NIGHT_MOSTLY_CLOUDY,NIGHT_MOSTLY_CLOUDY","Cross-shore,Offshore,Cross-shore,Cross-shore",4
5842041f4e65fad6a7708937,2024_04_21,34.02587527588963,-118.7554939066114,Latigo Point,3,0.945,1.13,15,15,"CLEAR,NIGHT_CLEAR,NIGHT_MOSTLY_CLEAR,NIGHT_MOSTLY_CLOUDY","Cross-shore,Offshore,Offshore,Offshore",4
5842041f4e65fad6a770893f,2024_04_21,34.043762,-118.93294,Leo Carrillo,2.8325,1.0018166666666666,1.2329083333333333,14,14,"CLEAR,NIGHT_CLEAR,NIGHT_CLEAR,NIGHT_CLEAR","Cross-shore,Offshore,Offshore,Offshore",4
5842041f4e65fad6a7708941,2024_04_21,36.69388179265737,-121.81289,Marina State Beach,1.75,0.4125,0.7225,13,13,"CLEAR,NIGHT_MIST,NIGHT_MIST,NIGHT_MIST","Onshore,Onshore,Onshore,Onshore",4
5842041f4e65fad6a7708944,2024_04_21,34.34145077331085,-119.416999352654,Stanley's,2,0.23500000000000001,0.54,15,15,"CLEAR,NIGHT_MIST,NIGHT_CLEAR,NIGHT_MIST","Onshore,Offshore,Offshore,Offshore",4
5842041f4e65fad6a7708945,2024_04_21,34.35113017313915,-119.426921498899,Oil Piers,2,0.2875,0.59,15,15,"CLEAR,NIGHT_MIST,NIGHT_CLEAR,NIGHT_MIST","Onshore,Offshore,Cross-shore,Offshore",4
5842041f4e65fad6a770894c,2024_04_21,34.17876333306018,-119.23995,Oxnard,2.75,1.0375,1.2425,15,15,"CLEAR,NIGHT_CLEAR,NIGHT_CLEAR,NIGHT_MIST","Onshore,Onshore,Offshore,Offshore",4
5842041f4e65fad6a7708957,2024_04_21,34.31720331100517,-119.3882324751725,Pitas Point,2,0.27,0.575,15,15,"MIST,NIGHT_MIST,NIGHT_MIST,NIGHT_MIST","Cross-shore,Onshore,Offshore,Offshore",4
5842041f4e65fad6a7708959,2024_04_21,34.27851754384724,-119.3162,Emma Wood,2,0.2575,0.56,15,15,"CLEAR,NIGHT_CLEAR,NIGHT_MIST,NIGHT_MIST","Onshore,Offshore,Offshore,Offshore",4
5842041f4e65fad6a770895a,2024_04_21,34.35513640390276,-119.4400589884255,Mussel Shoals (aka Little Rincon),2,0.14500000000000002,0.45,15,15,"CLEAR,NIGHT_MIST,NIGHT_MIST,NIGHT_MIST","Onshore,Offshore,Cross-shore,Cross-shore",4
5842041f4e65fad6a770895e,2024_04_21,34.28991757054902,-119.3366646794652,Summer Beach,2.75,0.3,0.6025,15,15,"CLEAR,NIGHT_CLEAR,NIGHT_MIST,NIGHT_MIST","Onshore,Offshore,Offshore,Offshore",4
5842041f4e65fad6a770895f,2024_04_21,34.30897456105926,-119.3582501170116,Solimar,2,0.2575,0.565,15,15,"MIST,NIGHT_MIST,NIGHT_MIST,NIGHT_MIST","Cross-shore,Onshore,Offshore,Offshore",4
5842041f4e65fad6a7708960,2024_04_21,34.39836265281686,-119.70213,Leadbetter Point,1,0,0.295,14,14,"CLEAR,NIGHT_MIST,NIGHT_MIST,NIGHT_MIST","Cross-shore,Onshore,Cross-shore,Offshore",4
5842041f4e65fad6a7708961,2024_04_21,34.46052293893899,-120.07328,Refugio,2,0.135,0.445,14,14,"CLEAR,NIGHT_CLEAR,NIGHT_CLEAR,NIGHT_CLEAR","Cross-shore,Cross-shore,Cross-shore,Offshore",4
5842041f4e65fad6a7708962,2024_04_21,34.40754276777778,-119.87639,Devereux,1.75,0.2375,0.5375000000000001,14,14,"MIST,NIGHT_CLEAR,NIGHT_MIST,NIGHT_CLEAR","Cross-shore,Onshore,Onshore,Onshore",4
5842041f4e65fad6a7708963,2024_04_21,34.27479983305182,-119.3133222656776,Ventura Overhead,2.25,0.275,0.5825,15,15,"CLEAR,NIGHT_CLEAR,NIGHT_MIST,NIGHT_MIST","Onshore,Offshore,Offshore,Offshore",4
5842041f4e65fad6a7708964,2024_04_21,34.41023236011655,-119.88261,Sands,1.75,0.2225,0.525,14,14,"MIST,NIGHT_CLEAR,NIGHT_MIST,NIGHT_CLEAR","Onshore,Cross-shore,Offshore,Offshore",4
5842041f4e65fad6a7708966,2024_04_21,34.40450193869233,-119.68752,Sandspit,1,0,0.2075,14,14,"CLEAR,NIGHT_MIST,NIGHT_MIST,NIGHT_MIST","Cross-shore,Onshore,Offshore,Offshore",4
5842041f4e65fad6a7708967,2024_04_21,34.41549098334453,-119.6375149840203,Hammond's,1,0,0.1725,14,14,"CLEAR,NIGHT_MIST,NIGHT_MIST,NIGHT_MIST","Cross-shore,Offshore,Onshore,Cross-shore",4
5842041f4e65fad6a7708968,2024_04_21,34.45759322742309,-120.02203,El Capitan,2,0.1725,0.4775,14,14,"CLEAR,NIGHT_CLEAR,NIGHT_CLEAR,NIGHT_MIST","Cross-shore,Onshore,Offshore,Offshore",4
5842041f4e65fad6a770896c,2024_04_21,34.405117655616,-119.84317,Campus Point,2,0.0375,0.345,14,14,"CLEAR,NIGHT_MIST,NIGHT_MIST,NIGHT_CLEAR","Cross-shore,Onshore,Onshore,Onshore",4
5842041f4e65fad6a770896e,2024_04_21,34.38935162233354,-119.51955,Carpinteria State Beach,2,0.0975,0.40249999999999997,15,15,"CLEAR,NIGHT_CLEAR,NIGHT_CLEAR,NIGHT_CLEAR","Offshore,Onshore,Onshore,Onshore",4
5842041f4e65fad6a770896f,2024_04_21,37.48296565175612,-122.45493,Half Moon Bay,2,0.84,1.04,13,13,"MIST,NIGHT_CLEAR,NIGHT_CLEAR,NIGHT_MIST","Onshore,Cross-shore,Cross-shore,Cross-shore",4
5842041f4e65fad6a7708970,2024_04_21,37.499,-122.471,Princeton Jetty,1.75,0.59,0.895,13,13,"CLEAR,NIGHT_CLEAR,NIGHT_CLEAR,NIGHT_BRIEF_SHOWERS","Cross-shore,Cross-shore,Cross-shore,Cross-shore",4
5842041f4e65fad6a7708972,2024_04_21,37.35699547365155,-122.4069534707252,Tunitas Creek,2,1.0925,1.295,13,13,"BRIEF_SHOWERS,NIGHT_CLEAR,NIGHT_MIST,NIGHT_MIST","Cross-shore,Cross-shore,Cross-shore,Cross-shore",4
5842041f4e65fad6a7708974,2024_04_21,37.54735589428842,-122.51611,Montara,1.25,1.0425,1.35,13,13,"BRIEF_SHOWERS,NIGHT_CLEAR,NIGHT_MIST,NIGHT_BRIEF_SHOWERS","Onshore,Onshore,Onshore,Onshore",4
5842041f4e65fad6a7708975,2024_04_21,34.3869373724559,-119.5142334209018,Tarpits,2,0.08750000000000001,0.3875,15,15,"CLEAR,NIGHT_MOSTLY_CLEAR,NIGHT_MOSTLY_CLEAR,NIGHT_MOSTLY_CLEAR","Offshore,Onshore,Onshore,Onshore",4
5842041f4e65fad6a7708976,2024_04_21,37.59881852720143,-122.50463,Linda Mar,1.25,0.24755,0.554475,14,14,"SHOWERS,NIGHT_CLEAR,NIGHT_MOSTLY_CLEAR,NIGHT_MOSTLY_CLOUDY","Onshore,Onshore,Onshore,Onshore",4
5842041f4e65fad6a7708978,2024_04_21,37.59883098461164,-122.5143843582282,Pedro Point,2,1.0525,1.3575,14,14,"CLEAR,NIGHT_CLEAR,NIGHT_MOSTLY_CLEAR,NIGHT_MOSTLY_CLOUDY","Onshore,Onshore,Cross-shore,Onshore",4
5842041f4e65fad6a7708979,2024_04_21,37.61081996647663,-122.49733,Rockaway,2,0.9875,1.2925,14,14,"SHOWERS,NIGHT_CLEAR,NIGHT_MOSTLY_CLEAR,NIGHT_MOSTLY_CLOUDY","Onshore,Onshore,Onshore,Onshore",4
5842041f4e65fad6a770897a,2024_04_21,37.809987384424446,-122.47514,Fort Point,1.75,0.5700000000000001,0.8724999999999999,14,14,"MIST,NIGHT_CLEAR,NIGHT_CLEAR,NIGHT_CLEAR","Cross-shore,Cross-shore,Cross-shore,Cross-shore",4
5842041f4e65fad6a770897c,2024_04_21,37.63422542967464,-122.4951,Sharp Park,2,1.0625,1.37,14,14,"MIST,NIGHT_CLEAR,NIGHT_MOSTLY_CLEAR,NIGHT_MOSTLY_CLOUDY","Onshore,Onshore,Onshore,Onshore",4
5842041f4e65fad6a770897d,2024_04_21,37.27313605072472,-122.4127387912554,Pescadero,2,0.905,1.21,13,13,"MIST,NIGHT_CLEAR,NIGHT_CLEAR,NIGHT_MOSTLY_CLOUDY","Cross-shore,Cross-shore,Cross-shore,Cross-shore",4
5842041f4e65fad6a770897e,2024_04_21,37.18140279972666,-122.3926685899327,Pigeon Point,3,1.185,1.4075,12,12,"MIST,NIGHT_CLEAR,NIGHT_MOSTLY_CLEAR,NIGHT_MOSTLY_CLOUDY","Offshore,Offshore,Offshore,Offshore",4
5842041f4e65fad6a770897f,2024_04_21,37.11578956919415,-122.314699271291,Ano Nuevo,3,0.725,1.03,12,12,"CLEAR,NIGHT_CLEAR,NIGHT_CLEAR,NIGHT_CLEAR","Offshore,Offshore,Offshore,Offshore",4
5842041f4e65fad6a7708980,2024_04_21,37.09520872681598,-122.2805474707768,Waddell Creek,2.5,1.0775000000000001,1.335,13,13,"CLEAR,NIGHT_CLEAR,NIGHT_CLEAR,NIGHT_CLEAR","Onshore,Cross-shore,Offshore,Offshore",4
5842041f4e65fad6a7708981,2024_04_21,36.96512852130351,-122.1252825495626,Four Mile,2.75,0.5325,0.8375,13,13,"CLEAR,NIGHT_CLEAR,NIGHT_CLEAR,NIGHT_CLEAR","Cross-shore,Offshore,Offshore,Offshore",4
5842041f4e65fad6a7708982,2024_04_21,37.04122807048655,-122.23337,Scott Creek,2.75,1.0175,1.295,13,13,"CLEAR,NIGHT_CLEAR,NIGHT_CLEAR,NIGHT_CLEAR","Cross-shore,Offshore,Cross-shore,Offshore",4
5842041f4e65fad6a7708983,2024_04_21,37.02350229387179,-122.21908,Davenport,3,1.4024999999999999,1.675,13,13,"CLEAR,NIGHT_CLEAR,NIGHT_CLEAR,NIGHT_CLEAR","Cross-shore,Cross-shore,Cross-shore,Offshore",4
5842041f4e65fad6a7708986,2024_04_21,36.94905295955728,-122.06118,Natural Bridges,3,1.0725,1.285,13,13,"CLEAR,NIGHT_CLEAR,NIGHT_CLEAR,NIGHT_CLEAR","Onshore,Offshore,Onshore,Onshore",4
5842041f4e65fad6a7708987,2024_04_21,36.95154854910425,-122.04207,Mitchell's Cove,3,1.045,1.2475,13,13,"CLEAR,NIGHT_MIST,NIGHT_MOSTLY_CLEAR,NIGHT_MIST","Onshore,Onshore,Onshore,Onshore",4
5842041f4e65fad6a770898a,2024_04_21,36.9572312370203,-121.98177,26th Ave,3,1.2625,1.51,13,13,"CLEAR,NIGHT_MIST,NIGHT_MIST,NIGHT_MIST","Cross-shore,Cross-shore,Cross-shore,Offshore",4
5842041f4e65fad6a770898e,2024_04_21,36.91899972819882,-121.85536,Manresa,2.75,0.4775,0.7825,14,14,"BRIEF_SHOWERS_POSSIBLE,NIGHT_MIST,NIGHT_MIST,NIGHT_CLEAR","Onshore,Cross-shore,Cross-shore,Offshore",4
5842041f4e65fad6a7708990,2024_04_21,34.45747731928454,-120.34242,The Ranch,3,0.6799999999999999,0.9875,13,13,"CLEAR,NIGHT_CLEAR,NIGHT_CLEAR,NIGHT_CLEAR","Onshore,Onshore,Offshore,Cross-shore",4
5842041f4e65fad6a7708991,2024_04_21,34.50875036590315,-120.50348,Jalama,3,1.0375,1.245,13,13,"CLEAR,NIGHT_CLEAR,NIGHT_CLEAR,NIGHT_CLEAR","Offshore,Offshore,Offshore,Offshore",4
5842041f4e65fad6a7708996,2024_04_21,34.68700870220497,-120.6111611019887,Surf Beach,1.75,1.035,1.3425,13,13,"BRIEF_SHOWERS,NIGHT_MOSTLY_CLEAR,NIGHT_CLEAR,NIGHT_CLEAR","Onshore,Onshore,Onshore,Onshore",4
5842041f4e65fad6a770899c,2024_04_21,35.5730538161116,-121.1143362345574,Moonstone,2.75,1.01,1.2025,13,13,"CLEAR,NIGHT_CLEAR,NIGHT_CLEAR,NIGHT_CLEAR","Onshore,Offshore,Offshore,Offshore",4
5842041f4e65fad6a770899d,2024_04_21,35.61533716776573,-121.1502053073914,Pico Creek,2.75,1.155,1.3824999999999998,13,13,"CLEAR,NIGHT_CLEAR,NIGHT_CLEAR,NIGHT_CLEAR","Onshore,Offshore,Offshore,Offshore",4
5842041f4e65fad6a770899e,2024_04_21,35.56829031927379,-121.11207,Santa Rosa Creek,2.75,1.01,1.2025,13,13,"MIST,NIGHT_CLEAR,NIGHT_CLEAR,NIGHT_CLEAR","Onshore,Cross-shore,Cross-shore,Cross-shore",4
5842041f4e65fad6a77089a2,2024_04_21,35.44820114936284,-120.90715,"Cayucos Pier, Southside ",2.75,0.31,0.6175,14,14,"CLEAR,NIGHT_MIST,NIGHT_CLEAR,NIGHT_CLEAR","Onshore,Offshore,Offshore,Offshore",4
5842041f4e65fad6a77089a4,2024_04_21,35.30143372628852,-120.877819239902,Cable Landing,1.75,1.3775,1.6825,13,13,"MIST,NIGHT_MIST,NIGHT_MIST,NIGHT_CLEAR","Onshore,Onshore,Onshore,Onshore",4
5842041f4e65fad6a77089a9,2024_04_21,35.61269103500222,-121.14807,San Simeon,2.75,0.80675,0.98,13,13,"CLEAR,NIGHT_CLEAR,NIGHT_CLEAR,NIGHT_CLEAR","Onshore,Offshore,Offshore,Offshore",4
5842041f4e65fad6a77089ab,2024_04_21,35.1775325966252,-120.73411,Avila Beach,2,0.1825,0.49,13,13,"CLEAR,NIGHT_CLEAR,NIGHT_CLEAR,NIGHT_CLEAR","Offshore,Onshore,Offshore,Offshore",4
5842041f4e65fad6a77089ac,2024_04_21,35.13877877884115,-120.64535,Pismo Beach Pier,2.8325,0.649475,0.9530666666666667,12,12,"CLEAR,NIGHT_CLEAR,NIGHT_CLEAR,NIGHT_CLEAR","Offshore,Offshore,Cross-shore,Offshore",4
5842041f4e65fad6a77089ad,2024_04_21,46.8907710233147,-124.12964,Westport/Olympic Peninsula,1,1.2775,1.545,10,10,"LIGHT_RAIN,NIGHT_CLEAR,NIGHT_MOSTLY_CLOUDY,NIGHT_CLOUDY","Onshore,Onshore,Onshore,Onshore",4
5842041f4e65fad6a77089ae,2024_04_21,46.35185177248545,-124.06747,Long Beach Peninsula,1,1.4,1.6375,11,11,"DRIZZLE,NIGHT_CLEAR,NIGHT_CLEAR,NIGHT_MOSTLY_CLOUDY","Onshore,Onshore,Onshore,Onshore",4
5842041f4e65fad6a77089af,2024_04_21,47.90649175554033,-124.63709,La Push,1,1.7375,1.995,9,9,"LIGHT_RAIN,NIGHT_MOSTLY_CLOUDY,NIGHT_CLOUDY,NIGHT_MOSTLY_CLOUDY","Onshore,Onshore,Onshore,Onshore",4
5842041f4e65fad6a77089b0,2024_04_21,42.04368239985442,-124.26828,Brookings Jetty,2.75,0.4452875,0.6957599999999999,9,9,"DRIZZLE,NIGHT_CLEAR,NIGHT_CLEAR,NIGHT_CLEAR","Cross-shore,Offshore,Offshore,Offshore",4
5842041f4e65fad6a77089b1,2024_04_21,42.74071837900346,-124.4983727491047,Port Orford,2.75,0.6325000000000001,0.9375,9,9,"LIGHT_RAIN,NIGHT_CLEAR,NIGHT_CLEAR,NIGHT_CLEAR","Onshore,Offshore,Offshore,Offshore",4
5842041f4e65fad6a77089b2,2024_04_21,44.01532689312291,-124.13865,Florence South Jetty,2.5,1.1675,1.44,10,10,"BRIEF_SHOWERS,NIGHT_FOG,NIGHT_FOG,NIGHT_FOG","Onshore,Onshore,Onshore,Onshore",4
5842041f4e65fad6a77089b3,2024_04_21,42.41812540774362,-124.42945,Gold Beach South Jetty,2.75,0.9,1.145,9,9,"SHOWERS,NIGHT_CLEAR,NIGHT_CLEAR,NIGHT_CLEAR","Onshore,Offshore,Offshore,Offshore",4
5842041f4e65fad6a77089b4,2024_04_21,44.95857310226525,-124.0219,Lincoln City,1.75,1.195,1.4275,10,10,"RAIN,NIGHT_MOSTLY_CLEAR,NIGHT_CLEAR,NIGHT_CLEAR","Onshore,Onshore,Onshore,Onshore",4
5842041f4e65fad6a77089b5,2024_04_21,44.63792761362982,-124.0657,Newport,2,1.3325,1.6300000000000001,10,10,"OVERCAST,NIGHT_CLEAR,NIGHT_MOSTLY_CLOUDY,NIGHT_CLEAR","Onshore,Cross-shore,Onshore,Onshore",4
5842041f4e65fad6a77089b6,2024_04_21,45.61468496266301,-123.94643,Rockaway Beach,1.75,1.285,1.5250000000000001,10,10,"OVERCAST,NIGHT_MOSTLY_CLOUDY,NIGHT_MOSTLY_CLOUDY,NIGHT_MOSTLY_CLOUDY","Onshore,Onshore,Onshore,Onshore",4
5842041f4e65fad6a77089b7,2024_04_21,45.20252914186085,-123.96975,Pacific City,1.75,1.11,1.3475,10,10,"DRIZZLE,NIGHT_BRIEF_SHOWERS,NIGHT_CLEAR,NIGHT_MOSTLY_CLOUDY","Onshore,Onshore,Onshore,Onshore",4
5842041f4e65fad6a77089b8,2024_04_21,45.88179930310263,-123.96681,Cannon Beach,1.75,1.355,1.6125,11,11,"LIGHT_RAIN,NIGHT_MOSTLY_CLEAR,NIGHT_MOSTLY_CLOUDY,NIGHT_MOSTLY_CLOUDY","Onshore,Onshore,Onshore,Onshore",4
5842041f4e65fad6a77089ba,2024_04_21,40.02528754746774,-124.06372,Shelter Cove,2.25,0.3964375,0.6194325,11,11,"MIST,NIGHT_CLEAR,NIGHT_CLEAR,NIGHT_CLEAR","Offshore,Offshore,Offshore,Offshore",4
5842041f4e65fad6a77089bb,2024_04_21,40.76816197136951,-124.24248,Humboldt Harbor Entrance,1,0.69,0.9975,10,10,"MIST,NIGHT_CLEAR,NIGHT_CLEAR,NIGHT_CLEAR","Onshore,Cross-shore,Cross-shore,Cross-shore",4
5842041f4e65fad6a77089bc,2024_04_21,40.76684246920174,-124.23107,North Jetty,2,0.9725,1.23,10,10,"MIST,NIGHT_CLEAR,NIGHT_CLEAR,NIGHT_CLEAR","Onshore,Cross-shore,Cross-shore,Cross-shore",4
5842041f4e65fad6a77089bd,2024_04_21,41.02731183893966,-124.1149972888982,Westhaven,2.75,1.0025,1.2825,10,10,"MIST,NIGHT_CLEAR,NIGHT_CLEAR,NIGHT_CLEAR","Onshore,Offshore,Offshore,Offshore",4
5842041f4e65fad6a77089be,2024_04_21,41.13016238153297,-124.16466,Sue-meg,1.5,0.655,0.9225000000000001,10,10,"MIST,NIGHT_CLEAR,NIGHT_CLEAR,NIGHT_CLEAR","Onshore,Cross-shore,Cross-shore,Cross-shore",4
5842041f4e65fad6a77089bf,2024_04_21,37.8289474958188,-122.53768,Fort Cronkite/Rodeo Beach,1.75,0.7475,1.0499999999999998,14,14,"MIST,NIGHT_CLEAR,NIGHT_CLEAR,NIGHT_CLEAR","Cross-shore,Cross-shore,Cross-shore,Cross-shore",4
5842041f4e65fad6a77089c0,2024_04_21,41.74415759876137,-124.17717,South Beach CA,2.75,0.61,0.915,10,10,"BRIEF_SHOWERS,NIGHT_CLEAR,NIGHT_CLEAR,NIGHT_CLEAR","Cross-shore,Offshore,Offshore,Offshore",4
5842041f4e65fad6a77089c1,2024_04_21,37.89801283969752,-122.64519,Stinson Beach,2.25,0.3725,0.6749999999999999,13,13,"CLEAR,NIGHT_CLEAR,NIGHT_CLEAR,NIGHT_CLEAR","Offshore,Offshore,Onshore,Onshore",4
5842041f4e65fad6a77089c2,2024_04_21,37.90514516176495,-122.68151,Bolinas,2.75,0.6125225,0.9570675,13,13,"CLEAR,NIGHT_CLEAR,NIGHT_CLEAR,NIGHT_CLEAR","Offshore,Cross-shore,Onshore,Onshore",4
5842041f4e65fad6a77089c3,2024_04_21,38.04892513158693,-122.98925,Point Reyes (north),1,1.25,1.5525,12,12,"CLEAR,NIGHT_CLEAR,NIGHT_CLEAR,NIGHT_MOSTLY_CLOUDY","Onshore,Onshore,Onshore,Onshore",4
5842041f4e65fad6a77089c6,2024_04_21,38.31088736605785,-123.0496777333731,Doran Beach,1.75,0.1375,0.44,12,12,"CLEAR,NIGHT_CLEAR,NIGHT_CLEAR,NIGHT_CLEAR","Offshore,Offshore,Offshore,Offshore",4
5842041f4e65fad6a77089c7,2024_04_21,38.45077228660809,-123.13008,Russian Rivermouth,2.25,0.9125,1.14,12,12,"CLEAR,NIGHT_CLEAR,NIGHT_CLEAR,NIGHT_CLEAR","Onshore,Cross-shore,Cross-shore,Cross-shore",4
5842041f4e65fad6a77089c8,2024_04_21,38.35329968518107,-123.06906,Salmon Creek,1,1.0050000000000001,1.3125,12,12,"MIST,NIGHT_CLEAR,NIGHT_CLEAR,NIGHT_CLEAR","Onshore,Onshore,Onshore,Onshore",4
5842041f4e65fad6a77089c9,2024_04_21,38.6845180197959,-123.4322714291198,Black Point Beach,3,0.815,1.0575,11,11,"CLEAR,NIGHT_CLEAR,NIGHT_CLEAR,NIGHT_CLEAR","Onshore,Onshore,Onshore,Onshore",4
5842041f4e65fad6a77089ca,2024_04_21,43.251076,-70.59144,Ogunquit,2.6675,0.3352833333333334,0.639525,7,6,"CLEAR,NIGHT_CLEAR,NIGHT_CLEAR,NIGHT_CLEAR","Cross-shore,Offshore,Offshore,Offshore",4
5842041f4e65fad6a77089cb,2024_04_21,41.362631366305415,-71.48007,Point Judith,2,0.43065,0.729825,9,8,"MIST,NIGHT_CLEAR,NIGHT_CLEAR,NIGHT_CLEAR","Offshore,Offshore,Offshore,Offshore",4
5842041f4e65fad6a77089cd,2024_04_21,41.422678090954726,-71.45413,Monahan's - Narragansett,2,0.393335,0.6145825,9,9,"CLEAR,NIGHT_CLEAR,NIGHT_CLEAR,NIGHT_CLEAR","Offshore,Offshore,Offshore,Offshore",4
5842041f4e65fad6a77089ce,2024_04_21,41.469,-71.293,Ruggles - Newport,1.75,0.469085,0.7329475,9,9,"MIST,NIGHT_CLEAR,NIGHT_CLEAR,NIGHT_CLEAR","Onshore,Offshore,Offshore,Offshore",4
5842041f4e65fad6a77089cf,2024_04_21,43.175394,-70.606351,Short Sands Beach,2,0.34,0.6475,7,7,"CLEAR,NIGHT_CLEAR,NIGHT_CLEAR,NIGHT_CLEAR","Cross-shore,Offshore,Offshore,Offshore",4
5842041f4e65fad6a77089d0,2024_04_21,41.487408,-71.29017,First Beach,1.5,0.2025,0.51,9,9,"CLEAR,NIGHT_CLEAR,NIGHT_CLEAR,NIGHT_CLEAR","Onshore,Offshore,Offshore,Offshore",4
5842041f4e65fad6a77089d1,2024_04_21,42.27916830233153,-70.86498,Nantasket Beach,1.1675,0.022916666666666665,0.32715833333333333,7,6,"CLEAR,NIGHT_CLEAR,NIGHT_CLEAR,NIGHT_CLEAR","Offshore,Cross-shore,Cross-shore,Cross-shore",4
5842041f4e65fad6a77089d2,2024_04_21,41.817,-69.935,Cape Cod,2,0.3125,0.615,7,7,"CLEAR,NIGHT_CLEAR,NIGHT_CLEAR,NIGHT_CLEAR","Cross-shore,Offshore,Offshore,Offshore",4
5842041f4e65fad6a77089d3,2024_04_21,42.22055448975661,-70.70634873403819,Egypt Beach,1.25,0.0525,0.36,8,8,"CLEAR,NIGHT_CLEAR,NIGHT_CLEAR,NIGHT_CLEAR","Cross-shore,Offshore,Offshore,Offshore",4
5842041f4e65fad6a77089d4,2024_04_21,41.48739647744607,-71.25723,Second Beach,0.9575,0.27766291666666665,0.453291875,9,8,"MIST,NIGHT_CLEAR,NIGHT_CLEAR,NIGHT_CLEAR","Onshore,Offshore,Offshore,Offshore",4
5842041f4e65fad6a77089d5,2024_04_21,42.964,-70.769,Fox Hill,1.9175,0.16528333333333334,0.47202500000000003,7,6,"CLEAR,NIGHT_CLEAR,NIGHT_CLEAR,NIGHT_CLEAR","Offshore,Offshore,Offshore,Offshore",4
5842041f4e65fad6a77089d6,2024_04_21,42.991359,-70.75149,Straws Point,1.9175,0.20695000000000002,0.5061916666666666,7,6,"CLEAR,NIGHT_CLEAR,NIGHT_CLEAR,NIGHT_CLEAR","Offshore,Offshore,Offshore,Offshore",4
5842041f4e65fad6a77089d7,2024_04_21,42.946,-70.786,Plaice Cove,1.9175,0.16528333333333334,0.47202500000000003,7,6,"CLEAR,NIGHT_CLEAR,NIGHT_CLEAR,NIGHT_CLEAR","Offshore,Offshore,Offshore,Offshore",4
5842041f4e65fad6a77089d9,2024_04_21,42.911574,-70.80831,The Main Beach,1,6.18750000000029e-5,0.304896875,7,6,"CLEAR,NIGHT_CLEAR,NIGHT_CLEAR,NIGHT_CLEAR","Cross-shore,Offshore,Offshore,Offshore",4
5842041f4e65fad6a77089da,2024_04_21,42.97583846220203,-70.764,Sawyer's Beach,1.9175,0.25070000000000003,0.5524416666666667,7,6,"CLEAR,NIGHT_CLEAR,NIGHT_CLEAR,NIGHT_CLEAR","Offshore,Offshore,Offshore,Offshore",4
5842041f4e65fad6a77089db,2024_04_21,42.97,-70.77,Rye on the Rocks / 5-0's,1,-0.013594999999999996,0.2950875,7,6,"CLEAR,NIGHT_CLEAR,NIGHT_CLEAR,NIGHT_CLEAR","Offshore,Offshore,Offshore,Offshore",4
5842041f4e65fad6a77089dc,2024_04_21,43.55902946610303,-70.27795,Higgins Beach,2,0.299175,0.5964750000000001,7,6,"BRIEF_SHOWERS,NIGHT_CLEAR,NIGHT_CLEAR,NIGHT_CLEAR","Offshore,Offshore,Offshore,Offshore",4
5842041f4e65fad6a77089dd,2024_04_21,43.302676,-70.5652,Wells Beach,1.9175,0.22424166666666667,0.5334833333333333,7,6,"CLEAR,NIGHT_CLEAR,NIGHT_CLEAR,NIGHT_CLEAR","Cross-shore,Offshore,Offshore,Offshore",4
5842041f4e65fad6a77089de,2024_04_21,43.545359,-70.30479,Scarborough Beach State Park,1.9175,0.4020272916666667,0.64761375,7,6,"MOSTLY_CLOUDY,NIGHT_CLEAR,NIGHT_CLEAR,NIGHT_CLEAR","Offshore,Offshore,Offshore,Offshore",4
5842041f4e65fad6a77089df,2024_04_21,43.514481,-70.37215,Old Orchard Beach,2,0.29355000000000003,0.60335,7,6,"MOSTLY_CLOUDY,NIGHT_CLEAR,NIGHT_CLEAR,NIGHT_CLEAR","Offshore,Offshore,Offshore,Offshore",4
5842041f4e65fad6a77089e0,2024_04_21,43.34711,-70.48165,Gooch's Beach,1.2075,0.25090833333333334,0.5541083333333334,7,6,"CLEAR,NIGHT_CLEAR,NIGHT_CLEAR,NIGHT_CLEAR","Offshore,Offshore,Offshore,Offshore",4
5842041f4e65fad6a77089e2,2024_04_21,40.58433,-73.62953,Lido Beach,2,0.421275,0.7317,9,8,"MIST,NIGHT_CLEAR,NIGHT_CLEAR,NIGHT_CLEAR","Cross-shore,Cross-shore,Cross-shore,Offshore",4
5842041f4e65fad6a77089e3,2024_04_21,43.163135,-70.61689,Long Sands Beach,2,0.29230500000000004,0.590075625,7,6,"LIGHT_SHOWERS_POSSIBLE,NIGHT_CLEAR,NIGHT_CLEAR,NIGHT_CLEAR","Offshore,Offshore,Offshore,Offshore",4
5842041f4e65fad6a77089e4,2024_04_21,40.61695351251805,-73.39376,Gilgo Beach,1.75,0.21181666666666668,0.5357833333333333,9,8,"CLEAR,NIGHT_CLEAR,NIGHT_CLEAR,NIGHT_CLEAR","Onshore,Offshore,Offshore,Offshore",4
5842041f4e65fad6a77089e5,2024_04_21,40.62530081928036,-73.23827,Robert Moses,1.25,0.2375,0.5375,10,10,"MIST,NIGHT_CLEAR,NIGHT_CLEAR,NIGHT_CLEAR","Onshore,Offshore,Offshore,Offshore",4
5842041f4e65fad6a77089e6,2024_04_21,40.64313317632791,-73.15727,Fire Island,1.25,0.225,0.5325,9,9,"MIST,NIGHT_CLEAR,NIGHT_CLEAR,NIGHT_CLEAR","Onshore,Offshore,Offshore,Offshore",4
5842041f4e65fad6a77089e8,2024_04_21,40.76653118828782,-72.74579619372713,Cupsogue,1.75,0.5,0.8075,9,9,"MIST,NIGHT_CLEAR,NIGHT_CLEAR,NIGHT_CLEAR","Onshore,Offshore,Offshore,Offshore",4
5842041f4e65fad6a77089e9,2024_04_21,42.9376373334092,-70.79141,The Wall ,1,0.010697500000000013,0.321514375,7,6,"CLEAR,NIGHT_CLEAR,NIGHT_CLEAR,NIGHT_CLEAR","Offshore,Offshore,Offshore,Offshore",4
5842041f4e65fad6a77089ea,2024_04_21,40.887088,-72.33856,Flys,1.75,0.4375,0.7424999999999999,9,9,"CLEAR,NIGHT_CLEAR,NIGHT_CLEAR,NIGHT_CLEAR","Onshore,Offshore,Offshore,Offshore",4
5842041f4e65fad6a77089eb,2024_04_21,41.0389266436591,-71.91068529316958,Trailer Park,2,0.43318437500000007,0.7355,9,8,"CLEAR,NIGHT_CLEAR,NIGHT_CLEAR,NIGHT_CLEAR","Onshore,Offshore,Offshore,Offshore",4
5842041f4e65fad6a77089ec,2024_04_21,41.039505402729105,-71.9142,Ditch Plains,2,0.5554,0.86781,8,8,"MIST,NIGHT_CLEAR,NIGHT_CLEAR,NIGHT_CLEAR","Cross-shore,Offshore,Offshore,Offshore",4
5842041f4e65fad6a77089ee,2024_04_21,40.57633275206492,-73.56895305108567,"West End, Jones Beach",1.5,0.32306666666666667,0.6445333333333333,9,8,"CLEAR,NIGHT_CLEAR,NIGHT_CLEAR,NIGHT_CLEAR","Onshore,Offshore,Offshore,Offshore",4
5842041f4e65fad6a77089f1,2024_04_21,41.038286691230795,-71.91991567611694,Poles,2,0.434995625,0.740425,9,8,"CLEAR,NIGHT_CLEAR,NIGHT_CLEAR,NIGHT_CLEAR","Onshore,Offshore,Offshore,Offshore",4
5842041f4e65fad6a77089f3,2024_04_21,40.84077769766295,-72.47989493724765,The Bowl,1.75,0.475,0.775,9,9,"CLEAR,NIGHT_CLEAR,NIGHT_CLEAR,NIGHT_CLEAR","Onshore,Offshore,Offshore,Offshore",4
5842041f4e65fad6a77089f4,2024_04_21,40.94235535243154,-72.19286,Main Beach,1.7075,0.442025,0.77245,15,14,"CLEAR,NIGHT_CLEAR,NIGHT_CLEAR,NIGHT_CLEAR","Onshore,Offshore,Offshore,Offshore",4
5842041f4e65fad6a77089f5,2024_04_21,40.58270702399518,-73.67251552079799,Laurelton Blvd.,1,0.12620187500000002,0.42998000000000003,9,8,"MIST,NIGHT_CLEAR,NIGHT_CLEAR,NIGHT_CLEAR","Cross-shore,Offshore,Offshore,Offshore",4
5842041f4e65fad6a77089f6,2024_04_21,41.033752854071416,-71.93696,Terrace,2,0.431275,0.738575,9,8,"CLEAR,NIGHT_CLEAR,NIGHT_CLEAR,NIGHT_CLEAR","Onshore,Offshore,Offshore,Offshore",4
5842041f4e65fad6a77089f7,2024_04_21,40.83372943645748,-72.50426173210144,K Road,1.75,0.5475,0.85,9,9,"CLEAR,NIGHT_CLEAR,NIGHT_CLEAR,NIGHT_CLEAR","Onshore,Offshore,Offshore,Offshore",4
5842041f4e65fad6a77089f8,2024_04_21,40.58456099581507,-73.80730032920837,84th Street,2,0.42315,0.72295,9,8,"CLEAR,NIGHT_CLEAR,NIGHT_CLEAR,NIGHT_CLEAR","Cross-shore,Offshore,Offshore,Offshore",4
5842041f4e65fad6a77089fa,2024_04_21,40.1319,-74.02788,Sea Girt,2.5425,0.5712666666666667,0.8991916666666666,10,9,"CLEAR,NIGHT_CLEAR,NIGHT_CLEAR,NIGHT_CLEAR","Offshore,Offshore,Offshore,Offshore",4
5842041f4e65fad6a77089fb,2024_04_21,40.54698301868125,-73.9268,Breezy Point,2,0.265,0.5700000000000001,10,10,"CLEAR,NIGHT_CLEAR,NIGHT_CLEAR,NIGHT_CLEAR","Cross-shore,Offshore,Offshore,Offshore",4
5842041f4e65fad6a77089fc,2024_04_21,40.152504,-74.02138,Spring Lake,2.5425,0.5416833333333333,0.86815,10,9,"CLEAR,NIGHT_CLEAR,NIGHT_CLEAR,NIGHT_CLEAR","Offshore,Offshore,Offshore,Offshore",4
5842041f4e65fad6a77089fd,2024_04_21,40.591277,-73.770792,30th - 39th Streets,2,0.2864,0.6103666666666667,9,8,"CLEAR,NIGHT_CLEAR,NIGHT_CLEAR,NIGHT_CLEAR","Onshore,Offshore,Offshore,Offshore",4
5842041f4e65fad6a77089fe,2024_04_21,40.18834955871439,-74.00860982500222,Avon,2.5425,0.5381416666666666,0.8646083333333334,10,9,"CLEAR,NIGHT_CLEAR,NIGHT_CLEAR,NIGHT_CLEAR","Offshore,Cross-shore,Offshore,Offshore",4
5842041f4e65fad6a77089ff,2024_04_21,40.1974229100932,-74.00650533798255,Bradley Beach,2.2925,0.49626666666666663,0.8227333333333333,10,9,"CLEAR,NIGHT_CLEAR,NIGHT_CLEAR,NIGHT_CLEAR","Offshore,Offshore,Offshore,Offshore",4
5842041f4e65fad6a7708a01,2024_04_21,40.17202,-74.01503,"16th Ave., Belmar",2.25,0.42065,0.7971250000000001,10,9,"CLEAR,NIGHT_CLEAR,NIGHT_CLEAR,NIGHT_CLEAR","Offshore,Offshore,Offshore,Offshore",4
5842041f4e65fad6a7708a02,2024_04_21,40.217443,-73.99982,Asbury Park,2.5425,0.5310583333333333,0.852525,10,9,"CLEAR,NIGHT_CLEAR,NIGHT_CLEAR,NIGHT_CLEAR","Offshore,Cross-shore,Offshore,Offshore",4
5842041f4e65fad6a7708a03,2024_04_21,40.229841,-73.99678,Loch Arbour and Deal,2.2925,0.5466833333333333,0.8706499999999999,10,9,"CLEAR,NIGHT_CLEAR,NIGHT_CLEAR,NIGHT_CLEAR","Offshore,Offshore,Offshore,Offshore",4
5842041f4e65fad6a7708a05,2024_04_21,40.41754,-73.97935,Sandy Hook,1.25,0.185,0.485,10,10,"CLEAR,NIGHT_CLEAR,NIGHT_CLEAR,NIGHT_CLEAR","Offshore,Offshore,Offshore,Offshore",4
5842041f4e65fad6a7708a06,2024_04_21,39.36353,-74.40873,Crystals,2.25,0.5534320833333333,0.8564075,10,9,"MOSTLY_CLEAR,NIGHT_CLEAR,NIGHT_CLEAR,NIGHT_CLEAR","Cross-shore,Offshore,Offshore,Offshore",4
5842041f4e65fad6a7708a07,2024_04_21,39.31443,-74.51863,32nd Street,2.25,0.43373500000000004,0.736051875,10,9,"CLEAR,NIGHT_CLEAR,NIGHT_CLEAR,NIGHT_CLEAR","Cross-shore,Offshore,Offshore,Offshore",4
5842041f4e65fad6a7708a08,2024_04_21,39.327688,-74.49524,Margate Pier Northside,2.25,0.43373500000000004,0.736051875,10,9,"CLEAR,NIGHT_CLEAR,NIGHT_CLEAR,NIGHT_CLEAR","Cross-shore,Offshore,Offshore,Offshore",4
5842041f4e65fad6a7708a09,2024_04_21,39.336276,-74.47782,Ventnor Pier,2.25,0.5480972916666667,0.848068125,10,9,"CLEAR,NIGHT_CLEAR,NIGHT_CLEAR,NIGHT_CLEAR","Cross-shore,Offshore,Offshore,Offshore",4
5842041f4e65fad6a7708a0a,2024_04_21,39.35929751441085,-74.41683,States Avenue,2.25,0.5534320833333333,0.8564075,10,9,"CLEAR,NIGHT_CLEAR,NIGHT_CLEAR,NIGHT_CLEAR","Cross-shore,Offshore,Offshore,Offshore",4
5842041f4e65fad6a7708a0b,2024_04_21,39.37274173278517,-74.40454,Brigantine Jetty,2,0.4919029166666667,0.7602691666666667,10,9,"MOSTLY_CLEAR,NIGHT_CLEAR,NIGHT_CLEAR,NIGHT_CLEAR","Cross-shore,Offshore,Offshore,Offshore",4
5842041f4e65fad6a7708a0c,2024_04_21,39.356505,-74.42263,South Carolina Avenue,2,0.4919029166666667,0.7602691666666667,10,9,"CLEAR,NIGHT_CLEAR,NIGHT_CLEAR,NIGHT_CLEAR","Cross-shore,Offshore,Offshore,Offshore",4
5842041f4e65fad6a7708a0d,2024_04_21,39.413485,-74.35476,14th Street North,2.75,0.5243916666666667,0.8558583333333334,10,9,"MOSTLY_CLEAR,NIGHT_CLEAR,NIGHT_CLEAR,NIGHT_CLEAR","Offshore,Offshore,Offshore,Cross-shore",4
5842041f4e65fad6a7708a0e,2024_04_21,39.531319,-74.263252,The Wooden Jetty,2.25,0.7434025000000001,1.045933125,10,9,"MOSTLY_CLEAR,NIGHT_CLEAR,NIGHT_CLEAR,NIGHT_CLEAR","Cross-shore,Offshore,Offshore,Offshore",4
5842041f4e65fad6a7708a0f,2024_04_21,39.552472,-74.24344,Holyoke,2.25,0.734938125,1.0352350000000001,10,9,"MOSTLY_CLEAR,NIGHT_CLEAR,NIGHT_CLEAR,NIGHT_CLEAR","Cross-shore,Offshore,Offshore,Offshore",4
5842041f4e65fad6a7708a10,2024_04_21,39.692364,-74.14068,Hudson Ave.,2.125,0.737325,1.042125,10,9,"CLEAR,NIGHT_CLEAR,NIGHT_CLEAR,NIGHT_CLEAR","Cross-shore,Offshore,Cross-shore,Cross-shore",4
5842041f4e65fad6a7708a11,2024_04_21,39.79614,-74.09248,Island Beach State Park,1.5,0.6142583333333334,0.9185,10,9,"CLEAR,NIGHT_CLEAR,NIGHT_CLEAR,NIGHT_CLOUDY","Offshore,Cross-shore,Cross-shore,Offshore",4
5842041f4e65fad6a7708a12,2024_04_21,39.91813588078152,-74.07527,Seaside Park,1.75,0.5769666666666666,0.8801666666666667,10,9,"CLEAR,NIGHT_CLEAR,NIGHT_CLEAR,NIGHT_CLEAR","Offshore,Offshore,Cross-shore,Cross-shore",4
5842041f4e65fad6a7708a14,2024_04_21,39.946638,-74.06884,Seaside Heights,2.2925,0.5775166666666667,0.9301666666666667,10,9,"CLEAR,NIGHT_CLEAR,NIGHT_CLEAR,NIGHT_CLEAR","Offshore,Cross-shore,Cross-shore,Offshore",4
5842041f4e65fad6a7708a15,2024_04_21,39.95745637606704,-74.06736,Ortley Beach,2.2925,0.49480833333333335,0.8696833333333334,10,9,"CLEAR,NIGHT_CLEAR,NIGHT_CLEAR,NIGHT_CLEAR","Offshore,Cross-shore,Cross-shore,Offshore",4
5842041f4e65fad6a7708a16,2024_04_21,39.98313468342945,-74.06265685577506,Lavallette,2.2925,0.5216833333333333,0.8951,10,9,"CLEAR,NIGHT_CLEAR,NIGHT_CLEAR,NIGHT_CLEAR","Offshore,Cross-shore,Cross-shore,Offshore",4
5842041f4e65fad6a7708a17,2024_04_21,40.0699319967757,-74.04145,Bay Head,1.7925,0.536475,0.9073916666666666,10,9,"CLEAR,NIGHT_CLEAR,NIGHT_CLEAR,NIGHT_CLEAR","Offshore,Cross-shore,Cross-shore,Offshore",4
5842041f4e65fad6a7708a18,2024_04_21,40.094041,-74.034859,Jenkinson's,2.7925,0.5391833333333333,0.9090583333333333,10,9,"CLEAR,NIGHT_CLEAR,NIGHT_CLEAR,NIGHT_CLEAR","Offshore,Offshore,Offshore,Offshore",4
5842041f4e65fad6a7708a1a,2024_04_21,38.148058,-75.17704,Assateague,1,0.5321833333333333,0.8770499999999999,11,10,"MIST,NIGHT_MOSTLY_CLEAR,NIGHT_MOSTLY_CLOUDY,NIGHT_CLEAR","Cross-shore,Cross-shore,Cross-shore,Cross-shore",4
5842041f4e65fad6a7708a1b,2024_04_21,38.33889038664497,-75.08017670566352,North End to Ocean City Inlet,1.25,0.5542666666666667,0.9018416666666667,11,10,"CLEAR,NIGHT_MOSTLY_CLOUDY,NIGHT_CLEAR,NIGHT_CLEAR","Offshore,Onshore,Onshore,Onshore",4
5842041f4e65fad6a7708a1c,2024_04_21,38.603993,-75.06271,Indian River Inlet,1.25,0.544224375,0.8813091666666667,11,10,"CLEAR,NIGHT_CLEAR,NIGHT_MOSTLY_CLOUDY,NIGHT_CLEAR","Cross-shore,Offshore,Cross-shore,Cross-shore",4
5842041f4e65fad6a7708a1d,2024_04_21,38.460477,-75.052069,Fenwick Island,1.25,0.34655833333333336,0.691425,11,10,"CLEAR,NIGHT_MOSTLY_CLOUDY,NIGHT_MOSTLY_CLOUDY,NIGHT_CLEAR","Offshore,Onshore,Onshore,Onshore",4
5842041f4e65fad6a7708a1e,2024_04_21,38.538767,-75.05619,Bethany Beach,1.25,0.5425410416666667,0.878671875,11,10,"CLEAR,NIGHT_MOSTLY_CLOUDY,NIGHT_MOSTLY_CLOUDY,NIGHT_CLEAR","Offshore,Cross-shore,Cross-shore,Cross-shore",4
5842041f4e65fad6a7708a1f,2024_04_21,38.697657,-75.075951,Dewey Beach,1.25,0.518225,0.8633000000000001,11,10,"CLEAR,NIGHT_MOSTLY_CLEAR,NIGHT_MOSTLY_CLOUDY,NIGHT_CLEAR","Offshore,Onshore,Onshore,Onshore",4
5842041f4e65fad6a7708a20,2024_04_21,38.75034741676525,-75.08194,Gordons Pond,1.25,0.4509760416666667,0.7356039583333334,11,10,"CLEAR,NIGHT_CLEAR,NIGHT_CLEAR,NIGHT_CLEAR","Offshore,Cross-shore,Cross-shore,Cross-shore",4
5842041f4e65fad6a7708a21,2024_04_21,38.767837,-75.082841,Naval Jetties,1.1675,0.429475,0.77705,11,10,"CLEAR,NIGHT_CLEAR,NIGHT_CLEAR,NIGHT_CLEAR","Offshore,Onshore,Onshore,Onshore",4
5842041f4e65fad6a7708a22,2024_04_21,36.81735875786576,-75.96624,Camp Pendleton,0.75,0.42502500000000004,0.73045,14,12,"OVERCAST,NIGHT_BRIEF_SHOWERS,NIGHT_OVERCAST,NIGHT_OVERCAST","Onshore,Cross-shore,Cross-shore,Onshore",4
5842041f4e65fad6a7708a23,2024_04_21,36.9102212316428,-75.98732471466064,North End,0.75,0.32565,0.632325,14,12,"OVERCAST,NIGHT_CLEAR,NIGHT_OVERCAST,NIGHT_OVERCAST","Cross-shore,Offshore,Cross-shore,Cross-shore",4
5842041f4e65fad6a7708a24,2024_04_21,36.737117517621314,-75.93924,Sandbridge Beach,1.5825,0.5121833333333333,0.85705,14,12,"MOSTLY_CLOUDY,NIGHT_BRIEF_SHOWERS,NIGHT_OVERCAST,NIGHT_OVERCAST","Onshore,Cross-shore,Cross-shore,Onshore",4
5842041f4e65fad6a7708a26,2024_04_21,36.818257440557794,-75.96666,Croatan to Pendleton,0.5825,0.30252500000000004,0.61045,14,12,"OVERCAST,NIGHT_BRIEF_SHOWERS,NIGHT_OVERCAST,NIGHT_OVERCAST","Onshore,Cross-shore,Cross-shore,Onshore",4
5842041f4e65fad6a7708a27,2024_04_21,36.84318777204769,-75.9719,South End,1.5825,0.4365583333333333,0.7789249999999999,14,12,"OVERCAST,NIGHT_MOSTLY_CLOUDY,NIGHT_OVERCAST,NIGHT_OVERCAST","Onshore,Cross-shore,Cross-shore,Onshore",4
5842041f4e65fad6a7708a28,2024_04_21,37.08612627584661,-75.976121638199,Fishermans Island,1.5,0.089,0.21,15,15,"MOSTLY_CLOUDY,NIGHT_MOSTLY_CLOUDY,NIGHT_MOSTLY_CLOUDY,NIGHT_MOSTLY_CLOUDY","Cross-shore,Offshore,Offshore,Offshore",4
5842041f4e65fad6a7708a38,2024_04_21,35.254619418229026,-75.52074,Cape Hatteras Lighthouse,1.6675,0.914718125,1.286373125,18,16,"MOSTLY_CLOUDY,NIGHT_MOSTLY_CLOUDY,NIGHT_CLEAR,NIGHT_MOSTLY_CLOUDY","Cross-shore,Onshore,Cross-shore,Cross-shore",4
5842041f4e65fad6a7708a3a,2024_04_21,35.54572934093336,-75.46477,Waves and Salvo,1.2075,0.673975,1.04635,17,15,"MOSTLY_CLOUDY,NIGHT_CLEAR,NIGHT_MOSTLY_CLOUDY,NIGHT_OVERCAST","Cross-shore,Onshore,Cross-shore,Cross-shore",4
5842041f4e65fad6a7708a3b,2024_04_21,35.22565892751075,-75.63606,Frisco,2,0.38795,0.6382333333333333,19,18,"MIST,NIGHT_MOSTLY_CLOUDY,NIGHT_CLEAR,NIGHT_MOSTLY_CLOUDY","Offshore,Cross-shore,Offshore,Offshore",4
5842041f4e65fad6a7708a3c,2024_04_21,35.13086,-75.90591,Ocracoke,1.25,0.39509,0.6173275,18,18,"MOSTLY_CLOUDY,NIGHT_BRIEF_SHOWERS,NIGHT_MOSTLY_CLOUDY,NIGHT_MOSTLY_CLOUDY","Cross-shore,Cross-shore,Cross-shore,Offshore",4
5842041f4e65fad6a7708a3d,2024_04_21,35.34721340158342,-75.50084,Avon Pier,1.6675,0.915025,1.289625,18,16,"MOSTLY_CLOUDY,NIGHT_MOSTLY_CLOUDY,NIGHT_MOSTLY_CLEAR,NIGHT_MOSTLY_CLOUDY","Cross-shore,Onshore,Cross-shore,Cross-shore",4
5842041f4e65fad6a7708a3f,2024_04_21,35.71680821253768,-75.49243,Pea Island,1.75,0.54,0.8425,14,14,"CLEAR,NIGHT_MOSTLY_CLEAR,NIGHT_MOSTLY_CLOUDY,NIGHT_MOSTLY_CLOUDY","Onshore,Onshore,Onshore,Onshore",4
5842041f4e65fad6a7708a40,2024_04_21,35.97427620657821,-75.62984,Nags Head Pier,1.6675,0.614825,1.00285,16,13,"MOSTLY_CLOUDY,NIGHT_BRIEF_SHOWERS,NIGHT_CLEAR,NIGHT_MOSTLY_CLOUDY","Onshore,Onshore,Onshore,Onshore",4
5842041f4e65fad6a7708a41,2024_04_21,36.0439998039079,-75.67288,Avalon Pier,2,0.5899416666666667,0.9373083333333334,16,13,"MOSTLY_CLOUDY,NIGHT_MIST,NIGHT_MIST,NIGHT_CLEAR","Onshore,Cross-shore,Onshore,Onshore",4
5842041f4e65fad6a7708a42,2024_04_21,36.03043116489792,-75.66413,First Street,1.6675,0.7744,1.1440000000000001,16,13,"MOSTLY_CLOUDY,NIGHT_MIST,NIGHT_MIST,NIGHT_CLEAR","Onshore,Onshore,Onshore,Onshore",4
5842041f4e65fad6a7708a43,2024_04_21,36.06829910590498,-75.6899,Old Station/Laundromats,2.3325,0.5449416666666667,0.8900166666666667,16,13,"MOSTLY_CLOUDY,NIGHT_MOSTLY_CLOUDY,NIGHT_MIST,NIGHT_CLEAR","Onshore,Onshore,Cross-shore,Cross-shore",4
5842041f4e65fad6a7708a44,2024_04_21,36.10126676607491,-75.71107,Kitty Hawk Pier,1.6675,0.5954499999999999,0.980975,16,13,"MOSTLY_CLOUDY,NIGHT_BRIEF_SHOWERS,NIGHT_MOSTLY_CLOUDY,NIGHT_CLEAR","Onshore,Onshore,Cross-shore,Cross-shore",4
5842041f4e65fad6a7708a45,2024_04_21,36.18220630068973,-75.75013580649097,Duck Pier,1.25,0.39093333333333335,0.7378833333333333,15,13,"CLEAR,NIGHT_MIST,NIGHT_MOSTLY_CLOUDY,NIGHT_BRIEF_SHOWERS","Onshore,Cross-shore,Offshore,Offshore",4
5842041f4e65fad6a7708a46,2024_04_21,36.37660668125033,-75.82409701687456,Corolla,1.8325,0.403225,0.7508,15,13,"MOSTLY_CLOUDY,NIGHT_LIGHT_RAIN,NIGHT_LIGHT_RAIN,NIGHT_MOSTLY_CLEAR","Onshore,Cross-shore,Cross-shore,Cross-shore",4
5842041f4e65fad6a7708a47,2024_04_21,33.90373404124834,-78.08241431707907,Oak Island,1.5,0.1775,0.485,19,19,"CLEAR,NIGHT_CLOUDY,NIGHT_OVERCAST,NIGHT_CLOUDY","Onshore,Offshore,Offshore,Offshore",4
5842041f4e65fad6a7708a48,2024_04_21,33.91108837766468,-78.29653,South Brunswick Beaches,1.75,0.299695,0.468275,20,20,"MIST,NIGHT_CLOUDY,NIGHT_CLOUDY,NIGHT_CLOUDY","Onshore,Offshore,Offshore,Offshore",4
5842041f4e65fad6a7708a49,2024_04_21,34.05683595651973,-77.88128,Carolina Beach Pier,1.415,0.25046666666666667,0.5540583333333333,19,18,"CLEAR,NIGHT_CLEAR,NIGHT_CLEAR,NIGHT_BRIEF_SHOWERS_POSSIBLE","Cross-shore,Offshore,Cross-shore,Cross-shore",4
5842041f4e65fad6a7708a4a,2024_04_21,33.96841191816696,-77.9180242565498,Fort Fisher,1.6675,0.304425,0.6030166666666666,19,18,"CLEAR,NIGHT_CLEAR,NIGHT_CLEAR,NIGHT_OVERCAST","Offshore,Offshore,Cross-shore,Cross-shore",4
5842041f4e65fad6a7708a4b,2024_04_21,34.46776662988774,-77.47083,Topsail Beach,2.5825,0.32859166666666667,0.6321833333333333,19,18,"MIST,NIGHT_CLEAR,NIGHT_FOG,NIGHT_MIST","Onshore,Offshore,Offshore,Offshore",4
5842041f4e65fad6a7708a4c,2024_04_21,34.69270354752445,-76.82854854446575,Iron Steamer,1,0.014999999999999972,0.31917500000000004,19,18,"MIST,NIGHT_MOSTLY_CLOUDY,NIGHT_MIST,NIGHT_FOG","Onshore,Cross-shore,Offshore,Offshore",4
5842041f4e65fad6a7708a4f,2024_04_21,30.85132684893727,-81.42283496231143,Cumberland Island,1.75,0.3825,0.685,22,22,"MIST,NIGHT_CLEAR,NIGHT_CLEAR,NIGHT_CLEAR","Onshore,Offshore,Offshore,Offshore",4
5842041f4e65fad6a7708a50,2024_04_21,34.686741128540874,-76.47516712138378,Cape Lookout National Seashore,1.5,0.5925,0.9,18,18,"MIST,NIGHT_MIST,NIGHT_CLEAR,NIGHT_MOSTLY_CLOUDY","Onshore,Cross-shore,Cross-shore,Cross-shore",4
5842041f4e65fad6a7708a51,2024_04_21,31.10585419260024,-81.40422767604812,Jekyll Island,1,0.075,0.3825,22,22,"MIST,NIGHT_CLEAR,NIGHT_CLEAR,NIGHT_CLEAR","Cross-shore,Offshore,Offshore,Offshore",4
5842041f4e65fad6a7708a52,2024_04_21,31.16212806376699,-81.32512426500224,Harbor Marker Buoys,1.5,0.225,0.5275000000000001,22,22,"CLEAR,NIGHT_CLEAR,NIGHT_CLEAR,NIGHT_CLEAR","Onshore,Cross-shore,Cross-shore,Offshore",4
5842041f4e65fad6a7708a53,2024_04_21,31.20076299997009,-81.32629,Sea Island,1.25,0.245,0.55,22,22,"CLEAR,NIGHT_CLEAR,NIGHT_CLEAR,NIGHT_CLEAR","Onshore,Cross-shore,Cross-shore,Offshore",4
5842041f4e65fad6a7708a54,2024_04_21,31.13553222995767,-81.38457634790909,St. Simons Island,1.25,0.2575,0.5625,22,22,"MIST,NIGHT_CLEAR,NIGHT_CLEAR,NIGHT_CLEAR","Onshore,Cross-shore,Cross-shore,Cross-shore",4
5842041f4e65fad6a7708a55,2024_04_21,31.33550077186516,-81.28383377408417,Wolf Island,1.75,0.22,0.525,22,22,"CLEAR,NIGHT_CLEAR,NIGHT_CLEAR,NIGHT_MOSTLY_CLEAR","Cross-shore,Offshore,Offshore,Offshore",4
5842041f4e65fad6a7708a56,2024_04_21,31.2704493877174,-81.27324039152315,Little St. Simons Island,1.75,0.275,0.58,22,22,"MIST,NIGHT_CLEAR,NIGHT_CLEAR,NIGHT_CLEAR","Cross-shore,Offshore,Offshore,Offshore",4
5842041f4e65fad6a7708a57,2024_04_21,31.39261761368919,-81.26190520231917,Sapelo Island,1.75,0.21,0.515,22,22,"CLEAR,NIGHT_CLEAR,NIGHT_MOSTLY_CLOUDY,NIGHT_CLEAR","Onshore,Cross-shore,Offshore,Offshore",4
5842041f4e65fad6a7708a58,2024_04_21,34.42458783809001,-77.54492,Surf City Pier,2.5825,0.3163,0.6201,19,18,"CLEAR,NIGHT_MOSTLY_CLOUDY,NIGHT_MOSTLY_CLOUDY,NIGHT_OVERCAST","Onshore,Offshore,Offshore,Offshore",4
5842041f4e65fad6a7708a59,2024_04_21,31.4231993614213,-81.24725340591522,Cabretta Island,1.75,0.2475,0.55,22,22,"CLEAR,NIGHT_CLEAR,NIGHT_MOSTLY_CLOUDY,NIGHT_CLEAR","Onshore,Cross-shore,Cross-shore,Offshore",4
5842041f4e65fad6a7708a5a,2024_04_21,31.46684389030369,-81.2100056410468,Blackbeard Island,1.25,0.21,0.515,22,22,"CLEAR,NIGHT_CLEAR,NIGHT_CLEAR,NIGHT_CLEAR","Onshore,Cross-shore,Cross-shore,Offshore",4
5842041f4e65fad6a7708a5b,2024_04_21,31.85953587631629,-80.99031310336719,Wassaw Island/South End,1,0.035,0.34,21,21,"CLEAR,NIGHT_MOSTLY_CLOUDY,NIGHT_CLEAR,NIGHT_CLEAR","Onshore,Cross-shore,Offshore,Cross-shore",4
5842041f4e65fad6a7708a5c,2024_04_21,31.62535662342983,-81.13328352167974,St. Catherines Island,1.75,0.2625,0.5675,22,22,"CLEAR,NIGHT_MOSTLY_CLOUDY,NIGHT_CLEAR,NIGHT_MOSTLY_CLOUDY","Cross-shore,Cross-shore,Offshore,Cross-shore",4
5842041f4e65fad6a7708a5d,2024_04_21,31.76502169596568,-81.07655443806622,Ossabaw Island,1,0.1525,0.455,22,22,"MIST,NIGHT_MOSTLY_CLOUDY,NIGHT_MOSTLY_CLOUDY,NIGHT_CLEAR","Cross-shore,Cross-shore,Offshore,Cross-shore",4
5842041f4e65fad6a7708a5e,2024_04_21,31.90593619092352,-80.93589231700857,Wassaw Island/North End,1,0.2425,0.5475,21,21,"CLEAR,NIGHT_CLEAR,NIGHT_MOSTLY_CLOUDY,NIGHT_CLEAR","Onshore,Onshore,Offshore,Cross-shore",4
5842041f4e65fad6a7708a5f,2024_04_21,31.96738675414547,-80.86977980706155,Little Tybee Island,1,0.245,0.5475,21,21,"CLEAR,NIGHT_MOSTLY_CLEAR,NIGHT_BRIEF_SHOWERS,NIGHT_CLEAR","Onshore,Cross-shore,Offshore,Cross-shore",4
5842041f4e65fad6a7708a60,2024_04_21,31.9812255780179,-80.84773973467009,South Tybee Sandbars,1,0.24000000000000002,0.5425,21,21,"CLEAR,NIGHT_MOSTLY_CLEAR,NIGHT_BRIEF_SHOWERS,NIGHT_CLEAR","Cross-shore,Offshore,Cross-shore,Cross-shore",4
5842041f4e65fad6a7708a61,2024_04_21,32.01226,-80.83983,Sugar Shack,1,0.1525,0.455,21,21,"CLEAR,NIGHT_SHOWERS,NIGHT_BRIEF_SHOWERS,NIGHT_BRIEF_SHOWERS","Offshore,Cross-shore,Onshore,Onshore",4
5842041f4e65fad6a7708a62,2024_04_21,31.98722842396969,-80.84773,18th St. Jetty,1,0.28406,0.4438475,21,21,"CLEAR,NIGHT_CLEAR,NIGHT_MOSTLY_CLOUDY,NIGHT_CLEAR","Cross-shore,Offshore,Cross-shore,Cross-shore",4
5842041f4e65fad6a7708a64,2024_04_21,34.013473721006676,-77.8991,"Alabama Ave., Kure Beach",2,0.1925,0.5,19,19,"CLEAR,NIGHT_CLEAR,NIGHT_MOSTLY_CLOUDY,NIGHT_CLEAR","Cross-shore,Offshore,Offshore,Onshore",4
5842041f4e65fad6a7708a65,2024_04_21,34.20859853336924,-77.79293,"C Street, Wrightsville Beach",2,0.25067500000000004,0.5538500000000001,19,18,"MOSTLY_CLOUDY,NIGHT_CLOUDY,NIGHT_BRIEF_SHOWERS,NIGHT_CLOUDY","Onshore,Offshore,Offshore,Offshore",4
5842041f4e65fad6a7708a66,2024_04_21,32.831,-79.71,Dewees Island,1,0.11,0.415,21,21,"CLEAR,NIGHT_FOG,NIGHT_MIST,NIGHT_MIST","Cross-shore,Cross-shore,Offshore,Offshore",4
5842041f4e65fad6a7708a67,2024_04_21,33.82924423172106,-78.62813,Cherry Grove Pier,1.25,0.10500000000000001,0.4125,19,19,"BRIEF_SHOWERS_POSSIBLE,NIGHT_OVERCAST,NIGHT_CLEAR,NIGHT_FOG","Onshore,Offshore,Offshore,Offshore",4
5842041f4e65fad6a7708a69,2024_04_21,34.27197439666496,-77.74050223196774,Figure Eight and Shell Islands,2.5,0.31088333333333334,0.6151,19,18,"CLEAR,NIGHT_CLEAR,NIGHT_MOSTLY_CLOUDY,NIGHT_CLOUDY","Onshore,Offshore,Offshore,Offshore",4
5842041f4e65fad6a7708a6b,2024_04_21,33.49041958261793,-79.07666070599386,North End,1.75,0.175,0.48,20,20,"CLEAR,NIGHT_RAIN,NIGHT_CLOUDY,NIGHT_FOG","Onshore,Offshore,Offshore,Offshore",4
5842041f4e65fad6a7708a6c,2024_04_21,33.39537062495087,-79.13835037835189,The South End,1,0.13,0.4375,21,21,"CLEAR,NIGHT_MIST,NIGHT_MIST,NIGHT_CLOUDY","Cross-shore,Offshore,Offshore,Offshore",4
5842041f4e65fad6a7708a6d,2024_04_21,33.29001727666697,-79.17190003352977,North Island,1.75,0.23,0.535,21,21,"CLEAR,NIGHT_CLOUDY,NIGHT_CLOUDY,NIGHT_MIST","Cross-shore,Offshore,Offshore,Offshore",4
5842041f4e65fad6a7708a6e,2024_04_21,32.90929771158952,-79.57810400297359,Bull Island,1,0.17,0.4725,21,21,"CLEAR,NIGHT_HEAVY_RAIN,NIGHT_CLEAR,NIGHT_DRIZZLE","Cross-shore,Onshore,Cross-shore,Offshore",4
5842041f4e65fad6a7708a6f,2024_04_21,31.99153112815895,-80.84543050470074,Tybee Island Pier,1,0.0125,0.315,21,21,"CLEAR,NIGHT_CLEAR,NIGHT_MOSTLY_CLOUDY,NIGHT_LIGHT_SHOWERS_POSSIBLE","Cross-shore,Offshore,Cross-shore,Cross-shore",4
5842041f4e65fad6a7708a70,2024_04_21,33.03478144356316,-79.35021028265125,Cape Romain,1.75,0.3225,0.63,20,20,"CLEAR,NIGHT_MIST,NIGHT_MIST,NIGHT_MIST","Cross-shore,Onshore,Cross-shore,Offshore",4
5842041f4e65fad6a7708a71,2024_04_21,33.43231073271028,-79.11789,The Pier,1,0.235935,0.36865,21,21,"MOSTLY_CLEAR,NIGHT_CLOUDY,NIGHT_CLEAR,NIGHT_DRIZZLE","Onshore,Offshore,Offshore,Offshore",4
5842041f4e65fad6a7708a72,2024_04_21,33.45423621397969,-79.10497798178424,South Litchfield,2,0.1625,0.47,20,20,"CLEAR,NIGHT_CLOUDY,NIGHT_MIST,NIGHT_DRIZZLE","Onshore,Offshore,Offshore,Offshore",4
5842041f4e65fad6a7708a73,2024_04_21,34.19316590251396,-77.8045,Crystal Pier,1.75,0.18734166666666668,0.4940583333333334,19,18,"MOSTLY_CLOUDY,NIGHT_CLOUDY,NIGHT_BRIEF_SHOWERS,NIGHT_CLOUDY","Onshore,Cross-shore,Cross-shore,Cross-shore",4
5842041f4e65fad6a7708a74,2024_04_21,33.68628680045124,-78.88346,Myrtle Beach,1,0.195,0.4975,20,20,"CLEAR,NIGHT_CLOUDY,NIGHT_BRIEF_SHOWERS_POSSIBLE,NIGHT_BRIEF_SHOWERS_POSSIBLE","Cross-shore,Offshore,Offshore,Offshore",4
5842041f4e65fad6a7708a75,2024_04_21,32.66166297145973,-79.91951806398808,10th Street,1.75,0.2875,0.5925,21,21,"CLEAR,NIGHT_OVERCAST,NIGHT_LIGHT_RAIN,NIGHT_LIGHT_RAIN","Cross-shore,Cross-shore,Cross-shore,Cross-shore",4
5842041f4e65fad6a7708a76,2024_04_21,33.16729555197199,-79.19829236867845,South Island,1.5,0.28500000000000003,0.59,21,21,"CLEAR,NIGHT_CLEAR,NIGHT_MIST,NIGHT_MIST","Cross-shore,Cross-shore,Offshore,Offshore",4
5842041f4e65fad6a7708a77,2024_04_21,32.595,-80.088,Kiawah Island/Seabrook Island,1.25,0.2125,0.515,21,21,"MIST,NIGHT_MOSTLY_CLOUDY,NIGHT_HEAVY_RAIN,NIGHT_OVERCAST","Onshore,Offshore,Offshore,Offshore",4
5842041f4e65fad6a7708a78,2024_04_21,32.51356930575787,-80.28223,Edisto Beach,1,0.2467175,0.385495,21,21,"CLEAR,NIGHT_MOSTLY_CLOUDY,NIGHT_CLOUDY,NIGHT_MOSTLY_CLOUDY","Onshore,Offshore,Offshore,Cross-shore",4
5842041f4e65fad6a7708a79,2024_04_21,32.366270751262,-80.43911,Hunting Island,1,0.264975,0.4140275,21,21,"CLEAR,NIGHT_BRIEF_SHOWERS,NIGHT_OVERCAST,NIGHT_MIST","Cross-shore,Cross-shore,Cross-shore,Onshore",4
5842041f4e65fad6a7708a7a,2024_04_21,32.65337734408365,-79.93983,Folly Beach Pier,2,0.184425,0.490725,21,20,"MOSTLY_CLEAR,NIGHT_OVERCAST,NIGHT_RAIN,NIGHT_DRIZZLE","Onshore,Offshore,Offshore,Offshore",4
5842041f4e65fad6a7708a7b,2024_04_21,33.41209545530049,-79.13026341393126,South Jetty,1,0.13,0.4375,21,21,"CLEAR,NIGHT_DRIZZLE,NIGHT_CLOUDY,NIGHT_FOG","Onshore,Offshore,Offshore,Offshore",4
5842041f4e65fad6a7708a7c,2024_04_21,32.31115640606869,-80.48564,Fripp Island,1,0.25918,0.40496750000000004,21,21,"CLEAR,NIGHT_MOSTLY_CLOUDY,NIGHT_MOSTLY_CLOUDY,NIGHT_MOSTLY_CLOUDY","Onshore,Offshore,Offshore,Offshore",4
5842041f4e65fad6a7708a7d,2024_04_21,32.14365226036034,-80.74402,Hilton Head Island,1,0,0.165,21,21,"CLEAR,NIGHT_MOSTLY_CLEAR,NIGHT_MOSTLY_CLEAR,NIGHT_CLEAR","Cross-shore,Offshore,Offshore,Cross-shore",4
5842041f4e65fad6a7708a7e,2024_04_21,29.70405364733744,-81.22426,Matanzas Inlet,2,0.2621833333333333,0.5684833333333333,24,23,"CLEAR,NIGHT_CLEAR,NIGHT_CLEAR,NIGHT_MOSTLY_CLOUDY","Cross-shore,Offshore,Offshore,Offshore",4
5842041f4e65fad6a7708a81,2024_04_21,29.76878537149042,-81.25109,Crescent Beach,1.75,0.14500000000000002,0.45,22,22,"CLEAR,NIGHT_CLEAR,NIGHT_CLEAR,NIGHT_MOSTLY_CLOUDY","Onshore,Offshore,Offshore,Offshore",4
5842041f4e65fad6a7708a82,2024_04_21,32.80251718689188,-79.73221919500764,Wild Dunes,1.5,0.275,0.58,21,21,"CLEAR,NIGHT_CLEAR,NIGHT_HEAVY_RAIN,NIGHT_MIST","Onshore,Cross-shore,Cross-shore,Offshore",4
5842041f4e65fad6a7708a84,2024_04_21,32.75733539419244,-79.83258856064796,Bert's Bar,1,0.0625,0.37,21,21,"CLEAR,NIGHT_CLEAR,NIGHT_OVERCAST,NIGHT_BRIEF_SHOWERS_POSSIBLE","Onshore,Cross-shore,Cross-shore,Offshore",4
5842041f4e65fad6a7708a85,2024_04_21,32.66829212943039,-79.90735,Washout,2,0.21359166666666668,0.5171833333333333,21,20,"CLEAR,NIGHT_RAIN,NIGHT_RAIN,NIGHT_LIGHT_SHOWERS_POSSIBLE","Cross-shore,Cross-shore,Cross-shore,Cross-shore",4
5842041f4e65fad6a7708a86,2024_04_21,32.78452968219067,-79.78540233488354,The Pier/Windjammer,1.75,0.2475,0.5525,21,21,"CLEAR,NIGHT_CLOUDY,NIGHT_CLEAR,NIGHT_DRIZZLE","Onshore,Cross-shore,Cross-shore,Offshore",4
5842041f4e65fad6a7708a87,2024_04_21,29.86618162637438,-81.2662150259608,Anastasia Park (The Entrance),1.75,0.1275,0.43,22,22,"MIST,NIGHT_CLEAR,NIGHT_CLEAR,NIGHT_MOSTLY_CLOUDY","Onshore,Offshore,Offshore,Offshore",4
5842041f4e65fad6a7708a89,2024_04_21,29.89149785916623,-81.2723223244215,Blowholes,1.5825,0.21359166666666668,0.5171833333333333,26,24,"MIST,NIGHT_CLEAR,NIGHT_CLEAR,NIGHT_MOSTLY_CLOUDY","Onshore,Offshore,Offshore,Offshore",4
5842041f4e65fad6a7708a8a,2024_04_21,30.16227112983666,-81.35502907491218,Crossroads,1.75,0.29484166666666667,0.5990583333333332,26,24,"CLEAR,NIGHT_CLEAR,NIGHT_CLEAR,NIGHT_CLEAR","Onshore,Offshore,Offshore,Offshore",4
5842041f4e65fad6a7708a8b,2024_04_21,30.19308537587637,-81.36314247820911,Sawgrass,1.75,0.3073416666666667,0.6109333333333333,26,24,"CLEAR,NIGHT_CLEAR,NIGHT_CLEAR,NIGHT_CLEAR","Cross-shore,Offshore,Offshore,Offshore",4
5842041f4e65fad6a7708a8c,2024_04_21,30.34696027700899,-81.39451,18th Street,1.75,0.30411750000000004,0.475185,21,21,"CLEAR,NIGHT_CLEAR,NIGHT_CLEAR,NIGHT_CLEAR","Onshore,Offshore,Offshore,Offshore",4
5842041f4e65fad6a7708a8d,2024_04_21,30.381793,-81.39686,Mayport Poles,2.25,0.3925,0.6975,21,21,"CLEAR,NIGHT_CLEAR,NIGHT_CLEAR,NIGHT_CLEAR","Onshore,Offshore,Offshore,Offshore",4
5842041f4e65fad6a7708a8e,2024_04_21,30.390516,-81.395591,Blue Roofs,2,0.3875,0.6924999999999999,21,21,"CLEAR,NIGHT_CLEAR,NIGHT_CLEAR,NIGHT_CLEAR","Onshore,Offshore,Offshore,Offshore",4
5842041f4e65fad6a7708a8f,2024_04_21,30.40517712722211,-81.40074116169004,Huguenot Park (North Jetty),2,0.245,0.55,21,21,"CLEAR,NIGHT_CLEAR,NIGHT_CLEAR,NIGHT_CLEAR","Cross-shore,Offshore,Offshore,Offshore",4
5842041f4e65fad6a7708a90,2024_04_21,30.47788918872762,-81.41055821335078,Talbot Island,2,0.5774835416666667,0.7786004166666667,24,23,"MOSTLY_CLEAR,NIGHT_CLEAR,NIGHT_CLEAR,NIGHT_CLEAR","Onshore,Offshore,Offshore,Offshore",4
5842041f4e65fad6a7708a91,2024_04_21,30.66753984549761,-81.42983,Main Beach,1.25,0.26,0.565,21,21,"MIST,NIGHT_CLEAR,NIGHT_CLEAR,NIGHT_CLEAR","Onshore,Offshore,Cross-shore,Offshore",4
5842041f4e65fad6a7708a92,2024_04_21,30.69983581209126,-81.42483,Ft. Clinch State Park,1.75,0.3,0.605,21,21,"MIST,NIGHT_CLEAR,NIGHT_CLEAR,NIGHT_CLEAR","Onshore,Offshore,Offshore,Offshore",4
5842041f4e65fad6a7708a93,2024_04_21,30.62059700777582,-81.437252942757425,Amelia Pier,1,0.2875,0.59,22,22,"CLEAR,NIGHT_CLEAR,NIGHT_CLEAR,NIGHT_CLEAR","Onshore,Offshore,Offshore,Offshore",4
5842041f4e65fad6a7708a95,2024_04_21,28.95125170929067,-80.83837,Bethune Beach,1.75,0.215,0.52,23,23,"CLEAR,NIGHT_CLEAR,NIGHT_CLEAR,NIGHT_CLEAR","Onshore,Offshore,Offshore,Offshore",4
5842041f4e65fad6a7708a96,2024_04_21,29.03874288905362,-80.8933424949646,Flagler Ave.,1.9175,0.28447500000000003,0.590775,26,24,"CLEAR,NIGHT_CLEAR,NIGHT_CLEAR,NIGHT_CLEAR","Cross-shore,Offshore,Offshore,Offshore",4
5842041f4e65fad6a7708a98,2024_04_21,30.332297686992757,-81.39319,Atlantic Beach,1.75,0.3184675,0.49760000000000004,21,21,"CLEAR,NIGHT_CLEAR,NIGHT_CLEAR,NIGHT_CLEAR","Cross-shore,Offshore,Offshore,Offshore",4
5842041f4e65fad6a7708a99,2024_04_21,29.87530059952514,-81.26757958498874,Middles,1.5825,0.19963333333333333,0.503225,26,24,"MIST,NIGHT_CLEAR,NIGHT_CLEAR,NIGHT_MOSTLY_CLOUDY","Onshore,Offshore,Offshore,Offshore",4
5842041f4e65fad6a7708a9a,2024_04_21,29.146475528378218,-80.96347,Sunglow Pier,1.75,0.1825,0.4875,23,23,"CLEAR,NIGHT_CLEAR,NIGHT_CLEAR,NIGHT_CLEAR","Onshore,Offshore,Offshore,Offshore",4
5842041f4e65fad6a7708a9b,2024_04_21,30.02251238001095,-81.32183077344881,Gate Station,1.5825,0.21359166666666668,0.5198916666666666,26,24,"CLEAR,NIGHT_CLEAR,NIGHT_CLEAR,NIGHT_CLOUDY","Onshore,Offshore,Offshore,Offshore",4
5842041f4e65fad6a7708a9c,2024_04_21,29.33976495417899,-81.0606,Bicentennial Park,1.75,0.17250000000000001,0.4775,23,23,"MIST,NIGHT_CLEAR,NIGHT_MOSTLY_CLEAR,NIGHT_MOSTLY_CLOUDY","Onshore,Offshore,Offshore,Offshore",4
5842041f4e65fad6a7708a9d,2024_04_21,29.08257353385602,-80.92137,Ponce Inlet,2.75,0.39843333333333336,0.7047333333333333,25,23,"CLEAR,NIGHT_CLEAR,NIGHT_CLEAR,NIGHT_CLEAR","Cross-shore,Offshore,Offshore,Offshore",4
5842041f4e65fad6a7708a9f,2024_04_21,27.862962005874696,-80.44668,Sebastian Inlet,1.75,0.3357583333333333,0.6170783333333334,26,24,"CLEAR,NIGHT_CLEAR,NIGHT_CLEAR,NIGHT_CLEAR","Cross-shore,Cross-shore,Cross-shore,Offshore",4
5842041f4e65fad6a7708aa0,2024_04_21,30.292626880836885,-81.38579,Jacksonville Beach Pier,2.5,0.38405833333333333,0.688275,24,23,"CLEAR,NIGHT_CLEAR,NIGHT_CLEAR,NIGHT_CLEAR","Onshore,Cross-shore,Cross-shore,Cross-shore",4
5842041f4e65fad6a7708aa1,2024_04_21,29.22878213864532,-81.00551,Main Street North,1,0.42718,0.59673,23,23,"CLEAR,NIGHT_CLEAR,NIGHT_CLEAR,NIGHT_CLEAR","Onshore,Offshore,Offshore,Offshore",4
5842041f4e65fad6a7708aa2,2024_04_21,29.21860397328164,-81.0019,Daytona Beach,1.75,0.1925,0.5,23,23,"CLEAR,NIGHT_CLEAR,NIGHT_CLEAR,NIGHT_CLEAR","Onshore,Offshore,Offshore,Offshore",4
5842041f4e65fad6a7708aa3,2024_04_21,27.47531255634912,-80.28914,Ft. Pierce Inlet,1.3325,0.16275833333333334,0.46905833333333335,26,24,"CLEAR,NIGHT_CLEAR,NIGHT_CLEAR,NIGHT_CLEAR","Cross-shore,Offshore,Offshore,Offshore",4
5842041f4e65fad6a7708aa4,2024_04_21,29.29239875585548,-81.0386,Ormond Beach,1.75,0.2325,0.5375000000000001,23,23,"CLEAR,NIGHT_CLEAR,NIGHT_CLEAR,NIGHT_MOSTLY_CLOUDY","Onshore,Offshore,Offshore,Offshore",4
5842041f4e65fad6a7708aa5,2024_04_21,29.91629441498523,-81.28801,Vilano,1.75,0.1175,0.42,22,22,"CLEAR,NIGHT_CLEAR,NIGHT_CLEAR,NIGHT_CLEAR","Cross-shore,Offshore,Offshore,Offshore",4
5842041f4e65fad6a7708aa6,2024_04_21,27.876230736320828,-80.4551,Spanish House,1.25,0.30296666666666666,0.6067666666666667,26,24,"CLEAR,NIGHT_CLEAR,NIGHT_CLEAR,NIGHT_CLEAR","Cross-shore,Cross-shore,Cross-shore,Offshore",4
5842041f4e65fad6a7708aa7,2024_04_21,28.64397251741012,-80.62329,Playalinda,1.75,0.3375,0.64,24,24,"CLEAR,NIGHT_MOSTLY_CLOUDY,NIGHT_CLEAR,NIGHT_CLEAR","Onshore,Offshore,Offshore,Cross-shore",4
5842041f4e65fad6a7708aa8,2024_04_21,28.406142,-80.58886,Jetty Park,1.75,0.23500000000000001,0.5425,24,24,"CLEAR,NIGHT_CLEAR,NIGHT_CLEAR,NIGHT_CLEAR","Onshore,Offshore,Cross-shore,Onshore",4
5842041f4e65fad6a7708aa9,2024_04_21,28.49083243010974,-80.58001715986319,Kennedy Space Center,1.75,0.295,0.5975,24,24,"CLEAR,NIGHT_MOSTLY_CLOUDY,NIGHT_CLEAR,NIGHT_CLEAR","Cross-shore,Offshore,Offshore,Cross-shore",4
5842041f4e65fad6a7708aab,2024_04_21,28.336757013024314,-80.60568,Lori Wilson Park,1.75,0.36843333333333333,0.6722333333333333,26,24,"CLEAR,NIGHT_CLEAR,NIGHT_CLEAR,NIGHT_CLEAR","Onshore,Cross-shore,Cross-shore,Cross-shore",4
5842041f4e65fad6a7708aad,2024_04_21,27.76388821683801,-80.3962958234027,Wabasso,1,0.2075,0.5125,25,25,"MOSTLY_CLEAR,NIGHT_CLEAR,NIGHT_CLEAR,NIGHT_CLEAR","Cross-shore,Cross-shore,Cross-shore,Cross-shore",4
5842041f4e65fad6a7708aae,2024_04_21,27.521583322459,-80.30987620353699,P.V. Martin's,1,0.24088333333333334,0.5471833333333334,26,24,"CLEAR,NIGHT_CLEAR,NIGHT_CLEAR,NIGHT_CLEAR","Onshore,Cross-shore,Cross-shore,Cross-shore",4
5842041f4e65fad6a7708aaf,2024_04_21,27.644996047720046,-80.35242676734924,Riomar,0.9175,0.23588333333333333,0.541975,26,24,"CLEAR,NIGHT_CLEAR,NIGHT_CLEAR,NIGHT_CLEAR","Onshore,Cross-shore,Cross-shore,Cross-shore",4
5842041f4e65fad6a7708ab1,2024_04_21,27.670121806659253,-80.36026954650879,Vero Pier,1.75,0.3467166666666667,0.6478083333333333,26,24,"CLEAR,NIGHT_CLEAR,NIGHT_CLEAR,NIGHT_CLEAR","Onshore,Cross-shore,Cross-shore,Cross-shore",4
5842041f4e65fad6a7708ab2,2024_04_21,28.047705032021486,-80.54680109024048,Spessard Holland,1.9175,0.4449045833333334,0.7095895833333333,26,24,"MOSTLY_CLEAR,NIGHT_CLEAR,NIGHT_CLEAR,NIGHT_CLEAR","Cross-shore,Offshore,Cross-shore,Offshore",4
5842041f4e65fad6a7708ab7,2024_04_21,28.135426226217064,-80.57895541191101,The Radisson,1.6675,0.3951,0.6986916666666666,26,24,"CLEAR,NIGHT_CLEAR,NIGHT_CLEAR,NIGHT_CLEAR","Onshore,Cross-shore,Cross-shore,Cross-shore",4
5842041f4e65fad6a7708ab8,2024_04_21,28.26664623907351,-80.60448467731476,Picnic Tables,1.75,0.3825,0.6924999999999999,24,24,"CLEAR,NIGHT_CLEAR,NIGHT_CLEAR,NIGHT_CLEAR","Onshore,Cross-shore,Cross-shore,Cross-shore",4
5842041f4e65fad6a7708ab9,2024_04_21,28.200840983180232,-80.59493,Perkins,1.9175,0.43114166666666665,0.7347333333333333,26,24,"CLEAR,NIGHT_CLEAR,NIGHT_CLEAR,NIGHT_CLEAR","Onshore,Cross-shore,Cross-shore,Cross-shore",4
5842041f4e65fad6a7708aba,2024_04_21,28.185652556759443,-80.59154,RC's,2.3325,0.49223333333333336,0.8010333333333334,26,24,"CLEAR,NIGHT_CLEAR,NIGHT_CLEAR,NIGHT_CLEAR","Onshore,Cross-shore,Offshore,Offshore",4
5842041f4e65fad6a7708abc,2024_04_21,28.252541991968208,-80.60269,2nd Light,1.75,0.35,0.655,24,24,"CLEAR,NIGHT_CLEAR,NIGHT_CLEAR,NIGHT_CLEAR","Onshore,Cross-shore,Cross-shore,Cross-shore",4
5842041f4e65fad6a7708abd,2024_04_21,27.901611308716447,-80.4697,Bonsteel Park,1.75,0.31400833333333333,0.6176,26,24,"CLEAR,NIGHT_CLEAR,NIGHT_CLEAR,NIGHT_CLEAR","Cross-shore,Cross-shore,Cross-shore,Offshore",4
5842041f4e65fad6a7708abe,2024_04_21,28.2423394657007,-80.60104,Hangar's Beach,1.9175,0.3930166666666667,0.6941083333333333,26,24,"CLEAR,NIGHT_CLEAR,NIGHT_CLEAR,NIGHT_CLEAR","Onshore,Cross-shore,Cross-shore,Cross-shore",4
5842041f4e65fad6a7708abf,2024_04_21,27.34018197146798,-80.23278,Walton Rocks,1,0.2542416666666667,0.5574416666666667,24,23,"CLEAR,NIGHT_CLEAR,NIGHT_MOSTLY_CLEAR,NIGHT_CLEAR","Cross-shore,Cross-shore,Cross-shore,Cross-shore",4
5842041f4e65fad6a7708ac0,2024_04_21,25.80407401902198,-80.1222227290161,30th Street,0,0,0.22,26,26,"CLEAR,NIGHT_MOSTLY_CLOUDY,NIGHT_MOSTLY_CLOUDY,NIGHT_CLEAR","Onshore,Onshore,Onshore,Cross-shore",4
5842041f4e65fad6a7708ac1,2024_04_21,25.76570280215999,-80.12983,South Beach,0,0,0.165525,26,24,"CLEAR,NIGHT_MOSTLY_CLOUDY,NIGHT_CLEAR,NIGHT_CLEAR","Onshore,Onshore,Onshore,Cross-shore",4
5842041f4e65fad6a7708ac2,2024_04_21,26.058022412197,-80.10873562327671,Dania Pier,0,0,0.2375,26,26,"CLEAR,NIGHT_MOSTLY_CLOUDY,NIGHT_MOSTLY_CLOUDY,NIGHT_MOSTLY_CLOUDY","Cross-shore,Cross-shore,Cross-shore,Cross-shore",4
5842041f4e65fad6a7708ac3,2024_04_21,26.04825428257198,-80.11153150137932,Franklin Street,1,0,0.25,26,26,"CLEAR,NIGHT_MOSTLY_CLOUDY,NIGHT_MOSTLY_CLOUDY,NIGHT_MOSTLY_CLOUDY","Onshore,Cross-shore,Cross-shore,Cross-shore",4
5842041f4e65fad6a7708ac4,2024_04_21,26.09086461141498,-80.10728410144065,John Lloyd State Park,0,0,0.245,26,26,"CLEAR,NIGHT_MOSTLY_CLOUDY,NIGHT_MOSTLY_CLOUDY,NIGHT_MOSTLY_CLOUDY","Onshore,Cross-shore,Cross-shore,Cross-shore",4
5842041f4e65fad6a7708ac5,2024_04_21,26.0971397396683,-80.10298876028907,Spoils,0,0,0.2375,26,26,"CLEAR,NIGHT_MOSTLY_CLOUDY,NIGHT_MOSTLY_CLOUDY,NIGHT_MOSTLY_CLOUDY","Onshore,Cross-shore,Cross-shore,Cross-shore",4
5842041f4e65fad6a7708ac6,2024_04_21,26.18920557475824,-80.09224470008016,Commercial Pier,0,0,0.2675,26,26,"CLEAR,NIGHT_MOSTLY_CLOUDY,NIGHT_MOSTLY_CLOUDY,NIGHT_MOSTLY_CLOUDY","Onshore,Cross-shore,Cross-shore,Cross-shore",4
5842041f4e65fad6a7708ac7,2024_04_21,28.289851576629342,-80.6063,16th St. South,1.75,0.35885,0.6574416666666666,26,24,"CLEAR,NIGHT_CLEAR,NIGHT_CLEAR,NIGHT_CLEAR","Onshore,Cross-shore,Cross-shore,Cross-shore",4
5842041f4e65fad6a7708ac8,2024_04_21,26.23467460139735,-80.0874,Pompano Pier,0,0,0.16680833333333334,26,24,"CLEAR,NIGHT_CLEAR,NIGHT_MOSTLY_CLOUDY,NIGHT_MOSTLY_CLOUDY","Onshore,Cross-shore,Cross-shore,Cross-shore",4
5842041f4e65fad6a7708acb,2024_04_21,26.44179551370651,-80.05928855229453,Atlantic Dunes Park,0,-0.004286250000000002,0.14489625,26,24,"CLEAR,NIGHT_CLEAR,NIGHT_CLEAR,NIGHT_MOSTLY_CLOUDY","Onshore,Cross-shore,Cross-shore,Cross-shore",4
5842041f4e65fad6a7708acd,2024_04_21,26.62215707439298,-80.03599398392342,Hilton Hotel Backyard,0.9575,0.037083333333333336,0.346325,26,24,"MOSTLY_CLEAR,NIGHT_CLEAR,NIGHT_CLEAR,NIGHT_CLEAR","Onshore,Cross-shore,Cross-shore,Cross-shore",4
5842041f4e65fad6a7708ace,2024_04_21,26.96418190555367,-80.07769168113562,Coral Cove Park,0.9575,0.1948666666666667,0.5016083333333333,26,24,"MOSTLY_CLEAR,NIGHT_CLEAR,NIGHT_CLEAR,NIGHT_CLEAR","Cross-shore,Cross-shore,Cross-shore,Cross-shore",4
5842041f4e65fad6a7708acf,2024_04_21,26.7029496416037,-80.0318372872607,Palm Beach,0.9575,0.08020833333333333,0.38340833333333335,26,24,"MOSTLY_CLEAR,NIGHT_CLEAR,NIGHT_CLEAR,NIGHT_MOSTLY_CLOUDY","Onshore,Offshore,Cross-shore,Offshore",4
5842041f4e65fad6a7708ad0,2024_04_21,26.97679878167375,-80.08141631388132,Blowing Rocks,0.9575,0.18840833333333334,0.49015,26,24,"CLEAR,NIGHT_MOSTLY_CLOUDY,NIGHT_MOSTLY_CLEAR,NIGHT_CLEAR","Cross-shore,Cross-shore,Cross-shore,Cross-shore",4
5842041f4e65fad6a7708ad2,2024_04_21,26.45661880078336,-80.057,Delray Beach,0,0,0.14240000000000003,26,24,"CLEAR,NIGHT_CLEAR,NIGHT_CLEAR,NIGHT_MOSTLY_CLOUDY","Onshore,Cross-shore,Cross-shore,Cross-shore",4
5842041f4e65fad6a7708ad3,2024_04_21,27.205685534312778,-80.16826629638672,Fletcher's,0.75,0.248825,0.5555666666666668,26,24,"CLEAR,NIGHT_MOSTLY_CLEAR,NIGHT_MOSTLY_CLOUDY,NIGHT_MOSTLY_CLEAR","Cross-shore,Offshore,Offshore,Offshore",4
5842041f4e65fad6a7708ad5,2024_04_21,26.5848450388814,-80.03649735753257,Lantana Public Beach,0.9575,0.06270833333333334,0.36445,26,24,"MOSTLY_CLEAR,NIGHT_MOSTLY_CLOUDY,NIGHT_CLEAR,NIGHT_CLEAR","Cross-shore,Cross-shore,Cross-shore,Cross-shore",4
5842041f4e65fad6a7708ad6,2024_04_21,25.77468432731322,-80.12884045797499,5th Street,0,0,0.20500000000000002,26,26,"CLEAR,NIGHT_MOSTLY_CLOUDY,NIGHT_CLEAR,NIGHT_CLEAR","Onshore,Onshore,Onshore,Onshore",4
5842041f4e65fad6a7708ad7,2024_04_21,25.795157990715975,-80.12527585029602,21st Street,0.25,0,0.21,26,26,"CLEAR,NIGHT_MOSTLY_CLOUDY,NIGHT_CLEAR,NIGHT_CLEAR","Onshore,Onshore,Onshore,Onshore",4
5842041f4e65fad6a7708ad8,2024_04_21,25.897806453088073,-80.1211827993393,Haulover Inlet (South Jetty),0,0,0.22,25,25,"CLEAR,NIGHT_MOSTLY_CLOUDY,NIGHT_MOSTLY_CLOUDY,NIGHT_MOSTLY_CLOUDY","Onshore,Onshore,Cross-shore,Cross-shore",4
5842041f4e65fad6a7708ad9,2024_04_21,25.90147392328634,-80.12110769748688,Haulover Inlet (North Jetty),0,0,0.22749999999999998,25,25,"CLEAR,NIGHT_MOSTLY_CLOUDY,NIGHT_MOSTLY_CLOUDY,NIGHT_MOSTLY_CLOUDY","Onshore,Onshore,Cross-shore,Cross-shore",4
5842041f4e65fad6a7708ada,2024_04_21,25.87049374242476,-80.11828560342356,85th Street,0.25,0,0.1975,26,26,"CLEAR,NIGHT_MOSTLY_CLOUDY,NIGHT_MOSTLY_CLOUDY,NIGHT_MOSTLY_CLOUDY","Cross-shore,Cross-shore,Cross-shore,Cross-shore",4
5842041f4e65fad6a7708adb,2024_04_21,26.25486382031396,-80.0805,Hillsboro Inlet,0.9175,0.185561875,0.33438875,28,27,"CLEAR,NIGHT_CLEAR,NIGHT_MOSTLY_CLOUDY,NIGHT_CLEAR","Onshore,Cross-shore,Cross-shore,Cross-shore",4
5842041f4e65fad6a7708add,2024_04_21,26.29705672965111,-80.07612393274484,Hillsboro Beach,0.75,0,0.260075,28,27,"CLEAR,NIGHT_MOSTLY_CLOUDY,NIGHT_MOSTLY_CLOUDY,NIGHT_MOSTLY_CLOUDY","Onshore,Cross-shore,Cross-shore,Cross-shore",4
5842041f4e65fad6a7708ade,2024_04_21,26.36569956413266,-80.06717936869391,Red Reef Park,0.9575,0.011666666666666667,0.31090833333333334,26,24,"CLEAR,NIGHT_CLEAR,NIGHT_MOSTLY_CLOUDY,NIGHT_MOSTLY_CLOUDY","Onshore,Cross-shore,Cross-shore,Cross-shore",4
5842041f4e65fad6a7708adf,2024_04_21,26.54593873498907,-80.04104359585143,Boynton Beach Inlet (Northside),0.2075,0.0075,0.29924166666666663,26,24,"CLEAR,NIGHT_CLEAR,NIGHT_CLEAR,NIGHT_CLEAR","Onshore,Cross-shore,Cross-shore,Cross-shore",4
5842041f4e65fad6a7708ae0,2024_04_21,26.92746505629809,-80.06721138954163,Corners,0,-0.004503749999999973,0.14939624999999995,26,24,"CLEAR,NIGHT_CLEAR,NIGHT_CLEAR,NIGHT_CLEAR","Cross-shore,Cross-shore,Cross-shore,Cross-shore",4
5842041f4e65fad6a7708ae1,2024_04_21,26.76983179886943,-80.03413481937037,The Cove,0.9575,0.08125,0.38945,26,24,"MOSTLY_CLEAR,NIGHT_CLEAR,NIGHT_CLEAR,NIGHT_CLEAR","Onshore,Cross-shore,Cross-shore,Cross-shore",4
5842041f4e65fad6a7708ae3,2024_04_21,26.39224485175123,-80.0650461233983,Japanese Rock,0.7075,0.0025,0.2911166666666667,26,24,"CLEAR,NIGHT_CLEAR,NIGHT_CLEAR,NIGHT_MOSTLY_CLOUDY","Onshore,Cross-shore,Cross-shore,Cross-shore",4
5842041f4e65fad6a7708ae4,2024_04_21,29.94810928551321,-85.42545434612366,Mexico Beach,0,0,0.125,23,23,"CLEAR,NIGHT_MOSTLY_CLOUDY,NIGHT_OVERCAST,NIGHT_OVERCAST","Onshore,Onshore,Onshore,Onshore",4
5842041f4e65fad6a7708ae5,2024_04_21,30.11752500931267,-85.7306039427457,Shell Island,0,0,0.14750000000000002,23,23,"MIST,NIGHT_MIST,NIGHT_MIST,NIGHT_CLOUDY","Onshore,Onshore,Onshore,Onshore",4
5842041f4e65fad6a7708ae7,2024_04_21,29.94901514702268,-85.43042978529013,D.J.'s,0,0,0.125,23,23,"CLEAR,NIGHT_MOSTLY_CLOUDY,NIGHT_OVERCAST,NIGHT_OVERCAST","Onshore,Onshore,Onshore,Onshore",4
5842041f4e65fad6a7708ae8,2024_04_21,30.12396111446713,-85.73636797034509,St. Andrew's Park,0.75,0,0.2190666666666667,23,22,"MIST,NIGHT_MIST,NIGHT_MIST,NIGHT_CLOUDY","Onshore,Onshore,Onshore,Onshore",4
5842041f4e65fad6a7708ae9,2024_04_21,30.16781531760227,-85.79604918824084,Spinnaker,0.75,0,0.23656666666666668,23,22,"CLEAR,NIGHT_MIST,NIGHT_OVERCAST,NIGHT_OVERCAST","Onshore,Onshore,Onshore,Onshore",4
5842041f4e65fad6a7708aea,2024_04_21,30.18877050526983,-85.83243530466363,Wood Pier,1,0,0.17561666666666667,23,22,"CLEAR,NIGHT_MIST,NIGHT_MIST,NIGHT_MIST","Onshore,Onshore,Onshore,Onshore",4
5842041f4e65fad6a7708aeb,2024_04_21,30.2676205895555,-85.9938578144113,Inlet Beach Pier,0.75,0,0.1877,23,22,"CLEAR,NIGHT_CLEAR,NIGHT_CLEAR,NIGHT_MIST","Onshore,Onshore,Onshore,Onshore",4
5842041f4e65fad6a7708aec,2024_04_21,30.31815542759119,-86.1383771867044,Bud and Alley's,1,0,0.19228333333333333,23,22,"MIST,NIGHT_MIST,NIGHT_MIST,NIGHT_MIST","Onshore,Onshore,Onshore,Onshore",4
5842041f4e65fad6a7708aed,2024_04_21,30.32686082481946,-86.16650590275447,Grayton Beach,1,0,0.19228333333333333,23,22,"CLEAR,NIGHT_MIST,NIGHT_CLEAR,NIGHT_MIST","Onshore,Onshore,Onshore,Onshore",4
5842041f4e65fad6a7708aee,2024_04_21,30.33661488976303,-86.20094370184573,Blue Mountain Beach,1,0,0.19228333333333333,23,22,"MIST,NIGHT_MIST,NIGHT_MIST,NIGHT_MIST","Onshore,Onshore,Onshore,Onshore",4
5842041f4e65fad6a7708aef,2024_04_21,30.37677202831587,-86.38513326644897,Pompano Joe's,0.75,0,0.20645,23,22,"CLEAR,NIGHT_CLEAR,NIGHT_CLEAR,NIGHT_CLOUDY","Onshore,Onshore,Onshore,Cross-shore",4
5842041f4e65fad6a7708af0,2024_04_21,30.37429731725911,-86.36686966905461,Seascape,0.75,0,0.1943666666666667,23,22,"CLEAR,NIGHT_CLOUDY,NIGHT_CLEAR,NIGHT_CLOUDY","Onshore,Onshore,Onshore,Onshore",4
5842041f4e65fad6a7708af1,2024_04_21,30.382815988547186,-86.45838975906372,The Back Porch,1,0,0.20895,23,22,"CLEAR,NIGHT_CLEAR,NIGHT_CLEAR,NIGHT_CLOUDY","Onshore,Onshore,Onshore,Onshore",4
5842041f4e65fad6a7708af2,2024_04_21,30.21207176798612,-85.87989730830542,Panama City Pier,0.75,0,0.17811666666666667,23,22,"MIST,NIGHT_MIST,NIGHT_MIST,NIGHT_MIST","Onshore,Onshore,Onshore,Onshore",4
5842041f4e65fad6a7708af3,2024_04_21,30.37521499110326,-86.37169944119874,Whale's Tail,1,0,0.20645,23,22,"CLEAR,NIGHT_CLOUDY,NIGHT_CLEAR,NIGHT_CLOUDY","Onshore,Onshore,Onshore,Onshore",4
5842041f4e65fad6a7708af4,2024_04_21,30.38120596658251,-86.43045768307817,Old Crystal Pier,1,0,0.20186666666666667,23,22,"CLEAR,NIGHT_CLEAR,NIGHT_CLEAR,NIGHT_CLOUDY","Onshore,Onshore,Onshore,Onshore",4
5842041f4e65fad6a7708af5,2024_04_21,30.38090573159031,-86.50654862060082,Jetty East,0.75,0,0.21145,23,22,"CLEAR,NIGHT_CLEAR,NIGHT_MIST,NIGHT_MIST","Onshore,Onshore,Onshore,Onshore",4
5842041f4e65fad6a7708af6,2024_04_21,30.37584509640838,-86.50563273884252,HMO's,0,0,0.21145,23,22,"CLEAR,NIGHT_CLEAR,NIGHT_MIST,NIGHT_MIST","Onshore,Onshore,Onshore,Onshore",4
5842041f4e65fad6a7708af7,2024_04_21,30.38124006131522,-86.50052254675529,Two By Fours,0,0,0.21145,23,22,"MIST,NIGHT_CLEAR,NIGHT_CLEAR,NIGHT_MIST","Onshore,Onshore,Onshore,Onshore",4
5842041f4e65fad6a7708af8,2024_04_21,30.38250751017554,-86.45775957227345,The Pumphouse,1,0,0.21353333333333332,23,22,"CLEAR,NIGHT_CLEAR,NIGHT_CLEAR,NIGHT_CLOUDY","Onshore,Onshore,Onshore,Onshore",4
5842041f4e65fad6a7708af9,2024_04_21,30.38655981578935,-86.52475380603576,NCO Club,0.75,0,0.21145,23,22,"CLEAR,NIGHT_CLEAR,NIGHT_MIST,NIGHT_MIST","Onshore,Onshore,Onshore,Onshore",4
5842041f4e65fad6a7708afa,2024_04_21,30.39024516541047,-86.59341,Okaloosa Pier,0.75,0,0.20645,23,22,"MIST,NIGHT_MIST,NIGHT_MIST,NIGHT_MIST","Onshore,Onshore,Onshore,Onshore",4
5842041f4e65fad6a7708afb,2024_04_21,30.39281125722673,-86.59766184693287,Dead Man's,0.75,0,0.20895,23,22,"MIST,NIGHT_MIST,NIGHT_MIST,NIGHT_MIST","Onshore,Onshore,Onshore,Cross-shore",4
5842041f4e65fad6a7708afc,2024_04_21,30.32703176167034,-87.14196,Pensacola Pier,0,0,0.23249999999999998,23,23,"CLEAR,NIGHT_CLEAR,NIGHT_CLEAR,NIGHT_MOSTLY_CLOUDY","Onshore,Cross-shore,Offshore,Offshore",4
5842041f4e65fad6a7708afd,2024_04_21,30.37920054094992,-86.85583,Navarre Beach,1,0.12277958333333333,0.20454375,23,22,"CLEAR,NIGHT_MIST,NIGHT_MIST,NIGHT_MIST","Onshore,Onshore,Onshore,Offshore",4
5842041f4e65fad6a7708afe,2024_04_21,30.39491626029151,-86.61248004999744,Blue Horizon Motel,1,0,0.20645,23,22,"MIST,NIGHT_MIST,NIGHT_MIST,NIGHT_MIST","Onshore,Onshore,Onshore,Cross-shore",4
5842041f4e65fad6a7708aff,2024_04_21,30.29345899260828,-87.43546812169637,First Parking Lot,0,0,0.2325,24,24,"CLEAR,NIGHT_CLEAR,NIGHT_CLEAR,NIGHT_CLOUDY","Onshore,Onshore,Cross-shore,Cross-shore",4
5842041f4e65fad6a7708b00,2024_04_21,30.29767401311303,-87.41361598257893,Johnsons Beach,1,0,0.235,24,24,"CLEAR,NIGHT_CLEAR,NIGHT_CLEAR,NIGHT_MOSTLY_CLOUDY","Onshore,Onshore,Cross-shore,Cross-shore",4
5842041f4e65fad6a7708b01,2024_04_21,30.29513397370759,-87.42642359089679,Sandy Key,1,0,0.2325,24,24,"CLEAR,NIGHT_CLEAR,NIGHT_CLEAR,NIGHT_CLOUDY","Onshore,Onshore,Cross-shore,Cross-shore",4
5842041f4e65fad6a7708b03,2024_04_21,30.377504907388026,-86.86444,Navarre Pier,0,0,0.17561666666666667,23,22,"CLEAR,NIGHT_MIST,NIGHT_MIST,NIGHT_MIST","Onshore,Cross-shore,Cross-shore,Offshore",4
5842041f4e65fad6a7708b04,2024_04_21,30.31482647791307,-87.26163894669438,Pickens Point Dunes,1,0,0.24,23,23,"CLEAR,NIGHT_CLEAR,NIGHT_CLEAR,NIGHT_MOSTLY_CLOUDY","Onshore,Onshore,Onshore,Cross-shore",4
5842041f4e65fad6a7708b05,2024_04_21,30.32632110836516,-87.16019503253068,Slabs,0.75,0,0.2425,23,23,"CLEAR,NIGHT_CLEAR,NIGHT_CLEAR,NIGHT_MOSTLY_CLOUDY","Onshore,Cross-shore,Cross-shore,Offshore",4
5842041f4e65fad6a7708b06,2024_04_21,30.32739721382043,-87.30406515493348,Pickens Point,1,0,0.2375,23,23,"CLEAR,NIGHT_CLEAR,NIGHT_CLEAR,NIGHT_MOSTLY_CLOUDY","Onshore,Onshore,Onshore,Onshore",4
5842041f4e65fad6a7708b07,2024_04_21,30.27406893266753,-87.5436749948929,Bungalows,1,0,0.24,23,23,"CLEAR,NIGHT_CLEAR,NIGHT_CLEAR,NIGHT_OVERCAST","Onshore,Onshore,Cross-shore,Cross-shore",4
5842041f4e65fad6a7708b08,2024_04_21,27.99627311846992,-82.82942,880,0,0.0251225,0.0392525,25,25,"CLEAR,NIGHT_CLEAR,NIGHT_CLEAR,NIGHT_CLEAR","Onshore,Cross-shore,Onshore,Cross-shore",4
5842041f4e65fad6a7708b09,2024_04_21,27.97779860371595,-82.83246509090527,Pier 60,0,0,0.0425,25,25,"CLEAR,NIGHT_CLEAR,NIGHT_CLEAR,NIGHT_MIST","Onshore,Cross-shore,Onshore,Cross-shore",4
5842041f4e65fad6a7708b0a,2024_04_21,27.96296387618043,-82.8332635965418,Sand Key,0,0,0.0425,24,24,"CLEAR,NIGHT_CLEAR,NIGHT_MIST,NIGHT_MIST","Onshore,Cross-shore,Cross-shore,Cross-shore",4
5842041f4e65fad6a7708b0b,2024_04_21,27.92492619212885,-82.8449122845279,Belleair,0,0,0.0425,24,24,"MIST,NIGHT_CLEAR,NIGHT_MIST,NIGHT_MIST","Onshore,Cross-shore,Cross-shore,Cross-shore",4
5842041f4e65fad6a7708b0c,2024_04_21,27.882,-82.854,Indian Rocks Beach,0,0,0.0425,24,24,"MIST,NIGHT_MIST,NIGHT_MIST,NIGHT_MIST","Onshore,Onshore,Cross-shore,Cross-shore",4
5842041f4e65fad6a7708b0d,2024_04_21,27.83106104966094,-82.83550218771384,Redington Breakwater,0,0,0.04,24,24,"MIST,NIGHT_CLEAR,NIGHT_CLEAR,NIGHT_MIST","Onshore,Onshore,Onshore,Cross-shore",4
5842041f4e65fad6a7708b0e,2024_04_21,27.74369029906206,-82.76053473435867,Middle Jetty,0,0,0.04,24,24,"MIST,NIGHT_CLEAR,NIGHT_MIST,NIGHT_MIST","Onshore,Onshore,Onshore,Cross-shore",4
5842041f4e65fad6a7708b0f,2024_04_21,27.82174178852146,-82.83148664631841,Redington Pier,0,0,0.04,24,24,"MIST,NIGHT_CLEAR,NIGHT_CLEAR,NIGHT_MIST","Onshore,Onshore,Onshore,Cross-shore",4
5842041f4e65fad6a7708b10,2024_04_21,27.31496308261514,-82.5830466912004,Lido Beach,0,0,0.045,24,24,"CLEAR,NIGHT_MIST,NIGHT_MIST,NIGHT_MIST","Onshore,Onshore,Cross-shore,Cross-shore",4
5842041f4e65fad6a7708b11,2024_04_21,27.31122010159892,-82.57833234007632,Coolidge,0,0,0.045,24,24,"CLEAR,NIGHT_MIST,NIGHT_MIST,NIGHT_MIST","Onshore,Onshore,Cross-shore,Cross-shore",4
5842041f4e65fad6a7708b12,2024_04_21,27.26471672017615,-82.55464835167173,Siesta Key,0,0,0.05585833333333334,27,24,"CLEAR,NIGHT_CLEAR,NIGHT_CLEAR,NIGHT_CLEAR","Onshore,Onshore,Onshore,Onshore",4
5842041f4e65fad6a7708b13,2024_04_21,27.24638693488133,-82.53809115716797,Stickney Point,0,0,0.04,24,24,"MIST,NIGHT_MIST,NIGHT_MIST,NIGHT_BRIEF_SHOWERS","Onshore,Onshore,Onshore,Onshore",4
5842041f4e65fad6a7708b14,2024_04_21,27.21907878229092,-82.51813937562073,Turtles,0,0,0.04,24,24,"MIST,NIGHT_MOSTLY_CLOUDY,NIGHT_MIST,NIGHT_MIST","Onshore,Onshore,Onshore,Onshore",4
5842041f4e65fad6a7708b15,2024_04_21,27.11375765852028,-82.47039,Venice Jetties North,0,0,0.10337500000000001,27,24,"MIST,NIGHT_MOSTLY_CLOUDY,NIGHT_MOSTLY_CLOUDY,NIGHT_MIST","Onshore,Cross-shore,Cross-shore,Cross-shore",4
5842041f4e65fad6a7708b16,2024_04_21,27.111485758834025,-82.46757,Venice Jetties South,0,0,0.05585833333333334,27,24,"MIST,NIGHT_MOSTLY_CLOUDY,NIGHT_OVERCAST,NIGHT_MIST","Onshore,Cross-shore,Cross-shore,Cross-shore",4
5842041f4e65fad6a7708b17,2024_04_21,27.07249378831575,-82.4530285256104,Venice Pier,0,0,0.07315,27,24,"MIST,NIGHT_MOSTLY_CLOUDY,NIGHT_CLOUDY,NIGHT_MIST","Onshore,Onshore,Onshore,Cross-shore",4
5842041f4e65fad6a7708b19,2024_04_21,27.49680446426314,-82.7140145455959,Holmes Beach Pier,0,0,0.045,25,25,"MIST,NIGHT_MIST,NIGHT_MIST,NIGHT_MIST","Onshore,Cross-shore,Cross-shore,Cross-shore",4
5842041f4e65fad6a7708b1a,2024_04_21,27.7390348493064,-82.75763,Sunset Beach,0,0,0.04,24,24,"MIST,NIGHT_CLEAR,NIGHT_MIST,NIGHT_MIST","Onshore,Onshore,Onshore,Onshore",4
5842041f4e65fad6a7708b1b,2024_04_21,26.80347307599041,-82.28564775623539,Gasparilla Point,0,0,0.0375,25,25,"CLEAR,NIGHT_CLEAR,NIGHT_CLEAR,NIGHT_CLEAR","Onshore,Onshore,Onshore,Onshore",4
5842041f4e65fad6a7708b1c,2024_04_21,27.45365831548911,-82.69609,Coquina Jetties,0,0,0.045,24,24,"CLEAR,NIGHT_MIST,NIGHT_MIST,NIGHT_MIST","Onshore,Onshore,Cross-shore,Cross-shore",4
5842041f4e65fad6a7708b1d,2024_04_21,27.46077315206043,-82.69924,Twin Piers,0,0,0.10650000000000001,27,24,"CLEAR,NIGHT_MIST,NIGHT_MIST,NIGHT_MIST","Onshore,Onshore,Cross-shore,Cross-shore",4
5842041f4e65fad6a7708b1e,2024_04_21,26.91007316019612,-82.35352,Englewood,0,0,0.01,25,25,"MIST,NIGHT_MOSTLY_CLOUDY,NIGHT_MOSTLY_CLOUDY,NIGHT_MIST","Onshore,Onshore,Onshore,Onshore",4
5842041f4e65fad6a7708b1f,2024_04_21,26.88221101560038,-82.3359828282636,Knight's Point,0,0,0.0375,25,25,"CLEAR,NIGHT_MOSTLY_CLOUDY,NIGHT_MOSTLY_CLOUDY,NIGHT_MIST","Onshore,Onshore,Onshore,Onshore",4
5842041f4e65fad6a7708b20,2024_04_21,26.51219285784982,-82.1928203289264,Tween Waters,0,0,0.045,25,25,"CLEAR,NIGHT_MOSTLY_CLOUDY,NIGHT_MOSTLY_CLOUDY,NIGHT_MIST","Onshore,Offshore,Cross-shore,Cross-shore",4
