_id,date,lat,lon,name,daily_mean_swell_rating,daily_mean_wave_height_min,daily_mean_wave_height_max,daily_mean_water_temperature_max,daily_mean_water_temperature_min,weather_per_timestamp,wind_per_timestamp,n_samples_per_day
5842041f4e65fad6a77087f9,2024_02_02,37.741668,-122.51038,South Ocean Beach,1.083,3.416166666666667,4.405366666666667,14,14,"MOSTLY_CLOUDY,NIGHT_CLEAR,NIGHT_CLEAR,NIGHT_MOSTLY_CLOUDY,NIGHT_MOSTLY_CLOUDY,NIGHT_SHOWERS,NIGHT_CLEAR,MOSTLY_CLOUDY,CLEAR,CLEAR","Cross-shore,Onshore,Offshore,Onshore,Onshore,Cross-shore,Onshore,Onshore,Offshore,Onshore",10
5842041f4e65fad6a7708801,2024_02_02,37.49142,-122.50428,Maverick's,NA,3.9208833333333333,4.8542499999999995,13,13,"CLEAR,NIGHT_MOSTLY_CLOUDY,NIGHT_FOG,NIGHT_CLEAR,NIGHT_MOSTLY_CLOUDY,NIGHT_MOSTLY_CLEAR,NIGHT_MOSTLY_CLOUDY,BRIEF_SHOWERS,CLEAR,SHOWERS","Onshore,Cross-shore,Onshore,Cross-shore,Onshore,Onshore,Cross-shore,Cross-shore,Offshore,Cross-shore",10
5842041f4e65fad6a7708804,2024_02_02,44.997,-124.018,Roads End,1.7,3.143,3.741,11,11,"MOSTLY_CLEAR,NIGHT_MOSTLY_CLOUDY,NIGHT_DRIZZLE,NIGHT_BRIEF_SHOWERS,NIGHT_MOSTLY_CLOUDY,NIGHT_CLEAR,NIGHT_MOSTLY_CLOUDY,MOSTLY_CLOUDY,CLEAR,BRIEF_SHOWERS","Cross-shore,Cross-shore,Cross-shore,Cross-shore,Cross-shore,Cross-shore,Cross-shore,Cross-shore,Offshore,Cross-shore",10
5842041f4e65fad6a7708805,2024_02_02,36.95188851423011,-122.02522,Steamer Lane,3.65,2.3583033333333336,2.9343566666666665,14,14,"MOSTLY_CLOUDY,NIGHT_FOG,NIGHT_CLEAR,NIGHT_MOSTLY_CLEAR,NIGHT_MOSTLY_CLOUDY,NIGHT_MIST,NIGHT_MOSTLY_CLOUDY,FOG,CLEAR,CLEAR","Onshore,Cross-shore,Cross-shore,Cross-shore,Cross-shore,Offshore,Cross-shore,Onshore,Cross-shore,Cross-shore",10
5842041f4e65fad6a7708806,2024_02_02,36.95918781542251,-122.02489,Cowells,3,0.7676866666666666,1.0903800000000001,14,14,"MOSTLY_CLOUDY,NIGHT_FOG,NIGHT_CLEAR,NIGHT_MOSTLY_CLEAR,NIGHT_MOSTLY_CLOUDY,NIGHT_MIST,NIGHT_MOSTLY_CLOUDY,FOG,CLEAR,CLEAR","Cross-shore,Cross-shore,Cross-shore,Onshore,Onshore,Cross-shore,Onshore,Onshore,Cross-shore,Onshore",10
5842041f4e65fad6a7708807,2024_02_02,36.95468082526536,-121.97234,Pleasure Point,3.45,1.9782899999999999,2.5280933333333335,14,14,"MOSTLY_CLOUDY,NIGHT_FOG,NIGHT_CLEAR,NIGHT_MOSTLY_CLEAR,NIGHT_MOSTLY_CLOUDY,NIGHT_CLEAR,NIGHT_FOG,BRIEF_SHOWERS,MOSTLY_CLOUDY,MOSTLY_CLEAR","Cross-shore,Onshore,Onshore,Onshore,Onshore,Cross-shore,Onshore,Onshore,Onshore,Cross-shore",10
5842041f4e65fad6a770880a,2024_02_02,35.37815414378748,-120.86589,Morro Bay,2.617,2.60996,3.4098566666666668,13,13,"CLEAR,NIGHT_FOG,NIGHT_CLEAR,NIGHT_CLEAR,NIGHT_FOG,NIGHT_CLEAR,NIGHT_MIST,CLEAR,MOSTLY_CLOUDY,CLEAR","Onshore,Offshore,Offshore,Offshore,Offshore,Onshore,Onshore,Offshore,Offshore,Offshore",10
5842041f4e65fad6a770880b,2024_02_02,36.95782765000708,-121.9672887511276,Jack's,2.867,1.0035399999999999,1.36622,14,14,"MOSTLY_CLOUDY,NIGHT_FOG,NIGHT_CLEAR,NIGHT_MOSTLY_CLEAR,NIGHT_MOSTLY_CLOUDY,NIGHT_CLEAR,NIGHT_FOG,BRIEF_SHOWERS,MOSTLY_CLOUDY,MOSTLY_CLEAR","Cross-shore,Onshore,Onshore,Onshore,Onshore,Onshore,Onshore,Onshore,Onshore,Offshore",10
5842041f4e65fad6a770880d,2024_02_02,34.29982939936656,-119.3489016603669,Gold Coast Beachbreaks,2.6,0.6950000000000001,1.002,16,16,"MOSTLY_CLOUDY,NIGHT_CLEAR,NIGHT_CLEAR,NIGHT_CLEAR,NIGHT_CLEAR,NIGHT_CLEAR,CLEAR,CLEAR,CLEAR,CLEAR","Onshore,Offshore,Cross-shore,Cross-shore,Offshore,Cross-shore,Cross-shore,Cross-shore,Cross-shore,Cross-shore",10
5842041f4e65fad6a7708811,2024_02_02,34.245076,-119.26799,Ventura Harbor,2.817,1.7014445,2.171993,14,14,"MOSTLY_CLOUDY,NIGHT_CLEAR,NIGHT_CLEAR,NIGHT_CLEAR,NIGHT_CLEAR,NIGHT_CLEAR,CLEAR,CLEAR,CLEAR,CLEAR","Onshore,Onshore,Onshore,Onshore,Onshore,Onshore,Offshore,Offshore,Offshore,Onshore",10
5842041f4e65fad6a7708813,2024_02_02,34.051,-118.964,County Line,2.45,1.3620400000000001,1.7886133333333334,16,16,"MOSTLY_CLOUDY,NIGHT_MOSTLY_CLEAR,NIGHT_MOSTLY_CLOUDY,NIGHT_MOSTLY_CLOUDY,NIGHT_MOSTLY_CLEAR,NIGHT_MOSTLY_CLEAR,CLEAR,CLEAR,CLEAR,CLEAR","Offshore,Cross-shore,Onshore,Cross-shore,Cross-shore,Cross-shore,Cross-shore,Cross-shore,Onshore,Onshore",10
5842041f4e65fad6a7708814,2024_02_02,34.37256264378892,-119.47797,Rincon,3.3,1.449,1.722,16,16,"MOSTLY_CLOUDY,NIGHT_CLEAR,NIGHT_CLEAR,NIGHT_CLEAR,NIGHT_CLEAR,NIGHT_CLEAR,CLEAR,CLEAR,CLEAR,CLEAR","Onshore,Offshore,Cross-shore,Cross-shore,Cross-shore,Cross-shore,Cross-shore,Cross-shore,Cross-shore,Cross-shore",10
5842041f4e65fad6a7708817,2024_02_02,34.03096101876324,-118.68109,Malibu Third Point,3,0.8089999999999999,1.075,16,16,"MOSTLY_CLOUDY,NIGHT_CLEAR,NIGHT_MOSTLY_CLOUDY,NIGHT_MOSTLY_CLOUDY,NIGHT_CLEAR,NIGHT_CLEAR,CLEAR,CLEAR,CLEAR,CLEAR","Onshore,Offshore,Offshore,Offshore,Offshore,Offshore,Offshore,Offshore,Offshore,Offshore",10
5842041f4e65fad6a7708819,2024_02_02,33.984079047970035,-118.47381591796875,Venice Beach,2.767,1.7213366666666667,2.2936900000000002,15,15,"CLEAR,NIGHT_MOSTLY_CLOUDY,NIGHT_MOSTLY_CLOUDY,NIGHT_MOSTLY_CLOUDY,NIGHT_MOSTLY_CLOUDY,NIGHT_MOSTLY_CLOUDY,CLEAR,MOSTLY_CLOUDY,CLEAR,MOSTLY_CLEAR","Offshore,Offshore,Onshore,Offshore,Cross-shore,Cross-shore,Cross-shore,Offshore,Offshore,Onshore",10
5842041f4e65fad6a770881e,2024_02_02,34.037508438646746,-118.58339846155594,Topanga Beach,3.533,1.1623633333333334,1.5064733333333333,16,16,"MOSTLY_CLOUDY,NIGHT_CLEAR,NIGHT_FOG,NIGHT_FOG,NIGHT_CLEAR,NIGHT_CLEAR,CLEAR,CLEAR,CLEAR,CLEAR","Onshore,Offshore,Cross-shore,Cross-shore,Cross-shore,Cross-shore,Cross-shore,Offshore,Onshore,Cross-shore",10
5842041f4e65fad6a7708820,2024_02_02,33.73954373690184,-118.11414,Seal Beach Jetty,3,0.805,1.074,16,16,"CLEAR,NIGHT_MOSTLY_CLOUDY,NIGHT_FOG,NIGHT_OVERCAST,NIGHT_MOSTLY_CLOUDY,NIGHT_MOSTLY_CLOUDY,MIST,CLEAR,CLEAR,MOSTLY_CLOUDY","Offshore,Cross-shore,Cross-shore,Cross-shore,Cross-shore,Onshore,Onshore,Cross-shore,Cross-shore,Cross-shore",10
5842041f4e65fad6a7708822,2024_02_02,33.72309983348433,-118.08078,Anderson Street,3,1.177,1.442,16,16,"CLEAR,NIGHT_MOSTLY_CLOUDY,NIGHT_FOG,NIGHT_OVERCAST,NIGHT_MOSTLY_CLOUDY,NIGHT_MOSTLY_CLOUDY,MIST,MOSTLY_CLOUDY,MOSTLY_CLOUDY,MOSTLY_CLOUDY","Offshore,Cross-shore,Cross-shore,Offshore,Cross-shore,Onshore,Onshore,Cross-shore,Cross-shore,Cross-shore",10
5842041f4e65fad6a7708827,2024_02_02,33.65574085629463,-118.00397,Huntington Beach Pier Northside,1.65,1.9932533333333333,2.505726666666667,14,14,"MOSTLY_CLEAR,NIGHT_MOSTLY_CLOUDY,NIGHT_OVERCAST,NIGHT_DRIZZLE,NIGHT_MOSTLY_CLOUDY,NIGHT_MOSTLY_CLOUDY,CLEAR,MOSTLY_CLOUDY,MOSTLY_CLOUDY,MOSTLY_CLOUDY","Cross-shore,Cross-shore,Onshore,Onshore,Cross-shore,Onshore,Onshore,Onshore,Onshore,Onshore",10
5842041f4e65fad6a7708828,2024_02_02,34.272041739333,-119.2997646331,C St.,2.933,1.3516133333333333,1.6662066666666666,14,14,"MOSTLY_CLOUDY,NIGHT_CLEAR,NIGHT_CLEAR,NIGHT_CLEAR,NIGHT_CLEAR,NIGHT_CLEAR,CLEAR,CLEAR,CLEAR,CLEAR","Cross-shore,Offshore,Cross-shore,Offshore,Offshore,Offshore,Offshore,Offshore,Offshore,Cross-shore",10
5842041f4e65fad6a770882a,2024_02_02,33.61555743705257,-117.93676,Newport Lower Jetties,1.884,1.3422666666666667,1.84642,16,16,"CLEAR,NIGHT_MOSTLY_CLOUDY,NIGHT_OVERCAST,NIGHT_OVERCAST,NIGHT_BRIEF_SHOWERS,NIGHT_CLEAR,MOSTLY_CLEAR,BRIEF_SHOWERS,MOSTLY_CLOUDY,CLOUDY","Cross-shore,Offshore,Offshore,Cross-shore,Cross-shore,Cross-shore,Cross-shore,Onshore,Cross-shore,Cross-shore",10
5842041f4e65fad6a770882b,2024_02_02,33.5930302087,-117.88199,The Wedge,2.7,1.045464,1.331066,16,16,"MOSTLY_CLEAR,NIGHT_CLEAR,NIGHT_OVERCAST,NIGHT_DRIZZLE,NIGHT_MOSTLY_CLOUDY,NIGHT_MOSTLY_CLOUDY,MOSTLY_CLEAR,MIST,MOSTLY_CLOUDY,OVERCAST","Cross-shore,Offshore,Offshore,Cross-shore,Cross-shore,Offshore,Cross-shore,Onshore,Cross-shore,Cross-shore",10
5842041f4e65fad6a770882c,2024_02_02,33.60577342582,-117.9315376281,Newport Beach Pier,1.9,1.4896,1.9375733333333334,16,16,"CLEAR,NIGHT_MOSTLY_CLOUDY,NIGHT_OVERCAST,NIGHT_CLOUDY,NIGHT_MOSTLY_CLOUDY,NIGHT_CLEAR,MOSTLY_CLEAR,MOSTLY_CLOUDY,MOSTLY_CLOUDY,CLEAR","Onshore,Cross-shore,Cross-shore,Cross-shore,Cross-shore,Cross-shore,Cross-shore,Cross-shore,Cross-shore,Cross-shore",10
5842041f4e65fad6a770882e,2024_02_02,33.475793399792984,-117.72291,Salt Creek,1.383,1.7529333333333332,2.2460733333333334,15,15,"CLEAR,NIGHT_CLEAR,NIGHT_MOSTLY_CLOUDY,NIGHT_LIGHT_RAIN,NIGHT_BRIEF_SHOWERS,NIGHT_CLEAR,CLEAR,CLEAR,CLEAR,MOSTLY_CLOUDY","Onshore,Onshore,Onshore,Onshore,Onshore,Onshore,Onshore,Onshore,Onshore,Onshore",10
5842041f4e65fad6a7708830,2024_02_02,33.41800974113613,-117.61952,T-Street,1.1,1.4139466666666667,1.93208,16,16,"MOSTLY_CLEAR,NIGHT_MOSTLY_CLOUDY,NIGHT_MOSTLY_CLOUDY,NIGHT_CLOUDY,NIGHT_BRIEF_SHOWERS,NIGHT_MOSTLY_CLOUDY,MOSTLY_CLEAR,MOSTLY_CLEAR,MOSTLY_CLOUDY,CLEAR","Onshore,Onshore,Cross-shore,Onshore,Onshore,Onshore,Cross-shore,Cross-shore,Onshore,Cross-shore",10
5842041f4e65fad6a7708832,2024_02_02,33.202391008646,-117.39475,Oceanside Harbor,0.95,1.8318933333333334,2.3209566666666666,16,16,"MOSTLY_CLOUDY,NIGHT_MOSTLY_CLOUDY,NIGHT_MOSTLY_CLOUDY,NIGHT_BRIEF_SHOWERS,NIGHT_MOSTLY_CLOUDY,NIGHT_MOSTLY_CLOUDY,MOSTLY_CLEAR,CLEAR,SHOWERS,CLOUDY","Onshore,Onshore,Onshore,Onshore,Onshore,Onshore,Onshore,Onshore,Onshore,Onshore",10
5842041f4e65fad6a7708835,2024_02_02,33.19477795952803,-117.38667,Oceanside Pier,1.3,1.7692033333333332,2.24535,16,16,"MOSTLY_CLOUDY,NIGHT_MOSTLY_CLOUDY,NIGHT_MOSTLY_CLOUDY,NIGHT_MOSTLY_CLOUDY,NIGHT_MOSTLY_CLOUDY,NIGHT_CLEAR,CLEAR,CLEAR,SHOWERS,OVERCAST","Onshore,Onshore,Onshore,Onshore,Onshore,Onshore,Onshore,Onshore,Onshore,Onshore",10
5842041f4e65fad6a7708837,2024_02_02,33.14948100706,-117.35029,Tamarack,2,0.948,1.185,16,16,"MOSTLY_CLOUDY,NIGHT_MOSTLY_CLOUDY,NIGHT_MOSTLY_CLOUDY,NIGHT_CLEAR,NIGHT_BRIEF_SHOWERS_POSSIBLE,NIGHT_MOSTLY_CLOUDY,CLEAR,CLEAR,CLEAR,CLOUDY","Onshore,Onshore,Onshore,Onshore,Onshore,Onshore,Onshore,Onshore,Cross-shore,Onshore",10
5842041f4e65fad6a7708839,2024_02_02,32.865777159358856,-117.25614295356122,Scripps,0.817,1.76726,2.37404,14,14,"MIST,NIGHT_MOSTLY_CLOUDY,NIGHT_MOSTLY_CLOUDY,NIGHT_CLEAR,NIGHT_MOSTLY_CLEAR,NIGHT_CLEAR,BRIEF_SHOWERS,CLEAR,BRIEF_SHOWERS,MOSTLY_CLOUDY","Onshore,Onshore,Onshore,Onshore,Onshore,Onshore,Onshore,Onshore,Onshore,Onshore",10
5842041f4e65fad6a770883a,2024_02_02,32.813094,-117.27381,Birdrock,2,2.185,2.61,16,16,"MIST,NIGHT_MOSTLY_CLOUDY,NIGHT_MOSTLY_CLOUDY,NIGHT_MOSTLY_CLOUDY,NIGHT_CLEAR,NIGHT_MOSTLY_CLEAR,MOSTLY_CLOUDY,SHOWERS,MOSTLY_CLOUDY,MOSTLY_CLOUDY","Onshore,Onshore,Onshore,Onshore,Onshore,Onshore,Cross-shore,Onshore,Onshore,Onshore",10
5842041f4e65fad6a770883b,2024_02_02,32.877231,-117.25303,Blacks,1.084,2.557516666666667,3.39187,14,14,"MIST,NIGHT_MOSTLY_CLOUDY,NIGHT_MOSTLY_CLOUDY,NIGHT_CLEAR,NIGHT_MOSTLY_CLEAR,NIGHT_CLEAR,BRIEF_SHOWERS,CLEAR,BRIEF_SHOWERS,MOSTLY_CLOUDY","Cross-shore,Onshore,Onshore,Onshore,Cross-shore,Onshore,Onshore,Cross-shore,Cross-shore,Cross-shore",10
5842041f4e65fad6a770883c,2024_02_02,32.82978974229765,-117.28161740727381,Windansea,0.883,2.0878099999999997,2.8657766666666666,14,14,"MIST,NIGHT_MOSTLY_CLOUDY,NIGHT_MOSTLY_CLOUDY,NIGHT_CLEAR,NIGHT_MOSTLY_CLEAR,NIGHT_CLEAR,MOSTLY_CLOUDY,SHOWERS,BRIEF_SHOWERS,MOSTLY_CLOUDY","Onshore,Onshore,Onshore,Onshore,Onshore,Onshore,Onshore,Onshore,Onshore,Onshore",10
5842041f4e65fad6a770883d,2024_02_02,32.838278,-117.28396,Horseshoe,1.9,2.251,2.689,16,16,"MIST,NIGHT_MOSTLY_CLOUDY,NIGHT_MOSTLY_CLOUDY,NIGHT_CLEAR,NIGHT_MOSTLY_CLEAR,NIGHT_CLEAR,MOSTLY_CLOUDY,SHOWERS,BRIEF_SHOWERS,MOSTLY_CLOUDY","Onshore,Onshore,Onshore,Onshore,Onshore,Onshore,Onshore,Onshore,Onshore,Onshore",10
5842041f4e65fad6a770883f,2024_02_02,32.75034717673179,-117.25337,Ocean Beach,0.65,2.2557733333333334,3.041603333333333,14,14,"MOSTLY_CLEAR,NIGHT_MOSTLY_CLOUDY,NIGHT_MOSTLY_CLOUDY,NIGHT_MOSTLY_CLOUDY,NIGHT_MOSTLY_CLOUDY,NIGHT_MOSTLY_CLEAR,MOSTLY_CLOUDY,MOSTLY_CLEAR,MOSTLY_CLOUDY,MOSTLY_CLEAR","Onshore,Onshore,Onshore,Onshore,Onshore,Onshore,Onshore,Onshore,Onshore,Onshore",10
5842041f4e65fad6a7708840,2024_02_02,32.73693,-117.25718,Sunset Cliffs,1.2,2.263,2.7030000000000003,16,16,"CLEAR,NIGHT_MOSTLY_CLOUDY,NIGHT_MOSTLY_CLOUDY,NIGHT_MOSTLY_CLOUDY,NIGHT_CLEAR,NIGHT_MOSTLY_CLEAR,CLEAR,CLEAR,MOSTLY_CLOUDY,MOSTLY_CLEAR","Onshore,Onshore,Onshore,Onshore,Onshore,Onshore,Onshore,Onshore,Onshore,Onshore",10
5842041f4e65fad6a7708841,2024_02_02,32.796582258728826,-117.25779,Pacific Beach,0.8,2.1749166666666664,2.7235633333333333,14,14,"CLEAR,NIGHT_MOSTLY_CLOUDY,NIGHT_MOSTLY_CLOUDY,NIGHT_MOSTLY_CLOUDY,NIGHT_CLEAR,NIGHT_MOSTLY_CLEAR,MOSTLY_CLOUDY,MOSTLY_CLEAR,MOSTLY_CLOUDY,MOSTLY_CLEAR","Onshore,Onshore,Onshore,Cross-shore,Onshore,Onshore,Onshore,Onshore,Onshore,Onshore",10
5842041f4e65fad6a7708842,2024_02_02,32.776636,-117.25514,Mission Beach,0.717,2.147333333333333,2.6911466666666666,14,14,"CLEAR,NIGHT_MOSTLY_CLOUDY,NIGHT_MOSTLY_CLOUDY,NIGHT_MOSTLY_CLOUDY,NIGHT_CLEAR,NIGHT_MOSTLY_CLEAR,MOSTLY_CLOUDY,MOSTLY_CLEAR,MOSTLY_CLOUDY,MOSTLY_CLEAR","Onshore,Onshore,Onshore,Onshore,Onshore,Onshore,Onshore,Onshore,Onshore,Onshore",10
5842041f4e65fad6a7708844,2024_02_02,32.577195519016,-117.13475,Imperial Beach Pier,1,2.353,2.812,16,16,"MOSTLY_CLEAR,NIGHT_MOSTLY_CLOUDY,NIGHT_CLEAR,NIGHT_MOSTLY_CLOUDY,NIGHT_MOSTLY_CLOUDY,NIGHT_HEAVY_SHOWERS,CLEAR,CLEAR,MOSTLY_CLOUDY,MOSTLY_CLEAR","Onshore,Onshore,Onshore,Onshore,Onshore,Onshore,Onshore,Onshore,Onshore,Onshore",10
5842041f4e65fad6a770884a,2024_02_02,42.88678181061,-70.80843,Seabrook,1.583,0.38224908333333335,0.65457275,5,4,"NIGHT_OVERCAST,NIGHT_MIST,NIGHT_MIST,MIST,MOSTLY_CLOUDY,MOSTLY_CLOUDY,CLEAR,CLEAR,CLEAR,CLEAR","Cross-shore,Offshore,Offshore,Offshore,Cross-shore,Cross-shore,Cross-shore,Cross-shore,Cross-shore,Cross-shore",10
5842041f4e65fad6a770884e,2024_02_02,41.434181432898335,-71.45312118111178,Narragansett,1.917,0.23768666666666668,0.5429266666666667,7,6,"NIGHT_OVERCAST,NIGHT_FOG,NIGHT_MIST,MIST,MIST,MIST,CLEAR,CLEAR,CLEAR,CLEAR","Onshore,Onshore,Cross-shore,Offshore,Offshore,Offshore,Offshore,Offshore,Offshore,Offshore",10
5842041f4e65fad6a7708850,2024_02_02,40.582703230722,-73.65247,Lincoln Blvd,0.758,0.11684,0.41997333333333337,7,6,"NIGHT_CLEAR,NIGHT_LIGHT_SHOWERS_POSSIBLE,NIGHT_CLEAR,NIGHT_MOSTLY_CLOUDY,MOSTLY_CLOUDY,CLEAR,MOSTLY_CLOUDY,MOSTLY_CLOUDY,MOSTLY_CLOUDY,CLEAR","Onshore,Cross-shore,Onshore,Onshore,Onshore,Offshore,Cross-shore,Offshore,Offshore,Offshore",10
5842041f4e65fad6a7708852,2024_02_02,40.58342841721757,-73.81182,Rockaways,1.983,0.41098,0.7149466666666667,7,6,"NIGHT_CLEAR,NIGHT_LIGHT_SHOWERS_POSSIBLE,NIGHT_MIST,NIGHT_MIST,FOG,MIST,MOSTLY_CLOUDY,MOSTLY_CLOUDY,MOSTLY_CLOUDY,CLEAR","Onshore,Onshore,Onshore,Onshore,Cross-shore,Offshore,Offshore,Offshore,Offshore,Offshore",10
5842041f4e65fad6a7708853,2024_02_02,40.330474,-73.9734,Monmouth Beach,1.533,0.4528533333333334,0.8424933333333333,5,4,"NIGHT_CLEAR,NIGHT_LIGHT_SHOWERS_POSSIBLE,NIGHT_LIGHT_SHOWERS_POSSIBLE,NIGHT_FOG,MIST,MIST,MIST,MIST,MIST,MOSTLY_CLEAR","Cross-shore,Cross-shore,Onshore,Cross-shore,Onshore,Onshore,Cross-shore,Cross-shore,Cross-shore,Cross-shore",10
5842041f4e65fad6a7708856,2024_02_02,40.113,-74.028,Manasquan Inlet,2.558,0.6091833333333334,1.0254933333333334,5,4,"NIGHT_CLEAR,NIGHT_LIGHT_SHOWERS_POSSIBLE,NIGHT_LIGHT_SHOWERS_POSSIBLE,NIGHT_LIGHT_SHOWERS_POSSIBLE,MIST,MIST,LIGHT_RAIN,DRIZZLE,CLOUDY,MOSTLY_CLOUDY","Cross-shore,Cross-shore,Onshore,Cross-shore,Onshore,Onshore,Onshore,Onshore,Cross-shore,Cross-shore",10
5842041f4e65fad6a7708857,2024_02_02,39.941519877445664,-74.06829,Casino Pier,2.442,0.79223,1.1168500000000001,5,4,"NIGHT_CLEAR,NIGHT_LIGHT_SHOWERS_POSSIBLE,NIGHT_LIGHT_SHOWERS_POSSIBLE,NIGHT_LIGHT_SHOWERS_POSSIBLE,MIST,DRIZZLE,LIGHT_RAIN,LIGHT_RAIN,DRIZZLE,CLOUDY","Cross-shore,Cross-shore,Onshore,Onshore,Onshore,Onshore,Cross-shore,Cross-shore,Cross-shore,Cross-shore",10
5842041f4e65fad6a7708858,2024_02_02,39.28223089949212,-74.55766,North End OC,1.9,0.6136833333333334,0.9886433333333333,5,4,"NIGHT_CLEAR,NIGHT_OVERCAST,NIGHT_DRIZZLE,NIGHT_LIGHT_SHOWERS_POSSIBLE,MIST,MIST,MIST,MIST,MIST,MIST","Onshore,Onshore,Cross-shore,Cross-shore,Offshore,Offshore,Offshore,Offshore,Offshore,Offshore",10
5842041f4e65fad6a770885b,2024_02_02,39.65080599934257,-74.17146,Ship Bottom,2.341,0.76175,1.1415000000000002,5,4,"NIGHT_MOSTLY_CLOUDY,NIGHT_DRIZZLE,NIGHT_BRIEF_SHOWERS_POSSIBLE,NIGHT_LIGHT_SHOWERS_POSSIBLE,DRIZZLE,CLOUDY,MIST,LIGHT_RAIN,DRIZZLE,DRIZZLE","Cross-shore,Onshore,Onshore,Onshore,Cross-shore,Cross-shore,Cross-shore,Cross-shore,Cross-shore,Cross-shore",10
5842041f4e65fad6a7708863,2024_02_02,36.034151543144,-75.66791,Third Street,2.967,0.79115,1.2961566666666666,9,6,"NIGHT_CLEAR,NIGHT_CLEAR,NIGHT_CLEAR,NIGHT_CLEAR,CLEAR,CLEAR,CLEAR,CLEAR,CLEAR,CLEAR","Cross-shore,Offshore,Offshore,Offshore,Offshore,Offshore,Offshore,Offshore,Offshore,Offshore",10
5842041f4e65fad6a7708867,2024_02_02,35.605833221351425,-75.46303,S-Turns,3.775,1.0591566666666667,1.5421533333333333,11,9,"NIGHT_CLEAR,NIGHT_CLEAR,NIGHT_CLEAR,NIGHT_CLEAR,CLEAR,CLEAR,CLEAR,CLEAR,CLEAR,CLEAR","Cross-shore,Offshore,Offshore,Offshore,Offshore,Offshore,Offshore,Offshore,Offshore,Offshore",10
5842041f4e65fad6a770886d,2024_02_02,38.338461,-75.08117,Ocean City Boardwalk,2.591,0.6516566666666667,1.0492299999999999,7,5,"NIGHT_CLEAR,NIGHT_CLOUDY,NIGHT_CLEAR,NIGHT_CLEAR,MOSTLY_CLOUDY,CLEAR,MOSTLY_CLOUDY,MOSTLY_CLOUDY,CLEAR,MOSTLY_CLOUDY","Offshore,Offshore,Offshore,Offshore,Offshore,Offshore,Offshore,Offshore,Cross-shore,Cross-shore",10
5842041f4e65fad6a770886f,2024_02_02,29.844757212379562,-81.26136,A St.,3,0.762,1.0310000000000001,15,15,"CLEAR,NIGHT_CLEAR,NIGHT_CLEAR,NIGHT_CLEAR,CLEAR,CLEAR,CLEAR,CLEAR,CLEAR,CLEAR","Onshore,Offshore,Offshore,Offshore,Offshore,Offshore,Offshore,Offshore,Offshore,Offshore",10
5842041f4e65fad6a7708871,2024_02_02,29.069417851135093,-80.90824,New Smyrna Beach,3.6,1.0581,1.57638,17,14,"CLEAR,NIGHT_CLEAR,NIGHT_CLEAR,NIGHT_CLEAR,CLEAR,CLEAR,CLEAR,CLEAR,CLEAR,CLEAR","Onshore,Offshore,Offshore,Offshore,Offshore,Offshore,Offshore,Offshore,Cross-shore,Cross-shore",10
5842041f4e65fad6a7708872,2024_02_02,28.367707417566,-80.60171,Cocoa Beach Pier,2.658,0.43588380952380956,0.7403990476190476,17,17,"CLEAR,NIGHT_CLEAR,NIGHT_CLEAR,NIGHT_MIST,MIST,CLEAR,CLEAR,CLEAR,CLEAR,CLEAR","Cross-shore,Offshore,Offshore,Offshore,Offshore,Offshore,Offshore,Offshore,Offshore,Cross-shore",10
5842041f4e65fad6a7708873,2024_02_02,28.091782738658846,-80.56479,Indialantic,2.783,1.0160466666666668,1.47973,18,18,"CLEAR,NIGHT_CLEAR,NIGHT_CLEAR,NIGHT_CLEAR,CLEAR,MIST,CLEAR,CLEAR,CLEAR,CLEAR","Cross-shore,Cross-shore,Cross-shore,Cross-shore,Offshore,Offshore,Offshore,Offshore,Cross-shore,Cross-shore",10
5842041f4e65fad6a7708876,2024_02_02,27.25392904143517,-80.19455,Jensen Beach,3,0.9329466666666666,1.4489166666666666,24,22,"CLEAR,NIGHT_CLEAR,NIGHT_CLEAR,NIGHT_CLEAR,CLEAR,CLEAR,CLEAR,CLEAR,CLEAR,CLEAR","Cross-shore,Cross-shore,Cross-shore,Cross-shore,Cross-shore,Cross-shore,Cross-shore,Cross-shore,Cross-shore,Cross-shore",10
5842041f4e65fad6a7708879,2024_02_02,26.76346795333825,-80.0360655784607,Reef Road,2.708,0.77666,1.1746933333333334,25,23,"CLEAR,NIGHT_CLEAR,NIGHT_CLEAR,NIGHT_CLEAR,CLEAR,CLEAR,CLEAR,CLEAR,CLEAR,CLEAR","Cross-shore,Offshore,Offshore,Offshore,Offshore,Offshore,Cross-shore,Cross-shore,Onshore,Onshore",10
5842041f4e65fad6a770887c,2024_02_02,26.336499228484,-80.06956100463,Boca Raton Inlet,2,0.37126666666666663,0.67245,25,23,"MOSTLY_CLEAR,NIGHT_CLEAR,NIGHT_CLEAR,NIGHT_CLEAR,CLEAR,CLEAR,CLEAR,CLEAR,MOSTLY_CLEAR,MOSTLY_CLEAR","Cross-shore,Offshore,Offshore,Offshore,Offshore,Offshore,Onshore,Onshore,Onshore,Onshore",10
5842041f4e65fad6a770887d,2024_02_02,26.31719311695038,-80.07452525176168,Deerfield Beach Pier,0.825,0.04573633333333334,0.34980200000000006,25,23,"MOSTLY_CLEAR,NIGHT_CLEAR,NIGHT_CLEAR,NIGHT_CLEAR,CLEAR,CLEAR,CLEAR,CLEAR,MOSTLY_CLEAR,MOSTLY_CLEAR","Cross-shore,Offshore,Offshore,Offshore,Offshore,Offshore,Onshore,Onshore,Onshore,Onshore",10
5842041f4e65fad6a7708881,2024_02_02,30.20276320866628,-85.85626528676136,"Spyglass Dr., Panama City",0,0,0.09301333333333334,14,13,"CLEAR,NIGHT_CLEAR,NIGHT_CLEAR,NIGHT_CLEAR,MOSTLY_CLOUDY,MOSTLY_CLOUDY,CLEAR,CLEAR,CLEAR,CLEAR","Onshore,Cross-shore,Offshore,Offshore,Offshore,Offshore,Offshore,Cross-shore,Onshore,Onshore",10
5842041f4e65fad6a7708884,2024_02_02,33.39000832738053,-117.59852,Cottons,1.583,1.4871133333333335,2.0344133333333336,16,16,"CLEAR,NIGHT_MOSTLY_CLOUDY,NIGHT_BRIEF_SHOWERS,NIGHT_OVERCAST,NIGHT_MOSTLY_CLOUDY,NIGHT_MOSTLY_CLOUDY,CLEAR,CLEAR,MOSTLY_CLOUDY,CLEAR","Onshore,Onshore,Onshore,Onshore,Onshore,Onshore,Cross-shore,Cross-shore,Onshore,Onshore",10
5842041f4e65fad6a7708885,2024_02_02,33.359416282661,-117.54167901405711,Trails,1.9,1.325,1.593,16,16,"MOSTLY_CLEAR,NIGHT_CLEAR,NIGHT_MOSTLY_CLOUDY,NIGHT_OVERCAST,NIGHT_BRIEF_SHOWERS,NIGHT_MOSTLY_CLOUDY,CLEAR,CLEAR,MOSTLY_CLOUDY,MOSTLY_CLOUDY","Onshore,Cross-shore,Cross-shore,Onshore,Cross-shore,Cross-shore,Cross-shore,Cross-shore,Onshore,Cross-shore",10
5842041f4e65fad6a7708886,2024_02_02,33.38042605929805,-117.58332,Middles,1.483,1.1891133333333335,1.6115866666666667,16,16,"CLEAR,NIGHT_MOSTLY_CLOUDY,NIGHT_BRIEF_SHOWERS,NIGHT_OVERCAST,NIGHT_MOSTLY_CLOUDY,NIGHT_MOSTLY_CLOUDY,CLEAR,CLEAR,MOSTLY_CLOUDY,CLEAR","Onshore,Onshore,Cross-shore,Onshore,Onshore,Cross-shore,Cross-shore,Cross-shore,Onshore,Cross-shore",10
5842041f4e65fad6a7708887,2024_02_02,33.38445596302903,-117.59445,Upper Trestles,1.783,1.3779466666666667,1.8925800000000002,16,16,"CLEAR,NIGHT_MOSTLY_CLOUDY,NIGHT_BRIEF_SHOWERS,NIGHT_OVERCAST,NIGHT_MOSTLY_CLOUDY,NIGHT_MOSTLY_CLOUDY,CLEAR,CLEAR,MOSTLY_CLOUDY,CLEAR","Onshore,Cross-shore,Cross-shore,Cross-shore,Cross-shore,Cross-shore,Cross-shore,Cross-shore,Onshore,Cross-shore",10
5842041f4e65fad6a7708889,2024_02_02,28.944414,-95.28883,Surfside,1.1,0.296742,0.463658,13.4,13.4,"MIST,NIGHT_CLEAR,NIGHT_CLEAR,NIGHT_MIST,NIGHT_CLEAR,MIST,CLEAR,MIST,MIST,MIST","Onshore,Onshore,Onshore,Onshore,Onshore,Onshore,Onshore,Onshore,Onshore,Onshore",10
5842041f4e65fad6a770888a,2024_02_02,33.38143999849023,-117.58843,Lower Trestles,1.35,1.3295866666666667,1.6795466666666667,16,16,"CLEAR,NIGHT_MOSTLY_CLOUDY,NIGHT_BRIEF_SHOWERS,NIGHT_OVERCAST,NIGHT_MOSTLY_CLOUDY,NIGHT_MOSTLY_CLOUDY,CLEAR,CLEAR,MOSTLY_CLOUDY,CLEAR","Onshore,Cross-shore,Cross-shore,Cross-shore,Cross-shore,Cross-shore,Cross-shore,Cross-shore,Onshore,Cross-shore",10
5842041f4e65fad6a770888b,2024_02_02,33.379622288757,-117.57894,Church,1.583,1.2749466666666667,1.7139199999999999,16,16,"CLEAR,NIGHT_MOSTLY_CLOUDY,NIGHT_BRIEF_SHOWERS,NIGHT_OVERCAST,NIGHT_MOSTLY_CLOUDY,NIGHT_MOSTLY_CLOUDY,CLEAR,CLEAR,MOSTLY_CLOUDY,CLEAR","Onshore,Onshore,Cross-shore,Onshore,Onshore,Cross-shore,Cross-shore,Cross-shore,Onshore,Cross-shore",10
5842041f4e65fad6a770888d,2024_02_02,21.679,-158.042,Sunset Beach,2.95,2.8423633333333336,3.597323333333333,26,25,"CLEAR,NIGHT_CLEAR,NIGHT_MOSTLY_CLEAR,NIGHT_MOSTLY_CLEAR,NIGHT_MOSTLY_CLOUDY,NIGHT_MOSTLY_CLOUDY,NIGHT_SHOWERS,NIGHT_MOSTLY_CLOUDY,NIGHT_MOSTLY_CLOUDY,MOSTLY_CLOUDY","Onshore,Offshore,Offshore,Offshore,Offshore,Onshore,Cross-shore,Cross-shore,Onshore,Cross-shore",10
5842041f4e65fad6a770888e,2024_02_02,21.670550036401,-158.0482,Rocky Point,2.95,2.5871133333333334,3.133093333333333,26,25,"MOSTLY_CLEAR,NIGHT_MOSTLY_CLOUDY,NIGHT_MOSTLY_CLEAR,NIGHT_MOSTLY_CLEAR,NIGHT_MOSTLY_CLOUDY,NIGHT_MOSTLY_CLOUDY,NIGHT_SHOWERS,NIGHT_BRIEF_SHOWERS,NIGHT_MOSTLY_CLOUDY,MOSTLY_CLOUDY","Onshore,Offshore,Offshore,Offshore,Offshore,Onshore,Cross-shore,Onshore,Onshore,Onshore",10
5842041f4e65fad6a770888f,2024_02_02,21.668,-158.05,Chambers,2.8,2.643,3.158,24,24,"MOSTLY_CLEAR,NIGHT_MOSTLY_CLOUDY,NIGHT_MOSTLY_CLEAR,NIGHT_MOSTLY_CLEAR,NIGHT_MOSTLY_CLOUDY,NIGHT_MOSTLY_CLOUDY,NIGHT_SHOWERS,NIGHT_BRIEF_SHOWERS,NIGHT_MOSTLY_CLOUDY,MOSTLY_CLOUDY","Onshore,Offshore,Offshore,Offshore,Offshore,Cross-shore,Cross-shore,Onshore,Onshore,Cross-shore",10
5842041f4e65fad6a7708890,2024_02_02,21.66522,-158.0526,Pipeline,3.367,2.58078,3.12326,26,25,"MOSTLY_CLEAR,NIGHT_MOSTLY_CLOUDY,NIGHT_MOSTLY_CLEAR,NIGHT_MOSTLY_CLEAR,NIGHT_MOSTLY_CLOUDY,NIGHT_MOSTLY_CLOUDY,NIGHT_SHOWERS,NIGHT_BRIEF_SHOWERS,NIGHT_MOSTLY_CLOUDY,MOSTLY_CLOUDY","Onshore,Offshore,Offshore,Offshore,Offshore,Cross-shore,Cross-shore,Onshore,Onshore,Onshore",10
5842041f4e65fad6a7708891,2024_02_02,21.665,-158.054,Backdoor,3.2,2.67,3.187,24,24,"MOSTLY_CLEAR,NIGHT_MOSTLY_CLOUDY,NIGHT_MOSTLY_CLEAR,NIGHT_MOSTLY_CLEAR,NIGHT_MOSTLY_CLOUDY,NIGHT_MOSTLY_CLOUDY,NIGHT_SHOWERS,NIGHT_BRIEF_SHOWERS,NIGHT_MOSTLY_CLOUDY,MOSTLY_CLOUDY","Onshore,Offshore,Offshore,Offshore,Offshore,Cross-shore,Cross-shore,Onshore,Onshore,Onshore",10
5842041f4e65fad6a7708892,2024_02_02,21.662,-158.057,Rockpile,2.6,3.28,3.9210000000000003,24,24,"MOSTLY_CLEAR,NIGHT_MOSTLY_CLOUDY,NIGHT_MOSTLY_CLEAR,NIGHT_MOSTLY_CLEAR,NIGHT_MOSTLY_CLOUDY,NIGHT_MOSTLY_CLOUDY,NIGHT_SHOWERS,NIGHT_BRIEF_SHOWERS,NIGHT_MOSTLY_CLOUDY,MOSTLY_CLOUDY","Onshore,Offshore,Offshore,Offshore,Offshore,Onshore,Cross-shore,Onshore,Onshore,Onshore",10
5842041f4e65fad6a7708893,2024_02_02,21.65870453806827,-158.06058,Log Cabins,2.4,2.611,3.1189999999999998,24,24,"MOSTLY_CLEAR,NIGHT_MOSTLY_CLOUDY,NIGHT_MOSTLY_CLEAR,NIGHT_MOSTLY_CLEAR,NIGHT_MOSTLY_CLOUDY,NIGHT_MOSTLY_CLOUDY,NIGHT_SHOWERS,NIGHT_BRIEF_SHOWERS,NIGHT_MOSTLY_CLOUDY,MOSTLY_CLOUDY","Onshore,Offshore,Offshore,Offshore,Offshore,Cross-shore,Cross-shore,Onshore,Onshore,Onshore",10
5842041f4e65fad6a7708894,2024_02_02,21.66203493640557,-158.05495,Off-The-Wall,3.3,2.784,3.33,24,24,"MOSTLY_CLEAR,NIGHT_MOSTLY_CLOUDY,NIGHT_MOSTLY_CLEAR,NIGHT_MOSTLY_CLEAR,NIGHT_MOSTLY_CLOUDY,NIGHT_MOSTLY_CLOUDY,NIGHT_SHOWERS,NIGHT_BRIEF_SHOWERS,NIGHT_MOSTLY_CLOUDY,MOSTLY_CLOUDY","Onshore,Offshore,Offshore,Offshore,Offshore,Cross-shore,Cross-shore,Onshore,Onshore,Onshore",10
5842041f4e65fad6a7708895,2024_02_02,21.643,-158.067,Waimea Bay,NA,2.639613333333333,3.357073333333333,26,25,"MOSTLY_CLEAR,NIGHT_MOSTLY_CLOUDY,NIGHT_MOSTLY_CLEAR,NIGHT_MOSTLY_CLEAR,NIGHT_MOSTLY_CLOUDY,NIGHT_MOSTLY_CLOUDY,NIGHT_SHOWERS,NIGHT_BRIEF_SHOWERS,NIGHT_MOSTLY_CLOUDY,MOSTLY_CLOUDY","Onshore,Offshore,Offshore,Offshore,Offshore,Cross-shore,Cross-shore,Cross-shore,Cross-shore,Cross-shore",10
5842041f4e65fad6a7708896,2024_02_02,21.622,-158.087,Hultin's,2.117,2.04953,2.4916766666666668,26,25,"CLEAR,NIGHT_MOSTLY_CLOUDY,NIGHT_MOSTLY_CLEAR,NIGHT_MOSTLY_CLEAR,NIGHT_MOSTLY_CLOUDY,NIGHT_MOSTLY_CLOUDY,NIGHT_SHOWERS,NIGHT_BRIEF_SHOWERS,NIGHT_MOSTLY_CLOUDY,MOSTLY_CLOUDY","Cross-shore,Offshore,Cross-shore,Cross-shore,Cross-shore,Cross-shore,Cross-shore,Cross-shore,Cross-shore,Cross-shore",10
5842041f4e65fad6a7708897,2024_02_02,21.623,-158.085,Jocko's,2.3,2.499,2.985,24,24,"CLEAR,NIGHT_MOSTLY_CLOUDY,NIGHT_MOSTLY_CLEAR,NIGHT_MOSTLY_CLEAR,NIGHT_MOSTLY_CLOUDY,NIGHT_MOSTLY_CLOUDY,NIGHT_SHOWERS,NIGHT_BRIEF_SHOWERS,NIGHT_MOSTLY_CLOUDY,MOSTLY_CLOUDY","Onshore,Offshore,Onshore,Onshore,Onshore,Onshore,Onshore,Onshore,Onshore,Onshore",10
5842041f4e65fad6a7708898,2024_02_02,21.62,-158.088,Laniakea,2.35,2.5531966666666666,3.2107666666666668,26,25,"CLEAR,NIGHT_MOSTLY_CLOUDY,NIGHT_MOSTLY_CLEAR,NIGHT_MOSTLY_CLEAR,NIGHT_MOSTLY_CLOUDY,NIGHT_MOSTLY_CLOUDY,NIGHT_SHOWERS,NIGHT_BRIEF_SHOWERS,NIGHT_MOSTLY_CLOUDY,MOSTLY_CLOUDY","Onshore,Offshore,Onshore,Onshore,Onshore,Onshore,Onshore,Onshore,Cross-shore,Cross-shore",10
5842041f4e65fad6a7708899,2024_02_02,21.625,-158.083,Chun's,1.8,2.479,2.962,24,24,"CLEAR,NIGHT_MOSTLY_CLOUDY,NIGHT_MOSTLY_CLEAR,NIGHT_MOSTLY_CLEAR,NIGHT_MOSTLY_CLOUDY,NIGHT_MOSTLY_CLOUDY,NIGHT_SHOWERS,NIGHT_BRIEF_SHOWERS,NIGHT_MOSTLY_CLOUDY,MOSTLY_CLOUDY","Cross-shore,Offshore,Onshore,Onshore,Onshore,Onshore,Onshore,Cross-shore,Cross-shore,Cross-shore",10
5842041f4e65fad6a770889c,2024_02_02,21.286357895152136,-157.8515,South Shore - Ala Moana Park,2.2,0.326,0.629,25,25,"MOSTLY_CLEAR,NIGHT_MOSTLY_CLOUDY,NIGHT_MOSTLY_CLOUDY,NIGHT_MOSTLY_CLOUDY,NIGHT_MOSTLY_CLOUDY,NIGHT_MOSTLY_CLEAR,NIGHT_MOSTLY_CLOUDY,NIGHT_MOSTLY_CLEAR,NIGHT_MOSTLY_CLEAR,MOSTLY_CLEAR","Offshore,Offshore,Offshore,Offshore,Offshore,Offshore,Offshore,Offshore,Offshore,Offshore",10
5842041f4e65fad6a770889d,2024_02_02,19.606,-155.978,Banyans,3.6,1.2868933333333334,1.5686466666666667,26,25,"CLEAR,NIGHT_CLEAR,NIGHT_CLEAR,NIGHT_CLEAR,NIGHT_MOSTLY_CLEAR,NIGHT_CLEAR,NIGHT_CLEAR,NIGHT_FOG,FOG,MOSTLY_CLEAR","Onshore,Offshore,Onshore,Cross-shore,Cross-shore,Cross-shore,Onshore,Onshore,Cross-shore,Offshore",10
5842041f4e65fad6a770889e,2024_02_02,20.029,-155.831,Kawaihae,3.1,0.971302,1.364876,25,25,"CLEAR,NIGHT_MOSTLY_CLEAR,NIGHT_FOG,NIGHT_MOSTLY_CLEAR,NIGHT_MOSTLY_CLEAR,NIGHT_MOSTLY_CLEAR,NIGHT_MOSTLY_CLOUDY,NIGHT_MOSTLY_CLEAR,MOSTLY_CLOUDY,MOSTLY_CLOUDY","Onshore,Offshore,Offshore,Offshore,Cross-shore,Offshore,Offshore,Offshore,Offshore,Cross-shore",10
5842041f4e65fad6a770889f,2024_02_02,33.07541383424675,-117.3105,Grandview,1.4,1.8519999999999999,2.214,16,16,"MOSTLY_CLOUDY,NIGHT_CLEAR,NIGHT_MOSTLY_CLOUDY,NIGHT_CLEAR,NIGHT_MOSTLY_CLOUDY,NIGHT_MOSTLY_CLOUDY,MOSTLY_CLOUDY,MOSTLY_CLOUDY,MOSTLY_CLOUDY,OVERCAST","Cross-shore,Onshore,Onshore,Onshore,Onshore,Onshore,Offshore,Offshore,Onshore,Onshore",10
5842041f4e65fad6a77088a0,2024_02_02,33.065267421296596,-117.30577,Beacons,1.6,1.841,2.2,16,16,"MOSTLY_CLOUDY,NIGHT_CLEAR,NIGHT_MOSTLY_CLOUDY,NIGHT_CLEAR,NIGHT_MOSTLY_CLOUDY,NIGHT_MOSTLY_CLOUDY,MOSTLY_CLOUDY,MOSTLY_CLOUDY,MOSTLY_CLOUDY,OVERCAST","Cross-shore,Onshore,Onshore,Onshore,Onshore,Onshore,Offshore,Offshore,Onshore,Offshore",10
5842041f4e65fad6a77088a2,2024_02_02,21.252,-157.805,Diamond Head,2.217,0.5139186666666666,0.8296921666666667,26,25,"CLEAR,NIGHT_MOSTLY_CLOUDY,NIGHT_MOSTLY_CLOUDY,NIGHT_MOSTLY_CLOUDY,NIGHT_MOSTLY_CLOUDY,NIGHT_MOSTLY_CLEAR,NIGHT_MOSTLY_CLOUDY,NIGHT_MOSTLY_CLEAR,NIGHT_MOSTLY_CLEAR,CLEAR","Offshore,Offshore,Offshore,Offshore,Offshore,Offshore,Offshore,Offshore,Offshore,Offshore",10
5842041f4e65fad6a77088a3,2024_02_02,33.04694255008896,-117.29966,Moonlight State Beach,1.3,1.877,2.241,16,16,"MOSTLY_CLOUDY,NIGHT_CLEAR,NIGHT_CLEAR,NIGHT_MOSTLY_CLOUDY,NIGHT_MOSTLY_CLOUDY,NIGHT_MOSTLY_CLOUDY,CLEAR,MOSTLY_CLOUDY,BRIEF_SHOWERS,OVERCAST","Onshore,Onshore,Onshore,Onshore,Onshore,Onshore,Onshore,Onshore,Onshore,Onshore",10
5842041f4e65fad6a77088a5,2024_02_02,33.08685865930869,-117.31532,Ponto,1.7,2.181,2.606,16,16,"MOSTLY_CLOUDY,NIGHT_CLEAR,NIGHT_MOSTLY_CLOUDY,NIGHT_CLEAR,NIGHT_MOSTLY_CLOUDY,NIGHT_MOSTLY_CLOUDY,MOSTLY_CLOUDY,MOSTLY_CLOUDY,MOSTLY_CLOUDY,OVERCAST","Cross-shore,Onshore,Onshore,Onshore,Onshore,Onshore,Cross-shore,Offshore,Cross-shore,Offshore",10
5842041f4e65fad6a77088a6,2024_02_02,33.130343587871906,-117.33667796442558,Terra Mar Point,1.233,1.5412266666666667,1.9773733333333334,16,16,"MOSTLY_CLOUDY,NIGHT_MOSTLY_CLOUDY,NIGHT_BRIEF_SHOWERS,NIGHT_MOSTLY_CLOUDY,NIGHT_MOSTLY_CLOUDY,NIGHT_CLEAR,SHOWERS,MOSTLY_CLOUDY,MOSTLY_CLOUDY,OVERCAST","Onshore,Onshore,Onshore,Onshore,Onshore,Onshore,Onshore,Onshore,Onshore,Onshore",10
5842041f4e65fad6a77088af,2024_02_02,32.95916304183685,-117.26963,Del Mar,1.2,1.804,2.157,16,16,"MOSTLY_CLOUDY,NIGHT_MOSTLY_CLOUDY,NIGHT_CLEAR,NIGHT_CLEAR,NIGHT_SHOWERS,NIGHT_MOSTLY_CLOUDY,MOSTLY_CLOUDY,CLEAR,MOSTLY_CLOUDY,MOSTLY_CLOUDY","Onshore,Onshore,Onshore,Onshore,Onshore,Onshore,Onshore,Onshore,Onshore,Cross-shore",10
5842041f4e65fad6a77088b0,2024_02_02,32.97527261243354,-117.2721061331305,Del Mar Rivermouth,1.3,2.041,2.442,16,16,"MOSTLY_CLOUDY,NIGHT_MOSTLY_CLOUDY,NIGHT_MOSTLY_CLOUDY,NIGHT_CLEAR,NIGHT_SHOWERS,NIGHT_MOSTLY_CLOUDY,MOSTLY_CLOUDY,MOSTLY_CLEAR,MOSTLY_CLOUDY,OVERCAST","Onshore,Onshore,Onshore,Onshore,Onshore,Onshore,Onshore,Onshore,Onshore,Cross-shore",10
5842041f4e65fad6a77088b1,2024_02_02,33.01352178146273,-117.28219,Cardiff Reef,0.783,2.04806,2.58726,16,16,"MOSTLY_CLOUDY,NIGHT_MOSTLY_CLOUDY,NIGHT_CLEAR,NIGHT_CLEAR,NIGHT_MOSTLY_CLEAR,NIGHT_CLEAR,CLEAR,MOSTLY_CLOUDY,SHOWERS,OVERCAST","Onshore,Onshore,Onshore,Onshore,Onshore,Onshore,Onshore,Onshore,Onshore,Onshore",10
5842041f4e65fad6a77088b3,2024_02_02,33.00211185876003,-117.2811,Seaside Reef,0.683,2.07656,2.62351,16,16,"MOSTLY_CLOUDY,NIGHT_MOSTLY_CLOUDY,NIGHT_CLEAR,NIGHT_CLEAR,NIGHT_MOSTLY_CLEAR,NIGHT_MOSTLY_CLOUDY,MOSTLY_CLOUDY,MOSTLY_CLOUDY,MOSTLY_CLOUDY,OVERCAST","Onshore,Onshore,Onshore,Onshore,Onshore,Onshore,Onshore,Onshore,Onshore,Onshore",10
5842041f4e65fad6a77088b4,2024_02_02,33.0341859796287,-117.29552,Swami's,0.717,1.99031,2.4819333333333335,16,16,"MOSTLY_CLOUDY,NIGHT_MOSTLY_CLOUDY,NIGHT_CLEAR,NIGHT_CLEAR,NIGHT_MOSTLY_CLEAR,NIGHT_CLEAR,CLEAR,MOSTLY_CLOUDY,SHOWERS,OVERCAST","Onshore,Onshore,Onshore,Onshore,Onshore,Onshore,Onshore,Onshore,Onshore,Onshore",10
5842041f4e65fad6a77088b7,2024_02_02,33.04569760260221,-117.2994,D Street,1.3,1.996,2.3850000000000002,16,16,"MOSTLY_CLOUDY,NIGHT_CLEAR,NIGHT_CLEAR,NIGHT_MOSTLY_CLOUDY,NIGHT_MOSTLY_CLOUDY,NIGHT_MOSTLY_CLOUDY,CLEAR,MOSTLY_CLOUDY,BRIEF_SHOWERS,OVERCAST","Onshore,Onshore,Onshore,Onshore,Onshore,Onshore,Onshore,Onshore,Onshore,Onshore",10
5842041f4e65fad6a77088b8,2024_02_02,33.02090944350196,-117.28535,San Elijo State Beach,1.183,1.8639766666666666,2.3716766666666667,16,16,"MOSTLY_CLOUDY,NIGHT_MOSTLY_CLOUDY,NIGHT_CLEAR,NIGHT_CLEAR,NIGHT_MOSTLY_CLEAR,NIGHT_CLEAR,CLEAR,MOSTLY_CLOUDY,SHOWERS,OVERCAST","Onshore,Onshore,Onshore,Onshore,Onshore,Onshore,Onshore,Onshore,Onshore,Onshore",10
5842041f4e65fad6a77088c2,2024_02_02,32.80662846492798,-117.2688764333725,PB Point,2.3,1.829,2.184,16,16,"MIST,NIGHT_MOSTLY_CLOUDY,NIGHT_MOSTLY_CLOUDY,NIGHT_MOSTLY_CLOUDY,NIGHT_CLEAR,NIGHT_MOSTLY_CLEAR,MOSTLY_CLOUDY,SHOWERS,MOSTLY_CLOUDY,MOSTLY_CLOUDY","Cross-shore,Cross-shore,Cross-shore,Cross-shore,Cross-shore,Cross-shore,Cross-shore,Cross-shore,Cross-shore,Cross-shore",10
5842041f4e65fad6a77088c4,2024_02_02,32.8060476681448,-117.26479,Old Man's at Tourmaline,2.2,1.525,1.822,16,16,"MIST,NIGHT_MOSTLY_CLOUDY,NIGHT_MOSTLY_CLOUDY,NIGHT_MOSTLY_CLOUDY,NIGHT_CLEAR,NIGHT_MOSTLY_CLEAR,MOSTLY_CLOUDY,SHOWERS,MOSTLY_CLOUDY,MOSTLY_CLOUDY","Cross-shore,Cross-shore,Cross-shore,Cross-shore,Cross-shore,Cross-shore,Cross-shore,Cross-shore,Cross-shore,Cross-shore",10
5842041f4e65fad6a77088cb,2024_02_02,32.557056711256,-117.1327445020322,Tijuana Slough,1.9,1.439,1.73,16,16,"MOSTLY_CLEAR,NIGHT_MOSTLY_CLOUDY,NIGHT_CLEAR,NIGHT_MOSTLY_CLOUDY,NIGHT_CLEAR,NIGHT_HEAVY_SHOWERS,CLEAR,MOSTLY_CLEAR,MOSTLY_CLOUDY,MOSTLY_CLEAR","Onshore,Onshore,Onshore,Onshore,Onshore,Onshore,Onshore,Onshore,Onshore,Onshore",10
5842041f4e65fad6a77088cc,2024_02_02,32.863,-117.257,La Jolla Shores,1.1,1.616,1.929,16,16,"MIST,NIGHT_MOSTLY_CLOUDY,NIGHT_MOSTLY_CLOUDY,NIGHT_CLEAR,NIGHT_MOSTLY_CLEAR,NIGHT_CLEAR,BRIEF_SHOWERS,CLEAR,BRIEF_SHOWERS,MOSTLY_CLOUDY","Onshore,Onshore,Onshore,Onshore,Onshore,Onshore,Onshore,Onshore,Onshore,Onshore",10
5842041f4e65fad6a77088ce,2024_02_02,32.67443657790586,-117.17421316238693,Coronado Beach,2.4,1.784,2.133,16,16,"CLEAR,NIGHT_MOSTLY_CLOUDY,NIGHT_MOSTLY_CLOUDY,NIGHT_MOSTLY_CLOUDY,NIGHT_BRIEF_SHOWERS,NIGHT_CLEAR,CLEAR,MOSTLY_CLEAR,MOSTLY_CLOUDY,MOSTLY_CLEAR","Cross-shore,Cross-shore,Cross-shore,Cross-shore,Cross-shore,Cross-shore,Cross-shore,Cross-shore,Cross-shore,Cross-shore",10
5842041f4e65fad6a77088cf,2024_02_02,33.40484417640326,-117.60749,San Clemente State Beach,1.9,1.38,1.653,16,16,"CLEAR,NIGHT_MOSTLY_CLOUDY,NIGHT_MOSTLY_CLOUDY,NIGHT_OVERCAST,NIGHT_BRIEF_SHOWERS,NIGHT_CLEAR,MOSTLY_CLEAR,MOSTLY_CLEAR,MOSTLY_CLOUDY,CLEAR","Onshore,Onshore,Onshore,Onshore,Onshore,Onshore,Cross-shore,Cross-shore,Onshore,Onshore",10
5842041f4e65fad6a77088d5,2024_02_02,33.4663042002114,-117.7168352817103,Strands,1.483,1.7192666666666667,2.2039066666666667,15,15,"CLEAR,NIGHT_CLEAR,NIGHT_MOSTLY_CLOUDY,NIGHT_LIGHT_RAIN,NIGHT_BRIEF_SHOWERS,NIGHT_CLEAR,CLEAR,CLEAR,CLEAR,MOSTLY_CLOUDY","Onshore,Onshore,Onshore,Onshore,Onshore,Onshore,Cross-shore,Onshore,Onshore,Onshore",10
5842041f4e65fad6a77088d7,2024_02_02,33.4609858001748,-117.68535,Doheny State Beach,1.883,0.5671133333333334,0.89542,16,16,"CLEAR,NIGHT_MOSTLY_CLOUDY,NIGHT_BRIEF_SHOWERS,NIGHT_OVERCAST,NIGHT_OVERCAST,NIGHT_CLEAR,MOSTLY_CLEAR,CLEAR,CLEAR,MOSTLY_CLOUDY","Cross-shore,Cross-shore,Offshore,Offshore,Offshore,Cross-shore,Cross-shore,Cross-shore,Offshore,Onshore",10
5842041f4e65fad6a77088dc,2024_02_02,33.50894790083017,-117.75243,Aliso Creek,1.6,1.087,1.328,16,16,"MOSTLY_CLEAR,NIGHT_CLEAR,NIGHT_CLEAR,NIGHT_OVERCAST,NIGHT_OVERCAST,NIGHT_MOSTLY_CLOUDY,BRIEF_SHOWERS,CLEAR,MOSTLY_CLOUDY,MOSTLY_CLOUDY","Onshore,Onshore,Onshore,Onshore,Onshore,Onshore,Cross-shore,Onshore,Onshore,Onshore",10
5842041f4e65fad6a77088dd,2024_02_02,33.5326591767067,-117.77764,Brooks Street,1.6,0.844,1.099,16,16,"MOSTLY_CLEAR,NIGHT_BRIEF_SHOWERS,NIGHT_MOSTLY_CLOUDY,NIGHT_CLOUDY,NIGHT_MOSTLY_CLOUDY,NIGHT_CLEAR,CLEAR,MOSTLY_CLOUDY,MOSTLY_CLOUDY,CLOUDY","Onshore,Onshore,Cross-shore,Onshore,Onshore,Cross-shore,Cross-shore,Onshore,Cross-shore,Cross-shore",10
5842041f4e65fad6a77088de,2024_02_02,33.53561225884637,-117.7799,Thalia Street,1.1,0.907,1.137,16,16,"MOSTLY_CLEAR,NIGHT_BRIEF_SHOWERS,NIGHT_MOSTLY_CLOUDY,NIGHT_CLOUDY,NIGHT_MOSTLY_CLOUDY,NIGHT_CLEAR,CLEAR,MOSTLY_CLOUDY,MOSTLY_CLOUDY,CLOUDY","Onshore,Onshore,Cross-shore,Cross-shore,Onshore,Cross-shore,Cross-shore,Onshore,Cross-shore,Cross-shore",10
5842041f4e65fad6a77088e3,2024_02_02,33.54268310353641,-117.7916,Rockpile,1.2,0.872,1.089,16,16,"MOSTLY_CLEAR,NIGHT_BRIEF_SHOWERS,NIGHT_MOSTLY_CLOUDY,NIGHT_CLOUDY,NIGHT_MOSTLY_CLOUDY,NIGHT_CLEAR,CLEAR,MOSTLY_CLOUDY,MOSTLY_CLOUDY,CLOUDY","Onshore,Cross-shore,Cross-shore,Cross-shore,Onshore,Cross-shore,Cross-shore,Onshore,Cross-shore,Cross-shore",10
5842041f4e65fad6a77088e4,2024_02_02,33.7368459504689,-118.10342,"Seal Beach Pier, Southside",2.4,0.622,0.915,16,16,"CLEAR,NIGHT_BRIEF_SHOWERS,NIGHT_CLOUDY,NIGHT_CLOUDY,NIGHT_MOSTLY_CLOUDY,NIGHT_MOSTLY_CLOUDY,CLEAR,CLEAR,CLEAR,CLEAR","Offshore,Offshore,Onshore,Offshore,Cross-shore,Onshore,Onshore,Offshore,Cross-shore,Cross-shore",10
5842041f4e65fad6a77088e5,2024_02_02,33.73933701820233,-118.117,Ray Bay,2.4,0.631,0.937,16,16,"CLEAR,NIGHT_MOSTLY_CLOUDY,NIGHT_FOG,NIGHT_OVERCAST,NIGHT_MOSTLY_CLOUDY,NIGHT_MOSTLY_CLOUDY,MIST,CLEAR,CLEAR,MOSTLY_CLOUDY","Offshore,Cross-shore,Onshore,Offshore,Cross-shore,Onshore,Onshore,Offshore,Cross-shore,Onshore",10
5842041f4e65fad6a77088e7,2024_02_02,33.728733,-118.08982,Surfside,3,1.37,1.6440000000000001,16,16,"CLEAR,NIGHT_MOSTLY_CLOUDY,NIGHT_FOG,NIGHT_OVERCAST,NIGHT_MOSTLY_CLOUDY,NIGHT_MOSTLY_CLOUDY,MIST,MOSTLY_CLOUDY,MOSTLY_CLOUDY,MOSTLY_CLOUDY","Offshore,Cross-shore,Cross-shore,Offshore,Cross-shore,Onshore,Onshore,Offshore,Cross-shore,Cross-shore",10
5842041f4e65fad6a77088e8,2024_02_02,33.68760321488161,-118.04236,Bolsa Chica State Beach,1.683,1.6725866666666667,2.2269,14,14,"MOSTLY_CLEAR,NIGHT_MOSTLY_CLOUDY,NIGHT_OVERCAST,NIGHT_OVERCAST,NIGHT_MOSTLY_CLOUDY,NIGHT_MOSTLY_CLOUDY,CLEAR,CLEAR,MOSTLY_CLOUDY,BRIEF_SHOWERS","Onshore,Onshore,Onshore,Onshore,Onshore,Onshore,Onshore,Onshore,Onshore,Onshore",10
5842041f4e65fad6a77088ea,2024_02_02,33.66704400178788,-118.0192,North HB Streets,1.583,1.7729333333333333,2.4200600000000003,14,14,"CLEAR,NIGHT_MOSTLY_CLOUDY,NIGHT_OVERCAST,NIGHT_CLOUDY,NIGHT_MOSTLY_CLOUDY,NIGHT_MOSTLY_CLOUDY,CLEAR,CLEAR,MOSTLY_CLOUDY,MOSTLY_CLOUDY","Onshore,Onshore,Onshore,Onshore,Onshore,Cross-shore,Cross-shore,Onshore,Cross-shore,Cross-shore",10
5842041f4e65fad6a77088ed,2024_02_02,33.65475101379567,-118.00291,Huntington Beach Pier Southside,1.95,1.8177533333333333,2.29456,14,14,"MOSTLY_CLEAR,NIGHT_MOSTLY_CLOUDY,NIGHT_OVERCAST,NIGHT_DRIZZLE,NIGHT_MOSTLY_CLOUDY,NIGHT_MOSTLY_CLOUDY,CLEAR,MOSTLY_CLOUDY,MOSTLY_CLOUDY,MOSTLY_CLOUDY","Cross-shore,Cross-shore,Onshore,Onshore,Cross-shore,Onshore,Onshore,Onshore,Onshore,Onshore",10
5842041f4e65fad6a77088ee,2024_02_02,33.62778647706099,-117.95939,River Jetties,1.866,1.5419200000000002,2.018893333333333,16,16,"CLEAR,NIGHT_MOSTLY_CLOUDY,NIGHT_OVERCAST,NIGHT_OVERCAST,NIGHT_BRIEF_SHOWERS,NIGHT_CLEAR,MOSTLY_CLEAR,BRIEF_SHOWERS,MOSTLY_CLOUDY,CLOUDY","Cross-shore,Offshore,Offshore,Onshore,Cross-shore,Offshore,Onshore,Onshore,Onshore,Onshore",10
5842041f4e65fad6a77088f2,2024_02_02,33.605165797643664,-117.92500376701355,Newport Point,1.4,0.84,1.127,16,16,"CLEAR,NIGHT_MOSTLY_CLOUDY,NIGHT_OVERCAST,NIGHT_CLOUDY,NIGHT_MOSTLY_CLOUDY,NIGHT_CLEAR,MOSTLY_CLEAR,MOSTLY_CLOUDY,MOSTLY_CLOUDY,CLEAR","Onshore,Cross-shore,Cross-shore,Cross-shore,Cross-shore,Cross-shore,Cross-shore,Cross-shore,Cross-shore,Cross-shore",10
5842041f4e65fad6a77088f3,2024_02_02,33.58982984726977,-117.87713,Corona del Mar,1.4,0.241363,0.377132,16,16,"MOSTLY_CLEAR,NIGHT_CLEAR,NIGHT_DRIZZLE,NIGHT_LIGHT_RAIN,NIGHT_CLEAR,NIGHT_LIGHT_SHOWERS_POSSIBLE,BRIEF_SHOWERS,FOG,BRIEF_SHOWERS,CLOUDY","Cross-shore,Cross-shore,Offshore,Cross-shore,Cross-shore,Cross-shore,Cross-shore,Onshore,Onshore,Onshore",10
5842041f4e65fad6a77088f7,2024_02_02,34.00750300824362,-118.4971783496269,Santa Monica Pier,2.5,0.982,1.2469999999999999,16,16,"CLEAR,NIGHT_MOSTLY_CLOUDY,NIGHT_MOSTLY_CLOUDY,NIGHT_MOSTLY_CLOUDY,NIGHT_MOSTLY_CLOUDY,NIGHT_CLEAR,MOSTLY_CLEAR,CLEAR,CLEAR,CLEAR","Onshore,Onshore,Onshore,Onshore,Onshore,Onshore,Onshore,Onshore,Cross-shore,Onshore",10
5842041f4e65fad6a77088ff,2024_02_02,33.94070283102945,-118.44321,Dockweiler Beach,1.867,1.6167953333333334,2.00498175,15,15,"CLEAR,NIGHT_MOSTLY_CLOUDY,NIGHT_OVERCAST,NIGHT_MOSTLY_CLOUDY,NIGHT_MOSTLY_CLOUDY,NIGHT_MOSTLY_CLOUDY,CLEAR,MOSTLY_CLOUDY,MOSTLY_CLOUDY,MOSTLY_CLEAR","Onshore,Onshore,Onshore,Onshore,Onshore,Onshore,Onshore,Onshore,Onshore,Onshore",10
5842041f4e65fad6a7708900,2024_02_02,33.9231846937237,-118.4341465777908,Shitpipe,1.3,1.72779,2.20878,15,15,"CLEAR,NIGHT_MOSTLY_CLOUDY,NIGHT_OVERCAST,NIGHT_OVERCAST,NIGHT_OVERCAST,NIGHT_MOSTLY_CLOUDY,MOSTLY_CLEAR,MOSTLY_CLOUDY,CLEAR,MOSTLY_CLEAR","Onshore,Onshore,Onshore,Onshore,Onshore,Onshore,Onshore,Onshore,Onshore,Onshore",10
5842041f4e65fad6a7708902,2024_02_02,33.9108528052242,-118.4279133138721,Hammerland,1.3,1.8348733333333334,2.4956733333333334,15,15,"CLEAR,NIGHT_MOSTLY_CLOUDY,NIGHT_OVERCAST,NIGHT_OVERCAST,NIGHT_OVERCAST,NIGHT_MOSTLY_CLOUDY,MOSTLY_CLEAR,MOSTLY_CLOUDY,CLEAR,MOSTLY_CLEAR","Onshore,Onshore,Onshore,Onshore,Onshore,Onshore,Onshore,Onshore,Onshore,Onshore",10
5842041f4e65fad6a7708904,2024_02_02,33.87201368173932,-118.4075151286262,Hermosa Beach,1.1,1.50092,1.9756,15,15,"CLEAR,NIGHT_MOSTLY_CLOUDY,NIGHT_OVERCAST,NIGHT_OVERCAST,NIGHT_CLOUDY,NIGHT_CLOUDY,MOSTLY_CLEAR,MOSTLY_CLOUDY,CLEAR,CLEAR","Onshore,Onshore,Onshore,Onshore,Onshore,Onshore,Onshore,Onshore,Onshore,Onshore",10
5842041f4e65fad6a7708906,2024_02_02,33.90129336911256,-118.42184,El Porto,1.4,2.17429,2.8887566666666666,15,15,"CLEAR,NIGHT_MOSTLY_CLOUDY,NIGHT_OVERCAST,NIGHT_LIGHT_RAIN,NIGHT_CLOUDY,NIGHT_MOSTLY_CLOUDY,MOSTLY_CLEAR,MOSTLY_CLOUDY,MOSTLY_CLOUDY,CLEAR","Onshore,Onshore,Onshore,Onshore,Onshore,Onshore,Onshore,Onshore,Onshore,Onshore",10
5842041f4e65fad6a7708907,2024_02_02,33.87963506431794,-118.41102,Manhattan Beach Pier,1.1,1.9655399999999998,2.4769466666666666,15,15,"CLEAR,NIGHT_MOSTLY_CLOUDY,NIGHT_OVERCAST,NIGHT_LIGHT_RAIN,NIGHT_CLOUDY,NIGHT_MOSTLY_CLOUDY,MOSTLY_CLEAR,MOSTLY_CLOUDY,MOSTLY_CLOUDY,CLEAR","Onshore,Onshore,Onshore,Onshore,Onshore,Onshore,Onshore,Onshore,Onshore,Onshore",10
5842041f4e65fad6a7708914,2024_02_02,34.038053387863464,-118.5532,Sunset Point,3,0.972,1.153,16,16,"CLEAR,NIGHT_CLEAR,NIGHT_MOSTLY_CLOUDY,NIGHT_MOSTLY_CLOUDY,NIGHT_CLEAR,NIGHT_CLEAR,CLEAR,CLEAR,CLEAR,CLEAR","Onshore,Offshore,Cross-shore,Cross-shore,Cross-shore,Offshore,Offshore,Offshore,Onshore,Cross-shore",10
5842041f4e65fad6a7708920,2024_02_02,33.80930828074364,-118.3933198342649,Haggerty's,1.1,0.7938000000000001,0.9378,16,16,"CLEAR,NIGHT_MOSTLY_CLOUDY,NIGHT_CLOUDY,NIGHT_CLOUDY,NIGHT_CLOUDY,NIGHT_CLOUDY,MOSTLY_CLEAR,MOSTLY_CLOUDY,MOSTLY_CLOUDY,CLEAR","Onshore,Onshore,Onshore,Onshore,Onshore,Onshore,Onshore,Onshore,Onshore,Onshore",10
5842041f4e65fad6a7708921,2024_02_02,33.85044519861206,-118.40048,Redondo Breakwater,1.4,1.855,2.217,16,16,"CLEAR,NIGHT_MOSTLY_CLOUDY,NIGHT_OVERCAST,NIGHT_OVERCAST,NIGHT_CLOUDY,NIGHT_CLOUDY,MOSTLY_CLEAR,MOSTLY_CLOUDY,CLEAR,CLEAR","Onshore,Onshore,Onshore,Onshore,Onshore,Onshore,Onshore,Onshore,Onshore,Onshore",10
5842041f4e65fad6a7708927,2024_02_02,33.70877301002487,-118.2840112858389,Cabrillo Beach,2,0.611,0.919,16,16,"CLEAR,NIGHT_MOSTLY_CLOUDY,NIGHT_OVERCAST,NIGHT_MOSTLY_CLOUDY,NIGHT_MOSTLY_CLOUDY,NIGHT_BRIEF_SHOWERS,CLEAR,MOSTLY_CLOUDY,MOSTLY_CLOUDY,CLEAR","Cross-shore,Offshore,Cross-shore,Offshore,Offshore,Offshore,Offshore,Offshore,Offshore,Offshore",10
5842041f4e65fad6a770892c,2024_02_02,33.77209986806257,-118.4268428476672,Lunada Bay,0.9,2.443,2.91,16,16,"MOSTLY_CLEAR,NIGHT_MOSTLY_CLOUDY,NIGHT_CLOUDY,NIGHT_MOSTLY_CLOUDY,NIGHT_MOSTLY_CLOUDY,NIGHT_CLOUDY,MOSTLY_CLEAR,CLEAR,MOSTLY_CLOUDY,CLEAR","Onshore,Onshore,Onshore,Onshore,Onshore,Onshore,Onshore,Onshore,Onshore,Onshore",10
5842041f4e65fad6a770892d,2024_02_02,33.79294656286144,-118.4070316699825,PV Cove,1.5,1.461193,1.634167,16,16,"CLEAR,NIGHT_MOSTLY_CLOUDY,NIGHT_CLOUDY,NIGHT_CLOUDY,NIGHT_CLOUDY,NIGHT_CLOUDY,MOSTLY_CLEAR,MOSTLY_CLOUDY,MOSTLY_CLOUDY,CLEAR","Onshore,Onshore,Onshore,Onshore,Onshore,Onshore,Onshore,Onshore,Onshore,Onshore",10
5842041f4e65fad6a7708930,2024_02_02,34.03944902292561,-118.57539,Chart House,2.9,0.72,1.0030000000000001,16,16,"MOSTLY_CLOUDY,NIGHT_CLEAR,NIGHT_FOG,NIGHT_FOG,NIGHT_CLEAR,NIGHT_CLEAR,CLEAR,CLEAR,CLEAR,CLEAR","Onshore,Offshore,Offshore,Offshore,Cross-shore,Offshore,Offshore,Offshore,Onshore,Onshore",10
5842041f4e65fad6a7708936,2024_02_02,34.0016731994772,-118.80456,Point Dume,1.35,0.5928766666666667,0.9526,16,16,"MOSTLY_CLOUDY,NIGHT_CLEAR,NIGHT_MOSTLY_CLOUDY,NIGHT_MOSTLY_CLOUDY,NIGHT_MOSTLY_CLOUDY,NIGHT_MOSTLY_CLEAR,CLEAR,CLEAR,CLEAR,CLEAR","Onshore,Offshore,Cross-shore,Cross-shore,Offshore,Offshore,Offshore,Offshore,Offshore,Offshore",10
5842041f4e65fad6a7708937,2024_02_02,34.02587527588963,-118.7554939066114,Latigo Point,2,0.529,0.8350000000000001,16,16,"MOSTLY_CLOUDY,NIGHT_CLEAR,NIGHT_MOSTLY_CLOUDY,NIGHT_MOSTLY_CLOUDY,NIGHT_MOSTLY_CLOUDY,NIGHT_CLEAR,CLEAR,CLEAR,CLEAR,CLEAR","Onshore,Offshore,Cross-shore,Offshore,Offshore,Offshore,Offshore,Offshore,Offshore,Offshore",10
5842041f4e65fad6a770893f,2024_02_02,34.043762,-118.93294,Leo Carrillo,2.284,1.1925633333333334,1.5981366666666668,16,16,"MIST,NIGHT_CLEAR,NIGHT_MOSTLY_CLOUDY,NIGHT_MOSTLY_CLOUDY,NIGHT_CLEAR,NIGHT_CLEAR,CLEAR,CLEAR,CLEAR,CLEAR","Onshore,Offshore,Offshore,Offshore,Offshore,Offshore,Offshore,Offshore,Cross-shore,Cross-shore",10
5842041f4e65fad6a7708941,2024_02_02,36.69388179265737,-121.81289,Marina State Beach,2.3,2.902,3.396,14,14,"MOSTLY_CLOUDY,NIGHT_CLEAR,NIGHT_FOG,NIGHT_FOG,NIGHT_BRIEF_SHOWERS,NIGHT_MOSTLY_CLOUDY,NIGHT_BRIEF_SHOWERS,FOG,MOSTLY_CLOUDY,CLEAR","Onshore,Onshore,Offshore,Onshore,Onshore,Onshore,Onshore,Onshore,Onshore,Onshore",10
5842041f4e65fad6a7708944,2024_02_02,34.34145077331085,-119.416999352654,Stanley's,2.4,0.803,1.087,16,16,"MOSTLY_CLOUDY,NIGHT_CLEAR,NIGHT_CLEAR,NIGHT_CLEAR,NIGHT_CLEAR,NIGHT_CLEAR,CLEAR,CLEAR,CLEAR,CLEAR","Onshore,Onshore,Onshore,Onshore,Onshore,Onshore,Onshore,Onshore,Onshore,Onshore",10
5842041f4e65fad6a7708945,2024_02_02,34.35113017313915,-119.426921498899,Oil Piers,2.8,0.985,1.197,16,16,"MOSTLY_CLOUDY,NIGHT_CLEAR,NIGHT_CLEAR,NIGHT_CLEAR,NIGHT_CLEAR,NIGHT_CLEAR,CLEAR,CLEAR,CLEAR,CLEAR","Onshore,Cross-shore,Cross-shore,Cross-shore,Cross-shore,Cross-shore,Cross-shore,Cross-shore,Cross-shore,Onshore",10
5842041f4e65fad6a770894c,2024_02_02,34.17876333306018,-119.2399483564372,Oxnard,1.9,1.3860000000000001,1.661,16,16,"MOSTLY_CLEAR,NIGHT_CLEAR,NIGHT_MOSTLY_CLOUDY,NIGHT_CLEAR,NIGHT_CLEAR,NIGHT_CLEAR,CLEAR,CLEAR,CLEAR,CLEAR","Onshore,Onshore,Onshore,Onshore,Onshore,Onshore,Onshore,Onshore,Onshore,Onshore",10
5842041f4e65fad6a7708957,2024_02_02,34.31720331100517,-119.3882324751725,Pitas Point,2.7,0.9179999999999999,1.161,16,16,"MOSTLY_CLOUDY,NIGHT_CLEAR,NIGHT_CLEAR,NIGHT_CLEAR,NIGHT_CLEAR,NIGHT_CLEAR,CLEAR,CLEAR,CLEAR,CLEAR","Onshore,Offshore,Cross-shore,Offshore,Offshore,Offshore,Offshore,Cross-shore,Cross-shore,Cross-shore",10
5842041f4e65fad6a7708959,2024_02_02,34.27851754384724,-119.316202617226,Emma Wood,1.9,0.807,1.077,16,16,"MOSTLY_CLOUDY,NIGHT_CLEAR,NIGHT_CLEAR,NIGHT_CLEAR,NIGHT_CLEAR,NIGHT_CLEAR,CLEAR,CLEAR,CLEAR,CLEAR","Cross-shore,Offshore,Cross-shore,Cross-shore,Cross-shore,Cross-shore,Offshore,Offshore,Offshore,Onshore",10
5842041f4e65fad6a770895a,2024_02_02,34.35513640390276,-119.4400589884255,Mussel Shoals (aka Little Rincon),2.4,1.187,1.441,16,16,"MOSTLY_CLOUDY,NIGHT_CLEAR,NIGHT_CLEAR,NIGHT_CLEAR,NIGHT_CLEAR,NIGHT_CLEAR,CLEAR,CLEAR,CLEAR,CLEAR","Onshore,Cross-shore,Cross-shore,Cross-shore,Cross-shore,Cross-shore,Cross-shore,Cross-shore,Cross-shore,Cross-shore",10
5842041f4e65fad6a770895e,2024_02_02,34.28991757054902,-119.3366646794652,Summer Beach,1.6,0.645,0.9510000000000001,16,16,"MOSTLY_CLOUDY,NIGHT_CLEAR,NIGHT_CLEAR,NIGHT_CLEAR,NIGHT_CLEAR,NIGHT_CLEAR,CLEAR,CLEAR,CLEAR,CLEAR","Onshore,Cross-shore,Onshore,Onshore,Onshore,Onshore,Offshore,Offshore,Offshore,Onshore",10
5842041f4e65fad6a770895f,2024_02_02,34.30897456105926,-119.3582501170116,Solimar,2.7,0.6839999999999999,0.99,16,16,"MOSTLY_CLOUDY,NIGHT_CLEAR,NIGHT_CLEAR,NIGHT_CLEAR,NIGHT_CLEAR,NIGHT_CLEAR,CLEAR,CLEAR,CLEAR,CLEAR","Onshore,Offshore,Offshore,Cross-shore,Offshore,Offshore,Offshore,Cross-shore,Cross-shore,Cross-shore",10
5842041f4e65fad6a7708960,2024_02_02,34.39836265281686,-119.70213,Leadbetter Point,2.9,0.376,0.68,15,15,"MOSTLY_CLOUDY,NIGHT_CLEAR,NIGHT_CLEAR,NIGHT_CLEAR,NIGHT_CLEAR,NIGHT_CLEAR,CLEAR,CLEAR,CLEAR,CLEAR","Cross-shore,Offshore,Offshore,Offshore,Offshore,Offshore,Offshore,Offshore,Offshore,Offshore",10
5842041f4e65fad6a7708961,2024_02_02,34.46052293893899,-120.07328,Refugio,2.2,0.497,0.798,15,15,"CLEAR,NIGHT_CLEAR,NIGHT_CLEAR,NIGHT_CLEAR,NIGHT_CLEAR,NIGHT_CLEAR,CLEAR,CLEAR,CLEAR,CLEAR","Offshore,Offshore,Offshore,Offshore,Offshore,Offshore,Offshore,Offshore,Offshore,Offshore",10
5842041f4e65fad6a7708962,2024_02_02,34.40754276777778,-119.87639,Devereux,3.6,1.244,1.478,15,15,"CLEAR,NIGHT_SHOWERS,NIGHT_CLEAR,NIGHT_CLEAR,NIGHT_MOSTLY_CLEAR,NIGHT_CLEAR,CLEAR,CLEAR,CLEAR,CLEAR","Offshore,Offshore,Offshore,Offshore,Offshore,Offshore,Offshore,Offshore,Offshore,Offshore",10
5842041f4e65fad6a7708963,2024_02_02,34.27479983305182,-119.3133222656776,Ventura Overhead,2.3,0.95,1.207,16,16,"MOSTLY_CLOUDY,NIGHT_CLEAR,NIGHT_CLEAR,NIGHT_CLEAR,NIGHT_CLEAR,NIGHT_CLEAR,CLEAR,CLEAR,CLEAR,CLEAR","Onshore,Cross-shore,Onshore,Onshore,Onshore,Onshore,Offshore,Offshore,Offshore,Onshore",10
5842041f4e65fad6a7708964,2024_02_02,34.41023236011655,-119.88261,Sands,2.9,1.3940000000000001,1.669,15,15,"CLEAR,NIGHT_SHOWERS,NIGHT_CLEAR,NIGHT_CLEAR,NIGHT_MOSTLY_CLEAR,NIGHT_CLEAR,CLEAR,CLEAR,CLEAR,CLEAR","Onshore,Onshore,Cross-shore,Cross-shore,Cross-shore,Cross-shore,Cross-shore,Cross-shore,Cross-shore,Cross-shore",10
5842041f4e65fad6a7708966,2024_02_02,34.40450193869233,-119.68752,Sandspit,1.9,0.195,0.498,15,15,"CLEAR,NIGHT_CLEAR,NIGHT_CLEAR,NIGHT_CLEAR,NIGHT_CLEAR,NIGHT_CLEAR,CLEAR,CLEAR,CLEAR,CLEAR","Cross-shore,Offshore,Offshore,Offshore,Offshore,Offshore,Offshore,Offshore,Offshore,Offshore",10
5842041f4e65fad6a7708967,2024_02_02,34.41549098334453,-119.6375149840203,Hammond's,2.8,0.539,0.844,15,15,"MOSTLY_CLOUDY,NIGHT_CLEAR,NIGHT_CLEAR,NIGHT_CLEAR,NIGHT_CLEAR,NIGHT_CLEAR,CLEAR,CLEAR,CLEAR,CLEAR","Cross-shore,Offshore,Offshore,Offshore,Offshore,Offshore,Offshore,Offshore,Offshore,Offshore",10
5842041f4e65fad6a7708968,2024_02_02,34.45759322742309,-120.0220251867315,El Capitan,2.6,0.673,0.967,15,15,"CLEAR,NIGHT_CLEAR,NIGHT_CLEAR,NIGHT_MOSTLY_CLEAR,NIGHT_CLEAR,NIGHT_CLEAR,CLEAR,CLEAR,CLEAR,CLEAR","Offshore,Offshore,Offshore,Offshore,Offshore,Offshore,Offshore,Offshore,Offshore,Offshore",10
5842041f4e65fad6a770896c,2024_02_02,34.405117655616,-119.84317,Campus Point,2.8,0.645,0.9349999999999999,15,15,"MOSTLY_CLOUDY,NIGHT_SHOWERS,NIGHT_CLEAR,NIGHT_CLEAR,NIGHT_MOSTLY_CLEAR,NIGHT_MOSTLY_CLEAR,CLEAR,CLEAR,CLEAR,CLEAR","Offshore,Offshore,Offshore,Offshore,Offshore,Offshore,Offshore,Offshore,Offshore,Offshore",10
5842041f4e65fad6a770896e,2024_02_02,34.38935162233354,-119.51955,Carpinteria State Beach,3.1,1.025,1.234,16,16,"MOSTLY_CLOUDY,NIGHT_CLEAR,NIGHT_CLEAR,NIGHT_CLEAR,NIGHT_CLEAR,NIGHT_CLEAR,CLEAR,CLEAR,CLEAR,CLEAR","Onshore,Offshore,Offshore,Offshore,Offshore,Offshore,Offshore,Offshore,Onshore,Onshore",10
5842041f4e65fad6a770896f,2024_02_02,37.48296565175612,-122.4549300127824,Half Moon Bay,2,2.609,3.035,14,14,"CLEAR,NIGHT_MOSTLY_CLOUDY,NIGHT_CLEAR,NIGHT_CLEAR,NIGHT_CLEAR,NIGHT_MOSTLY_CLEAR,NIGHT_MOSTLY_CLOUDY,BRIEF_SHOWERS,SHOWERS,HEAVY_SHOWERS","Onshore,Onshore,Onshore,Onshore,Onshore,Onshore,Onshore,Onshore,Onshore,Onshore",10
5842041f4e65fad6a7708970,2024_02_02,37.499,-122.471,Princeton Jetty,3,2.385,2.81,14,14,"MOSTLY_CLEAR,NIGHT_FOG,NIGHT_FOG,NIGHT_FOG,NIGHT_FOG,NIGHT_FOG,NIGHT_MOSTLY_CLOUDY,FOG,MIST,HEAVY_SHOWERS","Onshore,Onshore,Onshore,Onshore,Onshore,Onshore,Onshore,Onshore,Cross-shore,Onshore",10
5842041f4e65fad6a7708972,2024_02_02,37.35699547365155,-122.4069534707252,Tunitas Creek,2,3.926,4.692,14,14,"CLEAR,NIGHT_MOSTLY_CLOUDY,NIGHT_MOSTLY_CLOUDY,NIGHT_MOSTLY_CLOUDY,NIGHT_MOSTLY_CLEAR,NIGHT_MOSTLY_CLEAR,NIGHT_CLEAR,MOSTLY_CLOUDY,MOSTLY_CLEAR,SHOWERS","Onshore,Onshore,Onshore,Onshore,Onshore,Onshore,Onshore,Onshore,Onshore,Onshore",10
5842041f4e65fad6a7708974,2024_02_02,37.54735589428842,-122.5161090212687,Montara,2,2.96,3.468,14,14,"CLEAR,NIGHT_FOG,NIGHT_BRIEF_SHOWERS_POSSIBLE,NIGHT_MOSTLY_CLOUDY,NIGHT_MOSTLY_CLOUDY,NIGHT_FOG,NIGHT_MOSTLY_CLOUDY,BRIEF_SHOWERS,CLEAR,BRIEF_SHOWERS","Cross-shore,Onshore,Onshore,Onshore,Cross-shore,Cross-shore,Onshore,Onshore,Onshore,Onshore",10
5842041f4e65fad6a7708975,2024_02_02,34.3869373724559,-119.5142334209018,Tarpits,3.1,1.0030000000000001,1.241,16,16,"CLEAR,NIGHT_CLEAR,NIGHT_CLEAR,NIGHT_CLEAR,NIGHT_CLEAR,NIGHT_CLEAR,CLEAR,CLEAR,CLEAR,CLEAR","Onshore,Offshore,Offshore,Offshore,Offshore,Offshore,Offshore,Offshore,Cross-shore,Cross-shore",10
5842041f4e65fad6a7708976,2024_02_02,37.59881852720143,-122.50463,Pacifica / Linda Mar,2.517,1.1134766666666667,1.51549,14,14,"MOSTLY_CLOUDY,NIGHT_BRIEF_SHOWERS,NIGHT_MOSTLY_CLOUDY,NIGHT_MOSTLY_CLOUDY,NIGHT_MOSTLY_CLOUDY,NIGHT_MOSTLY_CLOUDY,NIGHT_MOSTLY_CLOUDY,MOSTLY_CLEAR,CLEAR,MOSTLY_CLOUDY","Cross-shore,Onshore,Onshore,Onshore,Cross-shore,Cross-shore,Onshore,Onshore,Onshore,Onshore",10
5842041f4e65fad6a7708978,2024_02_02,37.59883098461164,-122.5143843582282,Pedro Point,2.1,2.845,3.401,13.3,13.3,"BRIEF_SHOWERS,NIGHT_BRIEF_SHOWERS,NIGHT_MOSTLY_CLOUDY,NIGHT_MOSTLY_CLOUDY,NIGHT_MOSTLY_CLOUDY,NIGHT_MOSTLY_CLOUDY,NIGHT_MOSTLY_CLOUDY,MOSTLY_CLEAR,CLEAR,MOSTLY_CLOUDY","Cross-shore,Onshore,Onshore,Onshore,Cross-shore,Cross-shore,Onshore,Onshore,Onshore,Onshore",10
5842041f4e65fad6a7708979,2024_02_02,37.61081996647663,-122.4973287570634,Rockaway,1.8,2.861,3.412,13.3,13.3,"MOSTLY_CLOUDY,NIGHT_BRIEF_SHOWERS,NIGHT_MOSTLY_CLOUDY,NIGHT_MOSTLY_CLOUDY,NIGHT_MOSTLY_CLOUDY,NIGHT_MOSTLY_CLOUDY,NIGHT_MOSTLY_CLOUDY,MOSTLY_CLEAR,CLEAR,MOSTLY_CLOUDY","Cross-shore,Onshore,Onshore,Onshore,Onshore,Cross-shore,Onshore,Onshore,Onshore,Onshore",10
5842041f4e65fad6a770897a,2024_02_02,37.809987384424446,-122.4751353263855,Fort Point,3,1.808,2.16,13,13,"CLEAR,NIGHT_CLEAR,NIGHT_MOSTLY_CLOUDY,NIGHT_MOSTLY_CLOUDY,NIGHT_BRIEF_SHOWERS,NIGHT_SHOWERS,NIGHT_MOSTLY_CLOUDY,MOSTLY_CLEAR,MOSTLY_CLEAR,MOSTLY_CLEAR","Onshore,Cross-shore,Cross-shore,Cross-shore,Onshore,Onshore,Cross-shore,Cross-shore,Cross-shore,Cross-shore",10
5842041f4e65fad6a770897c,2024_02_02,37.63422542967464,-122.4951,Sharp Park,1.5,3.176,3.715,13.3,13.3,"MOSTLY_CLOUDY,NIGHT_SHOWERS,NIGHT_FOG,NIGHT_MOSTLY_CLOUDY,NIGHT_MOSTLY_CLOUDY,NIGHT_MOSTLY_CLOUDY,NIGHT_MOSTLY_CLOUDY,MOSTLY_CLEAR,CLEAR,MOSTLY_CLOUDY","Onshore,Onshore,Onshore,Onshore,Onshore,Onshore,Onshore,Onshore,Onshore,Onshore",10
5842041f4e65fad6a770897d,2024_02_02,37.27313605072472,-122.4127387912554,Pescadero,2.5,3.568,4.266,14,14,"MIST,NIGHT_CLEAR,NIGHT_MOSTLY_CLOUDY,NIGHT_MOSTLY_CLOUDY,NIGHT_MOSTLY_CLEAR,NIGHT_CLEAR,NIGHT_MOSTLY_CLOUDY,MOSTLY_CLOUDY,MOSTLY_CLEAR,MOSTLY_CLOUDY","Cross-shore,Onshore,Onshore,Onshore,Onshore,Cross-shore,Onshore,Onshore,Onshore,Onshore",10
5842041f4e65fad6a770897e,2024_02_02,37.18140279972666,-122.3926685899327,Pigeon Point,2.9,3.613,4.318,14,14,"CLEAR,NIGHT_MOSTLY_CLOUDY,NIGHT_CLEAR,NIGHT_MOSTLY_CLOUDY,NIGHT_BRIEF_SHOWERS,NIGHT_CLEAR,NIGHT_CLEAR,MOSTLY_CLOUDY,MOSTLY_CLEAR,BRIEF_SHOWERS","Onshore,Cross-shore,Cross-shore,Cross-shore,Cross-shore,Onshore,Cross-shore,Cross-shore,Cross-shore,Cross-shore",10
5842041f4e65fad6a770897f,2024_02_02,37.11578956919415,-122.314699271291,Ano Nuevo,3.7,3.089,3.69,14,14,"BRIEF_SHOWERS,NIGHT_SHOWERS,NIGHT_CLEAR,NIGHT_MOSTLY_CLOUDY,NIGHT_HEAVY_SHOWERS,NIGHT_SHOWERS,NIGHT_CLEAR,SHOWERS,MOSTLY_CLEAR,MOSTLY_CLOUDY","Onshore,Offshore,Offshore,Cross-shore,Cross-shore,Onshore,Offshore,Offshore,Offshore,Offshore",10
5842041f4e65fad6a7708980,2024_02_02,37.09520872681598,-122.2805474707768,Waddell Creek,3,2.957,3.526,14,14,"MIST,NIGHT_MOSTLY_CLOUDY,NIGHT_CLEAR,NIGHT_FOG,NIGHT_BRIEF_SHOWERS,NIGHT_MIST,NIGHT_CLEAR,SHOWERS,MOSTLY_CLEAR,CLEAR","Onshore,Onshore,Offshore,Onshore,Onshore,Onshore,Onshore,Cross-shore,Cross-shore,Onshore",10
5842041f4e65fad6a7708981,2024_02_02,36.96512852130351,-122.1252825495626,Four Mile,3.5,3.102,3.708,14,14,"BRIEF_SHOWERS,NIGHT_MOSTLY_CLOUDY,NIGHT_CLEAR,NIGHT_FOG,NIGHT_FOG,NIGHT_SHOWERS,NIGHT_MOSTLY_CLOUDY,MOSTLY_CLEAR,CLEAR,CLEAR","Onshore,Cross-shore,Offshore,Offshore,Offshore,Cross-shore,Cross-shore,Offshore,Offshore,Offshore",10
5842041f4e65fad6a7708982,2024_02_02,37.04122807048655,-122.2333684729756,Scott Creek,3,2.922,3.4939999999999998,14,14,"MIST,NIGHT_CLEAR,NIGHT_CLEAR,NIGHT_FOG,NIGHT_FOG,NIGHT_FOG,NIGHT_BRIEF_SHOWERS,MOSTLY_CLEAR,MOSTLY_CLEAR,MOSTLY_CLEAR","Cross-shore,Onshore,Offshore,Onshore,Onshore,Onshore,Onshore,Cross-shore,Cross-shore,Onshore",10
5842041f4e65fad6a7708983,2024_02_02,37.02350229387179,-122.21908,Davenport,3,3.132,3.743,14,14,"BRIEF_SHOWERS,NIGHT_CLEAR,NIGHT_CLEAR,NIGHT_FOG,NIGHT_FOG,NIGHT_FOG,NIGHT_MOSTLY_CLOUDY,MOSTLY_CLEAR,MOSTLY_CLEAR,MOSTLY_CLEAR","Onshore,Onshore,Offshore,Onshore,Cross-shore,Cross-shore,Cross-shore,Cross-shore,Cross-shore,Cross-shore",10
5842041f4e65fad6a7708986,2024_02_02,36.94905295955728,-122.0611823912244,Natural Bridges,3.4,2.729,3.261,14,14,"MOSTLY_CLOUDY,NIGHT_FOG,NIGHT_CLEAR,NIGHT_MOSTLY_CLOUDY,NIGHT_MOSTLY_CLOUDY,NIGHT_MOSTLY_CLOUDY,NIGHT_CLEAR,MOSTLY_CLOUDY,CLEAR,CLEAR","Onshore,Onshore,Cross-shore,Offshore,Offshore,Offshore,Onshore,Cross-shore,Cross-shore,Cross-shore",10
5842041f4e65fad6a7708987,2024_02_02,36.95154854910425,-122.0420693940968,Mitchell's Cove,3.9,1.941,2.321,14,14,"MOSTLY_CLOUDY,NIGHT_FOG,NIGHT_CLEAR,NIGHT_MOSTLY_CLEAR,NIGHT_MOSTLY_CLOUDY,NIGHT_MIST,NIGHT_MOSTLY_CLOUDY,FOG,CLEAR,CLEAR","Onshore,Onshore,Offshore,Offshore,Offshore,Offshore,Onshore,Offshore,Offshore,Cross-shore",10
5842041f4e65fad6a770898a,2024_02_02,36.9572312370203,-121.98177,26th Ave,3,2.32,2.771,14,14,"MOSTLY_CLOUDY,NIGHT_FOG,NIGHT_CLEAR,NIGHT_CLEAR,NIGHT_MOSTLY_CLOUDY,NIGHT_MIST,NIGHT_FOG,SHOWERS,MOSTLY_CLOUDY,MOSTLY_CLEAR","Onshore,Onshore,Offshore,Offshore,Offshore,Offshore,Offshore,Onshore,Cross-shore,Onshore",10
5842041f4e65fad6a770898e,2024_02_02,36.91899972819882,-121.85536,Manresa,2.9,2.63,3.142,14,14,"BRIEF_SHOWERS,NIGHT_CLEAR,NIGHT_CLEAR,NIGHT_CLEAR,NIGHT_BRIEF_SHOWERS,NIGHT_MOSTLY_CLOUDY,NIGHT_MOSTLY_CLOUDY,MIST,MOSTLY_CLOUDY,MOSTLY_CLEAR","Onshore,Cross-shore,Onshore,Onshore,Onshore,Cross-shore,Offshore,Offshore,Onshore,Onshore",10
5842041f4e65fad6a7708990,2024_02_02,34.45747731928454,-120.34242,The Ranch,4,1.437,1.723,15,15,"BRIEF_SHOWERS,NIGHT_MOSTLY_CLEAR,NIGHT_CLEAR,NIGHT_CLEAR,NIGHT_CLEAR,NIGHT_MOSTLY_CLEAR,CLEAR,CLEAR,CLEAR,MOSTLY_CLOUDY","Offshore,Offshore,Offshore,Offshore,Offshore,Offshore,Offshore,Offshore,Offshore,Offshore",10
5842041f4e65fad6a7708991,2024_02_02,34.50875036590315,-120.50348,Jalama,2.4,2.201,2.629,15,15,"MOSTLY_CLOUDY,NIGHT_CLEAR,NIGHT_MOSTLY_CLOUDY,NIGHT_MOSTLY_CLOUDY,NIGHT_MOSTLY_CLOUDY,NIGHT_CLEAR,CLEAR,HEAVY_SHOWERS,CLEAR,MOSTLY_CLOUDY","Cross-shore,Onshore,Cross-shore,Cross-shore,Cross-shore,Cross-shore,Cross-shore,Cross-shore,Cross-shore,Cross-shore",10
5842041f4e65fad6a7708996,2024_02_02,34.68700870220497,-120.6111611019887,Surf Beach,1.6,4.446,5.313,15,15,"MIST,NIGHT_MOSTLY_CLOUDY,NIGHT_CLEAR,NIGHT_BRIEF_SHOWERS,NIGHT_HEAVY_SHOWERS,NIGHT_MOSTLY_CLOUDY,MOSTLY_CLOUDY,SHOWERS,MOSTLY_CLOUDY,OVERCAST","Onshore,Onshore,Onshore,Onshore,Onshore,Onshore,Onshore,Onshore,Onshore,Onshore",10
5842041f4e65fad6a770899c,2024_02_02,35.5730538161116,-121.1143362345574,Moonstone,2.9,3.501,4.187,14,14,"MIST,NIGHT_MOSTLY_CLOUDY,NIGHT_SHOWERS,NIGHT_MOSTLY_CLEAR,NIGHT_CLEAR,NIGHT_CLEAR,NIGHT_MOSTLY_CLEAR,CLEAR,CLEAR,CLEAR","Onshore,Onshore,Cross-shore,Cross-shore,Cross-shore,Cross-shore,Cross-shore,Offshore,Onshore,Onshore",10
5842041f4e65fad6a770899d,2024_02_02,35.61533716776573,-121.1502053073914,Pico Creek,3,2.562,3.065,14,14,"BRIEF_SHOWERS,NIGHT_FOG,NIGHT_SHOWERS,NIGHT_MOSTLY_CLEAR,NIGHT_CLEAR,NIGHT_CLEAR,NIGHT_CLEAR,CLEAR,CLEAR,MOSTLY_CLEAR","Onshore,Onshore,Cross-shore,Cross-shore,Cross-shore,Cross-shore,Cross-shore,Cross-shore,Onshore,Onshore",10
5842041f4e65fad6a770899e,2024_02_02,35.56829031927379,-121.1120653023953,Santa Rosa Creek,3,3.501,4.187,14,14,"MIST,NIGHT_MOSTLY_CLOUDY,NIGHT_BRIEF_SHOWERS,NIGHT_CLEAR,NIGHT_BRIEF_SHOWERS_POSSIBLE,NIGHT_CLEAR,NIGHT_MOSTLY_CLEAR,MOSTLY_CLEAR,MOSTLY_CLEAR,CLEAR","Onshore,Onshore,Cross-shore,Cross-shore,Cross-shore,Offshore,Cross-shore,Offshore,Cross-shore,Cross-shore",10
5842041f4e65fad6a77089a2,2024_02_02,35.44820114936284,-120.90715,"Cayucos Pier, Southside ",3,1.698,2.03,14,14,"MIST,NIGHT_BRIEF_SHOWERS,NIGHT_MOSTLY_CLEAR,NIGHT_MOSTLY_CLEAR,NIGHT_CLEAR,NIGHT_CLEAR,NIGHT_CLEAR,MOSTLY_CLEAR,MOSTLY_CLEAR,MOSTLY_CLEAR","Onshore,Cross-shore,Offshore,Offshore,Offshore,Offshore,Onshore,Offshore,Offshore,Cross-shore",10
5842041f4e65fad6a77089a4,2024_02_02,35.30143372628852,-120.877819239902,Cable Landing,2.1,4.431,5.298,14,14,"CLEAR,NIGHT_MOSTLY_CLOUDY,NIGHT_CLEAR,NIGHT_MOSTLY_CLEAR,NIGHT_SHOWERS,NIGHT_CLEAR,NIGHT_CLEAR,CLEAR,MOSTLY_CLOUDY,MIST","Onshore,Onshore,Onshore,Onshore,Onshore,Cross-shore,Onshore,Onshore,Onshore,Onshore",10
5842041f4e65fad6a77089a9,2024_02_02,35.61269103500222,-121.1480725356606,San Simeon,3,1.8004,2.1518,14,14,"MOSTLY_CLOUDY,NIGHT_FOG,NIGHT_SHOWERS,NIGHT_SHOWERS,NIGHT_CLEAR,NIGHT_CLEAR,NIGHT_CLEAR,CLEAR,CLEAR,MOSTLY_CLEAR","Onshore,Onshore,Cross-shore,Cross-shore,Offshore,Offshore,Offshore,Offshore,Cross-shore,Cross-shore",10
5842041f4e65fad6a77089ab,2024_02_02,35.1775325966252,-120.7341125142258,Avila Beach,2,0.363,0.667,14,14,"MOSTLY_CLOUDY,NIGHT_FOG,NIGHT_CLEAR,NIGHT_CLEAR,NIGHT_MOSTLY_CLEAR,NIGHT_MOSTLY_CLEAR,NIGHT_CLEAR,CLEAR,MOSTLY_CLOUDY,MIST","Onshore,Onshore,Offshore,Offshore,Offshore,Offshore,Offshore,Offshore,Cross-shore,Onshore",10
5842041f4e65fad6a77089ac,2024_02_02,35.13877877884115,-120.64535,Pismo Beach Pier,2.617,2.1922733333333335,2.924313333333333,13,13,"MOSTLY_CLOUDY,NIGHT_CLEAR,NIGHT_FOG,NIGHT_FOG,NIGHT_FOG,NIGHT_MIST,NIGHT_CLEAR,FOG,CLEAR,MIST","Onshore,Offshore,Onshore,Offshore,Offshore,Offshore,Offshore,Offshore,Offshore,Offshore",10
5842041f4e65fad6a77089ad,2024_02_02,46.8907710233147,-124.12964,Westport/Olympic Peninsula,2,2.745,3.23,10.7,10.7,"MOSTLY_CLOUDY,NIGHT_CLEAR,NIGHT_BRIEF_SHOWERS,NIGHT_MOSTLY_CLEAR,NIGHT_MOSTLY_CLOUDY,NIGHT_BRIEF_SHOWERS,NIGHT_BRIEF_SHOWERS,MOSTLY_CLOUDY,CLEAR,MOSTLY_CLOUDY","Cross-shore,Onshore,Cross-shore,Cross-shore,Cross-shore,Onshore,Cross-shore,Cross-shore,Cross-shore,Cross-shore",10
5842041f4e65fad6a77089ae,2024_02_02,46.35185177248545,-124.06747,Long Beach Peninsula,1.8,3.225,3.839,11,11,"CLEAR,NIGHT_MOSTLY_CLOUDY,NIGHT_LIGHT_SHOWERS_POSSIBLE,NIGHT_LIGHT_SHOWERS_POSSIBLE,NIGHT_MOSTLY_CLOUDY,NIGHT_MOSTLY_CLOUDY,NIGHT_CLOUDY,MOSTLY_CLOUDY,CLEAR,CLEAR","Cross-shore,Cross-shore,Cross-shore,Cross-shore,Cross-shore,Cross-shore,Cross-shore,Cross-shore,Cross-shore,Cross-shore",10
5842041f4e65fad6a77089af,2024_02_02,47.90649175554033,-124.6370864743483,La Push,0.9,2.757,3.27,9,9,"MOSTLY_CLOUDY,NIGHT_OVERCAST,NIGHT_MOSTLY_CLOUDY,NIGHT_MOSTLY_CLOUDY,NIGHT_CLEAR,NIGHT_CLEAR,NIGHT_MOSTLY_CLOUDY,BRIEF_SHOWERS,BRIEF_SHOWERS,MOSTLY_CLOUDY","Onshore,Onshore,Onshore,Cross-shore,Cross-shore,Cross-shore,Onshore,Onshore,Onshore,Onshore",10
5842041f4e65fad6a77089b0,2024_02_02,42.04368239985442,-124.26828,Brookings Jetty,1,1.67298,2.614028,12,12,"MOSTLY_CLOUDY,NIGHT_BRIEF_SHOWERS,NIGHT_MOSTLY_CLOUDY,NIGHT_MOSTLY_CLOUDY,NIGHT_MOSTLY_CLOUDY,NIGHT_MOSTLY_CLOUDY,NIGHT_BRIEF_SHOWERS,LIGHT_SHOWERS_POSSIBLE,MOSTLY_CLOUDY,BRIEF_SHOWERS","Onshore,Onshore,Onshore,Onshore,Onshore,Onshore,Onshore,Onshore,Onshore,Onshore",10
5842041f4e65fad6a77089b1,2024_02_02,42.74071837900346,-124.4983727491047,Port Orford,0.9,3.052,3.6470000000000002,12,12,"CLEAR,NIGHT_MOSTLY_CLOUDY,NIGHT_SHOWERS,NIGHT_CLEAR,NIGHT_MOSTLY_CLOUDY,NIGHT_MOSTLY_CLOUDY,NIGHT_MOSTLY_CLOUDY,MOSTLY_CLEAR,MOSTLY_CLOUDY,CLEAR","Onshore,Onshore,Onshore,Onshore,Onshore,Onshore,Onshore,Onshore,Onshore,Onshore",10
5842041f4e65fad6a77089b2,2024_02_02,44.01532689312291,-124.13865,Florence South Jetty,1.3,4.03,4.804,11.3,11.3,"CLEAR,NIGHT_MOSTLY_CLOUDY,NIGHT_CLEAR,NIGHT_BRIEF_SHOWERS,NIGHT_BRIEF_SHOWERS,NIGHT_OVERCAST,NIGHT_CLEAR,CLEAR,BRIEF_SHOWERS,CLEAR","Cross-shore,Cross-shore,Cross-shore,Onshore,Cross-shore,Cross-shore,Cross-shore,Cross-shore,Cross-shore,Cross-shore",10
5842041f4e65fad6a77089b3,2024_02_02,42.41812540774362,-124.42945,Gold Beach South Jetty,0,3.924,4.659,12,12,"BRIEF_SHOWERS,NIGHT_RAIN,NIGHT_CLEAR,NIGHT_BRIEF_SHOWERS,NIGHT_MOSTLY_CLOUDY,NIGHT_BRIEF_SHOWERS,NIGHT_HEAVY_SHOWERS,CLEAR,MOSTLY_CLOUDY,MOSTLY_CLOUDY","Onshore,Onshore,Onshore,Onshore,Onshore,Onshore,Onshore,Onshore,Onshore,Onshore",10
5842041f4e65fad6a77089b4,2024_02_02,44.95857310226525,-124.0219017690976,Lincoln City,2,3.258,3.893,11,11,"MOSTLY_CLEAR,NIGHT_DRIZZLE,NIGHT_CLOUDY,NIGHT_SHOWERS,NIGHT_MOSTLY_CLOUDY,NIGHT_CLEAR,NIGHT_BRIEF_SHOWERS,CLEAR,CLEAR,MOSTLY_CLOUDY","Cross-shore,Cross-shore,Cross-shore,Cross-shore,Cross-shore,Cross-shore,Cross-shore,Cross-shore,Offshore,Cross-shore",10
5842041f4e65fad6a77089b5,2024_02_02,44.63792761362982,-124.0657,Newport,1.4,3.886,4.641,11.3,11.3,"CLEAR,NIGHT_MOSTLY_CLOUDY,NIGHT_CLEAR,NIGHT_CLEAR,NIGHT_CLEAR,NIGHT_BRIEF_SHOWERS,NIGHT_MOSTLY_CLOUDY,CLEAR,MOSTLY_CLOUDY,BRIEF_SHOWERS_POSSIBLE","Cross-shore,Onshore,Cross-shore,Onshore,Onshore,Cross-shore,Cross-shore,Cross-shore,Cross-shore,Cross-shore",10
5842041f4e65fad6a77089b6,2024_02_02,45.61468496266301,-123.94643,Rockaway Beach,2,3.346,3.999,11,11,"CLEAR,NIGHT_CLEAR,NIGHT_BRIEF_SHOWERS,NIGHT_MOSTLY_CLOUDY,NIGHT_MOSTLY_CLOUDY,NIGHT_MOSTLY_CLOUDY,NIGHT_BRIEF_SHOWERS,MOSTLY_CLOUDY,MOSTLY_CLEAR,MOSTLY_CLEAR","Cross-shore,Cross-shore,Cross-shore,Cross-shore,Cross-shore,Cross-shore,Cross-shore,Cross-shore,Cross-shore,Cross-shore",10
5842041f4e65fad6a77089b7,2024_02_02,45.20252914186085,-123.96975,Pacific City,2,3.113,3.723,11,11,"CLEAR,NIGHT_CLEAR,NIGHT_SHOWERS,NIGHT_BRIEF_SHOWERS,NIGHT_CLEAR,NIGHT_MOSTLY_CLOUDY,NIGHT_CLEAR,MOSTLY_CLOUDY,CLEAR,MOSTLY_CLEAR","Onshore,Onshore,Cross-shore,Onshore,Onshore,Onshore,Cross-shore,Cross-shore,Cross-shore,Cross-shore",10
5842041f4e65fad6a77089b8,2024_02_02,45.88179930310263,-123.96681,Cannon Beach,1.5,3.202,3.828,11,11,"CLEAR,NIGHT_CLEAR,NIGHT_MOSTLY_CLOUDY,NIGHT_BRIEF_SHOWERS,NIGHT_MOSTLY_CLOUDY,NIGHT_MOSTLY_CLOUDY,NIGHT_MOSTLY_CLOUDY,CLEAR,CLEAR,CLEAR","Onshore,Cross-shore,Cross-shore,Onshore,Onshore,Onshore,Cross-shore,Cross-shore,Cross-shore,Cross-shore",10
5842041f4e65fad6a77089ba,2024_02_02,40.02528754746774,-124.06372,Shelter Cove,2,1.172104,1.831415,12.3,12.3,"MOSTLY_CLOUDY,NIGHT_CLEAR,NIGHT_FOG,NIGHT_MOSTLY_CLEAR,NIGHT_MOSTLY_CLEAR,NIGHT_MOSTLY_CLOUDY,NIGHT_SHOWERS,CLEAR,CLEAR,CLEAR","Onshore,Onshore,Cross-shore,Cross-shore,Cross-shore,Cross-shore,Onshore,Onshore,Onshore,Onshore",10
5842041f4e65fad6a77089bb,2024_02_02,40.76816197136951,-124.24248,Humboldt Harbor Entrance,1.5,4.531,5.415,12,12,"MOSTLY_CLOUDY,NIGHT_MOSTLY_CLOUDY,NIGHT_MOSTLY_CLOUDY,NIGHT_SHOWERS,NIGHT_MOSTLY_CLEAR,NIGHT_MOSTLY_CLOUDY,NIGHT_BRIEF_SHOWERS_POSSIBLE,MOSTLY_CLOUDY,BRIEF_SHOWERS,LIGHT_SHOWERS_POSSIBLE","Onshore,Onshore,Onshore,Onshore,Onshore,Onshore,Onshore,Cross-shore,Onshore,Cross-shore",10
5842041f4e65fad6a77089bc,2024_02_02,40.76684246920174,-124.23107,North Jetty,1.5,5.391,6.396,12,12,"MOSTLY_CLOUDY,NIGHT_BRIEF_SHOWERS,NIGHT_SHOWERS,NIGHT_MOSTLY_CLEAR,NIGHT_MOSTLY_CLEAR,NIGHT_CLEAR,NIGHT_SHOWERS,MOSTLY_CLOUDY,BRIEF_SHOWERS,LIGHT_SHOWERS_POSSIBLE","Cross-shore,Onshore,Onshore,Onshore,Onshore,Onshore,Onshore,Cross-shore,Cross-shore,Cross-shore",10
5842041f4e65fad6a77089bd,2024_02_02,41.02731183893966,-124.1149972888982,Westhaven,1.5,6.292,7.4670000000000005,12,12,"CLEAR,NIGHT_MOSTLY_CLOUDY,NIGHT_HEAVY_SHOWERS,NIGHT_MOSTLY_CLOUDY,NIGHT_CLEAR,NIGHT_CLEAR,NIGHT_MOSTLY_CLOUDY,CLEAR,MOSTLY_CLOUDY,FOG","Cross-shore,Onshore,Cross-shore,Onshore,Onshore,Onshore,Cross-shore,Onshore,Cross-shore,Onshore",10
5842041f4e65fad6a77089be,2024_02_02,41.13016238153297,-124.16466,Sue-meg,1.8,4.171,4.969,12.3,12.3,"CLEAR,NIGHT_CLEAR,NIGHT_MOSTLY_CLOUDY,NIGHT_MOSTLY_CLOUDY,NIGHT_CLEAR,NIGHT_MOSTLY_CLOUDY,NIGHT_BRIEF_SHOWERS_POSSIBLE,MOSTLY_CLEAR,BRIEF_SHOWERS,CLEAR","Cross-shore,Cross-shore,Onshore,Onshore,Onshore,Cross-shore,Offshore,Cross-shore,Onshore,Cross-shore",10
5842041f4e65fad6a77089bf,2024_02_02,37.8289474958188,-122.5376795097543,Fort Cronkite/Rodeo Beach,2,3.434,4.059,13,13,"BRIEF_SHOWERS,NIGHT_CLEAR,NIGHT_MOSTLY_CLOUDY,NIGHT_MOSTLY_CLOUDY,NIGHT_MOSTLY_CLOUDY,NIGHT_BRIEF_SHOWERS,NIGHT_BRIEF_SHOWERS,SHOWERS,SHOWERS,MOSTLY_CLEAR","Onshore,Cross-shore,Cross-shore,Onshore,Onshore,Onshore,Cross-shore,Cross-shore,Cross-shore,Cross-shore",10
5842041f4e65fad6a77089c0,2024_02_02,41.74415759876137,-124.1771718063073,South Beach CA,1.9,2.692,3.172,12,12,"CLEAR,NIGHT_LIGHT_RAIN,NIGHT_MOSTLY_CLOUDY,NIGHT_MOSTLY_CLOUDY,NIGHT_MOSTLY_CLOUDY,NIGHT_CLEAR,NIGHT_MOSTLY_CLOUDY,BRIEF_SHOWERS,MOSTLY_CLOUDY,MOSTLY_CLOUDY","Onshore,Onshore,Onshore,Onshore,Onshore,Onshore,Onshore,Onshore,Onshore,Onshore",10
5842041f4e65fad6a77089c1,2024_02_02,37.89801283969752,-122.64519,Stinson Beach,3,1.074,1.318,13,13,"MIST,NIGHT_FOG,NIGHT_FOG,NIGHT_FOG,NIGHT_FOG,NIGHT_HEAVY_SHOWERS,NIGHT_MOSTLY_CLEAR,FOG,MOSTLY_CLEAR,MOSTLY_CLEAR","Onshore,Cross-shore,Cross-shore,Cross-shore,Cross-shore,Onshore,Cross-shore,Cross-shore,Cross-shore,Offshore",10
5842041f4e65fad6a77089c2,2024_02_02,37.90514516176495,-122.68151,Bolinas,4,1.231898,1.924843,13,13,"MIST,NIGHT_FOG,NIGHT_FOG,NIGHT_FOG,NIGHT_FOG,NIGHT_SHOWERS,NIGHT_CLEAR,MOSTLY_CLEAR,CLEAR,MOSTLY_CLEAR","Onshore,Onshore,Onshore,Onshore,Onshore,Onshore,Onshore,Onshore,Onshore,Offshore",10
5842041f4e65fad6a77089c3,2024_02_02,38.04892513158693,-122.9892494965416,Point Reyes (north),1.2,4.406,5.24,13,13,"BRIEF_SHOWERS,NIGHT_MOSTLY_CLOUDY,NIGHT_OVERCAST,NIGHT_CLEAR,NIGHT_CLEAR,NIGHT_MOSTLY_CLOUDY,NIGHT_CLEAR,MOSTLY_CLEAR,CLEAR,CLEAR","Onshore,Onshore,Onshore,Onshore,Onshore,Onshore,Onshore,Onshore,Onshore,Onshore",10
5842041f4e65fad6a77089c6,2024_02_02,38.31088736605785,-123.0496777333731,Doran Beach,3,1.118,1.368,12.3,12.3,"CLEAR,NIGHT_CLEAR,NIGHT_MOSTLY_CLOUDY,NIGHT_MOSTLY_CLOUDY,NIGHT_MOSTLY_CLOUDY,NIGHT_MOSTLY_CLEAR,NIGHT_MOSTLY_CLOUDY,MOSTLY_CLOUDY,MOSTLY_CLEAR,MOSTLY_CLOUDY","Cross-shore,Offshore,Cross-shore,Offshore,Offshore,Offshore,Offshore,Offshore,Offshore,Offshore",10
5842041f4e65fad6a77089c7,2024_02_02,38.45077228660809,-123.13008,Russian Rivermouth,2,3.551,4.225,12.3,12.3,"CLEAR,NIGHT_FOG,NIGHT_FOG,NIGHT_MOSTLY_CLOUDY,NIGHT_BRIEF_SHOWERS,NIGHT_MOSTLY_CLEAR,NIGHT_MOSTLY_CLEAR,MOSTLY_CLEAR,MIST,MOSTLY_CLEAR","Onshore,Onshore,Onshore,Onshore,Onshore,Onshore,Onshore,Onshore,Onshore,Onshore",10
5842041f4e65fad6a77089c8,2024_02_02,38.35329968518107,-123.06906,Salmon Creek,1.6,3.333,3.985,12.3,12.3,"CLEAR,NIGHT_MOSTLY_CLOUDY,NIGHT_MOSTLY_CLOUDY,NIGHT_MOSTLY_CLOUDY,NIGHT_MOSTLY_CLOUDY,NIGHT_MOSTLY_CLEAR,NIGHT_CLEAR,MOSTLY_CLEAR,MOSTLY_CLEAR,MOSTLY_CLEAR","Onshore,Onshore,Onshore,Onshore,Onshore,Onshore,Onshore,Onshore,Onshore,Onshore",10
5842041f4e65fad6a77089c9,2024_02_02,38.6845180197959,-123.4322714291198,Black Point Beach,3,2.798,3.267,12.3,12.3,"CLEAR,NIGHT_FOG,NIGHT_MOSTLY_CLOUDY,NIGHT_BRIEF_SHOWERS,NIGHT_MOSTLY_CLOUDY,NIGHT_MOSTLY_CLEAR,NIGHT_FOG,CLEAR,BRIEF_SHOWERS,MOSTLY_CLOUDY","Cross-shore,Onshore,Onshore,Onshore,Onshore,Onshore,Onshore,Onshore,Onshore,Onshore",10
5842041f4e65fad6a77089ca,2024_02_02,43.251076,-70.59144,Ogunquit,1.833,0.34121666666666667,0.6429233333333334,5,4,"NIGHT_CLEAR,NIGHT_MIST,NIGHT_MIST,MIST,MIST,MOSTLY_CLOUDY,CLEAR,CLEAR,CLEAR,CLEAR","Cross-shore,Offshore,Offshore,Offshore,Cross-shore,Cross-shore,Cross-shore,Cross-shore,Cross-shore,Cross-shore",10
5842041f4e65fad6a77089cb,2024_02_02,41.362631366305415,-71.48006772942608,Point Judith,1.375,0.17830000000000001,0.4802666666666667,7,6,"NIGHT_CLOUDY,NIGHT_FOG,NIGHT_MIST,MIST,MIST,MIST,CLEAR,MOSTLY_CLEAR,CLEAR,MOSTLY_CLEAR","Offshore,Offshore,Offshore,Offshore,Offshore,Offshore,Offshore,Cross-shore,Onshore,Onshore",10
5842041f4e65fad6a77089cd,2024_02_02,41.422678090954726,-71.45413,Monahan's - Narragansett,1.2,0.193069,0.301672,5.3,5.3,"NIGHT_CLOUDY,NIGHT_MIST,NIGHT_MIST,MIST,MIST,MIST,CLEAR,CLEAR,CLEAR,CLEAR","Cross-shore,Cross-shore,Offshore,Offshore,Offshore,Offshore,Offshore,Cross-shore,Cross-shore,Cross-shore",10
5842041f4e65fad6a77089ce,2024_02_02,41.469,-71.293,Ruggles - Newport,1.9,0.242754,0.379303,5.3,5.3,"NIGHT_OVERCAST,NIGHT_MOSTLY_CLOUDY,NIGHT_MIST,MIST,MIST,CLEAR,CLEAR,CLEAR,CLEAR,CLEAR","Onshore,Onshore,Onshore,Offshore,Offshore,Offshore,Offshore,Offshore,Offshore,Offshore",10
5842041f4e65fad6a77089cf,2024_02_02,43.175394,-70.606351,Short Sands Beach,1.4,0.256,0.561,4,4,"NIGHT_CLEAR,NIGHT_MIST,NIGHT_CLEAR,CLEAR,CLEAR,CLEAR,CLEAR,CLEAR,CLEAR,CLEAR","Offshore,Offshore,Offshore,Cross-shore,Cross-shore,Cross-shore,Cross-shore,Cross-shore,Cross-shore,Cross-shore",10
5842041f4e65fad6a77089d0,2024_02_02,41.487408,-71.29017,First Beach,1,0,0.239,5.3,5.3,"NIGHT_OVERCAST,NIGHT_MOSTLY_CLOUDY,NIGHT_MIST,MIST,MOSTLY_CLOUDY,CLEAR,CLEAR,MOSTLY_CLEAR,MOSTLY_CLEAR,MOSTLY_CLEAR","Onshore,Onshore,Onshore,Offshore,Offshore,Offshore,Offshore,Offshore,Offshore,Offshore",10
5842041f4e65fad6a77089d1,2024_02_02,42.27916830233153,-70.86498,Nantasket Beach,1.75,0.13429000000000002,0.43858,5,4,"NIGHT_OVERCAST,NIGHT_CLEAR,NIGHT_MOSTLY_CLOUDY,MOSTLY_CLOUDY,MOSTLY_CLOUDY,MOSTLY_CLOUDY,MIST,MOSTLY_CLOUDY,MOSTLY_CLOUDY,MOSTLY_CLOUDY","Offshore,Offshore,Offshore,Offshore,Cross-shore,Onshore,Onshore,Onshore,Onshore,Onshore",10
5842041f4e65fad6a77089d2,2024_02_02,41.817,-69.935,Cape Cod,1.5,0.201,0.506,5.3,5.3,"NIGHT_CLEAR,NIGHT_CLOUDY,NIGHT_CLEAR,CLEAR,CLEAR,CLEAR,CLEAR,CLEAR,CLEAR,CLEAR","Cross-shore,Offshore,Offshore,Offshore,Offshore,Offshore,Cross-shore,Cross-shore,Cross-shore,Cross-shore",10
5842041f4e65fad6a77089d3,2024_02_02,42.22055448975661,-70.70634873403819,Egypt Beach,1.5,0.239,0.544,5,5,"NIGHT_OVERCAST,NIGHT_CLEAR,NIGHT_CLEAR,MOSTLY_CLOUDY,MOSTLY_CLOUDY,CLOUDY,CLEAR,CLEAR,CLEAR,CLOUDY","Offshore,Offshore,Offshore,Offshore,Cross-shore,Cross-shore,Onshore,Onshore,Cross-shore,Cross-shore",10
5842041f4e65fad6a77089d4,2024_02_02,41.48739647744607,-71.25723,Second Beach,1.7,0.25195425000000005,0.48368933333333336,7,6,"NIGHT_OVERCAST,NIGHT_MOSTLY_CLOUDY,NIGHT_FOG,MIST,MIST,CLEAR,CLEAR,CLEAR,MOSTLY_CLEAR,CLEAR","Onshore,Onshore,Onshore,Cross-shore,Offshore,Offshore,Offshore,Offshore,Offshore,Offshore",10
5842041f4e65fad6a77089d5,2024_02_02,42.964,-70.769,Fox Hill,1.883,0.28955000000000003,0.59659,5,4,"NIGHT_OVERCAST,NIGHT_MIST,NIGHT_MIST,MIST,CLEAR,CLOUDY,CLEAR,CLEAR,CLEAR,CLEAR","Onshore,Offshore,Offshore,Offshore,Offshore,Offshore,Cross-shore,Offshore,Offshore,Cross-shore",10
5842041f4e65fad6a77089d6,2024_02_02,42.991359,-70.75149,Straws Point,1.883,0.28321666666666667,0.5896733333333333,5,4,"NIGHT_OVERCAST,NIGHT_MIST,NIGHT_MIST,MIST,CLEAR,CLOUDY,CLEAR,CLEAR,CLEAR,CLEAR","Onshore,Offshore,Offshore,Offshore,Offshore,Offshore,Offshore,Offshore,Offshore,Offshore",10
5842041f4e65fad6a77089d7,2024_02_02,42.946,-70.786,Plaice Cove,1.883,0.28955000000000003,0.59659,5,4,"NIGHT_OVERCAST,NIGHT_MIST,NIGHT_MIST,MIST,CLEAR,CLOUDY,CLEAR,CLEAR,CLEAR,CLEAR","Cross-shore,Offshore,Offshore,Offshore,Cross-shore,Cross-shore,Cross-shore,Cross-shore,Cross-shore,Cross-shore",10
5842041f4e65fad6a77089d9,2024_02_02,42.911574,-70.80831,The Main Beach,1.52,0.34335180000000004,0.6526966333333334,6,4,"NIGHT_CLOUDY,NIGHT_MIST,NIGHT_MIST,MIST,MIST,CLOUDY,CLEAR,CLEAR,CLEAR,CLEAR","Onshore,Cross-shore,Offshore,Offshore,Offshore,Offshore,Offshore,Offshore,Offshore,Offshore",10
5842041f4e65fad6a77089da,2024_02_02,42.97583846220203,-70.764,Sawyer's Beach,1.883,0.27363333333333334,0.57809,5,4,"NIGHT_OVERCAST,NIGHT_MIST,NIGHT_MIST,MIST,CLEAR,CLOUDY,CLEAR,CLEAR,CLEAR,CLEAR","Cross-shore,Offshore,Offshore,Offshore,Offshore,Cross-shore,Cross-shore,Cross-shore,Cross-shore,Cross-shore",10
5842041f4e65fad6a77089db,2024_02_02,42.97,-70.77,Rye on the Rocks / 5-0's,1.52,0.3355376666666667,0.6424743333333334,6,4,"NIGHT_OVERCAST,NIGHT_MIST,NIGHT_MIST,MIST,CLEAR,CLOUDY,CLEAR,CLEAR,CLEAR,CLEAR","Onshore,Offshore,Offshore,Offshore,Offshore,Offshore,Offshore,Offshore,Offshore,Offshore",10
5842041f4e65fad6a77089dc,2024_02_02,43.55902946610303,-70.27795,Higgins Beach,2,0.33803000000000005,0.63683,5,4,"NIGHT_CLEAR,NIGHT_MIST,NIGHT_MIST,MIST,MIST,CLEAR,CLEAR,CLEAR,CLEAR,CLEAR","Onshore,Cross-shore,Offshore,Offshore,Offshore,Offshore,Offshore,Offshore,Offshore,Offshore",10
5842041f4e65fad6a77089dd,2024_02_02,43.302676,-70.5652,Wells Beach,1.533,0.3116333333333334,0.6149233333333334,5,4,"NIGHT_CLEAR,NIGHT_MIST,NIGHT_MIST,CLEAR,MIST,MIST,CLEAR,CLEAR,CLEAR,CLEAR","Cross-shore,Offshore,Offshore,Cross-shore,Cross-shore,Cross-shore,Cross-shore,Cross-shore,Cross-shore,Cross-shore",10
5842041f4e65fad6a77089de,2024_02_02,43.545359,-70.30479,Scarborough Beach State Park,1.783,0.36858175000000004,0.63322,5,4,"NIGHT_CLEAR,NIGHT_MIST,NIGHT_MIST,CLEAR,CLEAR,CLEAR,CLEAR,CLEAR,CLEAR,CLEAR","Onshore,Offshore,Offshore,Offshore,Offshore,Offshore,Offshore,Offshore,Offshore,Offshore",10
5842041f4e65fad6a77089df,2024_02_02,43.514481,-70.372146,Old Orchard Beach,2,0.3382833333333334,0.6448066666666668,5,4,"NIGHT_CLOUDY,NIGHT_MIST,NIGHT_MIST,MIST,CLEAR,CLEAR,CLEAR,CLEAR,CLEAR,CLEAR","Cross-shore,Offshore,Offshore,Offshore,Offshore,Offshore,Offshore,Offshore,Offshore,Offshore",10
5842041f4e65fad6a77089e0,2024_02_02,43.34711,-70.48165,Gooch's Beach,1.9,0.2532066666666667,0.5582466666666667,5,4,"NIGHT_CLEAR,NIGHT_MIST,NIGHT_MIST,MIST,CLEAR,CLEAR,CLEAR,CLEAR,CLEAR,CLEAR","Onshore,Cross-shore,Offshore,Offshore,Offshore,Offshore,Offshore,Offshore,Offshore,Offshore",10
5842041f4e65fad6a77089e2,2024_02_02,40.58433,-73.62953,Lido Beach,1.9,0.3336133333333334,0.63958,7,6,"NIGHT_CLEAR,NIGHT_LIGHT_SHOWERS_POSSIBLE,NIGHT_CLEAR,NIGHT_OVERCAST,MOSTLY_CLOUDY,CLEAR,MOSTLY_CLOUDY,MOSTLY_CLOUDY,MOSTLY_CLOUDY,MOSTLY_CLOUDY","Onshore,Cross-shore,Onshore,Onshore,Onshore,Offshore,Onshore,Cross-shore,Offshore,Offshore",10
5842041f4e65fad6a77089e3,2024_02_02,43.163135,-70.61689,Long Sands Beach,1.95,0.3500314166666667,0.6431220833333333,5,4,"NIGHT_CLOUDY,NIGHT_MIST,NIGHT_MIST,CLEAR,MIST,CLEAR,CLEAR,CLEAR,CLEAR,CLEAR","Onshore,Cross-shore,Offshore,Offshore,Offshore,Offshore,Offshore,Offshore,Offshore,Offshore",10
5842041f4e65fad6a77089e4,2024_02_02,40.61695351251805,-73.39376,Gilgo Beach,1.15,0.22937333333333335,0.53555,8,6,"NIGHT_MOSTLY_CLOUDY,NIGHT_LIGHT_SHOWERS_POSSIBLE,NIGHT_CLEAR,NIGHT_MOSTLY_CLOUDY,MOSTLY_CLOUDY,MOSTLY_CLOUDY,CLEAR,MOSTLY_CLOUDY,CLEAR,CLEAR","Onshore,Onshore,Onshore,Onshore,Offshore,Offshore,Offshore,Offshore,Offshore,Offshore",10
5842041f4e65fad6a77089e5,2024_02_02,40.62530081928036,-73.23827,Robert Moses,1.6,0.068,0.373,5.3,5.3,"NIGHT_CLEAR,NIGHT_LIGHT_SHOWERS_POSSIBLE,NIGHT_CLEAR,NIGHT_CLEAR,MOSTLY_CLOUDY,MOSTLY_CLEAR,MIST,CLEAR,CLEAR,CLEAR","Onshore,Onshore,Cross-shore,Cross-shore,Offshore,Offshore,Offshore,Offshore,Offshore,Offshore",10
5842041f4e65fad6a77089e6,2024_02_02,40.64313317632791,-73.15727,Fire Island,1.5,0.068,0.373,5.3,5.3,"NIGHT_CLEAR,NIGHT_LIGHT_SHOWERS_POSSIBLE,NIGHT_CLEAR,NIGHT_CLEAR,CLEAR,CLEAR,MIST,CLEAR,CLEAR,CLEAR","Onshore,Onshore,Cross-shore,Cross-shore,Offshore,Offshore,Offshore,Offshore,Offshore,Offshore",10
5842041f4e65fad6a77089e8,2024_02_02,40.76653118828782,-72.74579619372713,Cupsogue,1.7,0.225,0.53,5.3,5.3,"NIGHT_CLOUDY,NIGHT_LIGHT_SHOWERS_POSSIBLE,NIGHT_OVERCAST,CLEAR,CLOUDY,MOSTLY_CLOUDY,CLEAR,CLEAR,CLEAR,CLEAR","Onshore,Onshore,Cross-shore,Cross-shore,Offshore,Offshore,Offshore,Offshore,Offshore,Offshore",10
5842041f4e65fad6a77089e9,2024_02_02,42.9376373334092,-70.79141,The Wall ,1.5030000000000001,0.34505440000000004,0.6553518500000001,6,4,"NIGHT_CLOUDY,NIGHT_MIST,NIGHT_MIST,MIST,MIST,CLOUDY,CLEAR,CLEAR,CLEAR,CLEAR","Cross-shore,Offshore,Offshore,Cross-shore,Cross-shore,Cross-shore,Cross-shore,Cross-shore,Cross-shore,Onshore",10
5842041f4e65fad6a77089ea,2024_02_02,40.887088,-72.33856,Flys,1.7,0.188,0.491,5.3,5.3,"NIGHT_CLEAR,NIGHT_LIGHT_SHOWERS_POSSIBLE,NIGHT_OVERCAST,CLEAR,CLEAR,CLEAR,CLEAR,CLEAR,CLEAR,CLEAR","Onshore,Onshore,Cross-shore,Cross-shore,Offshore,Offshore,Offshore,Offshore,Offshore,Offshore",10
5842041f4e65fad6a77089eb,2024_02_02,41.0389266436591,-71.91068529316958,Trailer Park,2.075,0.5279880833333334,0.8708878333333333,8,6,"NIGHT_CLEAR,NIGHT_CLEAR,NIGHT_CLEAR,CLEAR,CLEAR,CLEAR,MOSTLY_CLOUDY,CLEAR,CLEAR,CLEAR","Onshore,Onshore,Cross-shore,Cross-shore,Offshore,Offshore,Offshore,Offshore,Offshore,Offshore",10
5842041f4e65fad6a77089ec,2024_02_02,41.039505402729105,-71.9142,Ditch Plains,1.9,0.340663,0.532285,5.3,5.3,"NIGHT_CLEAR,NIGHT_MIST,NIGHT_BRIEF_SHOWERS_POSSIBLE,CLEAR,CLEAR,CLEAR,MOSTLY_CLOUDY,CLEAR,CLEAR,CLEAR","Cross-shore,Cross-shore,Offshore,Offshore,Offshore,Offshore,Offshore,Offshore,Offshore,Offshore",10
5842041f4e65fad6a77089ee,2024_02_02,40.57633275206492,-73.56895305108567,"West End, Jones Beach",1.45,0.23267666666666667,0.5409366666666667,7,6,"NIGHT_MOSTLY_CLOUDY,NIGHT_LIGHT_SHOWERS_POSSIBLE,NIGHT_CLEAR,NIGHT_OVERCAST,OVERCAST,MOSTLY_CLOUDY,MOSTLY_CLOUDY,MOSTLY_CLOUDY,MOSTLY_CLOUDY,MOSTLY_CLOUDY","Onshore,Onshore,Onshore,Onshore,Offshore,Offshore,Offshore,Offshore,Offshore,Offshore",10
5842041f4e65fad6a77089f1,2024_02_02,41.038286691230795,-71.91991567611694,Poles,2.075,0.52832,0.8686105,8,6,"NIGHT_CLEAR,NIGHT_CLEAR,NIGHT_CLEAR,CLEAR,CLEAR,CLEAR,MOSTLY_CLOUDY,CLEAR,CLEAR,CLEAR","Onshore,Onshore,Cross-shore,Cross-shore,Offshore,Offshore,Offshore,Offshore,Offshore,Offshore",10
5842041f4e65fad6a77089f3,2024_02_02,40.84077769766295,-72.47989493724765,The Bowl,1.7,0.177,0.48,5.3,5.3,"NIGHT_CLEAR,NIGHT_LIGHT_SHOWERS_POSSIBLE,NIGHT_OVERCAST,CLEAR,CLEAR,CLEAR,CLOUDY,CLEAR,CLEAR,CLEAR","Onshore,Onshore,Cross-shore,Cross-shore,Offshore,Offshore,Offshore,Offshore,Offshore,Offshore",10
5842041f4e65fad6a77089f4,2024_02_02,40.94235535243154,-72.19286,Main Beach,1.6,0.43010333333333334,0.8077533333333333,14,13,"NIGHT_CLEAR,NIGHT_BRIEF_SHOWERS_POSSIBLE,NIGHT_CLEAR,CLEAR,CLEAR,CLEAR,CLEAR,MOSTLY_CLEAR,CLEAR,CLEAR","Onshore,Onshore,Onshore,Cross-shore,Offshore,Offshore,Offshore,Offshore,Offshore,Offshore",10
5842041f4e65fad6a77089f5,2024_02_02,40.58270702399518,-73.67251552079799,Laurelton Blvd.,0.758,0.11702299999999999,0.4202334166666667,7,6,"NIGHT_CLEAR,NIGHT_LIGHT_SHOWERS_POSSIBLE,NIGHT_CLEAR,NIGHT_MOSTLY_CLOUDY,MOSTLY_CLOUDY,CLEAR,MOSTLY_CLOUDY,MOSTLY_CLOUDY,MOSTLY_CLOUDY,CLEAR","Onshore,Cross-shore,Onshore,Onshore,Onshore,Offshore,Cross-shore,Offshore,Offshore,Offshore",10
5842041f4e65fad6a77089f6,2024_02_02,41.033752854071416,-71.93695522488403,Terrace,2.075,0.5289866666666667,0.8721366666666667,8,6,"NIGHT_CLOUDY,NIGHT_CLOUDY,NIGHT_CLEAR,MOSTLY_CLOUDY,CLEAR,CLEAR,MOSTLY_CLOUDY,CLEAR,MIST,MIST","Onshore,Onshore,Cross-shore,Cross-shore,Offshore,Offshore,Offshore,Offshore,Offshore,Offshore",10
5842041f4e65fad6a77089f7,2024_02_02,40.83372943645748,-72.50426173210144,K Road,1.7,0.244,0.55,5.3,5.3,"NIGHT_CLOUDY,NIGHT_LIGHT_SHOWERS_POSSIBLE,NIGHT_CLOUDY,MOSTLY_CLEAR,MOSTLY_CLOUDY,CLEAR,CLOUDY,CLEAR,CLEAR,CLEAR","Onshore,Onshore,Cross-shore,Cross-shore,Offshore,Offshore,Offshore,Offshore,Offshore,Offshore",10
5842041f4e65fad6a77089f8,2024_02_02,40.58456099581507,-73.80730032920837,84th Street,1.983,0.4113966666666667,0.7134466666666667,7,6,"NIGHT_CLEAR,NIGHT_LIGHT_SHOWERS_POSSIBLE,NIGHT_MIST,NIGHT_MIST,FOG,MIST,MOSTLY_CLOUDY,MOSTLY_CLOUDY,MOSTLY_CLOUDY,CLEAR","Onshore,Onshore,Onshore,Onshore,Cross-shore,Offshore,Offshore,Offshore,Offshore,Offshore",10
5842041f4e65fad6a77089fa,2024_02_02,40.1319,-74.02788,Sea Girt,2.217,0.46510333333333337,0.8484366666666666,5,4,"NIGHT_CLEAR,NIGHT_LIGHT_SHOWERS_POSSIBLE,NIGHT_LIGHT_SHOWERS_POSSIBLE,NIGHT_LIGHT_SHOWERS_POSSIBLE,DRIZZLE,OVERCAST,LIGHT_RAIN,DRIZZLE,OVERCAST,MOSTLY_CLOUDY","Offshore,Offshore,Onshore,Offshore,Offshore,Offshore,Offshore,Offshore,Cross-shore,Cross-shore",10
5842041f4e65fad6a77089fb,2024_02_02,40.54698301868125,-73.9268,Breezy Point,1.8,0.07500000000000001,0.379,5,5,"NIGHT_CLEAR,NIGHT_LIGHT_SHOWERS_POSSIBLE,NIGHT_MIST,NIGHT_FOG,MIST,MIST,MOSTLY_CLOUDY,MOSTLY_CLOUDY,MOSTLY_CLOUDY,MOSTLY_CLOUDY","Onshore,Onshore,Onshore,Onshore,Cross-shore,Offshore,Offshore,Offshore,Offshore,Offshore",10
5842041f4e65fad6a77089fc,2024_02_02,40.152504,-74.021383,Spring Lake,2.217,0.4649366666666667,0.8571599999999999,5,4,"NIGHT_CLEAR,NIGHT_LIGHT_SHOWERS_POSSIBLE,NIGHT_LIGHT_SHOWERS_POSSIBLE,NIGHT_FOG,DRIZZLE,OVERCAST,LIGHT_RAIN,DRIZZLE,OVERCAST,MOSTLY_CLOUDY","Offshore,Offshore,Onshore,Offshore,Offshore,Offshore,Offshore,Offshore,Cross-shore,Cross-shore",10
5842041f4e65fad6a77089fd,2024_02_02,40.591277,-73.770792,30th - 39th Streets,1.333,0.20484333333333335,0.5157433333333333,7,6,"NIGHT_CLEAR,NIGHT_LIGHT_SHOWERS_POSSIBLE,NIGHT_MIST,NIGHT_MOSTLY_CLOUDY,FOG,MIST,MOSTLY_CLOUDY,MOSTLY_CLOUDY,MOSTLY_CLOUDY,CLEAR","Onshore,Onshore,Onshore,Cross-shore,Offshore,Offshore,Offshore,Offshore,Offshore,Offshore",10
5842041f4e65fad6a77089fe,2024_02_02,40.18834955871439,-74.00860982500222,Avon,2.6,0.47977000000000003,0.8725766666666667,5,4,"NIGHT_CLEAR,NIGHT_LIGHT_SHOWERS_POSSIBLE,NIGHT_LIGHT_SHOWERS_POSSIBLE,NIGHT_FOG,FOG,CLOUDY,LIGHT_RAIN,DRIZZLE,OVERCAST,MOSTLY_CLOUDY","Offshore,Offshore,Onshore,Offshore,Offshore,Offshore,Offshore,Offshore,Cross-shore,Cross-shore",10
5842041f4e65fad6a77089ff,2024_02_02,40.1974229100932,-74.00650533798255,Bradley Beach,2.6,0.48602,0.87941,5,4,"NIGHT_CLEAR,NIGHT_LIGHT_SHOWERS_POSSIBLE,NIGHT_LIGHT_SHOWERS_POSSIBLE,NIGHT_FOG,FOG,CLOUDY,LIGHT_RAIN,DRIZZLE,OVERCAST,MOSTLY_CLOUDY","Offshore,Onshore,Onshore,Offshore,Offshore,Offshore,Offshore,Offshore,Cross-shore,Cross-shore",10
5842041f4e65fad6a7708a01,2024_02_02,40.17202,-74.01503,"16th Ave., Belmar",2.1,0.6086,0.9867266666666666,5,4,"NIGHT_CLEAR,NIGHT_LIGHT_SHOWERS_POSSIBLE,NIGHT_LIGHT_SHOWERS_POSSIBLE,NIGHT_FOG,FOG,CLOUDY,LIGHT_RAIN,DRIZZLE,OVERCAST,MOSTLY_CLOUDY","Offshore,Onshore,Onshore,Offshore,Offshore,Offshore,Offshore,Offshore,Cross-shore,Cross-shore",10
5842041f4e65fad6a7708a02,2024_02_02,40.217443,-73.99982,Asbury Park,2.217,0.46835333333333334,0.8621599999999999,5,4,"NIGHT_CLEAR,NIGHT_LIGHT_SHOWERS_POSSIBLE,NIGHT_LIGHT_SHOWERS_POSSIBLE,NIGHT_FOG,CLOUDY,CLOUDY,LIGHT_RAIN,DRIZZLE,OVERCAST,MOSTLY_CLOUDY","Offshore,Offshore,Onshore,Offshore,Offshore,Offshore,Offshore,Offshore,Cross-shore,Cross-shore",10
5842041f4e65fad6a7708a03,2024_02_02,40.229841,-73.996782,Loch Arbour and Deal,2.083,0.4543533333333334,0.8445766666666666,5,4,"NIGHT_CLEAR,NIGHT_LIGHT_SHOWERS_POSSIBLE,NIGHT_LIGHT_SHOWERS_POSSIBLE,NIGHT_FOG,MIST,MIST,LIGHT_RAIN,DRIZZLE,CLOUDY,MOSTLY_CLOUDY","Cross-shore,Cross-shore,Onshore,Onshore,Onshore,Onshore,Onshore,Cross-shore,Cross-shore,Cross-shore",10
5842041f4e65fad6a7708a05,2024_02_02,40.41754,-73.97935,Sandy Hook,1.9,0.034,0.33799999999999997,5,5,"NIGHT_CLEAR,NIGHT_LIGHT_SHOWERS_POSSIBLE,NIGHT_FOG,NIGHT_FOG,FOG,MIST,MIST,CLEAR,MOSTLY_CLOUDY,MOSTLY_CLOUDY","Offshore,Cross-shore,Onshore,Onshore,Onshore,Onshore,Cross-shore,Cross-shore,Cross-shore,Cross-shore",10
5842041f4e65fad6a7708a06,2024_02_02,39.36353,-74.40873,Crystals,1.867,0.5287381666666667,0.8918776666666667,5,4,"NIGHT_CLEAR,NIGHT_OVERCAST,NIGHT_DRIZZLE,NIGHT_LIGHT_SHOWERS_POSSIBLE,MIST,MIST,MIST,MIST,MIST,OVERCAST","Onshore,Onshore,Onshore,Cross-shore,Cross-shore,Cross-shore,Offshore,Offshore,Offshore,Offshore",10
5842041f4e65fad6a7708a07,2024_02_02,39.31443,-74.51863,32nd Street,1.9,0.6098986666666667,0.9885291666666667,5,4,"NIGHT_CLEAR,NIGHT_OVERCAST,NIGHT_DRIZZLE,NIGHT_LIGHT_SHOWERS_POSSIBLE,MIST,MIST,MIST,MIST,MIST,MIST","Onshore,Onshore,Onshore,Offshore,Cross-shore,Cross-shore,Offshore,Offshore,Offshore,Offshore",10
5842041f4e65fad6a7708a08,2024_02_02,39.327688,-74.49524,Margate Pier Northside,1.85,0.6098986666666667,0.9885291666666667,5,4,"NIGHT_CLEAR,NIGHT_OVERCAST,NIGHT_DRIZZLE,NIGHT_LIGHT_SHOWERS_POSSIBLE,MIST,MIST,MIST,MIST,MIST,MIST","Onshore,Onshore,Onshore,Offshore,Cross-shore,Cross-shore,Offshore,Offshore,Offshore,Offshore",10
5842041f4e65fad6a7708a09,2024_02_02,39.336276,-74.47782,Ventnor Pier,2,0.5225815833333334,0.8822556666666667,5,4,"NIGHT_CLEAR,NIGHT_OVERCAST,NIGHT_DRIZZLE,NIGHT_LIGHT_SHOWERS_POSSIBLE,MIST,MIST,MIST,MIST,MIST,MIST","Onshore,Onshore,Onshore,Offshore,Offshore,Offshore,Offshore,Offshore,Offshore,Offshore",10
5842041f4e65fad6a7708a0a,2024_02_02,39.35929751441085,-74.41683,States Avenue,1.9,0.5287381666666667,0.8918776666666667,5,4,"NIGHT_CLEAR,NIGHT_OVERCAST,NIGHT_DRIZZLE,NIGHT_LIGHT_SHOWERS_POSSIBLE,MIST,MIST,MIST,MIST,MIST,OVERCAST","Onshore,Onshore,Onshore,Offshore,Cross-shore,Cross-shore,Offshore,Offshore,Offshore,Offshore",10
5842041f4e65fad6a7708a0b,2024_02_02,39.37274173278517,-74.40454,Brigantine Jetty,2.017,0.51774025,0.8746950833333333,5,4,"NIGHT_CLEAR,NIGHT_OVERCAST,NIGHT_DRIZZLE,NIGHT_LIGHT_SHOWERS_POSSIBLE,MIST,MIST,MIST,MIST,MIST,OVERCAST","Onshore,Onshore,Onshore,Offshore,Offshore,Offshore,Offshore,Offshore,Offshore,Offshore",10
5842041f4e65fad6a7708a0c,2024_02_02,39.356505,-74.42263,South Carolina Avenue,2.017,0.51774025,0.8746950833333333,5,4,"NIGHT_CLEAR,NIGHT_OVERCAST,NIGHT_DRIZZLE,NIGHT_LIGHT_SHOWERS_POSSIBLE,MIST,MIST,MIST,MIST,MIST,OVERCAST","Onshore,Onshore,Onshore,Offshore,Offshore,Offshore,Offshore,Offshore,Offshore,Offshore",10
5842041f4e65fad6a7708a0d,2024_02_02,39.413485,-74.35476,14th Street North,1.867,0.5444366666666667,0.9346599999999999,5,4,"NIGHT_CLEAR,NIGHT_OVERCAST,NIGHT_LIGHT_RAIN,NIGHT_LIGHT_SHOWERS_POSSIBLE,MIST,DRIZZLE,MIST,DRIZZLE,MIST,OVERCAST","Cross-shore,Onshore,Onshore,Cross-shore,Cross-shore,Cross-shore,Offshore,Offshore,Offshore,Offshore",10
5842041f4e65fad6a7708a0e,2024_02_02,39.531319,-74.263252,The Wooden Jetty,2.341,0.7607266666666667,1.1429403333333334,5,4,"NIGHT_CLEAR,NIGHT_DRIZZLE,NIGHT_LIGHT_RAIN,NIGHT_LIGHT_SHOWERS_POSSIBLE,MIST,MIST,MIST,MIST,MIST,DRIZZLE","Onshore,Onshore,Onshore,Onshore,Cross-shore,Cross-shore,Offshore,Offshore,Offshore,Offshore",10
5842041f4e65fad6a7708a0f,2024_02_02,39.552472,-74.24344,Holyoke,2.341,0.7602791666666666,1.1403154166666667,5,4,"NIGHT_CLEAR,NIGHT_DRIZZLE,NIGHT_LIGHT_RAIN,NIGHT_LIGHT_SHOWERS_POSSIBLE,MIST,MIST,MIST,MIST,MIST,DRIZZLE","Cross-shore,Onshore,Onshore,Onshore,Cross-shore,Cross-shore,Cross-shore,Cross-shore,Cross-shore,Cross-shore",10
5842041f4e65fad6a7708a10,2024_02_02,39.692364,-74.14068,Hudson Ave.,2.691,0.7905633333333333,1.1580733333333333,5,4,"NIGHT_MOSTLY_CLOUDY,NIGHT_DRIZZLE,NIGHT_LIGHT_SHOWERS_POSSIBLE,NIGHT_LIGHT_SHOWERS_POSSIBLE,CLOUDY,DRIZZLE,DRIZZLE,LIGHT_RAIN,DRIZZLE,DRIZZLE","Onshore,Onshore,Onshore,Onshore,Cross-shore,Cross-shore,Offshore,Offshore,Offshore,Offshore",10
5842041f4e65fad6a7708a11,2024_02_02,39.79614,-74.09248,Island Beach State Park,1.95,0.6397166666666667,0.9528666666666666,5,4,"NIGHT_CLEAR,NIGHT_LIGHT_RAIN,NIGHT_LIGHT_SHOWERS_POSSIBLE,NIGHT_LIGHT_SHOWERS_POSSIBLE,CLOUDY,CLOUDY,LIGHT_RAIN,LIGHT_RAIN,DRIZZLE,OVERCAST","Cross-shore,Cross-shore,Onshore,Cross-shore,Onshore,Onshore,Cross-shore,Cross-shore,Cross-shore,Cross-shore",10
5842041f4e65fad6a7708a12,2024_02_02,39.91813588078152,-74.07527,Seaside Park,1.665,0.6237166666666667,0.9373666666666667,5,4,"NIGHT_CLEAR,NIGHT_LIGHT_RAIN_AND_FOG,NIGHT_LIGHT_SHOWERS_POSSIBLE,NIGHT_LIGHT_SHOWERS_POSSIBLE,MIST,MIST,DRIZZLE,LIGHT_RAIN,DRIZZLE,CLOUDY","Cross-shore,Cross-shore,Onshore,Onshore,Onshore,Onshore,Cross-shore,Cross-shore,Cross-shore,Cross-shore",10
5842041f4e65fad6a7708a14,2024_02_02,39.946638,-74.06884,Seaside Heights,2.15,0.5257166666666667,0.8366166666666667,5,4,"NIGHT_CLEAR,NIGHT_LIGHT_SHOWERS_POSSIBLE,NIGHT_LIGHT_SHOWERS_POSSIBLE,NIGHT_LIGHT_SHOWERS_POSSIBLE,MIST,DRIZZLE,LIGHT_RAIN,LIGHT_RAIN,DRIZZLE,CLOUDY","Cross-shore,Cross-shore,Onshore,Onshore,Onshore,Onshore,Cross-shore,Cross-shore,Cross-shore,Cross-shore",10
5842041f4e65fad6a7708a15,2024_02_02,39.95745637606704,-74.06736,Ortley Beach,1.934,0.4859666666666667,0.8697166666666666,5,4,"NIGHT_CLEAR,NIGHT_LIGHT_SHOWERS_POSSIBLE,NIGHT_LIGHT_SHOWERS_POSSIBLE,NIGHT_LIGHT_SHOWERS_POSSIBLE,MIST,DRIZZLE,LIGHT_RAIN,LIGHT_RAIN,DRIZZLE,CLOUDY","Cross-shore,Cross-shore,Onshore,Onshore,Onshore,Onshore,Cross-shore,Cross-shore,Cross-shore,Cross-shore",10
5842041f4e65fad6a7708a16,2024_02_02,39.98313468342945,-74.06265685577506,Lavallette,2.083,0.4967166666666667,0.8802166666666666,5,4,"NIGHT_CLEAR,NIGHT_LIGHT_SHOWERS_POSSIBLE,NIGHT_LIGHT_SHOWERS_POSSIBLE,NIGHT_LIGHT_SHOWERS_POSSIBLE,MIST,DRIZZLE,LIGHT_RAIN,LIGHT_RAIN,DRIZZLE,CLOUDY","Cross-shore,Cross-shore,Onshore,Onshore,Onshore,Onshore,Cross-shore,Cross-shore,Cross-shore,Cross-shore",10
5842041f4e65fad6a7708a17,2024_02_02,40.0699319967757,-74.04144910856634,Bay Head,2.017,0.49955,0.8818833333333334,5,4,"NIGHT_CLEAR,NIGHT_LIGHT_SHOWERS_POSSIBLE,NIGHT_LIGHT_SHOWERS_POSSIBLE,NIGHT_LIGHT_SHOWERS_POSSIBLE,CLOUDY,DRIZZLE,LIGHT_RAIN,DRIZZLE,DRIZZLE,MOSTLY_CLOUDY","Cross-shore,Cross-shore,Onshore,Onshore,Onshore,Onshore,Onshore,Cross-shore,Cross-shore,Cross-shore",10
5842041f4e65fad6a7708a18,2024_02_02,40.094041,-74.034859,Jenkinson's,2.017,0.48355000000000004,0.86805,5,4,"NIGHT_CLEAR,NIGHT_LIGHT_SHOWERS_POSSIBLE,NIGHT_LIGHT_SHOWERS_POSSIBLE,NIGHT_LIGHT_SHOWERS_POSSIBLE,MIST,MIST,LIGHT_RAIN,DRIZZLE,CLOUDY,MOSTLY_CLOUDY","Cross-shore,Cross-shore,Onshore,Onshore,Onshore,Onshore,Cross-shore,Cross-shore,Cross-shore,Cross-shore",10
5842041f4e65fad6a7708a1a,2024_02_02,38.148058,-75.17704,Assateague,1.8,0.5966866666666667,0.9905766666666667,6,4,"NIGHT_CLEAR,NIGHT_CLEAR,NIGHT_CLEAR,NIGHT_MOSTLY_CLOUDY,CLEAR,CLEAR,CLEAR,CLEAR,CLEAR,CLEAR","Cross-shore,Cross-shore,Cross-shore,Offshore,Offshore,Offshore,Offshore,Offshore,Offshore,Offshore",10
5842041f4e65fad6a7708a1b,2024_02_02,38.33889038664497,-75.08017670566352,North End to Ocean City Inlet,2.15,0.62002,1.01541,6,4,"NIGHT_CLEAR,NIGHT_CLOUDY,NIGHT_CLEAR,NIGHT_CLEAR,MOSTLY_CLOUDY,CLEAR,MOSTLY_CLOUDY,MOSTLY_CLOUDY,CLEAR,MOSTLY_CLOUDY","Offshore,Offshore,Offshore,Offshore,Offshore,Cross-shore,Offshore,Cross-shore,Cross-shore,Cross-shore",10
5842041f4e65fad6a7708a1c,2024_02_02,38.603993,-75.06271,Indian River Inlet,1.783,0.572126,0.9596688333333333,6,4,"NIGHT_CLEAR,NIGHT_CLEAR,NIGHT_CLEAR,NIGHT_OVERCAST,CLEAR,MOSTLY_CLOUDY,CLOUDY,OVERCAST,OVERCAST,MOSTLY_CLOUDY","Cross-shore,Cross-shore,Offshore,Offshore,Offshore,Offshore,Offshore,Offshore,Offshore,Offshore",10
5842041f4e65fad6a7708a1d,2024_02_02,38.460477,-75.052069,Fenwick Island,1.767,0.4794366666666667,0.8735766666666667,6,4,"NIGHT_CLEAR,NIGHT_OVERCAST,NIGHT_CLEAR,NIGHT_MOSTLY_CLOUDY,MOSTLY_CLOUDY,CLEAR,MOSTLY_CLOUDY,MOSTLY_CLOUDY,MIST,MOSTLY_CLOUDY","Offshore,Offshore,Offshore,Offshore,Cross-shore,Cross-shore,Offshore,Cross-shore,Cross-shore,Cross-shore",10
5842041f4e65fad6a7708a1e,2024_02_02,38.538767,-75.05619,Bethany Beach,1.866,0.5731219166666667,0.9612243333333333,6,4,"NIGHT_CLEAR,NIGHT_CLEAR,NIGHT_CLEAR,NIGHT_CLOUDY,CLEAR,CLEAR,CLOUDY,OVERCAST,MOSTLY_CLOUDY,MOSTLY_CLOUDY","Cross-shore,Cross-shore,Offshore,Offshore,Offshore,Offshore,Offshore,Offshore,Offshore,Offshore",10
5842041f4e65fad6a7708a1f,2024_02_02,38.697657,-75.075951,Dewey Beach,1.799,0.55427,0.9477433333333333,6,4,"NIGHT_CLEAR,NIGHT_CLEAR,NIGHT_MOSTLY_CLOUDY,NIGHT_MOSTLY_CLOUDY,MOSTLY_CLEAR,CLEAR,CLOUDY,MOSTLY_CLOUDY,MOSTLY_CLOUDY,MOSTLY_CLOUDY","Offshore,Offshore,Offshore,Cross-shore,Cross-shore,Cross-shore,Cross-shore,Cross-shore,Cross-shore,Cross-shore",10
5842041f4e65fad6a7708a20,2024_02_02,38.75034741676525,-75.08194,Gordons Pond,1.8,0.5013733333333333,0.8491209166666667,6,4,"NIGHT_CLEAR,NIGHT_CLEAR,NIGHT_MOSTLY_CLOUDY,NIGHT_BRIEF_SHOWERS,CLEAR,CLEAR,OVERCAST,MIST,MIST,BRIEF_SHOWERS","Cross-shore,Cross-shore,Offshore,Offshore,Offshore,Offshore,Offshore,Offshore,Offshore,Offshore",10
5842041f4e65fad6a7708a21,2024_02_02,38.767837,-75.082841,Naval Jetties,1.799,0.5311033333333334,0.9245766666666666,6,4,"NIGHT_CLEAR,NIGHT_CLEAR,NIGHT_MOSTLY_CLOUDY,NIGHT_BRIEF_SHOWERS,CLEAR,CLEAR,OVERCAST,MIST,MIST,BRIEF_SHOWERS","Offshore,Offshore,Offshore,Cross-shore,Cross-shore,Cross-shore,Cross-shore,Cross-shore,Cross-shore,Cross-shore",10
5842041f4e65fad6a7708a22,2024_02_02,36.81735875786576,-75.96624,Camp Pendleton,1.95,0.6066,0.91365,8,6,"NIGHT_CLEAR,NIGHT_CLEAR,NIGHT_CLEAR,NIGHT_CLEAR,CLEAR,CLEAR,CLEAR,CLEAR,CLEAR,CLEAR","Cross-shore,Offshore,Offshore,Offshore,Offshore,Offshore,Offshore,Offshore,Offshore,Cross-shore",10
5842041f4e65fad6a7708a23,2024_02_02,36.9102212316428,-75.98732471466064,North End,1.887,0.48661333333333334,0.7920633333333333,8,6,"NIGHT_CLEAR,NIGHT_CLEAR,NIGHT_CLEAR,NIGHT_CLEAR,CLEAR,CLEAR,CLEAR,CLEAR,CLEAR,CLEAR","Cross-shore,Offshore,Offshore,Offshore,Offshore,Offshore,Offshore,Offshore,Offshore,Offshore",10
5842041f4e65fad6a7708a24,2024_02_02,36.737117517621314,-75.93923719853362,Sandbridge Beach,2.133,0.55333,0.9379,8,6,"NIGHT_CLEAR,NIGHT_CLEAR,NIGHT_CLEAR,NIGHT_CLEAR,CLEAR,CLEAR,CLEAR,CLEAR,CLEAR,CLEAR","Cross-shore,Offshore,Offshore,Offshore,Offshore,Offshore,Offshore,Offshore,Offshore,Cross-shore",10
5842041f4e65fad6a7708a26,2024_02_02,36.818257440557794,-75.96666,Croatan to Pendleton,1.93,0.6095166666666667,0.9140666666666667,8,6,"NIGHT_CLEAR,NIGHT_CLEAR,NIGHT_CLEAR,NIGHT_CLEAR,CLEAR,CLEAR,CLEAR,CLEAR,CLEAR,CLEAR","Cross-shore,Offshore,Offshore,Offshore,Offshore,Offshore,Offshore,Offshore,Offshore,Cross-shore",10
5842041f4e65fad6a7708a27,2024_02_02,36.84318777204769,-75.9719,South End,1.783,0.49243333333333333,0.80403,8,6,"NIGHT_CLEAR,NIGHT_CLEAR,NIGHT_CLEAR,NIGHT_CLEAR,CLEAR,CLEAR,CLEAR,CLEAR,CLEAR,CLEAR","Cross-shore,Offshore,Offshore,Offshore,Offshore,Offshore,Offshore,Offshore,Offshore,Offshore",10
5842041f4e65fad6a7708a28,2024_02_02,37.08612627584661,-75.976121638199,Fishermans Island,1,0.1388,0.2604,7,7,"NIGHT_CLEAR,NIGHT_CLEAR,NIGHT_CLEAR,NIGHT_CLEAR,CLEAR,CLEAR,CLEAR,CLEAR,CLEAR,CLEAR","Onshore,Onshore,Cross-shore,Offshore,Offshore,Offshore,Offshore,Offshore,Offshore,Offshore",10
5842041f4e65fad6a7708a38,2024_02_02,35.254619418229026,-75.52074,Cape Hatteras Lighthouse,4.258,1.1387141666666667,1.58619975,12,11,"NIGHT_CLEAR,NIGHT_CLEAR,NIGHT_CLEAR,CLEAR,CLEAR,CLEAR,CLEAR,CLEAR,CLEAR,CLEAR","Offshore,Offshore,Offshore,Offshore,Offshore,Offshore,Offshore,Offshore,Offshore,Offshore",10
5842041f4e65fad6a7708a3a,2024_02_02,35.54572934093336,-75.46477,Waves and Salvo,3.034,1.26504,1.62372,11,9,"NIGHT_CLEAR,NIGHT_CLEAR,NIGHT_CLEAR,NIGHT_CLEAR,CLEAR,CLEAR,CLEAR,CLEAR,CLEAR,CLEAR","Cross-shore,Offshore,Offshore,Offshore,Offshore,Offshore,Offshore,Offshore,Offshore,Offshore",10
5842041f4e65fad6a7708a3b,2024_02_02,35.22565892751075,-75.63606,Frisco,1.1,0.50194,0.7782666666666667,13,12,"NIGHT_CLEAR,NIGHT_CLEAR,NIGHT_CLEAR,NIGHT_CLEAR,CLEAR,CLEAR,CLEAR,CLEAR,CLEAR,CLEAR","Offshore,Cross-shore,Cross-shore,Cross-shore,Cross-shore,Cross-shore,Cross-shore,Cross-shore,Cross-shore,Cross-shore",10
5842041f4e65fad6a7708a3c,2024_02_02,35.13086,-75.90591,Ocracoke,1.1,0.468627,0.732228,13.3,13.3,"NIGHT_CLEAR,NIGHT_CLEAR,NIGHT_CLEAR,NIGHT_CLEAR,CLEAR,CLEAR,CLEAR,CLEAR,CLEAR,CLEAR","Cross-shore,Cross-shore,Cross-shore,Cross-shore,Cross-shore,Cross-shore,Cross-shore,Cross-shore,Cross-shore,Cross-shore",10
5842041f4e65fad6a7708a3d,2024_02_02,35.34721340158342,-75.50084,Avon Pier,4.033,1.2949233333333334,1.6823966666666665,11,9,"NIGHT_CLEAR,NIGHT_CLEAR,NIGHT_CLEAR,NIGHT_CLEAR,CLEAR,CLEAR,CLEAR,CLEAR,CLEAR,CLEAR","Cross-shore,Offshore,Offshore,Offshore,Offshore,Offshore,Offshore,Offshore,Offshore,Offshore",10
