_id,date,lat,lon,name,daily_mean_swell_rating,daily_mean_wave_height_min,daily_mean_wave_height_max,daily_mean_water_temperature_max,daily_mean_water_temperature_min,weather_per_timestamp,wind_per_timestamp,n_samples_per_day
5842041f4e65fad6a77087f9,2024_12_15,37.741668,-122.51038,South Ocean Beach,1,3.1679633333333332,4.128333333333333,12,12,"CLEAR,NIGHT_CLEAR,NIGHT_CLEAR","Onshore,Onshore,Cross-shore",3
5842041f4e65fad6a7708801,2024_12_15,37.49142,-122.50428,Maverick's,NA,3.1391666666666667,3.9775,12,12,"CLEAR,NIGHT_MOSTLY_CLOUDY,NIGHT_MOSTLY_CLOUDY","Cross-shore,Offshore,Offshore",3
5842041f4e65fad6a7708804,2024_12_15,44.997,-124.018,Roads End,1,4.723333333333334,5.423333333333334,11,11,"CLEAR,NIGHT_MOSTLY_CLOUDY,NIGHT_CLEAR","Onshore,Onshore,Onshore",3
5842041f4e65fad6a7708805,2024_12_15,36.95188851423011,-122.02522,Steamer Lane,3.1666666666666665,1.8093733333333333,2.48102,12,12,"CLEAR,NIGHT_CLEAR,NIGHT_MIST","Offshore,Offshore,Offshore",3
5842041f4e65fad6a7708806,2024_12_15,36.95918781542251,-122.02489,Cowells,2.1666666666666665,0.45667,0.76013,12,12,"CLEAR,NIGHT_CLEAR,NIGHT_MIST","Offshore,Cross-shore,Offshore",3
5842041f4e65fad6a7708807,2024_12_15,36.95468082526536,-121.97234,Pleasure Point,2.8333333333333335,1.9196466666666667,2.38802,12,12,"CLEAR,NIGHT_CLEAR,NIGHT_CLEAR","Offshore,Onshore,Offshore",3
5842041f4e65fad6a770880a,2024_12_15,35.37815414378748,-120.86589,Morro Bay,2.8333333333333335,1.85272,2.4313333333333333,12,12,"MIST,NIGHT_CLEAR,NIGHT_CLEAR","Onshore,Offshore,Onshore",3
5842041f4e65fad6a770880b,2024_12_15,36.95782765000708,-121.96729,Jack's,2.3333333333333335,0.98348,1.2396633333333333,12,12,"CLEAR,NIGHT_CLEAR,NIGHT_CLEAR","Offshore,Onshore,Cross-shore",3
5842041f4e65fad6a770880d,2024_12_15,34.29982939936656,-119.3489016603669,Gold Coast Beachbreaks,2.3333333333333335,0.25666666666666665,0.5633333333333334,15,15,"DRIZZLE,NIGHT_MIST,NIGHT_CLEAR","Offshore,Onshore,Offshore",3
5842041f4e65fad6a7708811,2024_12_15,34.245076,-119.26799,Ventura Harbor,3,1.5018666666666667,1.8003333333333333,13,13,"MIST,NIGHT_MOSTLY_CLEAR,NIGHT_CLEAR","Onshore,Onshore,Cross-shore",3
5842041f4e65fad6a7708813,2024_12_15,34.051,-118.964,County Line,3,0.7885,1.0938333333333334,14,14,"OVERCAST,NIGHT_MOSTLY_CLEAR,NIGHT_MOSTLY_CLOUDY","Cross-shore,Cross-shore,Offshore",3
5842041f4e65fad6a7708814,2024_12_15,34.37256264378892,-119.47797,Rincon,2.6666666666666665,0.63,0.9333333333333333,14,14,"OVERCAST,NIGHT_MIST,NIGHT_CLEAR","Cross-shore,Onshore,Offshore",3
5842041f4e65fad6a7708817,2024_12_15,34.03096101876324,-118.68109,Malibu Third Point,2,0.37548666666666664,0.67479,15,15,"MOSTLY_CLOUDY,NIGHT_CLEAR,NIGHT_CLEAR","Cross-shore,Offshore,Offshore",3
5842041f4e65fad6a7708819,2024_12_15,33.984079047970035,-118.47382,Venice Beach,3,0.7434233333333333,1.06582,14,14,"MIST,NIGHT_CLEAR,NIGHT_CLEAR","Onshore,Onshore,Cross-shore",3
5842041f4e65fad6a770881e,2024_12_15,34.037508438646746,-118.5834,Topanga Beach,3,0.4206666666666667,0.7895,14,14,"MOSTLY_CLOUDY,NIGHT_CLEAR,NIGHT_CLEAR","Onshore,Cross-shore,Offshore",3
5842041f4e65fad6a7708820,2024_12_15,33.73954373690184,-118.11414,Seal Beach Jetty,2.3333333333333335,0.2366666666666667,0.54,14,14,"CLEAR,NIGHT_MOSTLY_CLOUDY,NIGHT_MOSTLY_CLEAR","Onshore,Onshore,Offshore",3
5842041f4e65fad6a7708822,2024_12_15,33.72309983348433,-118.08078,Anderson Street,1.5,0.21966333333333332,0.45028,14,14,"CLEAR,NIGHT_MOSTLY_CLOUDY,NIGHT_MOSTLY_CLEAR","Onshore,Onshore,Offshore",3
5842041f4e65fad6a7708827,2024_12_15,33.65574085629463,-118.00397,Huntington Beach Pier Northside,3,0.8091233333333333,1.1947833333333333,14,14,"CLEAR,NIGHT_MOSTLY_CLOUDY,NIGHT_MOSTLY_CLOUDY","Onshore,Onshore,Cross-shore",3
5842041f4e65fad6a7708828,2024_12_15,34.272041739333,-119.29976,C St.,3,0.8877133333333334,1.13453,13,13,"MIST,NIGHT_CLEAR,NIGHT_CLEAR","Onshore,Cross-shore,Offshore",3
5842041f4e65fad6a770882a,2024_12_15,33.61555743705257,-117.93676,Newport Lower Jetties,2.5,0.5279466666666667,0.92551,14,14,"CLEAR,NIGHT_MOSTLY_CLOUDY,NIGHT_MOSTLY_CLOUDY","Onshore,Cross-shore,Offshore",3
5842041f4e65fad6a770882b,2024_12_15,33.5930302087,-117.88199,The Wedge,1.3333333333333333,0.2866666666666667,0.59,14,14,"CLEAR,NIGHT_MOSTLY_CLOUDY,NIGHT_FOG","Onshore,Cross-shore,Offshore",3
5842041f4e65fad6a770882e,2024_12_15,33.475793399792984,-117.72291,Salt Creek,3,0.8641633333333334,1.26259,14,14,"MIST,NIGHT_CLEAR,NIGHT_FOG","Onshore,Onshore,Onshore",3
5842041f4e65fad6a7708830,2024_12_15,33.41800974113613,-117.61952,T-Street,2.6666666666666665,0.5613066666666666,0.9155633333333334,14,14,"MIST,NIGHT_CLEAR,NIGHT_FOG","Onshore,Cross-shore,Offshore",3
5842041f4e65fad6a7708832,2024_12_15,33.202391008646,-117.39475,Oceanside Harbor,3,0.59361,0.9656,15,15,"CLEAR,NIGHT_CLEAR,NIGHT_FOG","Onshore,Offshore,Offshore",3
5842041f4e65fad6a7708835,2024_12_15,33.19477795952803,-117.38667,Oceanside Pier,3,0.5674133333333333,0.92498,15,15,"CLEAR,NIGHT_CLEAR,NIGHT_MOSTLY_CLOUDY","Onshore,Offshore,Offshore",3
5842041f4e65fad6a7708837,2024_12_15,33.14948100706,-117.35029,Tamarack,2.6666666666666665,0.32115,0.6688566666666667,15,15,"CLEAR,NIGHT_CLEAR,NIGHT_FOG","Onshore,Offshore,Offshore",3
5842041f4e65fad6a7708839,2024_12_15,32.865777159358856,-117.25614,Scripps,3,0.8955666666666667,1.2546833333333334,15,15,"BRIEF_SHOWERS_POSSIBLE,NIGHT_CLEAR,NIGHT_MIST","Onshore,Cross-shore,Offshore",3
5842041f4e65fad6a770883a,2024_12_15,32.813094,-117.27381,Birdrock,3,0.73,0.9666666666666667,15,15,"CLEAR,NIGHT_MIST,NIGHT_FOG","Cross-shore,Offshore,Offshore",3
5842041f4e65fad6a770883b,2024_12_15,32.88338,-117.25571,Blacks,3,0.963,1.2683333333333333,15,15,"BRIEF_SHOWERS_POSSIBLE,NIGHT_CLEAR,NIGHT_MIST","Onshore,Onshore,Onshore",3
5842041f4e65fad6a770883c,2024_12_15,32.82978974229765,-117.28162,Windansea,3,0.8543333333333333,1.2189999999999999,15,15,"CLEAR,NIGHT_MOSTLY_CLOUDY,NIGHT_FOG","Onshore,Offshore,Offshore",3
5842041f4e65fad6a770883d,2024_12_15,32.838278,-117.28396,Horseshoe,2.6666666666666665,0.7433333333333334,1.0466666666666666,15,15,"CLEAR,NIGHT_MIST,NIGHT_FOG","Cross-shore,Offshore,Offshore",3
5842041f4e65fad6a770883f,2024_12_15,32.75034717673179,-117.25337,Ocean Beach,3,1.1436466666666667,1.4508366666666666,15,15,"MIST,NIGHT_CLEAR,NIGHT_FOG","Onshore,Offshore,Offshore",3
5842041f4e65fad6a7708840,2024_12_15,32.73693,-117.25718,Sunset Cliffs,2.3333333333333335,0.70326,1.00989,15,15,"CLEAR,NIGHT_MIST,NIGHT_MOSTLY_CLOUDY","Onshore,Cross-shore,Offshore",3
5842041f4e65fad6a7708841,2024_12_15,32.796582258728826,-117.25779,Pacific Beach,3,1.09327,1.3928533333333333,15,15,"CLEAR,NIGHT_CLEAR,NIGHT_FOG","Cross-shore,Offshore,Offshore",3
5842041f4e65fad6a7708842,2024_12_15,32.776636,-117.25514,Mission Beach,3,0.8385,1.1471666666666667,15,15,"CLEAR,NIGHT_CLEAR,NIGHT_FOG","Onshore,Offshore,Offshore",3
5842041f4e65fad6a7708844,2024_12_15,32.577195519016,-117.13475,Imperial Beach Pier,2.6666666666666665,0.7733333333333333,1.0466666666666666,15,15,"CLEAR,NIGHT_MIST,NIGHT_MOSTLY_CLEAR","Onshore,Cross-shore,Offshore",3
5842041f4e65fad6a770884a,2024_12_15,42.88678181061,-70.80843,Seabrook,2,0.17581,0.52814,8,7,"NIGHT_CLEAR,NIGHT_CLEAR,NIGHT_CLEAR","Offshore,Offshore,Cross-shore",3
5842041f4e65fad6a770884e,2024_12_15,41.434181432898335,-71.45312,Narragansett,0.8333333333333333,0.20096666666666668,0.5117666666666667,9,8,"NIGHT_CLEAR,NIGHT_CLEAR,NIGHT_CLEAR","Offshore,Offshore,Offshore",3
5842041f4e65fad6a7708850,2024_12_15,40.582703230722,-73.65247,Lincoln Blvd,0.8333333333333333,0.29858666666666667,0.5963266666666667,9,8,"NIGHT_CLEAR,NIGHT_CLEAR,NIGHT_CLEAR","Offshore,Offshore,Offshore",3
5842041f4e65fad6a7708852,2024_12_15,40.58342841721757,-73.81182,Rockaways,0.8333333333333333,0.3783433333333333,0.6869066666666667,9,8,"NIGHT_CLEAR,NIGHT_CLEAR,NIGHT_MOSTLY_CLEAR","Offshore,Offshore,Offshore",3
5842041f4e65fad6a7708853,2024_12_15,40.330474,-73.9734,Monmouth Beach,1,0.15916666666666668,0.46453333333333335,9,8,"NIGHT_CLEAR,NIGHT_CLEAR,NIGHT_CLEAR","Cross-shore,Onshore,Onshore",3
5842041f4e65fad6a7708856,2024_12_15,40.113,-74.028,Manasquan Inlet,0.22222222222222218,0.24316666666666667,0.5413,9,8,"NIGHT_CLEAR,NIGHT_CLEAR,NIGHT_CLOUDY","Cross-shore,Onshore,Onshore",3
5842041f4e65fad6a7708857,2024_12_15,39.941519877445664,-74.06829,Casino Pier,0.2222222222222222,0.2415,0.5463,9,8,"NIGHT_CLEAR,NIGHT_CLEAR,NIGHT_CLOUDY","Cross-shore,Onshore,Onshore",3
5842041f4e65fad6a7708858,2024_12_15,39.28223089949212,-74.55766,North End OC,1.6111111111111112,0.215,0.5211333333333333,8,7,"NIGHT_CLEAR,NIGHT_MOSTLY_CLOUDY,NIGHT_OVERCAST","Cross-shore,Offshore,Cross-shore",3
5842041f4e65fad6a770885b,2024_12_15,39.65080599934257,-74.17146,Ship Bottom,0.22222222222222218,0.3020333333333333,0.60898,11,11,"NIGHT_CLEAR,NIGHT_CLEAR,NIGHT_CLOUDY","Cross-shore,Cross-shore,Onshore",3
5842041f4e65fad6a7708863,2024_12_15,36.034151543144,-75.66791,Third Street,1,0.8513766666666667,1.2006766666666666,13,12,"NIGHT_OVERCAST,NIGHT_MOSTLY_CLOUDY,NIGHT_CLEAR","Onshore,Onshore,Onshore",3
5842041f4e65fad6a7708867,2024_12_15,35.605833221351425,-75.46303,S-Turns,0,1.3037,1.6173333333333333,14,13,"NIGHT_CLEAR,NIGHT_MOSTLY_CLOUDY,NIGHT_DRIZZLE","Onshore,Onshore,Onshore",3
5842041f4e65fad6a770886d,2024_12_15,38.338461,-75.08117,Ocean City Boardwalk,0.611111111111111,0.14489,0.49257666666666666,9,8,"NIGHT_CLOUDY,NIGHT_CLOUDY,NIGHT_OVERCAST","Onshore,Onshore,Onshore",3
5842041f4e65fad6a770886f,2024_12_15,29.844757212379562,-81.26136,A St.,1,2.1,2.3833333333333333,18,18,"NIGHT_CLOUDY,NIGHT_MOSTLY_CLEAR,NIGHT_BRIEF_SHOWERS","Onshore,Onshore,Onshore",3
5842041f4e65fad6a7708871,2024_12_15,29.069417851135093,-80.90824,New Smyrna Beach,1,1.9586233333333334,3.055,21,19,"NIGHT_LIGHT_RAIN,NIGHT_MOSTLY_CLEAR,NIGHT_MOSTLY_CLOUDY","Onshore,Onshore,Onshore",3
5842041f4e65fad6a7708872,2024_12_15,28.367707417566,-80.60171,Cocoa Beach Pier,1,1.9773,2.2855333333333334,19,18,"NIGHT_MOSTLY_CLOUDY,NIGHT_MOSTLY_CLEAR,NIGHT_MOSTLY_CLEAR","Onshore,Onshore,Onshore",3
5842041f4e65fad6a7708873,2024_12_15,28.091782738658846,-80.56479,Indialantic,1,2.3904466666666666,2.7378466666666665,21,19,"NIGHT_MOSTLY_CLOUDY,NIGHT_MOSTLY_CLOUDY,NIGHT_MOSTLY_CLOUDY","Onshore,Onshore,Onshore",3
5842041f4e65fad6a7708876,2024_12_15,27.25392904143517,-80.19455,Jensen Beach,-0.11111111111111112,1.9610733333333334,2.8534733333333335,25,23,"NIGHT_MOSTLY_CLOUDY,NIGHT_CLEAR,NIGHT_CLEAR","Onshore,Onshore,Onshore",3
5842041f4e65fad6a7708879,2024_12_15,26.76346795333825,-80.03607,Reef Road,1,1.4750666666666667,1.9598333333333333,25,23,"NIGHT_OVERCAST,NIGHT_OVERCAST,NIGHT_MOSTLY_CLOUDY","Onshore,Onshore,Onshore",3
5842041f4e65fad6a770887c,2024_12_15,26.336499228484,-80.06956100463,Boca Raton Inlet,1,1.2491533333333333,1.5698866666666667,25,24,"NIGHT_MOSTLY_CLOUDY,NIGHT_MOSTLY_CLOUDY,NIGHT_MOSTLY_CLOUDY","Onshore,Onshore,Onshore",3
5842041f4e65fad6a770887d,2024_12_15,26.31719311695038,-80.07453,Deerfield Beach Pier,1,0.68381,1.1028066666666667,26,24,"NIGHT_MOSTLY_CLOUDY,NIGHT_MOSTLY_CLOUDY,NIGHT_OVERCAST","Onshore,Onshore,Onshore",3
5842041f4e65fad6a7708881,2024_12_15,30.20276320866628,-85.85626528676136,"Spyglass Dr., Panama City",0.2777777777777778,0,0.19569,18,18,"NIGHT_CLEAR,NIGHT_MOSTLY_CLEAR,NIGHT_CLEAR","Offshore,Offshore,Offshore",3
5842041f4e65fad6a7708884,2024_12_15,33.39000832738053,-117.59852,Cottons,2.3333333333333335,0.5598333333333333,0.861,14,14,"CLEAR,NIGHT_CLEAR,NIGHT_MOSTLY_CLOUDY","Onshore,Cross-shore,Offshore",3
5842041f4e65fad6a7708885,2024_12_15,33.359416282661,-117.54168,Trails,2.3333333333333335,0.35333333333333333,0.6533333333333333,16,16,"CLEAR,NIGHT_CLEAR,NIGHT_MOSTLY_CLOUDY","Onshore,Offshore,Offshore",3
5842041f4e65fad6a7708886,2024_12_15,33.38042605929805,-117.58332,Middles,2.6666666666666665,0.4266666666666667,0.73,16,16,"CLEAR,NIGHT_CLEAR,NIGHT_MOSTLY_CLOUDY","Cross-shore,Offshore,Offshore",3
5842041f4e65fad6a7708887,2024_12_15,33.38445596302903,-117.59445,Upper Trestles,2.8333333333333335,0.5648333333333333,0.8701666666666666,14,14,"CLEAR,NIGHT_MIST,NIGHT_MOSTLY_CLOUDY","Cross-shore,Offshore,Offshore",3
5842041f4e65fad6a7708889,2024_12_15,28.944414,-95.28883,Surfside,2.3333333333333335,0.83769,1.19225,19,19,"MIST,NIGHT_MIST,NIGHT_MIST","Onshore,Onshore,Onshore",3
5842041f4e65fad6a770888a,2024_12_15,33.38143999849023,-117.58843,Lower Trestles,2.6666666666666665,0.6042566666666667,0.9303333333333333,14,14,"CLEAR,NIGHT_CLEAR,NIGHT_MOSTLY_CLOUDY","Cross-shore,Offshore,Offshore",3
5842041f4e65fad6a770888b,2024_12_15,33.379622288757,-117.57894,Church,2.6666666666666665,0.42366666666666664,0.729,14,14,"CLEAR,NIGHT_CLEAR,NIGHT_MOSTLY_CLOUDY","Onshore,Offshore,Offshore",3
5842041f4e65fad6a770888d,2024_12_15,21.679,-158.042,Sunset Beach,3.6666666666666665,1.5601099999999999,1.9356233333333335,26,25,"CLEAR,NIGHT_BRIEF_SHOWERS,NIGHT_MOSTLY_CLOUDY","Cross-shore,Cross-shore,Offshore",3
5842041f4e65fad6a770888e,2024_12_15,21.670550036401,-158.0482,Rocky Point,3.055555555555556,1.3654,1.88998,26,25,"MOSTLY_CLEAR,NIGHT_CLEAR,NIGHT_CLEAR","Cross-shore,Cross-shore,Offshore",3
5842041f4e65fad6a770888f,2024_12_15,21.668,-158.05,Chambers,3.6666666666666665,1.4526933333333334,2.036966666666667,25,25,"MOSTLY_CLEAR,NIGHT_MOSTLY_CLEAR,NIGHT_CLEAR","Cross-shore,Cross-shore,Offshore",3
5842041f4e65fad6a7708890,2024_12_15,21.66522,-158.0526,Pipeline,2.111111111111111,1.2985466666666667,1.85069,26,25,"MOSTLY_CLEAR,NIGHT_CLEAR,NIGHT_CLEAR","Cross-shore,Cross-shore,Offshore",3
5842041f4e65fad6a7708891,2024_12_15,21.665,-158.054,Backdoor,3.6666666666666665,1.44789,1.7927666666666666,26,25,"MOSTLY_CLEAR,NIGHT_MOSTLY_CLEAR,NIGHT_CLEAR","Cross-shore,Cross-shore,Cross-shore",3
5842041f4e65fad6a7708892,2024_12_15,21.662,-158.057,Rockpile,3.3333333333333335,1.6866666666666668,1.9166666666666667,25,25,"MOSTLY_CLEAR,NIGHT_CLEAR,NIGHT_CLEAR","Cross-shore,Cross-shore,Offshore",3
5842041f4e65fad6a7708893,2024_12_15,21.65870453806827,-158.06058,Log Cabins,3,1.2733333333333334,1.53,25,25,"MOSTLY_CLEAR,NIGHT_MOSTLY_CLEAR,NIGHT_CLEAR","Cross-shore,Cross-shore,Cross-shore",3
5842041f4e65fad6a7708894,2024_12_15,21.66203493640557,-158.05495,Off The Wall,3.3333333333333335,1.6533333333333333,1.8666666666666667,25,25,"MOSTLY_CLEAR,NIGHT_MOSTLY_CLEAR,NIGHT_CLEAR","Cross-shore,Cross-shore,Cross-shore",3
5842041f4e65fad6a7708895,2024_12_15,21.643,-158.067,Waimea Bay,NA,1.5556666666666668,1.93701,26,25,"MOSTLY_CLEAR,NIGHT_MOSTLY_CLEAR,NIGHT_CLEAR","Cross-shore,Cross-shore,Offshore",3
5842041f4e65fad6a7708896,2024_12_15,21.622,-158.087,Hultin's,3.7222222222222223,1.4387233333333334,1.9214566666666668,26,25,"CLEAR,NIGHT_CLEAR,NIGHT_CLEAR","Offshore,Offshore,Offshore",3
5842041f4e65fad6a7708897,2024_12_15,21.623,-158.085,Jocko's,3,1.3900000000000001,1.6566666666666667,25,25,"CLEAR,NIGHT_CLEAR,NIGHT_CLEAR","Onshore,Onshore,Onshore",3
5842041f4e65fad6a7708898,2024_12_15,21.62,-158.088,Laniakea,3,1.2400333333333333,1.5982433333333335,26,25,"CLEAR,NIGHT_CLEAR,NIGHT_CLEAR","Cross-shore,Cross-shore,Cross-shore",3
5842041f4e65fad6a7708899,2024_12_15,21.625,-158.083,Chun's,3,1.4000000000000001,1.66,25,25,"CLEAR,NIGHT_CLEAR,NIGHT_CLEAR","Offshore,Offshore,Offshore",3
5842041f4e65fad6a770889c,2024_12_15,21.286357895152136,-157.8515,Ala Moana Beach Park,1.3333333333333333,0.29666666666666663,0.6,26,26,"CLEAR,NIGHT_CLEAR,NIGHT_CLEAR","Offshore,Offshore,Offshore",3
5842041f4e65fad6a770889d,2024_12_15,19.606,-155.978,Banyans,2.944444444444444,0.6396000000000001,0.9510666666666666,26,25,"CLEAR,NIGHT_CLEAR,NIGHT_CLEAR","Onshore,Cross-shore,Offshore",3
5842041f4e65fad6a770889e,2024_12_15,20.029,-155.831,Kawaihae,2,0.4444,0.71362,26,26,"CLEAR,NIGHT_FOG,NIGHT_CLEAR","Onshore,Cross-shore,Onshore",3
5842041f4e65fad6a770889f,2024_12_15,33.07541383424675,-117.3105,Grandview,3,0.64031,1.0481366666666667,15,15,"CLEAR,NIGHT_CLEAR,NIGHT_FOG","Onshore,Offshore,Offshore",3
5842041f4e65fad6a77088a0,2024_12_15,33.065267421296596,-117.30577,Beacons,3,0.7072499999999999,1.10203,15,15,"CLEAR,NIGHT_CLEAR,NIGHT_FOG","Onshore,Offshore,Offshore",3
5842041f4e65fad6a77088a2,2024_12_15,21.252,-157.805,Diamond Head,3,0.62126,0.96867,26,25,"CLEAR,NIGHT_CLEAR,NIGHT_MOSTLY_CLOUDY","Cross-shore,Offshore,Cross-shore",3
5842041f4e65fad6a77088a3,2024_12_15,33.04694255008896,-117.29966,Moonlight State Beach,3,0.4066666666666667,0.7066666666666667,15,15,"CLEAR,NIGHT_CLEAR,NIGHT_FOG","Onshore,Offshore,Offshore",3
5842041f4e65fad6a77088a5,2024_12_15,33.08685865930869,-117.31532,Ponto,3,0.7672733333333334,1.0960566666666667,15,15,"CLEAR,NIGHT_CLEAR,NIGHT_FOG","Onshore,Offshore,Offshore",3
5842041f4e65fad6a77088a6,2024_12_15,33.130343587871906,-117.33668,Terra Mar Point,2.1666666666666665,0.34675,0.6599366666666667,15,15,"CLEAR,NIGHT_CLEAR,NIGHT_BRIEF_SHOWERS","Onshore,Onshore,Offshore",3
5842041f4e65fad6a77088af,2024_12_15,32.95916304183685,-117.26963,Del Mar,3,0.5966666666666667,0.9,15,15,"MIST,NIGHT_MIST,NIGHT_MIST","Onshore,Offshore,Offshore",3
5842041f4e65fad6a77088b0,2024_12_15,32.97527261243354,-117.2721061331305,Del Mar Rivermouth,2.6666666666666665,0.6133333333333334,0.92,15,15,"MIST,NIGHT_CLEAR,NIGHT_FOG","Onshore,Offshore,Offshore",3
5842041f4e65fad6a77088b1,2024_12_15,33.01352178146273,-117.28219,Cardiff Reef,2.8333333333333335,0.6333133333333334,0.92298,15,15,"CLEAR,NIGHT_CLEAR,NIGHT_FOG","Onshore,Cross-shore,Offshore",3
5842041f4e65fad6a77088b3,2024_12_15,33.00211185876003,-117.2811,Seaside Reef,3,0.7351666666666666,1.1106666666666667,15,15,"CLEAR,NIGHT_OVERCAST,NIGHT_MIST","Onshore,Cross-shore,Offshore",3
5842041f4e65fad6a77088b4,2024_12_15,33.0341859796287,-117.29552,Swami's,3,0.6850533333333333,0.9756533333333334,15,15,"CLEAR,NIGHT_CLEAR,NIGHT_FOG","Onshore,Offshore,Offshore",3
5842041f4e65fad6a77088b7,2024_12_15,33.04569760260221,-117.2994,D Street,3,0.60557,0.9520533333333333,15,15,"CLEAR,NIGHT_CLEAR,NIGHT_FOG","Onshore,Offshore,Cross-shore",3
5842041f4e65fad6a77088b8,2024_12_15,33.02090944350196,-117.28535,San Elijo State Beach,2.6666666666666665,0.4587566666666667,0.7503,15,15,"CLEAR,NIGHT_CLEAR,NIGHT_FOG","Onshore,Cross-shore,Offshore",3
5842041f4e65fad6a77088c2,2024_12_15,32.80662846492798,-117.26888,PB Point,2.6666666666666665,0.6966666666666667,0.96,15,15,"CLEAR,NIGHT_MOSTLY_CLOUDY,NIGHT_FOG","Cross-shore,Cross-shore,Offshore",3
5842041f4e65fad6a77088c4,2024_12_15,32.8060476681448,-117.26479,Old Man's at Tourmaline,2.6666666666666665,0.5073533333333333,0.8171733333333333,15,15,"CLEAR,NIGHT_MOSTLY_CLOUDY,NIGHT_FOG","Cross-shore,Cross-shore,Offshore",3
5842041f4e65fad6a77088cb,2024_12_15,32.557056711256,-117.1327445020322,Tijuana Slough,2.6666666666666665,0.35333333333333333,0.6533333333333333,15,15,"CLEAR,NIGHT_CLEAR,NIGHT_MOSTLY_CLEAR","Onshore,Cross-shore,Offshore",3
5842041f4e65fad6a77088cc,2024_12_15,32.863,-117.257,La Jolla Shores,2.6666666666666665,0.5166666666666666,0.8166666666666667,15,15,"BRIEF_SHOWERS_POSSIBLE,NIGHT_MIST,NIGHT_MIST","Onshore,Cross-shore,Offshore",3
5842041f4e65fad6a77088ce,2024_12_15,32.67443657790586,-117.17421,Coronado Beach,2,0.13666666666666666,0.4433333333333333,15,15,"CLEAR,NIGHT_CLEAR,NIGHT_MOSTLY_CLOUDY","Offshore,Offshore,Onshore",3
5842041f4e65fad6a77088cf,2024_12_15,33.40484417640326,-117.60749,San Clemente State Beach,2.3333333333333335,0.31333333333333335,0.6166666666666667,16,16,"CLEAR,NIGHT_MOSTLY_CLEAR,NIGHT_MOSTLY_CLOUDY","Onshore,Offshore,Offshore",3
5842041f4e65fad6a77088d5,2024_12_15,33.4663042002114,-117.7168352817103,Strands,2.5,0.44366666666666665,0.7515000000000001,14,14,"MIST,NIGHT_CLEAR,NIGHT_FOG","Onshore,Cross-shore,Onshore",3
5842041f4e65fad6a77088d7,2024_12_15,33.4609858001748,-117.68535,Doheny State Beach,2.1666666666666665,0.18818666666666667,0.4841666666666667,14,14,"CLEAR,NIGHT_CLEAR,NIGHT_FOG","Onshore,Cross-shore,Cross-shore",3
5842041f4e65fad6a77088dc,2024_12_15,33.50894790083017,-117.75243,Aliso Creek,2,0.17666666666666667,0.48333333333333334,15,15,"MIST,NIGHT_MOSTLY_CLOUDY,NIGHT_FOG","Onshore,Cross-shore,Onshore",3
5842041f4e65fad6a77088dd,2024_12_15,33.5326591767067,-117.77764,Brooks Street,2,0.10666666666666666,0.41333333333333333,15,15,"MIST,NIGHT_MOSTLY_CLOUDY,NIGHT_MOSTLY_CLOUDY","Cross-shore,Cross-shore,Onshore",3
5842041f4e65fad6a77088de,2024_12_15,33.53561225884637,-117.7799,Thalia Street,2,0.12000000000000001,0.43,15,15,"MIST,NIGHT_CLEAR,NIGHT_MOSTLY_CLOUDY","Cross-shore,Offshore,Onshore",3
5842041f4e65fad6a77088e3,2024_12_15,33.54268310353641,-117.7916,Rockpile,2,0.10666666666666666,0.41333333333333333,15,15,"MIST,NIGHT_CLEAR,NIGHT_MOSTLY_CLOUDY","Cross-shore,Offshore,Cross-shore",3
5842041f4e65fad6a77088e4,2024_12_15,33.7368459504689,-118.10342,"Seal Beach Pier, Southside",2.3333333333333335,0.34,0.65,15,15,"CLEAR,NIGHT_MOSTLY_CLOUDY,NIGHT_MOSTLY_CLOUDY","Onshore,Onshore,Offshore",3
5842041f4e65fad6a77088e5,2024_12_15,33.73933701820233,-118.117,Ray Bay,2.3333333333333335,0.25666666666666665,0.5633333333333334,15,15,"CLEAR,NIGHT_MOSTLY_CLOUDY,NIGHT_MOSTLY_CLEAR","Onshore,Onshore,Offshore",3
5842041f4e65fad6a77088e7,2024_12_15,33.728733,-118.08982,Surfside,0.3333333333333333,0,0.15333333333333335,15,15,"CLEAR,NIGHT_MOSTLY_CLEAR,NIGHT_MOSTLY_CLEAR","Onshore,Onshore,Offshore",3
5842041f4e65fad6a77088e8,2024_12_15,33.68760321488161,-118.04236,Bolsa Chica State Beach,2.5,0.6770233333333333,0.98889,14,14,"CLEAR,NIGHT_MOSTLY_CLOUDY,NIGHT_MIST","Onshore,Onshore,Cross-shore",3
5842041f4e65fad6a77088ea,2024_12_15,33.66704400178788,-118.0192,North HB Streets,3,1.1437899999999999,1.3954033333333333,14,14,"CLEAR,NIGHT_MOSTLY_CLOUDY,NIGHT_MOSTLY_CLOUDY","Onshore,Onshore,Cross-shore",3
5842041f4e65fad6a77088ed,2024_12_15,33.65475101379567,-118.00291,Huntington Beach Pier Southside,2.8333333333333335,0.7976666666666666,1.1265,14,14,"CLEAR,NIGHT_MOSTLY_CLEAR,NIGHT_MOSTLY_CLOUDY","Onshore,Onshore,Cross-shore",3
5842041f4e65fad6a77088ee,2024_12_15,33.62778647706099,-117.95939,River Jetties,2.3333333333333335,0.5506666666666666,0.8518333333333333,14,14,"CLEAR,NIGHT_CLEAR,NIGHT_MOSTLY_CLOUDY","Onshore,Onshore,Offshore",3
5842041f4e65fad6a77088f2,2024_12_15,33.605165797643664,-117.925,Newport Point,2,0.07666666666666667,0.37666666666666665,15,15,"CLEAR,NIGHT_MOSTLY_CLOUDY,NIGHT_MOSTLY_CLOUDY","Onshore,Cross-shore,Cross-shore",3
5842041f4e65fad6a77088f3,2024_12_15,33.58982984726977,-117.87713,Corona del Mar,2,0.06666666666666667,0.37,15,15,"CLEAR,NIGHT_MOSTLY_CLOUDY,NIGHT_MIST","Onshore,Cross-shore,Offshore",3
5842041f4e65fad6a77088f7,2024_12_15,34.00750300824362,-118.49718,Santa Monica Pier,1.6666666666666667,0.08,0.39,15,15,"CLEAR,NIGHT_CLEAR,NIGHT_CLEAR","Onshore,Onshore,Offshore",3
5842041f4e65fad6a77088ff,2024_12_15,33.94070283102945,-118.44321,Dockweiler Beach,3,1.2496666666666667,1.4883333333333333,14,14,"MIST,NIGHT_CLEAR,NIGHT_CLEAR","Onshore,Onshore,Onshore",3
5842041f4e65fad6a7708900,2024_12_15,33.9231846937237,-118.4341465777908,Shitpipe,3,1.2946666666666666,1.5738866666666667,14,14,"MIST,NIGHT_MOSTLY_CLOUDY,NIGHT_CLEAR","Onshore,Onshore,Onshore",3
5842041f4e65fad6a7708902,2024_12_15,33.9108528052242,-118.4279133138721,Hammerland,3,1.2946666666666666,1.5738866666666667,14,14,"MIST,NIGHT_MOSTLY_CLOUDY,NIGHT_CLEAR","Onshore,Onshore,Onshore",3
5842041f4e65fad6a7708904,2024_12_15,33.87201368173932,-118.40752,Hermosa Beach,2.8333333333333335,0.8896633333333334,1.2001633333333332,14,14,"BRIEF_SHOWERS,NIGHT_FOG,NIGHT_MIST","Onshore,Onshore,Onshore",3
5842041f4e65fad6a7708906,2024_12_15,33.90129336911256,-118.42184,El Porto,3,1.15142,1.5307433333333333,14,14,"MIST,NIGHT_FOG,NIGHT_MIST","Onshore,Onshore,Onshore",3
5842041f4e65fad6a7708907,2024_12_15,33.87963506431794,-118.41102,Manhattan Beach Pier,3,1.2015233333333333,1.4313366666666667,14,14,"MIST,NIGHT_CLEAR,NIGHT_MIST","Onshore,Onshore,Onshore",3
5842041f4e65fad6a7708914,2024_12_15,34.038053387863464,-118.5532,Sunset Point,1.6666666666666667,0.049999999999999996,0.35333333333333333,15,15,"MOSTLY_CLOUDY,NIGHT_CLEAR,NIGHT_CLEAR","Onshore,Offshore,Offshore",3
5842041f4e65fad6a7708920,2024_12_15,33.80282,-118.39989,Haggerty's,2.3333333333333335,0.264,0.504,15,15,"MOSTLY_CLOUDY,NIGHT_BRIEF_SHOWERS,NIGHT_CLEAR","Onshore,Onshore,Onshore",3
5842041f4e65fad6a7708921,2024_12_15,33.85044519861206,-118.40048,Redondo Breakwater,2.6666666666666665,0.9277000000000001,1.15743,15,15,"BRIEF_SHOWERS,NIGHT_CLEAR,NIGHT_MIST","Onshore,Onshore,Onshore",3
5842041f4e65fad6a7708927,2024_12_15,33.70877301002487,-118.2840112858389,Cabrillo Beach,2,0.12666666666666668,0.4366666666666667,15,15,"CLEAR,NIGHT_CLEAR,NIGHT_MOSTLY_CLOUDY","Cross-shore,Cross-shore,Offshore",3
5842041f4e65fad6a770892c,2024_12_15,33.77209986806257,-118.4268428476672,Lunada Bay,2,0.63,0.8999999999999999,15,15,"MOSTLY_CLOUDY,NIGHT_MIST,NIGHT_CLEAR","Onshore,Onshore,Cross-shore",3
5842041f4e65fad6a770892d,2024_12_15,33.79294656286144,-118.40703,PV Cove,2,0.32666666666666666,0.63,15,15,"MOSTLY_CLOUDY,NIGHT_FOG,NIGHT_CLEAR","Onshore,Onshore,Onshore",3
5842041f4e65fad6a7708930,2024_12_15,34.03944902292561,-118.57539,Chart House,0.3333333333333333,0,0.12333333333333334,15,15,"MOSTLY_CLOUDY,NIGHT_CLEAR,NIGHT_CLEAR","Onshore,Offshore,Offshore",3
5842041f4e65fad6a7708936,2024_12_15,34.0016731994772,-118.80456,Point Dume,2,0.15366666666666667,0.45316666666666666,14,14,"OVERCAST,NIGHT_CLEAR,NIGHT_CLEAR","Cross-shore,Offshore,Offshore",3
5842041f4e65fad6a7708937,2024_12_15,34.02587527588963,-118.7554939066114,Latigo Point,1,0,0.25666666666666665,15,15,"CLEAR,NIGHT_CLEAR,NIGHT_CLEAR","Onshore,Offshore,Offshore",3
5842041f4e65fad6a770893f,2024_12_15,34.043762,-118.93294,Leo Carrillo,3,0.7901666666666667,1.0955,14,14,"OVERCAST,NIGHT_CLEAR,NIGHT_CLEAR","Onshore,Offshore,Offshore",3
5842041f4e65fad6a7708941,2024_12_15,36.69388179265737,-121.81289,Marina State Beach,1.6666666666666667,3.223333333333333,3.783333333333333,13,13,"MOSTLY_CLOUDY,NIGHT_CLEAR,NIGHT_MIST","Onshore,Onshore,Offshore",3
5842041f4e65fad6a7708944,2024_12_15,34.34145077331085,-119.416999352654,Stanley's,2.6666666666666665,0.5833333333333333,0.8266666666666667,14,14,"RAIN,NIGHT_MIST,NIGHT_CLEAR","Offshore,Onshore,Offshore",3
5842041f4e65fad6a7708945,2024_12_15,34.35113017313915,-119.426921498899,Oil Piers,2.6666666666666665,0.5833333333333333,0.8266666666666667,14,14,"RAIN,NIGHT_MIST,NIGHT_CLEAR","Offshore,Onshore,Offshore",3
5842041f4e65fad6a770894c,2024_12_15,34.17876333306018,-119.23995,Oxnard,3,0.72,0.9733333333333334,15,15,"MIST,NIGHT_CLEAR,NIGHT_CLEAR","Offshore,Onshore,Offshore",3
5842041f4e65fad6a7708957,2024_12_15,34.31720331100517,-119.3882324751725,Pitas Point,2.6666666666666665,0.43333333333333335,0.7333333333333334,14,14,"LIGHT_RAIN,NIGHT_MIST,NIGHT_CLEAR","Cross-shore,Onshore,Offshore",3
5842041f4e65fad6a7708959,2024_12_15,34.27851754384724,-119.3162,Emma Wood,2.6666666666666665,0.8033333333333333,1.03,15,15,"DRIZZLE,NIGHT_CLEAR,NIGHT_CLEAR","Onshore,Cross-shore,Offshore",3
5842041f4e65fad6a770895a,2024_12_15,34.35513640390276,-119.4400589884255,Mussel Shoals (aka Little Rincon),2.6666666666666665,0.64,0.8866666666666666,14,14,"MIST,NIGHT_MIST,NIGHT_CLEAR","Cross-shore,Onshore,Offshore",3
5842041f4e65fad6a770895e,2024_12_15,34.28991757054902,-119.3366646794652,Summer Beach,2.3333333333333335,0.2633333333333333,0.57,15,15,"DRIZZLE,NIGHT_MIST,NIGHT_CLEAR","Onshore,Onshore,Offshore",3
5842041f4e65fad6a770895f,2024_12_15,34.30897456105926,-119.3582501170116,Solimar,2,0.25666666666666665,0.5633333333333334,15,15,"LIGHT_RAIN,NIGHT_MOSTLY_CLEAR,NIGHT_CLEAR","Cross-shore,Cross-shore,Offshore",3
5842041f4e65fad6a7708960,2024_12_15,34.39836265281686,-119.70213,Leadbetter Point,1.3333333333333333,0.006666666666666667,0.24333333333333335,14,14,"MIST,NIGHT_CLEAR,NIGHT_CLEAR","Onshore,Offshore,Offshore",3
5842041f4e65fad6a7708961,2024_12_15,34.46052293893899,-120.07328,Refugio,1,0.12,0.42666666666666664,14,14,"MIST,NIGHT_CLEAR,NIGHT_CLEAR","Cross-shore,Offshore,Offshore",3
5842041f4e65fad6a7708962,2024_12_15,34.40754276777778,-119.87639,Devereux,2.6666666666666665,0.25333333333333335,0.5533333333333333,14,14,"MIST,NIGHT_CLEAR,NIGHT_CLEAR","Onshore,Offshore,Offshore",3
5842041f4e65fad6a7708963,2024_12_15,34.27479983305182,-119.3133222656776,Ventura Overhead,3,0.8133333333333334,1.0433333333333334,15,15,"MIST,NIGHT_MIST,NIGHT_CLEAR","Onshore,Onshore,Offshore",3
5842041f4e65fad6a7708964,2024_12_15,34.41023236011655,-119.88261,Sands,2.3333333333333335,0.23666666666666666,0.5433333333333333,14,14,"MIST,NIGHT_CLEAR,NIGHT_CLEAR","Offshore,Cross-shore,Offshore",3
5842041f4e65fad6a7708966,2024_12_15,34.40450193869233,-119.68752,Sandspit,1,0.006666666666666667,0.24333333333333335,14,14,"BRIEF_SHOWERS,NIGHT_CLEAR,NIGHT_CLEAR","Onshore,Offshore,Offshore",3
5842041f4e65fad6a7708967,2024_12_15,34.41549098334453,-119.6375149840203,Hammond's,2.3333333333333335,0.23,0.5366666666666666,14,14,"MOSTLY_CLOUDY,NIGHT_CLEAR,NIGHT_CLEAR","Onshore,Cross-shore,Offshore",3
5842041f4e65fad6a7708968,2024_12_15,34.45759322742309,-120.02203,El Capitan,2,0.14333333333333334,0.44333333333333336,14,14,"BRIEF_SHOWERS,NIGHT_CLEAR,NIGHT_CLEAR","Onshore,Offshore,Offshore",3
5842041f4e65fad6a770896c,2024_12_15,34.405117655616,-119.84317,Campus Point,2.3333333333333335,0.23666666666666666,0.5433333333333333,14,14,"MOSTLY_CLOUDY,NIGHT_CLEAR,NIGHT_CLEAR","Onshore,Offshore,Cross-shore",3
5842041f4e65fad6a770896e,2024_12_15,34.38935162233354,-119.51955,Carpinteria State Beach,2.3333333333333335,0.38,0.69,14,14,"MIST,NIGHT_MOSTLY_CLEAR,NIGHT_CLEAR","Onshore,Onshore,Offshore",3
5842041f4e65fad6a770896f,2024_12_15,37.48296565175612,-122.45493,Half Moon Bay,2,2.4533333333333336,2.933333333333333,12,12,"CLEAR,NIGHT_CLEAR,NIGHT_CLEAR","Onshore,Cross-shore,Cross-shore",3
5842041f4e65fad6a7708970,2024_12_15,37.499,-122.471,Princeton Jetty,2.3333333333333335,2.3833333333333333,2.8266666666666667,12,12,"CLEAR,NIGHT_MOSTLY_CLOUDY,NIGHT_BRIEF_SHOWERS","Onshore,Offshore,Offshore",3
5842041f4e65fad6a7708972,2024_12_15,37.35699547365155,-122.4069534707252,Tunitas Creek,1.6666666666666667,4.166666666666667,4.883333333333333,12,12,"BRIEF_SHOWERS,NIGHT_MOSTLY_CLOUDY,NIGHT_MOSTLY_CLOUDY","Onshore,Offshore,Offshore",3
5842041f4e65fad6a7708974,2024_12_15,37.54735589428842,-122.51611,Montara,1.3333333333333333,3.336666666666667,3.88,12,12,"MOSTLY_CLEAR,NIGHT_MOSTLY_CLOUDY,NIGHT_MOSTLY_CLOUDY","Onshore,Onshore,Onshore",3
5842041f4e65fad6a7708975,2024_12_15,34.3869373724559,-119.5142334209018,Tarpits,2,0.41000000000000003,0.72,14,14,"OVERCAST,NIGHT_MOSTLY_CLEAR,NIGHT_CLEAR","Cross-shore,Cross-shore,Offshore",3
5842041f4e65fad6a7708976,2024_12_15,37.59881852720143,-122.50463,Linda Mar,2.5,1.3631466666666667,1.8259666666666667,12,12,"CLEAR,NIGHT_CLEAR,NIGHT_MOSTLY_CLEAR","Onshore,Onshore,Onshore",3
5842041f4e65fad6a7708978,2024_12_15,37.59883098461164,-122.5143843582282,Pedro Point,1.6666666666666667,3.1,3.7,12,12,"CLEAR,NIGHT_MOSTLY_CLEAR,NIGHT_MOSTLY_CLOUDY","Onshore,Onshore,Onshore",3
5842041f4e65fad6a7708979,2024_12_15,37.61081996647663,-122.49733,Rockaway,2.3333333333333335,3.1866666666666665,3.6366666666666667,12,12,"CLEAR,NIGHT_MOSTLY_CLEAR,NIGHT_MOSTLY_CLEAR","Onshore,Onshore,Cross-shore",3
5842041f4e65fad6a770897a,2024_12_15,37.809987384424446,-122.47514,Fort Point,3,1.9533333333333331,2.3333333333333335,12,12,"CLEAR,NIGHT_CLEAR,NIGHT_CLEAR","Cross-shore,Cross-shore,Cross-shore",3
5842041f4e65fad6a770897c,2024_12_15,37.63422542967464,-122.4951,Sharp Park,2,3.2333333333333334,3.83,12,12,"CLEAR,NIGHT_CLEAR,NIGHT_CLEAR","Onshore,Onshore,Cross-shore",3
5842041f4e65fad6a770897d,2024_12_15,37.27313605072472,-122.4127387912554,Pescadero,1.3333333333333333,3.9000000000000004,4.623333333333333,12,12,"CLEAR,NIGHT_MOSTLY_CLOUDY,NIGHT_CLEAR","Onshore,Cross-shore,Cross-shore",3
5842041f4e65fad6a770897e,2024_12_15,37.18140279972666,-122.3926685899327,Pigeon Point,2.6666666666666665,3.89,4.573333333333333,12,12,"MOSTLY_CLOUDY,NIGHT_MOSTLY_CLOUDY,NIGHT_CLEAR","Cross-shore,Offshore,Offshore",3
5842041f4e65fad6a770897f,2024_12_15,37.11578956919415,-122.314699271291,Ano Nuevo,3.3333333333333335,3.013333333333333,3.6,12,12,"MOSTLY_CLOUDY,NIGHT_MOSTLY_CLOUDY,NIGHT_CLEAR","Offshore,Offshore,Offshore",3
5842041f4e65fad6a7708980,2024_12_15,37.09520872681598,-122.2805474707768,Waddell Creek,2.6666666666666665,3.236666666666667,3.856666666666667,12,12,"MOSTLY_CLOUDY,NIGHT_CLEAR,NIGHT_CLEAR","Cross-shore,Offshore,Offshore",3
5842041f4e65fad6a7708981,2024_12_15,36.96512852130351,-122.1252825495626,Four Mile,3.3333333333333335,3.2133333333333334,3.81,12,12,"CLEAR,NIGHT_CLEAR,NIGHT_CLEAR","Cross-shore,Offshore,Offshore",3
5842041f4e65fad6a7708982,2024_12_15,37.04122807048655,-122.23337,Scott Creek,2.6666666666666665,3.026666666666667,3.5933333333333333,12,12,"MOSTLY_CLOUDY,NIGHT_CLEAR,NIGHT_CLEAR","Cross-shore,Offshore,Offshore",3
5842041f4e65fad6a7708983,2024_12_15,37.02350229387179,-122.21908,Davenport,3,3.3333333333333335,3.956666666666667,12,12,"MOSTLY_CLOUDY,NIGHT_CLEAR,NIGHT_CLEAR","Cross-shore,Offshore,Offshore",3
5842041f4e65fad6a7708986,2024_12_15,36.94905295955728,-122.06118,Natural Bridges,3,2.993333333333333,3.58,13,13,"MOSTLY_CLOUDY,NIGHT_CLEAR,NIGHT_CLEAR","Cross-shore,Offshore,Offshore",3
5842041f4e65fad6a7708987,2024_12_15,36.95154854910425,-122.04207,Mitchell's Cove,3.3333333333333335,2.03,2.43,13,13,"CLEAR,NIGHT_CLEAR,NIGHT_MIST","Cross-shore,Offshore,Offshore",3
5842041f4e65fad6a770898a,2024_12_15,36.9572312370203,-121.98177,26th Ave,2.3333333333333335,2.49,2.9766666666666666,13,13,"MOSTLY_CLOUDY,NIGHT_CLEAR,NIGHT_CLEAR","Onshore,Offshore,Cross-shore",3
5842041f4e65fad6a770898e,2024_12_15,36.91899972819882,-121.85536,Manresa,2.3333333333333335,3.0700000000000003,3.413333333333333,13,13,"CLEAR,NIGHT_CLEAR,NIGHT_CLEAR","Onshore,Offshore,Offshore",3
5842041f4e65fad6a7708990,2024_12_15,34.45747731928454,-120.34242,The Ranch,3,0.8433333333333334,1.0733333333333333,14,14,"BRIEF_SHOWERS,NIGHT_CLEAR,NIGHT_CLEAR","Offshore,Offshore,Offshore",3
5842041f4e65fad6a7708991,2024_12_15,34.50875036590315,-120.50348,Jalama,3,1.8233333333333333,2.12,14,14,"CLEAR,NIGHT_CLEAR,NIGHT_CLEAR","Offshore,Offshore,Offshore",3
5842041f4e65fad6a7708996,2024_12_15,34.68700870220497,-120.6111611019887,Surf Beach,2,4,4.736666666666666,14,14,"MOSTLY_CLOUDY,NIGHT_MOSTLY_CLEAR,NIGHT_CLEAR","Onshore,Cross-shore,Cross-shore",3
5842041f4e65fad6a770899c,2024_12_15,35.5730538161116,-121.1143362345574,Moonstone,3,3.15,3.703333333333333,13,13,"MOSTLY_CLEAR,NIGHT_CLEAR,NIGHT_CLEAR","Onshore,Offshore,Offshore",3
5842041f4e65fad6a770899d,2024_12_15,35.61533716776573,-121.1502053073914,Pico Creek,3,2.6,3.0833333333333335,13,13,"CLEAR,NIGHT_CLEAR,NIGHT_CLEAR","Onshore,Offshore,Offshore",3
5842041f4e65fad6a770899e,2024_12_15,35.56829031927379,-121.11207,Santa Rosa Creek,3,3.15,3.703333333333333,13,13,"MOSTLY_CLEAR,NIGHT_CLEAR,NIGHT_CLEAR","Cross-shore,Offshore,Offshore",3
5842041f4e65fad6a77089a2,2024_12_15,35.44820114936284,-120.90715,"Cayucos Pier, Southside",3,1.0361033333333332,1.3291266666666666,14,14,"MOSTLY_CLEAR,NIGHT_CLEAR,NIGHT_CLEAR","Cross-shore,Offshore,Offshore",3
5842041f4e65fad6a77089a4,2024_12_15,35.30143372628852,-120.877819239902,Cable Landing,2.3333333333333335,4.45,5.206666666666666,14,14,"MOSTLY_CLOUDY,NIGHT_CLEAR,NIGHT_CLEAR","Onshore,Onshore,Offshore",3
5842041f4e65fad6a77089a9,2024_12_15,35.61269103500222,-121.14807,San Simeon,3,1.7196666666666667,2.0393333333333334,13,13,"MOSTLY_CLEAR,NIGHT_CLEAR,NIGHT_CLEAR","Cross-shore,Offshore,Offshore",3
5842041f4e65fad6a77089ab,2024_12_15,35.1775325966252,-120.73411,Avila Beach,2,0.11,0.4166666666666667,14,14,"CLEAR,NIGHT_CLEAR,NIGHT_CLEAR","Cross-shore,Offshore,Offshore",3
5842041f4e65fad6a77089ac,2024_12_15,35.13877877884115,-120.64535,Pismo Beach Pier,3,1.7573866666666667,2.2163866666666667,12,12,"MOSTLY_CLOUDY,NIGHT_CLEAR,NIGHT_CLEAR","Onshore,Cross-shore,Offshore",3
5842041f4e65fad6a77089ad,2024_12_15,46.8907710233147,-124.12964,Westport/Olympic Peninsula,0.6666666666666666,4.043333333333333,4.676666666666667,10,10,"CLEAR,NIGHT_BRIEF_SHOWERS,NIGHT_MOSTLY_CLOUDY","Onshore,Onshore,Onshore",3
5842041f4e65fad6a77089ae,2024_12_15,46.35185177248545,-124.06747,Long Beach Peninsula,0,5.3533333333333335,6.156666666666666,10,10,"CLEAR,NIGHT_MOSTLY_CLOUDY,NIGHT_MOSTLY_CLOUDY","Onshore,Onshore,Onshore",3
5842041f4e65fad6a77089af,2024_12_15,47.90649175554033,-124.63709,La Push,0.6666666666666666,4.653333333333333,5.383333333333333,10,10,"CLOUDY,NIGHT_MOSTLY_CLOUDY,NIGHT_MOSTLY_CLEAR","Onshore,Onshore,Onshore",3
5842041f4e65fad6a77089b0,2024_12_15,42.04368239985442,-124.26828,Brookings Jetty,2.3333333333333335,2.39005,2.7762433333333334,11,11,"CLEAR,NIGHT_FOG,NIGHT_MOSTLY_CLOUDY","Cross-shore,Onshore,Onshore",3
5842041f4e65fad6a77089b1,2024_12_15,42.74071837900346,-124.4983727491047,Port Orford,2,2.85,3.4033333333333333,11,11,"BRIEF_SHOWERS,NIGHT_DRIZZLE,NIGHT_MOSTLY_CLEAR","Offshore,Onshore,Onshore",3
5842041f4e65fad6a77089b2,2024_12_15,44.01532689312291,-124.13865,Florence South Jetty,1,4.986666666666666,5.720000000000001,11,11,"MOSTLY_CLOUDY,NIGHT_CLEAR,NIGHT_MOSTLY_CLOUDY","Onshore,Onshore,Onshore",3
5842041f4e65fad6a77089b3,2024_12_15,42.41812540774362,-124.42945,Gold Beach South Jetty,2,3.9233333333333333,4.55,11,11,"SHOWERS,NIGHT_MOSTLY_CLOUDY,NIGHT_SHOWERS","Cross-shore,Onshore,Onshore",3
5842041f4e65fad6a77089b4,2024_12_15,44.95857310226525,-124.0219,Lincoln City,1,5.01,5.753333333333333,11,11,"CLEAR,NIGHT_LIGHT_SHOWERS_POSSIBLE,NIGHT_CLEAR","Onshore,Onshore,Onshore",3
5842041f4e65fad6a77089b5,2024_12_15,44.63792761362982,-124.0657,Newport,1.6666666666666667,5.283333333333333,6.0633333333333335,11,11,"CLOUDY,NIGHT_CLEAR,NIGHT_MOSTLY_CLOUDY","Onshore,Cross-shore,Onshore",3
5842041f4e65fad6a77089b6,2024_12_15,45.61468496266301,-123.94643,Rockaway Beach,1,5.236666666666666,6.016666666666667,11,11,"MOSTLY_CLOUDY,NIGHT_MOSTLY_CLOUDY,NIGHT_MOSTLY_CLOUDY","Onshore,Onshore,Onshore",3
5842041f4e65fad6a77089b7,2024_12_15,45.20252914186085,-123.96975,Pacific City,1,4.573333333333333,5.25,11,11,"MOSTLY_CLOUDY,NIGHT_MOSTLY_CLOUDY,NIGHT_MOSTLY_CLOUDY","Onshore,Onshore,Onshore",3
5842041f4e65fad6a77089b8,2024_12_15,45.88179930310263,-123.96681,Cannon Beach,1,5.22,5.993333333333333,10,10,"MOSTLY_CLOUDY,NIGHT_CLEAR,NIGHT_MOSTLY_CLOUDY","Onshore,Onshore,Onshore",3
5842041f4e65fad6a77089ba,2024_12_15,40.02528754746774,-124.06372,Shelter Cove,3,1.2033966666666667,1.4390966666666667,12,12,"SHOWERS,NIGHT_BRIEF_SHOWERS,NIGHT_CLEAR","Offshore,Offshore,Cross-shore",3
5842041f4e65fad6a77089bb,2024_12_15,40.76816197136951,-124.24248,Humboldt Harbor Entrance,3,4.37,5.22,12,12,"CLEAR,NIGHT_MOSTLY_CLEAR,NIGHT_MOSTLY_CLEAR","Onshore,Offshore,Offshore",3
5842041f4e65fad6a77089bc,2024_12_15,40.76684246920174,-124.23107,North Jetty,2.3333333333333335,5.493333333333333,6.3133333333333335,12,12,"MOSTLY_CLOUDY,NIGHT_CLEAR,NIGHT_CLEAR","Onshore,Offshore,Offshore",3
5842041f4e65fad6a77089be,2024_12_15,41.13016238153297,-124.16466,Sue-meg,2.3333333333333335,4.473333333333334,5.233333333333333,11,11,"MOSTLY_CLOUDY,NIGHT_CLEAR,NIGHT_MOSTLY_CLEAR","Onshore,Onshore,Offshore",3
5842041f4e65fad6a77089bf,2024_12_15,37.8289474958188,-122.53768,Fort Cronkite/Rodeo Beach,1.6666666666666667,3.3066666666666666,3.95,12,12,"CLEAR,NIGHT_CLEAR,NIGHT_CLEAR","Cross-shore,Cross-shore,Offshore",3
5842041f4e65fad6a77089c0,2024_12_15,41.74415759876137,-124.17717,South Beach CA,2.6666666666666665,2.2733333333333334,2.7166666666666663,11,11,"BRIEF_SHOWERS,NIGHT_CLEAR,NIGHT_MOSTLY_CLOUDY","Cross-shore,Onshore,Onshore",3
5842041f4e65fad6a77089c1,2024_12_15,37.89801283969752,-122.64519,Stinson Beach,4,1.3966666666666667,1.67,12,12,"MIST,NIGHT_MIST,NIGHT_CLEAR","Offshore,Offshore,Offshore",3
5842041f4e65fad6a77089c2,2024_12_15,37.90514516176495,-122.68151,Bolinas,4,1.21413,1.4483766666666666,12,12,"MOSTLY_CLEAR,NIGHT_CLEAR,NIGHT_CLEAR","Offshore,Offshore,Offshore",3
5842041f4e65fad6a77089c3,2024_12_15,38.04892513158693,-122.98925,Point Reyes (north),0.6666666666666666,4.6066666666666665,5.363333333333333,12,12,"CLEAR,NIGHT_CLEAR,NIGHT_CLEAR","Onshore,Onshore,Onshore",3
5842041f4e65fad6a77089c6,2024_12_15,38.31088736605785,-123.0496777333731,Doran Beach,2.6666666666666665,1.0066666666666666,1.2366666666666666,13,13,"MOSTLY_CLEAR,NIGHT_MOSTLY_CLEAR,NIGHT_CLEAR","Offshore,Offshore,Offshore",3
5842041f4e65fad6a77089c7,2024_12_15,38.45077228660809,-123.13008,Russian Rivermouth,2.6666666666666665,3.3633333333333333,4.016666666666667,13,13,"MOSTLY_CLEAR,NIGHT_CLEAR,NIGHT_CLEAR","Onshore,Offshore,Offshore",3
5842041f4e65fad6a77089c8,2024_12_15,38.35329968518107,-123.06906,Salmon Creek,1.6666666666666667,3.4833333333333334,4.163333333333333,13,13,"BRIEF_SHOWERS_POSSIBLE,NIGHT_CLEAR,NIGHT_CLEAR","Onshore,Cross-shore,Cross-shore",3
5842041f4e65fad6a77089c9,2024_12_15,38.6845180197959,-123.4322714291198,Black Point Beach,2,2.2733333333333334,2.72,13,13,"CLEAR,NIGHT_CLEAR,NIGHT_CLEAR","Onshore,Onshore,Cross-shore",3
5842041f4e65fad6a77089ca,2024_12_15,43.251076,-70.59144,Ogunquit,2,0.3075,0.6120333333333333,8,7,"NIGHT_CLEAR,NIGHT_CLEAR,NIGHT_CLEAR","Offshore,Cross-shore,Cross-shore",3
5842041f4e65fad6a77089cb,2024_12_15,41.362631366305415,-71.48007,Point Judith,1.5555555555555556,0.24597666666666668,0.5512699999999999,9,8,"NIGHT_CLEAR,NIGHT_CLEAR,NIGHT_CLEAR","Offshore,Cross-shore,Offshore",3
5842041f4e65fad6a77089cd,2024_12_15,41.422678090954726,-71.45413,Monahan's - Narragansett,1,0.06529333333333334,0.3623766666666667,9,9,"NIGHT_CLEAR,NIGHT_CLEAR,NIGHT_CLEAR","Cross-shore,Cross-shore,Cross-shore",3
5842041f4e65fad6a77089ce,2024_12_15,41.469,-71.293,Ruggles - Newport,2,0.12591,0.4731166666666667,9,9,"NIGHT_CLEAR,NIGHT_CLEAR,NIGHT_CLEAR","Offshore,Offshore,Offshore",3
5842041f4e65fad6a77089cf,2024_12_15,43.175394,-70.606351,Short Sands Beach,2,0.3066666666666667,0.6133333333333333,8,8,"NIGHT_CLEAR,NIGHT_CLEAR,NIGHT_CLEAR","Offshore,Cross-shore,Cross-shore",3
5842041f4e65fad6a77089d0,2024_12_15,41.487408,-71.29017,First Beach,2,0.14666666666666667,0.45333333333333337,9,9,"NIGHT_CLEAR,NIGHT_CLEAR,NIGHT_CLEAR","Offshore,Offshore,Offshore",3
5842041f4e65fad6a77089d1,2024_12_15,42.27916830233153,-70.86498,Nantasket Beach,1,0,0.2706466666666667,9,8,"NIGHT_CLEAR,NIGHT_CLEAR,NIGHT_CLEAR","Onshore,Onshore,Onshore",3
5842041f4e65fad6a77089d2,2024_12_15,41.817,-69.935,Cape Cod,1,0.3,0.6,9,9,"NIGHT_MOSTLY_CLOUDY,NIGHT_MOSTLY_CLOUDY,NIGHT_CLEAR","Cross-shore,Cross-shore,Cross-shore",3
5842041f4e65fad6a77089d3,2024_12_15,42.22055448975661,-70.70634873403819,Egypt Beach,1,0,0.2866666666666667,8,8,"NIGHT_CLEAR,NIGHT_CLEAR,NIGHT_MOSTLY_CLEAR","Cross-shore,Cross-shore,Cross-shore",3
5842041f4e65fad6a77089d4,2024_12_15,41.48739647744607,-71.25723,Second Beach,1.3333333333333333,0.07094333333333333,0.31688666666666665,9,8,"NIGHT_CLEAR,NIGHT_CLEAR,NIGHT_CLEAR","Offshore,Offshore,Offshore",3
5842041f4e65fad6a77089d5,2024_12_15,42.964,-70.769,Fox Hill,2.3333333333333335,0.24,0.5478666666666667,8,7,"NIGHT_CLEAR,NIGHT_CLEAR,NIGHT_CLEAR","Offshore,Offshore,Cross-shore",3
5842041f4e65fad6a77089d6,2024_12_15,42.991359,-70.75149,Straws Point,2.3333333333333335,0.19583333333333333,0.50509,8,7,"NIGHT_CLEAR,NIGHT_CLEAR,NIGHT_CLEAR","Offshore,Offshore,Offshore",3
5842041f4e65fad6a77089d7,2024_12_15,42.946,-70.786,Plaice Cove,2,0.24,0.5478666666666667,8,7,"NIGHT_CLEAR,NIGHT_CLEAR,NIGHT_CLEAR","Offshore,Offshore,Cross-shore",3
5842041f4e65fad6a77089d9,2024_12_15,42.911574,-70.80831,The Main Beach,1.6111111111111112,0.20122333333333334,0.51061,8,7,"NIGHT_CLEAR,NIGHT_CLEAR,NIGHT_CLEAR","Offshore,Offshore,Offshore",3
5842041f4e65fad6a77089da,2024_12_15,42.97583846220203,-70.764,Sawyer's Beach,2,0.25666666666666665,0.5578666666666666,8,7,"NIGHT_CLEAR,NIGHT_CLEAR,NIGHT_CLEAR","Offshore,Offshore,Cross-shore",3
5842041f4e65fad6a77089db,2024_12_15,42.97,-70.77,Rye on the Rocks / 5-0's,1.9444444444444444,0.23251333333333335,0.5297066666666667,8,7,"NIGHT_CLEAR,NIGHT_CLEAR,NIGHT_CLEAR","Offshore,Offshore,Cross-shore",3
5842041f4e65fad6a77089dc,2024_12_15,43.55902946610303,-70.27795,Higgins Beach,2,0.3528,0.6570433333333333,8,7,"NIGHT_CLEAR,NIGHT_CLEAR,NIGHT_CLEAR","Offshore,Offshore,Offshore",3
5842041f4e65fad6a77089dd,2024_12_15,43.302676,-70.5652,Wells Beach,2,0.29583333333333334,0.6012,8,7,"NIGHT_CLEAR,NIGHT_CLEAR,NIGHT_CLEAR","Offshore,Cross-shore,Cross-shore",3
5842041f4e65fad6a77089de,2024_12_15,43.545359,-70.30479,Scarborough Beach State Park,2.3333333333333335,0.23714666666666667,0.5900733333333333,8,7,"NIGHT_CLEAR,NIGHT_CLEAR,NIGHT_CLEAR","Offshore,Offshore,Offshore",3
5842041f4e65fad6a77089df,2024_12_15,43.514481,-70.37215,Old Orchard Beach,1.6111111111111112,0.21393666666666666,0.5158366666666667,8,7,"NIGHT_CLEAR,NIGHT_CLEAR,NIGHT_CLEAR","Offshore,Offshore,Offshore",3
5842041f4e65fad6a77089e0,2024_12_15,43.34711,-70.48165,Gooch's Beach,2.3333333333333335,0.26,0.5620333333333333,8,7,"NIGHT_CLEAR,NIGHT_CLEAR,NIGHT_CLEAR","Offshore,Offshore,Offshore",3
5842041f4e65fad6a77089e2,2024_12_15,40.58433,-73.62953,Lido Beach,0.8333333333333333,0.22316666666666665,0.5313,9,8,"NIGHT_CLEAR,NIGHT_CLEAR,NIGHT_CLEAR","Offshore,Offshore,Cross-shore",3
5842041f4e65fad6a77089e3,2024_12_15,43.163135,-70.61689,Long Sands Beach,1.6111111111111112,0.20064333333333334,0.5039333333333333,8,7,"NIGHT_CLEAR,NIGHT_CLEAR,NIGHT_CLEAR","Offshore,Offshore,Offshore",3
5842041f4e65fad6a77089e4,2024_12_15,40.61695351251805,-73.39376,Gilgo Beach,2,0.11916666666666667,0.42036666666666667,9,8,"NIGHT_CLEAR,NIGHT_CLEAR,NIGHT_CLEAR","Offshore,Cross-shore,Offshore",3
5842041f4e65fad6a77089e5,2024_12_15,40.62530081928036,-73.23827,Robert Moses,1,0.16333333333333333,0.4633333333333333,10,10,"NIGHT_CLEAR,NIGHT_CLEAR,NIGHT_CLEAR","Offshore,Offshore,Offshore",3
5842041f4e65fad6a77089e6,2024_12_15,40.64313317632791,-73.15727,Fire Island,1,0.15666666666666668,0.45999999999999996,9,9,"NIGHT_CLEAR,NIGHT_CLEAR,NIGHT_CLEAR","Offshore,Offshore,Offshore",3
5842041f4e65fad6a77089e8,2024_12_15,40.76653118828782,-72.7458,Cupsogue,2.3333333333333335,0.5766666666666667,0.8166666666666667,9,9,"NIGHT_CLEAR,NIGHT_CLEAR,NIGHT_CLEAR","Offshore,Offshore,Offshore",3
5842041f4e65fad6a77089e9,2024_12_15,42.9376373334092,-70.79141,The Wall,1.6111111111111112,0.2932266666666667,0.6049433333333333,8,7,"NIGHT_CLEAR,NIGHT_CLEAR,NIGHT_CLEAR","Offshore,Cross-shore,Onshore",3
5842041f4e65fad6a77089ea,2024_12_15,40.887088,-72.33856,Flys,2,0.43,0.7366666666666667,10,10,"NIGHT_CLEAR,NIGHT_CLEAR,NIGHT_MOSTLY_CLOUDY","Offshore,Offshore,Offshore",3
5842041f4e65fad6a77089eb,2024_12_15,41.0389266436591,-71.91068529316958,Trailer Park,0.9444444444444444,0.16756666666666667,0.5142566666666667,9,8,"NIGHT_CLEAR,NIGHT_CLEAR,NIGHT_CLEAR","Offshore,Offshore,Cross-shore",3
5842041f4e65fad6a77089ec,2024_12_15,41.039505402729105,-71.9142,Ditch Plains,1,0.30662333333333336,0.6506366666666666,10,10,"NIGHT_CLEAR,NIGHT_CLEAR,NIGHT_MOSTLY_CLOUDY","Offshore,Cross-shore,Cross-shore",3
5842041f4e65fad6a77089ee,2024_12_15,40.57633275206492,-73.56895305108567,"West End, Jones Beach",1.6666666666666667,0.21166666666666667,0.5195333333333333,9,8,"NIGHT_CLEAR,NIGHT_CLEAR,NIGHT_CLEAR","Offshore,Offshore,Offshore",3
5842041f4e65fad6a77089f1,2024_12_15,41.038286691230795,-71.91991567611694,Poles,0.9444444444444444,0.18561,0.5308733333333333,9,8,"NIGHT_CLEAR,NIGHT_CLEAR,NIGHT_CLEAR","Offshore,Offshore,Cross-shore",3
5842041f4e65fad6a77089f3,2024_12_15,40.84077769766295,-72.47989493724765,The Bowl,2.3333333333333335,0.5633333333333334,0.8133333333333332,9,9,"NIGHT_CLEAR,NIGHT_CLEAR,NIGHT_CLEAR","Offshore,Offshore,Cross-shore",3
5842041f4e65fad6a77089f4,2024_12_15,40.94235535243154,-72.19286,Main Beach,2.3333333333333335,0.4087,0.7165666666666667,15,14,"NIGHT_CLEAR,NIGHT_CLEAR,NIGHT_MOSTLY_CLOUDY","Offshore,Offshore,Offshore",3
5842041f4e65fad6a77089f5,2024_12_15,40.58270702399518,-73.67251552079799,Laurelton Blvd.,0.8333333333333333,0.3095733333333333,0.6145866666666666,9,8,"NIGHT_CLEAR,NIGHT_CLEAR,NIGHT_CLEAR","Offshore,Offshore,Offshore",3
5842041f4e65fad6a77089f6,2024_12_15,41.033752854071416,-71.93696,Terrace,1.222222222222222,0.31589999999999996,0.66007,9,8,"NIGHT_CLEAR,NIGHT_CLEAR,NIGHT_MOSTLY_CLOUDY","Offshore,Offshore,Cross-shore",3
5842041f4e65fad6a77089f7,2024_12_15,40.83372943645748,-72.50426173210144,K Road,2.6666666666666665,0.6033333333333333,0.9033333333333333,9,9,"NIGHT_CLEAR,NIGHT_CLEAR,NIGHT_MOSTLY_CLOUDY","Offshore,Offshore,Cross-shore",3
5842041f4e65fad6a77089f8,2024_12_15,40.58456099581507,-73.80730032920837,84th Street,0.8333333333333333,0.224,0.5279666666666667,9,8,"NIGHT_CLEAR,NIGHT_CLEAR,NIGHT_MOSTLY_CLEAR","Offshore,Offshore,Offshore",3
5842041f4e65fad6a77089fa,2024_12_15,40.1319,-74.02788,Sea Girt,2,0.45166666666666666,0.7103666666666667,9,8,"NIGHT_CLEAR,NIGHT_CLEAR,NIGHT_OVERCAST","Cross-shore,Onshore,Cross-shore",3
5842041f4e65fad6a77089fb,2024_12_15,40.54698301868125,-73.9268,Breezy Point,2,0.14666666666666667,0.45,10,10,"NIGHT_CLEAR,NIGHT_CLEAR,NIGHT_CLEAR","Offshore,Offshore,Offshore",3
5842041f4e65fad6a77089fc,2024_12_15,40.152504,-74.02138,Spring Lake,1.6666666666666667,0.3908333333333333,0.6953666666666667,9,8,"NIGHT_CLEAR,NIGHT_CLEAR,NIGHT_CLOUDY","Offshore,Onshore,Onshore",3
5842041f4e65fad6a77089fd,2024_12_15,40.591277,-73.770792,30th - 39th Streets,2.3333333333333335,0.17416666666666666,0.48147666666666666,9,8,"NIGHT_MIST,NIGHT_CLEAR,NIGHT_CLEAR","Offshore,Offshore,Offshore",3
5842041f4e65fad6a77089fe,2024_12_15,40.18834955871439,-74.00860982500222,Avon,1.6666666666666667,0.38833333333333336,0.6937,9,8,"NIGHT_CLEAR,NIGHT_CLEAR,NIGHT_CLOUDY","Offshore,Onshore,Onshore",3
5842041f4e65fad6a77089ff,2024_12_15,40.1974229100932,-74.00650533798255,Bradley Beach,1.6666666666666667,0.26777666666666666,0.5737,9,8,"NIGHT_CLEAR,NIGHT_CLEAR,NIGHT_CLOUDY","Offshore,Onshore,Onshore",3
5842041f4e65fad6a7708a01,2024_12_15,40.17202,-74.01503,"16th Ave., Belmar",0,0.2901566666666667,0.59535,9,8,"NIGHT_CLEAR,NIGHT_CLEAR,NIGHT_CLOUDY","Offshore,Onshore,Onshore",3
5842041f4e65fad6a7708a02,2024_12_15,40.217443,-73.99982,Asbury Park,1.3333333333333333,0.3408333333333333,0.6520333333333334,9,8,"NIGHT_CLEAR,NIGHT_CLEAR,NIGHT_CLOUDY","Offshore,Onshore,Onshore",3
5842041f4e65fad6a7708a03,2024_12_15,40.229841,-73.99678,Loch Arbour and Deal,1,0.3775,0.6787000000000001,9,8,"NIGHT_CLEAR,NIGHT_CLEAR,NIGHT_CLOUDY","Cross-shore,Onshore,Onshore",3
5842041f4e65fad6a7708a05,2024_12_15,40.41754,-73.97935,Sandy Hook,1,0.049999999999999996,0.35333333333333333,10,10,"NIGHT_CLEAR,NIGHT_CLEAR,NIGHT_CLEAR","Cross-shore,Onshore,Onshore",3
5842041f4e65fad6a7708a06,2024_12_15,39.36353,-74.40873,Crystals,1,0.26617999999999997,0.60162,13,13,"NIGHT_CLEAR,NIGHT_CLEAR,NIGHT_OVERCAST","Offshore,Cross-shore,Cross-shore",3
5842041f4e65fad6a7708a07,2024_12_15,39.31443,-74.51863,32nd Street,1,0.17302666666666666,0.5001266666666666,8,7,"NIGHT_CLEAR,NIGHT_MOSTLY_CLOUDY,NIGHT_OVERCAST","Offshore,Cross-shore,Cross-shore",3
5842041f4e65fad6a7708a08,2024_12_15,39.327688,-74.49524,Margate Pier Northside,1,0.17302666666666666,0.5001266666666666,8,7,"NIGHT_CLEAR,NIGHT_MOSTLY_CLOUDY,NIGHT_OVERCAST","Offshore,Cross-shore,Cross-shore",3
5842041f4e65fad6a7708a09,2024_12_15,39.336276,-74.47782,Ventnor Pier,1,0.2537433333333333,0.6007666666666667,13,13,"NIGHT_CLEAR,NIGHT_MOSTLY_CLOUDY,NIGHT_OVERCAST","Offshore,Cross-shore,Cross-shore",3
5842041f4e65fad6a7708a0a,2024_12_15,39.35929751441085,-74.41683,States Avenue,1,0.27438,0.6060366666666667,13,13,"NIGHT_CLEAR,NIGHT_MOSTLY_CLOUDY,NIGHT_OVERCAST","Offshore,Cross-shore,Cross-shore",3
5842041f4e65fad6a7708a0b,2024_12_15,39.37274173278517,-74.40454,Brigantine Jetty,1,0.22502666666666668,0.5553133333333333,13,13,"NIGHT_CLEAR,NIGHT_MOSTLY_CLOUDY,NIGHT_OVERCAST","Offshore,Cross-shore,Cross-shore",3
5842041f4e65fad6a7708a0c,2024_12_15,39.356505,-74.42263,South Carolina Avenue,1,0.22065333333333334,0.5509366666666666,13,13,"NIGHT_CLEAR,NIGHT_CLEAR,NIGHT_OVERCAST","Offshore,Cross-shore,Cross-shore",3
5842041f4e65fad6a7708a0d,2024_12_15,39.413485,-74.35476,14th Street North,2,0.53278,0.79481,13,13,"NIGHT_CLEAR,NIGHT_CLEAR,NIGHT_OVERCAST","Cross-shore,Offshore,Offshore",3
5842041f4e65fad6a7708a0e,2024_12_15,39.531319,-74.263252,The Wooden Jetty,0.22222222222222218,0.20912666666666666,0.5139266666666666,11,11,"NIGHT_MOSTLY_CLEAR,NIGHT_CLOUDY,NIGHT_CLOUDY","Cross-shore,Cross-shore,Cross-shore",3
5842041f4e65fad6a7708a0f,2024_12_15,39.552472,-74.24344,Holyoke,0.22222222222222218,0.22157666666666667,0.5311,11,11,"NIGHT_MOSTLY_CLEAR,NIGHT_MOSTLY_CLOUDY,NIGHT_CLOUDY","Cross-shore,Cross-shore,Cross-shore",3
5842041f4e65fad6a7708a10,2024_12_15,39.692364,-74.14068,Hudson Ave.,0.2222222222222222,0.14789,0.5240766666666667,8,7,"NIGHT_CLEAR,NIGHT_CLEAR,NIGHT_CLOUDY","Cross-shore,Cross-shore,Cross-shore",3
5842041f4e65fad6a7708a11,2024_12_15,39.79614,-74.09248,Island Beach State Park,1,0.36778,0.6737,14,13,"NIGHT_CLEAR,NIGHT_CLOUDY,NIGHT_CLOUDY","Cross-shore,Onshore,Onshore",3
5842041f4e65fad6a7708a12,2024_12_15,39.91813588078152,-74.07527,Seaside Park,1.6666666666666667,0.4501866666666667,0.75944,14,13,"NIGHT_CLEAR,NIGHT_CLEAR,NIGHT_CLOUDY","Onshore,Cross-shore,Cross-shore",3
5842041f4e65fad6a7708a15,2024_12_15,39.95745637606704,-74.06736,Ortley Beach,1,0.4435766666666667,0.7474333333333333,9,8,"NIGHT_CLEAR,NIGHT_CLEAR,NIGHT_CLOUDY","Cross-shore,Onshore,Onshore",3
5842041f4e65fad6a7708a16,2024_12_15,39.98313468342945,-74.06265685577506,Lavallette,1,0.38666666666666666,0.6878666666666666,9,8,"NIGHT_CLEAR,NIGHT_CLEAR,NIGHT_CLOUDY","Cross-shore,Onshore,Onshore",3
5842041f4e65fad6a7708a17,2024_12_15,40.0699319967757,-74.04145,Bay Head,1,0.35666666666666663,0.6620333333333334,9,8,"NIGHT_CLEAR,NIGHT_CLEAR,NIGHT_CLOUDY","Cross-shore,Onshore,Onshore",3
5842041f4e65fad6a7708a18,2024_12_15,40.094041,-74.034859,Jenkinson's,1.3333333333333333,0.36083333333333334,0.6687,9,8,"NIGHT_CLEAR,NIGHT_CLEAR,NIGHT_CLOUDY","Offshore,Onshore,Cross-shore",3
5842041f4e65fad6a7708a1a,2024_12_15,38.148058,-75.17704,Assateague,1,0.5080566666666667,0.81009,8,7,"NIGHT_CLOUDY,NIGHT_CLOUDY,NIGHT_CLOUDY","Cross-shore,Onshore,Onshore",3
5842041f4e65fad6a7708a1b,2024_12_15,38.33889038664497,-75.08017670566352,North End to Ocean City Inlet,1,0.4975,0.8028666666666666,8,7,"NIGHT_CLOUDY,NIGHT_CLOUDY,NIGHT_OVERCAST","Onshore,Onshore,Onshore",3
5842041f4e65fad6a7708a1c,2024_12_15,38.603993,-75.06271,Indian River Inlet,1,0.49355666666666664,0.8489166666666667,12,12,"NIGHT_MOSTLY_CLOUDY,NIGHT_CLOUDY,NIGHT_OVERCAST","Onshore,Onshore,Onshore",3
5842041f4e65fad6a7708a1d,2024_12_15,38.460477,-75.05207,Fenwick Island,1,0.36333333333333334,0.6666666666666666,12,12,"NIGHT_CLEAR,NIGHT_OVERCAST,NIGHT_OVERCAST","Onshore,Onshore,Onshore",3
5842041f4e65fad6a7708a1e,2024_12_15,38.538767,-75.05619,Bethany Beach,1,0.47433,0.8271333333333334,12,12,"NIGHT_CLOUDY,NIGHT_CLOUDY,NIGHT_OVERCAST","Onshore,Onshore,Onshore",3
5842041f4e65fad6a7708a1f,2024_12_15,38.697657,-75.07595,Dewey Beach,1,0.7333333333333334,1,12,12,"NIGHT_MOSTLY_CLOUDY,NIGHT_CLOUDY,NIGHT_CLOUDY","Onshore,Onshore,Onshore",3
5842041f4e65fad6a7708a20,2024_12_15,38.75034741676525,-75.08194,Gordons Pond,1,0.2503666666666667,0.64749,12,12,"NIGHT_MOSTLY_CLEAR,NIGHT_MOSTLY_CLOUDY,NIGHT_OVERCAST","Onshore,Onshore,Onshore",3
5842041f4e65fad6a7708a21,2024_12_15,38.767837,-75.08284,Naval Jetties,1,0.5533333333333333,0.8533333333333333,12,12,"NIGHT_MOSTLY_CLEAR,NIGHT_CLEAR,NIGHT_OVERCAST","Onshore,Onshore,Onshore",3
5842041f4e65fad6a7708a22,2024_12_15,36.81735875786576,-75.96624,Camp Pendleton,1,0.47933333333333333,1.0831666666666666,13,13,"NIGHT_OVERCAST,NIGHT_MOSTLY_CLOUDY,NIGHT_CLEAR","Onshore,Onshore,Onshore",3
5842041f4e65fad6a7708a23,2024_12_15,36.9102212316428,-75.98732471466064,North End,0.7777777777777778,0.7516,1.1190666666666667,11,11,"NIGHT_OVERCAST,NIGHT_MOSTLY_CLOUDY,NIGHT_MOSTLY_CLOUDY","Onshore,Onshore,Onshore",3
5842041f4e65fad6a7708a24,2024_12_15,36.737117517621314,-75.93924,Sandbridge Beach,1,0.5564766666666666,0.86240000000000006,11,11,"NIGHT_OVERCAST,NIGHT_MOSTLY_CLOUDY,NIGHT_CLEAR","Onshore,Onshore,Onshore",3
5842041f4e65fad6a7708a26,2024_12_15,36.818257440557794,-75.96666,Croatan to Pendleton,1,0.6579233333333333,1.05256,11,11,"NIGHT_OVERCAST,NIGHT_OVERCAST,NIGHT_CLEAR","Onshore,Onshore,Onshore",3
5842041f4e65fad6a7708a27,2024_12_15,36.84318777204769,-75.9719,South End,1,0.48286666666666667,0.7868466666666667,11,11,"NIGHT_OVERCAST,NIGHT_MOSTLY_CLOUDY,NIGHT_CLEAR","Onshore,Onshore,Onshore",3
5842041f4e65fad6a7708a28,2024_12_15,37.08612627584661,-75.976121638199,Fishermans Island,1,0.19333333333333333,0.316,13,13,"NIGHT_OVERCAST,NIGHT_OVERCAST,NIGHT_CLEAR","Cross-shore,Cross-shore,Cross-shore",3
5842041f4e65fad6a7708a38,2024_12_15,35.254619418229026,-75.52074,Cape Hatteras Lighthouse,1,1.38533,2.2276,14,14,"NIGHT_BRIEF_SHOWERS,NIGHT_MOSTLY_CLOUDY,NIGHT_CLOUDY","Cross-shore,Onshore,Cross-shore",3
5842041f4e65fad6a7708a3a,2024_12_15,35.54572934093336,-75.46477,Waves and Salvo,0,1.3000766666666668,1.6176666666666666,14,13,"NIGHT_BRIEF_SHOWERS,NIGHT_CLEAR,NIGHT_CLOUDY","Cross-shore,Onshore,Onshore",3
5842041f4e65fad6a7708a3b,2024_12_15,35.22565892751075,-75.63606,Frisco,1.6666666666666667,1.2606466666666667,1.5099566666666666,15,14,"NIGHT_CLEAR,NIGHT_MOSTLY_CLOUDY,NIGHT_OVERCAST","Offshore,Offshore,Offshore",3
5842041f4e65fad6a7708a3c,2024_12_15,35.13086,-75.90591,Ocracoke,0,1.2690866666666667,1.5676966666666667,18,18,"NIGHT_BRIEF_SHOWERS,NIGHT_CLEAR,NIGHT_OVERCAST","Cross-shore,Cross-shore,Cross-shore",3
5842041f4e65fad6a7708a3d,2024_12_15,35.34721340158342,-75.50084,Avon Pier,0,1.3528666666666667,2.093913333333333,14,14,"NIGHT_MOSTLY_CLOUDY,NIGHT_CLEAR,NIGHT_DRIZZLE","Cross-shore,Onshore,Onshore",3
5842041f4e65fad6a7708a3f,2024_12_15,35.71680821253768,-75.49243,Pea Island,0.6666666666666666,0.79,1.0566666666666666,16,16,"NIGHT_MOSTLY_CLOUDY,NIGHT_MOSTLY_CLOUDY,NIGHT_OVERCAST","Onshore,Onshore,Onshore",3
5842041f4e65fad6a7708a40,2024_12_15,35.97427620657821,-75.62984,Nags Head Pier,1,0.9477333333333333,1.4726,13,12,"NIGHT_CLOUDY,NIGHT_MOSTLY_CLOUDY,NIGHT_CLOUDY","Onshore,Onshore,Onshore",3
5842041f4e65fad6a7708a41,2024_12_15,36.0439998039079,-75.67288,Avalon Pier,1,0.7894333333333333,1.1320666666666666,13,12,"NIGHT_OVERCAST,NIGHT_BRIEF_SHOWERS,NIGHT_CLEAR","Onshore,Onshore,Onshore",3
5842041f4e65fad6a7708a42,2024_12_15,36.03043116489792,-75.66413,First Street,1,0.8660666666666667,1.4726,13,12,"NIGHT_OVERCAST,NIGHT_MOSTLY_CLOUDY,NIGHT_CLEAR","Onshore,Onshore,Onshore",3
5842041f4e65fad6a7708a43,2024_12_15,36.06829910590498,-75.6899,Old Station/Laundromats,1,0.9877666666666667,1.2917866666666666,13,12,"NIGHT_OVERCAST,NIGHT_BRIEF_SHOWERS,NIGHT_OVERCAST","Onshore,Onshore,Onshore",3
5842041f4e65fad6a7708a44,2024_12_15,36.10126676607491,-75.71107,Kitty Hawk Pier,1,1.0210666666666666,1.4751,13,12,"NIGHT_OVERCAST,NIGHT_BRIEF_SHOWERS,NIGHT_OVERCAST","Onshore,Onshore,Onshore",3
5842041f4e65fad6a7708a45,2024_12_15,36.18220630068973,-75.75014,Duck Pier,0.6666666666666666,0.7433333333333333,1.01,14,14,"NIGHT_CLOUDY,NIGHT_MOSTLY_CLOUDY,NIGHT_MOSTLY_CLOUDY","Onshore,Onshore,Onshore",3
5842041f4e65fad6a7708a46,2024_12_15,36.37660668125033,-75.8241,Corolla,0.6666666666666666,0.63,0.9333333333333333,13,13,"NIGHT_CLOUDY,NIGHT_CLEAR,NIGHT_MOSTLY_CLOUDY","Onshore,Onshore,Onshore",3
5842041f4e65fad6a7708a47,2024_12_15,33.90373404124834,-78.08241431707907,Oak Island,2.6666666666666665,0.8533333333333333,1.0733333333333333,13,13,"NIGHT_MOSTLY_CLOUDY,NIGHT_LIGHT_RAIN,NIGHT_CLEAR","Offshore,Offshore,Offshore",3
5842041f4e65fad6a7708a48,2024_12_15,33.91108837766468,-78.29653,South Brunswick Beaches,2.3333333333333335,0.4563433333333333,0.8401766666666667,13,13,"NIGHT_CLEAR,NIGHT_MOSTLY_CLOUDY,NIGHT_CLEAR","Offshore,Offshore,Offshore",3
5842041f4e65fad6a7708a49,2024_12_15,34.05683595651973,-77.88128,Carolina Beach Pier,0.3888888888888889,1.0928433333333332,1.5601099999999999,14,13,"NIGHT_MOSTLY_CLOUDY,NIGHT_OVERCAST,NIGHT_CLEAR","Cross-shore,Cross-shore,Cross-shore",3
5842041f4e65fad6a7708a4a,2024_12_15,33.96841191816696,-77.9180242565498,Fort Fisher,0.3888888888888889,1.2403466666666667,1.7217766666666667,14,13,"NIGHT_CLEAR,NIGHT_CLOUDY,NIGHT_CLEAR","Cross-shore,Onshore,Cross-shore",3
5842041f4e65fad6a7708a4b,2024_12_15,34.46776662988774,-77.47083,Topsail Beach,2.3333333333333335,1.3224,1.6519333333333335,14,13,"NIGHT_MOSTLY_CLOUDY,NIGHT_CLEAR,NIGHT_CLEAR","Offshore,Offshore,Offshore",3
5842041f4e65fad6a7708a4c,2024_12_15,34.69270354752445,-76.82854854446575,Iron Steamer,1.8333333333333333,0.5806266666666666,0.86582,14,13,"NIGHT_CLOUDY,NIGHT_MOSTLY_CLOUDY,NIGHT_CLEAR","Offshore,Offshore,Offshore",3
5842041f4e65fad6a7708a4f,2024_12_15,30.85132684893727,-81.42283496231143,Cumberland Island,0.6666666666666666,1.9733333333333334,2.34,16,16,"NIGHT_CLEAR,NIGHT_BRIEF_SHOWERS,NIGHT_MOSTLY_CLOUDY","Cross-shore,Cross-shore,Cross-shore",3
5842041f4e65fad6a7708a50,2024_12_15,34.686741128540874,-76.47516712138378,Cape Lookout National Seashore,0,1.8699999999999999,2.23,16,16,"NIGHT_MOSTLY_CLOUDY,NIGHT_MOSTLY_CLOUDY,NIGHT_BRIEF_SHOWERS","Cross-shore,Cross-shore,Cross-shore",3
5842041f4e65fad6a7708a51,2024_12_15,31.10585419260024,-81.40422767604812,Jekyll Island,0.3333333333333333,1.2533333333333334,1.5166666666666666,15,15,"NIGHT_MIST,NIGHT_LIGHT_RAIN,NIGHT_MOSTLY_CLOUDY","Onshore,Onshore,Onshore",3
5842041f4e65fad6a7708a52,2024_12_15,31.16212806376699,-81.32512426500224,Harbor Marker Buoys,0.6666666666666666,1.74,2.04,15,15,"NIGHT_MIST,NIGHT_CLEAR,NIGHT_MIST","Cross-shore,Cross-shore,Cross-shore",3
5842041f4e65fad6a7708a53,2024_12_15,31.20076299997009,-81.32629,Sea Island,1,1.6966666666666665,2,15,15,"NIGHT_MIST,NIGHT_DRIZZLE,NIGHT_MOSTLY_CLOUDY","Cross-shore,Cross-shore,Cross-shore",3
5842041f4e65fad6a7708a54,2024_12_15,31.13553222995767,-81.38457634790909,St. Simons Island,2.3333333333333335,1.5,1.7866666666666666,15,15,"NIGHT_BRIEF_SHOWERS,NIGHT_LIGHT_RAIN,NIGHT_CLEAR","Offshore,Offshore,Offshore",3
5842041f4e65fad6a7708a55,2024_12_15,31.33550077186516,-81.28383377408417,Wolf Island,1.3333333333333333,1.4033333333333333,1.7,14,14,"NIGHT_MOSTLY_CLOUDY,NIGHT_CLOUDY,NIGHT_MIST","Cross-shore,Onshore,Cross-shore",3
5842041f4e65fad6a7708a56,2024_12_15,31.2704493877174,-81.27324039152315,Little St. Simons Island,0.6666666666666666,1.79,2.09,15,15,"NIGHT_BRIEF_SHOWERS,NIGHT_CLOUDY,NIGHT_BRIEF_SHOWERS","Onshore,Onshore,Onshore",3
5842041f4e65fad6a7708a57,2024_12_15,31.39261761368919,-81.26190520231917,Sapelo Island,1.3333333333333333,1.53,1.75,14,14,"NIGHT_BRIEF_SHOWERS,NIGHT_DRIZZLE,NIGHT_OVERCAST","Cross-shore,Cross-shore,Cross-shore",3
5842041f4e65fad6a7708a58,2024_12_15,34.42458783809001,-77.54492,Surf City Pier,2.3333333333333335,1.3276766666666666,1.6188766666666665,14,13,"NIGHT_MOSTLY_CLOUDY,NIGHT_CLEAR,NIGHT_CLEAR","Offshore,Cross-shore,Offshore",3
5842041f4e65fad6a7708a59,2024_12_15,31.4231993614213,-81.24725340591522,Cabretta Island,2,1.84,2.1,14,14,"NIGHT_MOSTLY_CLOUDY,NIGHT_MOSTLY_CLOUDY,NIGHT_OVERCAST","Cross-shore,Cross-shore,Cross-shore",3
5842041f4e65fad6a7708a5a,2024_12_15,31.46684389030369,-81.2100056410468,Blackbeard Island,1,1.53,1.75,15,15,"NIGHT_CLEAR,NIGHT_OVERCAST,NIGHT_OVERCAST","Cross-shore,Cross-shore,Cross-shore",3
5842041f4e65fad6a7708a5b,2024_12_15,31.85953587631629,-80.99031310336719,Wassaw Island/South End,0.3333333333333333,0.7566666666666667,1.06,15,15,"NIGHT_MOSTLY_CLOUDY,NIGHT_CLOUDY,NIGHT_CLOUDY","Cross-shore,Cross-shore,Cross-shore",3
5842041f4e65fad6a7708a5c,2024_12_15,31.62535662342983,-81.13328352167974,St. Catherines Island,0.6666666666666666,1.7466666666666666,2.07,14,14,"NIGHT_MOSTLY_CLOUDY,NIGHT_MOSTLY_CLOUDY,NIGHT_MOSTLY_CLOUDY","Cross-shore,Onshore,Cross-shore",3
5842041f4e65fad6a7708a5d,2024_12_15,31.76502169596568,-81.07655443806622,Ossabaw Island,0.3333333333333333,1.3133333333333332,1.5833333333333333,14,14,"NIGHT_MOSTLY_CLOUDY,NIGHT_OVERCAST,NIGHT_MOSTLY_CLOUDY","Cross-shore,Cross-shore,Cross-shore",3
5842041f4e65fad6a7708a5e,2024_12_15,31.90593619092352,-80.93589231700857,Wassaw Island/North End,0.3333333333333333,1.9733333333333334,2.1866666666666665,15,15,"NIGHT_MOSTLY_CLEAR,NIGHT_CLOUDY,NIGHT_OVERCAST","Cross-shore,Cross-shore,Cross-shore",3
5842041f4e65fad6a7708a5f,2024_12_15,31.96738675414547,-80.86977980706155,Little Tybee Island,0.3333333333333333,1.7833333333333332,2.083333333333333,15,15,"NIGHT_MOSTLY_CLEAR,NIGHT_MOSTLY_CLOUDY,NIGHT_MOSTLY_CLOUDY","Cross-shore,Cross-shore,Cross-shore",3
5842041f4e65fad6a7708a60,2024_12_15,31.9812255780179,-80.84773973467009,South Tybee Sandbars,0.3333333333333333,1.4066666666666667,1.6833333333333333,15,15,"NIGHT_MOSTLY_CLEAR,NIGHT_MOSTLY_CLOUDY,NIGHT_MOSTLY_CLOUDY","Onshore,Onshore,Onshore",3
5842041f4e65fad6a7708a61,2024_12_15,32.01226,-80.83983,Sugar Shack,0.3333333333333333,1.03,1.31,15,15,"NIGHT_CLEAR,NIGHT_MOSTLY_CLOUDY,NIGHT_MOSTLY_CLOUDY","Onshore,Onshore,Onshore",3
5842041f4e65fad6a7708a62,2024_12_15,31.98722842396969,-80.84773,18th St. Jetty,0,1.7368233333333334,1.97898,15,15,"NIGHT_MOSTLY_CLEAR,NIGHT_MOSTLY_CLOUDY,NIGHT_MOSTLY_CLOUDY","Onshore,Onshore,Onshore",3
5842041f4e65fad6a7708a64,2024_12_15,34.013473721006676,-77.8991,"Alabama Ave., Kure Beach",1.3333333333333333,1.3133333333333332,1.6,13,13,"NIGHT_MOSTLY_CLOUDY,NIGHT_DRIZZLE,NIGHT_CLEAR","Onshore,Onshore,Onshore",3
5842041f4e65fad6a7708a65,2024_12_15,34.20859853336924,-77.79293,"C Street, Wrightsville Beach",1.2222222222222223,1.2386433333333333,1.6712766666666667,14,13,"NIGHT_CLOUDY,NIGHT_MOSTLY_CLOUDY,NIGHT_CLEAR","Cross-shore,Cross-shore,Cross-shore",3
5842041f4e65fad6a7708a66,2024_12_15,32.831,-79.71,Dewees Island,2,1.3933333333333333,1.6166666666666667,14,14,"NIGHT_CLEAR,NIGHT_MOSTLY_CLOUDY,NIGHT_MOSTLY_CLOUDY","Onshore,Onshore,Onshore",3
5842041f4e65fad6a7708a67,2024_12_15,33.82924423172106,-78.62813,Cherry Grove Pier,1.8333333333333333,0.8432666666666667,1.2103,13,13,"NIGHT_CLEAR,NIGHT_CLEAR,NIGHT_CLEAR","Offshore,Offshore,Offshore",3
5842041f4e65fad6a7708a69,2024_12_15,34.27197439666496,-77.74050223196774,Figure Eight and Shell Islands,1.5555555555555556,1.2617,1.6901666666666666,14,13,"NIGHT_MOSTLY_CLOUDY,NIGHT_MOSTLY_CLEAR,NIGHT_CLEAR","Offshore,Cross-shore,Offshore",3
5842041f4e65fad6a7708a6b,2024_12_15,33.49041958261793,-79.07666070599386,North End,1.3333333333333333,0.9633333333333334,1.18,13,13,"NIGHT_BRIEF_SHOWERS,NIGHT_MOSTLY_CLEAR,NIGHT_OVERCAST","Cross-shore,Cross-shore,Cross-shore",3
5842041f4e65fad6a7708a6c,2024_12_15,33.39537062495087,-79.13835037835189,The South End,0,1.0166666666666666,1.2233333333333334,13,13,"NIGHT_MOSTLY_CLOUDY,NIGHT_CLEAR,NIGHT_CLOUDY","Cross-shore,Cross-shore,Cross-shore",3
5842041f4e65fad6a7708a6d,2024_12_15,33.29001727666697,-79.17190003352977,North Island,0,1.5466666666666666,1.8399999999999999,13,13,"NIGHT_MOSTLY_CLOUDY,NIGHT_OVERCAST,NIGHT_OVERCAST","Onshore,Onshore,Onshore",3
5842041f4e65fad6a7708a6e,2024_12_15,32.90929771158952,-79.57810400297359,Bull Island,0.6666666666666666,1.4833333333333334,1.7133333333333334,14,14,"NIGHT_MOSTLY_CLOUDY,NIGHT_CLEAR,NIGHT_SHOWERS","Cross-shore,Cross-shore,Cross-shore",3
5842041f4e65fad6a7708a6f,2024_12_15,31.99153112815895,-80.84543050470074,Tybee Island Pier,0,0.9133333333333333,1.0933333333333333,15,15,"NIGHT_CLEAR,NIGHT_MOSTLY_CLOUDY,NIGHT_MOSTLY_CLOUDY","Onshore,Onshore,Cross-shore",3
5842041f4e65fad6a7708a70,2024_12_15,33.03478144356316,-79.35021028265125,Cape Romain,0.3333333333333333,1.6833333333333333,2.0100000000000002,13,13,"NIGHT_MOSTLY_CLOUDY,NIGHT_MOSTLY_CLOUDY,NIGHT_OVERCAST","Cross-shore,Cross-shore,Cross-shore",3
5842041f4e65fad6a7708a71,2024_12_15,33.43231073271028,-79.11789,The Pier,0,1.0131966666666665,1.38539,13,13,"NIGHT_BRIEF_SHOWERS,NIGHT_CLEAR,NIGHT_CLOUDY","Cross-shore,Cross-shore,Cross-shore",3
5842041f4e65fad6a7708a72,2024_12_15,33.45423621397969,-79.10497798178424,South Litchfield,1.6666666666666667,1.1833333333333333,1.4866666666666668,13,13,"NIGHT_MOSTLY_CLOUDY,NIGHT_CLEAR,NIGHT_OVERCAST","Cross-shore,Cross-shore,Cross-shore",3
5842041f4e65fad6a7708a73,2024_12_15,34.19316590251396,-77.8045,Crystal Pier,0.7222222222222222,1.1006066666666667,1.4456200000000001,14,13,"NIGHT_CLOUDY,NIGHT_MOSTLY_CLOUDY,NIGHT_CLEAR","Cross-shore,Cross-shore,Cross-shore",3
5842041f4e65fad6a7708a74,2024_12_15,33.68628680045124,-78.88346,Myrtle Beach,2,0.9766666666666667,1.2833333333333332,13,13,"NIGHT_MOSTLY_CLEAR,NIGHT_CLEAR,NIGHT_OVERCAST","Cross-shore,Cross-shore,Cross-shore",3
5842041f4e65fad6a7708a75,2024_12_15,32.66166297145973,-79.91951806398808,10th Street,2.3333333333333335,1.58,1.86,14,14,"NIGHT_CLEAR,NIGHT_MOSTLY_CLOUDY,NIGHT_SHOWERS","Cross-shore,Cross-shore,Cross-shore",3
5842041f4e65fad6a7708a76,2024_12_15,33.16729555197199,-79.19829236867845,South Island,0,1.4000000000000001,1.6433333333333333,13,13,"NIGHT_CLEAR,NIGHT_MOSTLY_CLOUDY,NIGHT_DRIZZLE","Cross-shore,Cross-shore,Onshore",3
5842041f4e65fad6a7708a77,2024_12_15,32.595,-80.088,Kiawah Island/Seabrook Island,3,1.1733333333333333,1.39,15,15,"NIGHT_MOSTLY_CLEAR,NIGHT_CLEAR,NIGHT_CLEAR","Offshore,Offshore,Offshore",3
5842041f4e65fad6a7708a78,2024_12_15,32.51356930575787,-80.28223,Edisto Beach,2,1.0303733333333334,1.4283733333333333,14,14,"NIGHT_BRIEF_SHOWERS,NIGHT_MOSTLY_CLOUDY,NIGHT_CLEAR","Cross-shore,Cross-shore,Offshore",3
5842041f4e65fad6a7708a79,2024_12_15,32.366270751262,-80.43911,Hunting Island,0.6666666666666666,1.5478566666666667,1.9234633333333333,14,14,"NIGHT_MOSTLY_CLOUDY,NIGHT_CLOUDY,NIGHT_CLEAR","Onshore,Onshore,Onshore",3
5842041f4e65fad6a7708a7a,2024_12_15,32.65337734408365,-79.93983,Folly Beach Pier,1.8333333333333333,1.1080933333333334,1.3633966666666666,14,14,"NIGHT_CLEAR,NIGHT_MOSTLY_CLOUDY,NIGHT_BRIEF_SHOWERS","Offshore,Offshore,Offshore",3
5842041f4e65fad6a7708a7b,2024_12_15,33.41209545530049,-79.13026341393126,South Jetty,1,1.0166666666666666,1.2233333333333334,13,13,"NIGHT_MOSTLY_CLOUDY,NIGHT_MOSTLY_CLEAR,NIGHT_OVERCAST","Cross-shore,Cross-shore,Cross-shore",3
5842041f4e65fad6a7708a7c,2024_12_15,32.31115640606869,-80.48564,Fripp Island,1,1.31747,1.7118433333333334,15,15,"NIGHT_BRIEF_SHOWERS,NIGHT_MOSTLY_CLOUDY,NIGHT_MOSTLY_CLOUDY","Offshore,Offshore,Offshore",3
5842041f4e65fad6a7708a7d,2024_12_15,32.14365226036034,-80.74402,Hilton Head Island,0.3333333333333333,0.29,0.5933333333333334,15,15,"NIGHT_MOSTLY_CLOUDY,NIGHT_MOSTLY_CLOUDY,NIGHT_MOSTLY_CLOUDY","Cross-shore,Cross-shore,Cross-shore",3
5842041f4e65fad6a7708a7e,2024_12_15,29.70405364733744,-81.22426,Matanzas Inlet,1.3333333333333333,1.6972966666666667,2.06245,19,19,"NIGHT_CLOUDY,NIGHT_MOSTLY_CLOUDY,NIGHT_MOSTLY_CLOUDY","Onshore,Onshore,Onshore",3
5842041f4e65fad6a7708a81,2024_12_15,29.76878537149042,-81.25109,Crescent Beach,1,1.8066666666666666,2.11,18,18,"NIGHT_OVERCAST,NIGHT_MOSTLY_CLEAR,NIGHT_MOSTLY_CLOUDY","Onshore,Onshore,Onshore",3
5842041f4e65fad6a7708a82,2024_12_15,32.80251718689188,-79.73221919500764,Wild Dunes,1.3333333333333333,1.5133333333333334,1.8166666666666667,14,14,"NIGHT_CLEAR,NIGHT_MOSTLY_CLOUDY,NIGHT_MOSTLY_CLOUDY","Cross-shore,Cross-shore,Cross-shore",3
5842041f4e65fad6a7708a84,2024_12_15,32.75733539419244,-79.83258856064796,Bert's Bar,2.3333333333333335,1.0766666666666667,1.2933333333333334,14,14,"NIGHT_MOSTLY_CLEAR,NIGHT_MOSTLY_CLOUDY,NIGHT_MOSTLY_CLOUDY","Cross-shore,Cross-shore,Cross-shore",3
5842041f4e65fad6a7708a85,2024_12_15,32.66829212943039,-79.90735,Washout,1.7222222222222223,1.2240666666666666,1.7627033333333333,14,12,"NIGHT_CLEAR,NIGHT_BRIEF_SHOWERS,NIGHT_SHOWERS","Cross-shore,Cross-shore,Cross-shore",3
5842041f4e65fad6a7708a86,2024_12_15,32.78452968219067,-79.7854,The Pier/Windjammer,2.3333333333333335,1.4766666666666668,1.7633333333333334,14,14,"NIGHT_MOSTLY_CLEAR,NIGHT_MOSTLY_CLOUDY,NIGHT_MOSTLY_CLOUDY","Offshore,Offshore,Cross-shore",3
5842041f4e65fad6a7708a87,2024_12_15,29.86618162637438,-81.2662150259608,Anastasia Park (The Entrance),1,1.5066666666666666,1.8133333333333332,18,18,"NIGHT_CLOUDY,NIGHT_CLEAR,NIGHT_BRIEF_SHOWERS","Onshore,Onshore,Onshore",3
5842041f4e65fad6a7708a89,2024_12_15,29.89149785916623,-81.2723223244215,Blowholes,1,1.6127666666666667,1.9173,24,23,"NIGHT_CLOUDY,NIGHT_MOSTLY_CLEAR,NIGHT_SHOWERS","Onshore,Onshore,Onshore",3
5842041f4e65fad6a7708a8a,2024_12_15,30.16227112983666,-81.35502907491218,Crossroads,1.3333333333333333,1.6061,1.9464666666666668,24,23,"NIGHT_RAIN,NIGHT_SHOWERS,NIGHT_BRIEF_SHOWERS","Onshore,Onshore,Onshore",3
5842041f4e65fad6a7708a8b,2024_12_15,30.19308537587637,-81.36314247820911,Sawgrass,1.3333333333333333,1.8386,2.1798,24,23,"NIGHT_OVERCAST,NIGHT_MOSTLY_CLOUDY,NIGHT_BRIEF_SHOWERS","Onshore,Onshore,Onshore",3
5842041f4e65fad6a7708a8c,2024_12_15,30.34696027700899,-81.39451,18th Street,2,1.8048733333333333,2.2006366666666666,17,17,"NIGHT_OVERCAST,NIGHT_MOSTLY_CLOUDY,NIGHT_MOSTLY_CLOUDY","Offshore,Onshore,Onshore",3
5842041f4e65fad6a7708a8d,2024_12_15,30.381793,-81.39686,Mayport Poles,1.3333333333333333,2.216666666666667,2.65,17,17,"NIGHT_OVERCAST,NIGHT_MOSTLY_CLOUDY,NIGHT_MOSTLY_CLOUDY","Onshore,Cross-shore,Onshore",3
5842041f4e65fad6a7708a8e,2024_12_15,30.390516,-81.395591,Blue Roofs,1.3333333333333333,2.0633333333333335,2.466666666666667,17,17,"NIGHT_OVERCAST,NIGHT_MOSTLY_CLOUDY,NIGHT_MOSTLY_CLOUDY","Cross-shore,Onshore,Onshore",3
5842041f4e65fad6a7708a8f,2024_12_15,30.40517712722211,-81.40074116169004,Huguenot Park (North Jetty),1,2.2933333333333334,2.493333333333333,17,17,"NIGHT_OVERCAST,NIGHT_MOSTLY_CLOUDY,NIGHT_MOSTLY_CLOUDY","Onshore,Onshore,Onshore",3
5842041f4e65fad6a7708a90,2024_12_15,30.47788918872762,-81.41055821335078,Talbot Island,1,1.7790633333333332,2.2121566666666665,19,19,"NIGHT_DRIZZLE,NIGHT_BRIEF_SHOWERS,NIGHT_MOSTLY_CLEAR","Onshore,Cross-shore,Onshore",3
5842041f4e65fad6a7708a91,2024_12_15,30.66753984549761,-81.42983,Main Beach,0.6666666666666666,1.9833333333333334,2.2866666666666666,17,17,"NIGHT_MOSTLY_CLOUDY,NIGHT_HEAVY_SHOWERS,NIGHT_MOSTLY_CLOUDY","Cross-shore,Cross-shore,Onshore",3
5842041f4e65fad6a7708a92,2024_12_15,30.69983581209126,-81.42483,Ft. Clinch State Park,0.6666666666666666,2.453333333333333,2.756666666666667,17,17,"NIGHT_MOSTLY_CLOUDY,NIGHT_BRIEF_SHOWERS,NIGHT_MOSTLY_CLOUDY","Onshore,Onshore,Onshore",3
5842041f4e65fad6a7708a93,2024_12_15,30.62059700777582,-81.437252942757425,Amelia Pier,1.3333333333333333,2.0366666666666666,2.243333333333333,17,17,"NIGHT_MOSTLY_CLOUDY,NIGHT_MOSTLY_CLOUDY,NIGHT_MOSTLY_CLEAR","Onshore,Onshore,Onshore",3
5842041f4e65fad6a7708a95,2024_12_15,28.95125170929067,-80.83837,Bethune Beach,1,2.2733333333333334,2.5233333333333334,20,20,"NIGHT_DRIZZLE,NIGHT_CLEAR,NIGHT_CLEAR","Onshore,Onshore,Onshore",3
5842041f4e65fad6a7708a96,2024_12_15,29.03874288905362,-80.8933424949646,Flagler Ave.,1,1.7461866666666668,2.06692,24,23,"NIGHT_RAIN,NIGHT_MOSTLY_CLEAR,NIGHT_MOSTLY_CLOUDY","Onshore,Onshore,Onshore",3
5842041f4e65fad6a7708a98,2024_12_15,30.332297686992757,-81.39319,Atlantic Beach,2,1.7380333333333333,2.1271433333333336,17,17,"NIGHT_OVERCAST,NIGHT_BRIEF_SHOWERS,NIGHT_MOSTLY_CLOUDY","Cross-shore,Onshore,Cross-shore",3
5842041f4e65fad6a7708a99,2024_12_15,29.87530059952514,-81.26757958498874,Middles,1,1.4449866666666666,1.7456333333333334,24,23,"NIGHT_CLOUDY,NIGHT_MOSTLY_CLOUDY,NIGHT_SHOWERS","Onshore,Onshore,Onshore",3
5842041f4e65fad6a7708a9a,2024_12_15,29.146475528378218,-80.96347,Sunglow Pier,1,1.9166666666666667,2.2266666666666666,20,20,"NIGHT_OVERCAST,NIGHT_BRIEF_SHOWERS,NIGHT_CLEAR","Onshore,Onshore,Onshore",3
5842041f4e65fad6a7708a9b,2024_12_15,30.02251238001095,-81.32183077344881,Gate Station,1.6666666666666667,1.5633233333333334,1.8578566666666665,24,23,"NIGHT_OVERCAST,NIGHT_CLEAR,NIGHT_BRIEF_SHOWERS","Onshore,Onshore,Onshore",3
5842041f4e65fad6a7708a9c,2024_12_15,29.33976495417899,-81.0606,Bicentennial Park,1,1.8433333333333333,2.09,19,19,"NIGHT_DRIZZLE,NIGHT_CLEAR,NIGHT_CLEAR","Onshore,Onshore,Onshore",3
5842041f4e65fad6a7708a9d,2024_12_15,29.08257353385602,-80.92137,Ponce Inlet,1,1.8550766666666665,2.8724766666666666,21,19,"NIGHT_OVERCAST,NIGHT_MOSTLY_CLOUDY,NIGHT_MOSTLY_CLOUDY","Onshore,Onshore,Onshore",3
5842041f4e65fad6a7708a9f,2024_12_15,27.862962005874696,-80.44668,Sebastian Inlet,0.9444444444444444,1.6689266666666667,2.559266666666667,22,21,"NIGHT_OVERCAST,NIGHT_CLEAR,NIGHT_MOSTLY_CLOUDY","Onshore,Onshore,Onshore",3
5842041f4e65fad6a7708aa0,2024_12_15,30.292626880836885,-81.38579,Jacksonville Beach Pier,1.6111111111111112,2.2440233333333333,2.61268,19,19,"NIGHT_OVERCAST,NIGHT_MOSTLY_CLOUDY,NIGHT_BRIEF_SHOWERS","Cross-shore,Cross-shore,Onshore",3
5842041f4e65fad6a7708aa2,2024_12_15,29.21860397328164,-81.0019,Daytona Beach,1,2.006666666666667,2.2533333333333334,20,20,"NIGHT_OVERCAST,NIGHT_MOSTLY_CLOUDY,NIGHT_MOSTLY_CLOUDY","Onshore,Onshore,Onshore",3
5842041f4e65fad6a7708aa3,2024_12_15,27.47531255634912,-80.28914,Ft. Pierce Inlet,1,1.5707233333333335,2.5957333333333334,25,23,"NIGHT_OVERCAST,NIGHT_BRIEF_SHOWERS,NIGHT_MOSTLY_CLOUDY","Onshore,Onshore,Onshore",3
5842041f4e65fad6a7708aa4,2024_12_15,29.29239875585548,-81.0386,Ormond Beach,1,2.216666666666667,2.42,19,19,"NIGHT_RAIN,NIGHT_CLEAR,NIGHT_MOSTLY_CLOUDY","Onshore,Onshore,Onshore",3
5842041f4e65fad6a7708aa5,2024_12_15,29.91629441498523,-81.28801,Vilano,1.3333333333333333,1.6566666666666667,1.9166666666666665,18,18,"NIGHT_OVERCAST,NIGHT_MOSTLY_CLOUDY,NIGHT_MOSTLY_CLOUDY","Onshore,Onshore,Onshore",3
5842041f4e65fad6a7708aa6,2024_12_15,27.876230736320828,-80.4551,Spanish House,0,2.9471133333333333,3.3740466666666666,22,21,"NIGHT_DRIZZLE,NIGHT_BRIEF_SHOWERS,NIGHT_MOSTLY_CLOUDY","Onshore,Onshore,Onshore",3
5842041f4e65fad6a7708aa7,2024_12_15,28.64397251741012,-80.62329,Playalinda,1,2.4266666666666667,2.7066666666666666,20,20,"NIGHT_MOSTLY_CLOUDY,NIGHT_BRIEF_SHOWERS,NIGHT_MOSTLY_CLEAR","Onshore,Onshore,Onshore",3
5842041f4e65fad6a7708aa8,2024_12_15,28.406142,-80.58886,Jetty Park,2,1.5133333333333334,1.69,20,20,"NIGHT_MOSTLY_CLOUDY,NIGHT_MOSTLY_CLOUDY,NIGHT_MOSTLY_CLEAR","Onshore,Onshore,Onshore",3
5842041f4e65fad6a7708aa9,2024_12_15,28.49083243010974,-80.58001715986319,Kennedy Space Center,2,2.513333333333333,2.816666666666667,20,20,"NIGHT_CLEAR,NIGHT_BRIEF_SHOWERS,NIGHT_MOSTLY_CLEAR","Onshore,Onshore,Onshore",3
5842041f4e65fad6a7708aab,2024_12_15,28.336757013024314,-80.60568,Lori Wilson Park,1,1.9965000000000002,2.6582333333333334,19,18,"NIGHT_MOSTLY_CLOUDY,NIGHT_MOSTLY_CLEAR,NIGHT_MOSTLY_CLEAR","Onshore,Onshore,Onshore",3
5842041f4e65fad6a7708aad,2024_12_15,27.76388821683801,-80.3962958234027,Wabasso,0.3333333333333333,2.776666666666667,2.9466666666666668,23,23,"NIGHT_BRIEF_SHOWERS,NIGHT_MOSTLY_CLOUDY,NIGHT_MOSTLY_CLOUDY","Onshore,Onshore,Onshore",3
5842041f4e65fad6a7708aae,2024_12_15,27.521583322459,-80.30987620353699,P.V. Martin's,0.6666666666666666,2.502666666666667,2.9584,23,22,"NIGHT_OVERCAST,NIGHT_MOSTLY_CLOUDY,NIGHT_MOSTLY_CLOUDY","Onshore,Onshore,Onshore",3
5842041f4e65fad6a7708aaf,2024_12_15,27.644996047720046,-80.35242676734924,Riomar,0.3333333333333333,2.420166666666667,2.8609,23,22,"NIGHT_CLEAR,NIGHT_MOSTLY_CLOUDY,NIGHT_CLEAR","Onshore,Onshore,Onshore",3
5842041f4e65fad6a7708ab1,2024_12_15,27.670121806659253,-80.36026954650879,Vero Pier,0,3.292666666666667,3.6634,23,22,"NIGHT_DRIZZLE,NIGHT_CLEAR,NIGHT_OVERCAST","Onshore,Onshore,Onshore",3
5842041f4e65fad6a7708ab2,2024_12_15,28.047705032021486,-80.54680109024048,Spessard Holland,1,2.4042566666666665,2.6300566666666665,21,21,"NIGHT_MOSTLY_CLOUDY,NIGHT_MOSTLY_CLOUDY,NIGHT_MOSTLY_CLOUDY","Onshore,Onshore,Onshore",3
5842041f4e65fad6a7708ab7,2024_12_15,28.135426226217064,-80.57895541191101,The Radisson,1,2.79739,3.10479,21,19,"NIGHT_MOSTLY_CLOUDY,NIGHT_MOSTLY_CLOUDY,NIGHT_MOSTLY_CLOUDY","Onshore,Onshore,Onshore",3
5842041f4e65fad6a7708ab8,2024_12_15,28.26664623907351,-80.60448,Picnic Tables,1,2.7133333333333334,3.243333333333333,20,20,"NIGHT_BRIEF_SHOWERS,NIGHT_MOSTLY_CLOUDY,NIGHT_CLEAR","Onshore,Onshore,Onshore",3
5842041f4e65fad6a7708ab9,2024_12_15,28.200840983180232,-80.59493,Perkins,1,3.336666666666667,3.6166666666666667,20,20,"NIGHT_BRIEF_SHOWERS,NIGHT_MOSTLY_CLOUDY,NIGHT_MOSTLY_CLOUDY","Onshore,Onshore,Onshore",3
5842041f4e65fad6a7708aba,2024_12_15,28.185652556759443,-80.59154,RC's,0.3888888888888889,2.38169,2.8340666666666667,20,20,"NIGHT_BRIEF_SHOWERS,NIGHT_MOSTLY_CLOUDY,NIGHT_MOSTLY_CLOUDY","Onshore,Onshore,Onshore",3
5842041f4e65fad6a7708abc,2024_12_15,28.252541991968208,-80.60269,2nd Light,1,2.66,3.1766666666666667,20,20,"NIGHT_BRIEF_SHOWERS,NIGHT_MOSTLY_CLOUDY,NIGHT_CLEAR","Onshore,Onshore,Onshore",3
5842041f4e65fad6a7708abd,2024_12_15,27.901611308716447,-80.4697,Bonsteel Park,0.6666666666666666,2.56878,3.0271,22,21,"NIGHT_LIGHT_RAIN,NIGHT_MOSTLY_CLOUDY,NIGHT_MOSTLY_CLOUDY","Onshore,Onshore,Onshore",3
5842041f4e65fad6a7708abe,2024_12_15,28.2423394657007,-80.60104,Hangar's Beach,1,3.02,3.2466666666666666,20,20,"NIGHT_BRIEF_SHOWERS,NIGHT_MOSTLY_CLOUDY,NIGHT_MOSTLY_CLOUDY","Onshore,Onshore,Onshore",3
5842041f4e65fad6a7708abf,2024_12_15,27.34018197146798,-80.23278,Walton Rocks,0,1.7570000000000001,2.7594,25,23,"NIGHT_CLOUDY,NIGHT_CLEAR,NIGHT_CLEAR","Onshore,Onshore,Onshore",3
5842041f4e65fad6a7708ac0,2024_12_15,25.80407401902198,-80.1222227290161,30th Street,1,0.8033333333333333,1.07,25,25,"NIGHT_CLOUDY,NIGHT_DRIZZLE,NIGHT_OVERCAST","Onshore,Onshore,Onshore",3
5842041f4e65fad6a7708ac1,2024_12_15,25.76570280215999,-80.12983,South Beach,0.7777777777777778,0.8419,1.2568666666666666,26,24,"NIGHT_CLOUDY,NIGHT_OVERCAST,NIGHT_OVERCAST","Onshore,Onshore,Onshore",3
5842041f4e65fad6a7708ac2,2024_12_15,26.058022412197,-80.10873562327671,Dania Pier,1,1.2133333333333334,1.5133333333333332,25,25,"NIGHT_CLOUDY,NIGHT_CLOUDY,NIGHT_OVERCAST","Onshore,Onshore,Onshore",3
5842041f4e65fad6a7708ac3,2024_12_15,26.04825428257198,-80.11153150137932,Franklin Street,0.6666666666666666,1.1933333333333334,1.4966666666666666,25,25,"NIGHT_CLOUDY,NIGHT_CLEAR,NIGHT_OVERCAST","Onshore,Onshore,Onshore",3
5842041f4e65fad6a7708ac4,2024_12_15,26.09086461141498,-80.10728410144065,John Lloyd State Park,0,1.1866666666666665,1.49,25,25,"NIGHT_CLOUDY,NIGHT_MOSTLY_CLOUDY,NIGHT_OVERCAST","Onshore,Onshore,Onshore",3
5842041f4e65fad6a7708ac5,2024_12_15,26.0971397396683,-80.10298876028907,Spoils,1,1.18,1.4833333333333334,25,25,"NIGHT_DRIZZLE,NIGHT_MOSTLY_CLOUDY,NIGHT_OVERCAST","Onshore,Onshore,Onshore",3
5842041f4e65fad6a7708ac6,2024_12_15,26.18920557475824,-80.09224,Commercial Pier,0.6666666666666666,1.3566666666666667,1.66,25,25,"NIGHT_OVERCAST,NIGHT_MOSTLY_CLOUDY,NIGHT_CLOUDY","Onshore,Onshore,Onshore",3
5842041f4e65fad6a7708ac7,2024_12_15,28.289851576629342,-80.6063,16th St. South,1,1.94499,2.30369,23,22,"NIGHT_BRIEF_SHOWERS,NIGHT_CLEAR,NIGHT_CLEAR","Onshore,Onshore,Onshore",3
5842041f4e65fad6a7708ac8,2024_12_15,26.23467460139735,-80.0874,Pompano Pier,1,0.7033333333333334,1.01,25,25,"NIGHT_MOSTLY_CLOUDY,NIGHT_MOSTLY_CLOUDY,NIGHT_OVERCAST","Onshore,Onshore,Onshore",3
5842041f4e65fad6a7708acb,2024_12_15,26.44179551370651,-80.05928855229453,Atlantic Dunes Park,-0.11111111111111116,0.8291666666666666,1.2943,25,23,"NIGHT_MOSTLY_CLOUDY,NIGHT_MOSTLY_CLOUDY,NIGHT_MOSTLY_CLOUDY","Cross-shore,Cross-shore,Cross-shore",3
5842041f4e65fad6a7708acd,2024_12_15,26.62215707439298,-80.03599398392342,Hilton Hotel Backyard,0.27777777777777773,1.7617,2.15991,25,23,"NIGHT_OVERCAST,NIGHT_CLEAR,NIGHT_CLEAR","Onshore,Onshore,Onshore",3
5842041f4e65fad6a7708ace,2024_12_15,26.96418190555367,-80.07769168113562,Coral Cove Park,0.9444444444444444,2.6723333333333334,3.0672099999999998,25,23,"NIGHT_MOSTLY_CLOUDY,NIGHT_SHOWERS,NIGHT_MOSTLY_CLOUDY","Onshore,Onshore,Onshore",3
5842041f4e65fad6a7708acf,2024_12_15,26.7029496416037,-80.03184,Palm Beach,0.8888888888888888,1.97059,2.2721333333333336,25,23,"NIGHT_OVERCAST,NIGHT_CLEAR,NIGHT_MOSTLY_CLOUDY","Onshore,Onshore,Onshore",3
5842041f4e65fad6a7708ad0,2024_12_15,26.97679878167375,-80.08141631388132,Blowing Rocks,0.9444444444444444,2.22289,2.615266666666667,25,23,"NIGHT_MOSTLY_CLOUDY,NIGHT_BRIEF_SHOWERS,NIGHT_CLEAR","Onshore,Onshore,Onshore",3
5842041f4e65fad6a7708ad2,2024_12_15,26.45661880078336,-80.057,Delray Beach,-0.2222222222222222,0.8902333333333333,1.3345333333333333,25,23,"NIGHT_MOSTLY_CLOUDY,NIGHT_MOSTLY_CLOUDY,NIGHT_MOSTLY_CLOUDY","Onshore,Onshore,Cross-shore",3
5842041f4e65fad6a7708ad3,2024_12_15,27.205685534312778,-80.16826629638672,Fletcher's,0,2.47261,2.8241566666666666,25,23,"NIGHT_MOSTLY_CLOUDY,NIGHT_MOSTLY_CLOUDY,NIGHT_MOSTLY_CLOUDY","Onshore,Onshore,Onshore",3
5842041f4e65fad6a7708ad5,2024_12_15,26.5848450388814,-80.03649735753257,Lantana Public Beach,0.27777777777777773,1.9250333333333334,2.3221333333333334,25,23,"NIGHT_CLOUDY,NIGHT_MOSTLY_CLOUDY,NIGHT_MOSTLY_CLOUDY","Onshore,Onshore,Onshore",3
5842041f4e65fad6a7708ad6,2024_12_15,25.77468432731322,-80.12884045797499,5th Street,0.3333333333333333,0.8433333333333334,1.15,25,25,"NIGHT_OVERCAST,NIGHT_OVERCAST,NIGHT_OVERCAST","Onshore,Onshore,Onshore",3
5842041f4e65fad6a7708ad7,2024_12_15,25.795157990715975,-80.12527585029602,21st Street,0.3333333333333333,0.91,1.1433333333333333,25,25,"NIGHT_OVERCAST,NIGHT_MOSTLY_CLEAR,NIGHT_OVERCAST","Onshore,Onshore,Onshore",3
5842041f4e65fad6a7708ad8,2024_12_15,25.897806453088073,-80.1211827993393,Haulover Inlet (South Jetty),0,1.2933333333333332,1.6,25,25,"NIGHT_CLOUDY,NIGHT_OVERCAST,NIGHT_OVERCAST","Onshore,Onshore,Onshore",3
5842041f4e65fad6a7708ad9,2024_12_15,25.90147392328634,-80.12110769748688,Haulover Inlet (North Jetty),0,1.1466666666666667,1.45,25,25,"NIGHT_CLOUDY,NIGHT_OVERCAST,NIGHT_OVERCAST","Onshore,Onshore,Onshore",3
5842041f4e65fad6a7708ada,2024_12_15,25.87049374242476,-80.11828560342356,85th Street,0.6666666666666666,1.1233333333333333,1.37,25,25,"NIGHT_OVERCAST,NIGHT_OVERCAST,NIGHT_OVERCAST","Onshore,Onshore,Onshore",3
5842041f4e65fad6a7708adb,2024_12_15,26.25486382031396,-80.0805,Hillsboro Inlet,0,1.5065733333333333,1.7995166666666667,25,25,"NIGHT_MOSTLY_CLOUDY,NIGHT_MOSTLY_CLOUDY,NIGHT_CLOUDY","Onshore,Onshore,Onshore",3
5842041f4e65fad6a7708add,2024_12_15,26.29705672965111,-80.07612,Hillsboro Beach,1,1.3033333333333332,1.6133333333333333,25,25,"NIGHT_MOSTLY_CLOUDY,NIGHT_MOSTLY_CLOUDY,NIGHT_OVERCAST","Onshore,Onshore,Onshore",3
5842041f4e65fad6a7708ade,2024_12_15,26.36569956413266,-80.06717936869391,Red Reef Park,0.611111111111111,1.5488433333333333,1.95011,25,24,"NIGHT_MOSTLY_CLOUDY,NIGHT_MOSTLY_CLOUDY,NIGHT_MOSTLY_CLOUDY","Onshore,Onshore,Onshore",3
5842041f4e65fad6a7708adf,2024_12_15,26.54593873498907,-80.04104359585143,Boynton Beach Inlet (Northside),0.611111111111111,1.4908666666666666,1.8865766666666666,25,23,"NIGHT_MOSTLY_CLOUDY,NIGHT_MOSTLY_CLOUDY,NIGHT_MOSTLY_CLOUDY","Onshore,Onshore,Onshore",3
5842041f4e65fad6a7708ae0,2024_12_15,26.92746505629809,-80.06721138954163,Corners,1,1.5064866666666668,2.0965766666666665,25,23,"NIGHT_MOSTLY_CLOUDY,NIGHT_BRIEF_SHOWERS,NIGHT_MOSTLY_CLOUDY","Onshore,Onshore,Onshore",3
5842041f4e65fad6a7708ae1,2024_12_15,26.76983179886943,-80.03413481937037,The Cove,0.9444444444444444,1.9394766666666667,2.3343566666666664,25,23,"NIGHT_OVERCAST,NIGHT_BRIEF_SHOWERS,NIGHT_MOSTLY_CLOUDY","Onshore,Onshore,Onshore",3
5842041f4e65fad6a7708ae3,2024_12_15,26.39224485175123,-80.0650461233983,Japanese Rock,1.222222222222222,1.34079,1.73789,25,24,"NIGHT_CLEAR,NIGHT_SHOWERS,NIGHT_MOSTLY_CLOUDY","Onshore,Onshore,Onshore",3
5842041f4e65fad6a7708ae4,2024_12_15,29.94810928551321,-85.42545434612366,Mexico Beach,1,0,0.22,19,19,"NIGHT_CLEAR,NIGHT_CLEAR,NIGHT_CLEAR","Offshore,Offshore,Offshore",3
5842041f4e65fad6a7708ae5,2024_12_15,30.11752500931267,-85.7306,Shell Island,1,0,0.24666666666666667,20,20,"NIGHT_CLEAR,NIGHT_CLEAR,NIGHT_CLEAR","Offshore,Offshore,Offshore",3
5842041f4e65fad6a7708ae7,2024_12_15,29.94901514702268,-85.43042978529013,D.J.'s,1,0,0.21666666666666667,19,19,"NIGHT_CLEAR,NIGHT_CLEAR,NIGHT_CLEAR","Cross-shore,Offshore,Offshore",3
5842041f4e65fad6a7708ae8,2024_12_15,30.12396111446713,-85.73637,St. Andrew's Park,0.5555555555555556,0,0.25069,18,18,"NIGHT_CLEAR,NIGHT_CLEAR,NIGHT_CLEAR","Offshore,Offshore,Offshore",3
5842041f4e65fad6a7708ae9,2024_12_15,30.16781531760227,-85.79604918824084,Spinnaker,0.5555555555555556,0.016666666666666666,0.2990233333333333,18,18,"NIGHT_CLEAR,NIGHT_CLEAR,NIGHT_CLEAR","Offshore,Offshore,Offshore",3
5842041f4e65fad6a7708aea,2024_12_15,30.18877050526983,-85.83243530466363,Wood Pier,1,0.03693333333333333,0.33053333333333335,18,18,"NIGHT_CLEAR,NIGHT_CLEAR,NIGHT_CLEAR","Offshore,Offshore,Offshore",3
5842041f4e65fad6a7708aeb,2024_12_15,30.2676205895555,-85.9938578144113,Inlet Beach Pier,1.6666666666666667,0.08082333333333333,0.38053333333333333,18,18,"NIGHT_CLEAR,NIGHT_CLEAR,NIGHT_CLEAR","Offshore,Offshore,Offshore",3
5842041f4e65fad6a7708aec,2024_12_15,30.31815542759119,-86.1383771867044,Bud and Alley's,1,0.1086,0.4122,18,18,"NIGHT_CLEAR,NIGHT_CLEAR,NIGHT_CLEAR","Offshore,Offshore,Offshore",3
5842041f4e65fad6a7708aed,2024_12_15,30.32686082481946,-86.16650590275447,Grayton Beach,1.3333333333333333,0.19471,0.5016433333333333,18,18,"NIGHT_CLEAR,NIGHT_CLEAR,NIGHT_CLEAR","Offshore,Offshore,Offshore",3
5842041f4e65fad6a7708aee,2024_12_15,30.33661488976303,-86.20094,Blue Mountain Beach,1,0.12082333333333334,0.4244233333333333,18,18,"NIGHT_CLEAR,NIGHT_CLEAR,NIGHT_CLEAR","Offshore,Offshore,Offshore",3
5842041f4e65fad6a7708aef,2024_12_15,30.37677202831587,-86.38513,Pompano Joe's,1.6666666666666667,0.31082333333333334,0.6172000000000001,18,18,"NIGHT_CLEAR,NIGHT_CLEAR,NIGHT_CLEAR","Cross-shore,Offshore,Offshore",3
5842041f4e65fad6a7708af0,2024_12_15,30.37429731725911,-86.36687,Seascape,1.6666666666666667,0.18248999999999999,0.48886666666666667,18,18,"NIGHT_CLEAR,NIGHT_CLEAR,NIGHT_CLEAR","Cross-shore,Offshore,Offshore",3
5842041f4e65fad6a7708af1,2024_12_15,30.382815988547186,-86.45839,The Back Porch,1,0.35971000000000003,0.6666433333333334,18,18,"NIGHT_CLEAR,NIGHT_CLEAR,NIGHT_CLEAR","Offshore,Offshore,Cross-shore",3
5842041f4e65fad6a7708af2,2024_12_15,30.21207176798612,-85.87989730830542,Panama City Pier,1,0.04971,0.34609,18,18,"NIGHT_CLEAR,NIGHT_CLEAR,NIGHT_CLEAR","Offshore,Offshore,Offshore",3
5842041f4e65fad6a7708af3,2024_12_15,30.37521499110326,-86.3717,Whale's Tail,1.6666666666666667,0.22749,0.5310900000000001,18,18,"NIGHT_CLEAR,NIGHT_CLEAR,NIGHT_CLEAR","Cross-shore,Offshore,Offshore",3
5842041f4e65fad6a7708af4,2024_12_15,30.38120596658251,-86.43046,Old Crystal Pier,1,0.22637666666666667,0.5327566666666667,18,18,"NIGHT_CLEAR,NIGHT_CLOUDY,NIGHT_CLEAR","Offshore,Offshore,Cross-shore",3
5842041f4e65fad6a7708af5,2024_12_15,30.38090573159031,-86.50655,Jetty East,1,0.2969333333333333,0.5972,18,18,"NIGHT_CLEAR,NIGHT_MOSTLY_CLOUDY,NIGHT_CLEAR","Offshore,Offshore,Cross-shore",3
5842041f4e65fad6a7708af6,2024_12_15,30.37584509640838,-86.50563,HMO's,1,0.2969333333333333,0.5966433333333333,18,18,"NIGHT_CLEAR,NIGHT_MOSTLY_CLOUDY,NIGHT_CLEAR","Offshore,Offshore,Cross-shore",3
5842041f4e65fad6a7708af7,2024_12_15,30.38124006131522,-86.50052,Two By Fours,0.6666666666666666,0.28637666666666667,0.5866433333333333,18,18,"NIGHT_CLEAR,NIGHT_CLEAR,NIGHT_CLEAR","Cross-shore,Cross-shore,Cross-shore",3
5842041f4e65fad6a7708af8,2024_12_15,30.38250751017554,-86.45776,The Pumphouse,1,0.2969333333333333,0.6038666666666667,18,18,"NIGHT_CLEAR,NIGHT_MOSTLY_CLOUDY,NIGHT_CLEAR","Offshore,Offshore,Cross-shore",3
5842041f4e65fad6a7708af9,2024_12_15,30.38655981578935,-86.52475,NCO Club,1,0.29359999999999997,0.5972,18,18,"NIGHT_CLEAR,NIGHT_MOSTLY_CLOUDY,NIGHT_CLEAR","Cross-shore,Offshore,Cross-shore",3
5842041f4e65fad6a7708afa,2024_12_15,30.39024516541047,-86.59341,Okaloosa Pier,1,0.27415666666666666,0.5738666666666666,18,18,"NIGHT_CLEAR,NIGHT_CLEAR,NIGHT_CLEAR","Offshore,Offshore,Cross-shore",3
5842041f4e65fad6a7708afb,2024_12_15,30.39281125722673,-86.59766,Dead Man's,1,0.44193333333333334,0.7455333333333334,18,18,"NIGHT_CLEAR,NIGHT_MOSTLY_CLOUDY,NIGHT_CLEAR","Cross-shore,Offshore,Cross-shore",3
5842041f4e65fad6a7708afc,2024_12_15,30.32703176167034,-87.14196,Pensacola Pier,1,0.6833333333333333,0.9866666666666667,20,20,"NIGHT_CLEAR,NIGHT_CLEAR,NIGHT_CLOUDY","Onshore,Cross-shore,Cross-shore",3
5842041f4e65fad6a7708afd,2024_12_15,30.37920054094992,-86.85583,Navarre Beach,1.6666666666666667,0.22937666666666667,0.47830999999999996,18,18,"NIGHT_CLEAR,NIGHT_CLEAR,NIGHT_CLEAR","Offshore,Offshore,Cross-shore",3
5842041f4e65fad6a7708afe,2024_12_15,30.39491626029151,-86.61248,Blue Horizon Motel,1,0.42915666666666663,0.73609,18,18,"NIGHT_CLEAR,NIGHT_MOSTLY_CLOUDY,NIGHT_CLEAR","Cross-shore,Offshore,Cross-shore",3
5842041f4e65fad6a7708aff,2024_12_15,30.29345899260828,-87.43547,First Parking Lot,1,0.6766666666666666,0.9833333333333334,20,20,"NIGHT_CLEAR,NIGHT_MOSTLY_CLEAR,NIGHT_OVERCAST","Cross-shore,Cross-shore,Cross-shore",3
5842041f4e65fad6a7708b00,2024_12_15,30.29767401311303,-87.41362,Johnsons Beach,1,0.71,1.01,20,20,"NIGHT_CLEAR,NIGHT_CLEAR,NIGHT_OVERCAST","Cross-shore,Cross-shore,Cross-shore",3
5842041f4e65fad6a7708b01,2024_12_15,30.29513397370759,-87.42642,Sandy Key,1,0.68,0.9833333333333334,20,20,"NIGHT_CLEAR,NIGHT_MOSTLY_CLEAR,NIGHT_OVERCAST","Cross-shore,Cross-shore,Cross-shore",3
5842041f4e65fad6a7708b03,2024_12_15,30.377504907388026,-86.86444,Navarre Pier,1.6666666666666667,0.4069333333333333,0.7138666666666666,18,18,"NIGHT_CLEAR,NIGHT_CLEAR,NIGHT_CLEAR","Offshore,Offshore,Cross-shore",3
5842041f4e65fad6a7708b04,2024_12_15,30.31482647791307,-87.26164,Pickens Point Dunes,1,0.7,1.0066666666666666,20,20,"NIGHT_CLEAR,NIGHT_CLEAR,NIGHT_CLOUDY","Cross-shore,Cross-shore,Cross-shore",3
5842041f4e65fad6a7708b05,2024_12_15,30.32632110836516,-87.16019503253068,Slabs,0.6666666666666666,0.7233333333333334,1.0266666666666666,20,20,"NIGHT_CLEAR,NIGHT_CLEAR,NIGHT_CLOUDY","Onshore,Cross-shore,Cross-shore",3
5842041f4e65fad6a7708b06,2024_12_15,30.32739721382043,-87.30406515493348,Pickens Point,2,0.7533333333333333,1.06,20,20,"NIGHT_CLEAR,NIGHT_CLEAR,NIGHT_CLOUDY","Offshore,Offshore,Offshore",3
5842041f4e65fad6a7708b07,2024_12_15,30.27406893266753,-87.54367,Bungalows,1,0.75,1.0566666666666666,20,20,"NIGHT_MOSTLY_CLEAR,NIGHT_OVERCAST,NIGHT_MOSTLY_CLOUDY","Cross-shore,Cross-shore,Onshore",3
5842041f4e65fad6a7708b08,2024_12_15,27.99627311846992,-82.82942,880,0,0,0.20557666666666666,18,18,"NIGHT_CLEAR,NIGHT_CLEAR,NIGHT_CLEAR","Offshore,Offshore,Offshore",3
5842041f4e65fad6a7708b09,2024_12_15,27.97779860371595,-82.83246509090527,Pier 60,0,0,0.13333333333333333,18,18,"NIGHT_CLEAR,NIGHT_CLEAR,NIGHT_CLEAR","Offshore,Offshore,Offshore",3
5842041f4e65fad6a7708b0a,2024_12_15,27.96296387618043,-82.8332635965418,Sand Key,0,0,0.13333333333333333,18,18,"NIGHT_MOSTLY_CLEAR,NIGHT_CLEAR,NIGHT_CLEAR","Offshore,Offshore,Offshore",3
5842041f4e65fad6a7708b0b,2024_12_15,27.92492619212885,-82.8449122845279,Belleair,0,0,0.13,18,18,"NIGHT_MOSTLY_CLEAR,NIGHT_MOSTLY_CLEAR,NIGHT_MOSTLY_CLEAR","Offshore,Offshore,Offshore",3
5842041f4e65fad6a7708b0c,2024_12_15,27.882,-82.854,Indian Rocks Beach,0,0,0.12666666666666665,18,18,"NIGHT_MOSTLY_CLEAR,NIGHT_CLEAR,NIGHT_CLEAR","Offshore,Offshore,Offshore",3
5842041f4e65fad6a7708b0d,2024_12_15,27.83106104966094,-82.83550218771384,Redington Breakwater,0,0,0.14,18,18,"NIGHT_CLEAR,NIGHT_CLEAR,NIGHT_CLEAR","Offshore,Offshore,Offshore",3
5842041f4e65fad6a7708b0e,2024_12_15,27.74369029906206,-82.76053473435867,Middle Jetty,0,0,0.12000000000000001,18,18,"NIGHT_CLEAR,NIGHT_CLEAR,NIGHT_CLEAR","Offshore,Offshore,Offshore",3
5842041f4e65fad6a7708b0f,2024_12_15,27.82174178852146,-82.83148664631841,Redington Pier,0,0,0.13666666666666666,18,18,"NIGHT_CLEAR,NIGHT_CLEAR,NIGHT_CLEAR","Offshore,Offshore,Offshore",3
5842041f4e65fad6a7708b10,2024_12_15,27.31496308261514,-82.5830466912004,Lido Beach,0,0,0.08,19,19,"NIGHT_CLEAR,NIGHT_CLEAR,NIGHT_CLEAR","Offshore,Offshore,Offshore",3
5842041f4e65fad6a7708b11,2024_12_15,27.31122010159892,-82.57833234007632,Coolidge,0,0,0.09,19,19,"NIGHT_CLEAR,NIGHT_CLEAR,NIGHT_CLEAR","Offshore,Offshore,Offshore",3
5842041f4e65fad6a7708b12,2024_12_15,27.26471672017615,-82.55464835167173,Siesta Key,0,0,0.02666666666666667,19,18,"NIGHT_CLEAR,NIGHT_MOSTLY_CLEAR,NIGHT_CLEAR","Offshore,Offshore,Offshore",3
5842041f4e65fad6a7708b13,2024_12_15,27.24638693488133,-82.53809115716797,Stickney Point,0,0,0.07333333333333333,19,19,"NIGHT_CLEAR,NIGHT_CLEAR,NIGHT_CLEAR","Offshore,Offshore,Offshore",3
5842041f4e65fad6a7708b14,2024_12_15,27.21907878229092,-82.51813937562073,Turtles,0,0,0.07333333333333333,19,19,"NIGHT_CLEAR,NIGHT_CLEAR,NIGHT_MOSTLY_CLOUDY","Offshore,Offshore,Offshore",3
5842041f4e65fad6a7708b15,2024_12_15,27.11375765852028,-82.47039,Venice Jetties North,0,0,0.04666666666666667,19,18,"NIGHT_CLEAR,NIGHT_CLEAR,NIGHT_CLEAR","Offshore,Offshore,Offshore",3
5842041f4e65fad6a7708b16,2024_12_15,27.111485758834025,-82.46757,Venice Jetties South,0,0,0.05666666666666667,19,18,"NIGHT_CLEAR,NIGHT_CLEAR,NIGHT_CLEAR","Offshore,Offshore,Offshore",3
5842041f4e65fad6a7708b17,2024_12_15,27.07249378831575,-82.4530285256104,Venice Pier,0,0,0.07333333333333333,19,18,"NIGHT_CLEAR,NIGHT_CLEAR,NIGHT_MOSTLY_CLOUDY","Offshore,Offshore,Offshore",3
5842041f4e65fad6a7708b19,2024_12_15,27.49680446426314,-82.7140145455959,Holmes Beach Pier,0,0,0.08,19,19,"NIGHT_CLEAR,NIGHT_CLEAR,NIGHT_MOSTLY_CLEAR","Offshore,Offshore,Offshore",3
5842041f4e65fad6a7708b1a,2024_12_15,27.7390348493064,-82.75763,Sunset Beach,0,0,0.12000000000000001,18,18,"NIGHT_CLEAR,NIGHT_CLEAR,NIGHT_CLEAR","Offshore,Offshore,Offshore",3
5842041f4e65fad6a7708b1b,2024_12_15,26.80347307599041,-82.28564775623539,Gasparilla Point,0,0,0.07333333333333333,20,20,"NIGHT_CLEAR,NIGHT_CLEAR,NIGHT_MOSTLY_CLOUDY","Offshore,Offshore,Offshore",3
5842041f4e65fad6a7708b1c,2024_12_15,27.45365831548911,-82.69609,Coquina Jetties,0,0,0.08333333333333334,19,19,"NIGHT_CLEAR,NIGHT_CLEAR,NIGHT_MOSTLY_CLEAR","Offshore,Offshore,Offshore",3
5842041f4e65fad6a7708b1d,2024_12_15,27.46077315206043,-82.69924,Twin Piers,0.3333333333333333,0,0.08315666666666666,19,18,"NIGHT_CLEAR,NIGHT_CLEAR,NIGHT_MOSTLY_CLEAR","Offshore,Offshore,Offshore",3
5842041f4e65fad6a7708b1e,2024_12_15,26.91007316019612,-82.35352,Englewood,0,0,0.03666666666666667,19,19,"NIGHT_CLEAR,NIGHT_CLEAR,NIGHT_CLEAR","Offshore,Offshore,Offshore",3
5842041f4e65fad6a7708b1f,2024_12_15,26.88221101560038,-82.3359828282636,Knight's Point,0,0,0.06666666666666667,19,19,"NIGHT_CLEAR,NIGHT_CLEAR,NIGHT_MOSTLY_CLOUDY","Offshore,Offshore,Offshore",3
5842041f4e65fad6a7708b20,2024_12_15,26.51219285784982,-82.1928203289264,Tween Waters,0,0,0.09666666666666666,20,20,"NIGHT_CLEAR,NIGHT_MOSTLY_CLEAR,NIGHT_MOSTLY_CLOUDY","Offshore,Offshore,Offshore",3
5842041f4e65fad6a7708b21,2024_12_15,26.55130241615096,-82.20222762415648,Redfish Pass,0,0,0.09333333333333334,20,20,"NIGHT_MOSTLY_CLEAR,NIGHT_MOSTLY_CLEAR,NIGHT_MOSTLY_CLOUDY","Offshore,Offshore,Offshore",3
5842041f4e65fad6a7708b22,2024_12_15,26.71713432926596,-82.26287777058234,Boca Grande,0,0,0.07333333333333333,20,20,"NIGHT_MOSTLY_CLOUDY,NIGHT_CLEAR,NIGHT_MOSTLY_CLOUDY","Offshore,Offshore,Offshore",3
5842041f4e65fad6a7708b23,2024_12_15,26.47856785808584,-82.181288592828,Blind Pass,0,0,0.09666666666666668,20,20,"NIGHT_CLEAR,NIGHT_CLEAR,NIGHT_MOSTLY_CLOUDY","Offshore,Offshore,Offshore",3
5842041f4e65fad6a7708b24,2024_12_15,26.25358330618783,-81.82429246081317,The Wall,0,0,0.05333333333333334,20,20,"NIGHT_CLEAR,NIGHT_MOSTLY_CLOUDY,NIGHT_CLEAR","Offshore,Offshore,Offshore",3
5842041f4e65fad6a7708b25,2024_12_15,26.17456407516186,-81.81588575623482,Doctor's Pass,0,0,0.05666666666666667,20,20,"NIGHT_MOSTLY_CLEAR,NIGHT_MOSTLY_CLOUDY,NIGHT_CLEAR","Offshore,Offshore,Offshore",3
5842041f4e65fad6a7708b26,2024_12_15,27.427134501874612,-82.68110766159296,Whitney Beach,0,0,0.09999999999999999,19,19,"NIGHT_MOSTLY_CLEAR,NIGHT_MOSTLY_CLEAR,NIGHT_MOSTLY_CLEAR","Offshore,Offshore,Offshore",3
5842041f4e65fad6a7708b27,2024_12_15,26.17300183052463,-81.81515842430267,Doctor's Pass (South Jetty),0,0,0.05333333333333334,20,20,"NIGHT_MOSTLY_CLEAR,NIGHT_MOSTLY_CLOUDY,NIGHT_CLEAR","Offshore,Offshore,Offshore",3
5842041f4e65fad6a7708b28,2024_12_15,27.73496421495629,-82.75268962468695,Upham Beach Park,0,0,0.11666666666666667,18,18,"NIGHT_CLEAR,NIGHT_CLEAR,NIGHT_CLEAR","Offshore,Offshore,Offshore",3
5842041f4e65fad6a7708b29,2024_12_15,26.13144856766723,-81.8090395116521,Naples Pier,0,0,0.05666666666666667,20,20,"NIGHT_MOSTLY_CLOUDY,NIGHT_MOSTLY_CLOUDY,NIGHT_CLEAR","Offshore,Offshore,Offshore",3
5842041f4e65fad6a7708b2a,2024_12_15,20.63474,-156.45211,Little Beach,1,0,0.22,26,26,"CLEAR,NIGHT_CLEAR,NIGHT_CLEAR","Onshore,Onshore,Cross-shore",3
5842041f4e65fad6a7708b2b,2024_12_15,20.613,-156.438,Dumps,1,0,0.18333333333333332,26,26,"CLEAR,NIGHT_CLEAR,NIGHT_CLEAR","Onshore,Onshore,Onshore",3
