_id,date,lat,lon,name,daily_mean_swell_rating,daily_mean_wave_height_min,daily_mean_wave_height_max,daily_mean_water_temperature_max,daily_mean_water_temperature_min,weather_per_timestamp,wind_per_timestamp,n_samples_per_day
5842041f4e65fad6a77087f9,2024_02_18,37.741668,-122.51038,South Ocean Beach,1.8333333333333333,4.139888888888889,5.324277777777778,14,14,"MOSTLY_CLOUDY,BRIEF_SHOWERS,NIGHT_MIST,NIGHT_MIST,NIGHT_MIST,MOSTLY_CLOUDY","Offshore,Offshore,Cross-shore,Offshore,Offshore,Offshore",6
5842041f4e65fad6a7708801,2024_02_18,37.49142,-122.50428,Maverick's,NA,4.471916666666667,5.596861111111111,13,13,"SHOWERS,MOSTLY_CLOUDY,NIGHT_MIST,NIGHT_MIST,NIGHT_MOSTLY_CLOUDY,MOSTLY_CLOUDY","Onshore,Onshore,Onshore,Onshore,Onshore,Onshore",6
5842041f4e65fad6a7708804,2024_02_18,44.997,-124.018,Roads End,2.6666666666666665,3.001666666666667,3.5883333333333334,11,11,"LIGHT_RAIN,LIGHT_SHOWERS_POSSIBLE,NIGHT_LIGHT_RAIN,NIGHT_CLOUDY,NIGHT_DRIZZLE,NIGHT_MIST","Offshore,Offshore,Offshore,Offshore,Cross-shore,Onshore",6
5842041f4e65fad6a7708805,2024_02_18,36.95188851423011,-122.02522,Steamer Lane,2.1666666666666665,2.544427777777778,3.2090111111111113,14,14,"LIGHT_RAIN,MIST,NIGHT_FOG,NIGHT_FOG,NIGHT_CLEAR,CLEAR","Onshore,Onshore,Onshore,Onshore,Onshore,Offshore",6
5842041f4e65fad6a7708806,2024_02_18,36.95918781542251,-122.02489,Cowells,2.1666666666666665,0.856111111111111,1.160961111111111,14,14,"LIGHT_RAIN,MIST,NIGHT_FOG,NIGHT_LIGHT_RAIN_AND_FOG,NIGHT_CLEAR,CLEAR","Onshore,Onshore,Cross-shore,Cross-shore,Onshore,Cross-shore",6
5842041f4e65fad6a7708807,2024_02_18,36.95468082526536,-121.97234,Pleasure Point,2.555,2.746788888888889,3.449288888888889,14,14,"RAIN,LIGHT_RAIN,NIGHT_FOG,NIGHT_FOG,NIGHT_CLEAR,CLEAR","Onshore,Onshore,Onshore,Onshore,Cross-shore,Onshore",6
5842041f4e65fad6a770880a,2024_02_18,35.37815414378748,-120.86589,Morro Bay,2.861666666666667,2.6517555555555554,3.2948666666666666,14,14,"RAIN,RAIN,NIGHT_MOSTLY_CLOUDY,NIGHT_MOSTLY_CLOUDY,NIGHT_CLEAR,CLEAR","Offshore,Offshore,Offshore,Offshore,Offshore,Offshore",6
5842041f4e65fad6a770880b,2024_02_18,36.95782765000708,-121.9672887511276,Jack's,2.1666666666666665,0.9923500000000001,1.2991444444444444,14,14,"RAIN,LIGHT_RAIN,NIGHT_FOG,NIGHT_FOG,NIGHT_CLEAR,CLEAR","Onshore,Onshore,Cross-shore,Onshore,Onshore,Onshore",6
5842041f4e65fad6a770880d,2024_02_18,34.29982939936656,-119.3489016603669,Gold Coast Beachbreaks,3,0.8216666666666667,1.0766666666666667,15,15,"MOSTLY_CLEAR,MOSTLY_CLEAR,NIGHT_MOSTLY_CLOUDY,NIGHT_FOG,NIGHT_FOG,LIGHT_RAIN_AND_FOG","Onshore,Cross-shore,Offshore,Cross-shore,Cross-shore,Cross-shore",6
5842041f4e65fad6a7708811,2024_02_18,34.245076,-119.26799,Ventura Harbor,3,2.4421480555555553,2.87938625,14,14,"MOSTLY_CLEAR,CLEAR,NIGHT_MOSTLY_CLOUDY,NIGHT_FOG,NIGHT_FOG,MIST","Onshore,Onshore,Offshore,Cross-shore,Offshore,Offshore",6
5842041f4e65fad6a7708813,2024_02_18,34.051,-118.964,County Line,3.445,1.3707166666666668,1.6478222222222223,15,15,"MOSTLY_CLOUDY,MOSTLY_CLOUDY,NIGHT_BRIEF_SHOWERS,NIGHT_FOG,NIGHT_FOG,FOG","Onshore,Onshore,Offshore,Offshore,Offshore,Offshore",6
5842041f4e65fad6a7708814,2024_02_18,34.37256264378892,-119.47797,Rincon,3.6666666666666665,2.1333333333333333,2.5516666666666667,14.666666666666666,14.666666666666666,"MOSTLY_CLEAR,CLEAR,NIGHT_MOSTLY_CLOUDY,NIGHT_SHOWERS,NIGHT_MOSTLY_CLOUDY,OVERCAST","Cross-shore,Cross-shore,Cross-shore,Cross-shore,Cross-shore,Cross-shore",6
5842041f4e65fad6a7708817,2024_02_18,34.03096101876324,-118.68109,Malibu Third Point,2.6666666666666665,0.3883333333333333,0.695,15,15,"MOSTLY_CLOUDY,MOSTLY_CLOUDY,NIGHT_FOG,NIGHT_FOG,NIGHT_FOG,MIST","Cross-shore,Cross-shore,Onshore,Onshore,Onshore,Onshore",6
5842041f4e65fad6a7708819,2024_02_18,33.984079047970035,-118.47381591796875,Venice Beach,3,1.7941833333333335,2.193583333333333,14,14,"MOSTLY_CLOUDY,MOSTLY_CLOUDY,NIGHT_FOG,NIGHT_FOG,NIGHT_MIST,MIST","Onshore,Onshore,Onshore,Offshore,Offshore,Offshore",6
5842041f4e65fad6a770881e,2024_02_18,34.037508438646746,-118.58339846155594,Topanga Beach,3.5,1.3566888888888888,1.6204611111111111,15,15,"MIST,MIST,NIGHT_FOG,NIGHT_FOG,NIGHT_MIST,MIST","Onshore,Onshore,Offshore,Offshore,Offshore,Offshore",6
5842041f4e65fad6a7708820,2024_02_18,33.73954373690184,-118.11414,Seal Beach Jetty,2.6666666666666665,0.9633333333333334,1.2416666666666667,15,15,"DRIZZLE,OVERCAST,NIGHT_FOG,NIGHT_FOG,NIGHT_FOG,FOG","Onshore,Onshore,Cross-shore,Cross-shore,Offshore,Offshore",6
5842041f4e65fad6a7708822,2024_02_18,33.72309983348433,-118.08078,Anderson Street,2.8333333333333335,1.5666666666666667,1.8883333333333332,15,15,"OVERCAST,DRIZZLE,NIGHT_FOG,NIGHT_FOG,NIGHT_FOG,FOG","Onshore,Onshore,Offshore,Cross-shore,Offshore,Offshore",6
5842041f4e65fad6a7708827,2024_02_18,33.65574085629463,-118.00397,Huntington Beach Pier Northside,3.1666666666666665,1.7938944444444445,2.3342111111111112,14,14,"OVERCAST,DRIZZLE,NIGHT_MOSTLY_CLOUDY,NIGHT_MOSTLY_CLOUDY,NIGHT_FOG,FOG","Onshore,Onshore,Offshore,Cross-shore,Offshore,Offshore",6
5842041f4e65fad6a7708828,2024_02_18,34.272041739333,-119.2997646331,C St.,3.1666666666666665,2.1151833333333334,2.572288888888889,14,14,"MOSTLY_CLEAR,CLEAR,NIGHT_BRIEF_SHOWERS,NIGHT_FOG,NIGHT_MIST,OVERCAST","Onshore,Onshore,Offshore,Offshore,Offshore,Offshore",6
5842041f4e65fad6a770882a,2024_02_18,33.61555743705257,-117.93676,Newport Lower Jetties,3.6666666666666665,1.5091833333333333,1.9062333333333334,15,15,"OVERCAST,OVERCAST,NIGHT_FOG,NIGHT_MOSTLY_CLOUDY,NIGHT_FOG,FOG","Onshore,Onshore,Offshore,Cross-shore,Offshore,Offshore",6
5842041f4e65fad6a770882b,2024_02_18,33.5930302087,-117.88199,The Wedge,2.6666666666666665,0.7373533333333333,1.1336300000000001,15,15,"OVERCAST,OVERCAST,NIGHT_FOG,NIGHT_MOSTLY_CLOUDY,NIGHT_FOG,FOG","Onshore,Onshore,Offshore,Cross-shore,Offshore,Offshore",6
5842041f4e65fad6a770882c,2024_02_18,33.60577342582,-117.9315376281,Newport Beach Pier,3,1.1510222222222222,1.4546222222222223,15,15,"CLOUDY,CLOUDY,NIGHT_FOG,NIGHT_MOSTLY_CLOUDY,NIGHT_MOSTLY_CLOUDY,FOG","Cross-shore,Cross-shore,Offshore,Onshore,Onshore,Onshore",6
5842041f4e65fad6a770882e,2024_02_18,33.475793399792984,-117.72291,Salt Creek,3.6666666666666665,1.46835,1.9455055555555556,14,14,"MOSTLY_CLOUDY,MOSTLY_CLOUDY,NIGHT_MOSTLY_CLOUDY,NIGHT_FOG,NIGHT_CLEAR,CLEAR","Onshore,Onshore,Offshore,Offshore,Offshore,Offshore",6
5842041f4e65fad6a7708830,2024_02_18,33.41800974113613,-117.61952,T-Street,3.6666666666666665,1.213938888888889,1.6347222222222222,14,14,"MOSTLY_CLOUDY,MOSTLY_CLOUDY,NIGHT_MOSTLY_CLOUDY,NIGHT_CLEAR,NIGHT_CLEAR,CLEAR","Onshore,Cross-shore,Offshore,Offshore,Cross-shore,Onshore",6
5842041f4e65fad6a7708832,2024_02_18,33.202391008646,-117.39475,Oceanside Harbor,3.5,1.6042055555555557,2.0560722222222223,15,15,"CLEAR,CLEAR,NIGHT_FOG,NIGHT_FOG,NIGHT_CLEAR,CLEAR","Onshore,Onshore,Offshore,Offshore,Offshore,Offshore",6
5842041f4e65fad6a7708835,2024_02_18,33.19477795952803,-117.38667,Oceanside Pier,3,1.4976555555555555,1.9206777777777777,15,15,"OVERCAST,CLOUDY,NIGHT_FOG,NIGHT_FOG,NIGHT_MOSTLY_CLEAR,CLEAR","Onshore,Onshore,Cross-shore,Offshore,Offshore,Offshore",6
5842041f4e65fad6a7708837,2024_02_18,33.14948100706,-117.35029,Tamarack,2.6666666666666665,0.7433333333333334,0.9916666666666667,15,15,"CLEAR,CLEAR,NIGHT_FOG,NIGHT_MOSTLY_CLOUDY,NIGHT_CLEAR,CLEAR","Onshore,Onshore,Offshore,Offshore,Offshore,Offshore",6
5842041f4e65fad6a7708839,2024_02_18,32.865777159358856,-117.25614295356122,Scripps,3,1.273488888888889,1.7263388888888889,14,14,"CLEAR,CLOUDY,NIGHT_FOG,NIGHT_CLEAR,NIGHT_MOSTLY_CLEAR,MOSTLY_CLEAR","Onshore,Onshore,Cross-shore,Offshore,Offshore,Offshore",6
5842041f4e65fad6a770883a,2024_02_18,32.813094,-117.27381,Birdrock,3.6666666666666665,1.9483333333333333,2.3466666666666667,15,15,"CLOUDY,CLOUDY,NIGHT_MOSTLY_CLOUDY,NIGHT_FOG,NIGHT_MIST,FOG","Onshore,Cross-shore,Offshore,Offshore,Cross-shore,Offshore",6
5842041f4e65fad6a770883b,2024_02_18,32.877231,-117.25303,Blacks,3.8333333333333335,1.7784777777777778,2.3237944444444443,14,14,"CLEAR,CLOUDY,NIGHT_FOG,NIGHT_CLEAR,NIGHT_MOSTLY_CLEAR,MOSTLY_CLEAR","Onshore,Onshore,Onshore,Cross-shore,Offshore,Offshore",6
5842041f4e65fad6a770883c,2024_02_18,32.82978974229765,-117.28161740727381,Windansea,3.6666666666666665,1.6822277777777779,2.0432944444444443,14,14,"CLOUDY,CLOUDY,NIGHT_FOG,NIGHT_MIST,NIGHT_CLEAR,MIST","Onshore,Onshore,Offshore,Offshore,Offshore,Offshore",6
5842041f4e65fad6a770883d,2024_02_18,32.838278,-117.28396,Horseshoe,3.6666666666666665,1.6816666666666666,2.0116666666666667,15,15,"CLOUDY,CLOUDY,NIGHT_FOG,NIGHT_MIST,NIGHT_CLEAR,MIST","Onshore,Onshore,Offshore,Offshore,Offshore,Offshore",6
5842041f4e65fad6a770883f,2024_02_18,32.75034717673179,-117.25337,Ocean Beach,2.8333333333333335,1.8186166666666668,2.244972222222222,14,14,"CLOUDY,MOSTLY_CLOUDY,NIGHT_FOG,NIGHT_MOSTLY_CLOUDY,NIGHT_CLEAR,CLEAR","Onshore,Onshore,Offshore,Offshore,Offshore,Offshore",6
5842041f4e65fad6a7708840,2024_02_18,32.73693,-117.25718,Sunset Cliffs,3.6666666666666665,1.8466666666666667,2.223333333333333,15,15,"CLOUDY,MOSTLY_CLOUDY,NIGHT_FOG,NIGHT_FOG,NIGHT_MIST,MIST","Onshore,Onshore,Offshore,Offshore,Offshore,Offshore",6
5842041f4e65fad6a7708841,2024_02_18,32.796582258728826,-117.25779,Pacific Beach,3.1666666666666665,1.7557333333333334,2.2076000000000002,14,14,"CLOUDY,CLOUDY,NIGHT_FOG,NIGHT_MOSTLY_CLEAR,NIGHT_MOSTLY_CLOUDY,MOSTLY_CLEAR","Onshore,Cross-shore,Offshore,Offshore,Cross-shore,Offshore",6
5842041f4e65fad6a7708842,2024_02_18,32.776636,-117.25514,Mission Beach,3.3333333333333335,1.72115,2.1696833333333334,14,14,"CLOUDY,CLOUDY,NIGHT_FOG,NIGHT_MOSTLY_CLEAR,NIGHT_MOSTLY_CLOUDY,MOSTLY_CLEAR","Onshore,Onshore,Offshore,Offshore,Offshore,Offshore",6
5842041f4e65fad6a7708844,2024_02_18,32.577195519016,-117.13475,Imperial Beach Pier,3,1.84,2.2183333333333333,15,15,"CLOUDY,MOSTLY_CLOUDY,NIGHT_FOG,NIGHT_FOG,NIGHT_MOSTLY_CLEAR,CLEAR","Onshore,Onshore,Offshore,Offshore,Offshore,Offshore",6
5842041f4e65fad6a770884a,2024_02_18,42.88678181061,-70.80843,Seabrook,0,0.026162222222222222,0.09590638888888889,4,3,"NIGHT_CLEAR,NIGHT_CLEAR,NIGHT_CLEAR,NIGHT_CLEAR,CLEAR,CLEAR","Offshore,Offshore,Offshore,Offshore,Cross-shore,Cross-shore",6
5842041f4e65fad6a770884e,2024_02_18,41.434181432898335,-71.45312118111178,Narragansett,0.8616666666666667,0.13790555555555556,0.3987166666666667,5,4,"NIGHT_CLEAR,NIGHT_CLEAR,NIGHT_CLEAR,NIGHT_CLEAR,CLEAR,CLEAR","Offshore,Offshore,Cross-shore,Offshore,Cross-shore,Cross-shore",6
5842041f4e65fad6a7708850,2024_02_18,40.582703230722,-73.65247,Lincoln Blvd,0,0.041711111111111115,0.2664666666666667,5,4,"NIGHT_CLEAR,NIGHT_CLEAR,NIGHT_CLEAR,NIGHT_CLEAR,CLEAR,CLEAR","Onshore,Offshore,Onshore,Onshore,Cross-shore,Cross-shore",6
5842041f4e65fad6a7708852,2024_02_18,40.58342841721757,-73.81182,Rockaways,0,0.019444444444444445,0.24975555555555556,5,4,"NIGHT_CLEAR,NIGHT_CLEAR,NIGHT_CLEAR,NIGHT_CLEAR,CLEAR,CLEAR","Cross-shore,Offshore,Cross-shore,Cross-shore,Onshore,Onshore",6
5842041f4e65fad6a7708853,2024_02_18,40.330474,-73.9734,Monmouth Beach,0.6383333333333333,0.030000000000000002,0.29905,6,5,"NIGHT_CLEAR,NIGHT_CLEAR,NIGHT_CLEAR,NIGHT_CLEAR,CLEAR,CLEAR","Offshore,Offshore,Offshore,Offshore,Offshore,Offshore",6
5842041f4e65fad6a7708856,2024_02_18,40.113,-74.028,Manasquan Inlet,0,0,0.2827722222222222,6,5,"NIGHT_CLEAR,NIGHT_CLEAR,NIGHT_CLEAR,NIGHT_CLEAR,CLEAR,CLEAR","Offshore,Offshore,Offshore,Offshore,Offshore,Offshore",6
5842041f4e65fad6a7708857,2024_02_18,39.941519877445664,-74.06829,Casino Pier,0.305,0.0033333333333333335,0.28707777777777777,6,5,"NIGHT_CLEAR,NIGHT_CLEAR,NIGHT_CLEAR,NIGHT_CLEAR,CLEAR,CLEAR","Offshore,Offshore,Offshore,Offshore,Offshore,Offshore",6
5842041f4e65fad6a7708858,2024_02_18,39.28223089949212,-74.55766,North End OC,0,-0.006666666666666667,0.25927222222222224,6,5,"NIGHT_CLEAR,NIGHT_CLEAR,NIGHT_CLEAR,NIGHT_CLEAR,CLEAR,CLEAR","Offshore,Offshore,Offshore,Offshore,Cross-shore,Cross-shore",6
5842041f4e65fad6a770885b,2024_02_18,39.65080599934257,-74.17146,Ship Bottom,0.305,0.00375,0.28860555555555556,6,5,"NIGHT_CLEAR,NIGHT_CLEAR,NIGHT_CLEAR,NIGHT_CLEAR,CLEAR,CLEAR","Offshore,Offshore,Offshore,Offshore,Cross-shore,Cross-shore",6
5842041f4e65fad6a7708863,2024_02_18,36.034151543144,-75.66791,Third Street,1.8333333333333333,0.6628888888888889,1.0174444444444444,7,6,"NIGHT_CLEAR,NIGHT_CLEAR,NIGHT_CLEAR,NIGHT_CLEAR,CLEAR,CLEAR","Cross-shore,Cross-shore,Onshore,Cross-shore,Offshore,Offshore",6
5842041f4e65fad6a7708867,2024_02_18,35.605833221351425,-75.46303,S-Turns,1.4733333333333334,0.7252166666666667,1.131061111111111,9,8,"NIGHT_CLEAR,NIGHT_CLEAR,NIGHT_CLEAR,NIGHT_CLEAR,CLEAR,CLEAR","Cross-shore,Cross-shore,Onshore,Cross-shore,Onshore,Cross-shore",6
5842041f4e65fad6a770886d,2024_02_18,38.338461,-75.08117,Ocean City Boardwalk,0,-0.007777777777777779,0.20333333333333334,7,5,"NIGHT_CLEAR,NIGHT_CLEAR,NIGHT_CLEAR,NIGHT_CLEAR,CLEAR,CLEAR","Offshore,Offshore,Offshore,Offshore,Offshore,Offshore",6
5842041f4e65fad6a770886f,2024_02_18,29.844757212379562,-81.26136,A St.,1.1666666666666667,0.10833333333333334,0.38166666666666665,15.333333333333334,15.333333333333334,"LIGHT_RAIN,NIGHT_RAIN_AND_FOG,NIGHT_RAIN,NIGHT_RAIN,LIGHT_RAIN,LIGHT_SHOWERS_POSSIBLE","Offshore,Offshore,Cross-shore,Cross-shore,Cross-shore,Cross-shore",6
5842041f4e65fad6a7708871,2024_02_18,29.069417851135093,-80.90824,New Smyrna Beach,0.6666666666666666,0.3701388888888889,0.6767444444444445,17,16,"RAIN,NIGHT_RAIN,NIGHT_DRIZZLE,NIGHT_FOG,RAIN,LIGHT_RAIN","Cross-shore,Cross-shore,Cross-shore,Cross-shore,Cross-shore,Onshore",6
5842041f4e65fad6a7708872,2024_02_18,28.367707417566,-80.60171,Cocoa Beach Pier,0.16666666666666666,0.0013888888888888892,0.22210555555555556,18,17,"OVERCAST,NIGHT_OVERCAST,NIGHT_DRIZZLE,NIGHT_MOSTLY_CLOUDY,LIGHT_RAIN,LIGHT_RAIN","Cross-shore,Cross-shore,Cross-shore,Cross-shore,Cross-shore,Cross-shore",6
5842041f4e65fad6a7708873,2024_02_18,28.091782738658846,-80.56479,Indialantic,0.6933333333333334,0.18001666666666666,0.45720000000000005,19,18,"CLOUDY,NIGHT_MOSTLY_CLOUDY,NIGHT_OVERCAST,NIGHT_LIGHT_RAIN,LIGHT_RAIN,LIGHT_RAIN","Cross-shore,Cross-shore,Onshore,Cross-shore,Cross-shore,Cross-shore",6
5842041f4e65fad6a7708876,2024_02_18,27.25392904143517,-80.19455,Jensen Beach,0.6933333333333334,0.16015555555555555,0.43095000000000006,22,20,"CLOUDY,NIGHT_CLOUDY,NIGHT_BRIEF_SHOWERS,NIGHT_OVERCAST,CLOUDY,DRIZZLE","Onshore,Cross-shore,Onshore,Cross-shore,Onshore,Onshore",6
5842041f4e65fad6a7708879,2024_02_18,26.76346795333825,-80.0360655784607,Reef Road,0.9716666666666667,0.14097222222222222,0.37529999999999997,23,22,"BRIEF_SHOWERS,NIGHT_CLEAR,NIGHT_RAIN,NIGHT_OVERCAST,OVERCAST,MOSTLY_CLOUDY","Offshore,Offshore,Onshore,Onshore,Cross-shore,Onshore",6
5842041f4e65fad6a770887c,2024_02_18,26.336499228484,-80.06956100463,Boca Raton Inlet,0.6933333333333334,0.015000000000000001,0.2869888888888889,24,22,"MOSTLY_CLEAR,NIGHT_CLEAR,NIGHT_LIGHT_RAIN_AND_FOG,NIGHT_RAIN,MIST,DRIZZLE","Cross-shore,Offshore,Onshore,Onshore,Cross-shore,Onshore",6
5842041f4e65fad6a770887d,2024_02_18,26.31719311695038,-80.07452525176168,Deerfield Beach Pier,0,0.03555888888888889,0.16791194444444443,24,23,"CLEAR,NIGHT_CLEAR,NIGHT_FOG,NIGHT_RAIN_AND_FOG,LIGHT_SHOWERS_POSSIBLE,MIST","Cross-shore,Offshore,Onshore,Onshore,Cross-shore,Onshore",6
5842041f4e65fad6a7708881,2024_02_18,30.20276320866628,-85.85626528676136,"Spyglass Dr., Panama City",0,0,0.09163333333333334,16,15,"LIGHT_RAIN,NIGHT_LIGHT_SHOWERS_POSSIBLE,NIGHT_OVERCAST,NIGHT_OVERCAST,CLOUDY,CLEAR","Offshore,Offshore,Offshore,Offshore,Offshore,Offshore",6
5842041f4e65fad6a7708884,2024_02_18,33.39000832738053,-117.59852,Cottons,3.8333333333333335,1.52365,1.966488888888889,14,14,"MOSTLY_CLOUDY,MOSTLY_CLOUDY,NIGHT_CLEAR,NIGHT_MIST,NIGHT_CLEAR,CLEAR","Onshore,Onshore,Offshore,Offshore,Offshore,Cross-shore",6
5842041f4e65fad6a7708885,2024_02_18,33.359416282661,-117.54167901405711,Trails,3.3333333333333335,1.025,1.3016666666666667,15,15,"MOSTLY_CLOUDY,MOSTLY_CLOUDY,NIGHT_MOSTLY_CLOUDY,NIGHT_CLEAR,NIGHT_CLEAR,CLEAR","Onshore,Onshore,Offshore,Offshore,Offshore,Offshore",6
5842041f4e65fad6a7708886,2024_02_18,33.38042605929805,-117.58332,Middles,3.5,0.9783833333333334,1.3277833333333333,14,14,"MOSTLY_CLOUDY,MOSTLY_CLOUDY,NIGHT_CLEAR,NIGHT_MIST,NIGHT_CLEAR,CLEAR","Onshore,Onshore,Offshore,Offshore,Offshore,Cross-shore",6
5842041f4e65fad6a7708887,2024_02_18,33.38445596302903,-117.59445,Upper Trestles,3.8333333333333335,1.4328166666666666,1.8273222222222223,14,14,"MOSTLY_CLOUDY,MOSTLY_CLOUDY,NIGHT_CLEAR,NIGHT_MIST,NIGHT_CLEAR,CLEAR","Onshore,Onshore,Offshore,Offshore,Offshore,Cross-shore",6
5842041f4e65fad6a7708889,2024_02_18,28.944414,-95.28883,Surfside,1,0.17719833333333335,0.2768733333333333,15.333333333333334,15.333333333333334,"CLEAR,CLEAR,NIGHT_CLEAR,NIGHT_CLEAR,CLEAR,CLEAR","Offshore,Offshore,Offshore,Offshore,Offshore,Offshore",6
5842041f4e65fad6a770888a,2024_02_18,33.38143999849023,-117.58843,Lower Trestles,3.5,1.2690666666666666,1.6001333333333334,14,14,"MOSTLY_CLOUDY,MOSTLY_CLOUDY,NIGHT_CLEAR,NIGHT_MOSTLY_CLOUDY,NIGHT_CLEAR,CLEAR","Onshore,Onshore,Offshore,Offshore,Offshore,Cross-shore",6
5842041f4e65fad6a770888b,2024_02_18,33.379622288757,-117.57894,Church,3.5,1.1368555555555555,1.4695888888888888,14,14,"MOSTLY_CLOUDY,MOSTLY_CLOUDY,NIGHT_CLEAR,NIGHT_MIST,NIGHT_CLEAR,CLEAR","Onshore,Onshore,Offshore,Offshore,Offshore,Cross-shore",6
5842041f4e65fad6a770888d,2024_02_18,21.679,-158.042,Sunset Beach,3,3.4704555555555556,4.325961111111111,26,25,"CLEAR,CLEAR,NIGHT_BRIEF_SHOWERS,NIGHT_CLEAR,NIGHT_MOSTLY_CLOUDY,NIGHT_MOSTLY_CLOUDY","Cross-shore,Cross-shore,Cross-shore,Offshore,Offshore,Offshore",6
5842041f4e65fad6a770888e,2024_02_18,21.670550036401,-158.0482,Rocky Point,2.8333333333333335,3.2996222222222222,4.117905555555556,26,25,"CLEAR,CLEAR,NIGHT_CLEAR,NIGHT_CLEAR,NIGHT_MOSTLY_CLOUDY,NIGHT_MOSTLY_CLEAR","Cross-shore,Cross-shore,Cross-shore,Cross-shore,Cross-shore,Cross-shore",6
5842041f4e65fad6a770888f,2024_02_18,21.668,-158.05,Chambers,3,3.21,3.835,24,24,"CLEAR,CLEAR,NIGHT_CLEAR,NIGHT_CLEAR,NIGHT_MOSTLY_CLOUDY,NIGHT_MOSTLY_CLEAR","Cross-shore,Cross-shore,Cross-shore,Cross-shore,Cross-shore,Cross-shore",6
5842041f4e65fad6a7708890,2024_02_18,21.66522,-158.0526,Pipeline,3.1666666666666665,2.590872222222222,3.1298055555555555,26,25,"CLEAR,CLEAR,NIGHT_CLEAR,NIGHT_CLEAR,NIGHT_MOSTLY_CLOUDY,NIGHT_MOSTLY_CLEAR","Cross-shore,Cross-shore,Cross-shore,Cross-shore,Cross-shore,Cross-shore",6
5842041f4e65fad6a7708891,2024_02_18,21.665,-158.054,Backdoor,3,2.590872222222222,3.1298055555555555,26,25,"CLEAR,CLEAR,NIGHT_CLEAR,NIGHT_CLEAR,NIGHT_MOSTLY_CLOUDY,NIGHT_MOSTLY_CLEAR","Cross-shore,Cross-shore,Cross-shore,Cross-shore,Cross-shore,Cross-shore",6
5842041f4e65fad6a7708892,2024_02_18,21.662,-158.057,Rockpile,2.6666666666666665,3.4033333333333333,4.0649999999999995,24,24,"CLEAR,CLEAR,NIGHT_CLEAR,NIGHT_MOSTLY_CLOUDY,NIGHT_MOSTLY_CLOUDY,NIGHT_MOSTLY_CLEAR","Cross-shore,Cross-shore,Cross-shore,Cross-shore,Cross-shore,Cross-shore",6
5842041f4e65fad6a7708893,2024_02_18,21.65870453806827,-158.06058,Log Cabins,2.6666666666666665,3.0933333333333333,3.6983333333333333,24,24,"CLEAR,CLEAR,NIGHT_CLEAR,NIGHT_MOSTLY_CLOUDY,NIGHT_MOSTLY_CLOUDY,NIGHT_MOSTLY_CLEAR","Cross-shore,Cross-shore,Cross-shore,Cross-shore,Cross-shore,Cross-shore",6
5842041f4e65fad6a7708894,2024_02_18,21.66203493640557,-158.05495,Off-The-Wall,3,3.4433333333333334,4.113333333333333,24,24,"CLEAR,CLEAR,NIGHT_CLEAR,NIGHT_MOSTLY_CLOUDY,NIGHT_MOSTLY_CLOUDY,NIGHT_MOSTLY_CLEAR","Cross-shore,Cross-shore,Cross-shore,Cross-shore,Cross-shore,Cross-shore",6
5842041f4e65fad6a7708895,2024_02_18,21.643,-158.067,Waimea Bay,NA,3.896011111111111,4.833461111111111,26,25,"CLEAR,CLEAR,NIGHT_CLEAR,NIGHT_CLEAR,NIGHT_MOSTLY_CLOUDY,NIGHT_MOSTLY_CLEAR","Cross-shore,Cross-shore,Cross-shore,Offshore,Offshore,Offshore",6
5842041f4e65fad6a7708896,2024_02_18,21.622,-158.087,Hultin's,2,3.418372222222222,4.239988888888889,26,25,"CLEAR,CLEAR,NIGHT_CLEAR,NIGHT_MOSTLY_CLEAR,NIGHT_MOSTLY_CLOUDY,NIGHT_CLEAR","Cross-shore,Cross-shore,Cross-shore,Offshore,Offshore,Offshore",6
5842041f4e65fad6a7708897,2024_02_18,21.623,-158.085,Jocko's,2,3.0683333333333334,3.6683333333333334,24,24,"CLEAR,CLEAR,NIGHT_CLEAR,NIGHT_MOSTLY_CLEAR,NIGHT_MOSTLY_CLOUDY,NIGHT_CLEAR","Onshore,Onshore,Onshore,Onshore,Onshore,Onshore",6
5842041f4e65fad6a7708898,2024_02_18,21.62,-158.088,Laniakea,2.1666666666666665,3.240966666666667,4.078,26,25,"CLEAR,CLEAR,NIGHT_CLEAR,NIGHT_MOSTLY_CLEAR,NIGHT_MOSTLY_CLOUDY,NIGHT_CLEAR","Cross-shore,Cross-shore,Cross-shore,Cross-shore,Cross-shore,Cross-shore",6
5842041f4e65fad6a7708899,2024_02_18,21.625,-158.083,Chun's,2,2.9383333333333335,3.5116666666666667,24,24,"CLEAR,CLEAR,NIGHT_CLEAR,NIGHT_MOSTLY_CLEAR,NIGHT_MOSTLY_CLOUDY,NIGHT_CLEAR","Cross-shore,Cross-shore,Cross-shore,Cross-shore,Cross-shore,Cross-shore",6
5842041f4e65fad6a770889c,2024_02_18,21.286357895152136,-157.8515,South Shore - Ala Moana Park,1.8333333333333333,0.33166666666666667,0.6383333333333333,24,24,"CLEAR,CLEAR,NIGHT_CLEAR,NIGHT_CLEAR,NIGHT_CLEAR,NIGHT_CLEAR","Offshore,Offshore,Offshore,Offshore,Offshore,Offshore",6
5842041f4e65fad6a770889d,2024_02_18,19.606,-155.978,Banyans,3,1.0236055555555557,1.2947833333333334,26,25,"CLEAR,CLEAR,NIGHT_CLEAR,NIGHT_CLEAR,NIGHT_CLEAR,NIGHT_FOG","Onshore,Onshore,Cross-shore,Cross-shore,Onshore,Offshore",6
5842041f4e65fad6a770889e,2024_02_18,20.029,-155.831,Kawaihae,2.3333333333333335,0.48286,0.8503666666666667,25,25,"MOSTLY_CLEAR,CLEAR,NIGHT_CLEAR,NIGHT_MOSTLY_CLEAR,NIGHT_CLEAR,NIGHT_CLEAR","Offshore,Offshore,Offshore,Offshore,Offshore,Offshore",6
5842041f4e65fad6a770889f,2024_02_18,33.07541383424675,-117.3105,Grandview,3.1666666666666665,1.5383333333333333,1.8666666666666667,15,15,"CLOUDY,CLOUDY,NIGHT_FOG,NIGHT_CLEAR,NIGHT_CLEAR,CLEAR","Onshore,Onshore,Offshore,Offshore,Offshore,Cross-shore",6
5842041f4e65fad6a77088a0,2024_02_18,33.065267421296596,-117.30577,Beacons,3.3333333333333335,1.29,1.615,15,15,"CLOUDY,CLOUDY,NIGHT_FOG,NIGHT_MOSTLY_CLOUDY,NIGHT_CLEAR,CLEAR","Onshore,Onshore,Offshore,Offshore,Offshore,Onshore",6
5842041f4e65fad6a77088a2,2024_02_18,21.252,-157.805,Diamond Head,3,0.6726006944444445,1.0129333333333332,26,25,"CLEAR,CLEAR,NIGHT_CLEAR,NIGHT_CLEAR,NIGHT_CLEAR,NIGHT_CLEAR","Offshore,Offshore,Offshore,Offshore,Offshore,Offshore",6
5842041f4e65fad6a77088a3,2024_02_18,33.04694255008896,-117.29966,Moonlight State Beach,3.3333333333333335,1.35,1.6816666666666666,15,15,"CLEAR,CLOUDY,NIGHT_LIGHT_RAIN_AND_FOG,NIGHT_MOSTLY_CLOUDY,NIGHT_MOSTLY_CLEAR,CLEAR","Onshore,Onshore,Offshore,Offshore,Offshore,Offshore",6
5842041f4e65fad6a77088a5,2024_02_18,33.08685865930869,-117.31532,Ponto,3.1666666666666665,1.695,2.0533333333333332,15,15,"CLOUDY,CLOUDY,NIGHT_FOG,NIGHT_MOSTLY_CLOUDY,NIGHT_CLEAR,CLEAR","Onshore,Onshore,Offshore,Offshore,Offshore,Offshore",6
5842041f4e65fad6a77088a6,2024_02_18,33.130343587871906,-117.33667796442558,Terra Mar Point,3,0.9022388888888889,1.2807722222222222,15,15,"CLOUDY,OVERCAST,NIGHT_FOG,NIGHT_MOSTLY_CLOUDY,NIGHT_MOSTLY_CLEAR,CLEAR","Onshore,Onshore,Offshore,Offshore,Offshore,Offshore",6
5842041f4e65fad6a77088af,2024_02_18,32.95916304183685,-117.26963,Del Mar,3,1.5783333333333334,1.92,15,15,"CLOUDY,CLOUDY,NIGHT_CLEAR,NIGHT_CLEAR,NIGHT_CLEAR,MIST","Cross-shore,Onshore,Cross-shore,Cross-shore,Offshore,Offshore",6
5842041f4e65fad6a77088b0,2024_02_18,32.97527261243354,-117.2721061331305,Del Mar Rivermouth,3.1666666666666665,1.3216666666666668,1.6483333333333334,15,15,"CLEAR,CLEAR,NIGHT_FOG,NIGHT_CLEAR,NIGHT_MIST,MIST","Cross-shore,Onshore,Offshore,Cross-shore,Offshore,Offshore",6
5842041f4e65fad6a77088b1,2024_02_18,33.01352178146273,-117.28219,Cardiff Reef,3.6666666666666665,1.7147277777777779,2.0984333333333334,15,15,"CLEAR,CLEAR,NIGHT_FOG,NIGHT_MOSTLY_CLEAR,NIGHT_MOSTLY_CLEAR,MOSTLY_CLEAR","Onshore,Onshore,Offshore,Offshore,Offshore,Offshore",6
5842041f4e65fad6a77088b3,2024_02_18,33.00211185876003,-117.2811,Seaside Reef,3.6666666666666665,1.65695,2.0646833333333334,15,15,"CLOUDY,CLEAR,NIGHT_FOG,NIGHT_CLEAR,NIGHT_MIST,CLEAR","Onshore,Onshore,Offshore,Offshore,Offshore,Offshore",6
5842041f4e65fad6a77088b4,2024_02_18,33.0341859796287,-117.29552,Swami's,3.6666666666666665,1.778488888888889,2.2756444444444446,15,15,"CLEAR,CLEAR,NIGHT_FOG,NIGHT_MOSTLY_CLOUDY,NIGHT_MOSTLY_CLEAR,MOSTLY_CLEAR","Onshore,Onshore,Offshore,Offshore,Offshore,Offshore",6
5842041f4e65fad6a77088b7,2024_02_18,33.04569760260221,-117.2994,D Street,3.3333333333333335,1.67,2.0266666666666664,15,15,"CLEAR,CLOUDY,NIGHT_LIGHT_RAIN_AND_FOG,NIGHT_MOSTLY_CLOUDY,NIGHT_MOSTLY_CLEAR,CLEAR","Onshore,Onshore,Offshore,Offshore,Offshore,Offshore",6
5842041f4e65fad6a77088b8,2024_02_18,33.02090944350196,-117.28535,San Elijo State Beach,3.6666666666666665,1.5762333333333334,1.9416055555555556,15,15,"CLEAR,CLEAR,NIGHT_FOG,NIGHT_MOSTLY_CLEAR,NIGHT_MOSTLY_CLEAR,MOSTLY_CLEAR","Onshore,Onshore,Offshore,Offshore,Offshore,Offshore",6
5842041f4e65fad6a77088c2,2024_02_18,32.80662846492798,-117.2688764333725,PB Point,3.6666666666666665,1.455,1.765,15,15,"CLOUDY,CLOUDY,NIGHT_MOSTLY_CLOUDY,NIGHT_FOG,NIGHT_MIST,FOG","Cross-shore,Cross-shore,Cross-shore,Offshore,Cross-shore,Offshore",6
5842041f4e65fad6a77088c4,2024_02_18,32.8060476681448,-117.26479,Old Man's at Tourmaline,3.5,1.3116666666666668,1.6233333333333333,15,15,"CLOUDY,CLOUDY,NIGHT_MOSTLY_CLOUDY,NIGHT_FOG,NIGHT_MIST,FOG","Cross-shore,Cross-shore,Cross-shore,Offshore,Cross-shore,Cross-shore",6
5842041f4e65fad6a77088cb,2024_02_18,32.557056711256,-117.1327445020322,Tijuana Slough,3,0.7866666666666666,1.0466666666666666,15,15,"CLOUDY,MOSTLY_CLOUDY,NIGHT_FOG,NIGHT_CLEAR,NIGHT_MIST,CLEAR","Onshore,Onshore,Offshore,Offshore,Offshore,Offshore",6
5842041f4e65fad6a77088cc,2024_02_18,32.863,-117.257,La Jolla Shores,2.6666666666666665,1.1316666666666666,1.4266666666666667,15,15,"CLEAR,CLOUDY,NIGHT_FOG,NIGHT_MOSTLY_CLOUDY,NIGHT_MOSTLY_CLEAR,MOSTLY_CLEAR","Onshore,Onshore,Cross-shore,Offshore,Offshore,Offshore",6
5842041f4e65fad6a77088ce,2024_02_18,32.67443657790586,-117.17421316238693,Coronado Beach,3.6666666666666665,1.8516666666666666,2.23,15,15,"CLOUDY,MOSTLY_CLOUDY,NIGHT_FOG,NIGHT_FOG,NIGHT_CLEAR,CLEAR","Cross-shore,Cross-shore,Offshore,Offshore,Offshore,Offshore",6
5842041f4e65fad6a77088cf,2024_02_18,33.40484417640326,-117.60749,San Clemente State Beach,3.1666666666666665,0.9883333333333333,1.28,15,15,"MOSTLY_CLOUDY,MOSTLY_CLOUDY,NIGHT_CLEAR,NIGHT_MIST,NIGHT_CLEAR,CLEAR","Onshore,Onshore,Offshore,Offshore,Cross-shore,Offshore",6
5842041f4e65fad6a77088d5,2024_02_18,33.4663042002114,-117.7168352817103,Strands,3.6666666666666665,1.5093222222222222,1.9881444444444445,14,14,"MOSTLY_CLOUDY,MOSTLY_CLOUDY,NIGHT_MOSTLY_CLOUDY,NIGHT_FOG,NIGHT_CLEAR,CLEAR","Onshore,Onshore,Offshore,Offshore,Offshore,Cross-shore",6
5842041f4e65fad6a77088d7,2024_02_18,33.4609858001748,-117.68535,Doheny State Beach,2.5,0.23972222222222223,0.5442944444444444,14,14,"MOSTLY_CLOUDY,MOSTLY_CLOUDY,NIGHT_MIST,NIGHT_MIST,NIGHT_MIST,FOG","Onshore,Onshore,Offshore,Offshore,Offshore,Cross-shore",6
5842041f4e65fad6a77088dc,2024_02_18,33.50894790083017,-117.75243,Aliso Creek,2.8333333333333335,1.0466666666666666,1.3266666666666667,15,15,"MOSTLY_CLOUDY,CLOUDY,NIGHT_MOSTLY_CLOUDY,NIGHT_MOSTLY_CLOUDY,NIGHT_CLEAR,CLEAR","Onshore,Cross-shore,Offshore,Offshore,Cross-shore,Cross-shore",6
5842041f4e65fad6a77088dd,2024_02_18,33.5326591767067,-117.77764,Brooks Street,2.8333333333333335,0.7983333333333333,1.0566666666666666,15,15,"MOSTLY_CLOUDY,CLOUDY,NIGHT_FOG,NIGHT_MOSTLY_CLOUDY,NIGHT_MIST,FOG","Onshore,Cross-shore,Offshore,Cross-shore,Cross-shore,Cross-shore",6
5842041f4e65fad6a77088de,2024_02_18,33.53561225884637,-117.7799,Thalia Street,3,0.85,1.115,15,15,"MOSTLY_CLOUDY,CLOUDY,NIGHT_FOG,NIGHT_MOSTLY_CLOUDY,NIGHT_MIST,FOG","Onshore,Cross-shore,Offshore,Cross-shore,Cross-shore,Cross-shore",6
5842041f4e65fad6a77088e3,2024_02_18,33.54268310353641,-117.7916,Rockpile,3.1666666666666665,0.9266666666666666,1.1983333333333333,15,15,"MOSTLY_CLOUDY,CLOUDY,NIGHT_FOG,NIGHT_MOSTLY_CLOUDY,NIGHT_MIST,FOG","Cross-shore,Cross-shore,Offshore,Cross-shore,Cross-shore,Cross-shore",6
5842041f4e65fad6a77088e4,2024_02_18,33.7368459504689,-118.10342,"Seal Beach Pier, Southside",2.5,0.4666666666666667,0.7733333333333333,15,15,"DRIZZLE,OVERCAST,NIGHT_FOG,NIGHT_CLOUDY,NIGHT_FOG,FOG","Onshore,Onshore,Cross-shore,Cross-shore,Cross-shore,Offshore",6
5842041f4e65fad6a77088e5,2024_02_18,33.73933701820233,-118.117,Ray Bay,2.1666666666666665,0.245,0.5483333333333333,15,15,"DRIZZLE,OVERCAST,NIGHT_FOG,NIGHT_CLEAR,NIGHT_FOG,FOG","Onshore,Onshore,Cross-shore,Cross-shore,Offshore,Offshore",6
5842041f4e65fad6a77088e7,2024_02_18,33.728733,-118.08982,Surfside,3,1.8933333333333333,2.2616666666666667,15,15,"OVERCAST,DRIZZLE,NIGHT_FOG,NIGHT_FOG,NIGHT_FOG,FOG","Onshore,Onshore,Cross-shore,Cross-shore,Offshore,Offshore",6
5842041f4e65fad6a77088e8,2024_02_18,33.68760321488161,-118.04236,Bolsa Chica State Beach,3.1666666666666665,1.9057111111111111,2.3587333333333333,14,14,"OVERCAST,OVERCAST,NIGHT_MOSTLY_CLOUDY,NIGHT_MOSTLY_CLOUDY,NIGHT_FOG,FOG","Onshore,Onshore,Offshore,Onshore,Cross-shore,Cross-shore",6
5842041f4e65fad6a77088ea,2024_02_18,33.66704400178788,-118.0192,North HB Streets,3.1666666666666665,1.8659777777777777,2.387961111111111,14,14,"CLOUDY,MIST,NIGHT_MOSTLY_CLOUDY,NIGHT_CLEAR,NIGHT_FOG,FOG","Onshore,Onshore,Offshore,Cross-shore,Cross-shore,Cross-shore",6
5842041f4e65fad6a77088ed,2024_02_18,33.65475101379567,-118.00291,Huntington Beach Pier Southside,3.1666666666666665,1.7009777777777777,2.2656111111111112,14,14,"OVERCAST,DRIZZLE,NIGHT_MOSTLY_CLOUDY,NIGHT_MOSTLY_CLEAR,NIGHT_FOG,FOG","Onshore,Onshore,Offshore,Cross-shore,Offshore,Offshore",6
5842041f4e65fad6a77088ee,2024_02_18,33.62778647706099,-117.95939,River Jetties,3,1.6294944444444444,2.095277777777778,15,15,"OVERCAST,OVERCAST,NIGHT_FOG,NIGHT_MOSTLY_CLOUDY,NIGHT_FOG,FOG","Onshore,Onshore,Cross-shore,Cross-shore,Offshore,Offshore",6
5842041f4e65fad6a77088f2,2024_02_18,33.605165797643664,-117.92500376701355,Newport Point,2.6666666666666665,0.31833333333333336,0.625,15,15,"CLOUDY,CLOUDY,NIGHT_FOG,NIGHT_MOSTLY_CLOUDY,NIGHT_MOSTLY_CLOUDY,FOG","Onshore,Onshore,Offshore,Onshore,Onshore,Cross-shore",6
5842041f4e65fad6a77088f3,2024_02_18,33.58982984726977,-117.87713,Corona del Mar,1,0.172105,0.26891,15,15,"MOSTLY_CLOUDY,OVERCAST,NIGHT_CLEAR,NIGHT_MOSTLY_CLOUDY,NIGHT_FOG,FOG","Onshore,Onshore,Offshore,Offshore,Cross-shore,Offshore",6
5842041f4e65fad6a77088f7,2024_02_18,34.00750300824362,-118.4971783496269,Santa Monica Pier,2.6666666666666665,0.48666666666666664,0.79,15,15,"MOSTLY_CLOUDY,MOSTLY_CLOUDY,NIGHT_FOG,NIGHT_FOG,NIGHT_FOG,FOG","Onshore,Onshore,Offshore,Onshore,Cross-shore,Cross-shore",6
5842041f4e65fad6a77088ff,2024_02_18,33.94070283102945,-118.44321,Dockweiler Beach,2.8333333333333335,1.5267973611111112,1.8358694444444443,14,14,"CLOUDY,MOSTLY_CLOUDY,NIGHT_CLEAR,NIGHT_MIST,NIGHT_MIST,FOG","Onshore,Onshore,Offshore,Onshore,Cross-shore,Cross-shore",6
5842041f4e65fad6a7708900,2024_02_18,33.9231846937237,-118.4341465777908,Shitpipe,2.8333333333333335,1.8460944444444445,2.2554944444444445,14,14,"OVERCAST,OVERCAST,NIGHT_CLEAR,NIGHT_MOSTLY_CLOUDY,NIGHT_FOG,FOG","Onshore,Onshore,Offshore,Cross-shore,Cross-shore,Cross-shore",6
5842041f4e65fad6a7708902,2024_02_18,33.9108528052242,-118.4279133138721,Hammerland,2.8333333333333335,2.0580611111111113,2.634061111111111,14,14,"OVERCAST,OVERCAST,NIGHT_CLEAR,NIGHT_MOSTLY_CLOUDY,NIGHT_FOG,FOG","Onshore,Onshore,Offshore,Cross-shore,Cross-shore,Cross-shore",6
5842041f4e65fad6a7708904,2024_02_18,33.87201368173932,-118.4075151286262,Hermosa Beach,2.7216666666666667,1.4737777777777779,1.8901333333333332,14,14,"CLOUDY,CLOUDY,NIGHT_MOSTLY_CLOUDY,NIGHT_FOG,NIGHT_MIST,FOG","Onshore,Onshore,Onshore,Onshore,Cross-shore,Cross-shore",6
5842041f4e65fad6a7708906,2024_02_18,33.90129336911256,-118.42184,El Porto,2.8333333333333335,2.1426444444444446,2.7086444444444444,14,14,"CLOUDY,OVERCAST,NIGHT_CLEAR,NIGHT_MOSTLY_CLOUDY,NIGHT_MIST,FOG","Onshore,Onshore,Offshore,Cross-shore,Cross-shore,Cross-shore",6
5842041f4e65fad6a7708907,2024_02_18,33.87963506431794,-118.41102,Manhattan Beach Pier,2.8333333333333335,2.0099833333333335,2.4887,14,14,"CLOUDY,OVERCAST,NIGHT_CLEAR,NIGHT_FOG,NIGHT_MIST,FOG","Onshore,Onshore,Offshore,Cross-shore,Cross-shore,Cross-shore",6
5842041f4e65fad6a7708914,2024_02_18,34.038053387863464,-118.5532,Sunset Point,2.6666666666666665,0.40166666666666667,0.7033333333333334,15,15,"MOSTLY_CLOUDY,CLEAR,NIGHT_FOG,NIGHT_FOG,NIGHT_BRIEF_SHOWERS,MIST","Cross-shore,Onshore,Offshore,Offshore,Offshore,Offshore",6
5842041f4e65fad6a7708920,2024_02_18,33.80930828074364,-118.3933198342649,Haggerty's,2.6666666666666665,0.617,0.789,15,15,"MIST,MOSTLY_CLOUDY,NIGHT_MOSTLY_CLEAR,NIGHT_MOSTLY_CLEAR,NIGHT_CLEAR,MOSTLY_CLOUDY","Onshore,Onshore,Onshore,Cross-shore,Offshore,Offshore",6
5842041f4e65fad6a7708921,2024_02_18,33.85044519861206,-118.40048,Redondo Breakwater,3.3333333333333335,2.0433333333333334,2.44,15,15,"CLOUDY,CLOUDY,NIGHT_MOSTLY_CLOUDY,NIGHT_MOSTLY_CLOUDY,NIGHT_MIST,FOG","Onshore,Onshore,Onshore,Cross-shore,Cross-shore,Cross-shore",6
5842041f4e65fad6a7708927,2024_02_18,33.70877301002487,-118.2840112858389,Cabrillo Beach,2.6666666666666665,0.69,0.9533333333333334,15,15,"DRIZZLE,MOSTLY_CLOUDY,NIGHT_FOG,NIGHT_FOG,NIGHT_FOG,FOG","Offshore,Offshore,Cross-shore,Onshore,Onshore,Onshore",6
5842041f4e65fad6a770892c,2024_02_18,33.77209986806257,-118.4268428476672,Lunada Bay,2.6666666666666665,2.361666666666667,2.8383333333333334,15,15,"CLOUDY,MOSTLY_CLOUDY,NIGHT_MOSTLY_CLEAR,NIGHT_MOSTLY_CLOUDY,NIGHT_FOG,MIST","Onshore,Onshore,Onshore,Onshore,Cross-shore,Cross-shore",6
5842041f4e65fad6a770892d,2024_02_18,33.79294656286144,-118.4070316699825,PV Cove,3.3333333333333335,1.474775,1.7408883333333334,15,15,"MIST,MOSTLY_CLOUDY,NIGHT_MOSTLY_CLEAR,NIGHT_MOSTLY_CLOUDY,NIGHT_CLEAR,MOSTLY_CLOUDY","Onshore,Onshore,Onshore,Cross-shore,Offshore,Offshore",6
5842041f4e65fad6a7708930,2024_02_18,34.03944902292561,-118.57539,Chart House,2.3333333333333335,0.26166666666666666,0.57,15,15,"MOSTLY_CLOUDY,MOSTLY_CLOUDY,NIGHT_FOG,NIGHT_FOG,NIGHT_BRIEF_SHOWERS,FOG","Cross-shore,Cross-shore,Offshore,Offshore,Offshore,Offshore",6
5842041f4e65fad6a7708936,2024_02_18,34.0016731994772,-118.80456,Point Dume,2.805,0.8359722222222222,1.1247444444444445,15,15,"MOSTLY_CLOUDY,CLEAR,NIGHT_CLEAR,NIGHT_MOSTLY_CLOUDY,NIGHT_MIST,MIST","Cross-shore,Cross-shore,Offshore,Onshore,Onshore,Onshore",6
5842041f4e65fad6a7708937,2024_02_18,34.02587527588963,-118.7554939066114,Latigo Point,2.3333333333333335,0.29333333333333333,0.5983333333333334,15,15,"MOSTLY_CLOUDY,MOSTLY_CLOUDY,NIGHT_MOSTLY_CLEAR,NIGHT_MIST,NIGHT_BRIEF_SHOWERS,MIST","Cross-shore,Cross-shore,Onshore,Onshore,Onshore,Onshore",6
5842041f4e65fad6a770893f,2024_02_18,34.043762,-118.93294,Leo Carrillo,2.6666666666666665,0.8941888888888889,1.1612944444444444,15,15,"MOSTLY_CLOUDY,MIST,NIGHT_MOSTLY_CLOUDY,NIGHT_MIST,NIGHT_MIST,MIST","Cross-shore,Cross-shore,Cross-shore,Offshore,Offshore,Offshore",6
5842041f4e65fad6a7708941,2024_02_18,36.69388179265737,-121.81289,Marina State Beach,3,3.6083333333333334,4.3116666666666665,13.333333333333334,13.333333333333334,"DRIZZLE,MOSTLY_CLOUDY,NIGHT_MOSTLY_CLOUDY,NIGHT_MIST,NIGHT_MIST,MOSTLY_CLEAR","Offshore,Offshore,Offshore,Offshore,Offshore,Offshore",6
5842041f4e65fad6a7708944,2024_02_18,34.34145077331085,-119.416999352654,Stanley's,3.5,1.3033333333333332,1.5566666666666666,15,15,"MOSTLY_CLEAR,MIST,NIGHT_MOSTLY_CLOUDY,NIGHT_BRIEF_SHOWERS,NIGHT_MOSTLY_CLOUDY,LIGHT_RAIN","Onshore,Onshore,Offshore,Offshore,Offshore,Offshore",6
5842041f4e65fad6a7708945,2024_02_18,34.35113017313915,-119.426921498899,Oil Piers,3.5,1.365,1.6316666666666668,15,15,"MOSTLY_CLEAR,MIST,NIGHT_MOSTLY_CLOUDY,NIGHT_BRIEF_SHOWERS,NIGHT_MOSTLY_CLOUDY,LIGHT_RAIN","Onshore,Onshore,Offshore,Offshore,Offshore,Offshore",6
5842041f4e65fad6a770894c,2024_02_18,34.17876333306018,-119.2399483564372,Oxnard,3,1.7216666666666667,2.0733333333333333,15,15,"CLEAR,CLEAR,NIGHT_FOG,NIGHT_FOG,NIGHT_MIST,FOG","Onshore,Onshore,Offshore,Cross-shore,Cross-shore,Cross-shore",6
5842041f4e65fad6a7708957,2024_02_18,34.31720331100517,-119.3882324751725,Pitas Point,3.3333333333333335,1.4333333333333333,1.7316666666666667,15,15,"MIST,MIST,NIGHT_MOSTLY_CLOUDY,NIGHT_MOSTLY_CLOUDY,NIGHT_FOG,MIST","Onshore,Cross-shore,Offshore,Offshore,Offshore,Offshore",6
5842041f4e65fad6a7708959,2024_02_18,34.27851754384724,-119.316202617226,Emma Wood,3.5,1.2833333333333332,1.56,15,15,"MOSTLY_CLEAR,MOSTLY_CLEAR,NIGHT_CLEAR,NIGHT_FOG,NIGHT_MIST,OVERCAST","Onshore,Onshore,Offshore,Offshore,Offshore,Offshore",6
5842041f4e65fad6a770895a,2024_02_18,34.35513640390276,-119.4400589884255,Mussel Shoals (aka Little Rincon),3.8333333333333335,1.7333333333333334,2.0700000000000003,15,15,"MOSTLY_CLEAR,MOSTLY_CLEAR,NIGHT_MOSTLY_CLOUDY,NIGHT_MOSTLY_CLOUDY,NIGHT_MOSTLY_CLOUDY,OVERCAST","Onshore,Cross-shore,Offshore,Offshore,Offshore,Cross-shore",6
5842041f4e65fad6a770895e,2024_02_18,34.28991757054902,-119.3366646794652,Summer Beach,2.8333333333333335,0.8166666666666667,1.12,15,15,"MOSTLY_CLEAR,MOSTLY_CLEAR,NIGHT_CLEAR,NIGHT_FOG,NIGHT_MIST,OVERCAST","Onshore,Onshore,Offshore,Offshore,Offshore,Offshore",6
5842041f4e65fad6a770895f,2024_02_18,34.30897456105926,-119.3582501170116,Solimar,3,0.8200000000000001,1.0883333333333334,15,15,"MIST,MIST,NIGHT_MOSTLY_CLOUDY,NIGHT_BRIEF_SHOWERS,NIGHT_FOG,MIST","Onshore,Cross-shore,Offshore,Offshore,Offshore,Offshore",6
5842041f4e65fad6a7708960,2024_02_18,34.39836265281686,-119.70213,Leadbetter Point,2.6666666666666665,0.6366666666666667,0.9,14,14,"MOSTLY_CLEAR,MOSTLY_CLEAR,NIGHT_LIGHT_RAIN,NIGHT_MOSTLY_CLOUDY,NIGHT_MOSTLY_CLOUDY,FOG","Cross-shore,Cross-shore,Offshore,Offshore,Onshore,Offshore",6
5842041f4e65fad6a7708961,2024_02_18,34.46052293893899,-120.07328,Refugio,1.6666666666666667,0.43833333333333335,0.7416666666666667,14,14,"MOSTLY_CLEAR,MOSTLY_CLEAR,NIGHT_BRIEF_SHOWERS,NIGHT_MOSTLY_CLOUDY,NIGHT_BRIEF_SHOWERS,MOSTLY_CLOUDY","Onshore,Onshore,Onshore,Onshore,Onshore,Onshore",6
5842041f4e65fad6a7708962,2024_02_18,34.40754276777778,-119.87639,Devereux,3,1.4449999999999998,1.7466666666666666,14,14,"MIST,MIST,NIGHT_LIGHT_RAIN_AND_FOG,NIGHT_MOSTLY_CLOUDY,NIGHT_MOSTLY_CLOUDY,CLOUDY","Cross-shore,Cross-shore,Cross-shore,Cross-shore,Cross-shore,Cross-shore",6
5842041f4e65fad6a7708963,2024_02_18,34.27479983305182,-119.3133222656776,Ventura Overhead,3.6666666666666665,1.4233333333333333,1.7183333333333333,15,15,"MOSTLY_CLEAR,CLEAR,NIGHT_BRIEF_SHOWERS,NIGHT_MOSTLY_CLOUDY,NIGHT_MIST,OVERCAST","Onshore,Onshore,Offshore,Offshore,Offshore,Offshore",6
5842041f4e65fad6a7708964,2024_02_18,34.41023236011655,-119.88261,Sands,3.6666666666666665,1.425,1.7066666666666666,14,14,"MIST,MIST,NIGHT_LIGHT_RAIN_AND_FOG,NIGHT_MOSTLY_CLOUDY,NIGHT_MOSTLY_CLOUDY,CLOUDY","Onshore,Onshore,Offshore,Offshore,Offshore,Offshore",6
5842041f4e65fad6a7708966,2024_02_18,34.40450193869233,-119.68752,Sandspit,2.5,0.25166666666666665,0.555,14,14,"MOSTLY_CLEAR,CLEAR,NIGHT_RAIN,NIGHT_MOSTLY_CLOUDY,NIGHT_MOSTLY_CLOUDY,FOG","Cross-shore,Cross-shore,Offshore,Offshore,Cross-shore,Offshore",6
5842041f4e65fad6a7708967,2024_02_18,34.41549098334453,-119.6375149840203,Hammond's,2.6666666666666665,0.7066666666666667,0.9283333333333333,14,14,"MOSTLY_CLEAR,CLEAR,NIGHT_OVERCAST,NIGHT_LIGHT_RAIN_AND_FOG,NIGHT_MOSTLY_CLOUDY,BRIEF_SHOWERS","Cross-shore,Cross-shore,Cross-shore,Cross-shore,Cross-shore,Cross-shore",6
5842041f4e65fad6a7708968,2024_02_18,34.45759322742309,-120.0220251867315,El Capitan,2.8333333333333335,0.7316666666666667,0.9533333333333334,14,14,"MOSTLY_CLEAR,MOSTLY_CLEAR,NIGHT_BRIEF_SHOWERS,NIGHT_MOSTLY_CLOUDY,NIGHT_BRIEF_SHOWERS,MOSTLY_CLOUDY","Onshore,Onshore,Cross-shore,Cross-shore,Onshore,Cross-shore",6
5842041f4e65fad6a770896c,2024_02_18,34.405117655616,-119.84317,Campus Point,2.8333333333333335,0.8033333333333333,1.0716666666666668,14,14,"MOSTLY_CLEAR,CLEAR,NIGHT_LIGHT_RAIN_AND_FOG,NIGHT_RAIN_AND_FOG,NIGHT_MOSTLY_CLOUDY,FOG","Cross-shore,Cross-shore,Onshore,Cross-shore,Cross-shore,Cross-shore",6
5842041f4e65fad6a770896e,2024_02_18,34.38935162233354,-119.51955,Carpinteria State Beach,3,2.163333333333333,2.585,14,14,"MOSTLY_CLEAR,MIST,NIGHT_MOSTLY_CLOUDY,NIGHT_FOG,NIGHT_MOSTLY_CLOUDY,MOSTLY_CLOUDY","Onshore,Onshore,Offshore,Offshore,Offshore,Offshore",6
5842041f4e65fad6a770896f,2024_02_18,37.48296565175612,-122.4549300127824,Half Moon Bay,1.6666666666666667,3.455,4.13,13,13,"HEAVY_SHOWERS,MOSTLY_CLOUDY,NIGHT_BRIEF_SHOWERS,NIGHT_MIST,NIGHT_CLEAR,CLEAR","Onshore,Onshore,Onshore,Onshore,Cross-shore,Offshore",6
5842041f4e65fad6a7708970,2024_02_18,37.499,-122.471,Princeton Jetty,2,2.7883333333333336,3.335,13,13,"SHOWERS,MOSTLY_CLOUDY,NIGHT_FOG,NIGHT_BRIEF_SHOWERS,NIGHT_CLEAR,CLEAR","Onshore,Onshore,Onshore,Onshore,Cross-shore,Cross-shore",6
5842041f4e65fad6a7708972,2024_02_18,37.35699547365155,-122.4069534707252,Tunitas Creek,1.3333333333333333,4.26,5.091666666666667,13,13,"BRIEF_SHOWERS,MOSTLY_CLOUDY,NIGHT_MIST,NIGHT_MIST,NIGHT_CLEAR,CLEAR","Cross-shore,Cross-shore,Onshore,Onshore,Cross-shore,Cross-shore",6
5842041f4e65fad6a7708974,2024_02_18,37.54735589428842,-122.5161090212687,Montara,2.5,3.6766666666666667,4.3966666666666665,13,13,"BRIEF_SHOWERS,SHOWERS,NIGHT_LIGHT_RAIN,NIGHT_MIST,NIGHT_MIST,MOSTLY_CLOUDY","Offshore,Offshore,Cross-shore,Offshore,Offshore,Offshore",6
5842041f4e65fad6a7708975,2024_02_18,34.3869373724559,-119.5142334209018,Tarpits,3.3333333333333335,1.9616666666666667,2.3466666666666667,14,14,"MOSTLY_CLEAR,MOSTLY_CLEAR,NIGHT_MOSTLY_CLOUDY,NIGHT_MOSTLY_CLOUDY,NIGHT_MOSTLY_CLOUDY,MOSTLY_CLOUDY","Onshore,Cross-shore,Offshore,Offshore,Offshore,Cross-shore",6
5842041f4e65fad6a7708976,2024_02_18,37.59881852720143,-122.50463,Pacifica / Linda Mar,2.6666666666666665,1.1971888888888889,1.5071611111111112,14,14,"BRIEF_SHOWERS,BRIEF_SHOWERS,NIGHT_MIST,NIGHT_MIST,NIGHT_CLEAR,CLEAR","Offshore,Cross-shore,Cross-shore,Cross-shore,Offshore,Offshore",6
5842041f4e65fad6a7708978,2024_02_18,37.59883098461164,-122.5143843582282,Pedro Point,2.6666666666666665,3.68,4.4,13,13,"BRIEF_SHOWERS,BRIEF_SHOWERS,NIGHT_MIST,NIGHT_BRIEF_SHOWERS,NIGHT_CLEAR,CLEAR","Offshore,Offshore,Cross-shore,Offshore,Offshore,Offshore",6
5842041f4e65fad6a7708979,2024_02_18,37.61081996647663,-122.4973287570634,Rockaway,2.3333333333333335,3.2416666666666667,3.875,13,13,"BRIEF_SHOWERS,BRIEF_SHOWERS,NIGHT_MIST,NIGHT_MIST,NIGHT_CLEAR,CLEAR","Cross-shore,Cross-shore,Onshore,Cross-shore,Offshore,Offshore",6
5842041f4e65fad6a770897a,2024_02_18,37.809987384424446,-122.4751353263855,Fort Point,2.6666666666666665,2.4333333333333336,2.9066666666666667,13,13,"MOSTLY_CLOUDY,BRIEF_SHOWERS,NIGHT_CLOUDY,NIGHT_MIST,NIGHT_MIST,MIST","Onshore,Onshore,Onshore,Onshore,Onshore,Onshore",6
5842041f4e65fad6a770897c,2024_02_18,37.63422542967464,-122.4951,Sharp Park,1.8333333333333333,3.7866666666666666,4.523333333333333,13,13,"BRIEF_SHOWERS,BRIEF_SHOWERS,NIGHT_DRIZZLE,NIGHT_MOSTLY_CLOUDY,NIGHT_CLEAR,CLEAR","Cross-shore,Cross-shore,Onshore,Cross-shore,Offshore,Offshore",6
5842041f4e65fad6a770897d,2024_02_18,37.27313605072472,-122.4127387912554,Pescadero,2,3.8266666666666667,4.571666666666666,13,13,"LIGHT_SHOWERS_POSSIBLE,LIGHT_RAIN,NIGHT_MIST,NIGHT_MIST,NIGHT_BRIEF_SHOWERS,BRIEF_SHOWERS","Offshore,Cross-shore,Cross-shore,Cross-shore,Offshore,Offshore",6
5842041f4e65fad6a770897e,2024_02_18,37.18140279972666,-122.3926685899327,Pigeon Point,1.3333333333333333,4.01,4.793333333333333,13,13,"MOSTLY_CLOUDY,LIGHT_RAIN,NIGHT_MIST,NIGHT_MIST,NIGHT_MOSTLY_CLOUDY,MOSTLY_CLOUDY","Onshore,Onshore,Onshore,Onshore,Onshore,Onshore",6
5842041f4e65fad6a770897f,2024_02_18,37.11578956919415,-122.314699271291,Ano Nuevo,1.6666666666666667,4.305,5.1433333333333335,13,13,"OVERCAST,LIGHT_RAIN,NIGHT_MIST,NIGHT_MIST,NIGHT_MOSTLY_CLOUDY,MOSTLY_CLOUDY","Onshore,Onshore,Onshore,Onshore,Onshore,Onshore",6
5842041f4e65fad6a7708980,2024_02_18,37.09520872681598,-122.2805474707768,Waddell Creek,1.6666666666666667,3.15,3.7683333333333335,13,13,"RAIN,LIGHT_RAIN,NIGHT_MIST,NIGHT_MIST,NIGHT_MOSTLY_CLOUDY,MOSTLY_CLOUDY","Cross-shore,Onshore,Onshore,Onshore,Cross-shore,Cross-shore",6
5842041f4e65fad6a7708981,2024_02_18,36.96512852130351,-122.1252825495626,Four Mile,1.8333333333333333,4.005,4.786666666666667,13,13,"RAIN,OVERCAST,NIGHT_MIST,NIGHT_MIST,NIGHT_MOSTLY_CLOUDY,MOSTLY_CLOUDY","Onshore,Onshore,Cross-shore,Onshore,Cross-shore,Cross-shore",6
5842041f4e65fad6a7708982,2024_02_18,37.04122807048655,-122.2333684729756,Scott Creek,2.1666666666666665,3.296666666666667,3.941666666666667,13,13,"RAIN,HEAVY_RAIN,NIGHT_MIST,NIGHT_MIST,NIGHT_MOSTLY_CLOUDY,MOSTLY_CLOUDY","Cross-shore,Onshore,Onshore,Onshore,Cross-shore,Cross-shore",6
5842041f4e65fad6a7708983,2024_02_18,37.02350229387179,-122.21908,Davenport,2,3.4433333333333334,4.111666666666666,13,13,"HEAVY_RAIN,LIGHT_RAIN,NIGHT_DRIZZLE,NIGHT_DRIZZLE,NIGHT_MOSTLY_CLOUDY,MOSTLY_CLOUDY","Cross-shore,Onshore,Onshore,Onshore,Cross-shore,Cross-shore",6
5842041f4e65fad6a7708986,2024_02_18,36.94905295955728,-122.0611823912244,Natural Bridges,2.5,3.635,4.345000000000001,13,13,"LIGHT_RAIN,MIST,NIGHT_FOG,NIGHT_MIST,NIGHT_CLEAR,CLEAR","Cross-shore,Onshore,Onshore,Onshore,Cross-shore,Cross-shore",6
5842041f4e65fad6a7708987,2024_02_18,36.95154854910425,-122.0420693940968,Mitchell's Cove,2.6666666666666665,2.5966666666666667,3.1,13,13,"LIGHT_RAIN,MIST,NIGHT_FOG,NIGHT_FOG,NIGHT_CLEAR,CLEAR","Onshore,Onshore,Onshore,Onshore,Onshore,Cross-shore",6
5842041f4e65fad6a770898a,2024_02_18,36.9572312370203,-121.98177,26th Ave,2.3333333333333335,2.828333333333333,3.38,13,13,"LIGHT_RAIN,LIGHT_RAIN,NIGHT_FOG,NIGHT_LIGHT_RAIN_AND_FOG,NIGHT_CLEAR,CLEAR","Cross-shore,Cross-shore,Onshore,Onshore,Offshore,Offshore",6
5842041f4e65fad6a770898e,2024_02_18,36.91899972819882,-121.85536,Manresa,2.6666666666666665,3.445,4.115,13,13,"DRIZZLE,HEAVY_RAIN,NIGHT_MIST,NIGHT_MIST,NIGHT_CLEAR,CLEAR","Cross-shore,Cross-shore,Cross-shore,Cross-shore,Offshore,Offshore",6
5842041f4e65fad6a7708990,2024_02_18,34.45747731928454,-120.34242,The Ranch,2.3333333333333335,2.065,2.466666666666667,14,14,"MIST,MOSTLY_CLOUDY,NIGHT_BRIEF_SHOWERS,NIGHT_SHOWERS,NIGHT_BRIEF_SHOWERS,BRIEF_SHOWERS","Onshore,Onshore,Onshore,Onshore,Onshore,Onshore",6
5842041f4e65fad6a7708991,2024_02_18,34.50875036590315,-120.50348,Jalama,2.8333333333333335,2.3383333333333334,2.7933333333333334,14,14,"MIST,MOSTLY_CLOUDY,NIGHT_MOSTLY_CLOUDY,NIGHT_MOSTLY_CLOUDY,NIGHT_MOSTLY_CLOUDY,MOSTLY_CLOUDY","Onshore,Onshore,Cross-shore,Cross-shore,Cross-shore,Cross-shore",6
5842041f4e65fad6a7708996,2024_02_18,34.68700870220497,-120.6111611019887,Surf Beach,2.8333333333333335,4.26,5.091666666666667,14,14,"MIST,OVERCAST,NIGHT_MOSTLY_CLOUDY,NIGHT_CLEAR,NIGHT_CLEAR,CLEAR","Cross-shore,Cross-shore,Offshore,Offshore,Offshore,Offshore",6
5842041f4e65fad6a770899c,2024_02_18,35.5730538161116,-121.1143362345574,Moonstone,2.1666666666666665,3.711666666666667,4.433333333333334,14,14,"RAIN,HEAVY_RAIN,NIGHT_MOSTLY_CLOUDY,NIGHT_MIST,NIGHT_MOSTLY_CLOUDY,MOSTLY_CLOUDY","Cross-shore,Cross-shore,Cross-shore,Cross-shore,Offshore,Offshore",6
5842041f4e65fad6a770899d,2024_02_18,35.61533716776573,-121.1502053073914,Pico Creek,3,2.8966666666666665,3.4616666666666664,14,14,"RAIN,RAIN,NIGHT_MIST,NIGHT_OVERCAST,NIGHT_MOSTLY_CLOUDY,MOSTLY_CLOUDY","Cross-shore,Cross-shore,Cross-shore,Cross-shore,Offshore,Offshore",6
5842041f4e65fad6a770899e,2024_02_18,35.56829031927379,-121.1120653023953,Santa Rosa Creek,2,3.7350000000000003,4.461666666666667,14,14,"LIGHT_RAIN,HEAVY_RAIN,NIGHT_OVERCAST,NIGHT_DRIZZLE,NIGHT_MOSTLY_CLOUDY,MOSTLY_CLOUDY","Cross-shore,Onshore,Cross-shore,Cross-shore,Cross-shore,Cross-shore",6
5842041f4e65fad6a77089a2,2024_02_18,35.44820114936284,-120.90715,"Cayucos Pier, Southside ",2.3333333333333335,2.2666666666666666,2.711666666666667,14,14,"RAIN,LIGHT_RAIN,NIGHT_FOG,NIGHT_FOG,NIGHT_CLEAR,CLEAR","Onshore,Onshore,Onshore,Onshore,Cross-shore,Onshore",6
5842041f4e65fad6a77089a4,2024_02_18,35.30143372628852,-120.877819239902,Cable Landing,3,4.8116666666666665,5.748333333333333,14,14,"LIGHT_SHOWERS_POSSIBLE,LIGHT_RAIN,NIGHT_MOSTLY_CLOUDY,NIGHT_MOSTLY_CLOUDY,NIGHT_CLEAR,CLEAR","Cross-shore,Cross-shore,Offshore,Offshore,Offshore,Offshore",6
5842041f4e65fad6a77089a9,2024_02_18,35.61269103500222,-121.1480725356606,San Simeon,2,2.2096666666666667,2.6390000000000002,14,14,"RAIN,RAIN,NIGHT_BRIEF_SHOWERS,NIGHT_BRIEF_SHOWERS,NIGHT_MOSTLY_CLOUDY,BRIEF_SHOWERS","Onshore,Onshore,Onshore,Cross-shore,Cross-shore,Cross-shore",6
5842041f4e65fad6a77089ab,2024_02_18,35.1775325966252,-120.7341125142258,Avila Beach,2.3333333333333335,0.8416666666666667,1.1033333333333335,14,14,"RAIN,DRIZZLE,NIGHT_FOG,NIGHT_RAIN_AND_FOG,NIGHT_CLEAR,MOSTLY_CLEAR","Onshore,Onshore,Cross-shore,Cross-shore,Cross-shore,Cross-shore",6
5842041f4e65fad6a77089ac,2024_02_18,35.13877877884115,-120.64535,Pismo Beach Pier,2.7216666666666667,2.1967333333333334,2.6907944444444443,14,14,"RAIN,OVERCAST,NIGHT_OVERCAST,NIGHT_MIST,NIGHT_MOSTLY_CLEAR,CLEAR","Cross-shore,Cross-shore,Cross-shore,Cross-shore,Cross-shore,Cross-shore",6
5842041f4e65fad6a77089ad,2024_02_18,46.8907710233147,-124.12964,Westport/Olympic Peninsula,3,2.841666666666667,3.3983333333333334,10,10,"DRIZZLE,LIGHT_SHOWERS_POSSIBLE,NIGHT_OVERCAST,NIGHT_CLEAR,NIGHT_DRIZZLE,NIGHT_OVERCAST","Offshore,Offshore,Offshore,Offshore,Offshore,Offshore",6
5842041f4e65fad6a77089ae,2024_02_18,46.35185177248545,-124.06747,Long Beach Peninsula,3,3.381666666666667,4.025,10,10,"LIGHT_RAIN,LIGHT_RAIN,NIGHT_OVERCAST,NIGHT_DRIZZLE,NIGHT_DRIZZLE,NIGHT_CLOUDY","Offshore,Offshore,Offshore,Offshore,Offshore,Offshore",6
5842041f4e65fad6a77089af,2024_02_18,47.90649175554033,-124.6370864743483,La Push,3,3.0233333333333334,3.6133333333333333,10,10,"DRIZZLE,LIGHT_RAIN,NIGHT_CLOUDY,NIGHT_MOSTLY_CLOUDY,NIGHT_CLOUDY,NIGHT_CLOUDY","Offshore,Offshore,Offshore,Offshore,Offshore,Offshore",6
5842041f4e65fad6a77089b0,2024_02_18,42.04368239985442,-124.26828,Brookings Jetty,1.6666666666666667,2.339226666666667,3.655045,11.333333333333334,11.333333333333334,"LIGHT_RAIN,OVERCAST,NIGHT_CLOUDY,NIGHT_LIGHT_RAIN,NIGHT_BRIEF_SHOWERS,NIGHT_CLEAR","Onshore,Onshore,Onshore,Onshore,Onshore,Onshore",6
5842041f4e65fad6a77089b1,2024_02_18,42.74071837900346,-124.4983727491047,Port Orford,1,3.3266666666666667,3.9766666666666666,11,11,"LIGHT_RAIN,DRIZZLE,NIGHT_SHOWERS,NIGHT_MIST,NIGHT_CLOUDY,NIGHT_MOSTLY_CLOUDY","Onshore,Onshore,Onshore,Onshore,Onshore,Onshore",6
5842041f4e65fad6a77089b2,2024_02_18,44.01532689312291,-124.13865,Florence South Jetty,2.3333333333333335,3.841666666666667,4.595,11,11,"LIGHT_RAIN,LIGHT_RAIN,NIGHT_CLEAR,NIGHT_LIGHT_RAIN,NIGHT_MOSTLY_CLOUDY,NIGHT_CLOUDY","Offshore,Offshore,Cross-shore,Cross-shore,Onshore,Cross-shore",6
5842041f4e65fad6a77089b3,2024_02_18,42.41812540774362,-124.42945,Gold Beach South Jetty,0.5,4.42,5.28,11.333333333333334,11.333333333333334,"LIGHT_SHOWERS_POSSIBLE,LIGHT_SHOWERS_POSSIBLE,NIGHT_OVERCAST,NIGHT_MIST,NIGHT_CLEAR,NIGHT_MOSTLY_CLOUDY","Onshore,Onshore,Onshore,Onshore,Onshore,Onshore",6
5842041f4e65fad6a77089b4,2024_02_18,44.95857310226525,-124.0219017690976,Lincoln City,2.6666666666666665,3.3466666666666667,3.9983333333333335,11,11,"LIGHT_SHOWERS_POSSIBLE,LIGHT_SHOWERS_POSSIBLE,NIGHT_DRIZZLE,NIGHT_CLOUDY,NIGHT_MIST,NIGHT_MIST","Offshore,Offshore,Offshore,Offshore,Cross-shore,Onshore",6
5842041f4e65fad6a77089b5,2024_02_18,44.63792761362982,-124.0657,Newport,2.6666666666666665,3.8716666666666666,4.628333333333334,11,11,"LIGHT_RAIN,LIGHT_RAIN,NIGHT_OVERCAST,NIGHT_OVERCAST,NIGHT_MIST,NIGHT_MIST","Offshore,Offshore,Cross-shore,Offshore,Onshore,Onshore",6
5842041f4e65fad6a77089b6,2024_02_18,45.61468496266301,-123.94643,Rockaway Beach,3,3.495,4.176666666666667,10.666666666666666,10.666666666666666,"LIGHT_RAIN,LIGHT_SHOWERS_POSSIBLE,NIGHT_LIGHT_RAIN,NIGHT_DRIZZLE,NIGHT_CLOUDY,NIGHT_MOSTLY_CLOUDY","Offshore,Offshore,Offshore,Offshore,Offshore,Cross-shore",6
5842041f4e65fad6a77089b7,2024_02_18,45.20252914186085,-123.96975,Pacific City,2.8333333333333335,3.36,4.013333333333334,10.666666666666666,10.666666666666666,"LIGHT_SHOWERS_POSSIBLE,LIGHT_RAIN,NIGHT_DRIZZLE,NIGHT_DRIZZLE,NIGHT_BRIEF_SHOWERS,NIGHT_OVERCAST","Offshore,Offshore,Offshore,Offshore,Cross-shore,Cross-shore",6
5842041f4e65fad6a77089b8,2024_02_18,45.88179930310263,-123.96681,Cannon Beach,3,3.5083333333333333,4.193333333333333,10,10,"LIGHT_RAIN,LIGHT_SHOWERS_POSSIBLE,NIGHT_MOSTLY_CLOUDY,NIGHT_LIGHT_RAIN,NIGHT_MOSTLY_CLOUDY,NIGHT_BRIEF_SHOWERS","Offshore,Offshore,Offshore,Offshore,Cross-shore,Cross-shore",6
5842041f4e65fad6a77089ba,2024_02_18,40.02528754746774,-124.06372,Shelter Cove,1.5,1.5427916666666668,2.4106133333333335,12,12,"SHOWERS,BRIEF_SHOWERS,NIGHT_MIST,NIGHT_MIST,NIGHT_CLEAR,NIGHT_CLEAR","Onshore,Onshore,Onshore,Onshore,Onshore,Onshore",6
5842041f4e65fad6a77089bb,2024_02_18,40.76816197136951,-124.24248,Humboldt Harbor Entrance,2.1666666666666665,4.236666666666666,5.0633333333333335,12,12,"HEAVY_SHOWERS,HEAVY_SHOWERS,NIGHT_CLEAR,NIGHT_CLEAR,NIGHT_CLEAR,NIGHT_CLEAR","Cross-shore,Cross-shore,Cross-shore,Cross-shore,Offshore,Cross-shore",6
5842041f4e65fad6a77089bc,2024_02_18,40.76684246920174,-124.23107,North Jetty,2.5,3.8033333333333332,4.545,12,12,"HEAVY_SHOWERS,HEAVY_SHOWERS,NIGHT_CLEAR,NIGHT_CLEAR,NIGHT_CLEAR,NIGHT_CLEAR","Cross-shore,Cross-shore,Cross-shore,Cross-shore,Offshore,Offshore",6
5842041f4e65fad6a77089bd,2024_02_18,41.02731183893966,-124.1149972888982,Westhaven,1.6666666666666667,5.218333333333334,6.238333333333333,12,12,"OVERCAST,OVERCAST,NIGHT_MOSTLY_CLEAR,NIGHT_CLEAR,NIGHT_CLEAR,NIGHT_CLEAR","Cross-shore,Cross-shore,Onshore,Cross-shore,Cross-shore,Cross-shore",6
5842041f4e65fad6a77089be,2024_02_18,41.13016238153297,-124.16466,Sue-meg,2.3333333333333335,4.463333333333334,5.331666666666667,12,12,"MOSTLY_CLOUDY,DRIZZLE,NIGHT_CLEAR,NIGHT_MOSTLY_CLOUDY,NIGHT_CLEAR,NIGHT_CLEAR","Offshore,Offshore,Cross-shore,Cross-shore,Offshore,Offshore",6
5842041f4e65fad6a77089bf,2024_02_18,37.8289474958188,-122.5376795097543,Fort Cronkite/Rodeo Beach,1.6666666666666667,4.328333333333333,5.173333333333333,13,13,"OVERCAST,OVERCAST,NIGHT_MIST,NIGHT_MIST,NIGHT_MIST,MIST","Onshore,Onshore,Onshore,Onshore,Cross-shore,Cross-shore",6
5842041f4e65fad6a77089c0,2024_02_18,41.74415759876137,-124.17717,South Beach CA,1.3333333333333333,3.315,3.96,12,12,"RAIN,MOSTLY_CLOUDY,NIGHT_MOSTLY_CLOUDY,NIGHT_MOSTLY_CLOUDY,NIGHT_CLEAR,NIGHT_CLEAR","Onshore,Onshore,Onshore,Onshore,Onshore,Onshore",6
5842041f4e65fad6a77089c1,2024_02_18,37.89801283969752,-122.64519,Stinson Beach,2.5,1.345,1.6099999999999999,13,13,"MIST,BRIEF_SHOWERS,NIGHT_FOG,NIGHT_FOG,NIGHT_FOG,FOG","Onshore,Onshore,Cross-shore,Onshore,Onshore,Onshore",6
5842041f4e65fad6a77089c2,2024_02_18,37.90514516176495,-122.68151,Bolinas,3.3333333333333335,1.6122,2.519066666666667,13,13,"BRIEF_SHOWERS,BRIEF_SHOWERS,NIGHT_LIGHT_RAIN_AND_FOG,NIGHT_BRIEF_SHOWERS,NIGHT_FOG,FOG","Cross-shore,Cross-shore,Offshore,Cross-shore,Onshore,Onshore",6
5842041f4e65fad6a77089c3,2024_02_18,38.04892513158693,-122.9892494965416,Point Reyes (north),2.3333333333333335,4.245,5.071666666666666,13,13,"DRIZZLE,LIGHT_RAIN,NIGHT_MIST,NIGHT_MIST,NIGHT_MIST,CLOUDY","Offshore,Offshore,Cross-shore,Offshore,Offshore,Offshore",6
5842041f4e65fad6a77089c6,2024_02_18,38.31088736605785,-123.0496777333731,Doran Beach,2.6666666666666665,1.4816666666666667,1.77,13,13,"HEAVY_RAIN,MIST,NIGHT_FOG,NIGHT_MIST,NIGHT_BRIEF_SHOWERS,BRIEF_SHOWERS","Onshore,Onshore,Cross-shore,Onshore,Onshore,Onshore",6
5842041f4e65fad6a77089c7,2024_02_18,38.45077228660809,-123.13008,Russian Rivermouth,2,3.8666666666666667,4.621666666666667,13,13,"RAIN,DRIZZLE,NIGHT_FOG,NIGHT_FOG,NIGHT_CLEAR,CLEAR","Onshore,Onshore,Onshore,Onshore,Offshore,Offshore",6
5842041f4e65fad6a77089c8,2024_02_18,38.35329968518107,-123.06906,Salmon Creek,2,3.3166666666666664,3.966666666666667,13,13,"LIGHT_RAIN,OVERCAST,NIGHT_DRIZZLE,NIGHT_MIST,NIGHT_MOSTLY_CLOUDY,MOSTLY_CLOUDY","Cross-shore,Cross-shore,Onshore,Cross-shore,Offshore,Offshore",6
5842041f4e65fad6a77089c9,2024_02_18,38.6845180197959,-123.4322714291198,Black Point Beach,3,3.9183333333333334,4.68,13,13,"MIST,MIST,NIGHT_OVERCAST,NIGHT_OVERCAST,NIGHT_CLEAR,NIGHT_CLEAR","Offshore,Offshore,Cross-shore,Offshore,Offshore,Offshore",6
5842041f4e65fad6a77089ca,2024_02_18,43.251076,-70.59144,Ogunquit,0.44333333333333336,0,0.20338333333333333,4,3,"NIGHT_CLEAR,NIGHT_CLEAR,NIGHT_CLEAR,NIGHT_CLEAR,CLEAR,CLEAR","Offshore,Offshore,Offshore,Offshore,Cross-shore,Cross-shore",6
5842041f4e65fad6a77089cb,2024_02_18,41.362631366305415,-71.48006772942608,Point Judith,0.75,0.15693333333333334,0.41413333333333335,5,4,"NIGHT_CLEAR,NIGHT_CLEAR,NIGHT_CLEAR,NIGHT_CLEAR,CLEAR,CLEAR","Offshore,Offshore,Offshore,Offshore,Offshore,Offshore",6
5842041f4e65fad6a77089cd,2024_02_18,41.422678090954726,-71.45413,Monahan's - Narragansett,0.3333333333333333,0.04729166666666667,0.073895,5,5,"NIGHT_CLEAR,NIGHT_CLEAR,NIGHT_CLEAR,NIGHT_CLEAR,CLEAR,CLEAR","Offshore,Offshore,Offshore,Offshore,Offshore,Offshore",6
5842041f4e65fad6a77089ce,2024_02_18,41.469,-71.293,Ruggles - Newport,0.8333333333333334,0.398755,0.6230533333333333,5,5,"NIGHT_CLEAR,NIGHT_CLEAR,NIGHT_CLEAR,NIGHT_CLEAR,CLEAR,CLEAR","Offshore,Offshore,Cross-shore,Cross-shore,Onshore,Onshore",6
5842041f4e65fad6a77089cf,2024_02_18,43.175394,-70.606351,Short Sands Beach,0.16666666666666666,0,0.09,3,3,"NIGHT_CLEAR,NIGHT_CLEAR,NIGHT_CLEAR,NIGHT_CLEAR,CLEAR,CLEAR","Offshore,Offshore,Offshore,Offshore,Offshore,Offshore",6
5842041f4e65fad6a77089d0,2024_02_18,41.487408,-71.29017,First Beach,0.5,0.03833333333333334,0.2783333333333333,5,5,"NIGHT_CLEAR,NIGHT_CLEAR,NIGHT_CLEAR,NIGHT_CLEAR,CLEAR,CLEAR","Offshore,Offshore,Cross-shore,Cross-shore,Onshore,Onshore",6
5842041f4e65fad6a77089d1,2024_02_18,42.27916830233153,-70.86498,Nantasket Beach,0,0,0.09752222222222223,4,3,"NIGHT_CLEAR,NIGHT_CLEAR,NIGHT_CLEAR,NIGHT_CLEAR,CLEAR,CLEAR","Cross-shore,Cross-shore,Offshore,Offshore,Offshore,Offshore",6
5842041f4e65fad6a77089d2,2024_02_18,41.817,-69.935,Cape Cod,1.1666666666666667,0.10666666666666666,0.3933333333333333,4,4,"NIGHT_CLEAR,NIGHT_CLEAR,NIGHT_CLEAR,NIGHT_CLEAR,CLEAR,CLEAR","Offshore,Offshore,Offshore,Offshore,Offshore,Offshore",6
5842041f4e65fad6a77089d3,2024_02_18,42.22055448975661,-70.70634873403819,Egypt Beach,0,0,0.11166666666666666,4,4,"NIGHT_CLEAR,NIGHT_CLEAR,NIGHT_CLEAR,NIGHT_CLEAR,CLEAR,CLEAR","Offshore,Offshore,Offshore,Offshore,Offshore,Offshore",6
5842041f4e65fad6a77089d4,2024_02_18,41.48739647744607,-71.25723,Second Beach,0.8883333333333333,0.23410722222222224,0.45972,5,4,"NIGHT_CLEAR,NIGHT_CLEAR,NIGHT_CLEAR,NIGHT_CLEAR,CLEAR,CLEAR","Cross-shore,Cross-shore,Cross-shore,Cross-shore,Onshore,Onshore",6
5842041f4e65fad6a77089d5,2024_02_18,42.964,-70.769,Fox Hill,0.305,0,0.09753333333333333,4,3,"NIGHT_CLEAR,NIGHT_CLEAR,NIGHT_CLEAR,NIGHT_CLEAR,CLEAR,CLEAR","Offshore,Offshore,Offshore,Offshore,Cross-shore,Cross-shore",6
5842041f4e65fad6a77089d6,2024_02_18,42.991359,-70.75149,Straws Point,0.8049999999999999,0,0.20253333333333334,4,3,"NIGHT_CLEAR,NIGHT_CLEAR,NIGHT_CLEAR,NIGHT_CLEAR,CLEAR,CLEAR","Offshore,Offshore,Offshore,Offshore,Cross-shore,Cross-shore",6
5842041f4e65fad6a77089d7,2024_02_18,42.946,-70.786,Plaice Cove,0.305,0,0.09753333333333333,4,3,"NIGHT_CLEAR,NIGHT_CLEAR,NIGHT_CLEAR,NIGHT_CLEAR,CLEAR,CLEAR","Offshore,Offshore,Offshore,Offshore,Offshore,Cross-shore",6
5842041f4e65fad6a77089d9,2024_02_18,42.911574,-70.80831,The Main Beach,0,0.009023194444444441,0.16649847222222225,4,3,"NIGHT_CLEAR,NIGHT_CLEAR,NIGHT_CLEAR,NIGHT_CLEAR,CLEAR,CLEAR","Offshore,Offshore,Offshore,Offshore,Cross-shore,Onshore",6
5842041f4e65fad6a77089da,2024_02_18,42.97583846220203,-70.764,Sawyer's Beach,0.305,0,0.15267222222222224,4,3,"NIGHT_CLEAR,NIGHT_CLEAR,NIGHT_CLEAR,NIGHT_CLEAR,CLEAR,CLEAR","Offshore,Offshore,Offshore,Offshore,Cross-shore,Cross-shore",6
5842041f4e65fad6a77089db,2024_02_18,42.97,-70.77,Rye on the Rocks / 5-0's,0,0,0.15175333333333332,4,3,"NIGHT_CLEAR,NIGHT_CLEAR,NIGHT_CLEAR,NIGHT_CLEAR,CLEAR,CLEAR","Offshore,Offshore,Offshore,Offshore,Cross-shore,Cross-shore",6
5842041f4e65fad6a77089dc,2024_02_18,43.55902946610303,-70.27795,Higgins Beach,0.13333333333333333,0.045800000000000014,0.21637777777777778,4,3,"NIGHT_CLEAR,NIGHT_CLEAR,NIGHT_CLEAR,NIGHT_CLEAR,CLEAR,CLEAR","Offshore,Offshore,Offshore,Cross-shore,Cross-shore,Cross-shore",6
5842041f4e65fad6a77089dd,2024_02_18,43.302676,-70.5652,Wells Beach,0.44333333333333336,0,0.21060555555555557,4,3,"NIGHT_CLEAR,NIGHT_CLEAR,NIGHT_CLEAR,NIGHT_CLEAR,CLEAR,CLEAR","Offshore,Offshore,Offshore,Offshore,Offshore,Cross-shore",6
5842041f4e65fad6a77089de,2024_02_18,43.545359,-70.30479,Scarborough Beach State Park,0.13833333333333334,0.027620555555555558,0.17862583333333334,4,3,"NIGHT_CLEAR,NIGHT_CLEAR,NIGHT_CLEAR,NIGHT_CLEAR,CLEAR,CLEAR","Offshore,Offshore,Offshore,Offshore,Cross-shore,Cross-shore",6
5842041f4e65fad6a77089df,2024_02_18,43.514481,-70.372146,Old Orchard Beach,0,0,0.17391111111111113,4,3,"NIGHT_CLEAR,NIGHT_CLEAR,NIGHT_CLEAR,NIGHT_CLEAR,CLEAR,CLEAR","Offshore,Offshore,Offshore,Offshore,Cross-shore,Cross-shore",6
5842041f4e65fad6a77089e0,2024_02_18,43.34711,-70.48165,Gooch's Beach,0.44333333333333336,0,0.1553888888888889,4,3,"NIGHT_CLEAR,NIGHT_CLEAR,NIGHT_CLEAR,NIGHT_CLEAR,CLEAR,CLEAR","Offshore,Offshore,Cross-shore,Cross-shore,Onshore,Onshore",6
5842041f4e65fad6a77089e2,2024_02_18,40.58433,-73.62953,Lido Beach,0,0.03768333333333334,0.32615,5,4,"NIGHT_CLEAR,NIGHT_CLEAR,NIGHT_CLEAR,NIGHT_CLEAR,CLEAR,CLEAR","Onshore,Offshore,Onshore,Onshore,Cross-shore,Cross-shore",6
5842041f4e65fad6a77089e3,2024_02_18,43.163135,-70.61689,Long Sands Beach,0,-0.026869722222222222,0.13582041666666667,4,3,"NIGHT_CLEAR,NIGHT_CLEAR,NIGHT_CLEAR,NIGHT_CLEAR,CLEAR,CLEAR","Offshore,Offshore,Offshore,Offshore,Cross-shore,Cross-shore",6
5842041f4e65fad6a77089e4,2024_02_18,40.61695351251805,-73.39376,Gilgo Beach,0.3333333333333333,0.09749999999999999,0.37877777777777777,5,4,"NIGHT_CLEAR,NIGHT_CLEAR,NIGHT_CLEAR,NIGHT_CLEAR,CLEAR,CLEAR","Cross-shore,Cross-shore,Cross-shore,Cross-shore,Onshore,Onshore",6
5842041f4e65fad6a77089e5,2024_02_18,40.62530081928036,-73.23827,Robert Moses,0.5,0.135,0.425,5,5,"NIGHT_CLEAR,NIGHT_CLEAR,NIGHT_CLEAR,NIGHT_CLEAR,CLEAR,CLEAR","Offshore,Offshore,Cross-shore,Cross-shore,Onshore,Onshore",6
5842041f4e65fad6a77089e6,2024_02_18,40.64313317632791,-73.15727,Fire Island,0.6666666666666666,0.13,0.415,5,5,"NIGHT_CLEAR,NIGHT_CLEAR,NIGHT_CLEAR,NIGHT_CLEAR,CLEAR,CLEAR","Offshore,Offshore,Cross-shore,Cross-shore,Onshore,Cross-shore",6
5842041f4e65fad6a77089e8,2024_02_18,40.76653118828782,-72.74579619372713,Cupsogue,0.6666666666666666,0.30666666666666664,0.605,5,5,"NIGHT_CLEAR,NIGHT_CLEAR,NIGHT_CLEAR,NIGHT_CLEAR,CLEAR,CLEAR","Offshore,Offshore,Cross-shore,Cross-shore,Onshore,Onshore",6
5842041f4e65fad6a77089e9,2024_02_18,42.9376373334092,-70.79141,The Wall ,0,0.012803194444444445,0.17240458333333333,4,3,"NIGHT_CLEAR,NIGHT_CLEAR,NIGHT_CLEAR,NIGHT_CLEAR,CLEAR,CLEAR","Offshore,Offshore,Offshore,Offshore,Offshore,Offshore",6
5842041f4e65fad6a77089ea,2024_02_18,40.887088,-72.33856,Flys,0.6666666666666666,0.235,0.53,5.666666666666667,5.666666666666667,"NIGHT_CLEAR,NIGHT_CLEAR,NIGHT_CLEAR,NIGHT_CLEAR,CLEAR,CLEAR","Offshore,Offshore,Cross-shore,Cross-shore,Onshore,Onshore",6
5842041f4e65fad6a77089eb,2024_02_18,41.0389266436591,-71.91068529316958,Trailer Park,0.6666666666666666,0.28852833333333333,0.6341259722222222,5,4,"NIGHT_CLEAR,NIGHT_CLEAR,NIGHT_CLEAR,NIGHT_CLEAR,CLEAR,CLEAR","Offshore,Offshore,Cross-shore,Cross-shore,Onshore,Onshore",6
5842041f4e65fad6a77089ec,2024_02_18,41.039505402729105,-71.9142,Ditch Plains,0.6666666666666666,0.275385,0.4302916666666667,5,5,"NIGHT_CLEAR,NIGHT_CLEAR,NIGHT_CLEAR,NIGHT_CLEAR,CLEAR,CLEAR","Offshore,Offshore,Offshore,Offshore,Cross-shore,Cross-shore",6
5842041f4e65fad6a77089ee,2024_02_18,40.57633275206492,-73.56895305108567,"West End, Jones Beach",0.4716666666666667,0.10541666666666666,0.42212777777777777,5,4,"NIGHT_CLEAR,NIGHT_CLEAR,NIGHT_CLEAR,NIGHT_CLEAR,CLEAR,CLEAR","Cross-shore,Cross-shore,Cross-shore,Cross-shore,Onshore,Onshore",6
5842041f4e65fad6a77089f1,2024_02_18,41.038286691230795,-71.91991567611694,Poles,0.6666666666666666,0.28786666666666666,0.627572361111111,5,4,"NIGHT_CLEAR,NIGHT_CLEAR,NIGHT_CLEAR,NIGHT_CLEAR,CLEAR,CLEAR","Offshore,Offshore,Cross-shore,Cross-shore,Onshore,Onshore",6
5842041f4e65fad6a77089f3,2024_02_18,40.84077769766295,-72.47989493724765,The Bowl,0.6666666666666666,0.275,0.5683333333333334,5,5,"NIGHT_CLEAR,NIGHT_CLEAR,NIGHT_CLEAR,NIGHT_CLEAR,CLEAR,CLEAR","Offshore,Offshore,Cross-shore,Cross-shore,Onshore,Onshore",6
5842041f4e65fad6a77089f4,2024_02_18,40.94235535243154,-72.19286,Main Beach,0.6116666666666667,0.3774166666666667,0.6684333333333333,13,12,"NIGHT_CLEAR,NIGHT_CLEAR,NIGHT_CLEAR,NIGHT_CLEAR,CLEAR,CLEAR","Offshore,Cross-shore,Cross-shore,Cross-shore,Onshore,Onshore",6
5842041f4e65fad6a77089f5,2024_02_18,40.58270702399518,-73.67251552079799,Laurelton Blvd.,0,0.03938666666666668,0.25619625,5,4,"NIGHT_CLEAR,NIGHT_CLEAR,NIGHT_CLEAR,NIGHT_CLEAR,CLEAR,CLEAR","Onshore,Offshore,Onshore,Onshore,Cross-shore,Cross-shore",6
5842041f4e65fad6a77089f6,2024_02_18,41.033752854071416,-71.93695522488403,Terrace,0.6666666666666666,0.33245,0.6604666666666666,5,4,"NIGHT_CLEAR,NIGHT_CLEAR,NIGHT_CLEAR,NIGHT_CLEAR,CLEAR,CLEAR","Offshore,Offshore,Cross-shore,Cross-shore,Onshore,Onshore",6
5842041f4e65fad6a77089f7,2024_02_18,40.83372943645748,-72.50426173210144,K Road,1,0.3466666666666667,0.6483333333333333,5,5,"NIGHT_CLEAR,NIGHT_CLEAR,NIGHT_CLEAR,NIGHT_CLEAR,CLEAR,CLEAR","Offshore,Offshore,Cross-shore,Cross-shore,Onshore,Onshore",6
5842041f4e65fad6a77089f8,2024_02_18,40.58456099581507,-73.80730032920837,84th Street,0,0.018611111111111113,0.24642222222222224,5,4,"NIGHT_CLEAR,NIGHT_CLEAR,NIGHT_CLEAR,NIGHT_CLEAR,CLEAR,CLEAR","Cross-shore,Offshore,Cross-shore,Cross-shore,Onshore,Onshore",6
5842041f4e65fad6a77089fa,2024_02_18,40.1319,-74.02788,Sea Girt,0.7216666666666667,0,0.28379444444444446,6,5,"NIGHT_CLEAR,NIGHT_CLEAR,NIGHT_CLEAR,NIGHT_CLEAR,CLEAR,CLEAR","Offshore,Offshore,Offshore,Offshore,Offshore,Offshore",6
5842041f4e65fad6a77089fb,2024_02_18,40.54698301868125,-73.9268,Breezy Point,0.6666666666666666,0,0.265,5,5,"NIGHT_CLEAR,NIGHT_CLEAR,NIGHT_CLEAR,NIGHT_CLEAR,CLEAR,CLEAR","Cross-shore,Offshore,Cross-shore,Cross-shore,Onshore,Onshore",6
5842041f4e65fad6a77089fc,2024_02_18,40.152504,-74.021383,Spring Lake,0.7216666666666667,0,0.2819888888888889,6,5,"NIGHT_CLEAR,NIGHT_CLEAR,NIGHT_CLEAR,NIGHT_CLEAR,CLEAR,CLEAR","Offshore,Offshore,Offshore,Offshore,Offshore,Offshore",6
5842041f4e65fad6a77089fd,2024_02_18,40.591277,-73.770792,30th - 39th Streets,0.6383333333333333,0,0.28532222222222225,5,4,"NIGHT_CLEAR,NIGHT_CLEAR,NIGHT_CLEAR,NIGHT_CLEAR,CLEAR,CLEAR","Cross-shore,Cross-shore,Cross-shore,Cross-shore,Onshore,Onshore",6
5842041f4e65fad6a77089fe,2024_02_18,40.18834955871439,-74.00860982500222,Avon,0.7216666666666667,0,0.27490555555555557,6,5,"NIGHT_CLEAR,NIGHT_CLEAR,NIGHT_CLEAR,NIGHT_CLEAR,CLEAR,CLEAR","Offshore,Offshore,Offshore,Offshore,Offshore,Offshore",6
5842041f4e65fad6a77089ff,2024_02_18,40.1974229100932,-74.00650533798255,Bradley Beach,0.7216666666666667,0,0.2824055555555556,6,5,"NIGHT_CLEAR,NIGHT_CLEAR,NIGHT_CLEAR,NIGHT_CLEAR,CLEAR,CLEAR","Offshore,Offshore,Offshore,Offshore,Offshore,Offshore",6
5842041f4e65fad6a7708a01,2024_02_18,40.17202,-74.01503,"16th Ave., Belmar",0,-8.333333333333334e-4,0.2838833333333333,6,5,"NIGHT_CLEAR,NIGHT_CLEAR,NIGHT_CLEAR,NIGHT_CLEAR,CLEAR,CLEAR","Offshore,Offshore,Offshore,Offshore,Offshore,Offshore",6
5842041f4e65fad6a7708a02,2024_02_18,40.217443,-73.99982,Asbury Park,0.7216666666666667,0,0.2924055555555556,6,5,"NIGHT_CLEAR,NIGHT_CLEAR,NIGHT_CLEAR,NIGHT_CLEAR,CLEAR,CLEAR","Offshore,Offshore,Offshore,Offshore,Offshore,Offshore",6
5842041f4e65fad6a7708a03,2024_02_18,40.229841,-73.996782,Loch Arbour and Deal,0.7216666666666667,0,0.2857388888888889,6,5,"NIGHT_CLEAR,NIGHT_CLEAR,NIGHT_CLEAR,NIGHT_CLEAR,CLEAR,CLEAR","Offshore,Offshore,Offshore,Offshore,Offshore,Offshore",6
5842041f4e65fad6a7708a05,2024_02_18,40.41754,-73.97935,Sandy Hook,0.16666666666666666,0,0.13166666666666668,5,5,"NIGHT_CLEAR,NIGHT_CLEAR,NIGHT_CLEAR,NIGHT_CLEAR,CLEAR,CLEAR","Offshore,Offshore,Offshore,Offshore,Offshore,Offshore",6
5842041f4e65fad6a7708a06,2024_02_18,39.36353,-74.40873,Crystals,0.6383333333333333,0.1509698611111111,0.37982499999999997,6,5,"NIGHT_CLEAR,NIGHT_CLEAR,NIGHT_CLEAR,NIGHT_CLEAR,CLEAR,CLEAR","Offshore,Offshore,Offshore,Offshore,Cross-shore,Cross-shore",6
5842041f4e65fad6a7708a07,2024_02_18,39.31443,-74.51863,32nd Street,0,-0.006864861111111116,0.2517377777777778,6,5,"NIGHT_CLEAR,NIGHT_CLEAR,NIGHT_CLEAR,NIGHT_CLEAR,CLEAR,CLEAR","Offshore,Offshore,Offshore,Offshore,Cross-shore,Cross-shore",6
5842041f4e65fad6a7708a08,2024_02_18,39.327688,-74.49524,Margate Pier Northside,0,-0.006864861111111116,0.2517377777777778,6,5,"NIGHT_CLEAR,NIGHT_CLEAR,NIGHT_CLEAR,NIGHT_CLEAR,CLEAR,CLEAR","Offshore,Offshore,Offshore,Offshore,Cross-shore,Cross-shore",6
5842041f4e65fad6a7708a09,2024_02_18,39.336276,-74.47782,Ventnor Pier,0.6383333333333333,0.1321686111111111,0.35044569444444446,6,5,"NIGHT_CLEAR,NIGHT_CLEAR,NIGHT_CLEAR,NIGHT_CLEAR,CLEAR,CLEAR","Offshore,Offshore,Offshore,Offshore,Cross-shore,Cross-shore",6
5842041f4e65fad6a7708a0a,2024_02_18,39.35929751441085,-74.41683,States Avenue,0.6383333333333333,0.1509698611111111,0.37982499999999997,6,5,"NIGHT_CLEAR,NIGHT_CLEAR,NIGHT_CLEAR,NIGHT_CLEAR,CLEAR,CLEAR","Offshore,Offshore,Offshore,Offshore,Cross-shore,Cross-shore",6
5842041f4e65fad6a7708a0b,2024_02_18,39.37274173278517,-74.40454,Brigantine Jetty,0.6383333333333333,0.16418222222222223,0.4004679166666667,6,5,"NIGHT_CLEAR,NIGHT_CLEAR,NIGHT_CLEAR,NIGHT_CLEAR,CLEAR,CLEAR","Offshore,Offshore,Cross-shore,Offshore,Cross-shore,Cross-shore",6
5842041f4e65fad6a7708a0c,2024_02_18,39.356505,-74.42263,South Carolina Avenue,0.6383333333333333,0.16415222222222223,0.40042125,6,5,"NIGHT_CLEAR,NIGHT_CLEAR,NIGHT_CLEAR,NIGHT_CLEAR,CLEAR,CLEAR","Offshore,Offshore,Offshore,Cross-shore,Cross-shore,Cross-shore",6
5842041f4e65fad6a7708a0d,2024_02_18,39.413485,-74.35476,14th Street North,0.305,-0.007222222222222223,0.22004444444444443,6,5,"NIGHT_CLEAR,NIGHT_CLEAR,NIGHT_CLEAR,NIGHT_CLEAR,CLEAR,CLEAR","Offshore,Offshore,Offshore,Offshore,Cross-shore,Cross-shore",6
5842041f4e65fad6a7708a0e,2024_02_18,39.531319,-74.263252,The Wooden Jetty,0.305,0.0012133333333333347,0.28254875,6,5,"NIGHT_CLEAR,NIGHT_CLEAR,NIGHT_CLEAR,NIGHT_CLEAR,CLEAR,CLEAR","Offshore,Offshore,Offshore,Offshore,Cross-shore,Cross-shore",6
5842041f4e65fad6a7708a0f,2024_02_18,39.552472,-74.24344,Holyoke,0.305,0.00133319444444444,0.2751326388888889,6,5,"NIGHT_CLEAR,NIGHT_CLEAR,NIGHT_CLEAR,NIGHT_CLEAR,CLEAR,CLEAR","Offshore,Offshore,Offshore,Offshore,Cross-shore,Cross-shore",6
5842041f4e65fad6a7708a10,2024_02_18,39.692364,-74.14068,Hudson Ave.,0.305,-0.0033333333333333335,0.2844388888888889,6,5,"NIGHT_CLEAR,NIGHT_CLEAR,NIGHT_CLEAR,NIGHT_CLEAR,CLEAR,CLEAR","Offshore,Offshore,Offshore,Offshore,Cross-shore,Cross-shore",6
5842041f4e65fad6a7708a11,2024_02_18,39.79614,-74.09248,Island Beach State Park,0.6383333333333333,0,0.2924055555555556,6,5,"NIGHT_CLEAR,NIGHT_CLEAR,NIGHT_CLEAR,NIGHT_CLEAR,CLEAR,CLEAR","Offshore,Offshore,Offshore,Offshore,Offshore,Offshore",6
5842041f4e65fad6a7708a12,2024_02_18,39.91813588078152,-74.07527,Seaside Park,0.6383333333333333,0,0.2696277777777778,6,5,"NIGHT_CLEAR,NIGHT_CLEAR,NIGHT_CLEAR,NIGHT_CLEAR,CLEAR,CLEAR","Offshore,Offshore,Offshore,Offshore,Offshore,Offshore",6
5842041f4e65fad6a7708a14,2024_02_18,39.946638,-74.06884,Seaside Heights,0.6383333333333333,0,0.2682388888888889,6,5,"NIGHT_CLEAR,NIGHT_CLEAR,NIGHT_CLEAR,NIGHT_CLEAR,CLEAR,CLEAR","Offshore,Offshore,Offshore,Offshore,Offshore,Offshore",6
5842041f4e65fad6a7708a15,2024_02_18,39.95745637606704,-74.06736,Ortley Beach,0.7216666666666667,0,0.2646277777777778,6,5,"NIGHT_CLEAR,NIGHT_CLEAR,NIGHT_CLEAR,NIGHT_CLEAR,CLEAR,CLEAR","Offshore,Offshore,Offshore,Offshore,Offshore,Offshore",6
5842041f4e65fad6a7708a16,2024_02_18,39.98313468342945,-74.06265685577506,Lavallette,0.6383333333333333,0,0.2783777777777778,6,5,"NIGHT_CLEAR,NIGHT_CLEAR,NIGHT_CLEAR,NIGHT_CLEAR,CLEAR,CLEAR","Offshore,Offshore,Offshore,Offshore,Offshore,Offshore",6
5842041f4e65fad6a7708a17,2024_02_18,40.0699319967757,-74.04144910856634,Bay Head,0.6383333333333333,0,0.2783777777777778,6,5,"NIGHT_CLEAR,NIGHT_CLEAR,NIGHT_CLEAR,NIGHT_CLEAR,CLEAR,CLEAR","Offshore,Offshore,Offshore,Offshore,Offshore,Offshore",6
5842041f4e65fad6a7708a18,2024_02_18,40.094041,-74.034859,Jenkinson's,0.7216666666666667,0,0.28379444444444446,6,5,"NIGHT_CLEAR,NIGHT_CLEAR,NIGHT_CLEAR,NIGHT_CLEAR,CLEAR,CLEAR","Offshore,Offshore,Offshore,Offshore,Cross-shore,Offshore",6
5842041f4e65fad6a7708a1a,2024_02_18,38.148058,-75.17704,Assateague,0.6383333333333333,-0.019999999999999993,0.25879444444444444,6,5,"NIGHT_CLEAR,NIGHT_CLEAR,NIGHT_CLEAR,NIGHT_CLEAR,CLEAR,CLEAR","Offshore,Offshore,Offshore,Offshore,Cross-shore,Cross-shore",6
5842041f4e65fad6a7708a1b,2024_02_18,38.33889038664497,-75.08017670566352,North End to Ocean City Inlet,0.7216666666666667,-0.01499999999999999,0.2671277777777778,6,5,"NIGHT_CLEAR,NIGHT_CLEAR,NIGHT_CLEAR,NIGHT_CLEAR,CLEAR,CLEAR","Offshore,Offshore,Offshore,Offshore,Offshore,Offshore",6
5842041f4e65fad6a7708a1c,2024_02_18,38.603993,-75.06271,Indian River Inlet,0.16666666666666666,0.05898041666666666,0.2360904166666667,6,5,"NIGHT_CLEAR,NIGHT_CLEAR,NIGHT_CLEAR,NIGHT_CLEAR,CLEAR,CLEAR","Offshore,Offshore,Offshore,Offshore,Offshore,Offshore",6
5842041f4e65fad6a7708a1d,2024_02_18,38.460477,-75.052069,Fenwick Island,0.7216666666666667,-0.019861111111111114,0.23615555555555556,6,5,"NIGHT_CLEAR,NIGHT_CLEAR,NIGHT_CLEAR,NIGHT_CLEAR,CLEAR,CLEAR","Offshore,Offshore,Offshore,Offshore,Offshore,Offshore",6
5842041f4e65fad6a7708a1e,2024_02_18,38.538767,-75.05619,Bethany Beach,0.6383333333333333,0.05290583333333333,0.2266013888888889,6,5,"NIGHT_CLEAR,NIGHT_CLEAR,NIGHT_CLEAR,NIGHT_CLEAR,CLEAR,CLEAR","Offshore,Offshore,Offshore,Offshore,Offshore,Offshore",6
5842041f4e65fad6a7708a1f,2024_02_18,38.697657,-75.075951,Dewey Beach,0.555,-0.02708333333333333,0.20976666666666666,6,5,"NIGHT_CLEAR,NIGHT_CLEAR,NIGHT_CLEAR,NIGHT_CLEAR,CLEAR,CLEAR","Offshore,Offshore,Offshore,Offshore,Offshore,Offshore",6
5842041f4e65fad6a7708a20,2024_02_18,38.75034741676525,-75.08194,Gordons Pond,0.3883333333333333,0.04957111111111112,0.2213923611111111,6,5,"NIGHT_CLEAR,NIGHT_CLEAR,NIGHT_CLEAR,NIGHT_CLEAR,CLEAR,CLEAR","Offshore,Offshore,Offshore,Offshore,Offshore,Offshore",6
5842041f4e65fad6a7708a21,2024_02_18,38.767837,-75.082841,Naval Jetties,0.7216666666666667,-0.014444444444444446,0.2328222222222222,6,5,"NIGHT_CLEAR,NIGHT_CLEAR,NIGHT_CLEAR,NIGHT_CLEAR,CLEAR,CLEAR","Offshore,Offshore,Offshore,Offshore,Offshore,Offshore",6
5842041f4e65fad6a7708a22,2024_02_18,36.81735875786576,-75.96624,Camp Pendleton,0.16666666666666666,0.12922777777777777,0.43222222222222223,7,6,"NIGHT_CLEAR,NIGHT_CLEAR,NIGHT_CLEAR,NIGHT_CLEAR,CLEAR,CLEAR","Offshore,Offshore,Offshore,Offshore,Offshore,Offshore",6
5842041f4e65fad6a7708a23,2024_02_18,36.9102212316428,-75.98732471466064,North End,0.16666666666666666,0.11103333333333333,0.4290277777777778,7,6,"NIGHT_CLEAR,NIGHT_CLEAR,NIGHT_CLEAR,NIGHT_CLEAR,CLEAR,CLEAR","Offshore,Offshore,Offshore,Offshore,Offshore,Offshore",6
5842041f4e65fad6a7708a24,2024_02_18,36.737117517621314,-75.93923719853362,Sandbridge Beach,0.7216666666666667,0.0975,0.3956,7,6,"NIGHT_CLEAR,NIGHT_CLEAR,NIGHT_CLEAR,NIGHT_CLEAR,CLEAR,CLEAR","Offshore,Offshore,Offshore,Offshore,Offshore,Offshore",6
5842041f4e65fad6a7708a26,2024_02_18,36.818257440557794,-75.96666,Croatan to Pendleton,0.16666666666666666,0.12728333333333336,0.4326388888888889,7,6,"NIGHT_CLEAR,NIGHT_CLEAR,NIGHT_CLEAR,NIGHT_CLEAR,CLEAR,CLEAR","Offshore,Offshore,Offshore,Offshore,Offshore,Offshore",6
5842041f4e65fad6a7708a27,2024_02_18,36.84318777204769,-75.9719,South End,0.7216666666666667,0.06597222222222221,0.35907222222222224,7,6,"NIGHT_CLEAR,NIGHT_CLEAR,NIGHT_CLEAR,NIGHT_CLEAR,CLEAR,CLEAR","Offshore,Offshore,Offshore,Offshore,Offshore,Offshore",6
5842041f4e65fad6a7708a28,2024_02_18,37.08612627584661,-75.976121638199,Fishermans Island,0,0,0.04733333333333333,7,7,"NIGHT_CLEAR,NIGHT_CLEAR,NIGHT_CLEAR,NIGHT_CLEAR,CLEAR,CLEAR","Offshore,Offshore,Offshore,Offshore,Cross-shore,Cross-shore",6
5842041f4e65fad6a7708a38,2024_02_18,35.254619418229026,-75.52074,Cape Hatteras Lighthouse,2.1666666666666665,0.7408233333333334,1.1374304166666667,11,9,"NIGHT_CLEAR,NIGHT_CLEAR,NIGHT_CLEAR,NIGHT_CLEAR,CLEAR,CLEAR","Cross-shore,Cross-shore,Cross-shore,Cross-shore,Onshore,Onshore",6
5842041f4e65fad6a7708a3a,2024_02_18,35.54572934093336,-75.46477,Waves and Salvo,1,0.4615722222222223,0.7657777777777778,9,8,"NIGHT_CLEAR,NIGHT_CLEAR,NIGHT_CLEAR,NIGHT_CLEAR,CLEAR,CLEAR","Cross-shore,Cross-shore,Cross-shore,Cross-shore,Onshore,Onshore",6
5842041f4e65fad6a7708a3b,2024_02_18,35.22565892751075,-75.63606,Frisco,1.6666666666666667,0.31843333333333335,0.5935,12,11,"NIGHT_CLEAR,NIGHT_CLEAR,NIGHT_CLEAR,NIGHT_CLEAR,CLEAR,CLEAR","Offshore,Offshore,Offshore,Offshore,Cross-shore,Onshore",6
5842041f4e65fad6a7708a3c,2024_02_18,35.13086,-75.90591,Ocracoke,0.3333333333333333,0.22577,0.352765,9,9,"NIGHT_CLEAR,NIGHT_CLEAR,NIGHT_CLEAR,NIGHT_CLEAR,CLEAR,CLEAR","Offshore,Offshore,Cross-shore,Offshore,Onshore,Onshore",6
5842041f4e65fad6a7708a3d,2024_02_18,35.34721340158342,-75.50084,Avon Pier,1.6116666666666666,0.73355,1.0808222222222221,9,8,"NIGHT_CLEAR,NIGHT_CLEAR,NIGHT_CLEAR,NIGHT_CLEAR,CLEAR,CLEAR","Cross-shore,Cross-shore,Cross-shore,Cross-shore,Onshore,Onshore",6
5842041f4e65fad6a7708a3f,2024_02_18,35.71680821253768,-75.49243,Pea Island,1.3333333333333333,0.485,0.7916666666666666,7.666666666666667,7.666666666666667,"NIGHT_CLEAR,NIGHT_CLEAR,NIGHT_CLEAR,NIGHT_CLEAR,CLEAR,CLEAR","Cross-shore,Cross-shore,Onshore,Cross-shore,Offshore,Offshore",6
5842041f4e65fad6a7708a40,2024_02_18,35.97427620657821,-75.62984,Nags Head Pier,1.6666666666666667,0.7457722222222223,1.19645,8,6,"NIGHT_CLEAR,NIGHT_CLEAR,NIGHT_CLEAR,NIGHT_CLEAR,CLEAR,CLEAR","Onshore,Onshore,Onshore,Onshore,Offshore,Offshore",6
5842041f4e65fad6a7708a41,2024_02_18,36.0439998039079,-75.67288,Avalon Pier,1.5,0.6835833333333333,1.0348055555555555,7,6,"NIGHT_CLEAR,NIGHT_CLEAR,NIGHT_CLEAR,NIGHT_CLEAR,CLEAR,CLEAR","Cross-shore,Cross-shore,Cross-shore,Cross-shore,Offshore,Offshore",6
5842041f4e65fad6a7708a42,2024_02_18,36.03043116489792,-75.66413,First Street,1.7216666666666667,0.8293277777777778,1.2943,7,6,"NIGHT_CLEAR,NIGHT_CLEAR,NIGHT_CLEAR,NIGHT_CLEAR,CLEAR,CLEAR","Cross-shore,Cross-shore,Onshore,Cross-shore,Offshore,Offshore",6
5842041f4e65fad6a7708a43,2024_02_18,36.06829910590498,-75.6899,Old Station/Laundromats,1.8333333333333333,0.6521611111111112,1.0324277777777777,7,6,"NIGHT_CLEAR,NIGHT_CLEAR,NIGHT_CLEAR,NIGHT_CLEAR,CLEAR,CLEAR","Cross-shore,Cross-shore,Cross-shore,Cross-shore,Offshore,Offshore",6
5842041f4e65fad6a7708a44,2024_02_18,36.10126676607491,-75.71107462163894,Kitty Hawk Pier,1.75,0.7439666666666667,1.1961722222222222,7,6,"NIGHT_CLEAR,NIGHT_CLEAR,NIGHT_CLEAR,NIGHT_CLEAR,CLEAR,CLEAR","Cross-shore,Cross-shore,Cross-shore,Cross-shore,Offshore,Offshore",6
5842041f4e65fad6a7708a45,2024_02_18,36.18220630068973,-75.75013580649097,Duck Pier,0.9716666666666667,0.2532333333333333,0.6333611111111112,7,6,"NIGHT_CLEAR,NIGHT_CLEAR,NIGHT_CLEAR,NIGHT_CLEAR,CLEAR,CLEAR","Cross-shore,Cross-shore,Cross-shore,Cross-shore,Offshore,Offshore",6
5842041f4e65fad6a7708a46,2024_02_18,36.37660668125033,-75.82409701687456,Corolla,0.9716666666666667,0.3225388888888889,0.7029444444444444,7,6,"NIGHT_CLEAR,NIGHT_CLEAR,NIGHT_CLEAR,NIGHT_CLEAR,CLEAR,CLEAR","Cross-shore,Cross-shore,Cross-shore,Cross-shore,Offshore,Offshore",6
5842041f4e65fad6a7708a47,2024_02_18,33.90373404124834,-78.08241431707907,Oak Island,1,0.016666666666666666,0.2633333333333333,12.333333333333334,12.333333333333334,"NIGHT_CLEAR,NIGHT_CLEAR,NIGHT_CLEAR,NIGHT_CLEAR,CLEAR,CLEAR","Offshore,Offshore,Offshore,Offshore,Offshore,Offshore",6
5842041f4e65fad6a7708a48,2024_02_18,33.91108837766468,-78.29653,South Brunswick Beaches,1,0.17404333333333333,0.2719416666666667,12,12,"NIGHT_CLEAR,NIGHT_CLEAR,NIGHT_CLEAR,NIGHT_CLEAR,CLEAR,CLOUDY","Offshore,Offshore,Offshore,Offshore,Offshore,Offshore",6
5842041f4e65fad6a7708a49,2024_02_18,34.05683595651973,-77.88128,Carolina Beach Pier,0.3333333333333333,0.025,0.3164277777777778,13,12,"NIGHT_CLEAR,NIGHT_CLOUDY,NIGHT_CLEAR,NIGHT_CLEAR,CLEAR,CLEAR","Offshore,Offshore,Cross-shore,Cross-shore,Cross-shore,Cross-shore",6
5842041f4e65fad6a7708a4a,2024_02_18,33.96841191816696,-77.9180242565498,Fort Fisher,0.3333333333333333,0.027083333333333327,0.33115,13,12,"NIGHT_CLOUDY,NIGHT_OVERCAST,NIGHT_CLEAR,NIGHT_CLEAR,CLEAR,CLOUDY","Offshore,Offshore,Cross-shore,Cross-shore,Cross-shore,Cross-shore",6
5842041f4e65fad6a7708a4b,2024_02_18,34.46776662988774,-77.47083191635772,Topsail Beach,0.305,0.04071666666666667,0.3253388888888889,12,11,"NIGHT_CLEAR,NIGHT_CLEAR,NIGHT_CLEAR,NIGHT_CLEAR,CLOUDY,CLEAR","Offshore,Offshore,Offshore,Offshore,Offshore,Offshore",6
5842041f4e65fad6a7708a4c,2024_02_18,34.69270354752445,-76.82854854446575,Iron Steamer,0.9716666666666667,0.09339444444444445,0.35575555555555555,12,11,"NIGHT_CLEAR,NIGHT_CLEAR,NIGHT_CLEAR,NIGHT_CLEAR,CLEAR,CLEAR","Offshore,Offshore,Offshore,Offshore,Offshore,Offshore",6
5842041f4e65fad6a7708a4f,2024_02_18,30.85132684893727,-81.42283496231143,Cumberland Island,1.3333333333333333,0.28,0.56,14,14,"LIGHT_RAIN,NIGHT_DRIZZLE,NIGHT_BRIEF_SHOWERS_POSSIBLE,NIGHT_CLOUDY,LIGHT_RAIN,LIGHT_RAIN","Offshore,Cross-shore,Offshore,Offshore,Offshore,Offshore",6
5842041f4e65fad6a7708a50,2024_02_18,34.686741128540874,-76.47516712138378,Cape Lookout National Seashore,1.1666666666666667,0.17333333333333334,0.47833333333333333,10.333333333333334,10.333333333333334,"NIGHT_CLEAR,NIGHT_CLEAR,NIGHT_CLOUDY,NIGHT_CLEAR,CLEAR,CLEAR","Offshore,Offshore,Cross-shore,Cross-shore,Onshore,Onshore",6
5842041f4e65fad6a7708a51,2024_02_18,31.10585419260024,-81.40422767604812,Jekyll Island,0.6666666666666666,0.23333333333333334,0.475,14,14,"LIGHT_SHOWERS_POSSIBLE,NIGHT_LIGHT_RAIN,NIGHT_CLOUDY,NIGHT_CLEAR,LIGHT_RAIN,LIGHT_RAIN","Offshore,Offshore,Cross-shore,Cross-shore,Cross-shore,Cross-shore",6
5842041f4e65fad6a7708a52,2024_02_18,31.16212806376699,-81.32512426500224,Harbor Marker Buoys,1,0.2516666666666667,0.5133333333333333,14,14,"LIGHT_SHOWERS_POSSIBLE,NIGHT_LIGHT_RAIN,NIGHT_DRIZZLE,NIGHT_CLEAR,LIGHT_RAIN,LIGHT_SHOWERS_POSSIBLE","Offshore,Offshore,Offshore,Offshore,Cross-shore,Cross-shore",6
5842041f4e65fad6a7708a53,2024_02_18,31.20076299997009,-81.32629,Sea Island,1.3333333333333333,0.36,0.6233333333333333,13.333333333333334,13.333333333333334,"FOG,NIGHT_LIGHT_RAIN_AND_FOG,NIGHT_DRIZZLE,NIGHT_CLEAR,LIGHT_RAIN,LIGHT_RAIN","Cross-shore,Offshore,Offshore,Offshore,Cross-shore,Cross-shore",6
5842041f4e65fad6a7708a54,2024_02_18,31.13553222995767,-81.38457634790909,St. Simons Island,1.6666666666666667,0.2816666666666667,0.5533333333333333,14,14,"BRIEF_SHOWERS_POSSIBLE,NIGHT_LIGHT_RAIN,NIGHT_CLOUDY,NIGHT_CLEAR,LIGHT_RAIN,LIGHT_SHOWERS_POSSIBLE","Cross-shore,Offshore,Offshore,Offshore,Offshore,Offshore",6
5842041f4e65fad6a7708a55,2024_02_18,31.33550077186516,-81.28383377408417,Wolf Island,1,0.2783333333333333,0.5433333333333333,13,13,"LIGHT_RAIN,NIGHT_LIGHT_SHOWERS_POSSIBLE,NIGHT_DRIZZLE,NIGHT_CLEAR,CLEAR,BRIEF_SHOWERS_POSSIBLE","Offshore,Offshore,Cross-shore,Cross-shore,Cross-shore,Cross-shore",6
5842041f4e65fad6a7708a56,2024_02_18,31.2704493877174,-81.27324039152315,Little St. Simons Island,1,0.35,0.6116666666666667,13,13,"LIGHT_RAIN,NIGHT_LIGHT_SHOWERS_POSSIBLE,NIGHT_DRIZZLE,NIGHT_CLEAR,BRIEF_SHOWERS_POSSIBLE,DRIZZLE","Offshore,Offshore,Cross-shore,Cross-shore,Onshore,Cross-shore",6
5842041f4e65fad6a7708a57,2024_02_18,31.39261761368919,-81.26190520231917,Sapelo Island,1,0.285,0.545,13,13,"RAIN,NIGHT_LIGHT_RAIN_AND_FOG,NIGHT_DRIZZLE,NIGHT_OVERCAST,CLEAR,CLEAR","Offshore,Offshore,Cross-shore,Offshore,Cross-shore,Cross-shore",6
5842041f4e65fad6a7708a58,2024_02_18,34.42458783809001,-77.54492,Surf City Pier,0.305,0.042383333333333335,0.33506111111111114,12,11,"NIGHT_CLEAR,NIGHT_CLEAR,NIGHT_CLEAR,NIGHT_CLEAR,CLEAR,CLEAR","Offshore,Offshore,Offshore,Offshore,Offshore,Offshore",6
5842041f4e65fad6a7708a59,2024_02_18,31.4231993614213,-81.24725340591522,Cabretta Island,1.5,0.28,0.5383333333333333,13,13,"RAIN,NIGHT_LIGHT_RAIN,NIGHT_DRIZZLE,NIGHT_OVERCAST,CLEAR,CLEAR","Offshore,Offshore,Cross-shore,Offshore,Cross-shore,Cross-shore",6
5842041f4e65fad6a7708a5a,2024_02_18,31.46684389030369,-81.2100056410468,Blackbeard Island,1,0.285,0.545,13,13,"LIGHT_RAIN,NIGHT_LIGHT_RAIN,NIGHT_OVERCAST,NIGHT_OVERCAST,CLEAR,CLEAR","Offshore,Offshore,Cross-shore,Offshore,Cross-shore,Offshore",6
5842041f4e65fad6a7708a5b,2024_02_18,31.85953587631629,-80.99031310336719,Wassaw Island/South End,0.6666666666666666,0.04,0.2916666666666667,13,13,"DRIZZLE,NIGHT_CLOUDY,NIGHT_CLEAR,NIGHT_CLEAR,CLEAR,CLEAR","Offshore,Offshore,Cross-shore,Cross-shore,Cross-shore,Cross-shore",6
5842041f4e65fad6a7708a5c,2024_02_18,31.62535662342983,-81.13328352167974,St. Catherines Island,1,0.36333333333333334,0.635,13,13,"OVERCAST,NIGHT_LIGHT_RAIN,NIGHT_DRIZZLE,NIGHT_LIGHT_RAIN,CLEAR,CLEAR","Offshore,Offshore,Cross-shore,Cross-shore,Cross-shore,Cross-shore",6
5842041f4e65fad6a7708a5d,2024_02_18,31.76502169596568,-81.07655443806622,Ossabaw Island,1,0.355,0.6383333333333333,13,13,"CLEAR,NIGHT_RAIN,NIGHT_LIGHT_RAIN,NIGHT_CLEAR,CLEAR,CLEAR","Offshore,Offshore,Cross-shore,Cross-shore,Cross-shore,Cross-shore",6
5842041f4e65fad6a7708a5e,2024_02_18,31.90593619092352,-80.93589231700857,Wassaw Island/North End,1,0.27666666666666667,0.555,13,13,"DRIZZLE,NIGHT_CLEAR,NIGHT_CLEAR,NIGHT_CLOUDY,CLEAR,CLEAR","Offshore,Offshore,Cross-shore,Cross-shore,Cross-shore,Cross-shore",6
5842041f4e65fad6a7708a5f,2024_02_18,31.96738675414547,-80.86977980706155,Little Tybee Island,1,0.2633333333333333,0.5433333333333333,13,13,"DRIZZLE,NIGHT_CLOUDY,NIGHT_CLEAR,NIGHT_OVERCAST,CLEAR,CLEAR","Offshore,Offshore,Cross-shore,Cross-shore,Cross-shore,Cross-shore",6
5842041f4e65fad6a7708a60,2024_02_18,31.9812255780179,-80.84773973467009,South Tybee Sandbars,1,0.27166666666666667,0.5566666666666666,13,13,"DRIZZLE,NIGHT_CLOUDY,NIGHT_CLEAR,NIGHT_OVERCAST,CLEAR,CLEAR","Offshore,Cross-shore,Cross-shore,Cross-shore,Cross-shore,Cross-shore",6
5842041f4e65fad6a7708a61,2024_02_18,32.01226,-80.83983,Sugar Shack,0.6666666666666666,0.2733333333333333,0.5466666666666666,13,13,"DRIZZLE,NIGHT_CLEAR,NIGHT_CLEAR,NIGHT_OVERCAST,CLOUDY,CLEAR","Cross-shore,Onshore,Onshore,Onshore,Onshore,Onshore",6
5842041f4e65fad6a7708a62,2024_02_18,31.98722842396969,-80.84773,18th St. Jetty,1,0.4178233333333333,0.65285,13,13,"DRIZZLE,NIGHT_CLEAR,NIGHT_CLEAR,NIGHT_CLEAR,CLEAR,CLEAR","Cross-shore,Cross-shore,Cross-shore,Onshore,Cross-shore,Cross-shore",6
5842041f4e65fad6a7708a64,2024_02_18,34.013473721006676,-77.8991,"Alabama Ave., Kure Beach",1,0.06333333333333334,0.355,13,13,"NIGHT_CLEAR,NIGHT_OVERCAST,NIGHT_CLEAR,NIGHT_CLEAR,CLEAR,CLOUDY","Cross-shore,Cross-shore,Cross-shore,Cross-shore,Cross-shore,Cross-shore",6
5842041f4e65fad6a7708a65,2024_02_18,34.20859853336924,-77.79293,"C Street, Wrightsville Beach",0.5,-0.0027777777777777796,0.2477388888888889,13,12,"NIGHT_CLOUDY,NIGHT_CLOUDY,NIGHT_CLEAR,NIGHT_CLEAR,OVERCAST,CLEAR","Offshore,Offshore,Offshore,Cross-shore,Offshore,Offshore",6
5842041f4e65fad6a7708a66,2024_02_18,32.831,-79.71,Dewees Island,0.6666666666666666,0.12833333333333333,0.4033333333333333,12.333333333333334,12.333333333333334,"CLOUDY,NIGHT_CLOUDY,NIGHT_CLEAR,NIGHT_CLEAR,CLEAR,CLEAR","Offshore,Offshore,Cross-shore,Cross-shore,Cross-shore,Cross-shore",6
5842041f4e65fad6a7708a67,2024_02_18,33.82924423172106,-78.62813,Cherry Grove Pier,1,0,0.23333333333333334,12,12,"NIGHT_CLEAR,NIGHT_CLEAR,NIGHT_CLEAR,NIGHT_CLEAR,CLEAR,CLEAR","Offshore,Offshore,Offshore,Offshore,Offshore,Offshore",6
5842041f4e65fad6a7708a69,2024_02_18,34.27197439666496,-77.74050223196774,Figure Eight and Shell Islands,0.5,-0.013194444444444446,0.22829444444444447,13,12,"NIGHT_OVERCAST,NIGHT_CLEAR,NIGHT_CLEAR,NIGHT_CLEAR,CLOUDY,CLEAR","Offshore,Offshore,Offshore,Offshore,Offshore,Offshore",6
5842041f4e65fad6a7708a6b,2024_02_18,33.49041958261793,-79.07666070599386,North End,0.8333333333333334,0.12666666666666668,0.40166666666666667,12,12,"CLEAR,NIGHT_OVERCAST,NIGHT_CLEAR,NIGHT_CLEAR,CLEAR,CLEAR","Offshore,Offshore,Offshore,Cross-shore,Cross-shore,Cross-shore",6
5842041f4e65fad6a7708a6c,2024_02_18,33.39537062495087,-79.13835037835189,The South End,0.6666666666666666,0.135,0.40166666666666667,12,12,"CLEAR,NIGHT_OVERCAST,NIGHT_CLEAR,NIGHT_CLEAR,CLEAR,CLEAR","Offshore,Offshore,Cross-shore,Cross-shore,Cross-shore,Cross-shore",6
5842041f4e65fad6a7708a6d,2024_02_18,33.29001727666697,-79.17190003352977,North Island,0.6666666666666666,0.18166666666666667,0.4816666666666667,12,12,"OVERCAST,NIGHT_OVERCAST,NIGHT_CLEAR,NIGHT_CLEAR,CLEAR,CLEAR","Cross-shore,Cross-shore,Cross-shore,Onshore,Onshore,Onshore",6
5842041f4e65fad6a7708a6e,2024_02_18,32.90929771158952,-79.57810400297359,Bull Island,1,0.13,0.43833333333333335,12.333333333333334,12.333333333333334,"CLOUDY,NIGHT_CLEAR,NIGHT_CLEAR,NIGHT_CLEAR,CLEAR,CLEAR","Offshore,Offshore,Cross-shore,Cross-shore,Cross-shore,Cross-shore",6
5842041f4e65fad6a7708a6f,2024_02_18,31.99153112815895,-80.84543050470074,Tybee Island Pier,0.6666666666666666,0.06333333333333332,0.32,13,13,"DRIZZLE,NIGHT_CLEAR,NIGHT_CLEAR,NIGHT_CLEAR,CLOUDY,CLEAR","Offshore,Cross-shore,Cross-shore,Cross-shore,Cross-shore,Cross-shore",6
5842041f4e65fad6a7708a70,2024_02_18,33.03478144356316,-79.35021028265125,Cape Romain,0.6666666666666666,0.2733333333333333,0.575,13,13,"CLEAR,NIGHT_CLEAR,NIGHT_CLEAR,NIGHT_CLEAR,CLEAR,CLEAR","Cross-shore,Cross-shore,Cross-shore,Cross-shore,Cross-shore,Cross-shore",6
5842041f4e65fad6a7708a71,2024_02_18,33.43231073271028,-79.11789,The Pier,0.6666666666666666,0.28253833333333334,0.44147000000000003,12,12,"CLEAR,NIGHT_OVERCAST,NIGHT_CLEAR,NIGHT_CLEAR,CLEAR,CLEAR","Offshore,Offshore,Cross-shore,Cross-shore,Cross-shore,Cross-shore",6
5842041f4e65fad6a7708a72,2024_02_18,33.45423621397969,-79.10497798178424,South Litchfield,0.6666666666666666,0.10833333333333334,0.3666666666666667,12,12,"CLEAR,NIGHT_OVERCAST,NIGHT_CLEAR,NIGHT_CLEAR,CLEAR,CLEAR","Offshore,Offshore,Cross-shore,Cross-shore,Cross-shore,Cross-shore",6
5842041f4e65fad6a7708a73,2024_02_18,34.19316590251396,-77.8045,Crystal Pier,0.5,0.015416666666666669,0.28920555555555555,13,12,"NIGHT_CLOUDY,NIGHT_CLOUDY,NIGHT_CLEAR,NIGHT_CLEAR,OVERCAST,CLEAR","Offshore,Offshore,Offshore,Cross-shore,Cross-shore,Offshore",6
5842041f4e65fad6a7708a74,2024_02_18,33.68628680045124,-78.883460274301,Myrtle Beach,1,0.058333333333333334,0.33666666666666667,12,12,"NIGHT_OVERCAST,NIGHT_CLOUDY,NIGHT_CLEAR,NIGHT_CLEAR,CLOUDY,CLEAR","Offshore,Offshore,Offshore,Offshore,Offshore,Cross-shore",6
5842041f4e65fad6a7708a75,2024_02_18,32.66166297145973,-79.91951806398808,10th Street,1,0.18833333333333332,0.495,12.333333333333334,12.333333333333334,"CLOUDY,NIGHT_CLEAR,NIGHT_CLEAR,NIGHT_CLOUDY,CLEAR,CLEAR","Offshore,Offshore,Cross-shore,Cross-shore,Cross-shore,Cross-shore",6
5842041f4e65fad6a7708a76,2024_02_18,33.16729555197199,-79.19829236867845,South Island,0.8333333333333334,0.37333333333333335,0.6783333333333333,12.333333333333334,12.333333333333334,"CLEAR,NIGHT_OVERCAST,NIGHT_CLEAR,NIGHT_CLEAR,CLEAR,CLEAR","Cross-shore,Cross-shore,Cross-shore,Onshore,Onshore,Cross-shore",6
5842041f4e65fad6a7708a77,2024_02_18,32.595,-80.088,Kiawah Island/Seabrook Island,1,0.006666666666666667,0.2916666666666667,12.333333333333334,12.333333333333334,"DRIZZLE,NIGHT_DRIZZLE,NIGHT_CLEAR,NIGHT_CLOUDY,CLEAR,CLEAR","Offshore,Offshore,Offshore,Offshore,Offshore,Offshore",6
5842041f4e65fad6a7708a78,2024_02_18,32.51356930575787,-80.28223,Edisto Beach,1,0.22772166666666666,0.355815,12.333333333333334,12.333333333333334,"DRIZZLE,NIGHT_CLOUDY,NIGHT_CLEAR,NIGHT_OVERCAST,CLEAR,CLEAR","Offshore,Offshore,Offshore,Offshore,Offshore,Offshore",6
5842041f4e65fad6a7708a79,2024_02_18,32.366270751262,-80.43911,Hunting Island,0.6666666666666666,0.397085,0.6204433333333333,13,13,"CLOUDY,NIGHT_CLOUDY,NIGHT_OVERCAST,NIGHT_CLEAR,CLEAR,CLEAR","Cross-shore,Cross-shore,Cross-shore,Onshore,Cross-shore,Cross-shore",6
5842041f4e65fad6a7708a7a,2024_02_18,32.65337734408365,-79.93983,Folly Beach Pier,0.8,1.3888888888889325e-4,0.2855111111111111,13,12,"OVERCAST,NIGHT_BRIEF_SHOWERS_POSSIBLE,NIGHT_CLEAR,NIGHT_CLOUDY,CLEAR,CLEAR","Offshore,Offshore,Offshore,Offshore,Offshore,Offshore",6
5842041f4e65fad6a7708a7b,2024_02_18,33.41209545530049,-79.13026341393126,South Jetty,0.6666666666666666,0.13166666666666665,0.3983333333333333,12,12,"CLEAR,NIGHT_OVERCAST,NIGHT_CLEAR,NIGHT_CLEAR,CLEAR,CLEAR","Offshore,Offshore,Cross-shore,Cross-shore,Cross-shore,Cross-shore",6
5842041f4e65fad6a7708a7c,2024_02_18,32.31115640606869,-80.48564,Fripp Island,0.6666666666666666,0.20373166666666667,0.31833,13,13,"OVERCAST,NIGHT_OVERCAST,NIGHT_CLEAR,NIGHT_CLOUDY,CLEAR,CLEAR","Offshore,Offshore,Offshore,Offshore,Offshore,Offshore",6
5842041f4e65fad6a7708a7d,2024_02_18,32.14365226036034,-80.74402,Hilton Head Island,0.5,0,0.165,13,13,"LIGHT_RAIN,NIGHT_CLOUDY,NIGHT_CLEAR,NIGHT_OVERCAST,CLEAR,CLEAR","Offshore,Offshore,Cross-shore,Cross-shore,Cross-shore,Cross-shore",6
5842041f4e65fad6a7708a7e,2024_02_18,29.70405364733744,-81.22426004725459,Matanzas Inlet,1,0.14,0.40499999999999997,15,15,"LIGHT_RAIN,NIGHT_LIGHT_RAIN,NIGHT_LIGHT_RAIN,NIGHT_LIGHT_RAIN,LIGHT_RAIN,RAIN","Offshore,Cross-shore,Cross-shore,Cross-shore,Cross-shore,Cross-shore",6
5842041f4e65fad6a7708a81,2024_02_18,29.76878537149042,-81.25109,Crescent Beach,1,0.11833333333333335,0.37833333333333335,15.333333333333334,15.333333333333334,"DRIZZLE,NIGHT_LIGHT_RAIN,NIGHT_LIGHT_RAIN,NIGHT_LIGHT_RAIN,LIGHT_RAIN,LIGHT_RAIN","Offshore,Cross-shore,Cross-shore,Cross-shore,Cross-shore,Cross-shore",6
5842041f4e65fad6a7708a82,2024_02_18,32.80251718689188,-79.73221919500764,Wild Dunes,1,0.1,0.39666666666666667,12.333333333333334,12.333333333333334,"CLOUDY,NIGHT_CLOUDY,NIGHT_CLEAR,NIGHT_CLEAR,CLEAR,CLEAR","Offshore,Offshore,Offshore,Offshore,Offshore,Offshore",6
5842041f4e65fad6a7708a84,2024_02_18,32.75733539419244,-79.83258856064796,Bert's Bar,1,0.0033333333333333335,0.27166666666666667,12.333333333333334,12.333333333333334,"OVERCAST,NIGHT_OVERCAST,NIGHT_CLEAR,NIGHT_CLEAR,CLEAR,CLEAR","Offshore,Offshore,Offshore,Offshore,Offshore,Offshore",6
5842041f4e65fad6a7708a85,2024_02_18,32.66829212943039,-79.90735,Washout,0.7383333333333333,-0.002083333333333336,0.30993888888888893,13,12,"CLOUDY,NIGHT_DRIZZLE,NIGHT_CLEAR,NIGHT_CLOUDY,CLEAR,CLEAR","Offshore,Offshore,Cross-shore,Cross-shore,Cross-shore,Cross-shore",6
5842041f4e65fad6a7708a86,2024_02_18,32.78452968219067,-79.78540233488354,The Pier/Windjammer,1,0.14166666666666666,0.45166666666666666,12.333333333333334,12.333333333333334,"CLEAR,NIGHT_CLEAR,NIGHT_CLEAR,NIGHT_CLEAR,CLEAR,CLEAR","Offshore,Offshore,Offshore,Offshore,Offshore,Offshore",6
5842041f4e65fad6a7708a87,2024_02_18,29.86618162637438,-81.2662150259608,Anastasia Park (The Entrance),1,0.135,0.3983333333333333,15.333333333333334,15.333333333333334,"LIGHT_RAIN,NIGHT_RAIN_AND_FOG,NIGHT_RAIN,NIGHT_RAIN,LIGHT_RAIN,LIGHT_SHOWERS_POSSIBLE","Offshore,Cross-shore,Cross-shore,Cross-shore,Cross-shore,Cross-shore",6
5842041f4e65fad6a7708a89,2024_02_18,29.89149785916623,-81.2723223244215,Blowholes,0.6383333333333333,0.12333333333333332,0.41476111111111114,22,21,"LIGHT_RAIN,NIGHT_RAIN_AND_FOG,NIGHT_RAIN,NIGHT_LIGHT_RAIN,LIGHT_RAIN,LIGHT_RAIN","Offshore,Cross-shore,Cross-shore,Cross-shore,Cross-shore,Cross-shore",6
5842041f4e65fad6a7708a8a,2024_02_18,30.16227112983666,-81.35502907491218,Crossroads,0.6383333333333333,0.15013888888888888,0.44865,22,21,"LIGHT_RAIN,NIGHT_LIGHT_RAIN,NIGHT_LIGHT_RAIN,NIGHT_LIGHT_RAIN,LIGHT_RAIN,RAIN","Offshore,Offshore,Cross-shore,Cross-shore,Cross-shore,Cross-shore",6
5842041f4e65fad6a7708a8b,2024_02_18,30.19308537587637,-81.36314247820911,Sawgrass,0.6383333333333333,0.13736111111111113,0.4332333333333333,22,21,"LIGHT_RAIN,NIGHT_RAIN_AND_FOG,NIGHT_LIGHT_RAIN,NIGHT_LIGHT_RAIN,LIGHT_RAIN,RAIN","Offshore,Offshore,Cross-shore,Cross-shore,Cross-shore,Offshore",6
5842041f4e65fad6a7708a8c,2024_02_18,30.34696027700899,-81.39451,18th Street,1.1666666666666667,0.30128333333333335,0.47075833333333333,15.333333333333334,15.333333333333334,"LIGHT_RAIN,NIGHT_LIGHT_RAIN_AND_FOG,NIGHT_LIGHT_SHOWERS_POSSIBLE,NIGHT_DRIZZLE,LIGHT_RAIN,RAIN","Offshore,Offshore,Offshore,Offshore,Cross-shore,Cross-shore",6
5842041f4e65fad6a7708a8d,2024_02_18,30.381793,-81.39686,Mayport Poles,1.8333333333333333,0.2733333333333333,0.5533333333333333,15,15,"LIGHT_RAIN_AND_FOG,NIGHT_LIGHT_RAIN_AND_FOG,NIGHT_LIGHT_RAIN_AND_FOG,NIGHT_DRIZZLE,LIGHT_RAIN_AND_FOG,RAIN","Offshore,Offshore,Offshore,Offshore,Offshore,Offshore",6
5842041f4e65fad6a7708a8e,2024_02_18,30.390516,-81.395591,Blue Roofs,1.6666666666666667,0.25166666666666665,0.5383333333333333,15,15,"LIGHT_RAIN_AND_FOG,NIGHT_LIGHT_RAIN_AND_FOG,NIGHT_LIGHT_RAIN_AND_FOG,NIGHT_DRIZZLE,LIGHT_RAIN_AND_FOG,RAIN","Offshore,Offshore,Offshore,Offshore,Offshore,Offshore",6
5842041f4e65fad6a7708a8f,2024_02_18,30.40517712722211,-81.40074116169004,Huguenot Park (North Jetty),1.3333333333333333,0.2966666666666667,0.5616666666666666,15,15,"LIGHT_RAIN_AND_FOG,NIGHT_LIGHT_RAIN_AND_FOG,NIGHT_LIGHT_RAIN_AND_FOG,NIGHT_DRIZZLE,LIGHT_RAIN_AND_FOG,RAIN","Offshore,Offshore,Cross-shore,Cross-shore,Cross-shore,Offshore",6
5842041f4e65fad6a7708a90,2024_02_18,30.47788918872762,-81.41055821335078,Talbot Island,0.86,0.2669275,0.45417166666666664,16,14,"LIGHT_RAIN_AND_FOG,NIGHT_LIGHT_RAIN_AND_FOG,NIGHT_LIGHT_RAIN,NIGHT_DRIZZLE,LIGHT_RAIN,LIGHT_RAIN","Offshore,Offshore,Offshore,Offshore,Offshore,Offshore",6
5842041f4e65fad6a7708a91,2024_02_18,30.66753984549761,-81.42983,Main Beach,1.3333333333333333,0.305,0.5683333333333334,14.333333333333334,14.333333333333334,"LIGHT_RAIN,NIGHT_LIGHT_RAIN,NIGHT_BRIEF_SHOWERS_POSSIBLE,NIGHT_DRIZZLE,LIGHT_SHOWERS_POSSIBLE,RAIN","Offshore,Offshore,Offshore,Offshore,Offshore,Offshore",6
5842041f4e65fad6a7708a92,2024_02_18,30.69983581209126,-81.42483,Ft. Clinch State Park,1,0.36833333333333335,0.6366666666666667,14.333333333333334,14.333333333333334,"LIGHT_RAIN,NIGHT_LIGHT_RAIN,NIGHT_BRIEF_SHOWERS_POSSIBLE,NIGHT_DRIZZLE,LIGHT_RAIN,RAIN","Offshore,Offshore,Offshore,Cross-shore,Cross-shore,Cross-shore",6
5842041f4e65fad6a7708a93,2024_02_18,30.62059700777582,-81.437252942757425,Amelia Pier,0.8333333333333334,0.17,0.445,14.333333333333334,14.333333333333334,"LIGHT_RAIN_AND_FOG,NIGHT_LIGHT_RAIN,NIGHT_LIGHT_SHOWERS_POSSIBLE,NIGHT_BRIEF_SHOWERS_POSSIBLE,LIGHT_RAIN,RAIN","Offshore,Offshore,Offshore,Offshore,Offshore,Offshore",6
5842041f4e65fad6a7708a95,2024_02_18,28.95125170929067,-80.83837,Bethune Beach,0.8333333333333334,0.07833333333333334,0.38166666666666665,16,16,"RAIN,NIGHT_LIGHT_RAIN,NIGHT_LIGHT_RAIN,NIGHT_LIGHT_RAIN,RAIN,LIGHT_RAIN","Cross-shore,Cross-shore,Cross-shore,Cross-shore,Cross-shore,Cross-shore",6
5842041f4e65fad6a7708a96,2024_02_18,29.03874288905362,-80.8933424949646,Flagler Ave.,0.5,0.14879444444444445,0.4410611111111111,22,21,"RAIN,NIGHT_LIGHT_RAIN,NIGHT_DRIZZLE,NIGHT_FOG,RAIN,LIGHT_RAIN","Cross-shore,Cross-shore,Cross-shore,Cross-shore,Cross-shore,Onshore",6
5842041f4e65fad6a7708a98,2024_02_18,30.332297686992757,-81.39319,Atlantic Beach,1,0.30137,0.47089,15.333333333333334,15.333333333333334,"LIGHT_RAIN,NIGHT_LIGHT_RAIN_AND_FOG,NIGHT_LIGHT_SHOWERS_POSSIBLE,NIGHT_DRIZZLE,LIGHT_RAIN,RAIN","Offshore,Offshore,Cross-shore,Cross-shore,Cross-shore,Cross-shore",6
5842041f4e65fad6a7708a99,2024_02_18,29.87530059952514,-81.26757958498874,Middles,0.6383333333333333,0.1323611111111111,0.42476111111111114,22,21,"LIGHT_RAIN,NIGHT_RAIN_AND_FOG,NIGHT_RAIN,NIGHT_LIGHT_RAIN,LIGHT_RAIN,LIGHT_RAIN","Offshore,Cross-shore,Cross-shore,Cross-shore,Cross-shore,Cross-shore",6
5842041f4e65fad6a7708a9a,2024_02_18,29.146475528378218,-80.96347,Sunglow Pier,0.16666666666666666,0.05333333333333334,0.3233333333333333,16,16,"RAIN,NIGHT_RAIN,NIGHT_LIGHT_RAIN,NIGHT_LIGHT_RAIN_AND_FOG,RAIN,RAIN","Cross-shore,Cross-shore,Cross-shore,Offshore,Cross-shore,Cross-shore",6
