_id,date,lat,lon,name,daily_mean_swell_rating,daily_mean_wave_height_min,daily_mean_wave_height_max,daily_mean_water_temperature_max,daily_mean_water_temperature_min,weather_per_timestamp,wind_per_timestamp,n_samples_per_day
5842041f4e65fad6a77087f9,2024_02_13,37.741668,-122.51038,South Ocean Beach,2.4175,1.9777583333333335,2.3949583333333333,14,14,"MIST,NIGHT_CLEAR,NIGHT_CLEAR,NIGHT_MIST","Onshore,Onshore,Onshore,Offshore",4
5842041f4e65fad6a7708801,2024_02_13,37.49142,-122.50428,Maverick's,NA,1.9707,2.3098,13,13,"CLEAR,NIGHT_MIST,NIGHT_MIST,NIGHT_CLEAR","Offshore,Offshore,Offshore,Offshore",4
5842041f4e65fad6a7708804,2024_02_13,44.997,-124.018,Roads End,3.75,2.2800000000000002,2.5725,11,11,"MOSTLY_CLOUDY,NIGHT_CLEAR,NIGHT_CLEAR,NIGHT_CLEAR","Cross-shore,Offshore,Offshore,Offshore",4
5842041f4e65fad6a7708805,2024_02_13,36.95188851423011,-122.02522,Steamer Lane,3.875,1.271375,1.5806749999999998,14,14,"CLEAR,NIGHT_MIST,NIGHT_FOG,NIGHT_MOSTLY_CLOUDY","Offshore,Offshore,Offshore,Offshore",4
5842041f4e65fad6a7708806,2024_02_13,36.95918781542251,-122.02489,Cowells,1.25,0,0.2717,14,14,"CLEAR,NIGHT_MIST,NIGHT_FOG,NIGHT_MOSTLY_CLOUDY","Offshore,Cross-shore,Cross-shore,Cross-shore",4
5842041f4e65fad6a7708807,2024_02_13,36.95468082526536,-121.97234,Pleasure Point,4,1.222975,1.560225,14,14,"CLEAR,NIGHT_FOG,NIGHT_FOG,NIGHT_MOSTLY_CLEAR","Cross-shore,Onshore,Onshore,Offshore",4
5842041f4e65fad6a770880a,2024_02_13,35.37815414378748,-120.86589,Morro Bay,3.75,1.3733583333333335,1.6704999999999999,14,14,"CLEAR,NIGHT_CLEAR,NIGHT_CLEAR,NIGHT_CLEAR","Onshore,Offshore,Offshore,Offshore",4
5842041f4e65fad6a770880b,2024_02_13,36.95782765000708,-121.9672887511276,Jack's,2.5825,0.373125,0.65545,14,14,"CLEAR,NIGHT_FOG,NIGHT_FOG,NIGHT_MOSTLY_CLEAR","Cross-shore,Onshore,Onshore,Cross-shore",4
5842041f4e65fad6a770880d,2024_02_13,34.29982939936656,-119.3489016603669,Gold Coast Beachbreaks,2,0.08499999999999999,0.3875,15,15,"CLEAR,NIGHT_CLEAR,NIGHT_CLEAR,NIGHT_CLEAR","Onshore,Offshore,Cross-shore,Cross-shore",4
5842041f4e65fad6a7708811,2024_02_13,34.245076,-119.26799,Ventura Harbor,3,0.8666275,1.140538125,14,14,"CLEAR,NIGHT_CLEAR,NIGHT_CLEAR,NIGHT_CLEAR","Onshore,Onshore,Cross-shore,Offshore",4
5842041f4e65fad6a7708813,2024_02_13,34.051,-118.964,County Line,2.4175,0.46636666666666665,0.7697583333333333,15,15,"CLEAR,NIGHT_CLEAR,NIGHT_CLEAR,NIGHT_CLEAR","Onshore,Offshore,Offshore,Offshore",4
5842041f4e65fad6a7708814,2024_02_13,34.37256264378892,-119.47797,Rincon,2,0.21250000000000002,0.5175,15,15,"CLEAR,NIGHT_CLEAR,NIGHT_CLEAR,NIGHT_CLEAR","Cross-shore,Cross-shore,Onshore,Cross-shore",4
5842041f4e65fad6a7708817,2024_02_13,34.03096101876324,-118.68109,Malibu Third Point,2,0.2,0.5075000000000001,15,15,"CLEAR,NIGHT_CLEAR,NIGHT_CLEAR,NIGHT_CLEAR","Cross-shore,Offshore,Offshore,Onshore",4
5842041f4e65fad6a7708819,2024_02_13,33.984079047970035,-118.47381591796875,Venice Beach,2.75,0.4557416666666667,0.76455,14,14,"CLEAR,NIGHT_MIST,NIGHT_MIST,NIGHT_CLEAR","Onshore,Offshore,Offshore,Offshore",4
5842041f4e65fad6a770881e,2024_02_13,34.037508438646746,-118.58339846155594,Topanga Beach,2,0.15776666666666667,0.46386666666666665,15,15,"CLEAR,NIGHT_CLEAR,NIGHT_CLEAR,NIGHT_CLEAR","Onshore,Offshore,Offshore,Offshore",4
5842041f4e65fad6a7708820,2024_02_13,33.73954373690184,-118.11414,Seal Beach Jetty,1.75,0.1575,0.465,15,15,"CLEAR,NIGHT_CLEAR,NIGHT_MIST,NIGHT_MIST","Onshore,Offshore,Offshore,Offshore",4
5842041f4e65fad6a7708822,2024_02_13,33.72309983348433,-118.08078,Anderson Street,1.75,0.17,0.4725,15,15,"CLEAR,NIGHT_CLEAR,NIGHT_MIST,NIGHT_MIST","Onshore,Offshore,Offshore,Offshore",4
5842041f4e65fad6a7708827,2024_02_13,33.65574085629463,-118.00397,Huntington Beach Pier Northside,2.7925,0.7002416666666667,1.0479666666666667,14,14,"CLEAR,NIGHT_CLEAR,NIGHT_MIST,NIGHT_MIST","Onshore,Offshore,Offshore,Offshore",4
5842041f4e65fad6a7708828,2024_02_13,34.272041739333,-119.2997646331,C St.,2.5825,0.52715,0.8336749999999999,14,14,"CLEAR,NIGHT_MOSTLY_CLEAR,NIGHT_MOSTLY_CLEAR,NIGHT_CLEAR","Onshore,Offshore,Offshore,Offshore",4
5842041f4e65fad6a770882a,2024_02_13,33.61555743705257,-117.93676,Newport Lower Jetties,1.7925,0.36863333333333337,0.6700333333333333,15,15,"CLEAR,NIGHT_CLEAR,NIGHT_CLEAR,NIGHT_CLEAR","Onshore,Offshore,Cross-shore,Offshore",4
5842041f4e65fad6a770882b,2024_02_13,33.5930302087,-117.88199,The Wedge,1.75,0.18866,0.6142475000000001,15,15,"CLEAR,NIGHT_CLEAR,NIGHT_MIST,NIGHT_CLEAR","Onshore,Offshore,Offshore,Offshore",4
5842041f4e65fad6a770882c,2024_02_13,33.60577342582,-117.9315376281,Newport Beach Pier,1.7925,0.24598333333333333,0.5519666666666667,15,15,"CLEAR,NIGHT_CLEAR,NIGHT_CLEAR,NIGHT_CLEAR","Cross-shore,Cross-shore,Offshore,Cross-shore",4
5842041f4e65fad6a770882e,2024_02_13,33.475793399792984,-117.72291,Salt Creek,2.7925,0.6925333333333333,1.0433833333333333,15,15,"CLEAR,NIGHT_CLEAR,NIGHT_MIST,NIGHT_MIST","Onshore,Offshore,Offshore,Offshore",4
5842041f4e65fad6a7708830,2024_02_13,33.41800974113613,-117.61952,T-Street,2.7925,0.5975333333333334,0.9064333333333334,16,16,"CLEAR,NIGHT_CLEAR,NIGHT_CLEAR,NIGHT_CLEAR","Cross-shore,Offshore,Offshore,Offshore",4
5842041f4e65fad6a7708832,2024_02_13,33.202391008646,-117.39475,Oceanside Harbor,2.5825,0.6803833333333333,0.9839833333333333,15,15,"CLEAR,NIGHT_MIST,NIGHT_MIST,NIGHT_CLEAR","Onshore,Offshore,Offshore,Offshore",4
5842041f4e65fad6a7708835,2024_02_13,33.19477795952803,-117.38667,Oceanside Pier,2.5825,0.4919916666666667,0.8330166666666666,15,15,"CLEAR,NIGHT_MIST,NIGHT_MIST,NIGHT_MIST","Onshore,Offshore,Offshore,Offshore",4
5842041f4e65fad6a7708837,2024_02_13,33.14948100706,-117.35029,Tamarack,1.75,0.2,0.5,15,15,"CLEAR,NIGHT_MIST,NIGHT_MIST,NIGHT_MIST","Cross-shore,Offshore,Offshore,Offshore",4
5842041f4e65fad6a7708839,2024_02_13,32.865777159358856,-117.25614295356122,Scripps,2.9575,0.7783666666666667,1.0847666666666667,14,14,"MIST,NIGHT_MIST,NIGHT_DRIZZLE,NIGHT_CLEAR","Onshore,Onshore,Onshore,Offshore",4
5842041f4e65fad6a770883a,2024_02_13,32.813094,-117.27381,Birdrock,3,1.02,1.275,15,15,"CLEAR,NIGHT_MIST,NIGHT_MIST,NIGHT_MIST","Cross-shore,Offshore,Offshore,Offshore",4
5842041f4e65fad6a770883b,2024_02_13,32.877231,-117.25303,Blacks,3.5,1.2764333333333333,1.5453333333333334,14,14,"MIST,NIGHT_MIST,NIGHT_DRIZZLE,NIGHT_CLEAR","Onshore,Onshore,Onshore,Cross-shore",4
5842041f4e65fad6a770883c,2024_02_13,32.82978974229765,-117.28161740727381,Windansea,3,1.1362833333333333,1.4348416666666666,14,14,"CLEAR,NIGHT_MIST,NIGHT_MIST,NIGHT_MIST","Onshore,Onshore,Onshore,Offshore",4
5842041f4e65fad6a770883d,2024_02_13,32.838278,-117.28396,Horseshoe,3.75,1.17,1.425,15,15,"CLEAR,NIGHT_MIST,NIGHT_MIST,NIGHT_MIST","Onshore,Offshore,Offshore,Offshore",4
5842041f4e65fad6a770883f,2024_02_13,32.75034717673179,-117.25337,Ocean Beach,3,1.17045,1.4934583333333333,14,14,"CLEAR,NIGHT_MIST,NIGHT_MIST,NIGHT_MIST","Onshore,Onshore,Onshore,Offshore",4
5842041f4e65fad6a7708840,2024_02_13,32.73693,-117.25718,Sunset Cliffs,3,1.01,1.29,15,15,"CLEAR,NIGHT_MIST,NIGHT_MIST,NIGHT_MIST","Onshore,Onshore,Onshore,Offshore",4
5842041f4e65fad6a7708841,2024_02_13,32.796582258728826,-117.25779,Pacific Beach,3,0.9931583333333334,1.3683833333333335,14,14,"CLEAR,NIGHT_MIST,NIGHT_MIST,NIGHT_MIST","Cross-shore,Offshore,Offshore,Offshore",4
5842041f4e65fad6a7708842,2024_02_13,32.776636,-117.25514,Mission Beach,2.9575,1.02045,1.3708833333333335,14,14,"CLEAR,NIGHT_MIST,NIGHT_MIST,NIGHT_MIST","Onshore,Offshore,Offshore,Offshore",4
5842041f4e65fad6a7708844,2024_02_13,32.577195519016,-117.13475,Imperial Beach Pier,3,1.1925,1.4275,14,14,"CLEAR,NIGHT_MOSTLY_CLOUDY,NIGHT_DRIZZLE,NIGHT_MIST","Onshore,Cross-shore,Cross-shore,Offshore",4
5842041f4e65fad6a770884a,2024_02_13,42.88678181061,-70.80843,Seabrook,1.2075,0.32400104166666666,0.5256974999999999,5,4,"NIGHT_CLEAR,NIGHT_MOSTLY_CLOUDY,NIGHT_MOSTLY_CLOUDY,NIGHT_MOSTLY_CLOUDY","Cross-shore,Onshore,Onshore,Onshore",4
5842041f4e65fad6a770884e,2024_02_13,41.434181432898335,-71.45312118111178,Narragansett,1.4575,0.13270833333333332,0.43695,7,6,"NIGHT_CLOUDY,NIGHT_CLEAR,NIGHT_CLOUDY,NIGHT_CLEAR","Cross-shore,Offshore,Offshore,Offshore",4
5842041f4e65fad6a7708850,2024_02_13,40.582703230722,-73.65247,Lincoln Blvd,1,0.3048,0.6118916666666667,7,6,"NIGHT_CLEAR,NIGHT_BRIEF_SHOWERS,NIGHT_LIGHT_RAIN,NIGHT_DRIZZLE","Onshore,Offshore,Offshore,Offshore",4
5842041f4e65fad6a7708852,2024_02_13,40.58342841721757,-73.81182,Rockaways,0.5,0.26711666666666667,0.6082166666666666,7,6,"NIGHT_CLEAR,NIGHT_BRIEF_SHOWERS_POSSIBLE,NIGHT_DRIZZLE,NIGHT_DRIZZLE","Onshore,Offshore,Offshore,Offshore",4
5842041f4e65fad6a7708853,2024_02_13,40.330474,-73.9734,Monmouth Beach,0.625,0.26413333333333333,0.5707666666666666,6,5,"NIGHT_OVERCAST,NIGHT_OVERCAST,NIGHT_DRIZZLE,NIGHT_DRIZZLE","Onshore,Onshore,Onshore,Cross-shore",4
5842041f4e65fad6a7708856,2024_02_13,40.113,-74.028,Manasquan Inlet,0.25,0.8614333333333334,1.167275,6,5,"NIGHT_OVERCAST,NIGHT_OVERCAST,NIGHT_OVERCAST,NIGHT_LIGHT_RAIN","Onshore,Onshore,Onshore,Onshore",4
5842041f4e65fad6a7708857,2024_02_13,39.941519877445664,-74.06829,Casino Pier,0.6675,0.8591416666666668,1.1637333333333333,6,5,"NIGHT_OVERCAST,NIGHT_DRIZZLE,NIGHT_OVERCAST,NIGHT_LIGHT_RAIN","Onshore,Onshore,Onshore,Cross-shore",4
5842041f4e65fad6a7708858,2024_02_13,39.28223089949212,-74.55766,North End OC,1,0.592675,1.092975,6,5,"NIGHT_OVERCAST,NIGHT_LIGHT_RAIN,NIGHT_LIGHT_RAIN,NIGHT_LIGHT_RAIN","Onshore,Onshore,Cross-shore,Onshore",4
5842041f4e65fad6a770885b,2024_02_13,39.65080599934257,-74.17146,Ship Bottom,1.5,0.8614333333333334,1.1624833333333333,6,5,"NIGHT_OVERCAST,NIGHT_DRIZZLE,NIGHT_LIGHT_RAIN,NIGHT_RAIN","Onshore,Cross-shore,Cross-shore,Cross-shore",4
5842041f4e65fad6a7708863,2024_02_13,36.034151543144,-75.66791,Third Street,2.2075,0.53015,0.875575,8,6,"NIGHT_LIGHT_RAIN,NIGHT_LIGHT_RAIN,NIGHT_MOSTLY_CLEAR,NIGHT_MIST","Cross-shore,Cross-shore,Offshore,Offshore",4
5842041f4e65fad6a7708867,2024_02_13,35.605833221351425,-75.46303,S-Turns,1.4575,0.61015,1.0777,9,8,"NIGHT_MIST,NIGHT_MIST,NIGHT_MIST,NIGHT_MIST","Cross-shore,Cross-shore,Offshore,Offshore",4
5842041f4e65fad6a770886d,2024_02_13,38.338461,-75.08117,Ocean City Boardwalk,1.7075,0.7428083333333333,1.1391083333333334,7,5,"NIGHT_CLOUDY,NIGHT_DRIZZLE,NIGHT_HEAVY_SHOWERS_POSSIBLE,NIGHT_OVERCAST","Onshore,Onshore,Onshore,Onshore",4
5842041f4e65fad6a770886f,2024_02_13,29.844757212379562,-81.26136,A St.,2.75,0.3875,0.6925,15,15,"CLEAR,NIGHT_CLEAR,NIGHT_CLEAR,NIGHT_CLOUDY","Cross-shore,Offshore,Offshore,Offshore",4
5842041f4e65fad6a7708871,2024_02_13,29.069417851135093,-80.90824,New Smyrna Beach,3,0.7241083333333334,1.2522083333333334,17,16,"CLEAR,NIGHT_CLEAR,NIGHT_CLEAR,NIGHT_CLEAR","Offshore,Offshore,Offshore,Offshore",4
5842041f4e65fad6a7708872,2024_02_13,28.367707417566,-80.60171,Cocoa Beach Pier,2.25,0.4257666666666667,0.7266083333333334,18,17,"MOSTLY_CLEAR,NIGHT_CLEAR,NIGHT_CLEAR,NIGHT_CLEAR","Offshore,Offshore,Offshore,Offshore",4
5842041f4e65fad6a7708873,2024_02_13,28.091782738658846,-80.56479,Indialantic,2.8325,0.5049,0.8132,19,18,"CLEAR,NIGHT_CLEAR,NIGHT_CLEAR,NIGHT_CLEAR","Offshore,Offshore,Offshore,Offshore",4
5842041f4e65fad6a7708876,2024_02_13,27.25392904143517,-80.19455,Jensen Beach,3,0.72265,1.0264083333333334,22,20,"CLEAR,NIGHT_MOSTLY_CLOUDY,NIGHT_OVERCAST,NIGHT_CLEAR","Offshore,Offshore,Offshore,Offshore",4
5842041f4e65fad6a7708879,2024_02_13,26.76346795333825,-80.0360655784607,Reef Road,1.4175,0.2325583333333333,0.5348583333333333,24,22,"CLEAR,NIGHT_MOSTLY_CLOUDY,NIGHT_CLEAR,NIGHT_CLEAR","Offshore,Cross-shore,Offshore,Offshore",4
5842041f4e65fad6a770887c,2024_02_13,26.336499228484,-80.06956100463,Boca Raton Inlet,1,0.24330000000000002,0.5466,24,22,"CLEAR,NIGHT_CLEAR,NIGHT_OVERCAST,NIGHT_CLEAR","Cross-shore,Cross-shore,Offshore,Cross-shore",4
5842041f4e65fad6a770887d,2024_02_13,26.31719311695038,-80.07452525176168,Deerfield Beach Pier,0.25,0.11127354166666667,0.41442354166666673,24,23,"CLEAR,NIGHT_CLEAR,NIGHT_LIGHT_RAIN,NIGHT_CLEAR","Cross-shore,Cross-shore,Offshore,Cross-shore",4
5842041f4e65fad6a7708881,2024_02_13,30.20276320866628,-85.85626528676136,"Spyglass Dr., Panama City",1.75,1.0213,1.3367166666666668,17,16,"MOSTLY_CLOUDY,NIGHT_CLEAR,NIGHT_MOSTLY_CLOUDY,NIGHT_CLEAR","Onshore,Cross-shore,Cross-shore,Offshore",4
5842041f4e65fad6a7708884,2024_02_13,33.39000832738053,-117.59852,Cottons,2.5825,0.562325,0.91255,16,16,"CLEAR,NIGHT_CLEAR,NIGHT_CLEAR,NIGHT_CLEAR","Onshore,Cross-shore,Cross-shore,Offshore",4
5842041f4e65fad6a7708885,2024_02_13,33.359416282661,-117.54167901405711,Trails,2.75,0.3375,0.6475,15,15,"CLEAR,NIGHT_CLEAR,NIGHT_CLEAR,NIGHT_CLEAR","Onshore,Offshore,Offshore,Offshore",4
5842041f4e65fad6a7708886,2024_02_13,33.38042605929805,-117.58332,Middles,2.5425,0.44988333333333336,0.7508666666666666,16,16,"CLEAR,NIGHT_CLEAR,NIGHT_CLEAR,NIGHT_CLEAR","Onshore,Offshore,Offshore,Offshore",4
5842041f4e65fad6a7708887,2024_02_13,33.38445596302903,-117.59445,Upper Trestles,2.5825,0.6671166666666667,1.01505,16,16,"CLEAR,NIGHT_CLEAR,NIGHT_CLEAR,NIGHT_CLEAR","Onshore,Offshore,Offshore,Offshore",4
5842041f4e65fad6a7708889,2024_02_13,28.944414,-95.28883,Surfside,2,0.3183675,0.49744999999999995,16,16,"CLEAR,NIGHT_CLEAR,NIGHT_CLEAR,NIGHT_CLEAR","Offshore,Offshore,Offshore,Offshore",4
5842041f4e65fad6a770888a,2024_02_13,33.38143999849023,-117.58843,Lower Trestles,2.5825,0.6612833333333333,0.9676833333333333,16,16,"CLEAR,NIGHT_CLEAR,NIGHT_CLEAR,NIGHT_CLEAR","Onshore,Offshore,Offshore,Offshore",4
5842041f4e65fad6a770888b,2024_02_13,33.379622288757,-117.57894,Church,2.5425,0.42821666666666663,0.7396166666666667,16,16,"CLEAR,NIGHT_CLEAR,NIGHT_CLEAR,NIGHT_CLEAR","Onshore,Cross-shore,Offshore,Offshore",4
5842041f4e65fad6a770888d,2024_02_13,21.679,-158.042,Sunset Beach,2.7075,0.7720833333333332,1.2704166666666665,26,25,"CLEAR,NIGHT_CLEAR,NIGHT_MOSTLY_CLEAR,NIGHT_MOSTLY_CLOUDY","Onshore,Offshore,Offshore,Offshore",4
5842041f4e65fad6a770888e,2024_02_13,21.670550036401,-158.0482,Rocky Point,2.7925,0.8172916666666666,1.19,26,25,"CLEAR,NIGHT_MOSTLY_CLEAR,NIGHT_MOSTLY_CLEAR,NIGHT_MOSTLY_CLOUDY","Onshore,Offshore,Offshore,Offshore",4
5842041f4e65fad6a770888f,2024_02_13,21.668,-158.05,Chambers,2.75,0.7225,0.995,24,24,"CLEAR,NIGHT_MOSTLY_CLEAR,NIGHT_MOSTLY_CLEAR,NIGHT_MOSTLY_CLOUDY","Onshore,Offshore,Offshore,Offshore",4
5842041f4e65fad6a7708890,2024_02_13,21.66522,-158.0526,Pipeline,1,0.7741666666666667,1.0802083333333334,26,25,"CLEAR,NIGHT_MOSTLY_CLEAR,NIGHT_MOSTLY_CLEAR,NIGHT_MOSTLY_CLOUDY","Onshore,Offshore,Offshore,Offshore",4
5842041f4e65fad6a7708891,2024_02_13,21.665,-158.054,Backdoor,2.665,0.7741666666666667,1.0802083333333334,26,25,"CLEAR,NIGHT_MOSTLY_CLEAR,NIGHT_MOSTLY_CLEAR,NIGHT_MOSTLY_CLOUDY","Onshore,Offshore,Offshore,Offshore",4
5842041f4e65fad6a7708892,2024_02_13,21.662,-158.057,Rockpile,2.75,0.8,1.0375,24,24,"CLEAR,NIGHT_MOSTLY_CLEAR,NIGHT_MOSTLY_CLEAR,NIGHT_MOSTLY_CLOUDY","Onshore,Offshore,Offshore,Offshore",4
5842041f4e65fad6a7708893,2024_02_13,21.65870453806827,-158.06058,Log Cabins,2.25,0.58,0.8825000000000001,24,24,"CLEAR,NIGHT_MOSTLY_CLEAR,NIGHT_MOSTLY_CLEAR,NIGHT_MOSTLY_CLOUDY","Onshore,Offshore,Offshore,Offshore",4
5842041f4e65fad6a7708894,2024_02_13,21.66203493640557,-158.05495,Off-The-Wall,2.75,0.7375,1.0125,24,24,"CLEAR,NIGHT_MOSTLY_CLEAR,NIGHT_MOSTLY_CLEAR,NIGHT_MOSTLY_CLOUDY","Onshore,Offshore,Offshore,Offshore",4
5842041f4e65fad6a7708895,2024_02_13,21.643,-158.067,Waimea Bay,NA,0.861875,1.2952083333333333,26,25,"CLEAR,NIGHT_MOSTLY_CLEAR,NIGHT_MOSTLY_CLEAR,NIGHT_MOSTLY_CLOUDY","Onshore,Offshore,Offshore,Offshore",4
5842041f4e65fad6a7708896,2024_02_13,21.622,-158.087,Hultin's,2.75,0.7747916666666667,1.1793749999999998,26,25,"CLEAR,NIGHT_MOSTLY_CLEAR,NIGHT_MOSTLY_CLEAR,NIGHT_MOSTLY_CLOUDY","Onshore,Onshore,Onshore,Cross-shore",4
5842041f4e65fad6a7708897,2024_02_13,21.623,-158.085,Jocko's,3,0.6775,0.985,24,24,"CLEAR,NIGHT_MOSTLY_CLEAR,NIGHT_MOSTLY_CLEAR,NIGHT_MOSTLY_CLOUDY","Cross-shore,Cross-shore,Offshore,Onshore",4
5842041f4e65fad6a7708898,2024_02_13,21.62,-158.088,Laniakea,2.7925,0.83375,1.240625,26,25,"CLEAR,NIGHT_MOSTLY_CLEAR,NIGHT_MOSTLY_CLEAR,NIGHT_MOSTLY_CLOUDY","Onshore,Onshore,Cross-shore,Onshore",4
5842041f4e65fad6a7708899,2024_02_13,21.625,-158.083,Chun's,2.75,0.6775,0.9825,24,24,"CLEAR,NIGHT_MOSTLY_CLEAR,NIGHT_MOSTLY_CLEAR,NIGHT_MOSTLY_CLOUDY","Onshore,Onshore,Cross-shore,Onshore",4
5842041f4e65fad6a770889c,2024_02_13,21.286357895152136,-157.8515,South Shore - Ala Moana Park,2,0.2925,0.595,25,25,"MOSTLY_CLEAR,NIGHT_CLEAR,NIGHT_CLEAR,NIGHT_MOSTLY_CLEAR","Onshore,Offshore,Offshore,Offshore",4
5842041f4e65fad6a770889d,2024_02_13,19.606,-155.978,Banyans,2.7925,0.693975,0.999675,26,25,"CLEAR,NIGHT_CLEAR,NIGHT_CLEAR,NIGHT_CLEAR","Onshore,Cross-shore,Cross-shore,Cross-shore",4
5842041f4e65fad6a770889e,2024_02_13,20.029,-155.831,Kawaihae,2.75,0.6174700000000001,1.00848,25,25,"CLEAR,NIGHT_CLEAR,NIGHT_CLEAR,NIGHT_CLEAR","Onshore,Offshore,Offshore,Offshore",4
5842041f4e65fad6a770889f,2024_02_13,33.07541383424675,-117.3105,Grandview,2.5,0.4,0.7075,15,15,"CLEAR,NIGHT_MOSTLY_CLOUDY,NIGHT_MOSTLY_CLOUDY,NIGHT_MIST","Onshore,Offshore,Offshore,Offshore",4
5842041f4e65fad6a77088a0,2024_02_13,33.065267421296596,-117.30577,Beacons,2.25,0.41000000000000003,0.715,15,15,"CLEAR,NIGHT_MOSTLY_CLOUDY,NIGHT_MOSTLY_CLOUDY,NIGHT_MIST","Onshore,Offshore,Offshore,Offshore",4
5842041f4e65fad6a77088a2,2024_02_13,21.252,-157.805,Diamond Head,1.9575,0.5673575,0.8885325000000001,26,25,"CLEAR,NIGHT_CLEAR,NIGHT_CLEAR,NIGHT_MOSTLY_CLEAR","Cross-shore,Offshore,Offshore,Offshore",4
5842041f4e65fad6a77088a3,2024_02_13,33.04694255008896,-117.29966,Moonlight State Beach,2.75,0.44,0.745,15,15,"CLEAR,NIGHT_CLEAR,NIGHT_MOSTLY_CLOUDY,NIGHT_CLEAR","Onshore,Offshore,Offshore,Offshore",4
5842041f4e65fad6a77088a5,2024_02_13,33.08685865930869,-117.31532,Ponto,2.5,0.77,1.045,15,15,"CLEAR,NIGHT_MOSTLY_CLOUDY,NIGHT_MOSTLY_CLOUDY,NIGHT_MIST","Onshore,Offshore,Offshore,Offshore",4
5842041f4e65fad6a77088a6,2024_02_13,33.130343587871906,-117.33667796442558,Terra Mar Point,2.0825,0.3999666666666667,0.6987750000000001,15,15,"CLEAR,NIGHT_MIST,NIGHT_MIST,NIGHT_MIST","Cross-shore,Offshore,Offshore,Offshore",4
5842041f4e65fad6a77088af,2024_02_13,32.95916304183685,-117.26963,Del Mar,3,0.8875,1.1025,15,15,"CLEAR,NIGHT_MIST,NIGHT_MIST,NIGHT_MIST","Onshore,Offshore,Offshore,Offshore",4
5842041f4e65fad6a77088b0,2024_02_13,32.97527261243354,-117.2721061331305,Del Mar Rivermouth,2.75,0.9575,1.145,15,15,"CLEAR,NIGHT_MIST,NIGHT_MIST,NIGHT_MIST","Onshore,Offshore,Offshore,Offshore",4
5842041f4e65fad6a77088b1,2024_02_13,33.01352178146273,-117.28219,Cardiff Reef,2.5825,0.95205,1.2007833333333333,15,15,"CLEAR,NIGHT_MOSTLY_CLOUDY,NIGHT_MOSTLY_CLOUDY,NIGHT_CLEAR","Cross-shore,Onshore,Onshore,Offshore",4
5842041f4e65fad6a77088b3,2024_02_13,33.00211185876003,-117.2811,Seaside Reef,2.8325,0.9310083333333333,1.2145333333333332,15,15,"CLEAR,NIGHT_MIST,NIGHT_MIST,NIGHT_CLEAR","Cross-shore,Onshore,Onshore,Offshore",4
5842041f4e65fad6a77088b4,2024_02_13,33.0341859796287,-117.29552,Swami's,2.8325,0.9487166666666667,1.1598166666666667,15,15,"CLEAR,NIGHT_MOSTLY_CLOUDY,NIGHT_MOSTLY_CLOUDY,NIGHT_CLEAR","Onshore,Offshore,Offshore,Offshore",4
5842041f4e65fad6a77088b7,2024_02_13,33.04569760260221,-117.2994,D Street,2.75,0.625,0.9275,15,15,"CLEAR,NIGHT_CLEAR,NIGHT_MOSTLY_CLOUDY,NIGHT_CLEAR","Onshore,Offshore,Offshore,Offshore",4
5842041f4e65fad6a77088b8,2024_02_13,33.02090944350196,-117.28535,San Elijo State Beach,2.5825,0.5085083333333333,0.8470333333333333,15,15,"CLEAR,NIGHT_MOSTLY_CLOUDY,NIGHT_MOSTLY_CLOUDY,NIGHT_CLEAR","Cross-shore,Onshore,Onshore,Offshore",4
5842041f4e65fad6a77088c2,2024_02_13,32.80662846492798,-117.2688764333725,PB Point,3,1.0025,1.2,14,14,"CLEAR,NIGHT_MIST,NIGHT_MIST,NIGHT_MIST","Cross-shore,Cross-shore,Cross-shore,Offshore",4
5842041f4e65fad6a77088c4,2024_02_13,32.8060476681448,-117.26479,Old Man's at Tourmaline,2.75,0.7025,1.0075,14,14,"CLEAR,NIGHT_MIST,NIGHT_MIST,NIGHT_MIST","Cross-shore,Offshore,Cross-shore,Offshore",4
5842041f4e65fad6a77088cb,2024_02_13,32.557056711256,-117.1327445020322,Tijuana Slough,2.5,0.39,0.6924999999999999,14,14,"CLEAR,NIGHT_MIST,NIGHT_MIST,NIGHT_MOSTLY_CLEAR","Cross-shore,Offshore,Offshore,Offshore",4
5842041f4e65fad6a77088cc,2024_02_13,32.863,-117.257,La Jolla Shores,2.75,0.65,0.955,15,15,"MIST,NIGHT_MIST,NIGHT_DRIZZLE,NIGHT_CLEAR","Onshore,Onshore,Onshore,Offshore",4
5842041f4e65fad6a77088ce,2024_02_13,32.67443657790586,-117.17421316238693,Coronado Beach,3,0.5425,0.8225,14,14,"CLEAR,NIGHT_BRIEF_SHOWERS,NIGHT_OVERCAST,NIGHT_MOSTLY_CLOUDY","Offshore,Offshore,Offshore,Cross-shore",4
5842041f4e65fad6a77088cf,2024_02_13,33.40484417640326,-117.60749,San Clemente State Beach,2.75,0.3675,0.67,15,15,"CLEAR,NIGHT_CLEAR,NIGHT_CLEAR,NIGHT_CLEAR","Cross-shore,Offshore,Offshore,Offshore",4
5842041f4e65fad6a77088d5,2024_02_13,33.4663042002114,-117.7168352817103,Strands,2.7925,0.6312833333333334,0.9796333333333334,15,15,"CLEAR,NIGHT_CLEAR,NIGHT_MIST,NIGHT_MIST","Onshore,Offshore,Offshore,Offshore",4
5842041f4e65fad6a77088d7,2024_02_13,33.4609858001748,-117.68535,Doheny State Beach,1.75,0.08765,0.39113333333333333,16,16,"CLEAR,NIGHT_MIST,NIGHT_MIST,NIGHT_CLEAR","Onshore,Offshore,Offshore,Offshore",4
5842041f4e65fad6a77088dc,2024_02_13,33.50894790083017,-117.75243,Aliso Creek,2,0.23,0.535,15,15,"CLEAR,NIGHT_CLEAR,NIGHT_MOSTLY_CLEAR,NIGHT_CLEAR","Onshore,Offshore,Offshore,Offshore",4
5842041f4e65fad6a77088dd,2024_02_13,33.5326591767067,-117.77764,Brooks Street,2,0.12,0.425,15,15,"CLEAR,NIGHT_CLEAR,NIGHT_MOSTLY_CLEAR,NIGHT_CLEAR","Cross-shore,Cross-shore,Offshore,Offshore",4
5842041f4e65fad6a77088de,2024_02_13,33.53561225884637,-117.7799,Thalia Street,2,0.15000000000000002,0.4575,15,15,"CLEAR,NIGHT_CLEAR,NIGHT_MOSTLY_CLEAR,NIGHT_CLEAR","Cross-shore,Cross-shore,Offshore,Offshore",4
5842041f4e65fad6a77088e3,2024_02_13,33.54268310353641,-117.7916,Rockpile,2.25,0.3075,0.6125,15,15,"CLEAR,NIGHT_CLEAR,NIGHT_MOSTLY_CLEAR,NIGHT_CLEAR","Cross-shore,Offshore,Offshore,Offshore",4
5842041f4e65fad6a77088e4,2024_02_13,33.7368459504689,-118.10342,"Seal Beach Pier, Southside",1,0,0.2875,15,15,"CLEAR,NIGHT_CLEAR,NIGHT_MIST,NIGHT_MIST","Onshore,Offshore,Offshore,Offshore",4
5842041f4e65fad6a77088e5,2024_02_13,33.73933701820233,-118.117,Ray Bay,1.75,0.0075,0.31,15,15,"CLEAR,NIGHT_CLEAR,NIGHT_MIST,NIGHT_MIST","Onshore,Offshore,Offshore,Offshore",4
5842041f4e65fad6a77088e7,2024_02_13,33.728733,-118.08982,Surfside,1.75,0.23,0.5325,15,15,"CLEAR,NIGHT_CLEAR,NIGHT_MIST,NIGHT_MIST","Onshore,Offshore,Offshore,Offshore",4
5842041f4e65fad6a77088e8,2024_02_13,33.68760321488161,-118.04236,Bolsa Chica State Beach,2.5825,0.6162833333333334,0.9220583333333334,14,14,"CLEAR,NIGHT_CLEAR,NIGHT_MIST,NIGHT_MIST","Onshore,Offshore,Offshore,Offshore",4
5842041f4e65fad6a77088ea,2024_02_13,33.66704400178788,-118.0192,North HB Streets,2.5825,0.6312833333333334,0.9817166666666666,14,14,"CLEAR,NIGHT_CLEAR,NIGHT_CLEAR,NIGHT_MIST","Onshore,Cross-shore,Offshore,Cross-shore",4
5842041f4e65fad6a77088ed,2024_02_13,33.65475101379567,-118.00291,Huntington Beach Pier Southside,2.5425,0.617325,0.96755,14,14,"CLEAR,NIGHT_CLEAR,NIGHT_MIST,NIGHT_MIST","Onshore,Offshore,Offshore,Offshore",4
5842041f4e65fad6a77088ee,2024_02_13,33.62778647706099,-117.95939,River Jetties,2.2925,0.45238333333333336,0.7984416666666667,15,15,"CLEAR,NIGHT_CLEAR,NIGHT_CLEAR,NIGHT_CLEAR","Onshore,Offshore,Cross-shore,Offshore",4
5842041f4e65fad6a77088f2,2024_02_13,33.605165797643664,-117.92500376701355,Newport Point,2.75,0.38,0.6875,15,15,"CLEAR,NIGHT_CLEAR,NIGHT_CLEAR,NIGHT_CLEAR","Cross-shore,Cross-shore,Offshore,Cross-shore",4
5842041f4e65fad6a77088f3,2024_02_13,33.58982984726977,-117.87713,Corona del Mar,1,0.174615,0.272835,15,15,"CLEAR,NIGHT_CLEAR,NIGHT_CLEAR,NIGHT_CLEAR","Onshore,Offshore,Offshore,Offshore",4
5842041f4e65fad6a77088f7,2024_02_13,34.00750300824362,-118.4971783496269,Santa Monica Pier,1.75,0.0675,0.3725,15,15,"CLEAR,NIGHT_MIST,NIGHT_CLEAR,NIGHT_CLEAR","Onshore,Offshore,Offshore,Offshore",4
5842041f4e65fad6a77088ff,2024_02_13,33.94070283102945,-118.44321,Dockweiler Beach,2.5825,0.6942427083333333,0.9483629166666667,14,14,"CLEAR,NIGHT_CLEAR,NIGHT_CLEAR,NIGHT_CLEAR","Onshore,Offshore,Offshore,Offshore",4
5842041f4e65fad6a7708900,2024_02_13,33.9231846937237,-118.4341465777908,Shitpipe,1.8325,0.34386666666666665,0.6803083333333333,14,14,"CLEAR,NIGHT_CLEAR,NIGHT_CLEAR,NIGHT_CLEAR","Onshore,Onshore,Offshore,Offshore",4
5842041f4e65fad6a7708902,2024_02_13,33.9108528052242,-118.4279133138721,Hammerland,2.6675,0.460175,0.7991166666666667,14,14,"CLEAR,NIGHT_CLEAR,NIGHT_CLEAR,NIGHT_CLEAR","Onshore,Onshore,Offshore,Offshore",4
5842041f4e65fad6a7708904,2024_02_13,33.87201368173932,-118.4075151286262,Hermosa Beach,1.8325,0.30464166666666664,0.6105333333333334,14,14,"CLEAR,NIGHT_CLEAR,NIGHT_CLEAR,NIGHT_CLEAR","Onshore,Onshore,Onshore,Offshore",4
5842041f4e65fad6a7708906,2024_02_13,33.90129336911256,-118.42184,El Porto,3,0.8001750000000001,1.1084916666666667,14,14,"MIST,NIGHT_CLEAR,NIGHT_CLEAR,NIGHT_CLEAR","Onshore,Onshore,Onshore,Offshore",4
5842041f4e65fad6a7708907,2024_02_13,33.87963506431794,-118.41102,Manhattan Beach Pier,2.8325,0.7845500000000001,1.0629416666666667,14,14,"MIST,NIGHT_CLEAR,NIGHT_CLEAR,NIGHT_CLEAR","Onshore,Onshore,Onshore,Offshore",4
5842041f4e65fad6a7708914,2024_02_13,34.038053387863464,-118.5532,Sunset Point,1.5,0.0025,0.305,15,15,"CLEAR,NIGHT_CLEAR,NIGHT_CLEAR,NIGHT_CLEAR","Onshore,Offshore,Offshore,Cross-shore",4
5842041f4e65fad6a7708920,2024_02_13,33.80930828074364,-118.3933198342649,Haggerty's,1.25,0.1155,0.3,15,15,"CLEAR,NIGHT_CLEAR,NIGHT_CLEAR,NIGHT_CLEAR","Onshore,Onshore,Onshore,Offshore",4
5842041f4e65fad6a7708921,2024_02_13,33.85044519861206,-118.40048,Redondo Breakwater,2.75,0.52,0.8250000000000001,15,15,"CLEAR,NIGHT_CLEAR,NIGHT_CLEAR,NIGHT_CLEAR","Onshore,Onshore,Onshore,Offshore",4
5842041f4e65fad6a7708927,2024_02_13,33.70877301002487,-118.2840112858389,Cabrillo Beach,1,0,0.2575,15,15,"CLEAR,NIGHT_CLEAR,NIGHT_CLEAR,NIGHT_CLEAR","Offshore,Offshore,Offshore,Onshore",4
5842041f4e65fad6a770892c,2024_02_13,33.77209986806257,-118.4268428476672,Lunada Bay,1,0.3675,0.675,15,15,"CLEAR,NIGHT_CLEAR,NIGHT_CLEAR,NIGHT_CLEAR","Onshore,Onshore,Onshore,Onshore",4
5842041f4e65fad6a770892d,2024_02_13,33.79294656286144,-118.4070316699825,PV Cove,2,0.4927975,0.7464325,15,15,"CLEAR,NIGHT_CLEAR,NIGHT_CLEAR,NIGHT_CLEAR","Onshore,Onshore,Onshore,Offshore",4
5842041f4e65fad6a7708930,2024_02_13,34.03944902292561,-118.57539,Chart House,0,0,0.1375,15,15,"CLEAR,NIGHT_CLEAR,NIGHT_CLEAR,NIGHT_CLEAR","Onshore,Offshore,Offshore,Offshore",4
5842041f4e65fad6a7708936,2024_02_13,34.0016731994772,-118.80456,Point Dume,2.1675,0.225325,0.5293416666666666,15,15,"CLEAR,NIGHT_CLEAR,NIGHT_CLEAR,NIGHT_CLEAR","Cross-shore,Offshore,Offshore,Cross-shore",4
5842041f4e65fad6a7708937,2024_02_13,34.02587527588963,-118.7554939066114,Latigo Point,2,0.1775,0.4825,15,15,"CLEAR,NIGHT_CLEAR,NIGHT_CLEAR,NIGHT_CLEAR","Cross-shore,Offshore,Offshore,Offshore",4
5842041f4e65fad6a770893f,2024_02_13,34.043762,-118.93294,Leo Carrillo,2.5,0.40532500000000005,0.7064250000000001,15,15,"CLEAR,NIGHT_CLEAR,NIGHT_CLEAR,NIGHT_CLEAR","Cross-shore,Offshore,Offshore,Offshore",4
5842041f4e65fad6a7708941,2024_02_13,36.69388179265737,-121.81289,Marina State Beach,3,1.71,2.005,13,13,"CLEAR,NIGHT_MIST,NIGHT_MOSTLY_CLOUDY,NIGHT_CLEAR","Onshore,Cross-shore,Cross-shore,Offshore",4
5842041f4e65fad6a7708944,2024_02_13,34.34145077331085,-119.416999352654,Stanley's,2,0.095,0.395,15,15,"CLEAR,NIGHT_CLEAR,NIGHT_CLEAR,NIGHT_CLEAR","Onshore,Offshore,Offshore,Offshore",4
5842041f4e65fad6a7708945,2024_02_13,34.35113017313915,-119.426921498899,Oil Piers,2,0.115,0.42,15,15,"CLEAR,NIGHT_CLEAR,NIGHT_CLEAR,NIGHT_CLEAR","Onshore,Offshore,Offshore,Offshore",4
5842041f4e65fad6a770894c,2024_02_13,34.17876333306018,-119.2399483564372,Oxnard,2.75,0.4475,0.755,15,15,"CLEAR,NIGHT_MOSTLY_CLOUDY,NIGHT_MIST,NIGHT_MIST","Onshore,Offshore,Offshore,Offshore",4
5842041f4e65fad6a7708957,2024_02_13,34.31720331100517,-119.3882324751725,Pitas Point,2,0.1325,0.4375,15,15,"CLEAR,NIGHT_MOSTLY_CLEAR,NIGHT_CLEAR,NIGHT_CLEAR","Cross-shore,Offshore,Offshore,Offshore",4
5842041f4e65fad6a7708959,2024_02_13,34.27851754384724,-119.316202617226,Emma Wood,1.75,0.11750000000000001,0.4275,15,15,"CLEAR,NIGHT_MOSTLY_CLEAR,NIGHT_MOSTLY_CLEAR,NIGHT_CLEAR","Onshore,Offshore,Offshore,Offshore",4
5842041f4e65fad6a770895a,2024_02_13,34.35513640390276,-119.4400589884255,Mussel Shoals (aka Little Rincon),2,0.19,0.495,15,15,"CLEAR,NIGHT_CLEAR,NIGHT_CLEAR,NIGHT_CLEAR","Cross-shore,Cross-shore,Cross-shore,Cross-shore",4
5842041f4e65fad6a770895e,2024_02_13,34.28991757054902,-119.3366646794652,Summer Beach,1.75,0.08,0.385,15,15,"CLEAR,NIGHT_MOSTLY_CLEAR,NIGHT_MOSTLY_CLEAR,NIGHT_CLEAR","Onshore,Offshore,Offshore,Offshore",4
5842041f4e65fad6a770895f,2024_02_13,34.30897456105926,-119.3582501170116,Solimar,2,0.07,0.375,15,15,"CLEAR,NIGHT_MOSTLY_CLEAR,NIGHT_CLEAR,NIGHT_CLEAR","Cross-shore,Offshore,Offshore,Offshore",4
5842041f4e65fad6a7708960,2024_02_13,34.39836265281686,-119.70213,Leadbetter Point,1,0,0.20500000000000002,15,15,"CLEAR,NIGHT_CLEAR,NIGHT_CLEAR,NIGHT_CLEAR","Cross-shore,Offshore,Offshore,Cross-shore",4
5842041f4e65fad6a7708961,2024_02_13,34.46052293893899,-120.07328,Refugio,1.25,0.005,0.2775,14,14,"CLEAR,NIGHT_CLEAR,NIGHT_CLEAR,NIGHT_CLEAR","Cross-shore,Offshore,Offshore,Offshore",4
5842041f4e65fad6a7708962,2024_02_13,34.40754276777778,-119.87639,Devereux,2,0.175,0.48000000000000004,14,14,"CLEAR,NIGHT_CLEAR,NIGHT_CLEAR,NIGHT_CLEAR","Cross-shore,Offshore,Offshore,Offshore",4
5842041f4e65fad6a7708963,2024_02_13,34.27479983305182,-119.3133222656776,Ventura Overhead,1.75,0.14750000000000002,0.45,15,15,"CLEAR,NIGHT_MOSTLY_CLEAR,NIGHT_MOSTLY_CLEAR,NIGHT_CLEAR","Onshore,Cross-shore,Offshore,Offshore",4
5842041f4e65fad6a7708964,2024_02_13,34.41023236011655,-119.88261,Sands,2,0.1825,0.4875,14,14,"CLEAR,NIGHT_CLEAR,NIGHT_CLEAR,NIGHT_CLEAR","Onshore,Offshore,Offshore,Offshore",4
5842041f4e65fad6a7708966,2024_02_13,34.40450193869233,-119.68752,Sandspit,0.75,0,0.1375,15,15,"CLEAR,NIGHT_CLEAR,NIGHT_CLEAR,NIGHT_CLEAR","Cross-shore,Offshore,Offshore,Offshore",4
5842041f4e65fad6a7708967,2024_02_13,34.41549098334453,-119.6375149840203,Hammond's,1,0,0.1575,14,14,"CLEAR,NIGHT_CLEAR,NIGHT_CLEAR,NIGHT_CLEAR","Cross-shore,Offshore,Offshore,Cross-shore",4
5842041f4e65fad6a7708968,2024_02_13,34.45759322742309,-120.0220251867315,El Capitan,1.25,0.015,0.31,14,14,"CLEAR,NIGHT_CLEAR,NIGHT_CLEAR,NIGHT_CLEAR","Cross-shore,Offshore,Offshore,Offshore",4
5842041f4e65fad6a770896c,2024_02_13,34.405117655616,-119.84317,Campus Point,1,0,0.2475,14,14,"CLEAR,NIGHT_CLEAR,NIGHT_CLEAR,NIGHT_CLEAR","Cross-shore,Offshore,Offshore,Offshore",4
5842041f4e65fad6a770896e,2024_02_13,34.38935162233354,-119.51955,Carpinteria State Beach,2,0.0675,0.37,15,15,"CLEAR,NIGHT_CLEAR,NIGHT_CLEAR,NIGHT_CLEAR","Onshore,Offshore,Offshore,Offshore",4
5842041f4e65fad6a770896f,2024_02_13,37.48296565175612,-122.4549300127824,Half Moon Bay,3,1.055,1.26,13,13,"CLEAR,NIGHT_CLEAR,NIGHT_CLEAR,NIGHT_CLEAR","Onshore,Offshore,Offshore,Offshore",4
5842041f4e65fad6a7708970,2024_02_13,37.499,-122.471,Princeton Jetty,3.25,1.21,1.4475,13,13,"CLEAR,NIGHT_CLEAR,NIGHT_CLEAR,NIGHT_CLEAR","Cross-shore,Offshore,Offshore,Offshore",4
5842041f4e65fad6a7708972,2024_02_13,37.35699547365155,-122.4069534707252,Tunitas Creek,3,2.045,2.385,13,13,"CLEAR,NIGHT_CLEAR,NIGHT_CLEAR,NIGHT_CLEAR","Cross-shore,Offshore,Offshore,Cross-shore",4
5842041f4e65fad6a7708974,2024_02_13,37.54735589428842,-122.5161090212687,Montara,3,1.5425,1.8399999999999999,13,13,"MIST,NIGHT_MIST,NIGHT_CLEAR,NIGHT_BRIEF_SHOWERS","Onshore,Cross-shore,Cross-shore,Onshore",4
5842041f4e65fad6a7708975,2024_02_13,34.3869373724559,-119.5142334209018,Tarpits,2,0.049999999999999996,0.35750000000000004,15,15,"CLEAR,NIGHT_CLEAR,NIGHT_CLEAR,NIGHT_CLEAR","Cross-shore,Offshore,Offshore,Offshore",4
5842041f4e65fad6a7708976,2024_02_13,37.59881852720143,-122.50463,Pacifica / Linda Mar,2.9175,0.58345,0.919475,14,14,"MIST,NIGHT_CLEAR,NIGHT_CLEAR,NIGHT_MOSTLY_CLOUDY","Onshore,Cross-shore,Offshore,Onshore",4
5842041f4e65fad6a7708978,2024_02_13,37.59883098461164,-122.5143843582282,Pedro Point,3.5,1.495,1.7925,13,13,"MOSTLY_CLOUDY,NIGHT_CLEAR,NIGHT_CLEAR,NIGHT_MOSTLY_CLOUDY","Onshore,Cross-shore,Cross-shore,Onshore",4
5842041f4e65fad6a7708979,2024_02_13,37.61081996647663,-122.4973287570634,Rockaway,3,1.4975,1.7625,13,13,"MIST,NIGHT_CLEAR,NIGHT_CLEAR,NIGHT_MOSTLY_CLOUDY","Onshore,Offshore,Offshore,Onshore",4
5842041f4e65fad6a770897a,2024_02_13,37.809987384424446,-122.4751353263855,Fort Point,3,0.9375,1.185,13,13,"MIST,NIGHT_CLEAR,NIGHT_CLEAR,NIGHT_CLEAR","Cross-shore,Onshore,Cross-shore,Onshore",4
5842041f4e65fad6a770897c,2024_02_13,37.63422542967464,-122.4951,Sharp Park,3,1.6175000000000002,1.9325,13,13,"MIST,NIGHT_CLEAR,NIGHT_CLEAR,NIGHT_MIST","Onshore,Offshore,Cross-shore,Onshore",4
5842041f4e65fad6a770897d,2024_02_13,37.27313605072472,-122.4127387912554,Pescadero,3,1.9625,2.2925,13,13,"CLEAR,NIGHT_MIST,NIGHT_CLEAR,NIGHT_CLEAR","Onshore,Cross-shore,Cross-shore,Offshore",4
5842041f4e65fad6a770897e,2024_02_13,37.18140279972666,-122.3926685899327,Pigeon Point,4,1.8900000000000001,2.2325,13,13,"CLEAR,NIGHT_CLEAR,NIGHT_CLEAR,NIGHT_CLEAR","Offshore,Offshore,Offshore,Offshore",4
5842041f4e65fad6a770897f,2024_02_13,37.11578956919415,-122.314699271291,Ano Nuevo,4,1.5150000000000001,1.81,13,13,"MOSTLY_CLOUDY,NIGHT_CLEAR,NIGHT_CLEAR,NIGHT_CLEAR","Offshore,Offshore,Offshore,Cross-shore",4
5842041f4e65fad6a7708980,2024_02_13,37.09520872681598,-122.2805474707768,Waddell Creek,3.75,1.53,1.83,13,13,"MOSTLY_CLEAR,NIGHT_CLEAR,NIGHT_CLEAR,NIGHT_CLEAR","Cross-shore,Offshore,Offshore,Offshore",4
5842041f4e65fad6a7708981,2024_02_13,36.96512852130351,-122.1252825495626,Four Mile,4,1.63,1.9475,13,13,"MIST,NIGHT_CLEAR,NIGHT_CLEAR,NIGHT_CLEAR","Offshore,Cross-shore,Offshore,Cross-shore",4
5842041f4e65fad6a7708982,2024_02_13,37.04122807048655,-122.2333684729756,Scott Creek,3.5,1.57,1.875,13,13,"MIST,NIGHT_CLEAR,NIGHT_CLEAR,NIGHT_CLEAR","Cross-shore,Offshore,Offshore,Offshore",4
5842041f4e65fad6a7708983,2024_02_13,37.02350229387179,-122.21908,Davenport,4,1.665,1.9925,13,13,"MIST,NIGHT_CLEAR,NIGHT_CLEAR,NIGHT_CLEAR","Cross-shore,Offshore,Offshore,Cross-shore",4
5842041f4e65fad6a7708986,2024_02_13,36.94905295955728,-122.0611823912244,Natural Bridges,3.25,1.31,1.57,13,13,"CLEAR,NIGHT_MIST,NIGHT_FOG,NIGHT_MIST","Cross-shore,Offshore,Offshore,Offshore",4
5842041f4e65fad6a7708987,2024_02_13,36.95154854910425,-122.0420693940968,Mitchell's Cove,3.25,1.04,1.2425,13,13,"CLEAR,NIGHT_MIST,NIGHT_FOG,NIGHT_MOSTLY_CLOUDY","Cross-shore,Cross-shore,Cross-shore,Cross-shore",4
5842041f4e65fad6a770898a,2024_02_13,36.9572312370203,-121.98177,26th Ave,3.75,1.3325,1.5925,13,13,"CLEAR,NIGHT_MIST,NIGHT_FOG,NIGHT_MOSTLY_CLEAR","Onshore,Offshore,Cross-shore,Offshore",4
5842041f4e65fad6a770898e,2024_02_13,36.91899972819882,-121.85536,Manresa,3.5,1.3925,1.6625,13,13,"MIST,NIGHT_MIST,NIGHT_MOSTLY_CLOUDY,NIGHT_MIST","Onshore,Cross-shore,Cross-shore,Offshore",4
5842041f4e65fad6a7708990,2024_02_13,34.45747731928454,-120.34242,The Ranch,1.5,0.27749999999999997,0.585,14,14,"CLEAR,NIGHT_CLEAR,NIGHT_CLEAR,NIGHT_CLEAR","Cross-shore,Offshore,Offshore,Offshore",4
5842041f4e65fad6a7708991,2024_02_13,34.50875036590315,-120.50348,Jalama,3,1.0725,1.28,14,14,"CLEAR,NIGHT_CLEAR,NIGHT_CLEAR,NIGHT_CLEAR","Onshore,Offshore,Offshore,Offshore",4
5842041f4e65fad6a7708996,2024_02_13,34.68700870220497,-120.6111611019887,Surf Beach,2.75,2.35,2.79,14,14,"MIST,NIGHT_MIST,NIGHT_MIST,NIGHT_MIST","Onshore,Onshore,Cross-shore,Onshore",4
5842041f4e65fad6a770899c,2024_02_13,35.5730538161116,-121.1143362345574,Moonstone,3.75,1.7025000000000001,2.0375,14,14,"CLEAR,NIGHT_CLEAR,NIGHT_CLEAR,NIGHT_CLEAR","Onshore,Offshore,Offshore,Offshore",4
5842041f4e65fad6a770899d,2024_02_13,35.61533716776573,-121.1502053073914,Pico Creek,3,1.305,1.56,14,14,"CLEAR,NIGHT_CLEAR,NIGHT_CLEAR,NIGHT_CLEAR","Onshore,Offshore,Offshore,Offshore",4
5842041f4e65fad6a770899e,2024_02_13,35.56829031927379,-121.1120653023953,Santa Rosa Creek,3.5,1.7025000000000001,2.0375,14,14,"MIST,NIGHT_CLEAR,NIGHT_CLEAR,NIGHT_CLEAR","Onshore,Offshore,Offshore,Offshore",4
5842041f4e65fad6a77089a2,2024_02_13,35.44820114936284,-120.90715,"Cayucos Pier, Southside ",3,0.785,1.0875,14,14,"CLEAR,NIGHT_CLEAR,NIGHT_CLEAR,NIGHT_CLEAR","Onshore,Offshore,Offshore,Offshore",4
5842041f4e65fad6a77089a4,2024_02_13,35.30143372628852,-120.877819239902,Cable Landing,2.75,2.395,2.85,14,14,"BRIEF_SHOWERS,NIGHT_MOSTLY_CLOUDY,NIGHT_CLEAR,NIGHT_CLEAR","Onshore,Offshore,Offshore,Offshore",4
5842041f4e65fad6a77089a9,2024_02_13,35.61269103500222,-121.1480725356606,San Simeon,3,0.8714999999999999,1.0605,14,14,"CLEAR,NIGHT_CLEAR,NIGHT_CLEAR,NIGHT_CLEAR","Onshore,Offshore,Offshore,Offshore",4
5842041f4e65fad6a77089ab,2024_02_13,35.1775325966252,-120.7341125142258,Avila Beach,2,0.052500000000000005,0.3575,14,14,"CLEAR,NIGHT_CLEAR,NIGHT_CLEAR,NIGHT_CLEAR","Onshore,Offshore,Offshore,Offshore",4
5842041f4e65fad6a77089ac,2024_02_13,35.13877877884115,-120.64535,Pismo Beach Pier,3,1.1918416666666667,1.5227916666666665,14,14,"CLEAR,NIGHT_MIST,NIGHT_MIST,NIGHT_CLEAR","Cross-shore,Cross-shore,Cross-shore,Cross-shore",4
5842041f4e65fad6a77089ad,2024_02_13,46.8907710233147,-124.12964,Westport/Olympic Peninsula,3.75,1.5725,1.8625,11,11,"MOSTLY_CLOUDY,NIGHT_MOSTLY_CLOUDY,NIGHT_MOSTLY_CLOUDY,NIGHT_MOSTLY_CLEAR","Cross-shore,Offshore,Offshore,Offshore",4
5842041f4e65fad6a77089ae,2024_02_13,46.35185177248545,-124.06747,Long Beach Peninsula,3.5,2.3775,2.66,10,10,"CLEAR,NIGHT_CLEAR,NIGHT_CLEAR,NIGHT_CLEAR","Onshore,Offshore,Offshore,Offshore",4
5842041f4e65fad6a77089af,2024_02_13,47.90649175554033,-124.6370864743483,La Push,3.5,1.8525,2.12,10,10,"MOSTLY_CLOUDY,NIGHT_FOG,NIGHT_MOSTLY_CLOUDY,NIGHT_MOSTLY_CLEAR","Onshore,Cross-shore,Cross-shore,Offshore",4
5842041f4e65fad6a77089b0,2024_02_13,42.04368239985442,-124.26828,Brookings Jetty,3,0.9588175,1.4981525,12,12,"CLEAR,NIGHT_CLEAR,NIGHT_CLEAR,NIGHT_CLEAR","Onshore,Offshore,Offshore,Cross-shore",4
5842041f4e65fad6a77089b1,2024_02_13,42.74071837900346,-124.4983727491047,Port Orford,3.25,1.1825,1.435,11,11,"CLEAR,NIGHT_MOSTLY_CLOUDY,NIGHT_MOSTLY_CLOUDY,NIGHT_FOG","Offshore,Onshore,Onshore,Onshore",4
5842041f4e65fad6a77089b2,2024_02_13,44.01532689312291,-124.13865,Florence South Jetty,3.5,2.2975000000000003,2.6075,11,11,"CLEAR,NIGHT_CLEAR,NIGHT_CLEAR,NIGHT_CLEAR","Cross-shore,Offshore,Offshore,Offshore",4
5842041f4e65fad6a77089b3,2024_02_13,42.41812540774362,-124.42945,Gold Beach South Jetty,3,1.6875,1.96,11,11,"CLEAR,NIGHT_CLEAR,NIGHT_MOSTLY_CLEAR,NIGHT_MOSTLY_CLOUDY","Offshore,Onshore,Onshore,Onshore",4
5842041f4e65fad6a77089b4,2024_02_13,44.95857310226525,-124.0219017690976,Lincoln City,3.75,2.3225,2.6325,11,11,"MOSTLY_CLOUDY,NIGHT_MOSTLY_CLEAR,NIGHT_CLEAR,NIGHT_CLEAR","Cross-shore,Offshore,Offshore,Offshore",4
5842041f4e65fad6a77089b5,2024_02_13,44.63792761362982,-124.0657,Newport,3.75,2.4075,2.73,11,11,"MOSTLY_CLOUDY,NIGHT_CLEAR,NIGHT_CLEAR,NIGHT_CLEAR","Cross-shore,Offshore,Offshore,Offshore",4
5842041f4e65fad6a77089b6,2024_02_13,45.61468496266301,-123.94643,Rockaway Beach,3.75,2.3825,2.7125,11,11,"MIST,NIGHT_CLEAR,NIGHT_CLEAR,NIGHT_CLEAR","Onshore,Offshore,Offshore,Offshore",4
5842041f4e65fad6a77089b7,2024_02_13,45.20252914186085,-123.96975,Pacific City,3.75,1.99,2.2649999999999997,11,11,"MOSTLY_CLOUDY,NIGHT_CLEAR,NIGHT_CLEAR,NIGHT_CLEAR","Onshore,Offshore,Offshore,Offshore",4
5842041f4e65fad6a77089b8,2024_02_13,45.88179930310263,-123.96681,Cannon Beach,3.5,2.3200000000000003,2.6,10,10,"MOSTLY_CLOUDY,NIGHT_CLEAR,NIGHT_CLEAR,NIGHT_CLEAR","Onshore,Offshore,Offshore,Offshore",4
5842041f4e65fad6a77089ba,2024_02_13,40.02528754746774,-124.06372,Shelter Cove,2.75,0.5483899999999999,0.8568625000000001,12,12,"BRIEF_SHOWERS,NIGHT_MOSTLY_CLEAR,NIGHT_MOSTLY_CLEAR,NIGHT_CLEAR","Onshore,Onshore,Onshore,Onshore",4
5842041f4e65fad6a77089bb,2024_02_13,40.76816197136951,-124.24248,Humboldt Harbor Entrance,3,2.165,2.5175,12,12,"MIST,NIGHT_FOG,NIGHT_MOSTLY_CLOUDY,NIGHT_CLEAR","Onshore,Onshore,Onshore,Cross-shore",4
5842041f4e65fad6a77089bc,2024_02_13,40.76684246920174,-124.23107,North Jetty,3,2.57,2.91,12,12,"MOSTLY_CLOUDY,NIGHT_FOG,NIGHT_FOG,NIGHT_CLEAR","Onshore,Onshore,Onshore,Cross-shore",4
5842041f4e65fad6a77089bd,2024_02_13,41.02731183893966,-124.1149972888982,Westhaven,2.75,2.99,3.38,12,12,"MOSTLY_CLOUDY,NIGHT_MIST,NIGHT_BRIEF_SHOWERS,NIGHT_MOSTLY_CLEAR","Onshore,Offshore,Offshore,Cross-shore",4
5842041f4e65fad6a77089be,2024_02_13,41.13016238153297,-124.16466,Sue-meg,3.5,2.01,2.37,12,12,"CLEAR,NIGHT_CLEAR,NIGHT_CLEAR,NIGHT_CLEAR","Onshore,Offshore,Cross-shore,Cross-shore",4
5842041f4e65fad6a77089bf,2024_02_13,37.8289474958188,-122.5376795097543,Fort Cronkite/Rodeo Beach,3,1.7149999999999999,2.0425,13,13,"MIST,NIGHT_CLEAR,NIGHT_CLEAR,NIGHT_CLEAR","Cross-shore,Cross-shore,Onshore,Cross-shore",4
5842041f4e65fad6a77089c0,2024_02_13,41.74415759876137,-124.1771718063073,South Beach CA,3,1.0775000000000001,1.2825,12,12,"OVERCAST,NIGHT_CLEAR,NIGHT_CLEAR,NIGHT_MOSTLY_CLEAR","Cross-shore,Onshore,Onshore,Offshore",4
5842041f4e65fad6a77089c1,2024_02_13,37.89801283969752,-122.64519,Stinson Beach,3,0.4525,0.76,13,13,"MOSTLY_CLEAR,NIGHT_CLEAR,NIGHT_CLEAR,NIGHT_CLEAR","Offshore,Cross-shore,Offshore,Offshore",4
5842041f4e65fad6a77089c2,2024_02_13,37.90514516176495,-122.68151,Bolinas,3,0.4247375,0.663655,13,13,"MOSTLY_CLEAR,NIGHT_CLEAR,NIGHT_CLEAR,NIGHT_CLEAR","Offshore,Onshore,Cross-shore,Cross-shore",4
5842041f4e65fad6a77089c3,2024_02_13,38.04892513158693,-122.9892494965416,Point Reyes (north),3,2.3725,2.7375,13,13,"CLEAR,NIGHT_MIST,NIGHT_CLOUDY,NIGHT_MIST","Onshore,Cross-shore,Onshore,Onshore",4
5842041f4e65fad6a77089c6,2024_02_13,38.31088736605785,-123.0496777333731,Doran Beach,2.25,0.255,0.5625,13,13,"MOSTLY_CLOUDY,NIGHT_MIST,NIGHT_CLEAR,NIGHT_CLEAR","Offshore,Offshore,Offshore,Offshore",4
5842041f4e65fad6a77089c7,2024_02_13,38.45077228660809,-123.13008,Russian Rivermouth,3,1.7475,2.07,12,12,"MOSTLY_CLOUDY,NIGHT_CLEAR,NIGHT_CLEAR,NIGHT_MOSTLY_CLOUDY","Onshore,Cross-shore,Cross-shore,Cross-shore",4
5842041f4e65fad6a77089c8,2024_02_13,38.35329968518107,-123.06906,Salmon Creek,3,1.85,2.1475,13,13,"CLEAR,NIGHT_MIST,NIGHT_MIST,NIGHT_CLEAR","Onshore,Cross-shore,Cross-shore,Onshore",4
5842041f4e65fad6a77089c9,2024_02_13,38.6845180197959,-123.4322714291198,Black Point Beach,4,1.1,1.37,13,13,"MIST,NIGHT_CLEAR,NIGHT_CLEAR,NIGHT_CLEAR","Cross-shore,Cross-shore,Cross-shore,Offshore",4
5842041f4e65fad6a77089ca,2024_02_13,43.251076,-70.59144,Ogunquit,1.4575,0.11111666666666667,0.41431666666666667,5,4,"NIGHT_CLEAR,NIGHT_CLOUDY,NIGHT_OVERCAST,NIGHT_MOSTLY_CLOUDY","Cross-shore,Cross-shore,Onshore,Cross-shore",4
5842041f4e65fad6a77089cb,2024_02_13,41.362631366305415,-71.48006772942608,Point Judith,1.25,0.19695000000000001,0.49869166666666664,7,6,"NIGHT_CLOUDY,NIGHT_CLEAR,NIGHT_CLEAR,NIGHT_CLEAR","Cross-shore,Onshore,Onshore,Onshore",4
5842041f4e65fad6a77089cd,2024_02_13,41.422678090954726,-71.45413,Monahan's - Narragansett,1.25,0.181645,0.2838175,5,5,"NIGHT_OVERCAST,NIGHT_CLEAR,NIGHT_CLEAR,NIGHT_CLEAR","Offshore,Cross-shore,Cross-shore,Cross-shore",4
5842041f4e65fad6a77089ce,2024_02_13,41.469,-71.293,Ruggles - Newport,2,0.4502225,0.7034775,5,5,"NIGHT_CLOUDY,NIGHT_MOSTLY_CLOUDY,NIGHT_CLEAR,NIGHT_BRIEF_SHOWERS_POSSIBLE","Onshore,Offshore,Offshore,Offshore",4
5842041f4e65fad6a77089cf,2024_02_13,43.175394,-70.606351,Short Sands Beach,1.25,0.07,0.37,4,4,"NIGHT_CLEAR,NIGHT_MOSTLY_CLOUDY,NIGHT_OVERCAST,NIGHT_MOSTLY_CLOUDY","Cross-shore,Onshore,Onshore,Onshore",4
5842041f4e65fad6a77089d0,2024_02_13,41.487408,-71.29017,First Beach,2,0.075,0.3775,5,5,"NIGHT_CLEAR,NIGHT_MOSTLY_CLOUDY,NIGHT_CLEAR,NIGHT_CLEAR","Onshore,Offshore,Offshore,Offshore",4
5842041f4e65fad6a77089d1,2024_02_13,42.27916830233153,-70.86498,Nantasket Beach,1.25,0.1432,0.4499416666666667,5,4,"NIGHT_CLEAR,NIGHT_CLOUDY,NIGHT_CLEAR,NIGHT_CLOUDY","Cross-shore,Onshore,Onshore,Onshore",4
5842041f4e65fad6a77089d2,2024_02_13,41.817,-69.935,Cape Cod,1.25,0.07250000000000001,0.375,4,4,"NIGHT_CLEAR,NIGHT_MOSTLY_CLEAR,NIGHT_MOSTLY_CLOUDY,NIGHT_CLOUDY","Cross-shore,Onshore,Onshore,Onshore",4
5842041f4e65fad6a77089d3,2024_02_13,42.22055448975661,-70.70634873403819,Egypt Beach,1.25,0.125,0.4325,4,4,"NIGHT_CLEAR,NIGHT_CLOUDY,NIGHT_CLEAR,NIGHT_CLOUDY","Cross-shore,Onshore,Onshore,Onshore",4
5842041f4e65fad6a77089d4,2024_02_13,41.48739647744607,-71.25723,Second Beach,1.75,0.25388166666666667,0.44113708333333335,7,6,"NIGHT_CLEAR,NIGHT_MOSTLY_CLOUDY,NIGHT_CLEAR,NIGHT_DRIZZLE","Onshore,Offshore,Offshore,Offshore",4
5842041f4e65fad6a77089d5,2024_02_13,42.964,-70.769,Fox Hill,1.4575,0.06590833333333333,0.37015000000000003,5,4,"NIGHT_CLEAR,NIGHT_MOSTLY_CLOUDY,NIGHT_MOSTLY_CLOUDY,NIGHT_OVERCAST","Onshore,Cross-shore,Cross-shore,Cross-shore",4
5842041f4e65fad6a77089d6,2024_02_13,42.991359,-70.75149,Straws Point,1.2075,0.04445,0.28765,5,4,"NIGHT_CLEAR,NIGHT_CLEAR,NIGHT_MOSTLY_CLOUDY,NIGHT_MOSTLY_CLOUDY","Onshore,Cross-shore,Cross-shore,Cross-shore",4
5842041f4e65fad6a77089d7,2024_02_13,42.946,-70.786,Plaice Cove,1.4575,0.06590833333333333,0.37015000000000003,5,4,"NIGHT_CLEAR,NIGHT_CLEAR,NIGHT_MOSTLY_CLOUDY,NIGHT_OVERCAST","Cross-shore,Onshore,Onshore,Onshore",4
5842041f4e65fad6a77089d9,2024_02_13,42.911574,-70.80831,The Main Beach,0.875,0.3057575,0.61109875,6,4,"NIGHT_CLEAR,NIGHT_CLEAR,NIGHT_MOSTLY_CLOUDY,NIGHT_MOSTLY_CLOUDY","Onshore,Cross-shore,Cross-shore,Cross-shore",4
5842041f4e65fad6a77089da,2024_02_13,42.97583846220203,-70.764,Sawyer's Beach,1.2075,0.04445,0.25848333333333334,5,4,"NIGHT_CLEAR,NIGHT_MOSTLY_CLOUDY,NIGHT_MOSTLY_CLOUDY,NIGHT_OVERCAST","Onshore,Onshore,Cross-shore,Cross-shore",4
5842041f4e65fad6a77089db,2024_02_13,42.97,-70.77,Rye on the Rocks / 5-0's,0.7075,0.30172437500000004,0.5807979166666667,6,4,"NIGHT_CLEAR,NIGHT_MOSTLY_CLOUDY,NIGHT_MOSTLY_CLOUDY,NIGHT_OVERCAST","Onshore,Cross-shore,Cross-shore,Cross-shore",4
5842041f4e65fad6a77089dc,2024_02_13,43.55902946610303,-70.27795,Higgins Beach,1,0,0.27055,5,4,"NIGHT_CLEAR,NIGHT_CLOUDY,NIGHT_CLOUDY,NIGHT_CLOUDY","Onshore,Cross-shore,Offshore,Offshore",4
5842041f4e65fad6a77089dd,2024_02_13,43.302676,-70.5652,Wells Beach,1.2075,0.040075000000000006,0.32077500000000003,5,4,"NIGHT_CLEAR,NIGHT_CLOUDY,NIGHT_OVERCAST,NIGHT_CLOUDY","Cross-shore,Onshore,Onshore,Cross-shore",4
5842041f4e65fad6a77089de,2024_02_13,43.545359,-70.30479,Scarborough Beach State Park,1,0.22271541666666667,0.3674366666666667,5,4,"NIGHT_CLEAR,NIGHT_CLOUDY,NIGHT_CLOUDY,NIGHT_OVERCAST","Onshore,Cross-shore,Cross-shore,Cross-shore",4
5842041f4e65fad6a77089df,2024_02_13,43.514481,-70.372146,Old Orchard Beach,0.75,0.3048,0.6012666666666667,5,4,"NIGHT_CLEAR,NIGHT_CLOUDY,NIGHT_CLOUDY,NIGHT_CLOUDY","Onshore,Cross-shore,Cross-shore,Cross-shore",4
5842041f4e65fad6a77089e0,2024_02_13,43.34711,-70.48165,Gooch's Beach,1.25,0.04445,0.31265,5,4,"NIGHT_CLEAR,NIGHT_OVERCAST,NIGHT_OVERCAST,NIGHT_CLOUDY","Onshore,Offshore,Offshore,Offshore",4
5842041f4e65fad6a77089e2,2024_02_13,40.58433,-73.62953,Lido Beach,1.75,0.27461666666666673,0.6167583333333333,7,6,"NIGHT_CLEAR,NIGHT_MOSTLY_CLOUDY,NIGHT_DRIZZLE,NIGHT_DRIZZLE","Onshore,Offshore,Offshore,Offshore",4
5842041f4e65fad6a77089e3,2024_02_13,43.163135,-70.61689,Long Sands Beach,0.6675,0.294761875,0.59391875,5,4,"NIGHT_CLEAR,NIGHT_MOSTLY_CLOUDY,NIGHT_CLOUDY,NIGHT_MOSTLY_CLOUDY","Onshore,Cross-shore,Cross-shore,Cross-shore",4
5842041f4e65fad6a77089e4,2024_02_13,40.61695351251805,-73.39376,Gilgo Beach,1.1675,0.1658,0.4716,8,6,"NIGHT_CLEAR,NIGHT_CLOUDY,NIGHT_LIGHT_RAIN,NIGHT_LIGHT_RAIN","Onshore,Offshore,Offshore,Offshore",4
5842041f4e65fad6a77089e5,2024_02_13,40.62530081928036,-73.23827,Robert Moses,1.25,0.085,0.3925,5,5,"NIGHT_CLEAR,NIGHT_CLEAR,NIGHT_LIGHT_RAIN,NIGHT_LIGHT_RAIN","Onshore,Offshore,Offshore,Offshore",4
5842041f4e65fad6a77089e6,2024_02_13,40.64313317632791,-73.15727,Fire Island,1.25,0.11,0.415,5,5,"NIGHT_CLEAR,NIGHT_DRIZZLE,NIGHT_LIGHT_RAIN,NIGHT_LIGHT_RAIN","Onshore,Offshore,Offshore,Offshore",4
5842041f4e65fad6a77089e8,2024_02_13,40.76653118828782,-72.74579619372713,Cupsogue,2,0.3375,0.645,5,5,"NIGHT_OVERCAST,NIGHT_LIGHT_RAIN,NIGHT_OVERCAST,NIGHT_LIGHT_RAIN","Cross-shore,Offshore,Offshore,Offshore",4
5842041f4e65fad6a77089e9,2024_02_13,42.9376373334092,-70.79141,The Wall ,0.875,0.30590625,0.6113350000000001,6,4,"NIGHT_CLEAR,NIGHT_CLEAR,NIGHT_MOSTLY_CLOUDY,NIGHT_MOSTLY_CLOUDY","Cross-shore,Onshore,Onshore,Onshore",4
5842041f4e65fad6a77089ea,2024_02_13,40.887088,-72.33856,Flys,2,0.3025,0.605,5,5,"NIGHT_CLOUDY,NIGHT_CLEAR,NIGHT_OVERCAST,NIGHT_LIGHT_RAIN","Onshore,Offshore,Offshore,Offshore",4
5842041f4e65fad6a77089eb,2024_02_13,41.0389266436591,-71.91068529316958,Trailer Park,0.25,0.4813950000000001,0.787354375,8,6,"NIGHT_CLEAR,NIGHT_CLOUDY,NIGHT_BRIEF_SHOWERS_POSSIBLE,NIGHT_DRIZZLE","Cross-shore,Offshore,Offshore,Offshore",4
5842041f4e65fad6a77089ec,2024_02_13,41.039505402729105,-71.9142,Ditch Plains,1,0.379225,0.592545,5,5,"NIGHT_CLOUDY,NIGHT_CLOUDY,NIGHT_DRIZZLE,NIGHT_DRIZZLE","Offshore,Offshore,Cross-shore,Cross-shore",4
5842041f4e65fad6a77089ee,2024_02_13,40.57633275206492,-73.56895305108567,"West End, Jones Beach",1.25,0.18496666666666667,0.4907666666666667,7,6,"NIGHT_CLEAR,NIGHT_OVERCAST,NIGHT_DRIZZLE,NIGHT_DRIZZLE","Onshore,Offshore,Offshore,Offshore",4
5842041f4e65fad6a77089f1,2024_02_13,41.038286691230795,-71.91991567611694,Poles,0.25,0.4953,0.7725291666666666,8,6,"NIGHT_CLEAR,NIGHT_CLOUDY,NIGHT_BRIEF_SHOWERS_POSSIBLE,NIGHT_DRIZZLE","Cross-shore,Offshore,Offshore,Offshore",4
5842041f4e65fad6a77089f3,2024_02_13,40.84077769766295,-72.47989493724765,The Bowl,1.75,0.295,0.6,5,5,"NIGHT_CLOUDY,NIGHT_BRIEF_SHOWERS_POSSIBLE,NIGHT_CLEAR,NIGHT_LIGHT_RAIN","Cross-shore,Offshore,Offshore,Offshore",4
5842041f4e65fad6a77089f4,2024_02_13,40.94235535243154,-72.19286,Main Beach,1.8325,0.30413333333333337,0.6082666666666666,14,13,"NIGHT_CLOUDY,NIGHT_CLEAR,NIGHT_DRIZZLE,NIGHT_LIGHT_RAIN","Onshore,Offshore,Offshore,Offshore",4
5842041f4e65fad6a77089f5,2024_02_13,40.58270702399518,-73.67251552079799,Laurelton Blvd.,1,0.3006029166666667,0.6060829166666667,7,6,"NIGHT_CLEAR,NIGHT_BRIEF_SHOWERS,NIGHT_LIGHT_RAIN,NIGHT_DRIZZLE","Onshore,Offshore,Offshore,Offshore",4
5842041f4e65fad6a77089f6,2024_02_13,41.033752854071416,-71.93695522488403,Terrace,0.25,0.48405000000000004,0.7890583333333333,8,6,"NIGHT_CLEAR,NIGHT_CLOUDY,NIGHT_CLOUDY,NIGHT_DRIZZLE","Cross-shore,Offshore,Offshore,Offshore",4
5842041f4e65fad6a77089f7,2024_02_13,40.83372943645748,-72.50426173210144,K Road,2,0.3325,0.6375,5,5,"NIGHT_CLEAR,NIGHT_DRIZZLE,NIGHT_CLOUDY,NIGHT_LIGHT_RAIN","Cross-shore,Offshore,Offshore,Offshore",4
5842041f4e65fad6a77089f8,2024_02_13,40.58456099581507,-73.80730032920837,84th Street,0.5,0.25690833333333335,0.5982166666666667,7,6,"NIGHT_CLEAR,NIGHT_BRIEF_SHOWERS_POSSIBLE,NIGHT_DRIZZLE,NIGHT_DRIZZLE","Onshore,Offshore,Offshore,Offshore",4
5842041f4e65fad6a77089fa,2024_02_13,40.1319,-74.02788,Sea Girt,0.5,0.3066333333333333,0.6149333333333333,6,5,"NIGHT_OVERCAST,NIGHT_LIGHT_RAIN,NIGHT_OVERCAST,NIGHT_DRIZZLE","Onshore,Onshore,Onshore,Onshore",4
5842041f4e65fad6a77089fb,2024_02_13,40.54698301868125,-73.9268,Breezy Point,1.25,0.07250000000000001,0.375,6,6,"NIGHT_CLEAR,NIGHT_CLEAR,NIGHT_DRIZZLE,NIGHT_LIGHT_RAIN","Onshore,Offshore,Offshore,Offshore",4
5842041f4e65fad6a77089fc,2024_02_13,40.152504,-74.021383,Spring Lake,0.5,0.3183,0.6241,6,5,"NIGHT_OVERCAST,NIGHT_OVERCAST,NIGHT_OVERCAST,NIGHT_DRIZZLE","Onshore,Onshore,Onshore,Onshore",4
5842041f4e65fad6a77089fd,2024_02_13,40.591277,-73.770792,30th - 39th Streets,1.25,0.06663333333333334,0.37243333333333334,7,6,"NIGHT_CLEAR,NIGHT_BRIEF_SHOWERS_POSSIBLE,NIGHT_LIGHT_RAIN,NIGHT_OVERCAST","Onshore,Offshore,Offshore,Offshore",4
5842041f4e65fad6a77089fe,2024_02_13,40.18834955871439,-74.00860982500222,Avon,0.5,0.3374666666666667,0.6416,6,5,"NIGHT_OVERCAST,NIGHT_OVERCAST,NIGHT_OVERCAST,NIGHT_DRIZZLE","Onshore,Onshore,Onshore,Onshore",4
5842041f4e65fad6a77089ff,2024_02_13,40.1974229100932,-74.00650533798255,Bradley Beach,0.5,0.3349666666666667,0.6391,6,5,"NIGHT_OVERCAST,NIGHT_OVERCAST,NIGHT_OVERCAST,NIGHT_DRIZZLE","Onshore,Onshore,Onshore,Onshore",4
5842041f4e65fad6a7708a01,2024_02_13,40.17202,-74.01503,"16th Ave., Belmar",0.25,0.5841333333333333,1.079225,6,5,"NIGHT_OVERCAST,NIGHT_OVERCAST,NIGHT_OVERCAST,NIGHT_DRIZZLE","Onshore,Onshore,Onshore,Onshore",4
5842041f4e65fad6a7708a02,2024_02_13,40.217443,-73.99982,Asbury Park,0.5,0.3133,0.6191,6,5,"NIGHT_OVERCAST,NIGHT_OVERCAST,NIGHT_DRIZZLE,NIGHT_DRIZZLE","Onshore,Onshore,Onshore,Onshore",4
5842041f4e65fad6a7708a03,2024_02_13,40.229841,-73.996782,Loch Arbour and Deal,0.625,0.30246666666666666,0.6041,6,5,"NIGHT_OVERCAST,NIGHT_OVERCAST,NIGHT_DRIZZLE,NIGHT_LIGHT_RAIN","Onshore,Onshore,Onshore,Cross-shore",4
5842041f4e65fad6a7708a05,2024_02_13,40.41754,-73.97935,Sandy Hook,0.75,0.060000000000000005,0.33499999999999996,6,6,"NIGHT_CLEAR,NIGHT_CLOUDY,NIGHT_RAIN,NIGHT_LIGHT_RAIN","Onshore,Onshore,Onshore,Cross-shore",4
5842041f4e65fad6a7708a06,2024_02_13,39.36353,-74.40873,Crystals,0.375,0.40879166666666666,0.6609583333333333,6,5,"NIGHT_OVERCAST,NIGHT_LIGHT_RAIN,NIGHT_DRIZZLE,NIGHT_LIGHT_RAIN","Cross-shore,Cross-shore,Cross-shore,Cross-shore",4
5842041f4e65fad6a7708a07,2024_02_13,39.31443,-74.51863,32nd Street,0.7075,0.628908125,1.0922091666666667,6,5,"NIGHT_OVERCAST,NIGHT_LIGHT_RAIN,NIGHT_LIGHT_RAIN,NIGHT_LIGHT_RAIN","Cross-shore,Cross-shore,Cross-shore,Cross-shore",4
5842041f4e65fad6a7708a08,2024_02_13,39.327688,-74.49524,Margate Pier Northside,0.7075,0.628908125,1.0922091666666667,6,5,"NIGHT_OVERCAST,NIGHT_LIGHT_RAIN,NIGHT_LIGHT_RAIN,NIGHT_LIGHT_RAIN","Cross-shore,Cross-shore,Cross-shore,Cross-shore",4
5842041f4e65fad6a7708a09,2024_02_13,39.336276,-74.47782,Ventnor Pier,0.375,0.38015750000000004,0.6162216666666667,6,5,"NIGHT_OVERCAST,NIGHT_LIGHT_RAIN,NIGHT_LIGHT_RAIN,NIGHT_LIGHT_RAIN","Cross-shore,Cross-shore,Cross-shore,Cross-shore",4
5842041f4e65fad6a7708a0a,2024_02_13,39.35929751441085,-74.41683,States Avenue,0.375,0.40879166666666666,0.6609583333333333,6,5,"NIGHT_OVERCAST,NIGHT_LIGHT_RAIN,NIGHT_DRIZZLE,NIGHT_LIGHT_RAIN","Cross-shore,Cross-shore,Cross-shore,Cross-shore",4
5842041f4e65fad6a7708a0b,2024_02_13,39.37274173278517,-74.40454,Brigantine Jetty,0.375,0.31296583333333333,0.5112341666666667,6,5,"NIGHT_OVERCAST,NIGHT_LIGHT_RAIN,NIGHT_DRIZZLE,NIGHT_LIGHT_RAIN","Cross-shore,Offshore,Offshore,Offshore",4
5842041f4e65fad6a7708a0c,2024_02_13,39.356505,-74.42263,South Carolina Avenue,0.375,0.31296583333333333,0.5112341666666667,6,5,"NIGHT_OVERCAST,NIGHT_LIGHT_RAIN,NIGHT_DRIZZLE,NIGHT_LIGHT_RAIN","Cross-shore,Offshore,Offshore,Offshore",4
5842041f4e65fad6a7708a0d,2024_02_13,39.413485,-74.35476,14th Street North,0.375,0.4574666666666667,0.7632666666666666,6,5,"NIGHT_OVERCAST,NIGHT_LIGHT_RAIN,NIGHT_DRIZZLE,NIGHT_LIGHT_RAIN","Onshore,Cross-shore,Cross-shore,Cross-shore",4
5842041f4e65fad6a7708a0e,2024_02_13,39.531319,-74.263252,The Wooden Jetty,1.25,0.88963,1.19897625,6,5,"NIGHT_OVERCAST,NIGHT_LIGHT_RAIN,NIGHT_OVERCAST,NIGHT_RAIN","Onshore,Cross-shore,Cross-shore,Cross-shore",4
5842041f4e65fad6a7708a0f,2024_02_13,39.552472,-74.24344,Holyoke,1.25,0.9126868750000001,1.1736660416666667,6,5,"NIGHT_OVERCAST,NIGHT_LIGHT_RAIN,NIGHT_OVERCAST,NIGHT_RAIN","Onshore,Cross-shore,Cross-shore,Cross-shore",4
5842041f4e65fad6a7708a10,2024_02_13,39.692364,-74.14068,Hudson Ave.,1.25,0.8491416666666667,1.3494416666666667,6,5,"NIGHT_CLOUDY,NIGHT_LIGHT_RAIN,NIGHT_LIGHT_RAIN,NIGHT_RAIN","Onshore,Cross-shore,Cross-shore,Cross-shore",4
5842041f4e65fad6a7708a11,2024_02_13,39.79614,-74.09248,Island Beach State Park,0.5,0.4166,0.7157333333333333,6,5,"NIGHT_CLOUDY,NIGHT_LIGHT_RAIN,NIGHT_LIGHT_RAIN,NIGHT_DRIZZLE","Onshore,Onshore,Onshore,Onshore",4
5842041f4e65fad6a7708a12,2024_02_13,39.91813588078152,-74.07527,Seaside Park,0.5,0.3791,0.6807333333333333,6,5,"NIGHT_OVERCAST,NIGHT_LIGHT_RAIN,NIGHT_DRIZZLE,NIGHT_LIGHT_RAIN","Onshore,Onshore,Onshore,Onshore",4
5842041f4e65fad6a7708a14,2024_02_13,39.946638,-74.06884,Seaside Heights,0.25,0.37829999999999997,0.6824333333333333,6,5,"NIGHT_OVERCAST,NIGHT_DRIZZLE,NIGHT_OVERCAST,NIGHT_LIGHT_RAIN","Onshore,Onshore,Onshore,Cross-shore",4
5842041f4e65fad6a7708a15,2024_02_13,39.95745637606704,-74.06736,Ortley Beach,0.375,0.31246666666666667,0.6182666666666667,6,5,"NIGHT_OVERCAST,NIGHT_DRIZZLE,NIGHT_OVERCAST,NIGHT_LIGHT_RAIN","Onshore,Onshore,Onshore,Cross-shore",4
5842041f4e65fad6a7708a16,2024_02_13,39.98313468342945,-74.06265685577506,Lavallette,0.375,0.29996666666666666,0.6057666666666667,6,5,"NIGHT_OVERCAST,NIGHT_DRIZZLE,NIGHT_OVERCAST,NIGHT_LIGHT_RAIN","Onshore,Onshore,Onshore,Cross-shore",4
5842041f4e65fad6a7708a17,2024_02_13,40.0699319967757,-74.04144910856634,Bay Head,0.375,0.3374666666666667,0.6416,6,5,"NIGHT_OVERCAST,NIGHT_DRIZZLE,NIGHT_DRIZZLE,NIGHT_LIGHT_RAIN","Onshore,Onshore,Onshore,Cross-shore",4
5842041f4e65fad6a7708a18,2024_02_13,40.094041,-74.034859,Jenkinson's,0.5,0.3183,0.6249333333333333,6,5,"NIGHT_OVERCAST,NIGHT_OVERCAST,NIGHT_OVERCAST,NIGHT_LIGHT_RAIN","Onshore,Cross-shore,Cross-shore,Cross-shore",4
5842041f4e65fad6a7708a1a,2024_02_13,38.148058,-75.17704,Assateague,0.375,0.6508,0.9524333333333334,6,5,"NIGHT_OVERCAST,NIGHT_DRIZZLE,NIGHT_LIGHT_SHOWERS_POSSIBLE,NIGHT_MIST","Onshore,Onshore,Onshore,Onshore",4
5842041f4e65fad6a7708a1b,2024_02_13,38.33889038664497,-75.08017670566352,North End to Ocean City Inlet,0.5,0.6608,0.9641,6,5,"NIGHT_CLOUDY,NIGHT_DRIZZLE,NIGHT_HEAVY_SHOWERS_POSSIBLE,NIGHT_OVERCAST","Onshore,Onshore,Onshore,Onshore",4
5842041f4e65fad6a7708a1c,2024_02_13,38.603993,-75.06271,Indian River Inlet,0.375,0.5470625,0.8770116666666667,6,5,"NIGHT_OVERCAST,NIGHT_LIGHT_RAIN,NIGHT_RAIN,NIGHT_DRIZZLE","Onshore,Onshore,Onshore,Onshore",4
5842041f4e65fad6a7708a1d,2024_02_13,38.460477,-75.052069,Fenwick Island,0.5,0.4308,0.7416,6,5,"NIGHT_OVERCAST,NIGHT_LIGHT_RAIN,NIGHT_RAIN,NIGHT_OVERCAST","Onshore,Onshore,Onshore,Onshore",4
5842041f4e65fad6a7708a1e,2024_02_13,38.538767,-75.05619,Bethany Beach,0.375,0.5512216666666667,0.8835091666666667,6,5,"NIGHT_OVERCAST,NIGHT_LIGHT_RAIN,NIGHT_RAIN,NIGHT_OVERCAST","Onshore,Onshore,Onshore,Onshore",4
5842041f4e65fad6a7708a1f,2024_02_13,38.697657,-75.075951,Dewey Beach,0.375,0.6591333333333333,0.9682666666666667,6,5,"NIGHT_OVERCAST,NIGHT_DRIZZLE,NIGHT_RAIN,NIGHT_LIGHT_RAIN","Onshore,Onshore,Onshore,Onshore",4
5842041f4e65fad6a7708a20,2024_02_13,38.75034741676525,-75.08194,Gordons Pond,0.375,0.48184583333333336,0.77511,6,5,"NIGHT_OVERCAST,NIGHT_OVERCAST,NIGHT_HEAVY_RAIN,NIGHT_LIGHT_RAIN","Onshore,Onshore,Onshore,Onshore",4
5842041f4e65fad6a7708a21,2024_02_13,38.767837,-75.082841,Naval Jetties,0.375,0.5758,0.8815999999999999,6,5,"NIGHT_OVERCAST,NIGHT_OVERCAST,NIGHT_HEAVY_RAIN,NIGHT_LIGHT_RAIN","Onshore,Onshore,Onshore,Onshore",4
5842041f4e65fad6a7708a22,2024_02_13,36.81735875786576,-75.96624,Camp Pendleton,1.7925,0.4011833333333334,0.7009833333333333,8,7,"NIGHT_LIGHT_RAIN,NIGHT_RAIN,NIGHT_LIGHT_RAIN,NIGHT_MIST","Onshore,Onshore,Cross-shore,Onshore",4
5842041f4e65fad6a7708a23,2024_02_13,36.9102212316428,-75.98732471466064,North End,1.875,0.40847500000000003,0.7147333333333333,8,7,"NIGHT_DRIZZLE,NIGHT_LIGHT_RAIN,NIGHT_DRIZZLE,NIGHT_BRIEF_SHOWERS","Onshore,Onshore,Onshore,Cross-shore",4
5842041f4e65fad6a7708a24,2024_02_13,36.737117517621314,-75.93923719853362,Sandbridge Beach,1.2075,0.26236666666666664,0.5666083333333334,8,7,"NIGHT_DRIZZLE,NIGHT_LIGHT_RAIN,NIGHT_MIST,NIGHT_FOG","Onshore,Cross-shore,Cross-shore,Onshore",4
5842041f4e65fad6a7708a26,2024_02_13,36.818257440557794,-75.96666,Croatan to Pendleton,1.75,0.4038916666666667,0.7097333333333333,8,7,"NIGHT_LIGHT_RAIN,NIGHT_RAIN,NIGHT_LIGHT_RAIN,NIGHT_MIST","Onshore,Onshore,Cross-shore,Onshore",4
5842041f4e65fad6a7708a27,2024_02_13,36.84318777204769,-75.9719,South End,1,0.20049166666666668,0.5047333333333334,8,7,"NIGHT_MIST,NIGHT_RAIN,NIGHT_MIST,NIGHT_MOSTLY_CLOUDY","Onshore,Onshore,Cross-shore,Onshore",4
5842041f4e65fad6a7708a28,2024_02_13,37.08612627584661,-75.976121638199,Fishermans Island,0.5,0.048,0.16899999999999998,6,6,"NIGHT_HEAVY_RAIN,NIGHT_LIGHT_RAIN,NIGHT_DRIZZLE,NIGHT_HEAVY_SHOWERS","Onshore,Cross-shore,Cross-shore,Onshore",4
5842041f4e65fad6a7708a38,2024_02_13,35.254619418229026,-75.52074,Cape Hatteras Lighthouse,0.54,0.9165079166666666,1.2796454166666666,11,9,"NIGHT_MIST,NIGHT_DRIZZLE,NIGHT_MIST,NIGHT_MIST","Cross-shore,Cross-shore,Cross-shore,Cross-shore",4
5842041f4e65fad6a7708a3a,2024_02_13,35.54572934093336,-75.46477,Waves and Salvo,0.9175,1.0400166666666666,1.2932166666666667,9,8,"NIGHT_DRIZZLE,NIGHT_MIST,NIGHT_LIGHT_SHOWERS_POSSIBLE,NIGHT_MIST","Onshore,Cross-shore,Cross-shore,Cross-shore",4
5842041f4e65fad6a7708a3b,2024_02_13,35.22565892751075,-75.63606,Frisco,0.4575,0.7519,1.0021833333333334,12,11,"NIGHT_MIST,NIGHT_MIST,NIGHT_BRIEF_SHOWERS,NIGHT_MIST","Onshore,Onshore,Onshore,Onshore",4
5842041f4e65fad6a7708a3c,2024_02_13,35.13086,-75.90591,Ocracoke,0.5,0.6748075,1.054385,8,8,"NIGHT_DRIZZLE,NIGHT_LIGHT_RAIN,NIGHT_MIST,NIGHT_MIST","Onshore,Onshore,Cross-shore,Cross-shore",4
5842041f4e65fad6a7708a3d,2024_02_13,35.34721340158342,-75.50084,Avon Pier,1.29,0.7221083333333334,1.2155583333333333,9,8,"NIGHT_DRIZZLE,NIGHT_OVERCAST,NIGHT_BRIEF_SHOWERS,NIGHT_OVERCAST","Cross-shore,Cross-shore,Cross-shore,Offshore",4
5842041f4e65fad6a7708a3f,2024_02_13,35.71680821253768,-75.49243,Pea Island,1.5,0.8025,1.0775000000000001,6,6,"NIGHT_LIGHT_RAIN,NIGHT_MIST,NIGHT_MIST,NIGHT_MIST","Cross-shore,Cross-shore,Offshore,Offshore",4
5842041f4e65fad6a7708a40,2024_02_13,35.97427620657821,-75.62984,Nags Head Pier,1.75,0.7228583333333333,1.0312000000000001,8,6,"NIGHT_LIGHT_RAIN,NIGHT_LIGHT_RAIN,NIGHT_MIST,NIGHT_MOSTLY_CLOUDY","Cross-shore,Offshore,Offshore,Offshore",4
5842041f4e65fad6a7708a41,2024_02_13,36.0439998039079,-75.67288,Avalon Pier,1.2075,0.530775,0.8612,8,6,"NIGHT_LIGHT_RAIN,NIGHT_LIGHT_RAIN,NIGHT_MOSTLY_CLEAR,NIGHT_MIST","Cross-shore,Cross-shore,Offshore,Offshore",4
5842041f4e65fad6a7708a42,2024_02_13,36.03043116489792,-75.66413,First Street,1.7075,0.7253583333333333,1.0276583333333333,8,6,"NIGHT_LIGHT_RAIN,NIGHT_LIGHT_RAIN,NIGHT_MOSTLY_CLEAR,NIGHT_MIST","Cross-shore,Cross-shore,Offshore,Offshore",4
5842041f4e65fad6a7708a43,2024_02_13,36.06829910590498,-75.6899,Old Station/Laundromats,1.5,0.5118166666666667,0.8372416666666667,8,6,"NIGHT_LIGHT_RAIN,NIGHT_BRIEF_SHOWERS,NIGHT_MOSTLY_CLEAR,NIGHT_MIST","Cross-shore,Cross-shore,Offshore,Offshore",4
5842041f4e65fad6a7708a44,2024_02_13,36.10126676607491,-75.71107462163894,Kitty Hawk Pier,1.75,0.7216083333333334,1.0289083333333333,8,6,"NIGHT_LIGHT_RAIN,NIGHT_MIST,NIGHT_CLEAR,NIGHT_MIST","Cross-shore,Cross-shore,Offshore,Offshore",4
5842041f4e65fad6a7708a45,2024_02_13,36.18220630068973,-75.75013580649097,Duck Pier,1.4575,0.34278333333333333,0.6732083333333334,8,6,"NIGHT_LIGHT_RAIN,NIGHT_MIST,NIGHT_MIST,NIGHT_MIST","Onshore,Cross-shore,Offshore,Offshore",4
5842041f4e65fad6a7708a46,2024_02_13,36.37660668125033,-75.82409701687456,Corolla,1.4575,0.345075,0.6715416666666667,8,6,"NIGHT_LIGHT_RAIN,NIGHT_LIGHT_RAIN,NIGHT_MIST,NIGHT_MIST","Onshore,Onshore,Cross-shore,Offshore",4
5842041f4e65fad6a7708a47,2024_02_13,33.90373404124834,-78.08241431707907,Oak Island,0.5,0.83,1.1325,12,12,"NIGHT_MIST,NIGHT_MOSTLY_CLOUDY,NIGHT_CLEAR,NIGHT_CLEAR","Cross-shore,Onshore,Onshore,Onshore",4
5842041f4e65fad6a7708a48,2024_02_13,33.91108837766468,-78.29653,South Brunswick Beaches,0.5,0.812185,1.26904,11,11,"NIGHT_DRIZZLE,NIGHT_MIST,NIGHT_MOSTLY_CLEAR,NIGHT_CLEAR","Cross-shore,Onshore,Onshore,Cross-shore",4
5842041f4e65fad6a7708a49,2024_02_13,34.05683595651973,-77.88128,Carolina Beach Pier,1.625,0.865725,1.171775,11,10,"NIGHT_LIGHT_RAIN,NIGHT_MIST,NIGHT_MOSTLY_CLEAR,NIGHT_CLEAR","Onshore,Cross-shore,Cross-shore,Offshore",4
5842041f4e65fad6a7708a4a,2024_02_13,33.96841191816696,-77.9180242565498,Fort Fisher,1.75,1.0240583333333333,1.3290666666666666,11,10,"NIGHT_DRIZZLE,NIGHT_MOSTLY_CLEAR,NIGHT_CLEAR,NIGHT_CLEAR","Onshore,Offshore,Offshore,Offshore",4
5842041f4e65fad6a7708a4b,2024_02_13,34.46776662988774,-77.47083191635772,Topsail Beach,0.4575,0.7715333333333333,1.0357750000000001,11,10,"NIGHT_MIST,NIGHT_MIST,NIGHT_CLEAR,NIGHT_CLEAR","Onshore,Onshore,Onshore,Cross-shore",4
5842041f4e65fad6a7708a4c,2024_02_13,34.69270354752445,-76.82854854446575,Iron Steamer,0.25,0.7756000000000001,1.2681916666666666,12,11,"NIGHT_MIST,NIGHT_MIST,NIGHT_MIST,NIGHT_MIST","Cross-shore,Onshore,Onshore,Onshore",4
5842041f4e65fad6a7708a4f,2024_02_13,30.85132684893727,-81.42283496231143,Cumberland Island,1.75,0.5575,0.8625,13,13,"CLOUDY,NIGHT_MOSTLY_CLEAR,NIGHT_CLEAR,NIGHT_CLEAR","Cross-shore,Offshore,Offshore,Offshore",4
5842041f4e65fad6a7708a50,2024_02_13,34.686741128540874,-76.47516712138378,Cape Lookout National Seashore,0.5,0.8725,1.125,12,12,"NIGHT_MIST,NIGHT_MIST,NIGHT_MOSTLY_CLOUDY,NIGHT_MIST","Onshore,Cross-shore,Cross-shore,Cross-shore",4
5842041f4e65fad6a7708a51,2024_02_13,31.10585419260024,-81.40422767604812,Jekyll Island,1,0.1475,0.4475,12,12,"CLOUDY,NIGHT_CLEAR,NIGHT_CLEAR,NIGHT_CLEAR","Cross-shore,Offshore,Offshore,Offshore",4
5842041f4e65fad6a7708a52,2024_02_13,31.16212806376699,-81.32512426500224,Harbor Marker Buoys,1,0.40249999999999997,0.7075,12,12,"MIST,NIGHT_CLEAR,NIGHT_CLEAR,NIGHT_CLEAR","Onshore,Offshore,Offshore,Offshore",4
5842041f4e65fad6a7708a53,2024_02_13,31.20076299997009,-81.32629,Sea Island,1,0.4875,0.795,12,12,"MIST,NIGHT_CLEAR,NIGHT_CLEAR,NIGHT_CLEAR","Onshore,Offshore,Offshore,Offshore",4
5842041f4e65fad6a7708a54,2024_02_13,31.13553222995767,-81.38457634790909,St. Simons Island,1,0.56,0.8625,12,12,"MIST,NIGHT_CLEAR,NIGHT_CLEAR,NIGHT_CLEAR","Onshore,Offshore,Offshore,Offshore",4
5842041f4e65fad6a7708a55,2024_02_13,31.33550077186516,-81.28383377408417,Wolf Island,1.25,0.485,0.795,12,12,"MIST,NIGHT_CLEAR,NIGHT_CLEAR,NIGHT_CLEAR","Cross-shore,Offshore,Offshore,Offshore",4
5842041f4e65fad6a7708a56,2024_02_13,31.2704493877174,-81.27324039152315,Little St. Simons Island,1.5,0.4475,0.7525,12,12,"MIST,NIGHT_CLEAR,NIGHT_CLEAR,NIGHT_CLEAR","Cross-shore,Offshore,Offshore,Offshore",4
5842041f4e65fad6a7708a57,2024_02_13,31.39261761368919,-81.26190520231917,Sapelo Island,1.25,0.4325,0.7375,12,12,"MIST,NIGHT_CLEAR,NIGHT_CLEAR,NIGHT_CLEAR","Onshore,Offshore,Offshore,Offshore",4
5842041f4e65fad6a7708a58,2024_02_13,34.42458783809001,-77.54492,Surf City Pier,0.7075,0.720075,1.0293166666666667,11,10,"NIGHT_MIST,NIGHT_SHOWERS,NIGHT_CLEAR,NIGHT_CLEAR","Onshore,Cross-shore,Cross-shore,Cross-shore",4
5842041f4e65fad6a7708a59,2024_02_13,31.4231993614213,-81.24725340591522,Cabretta Island,1.25,0.4375,0.7424999999999999,12,12,"MIST,NIGHT_CLEAR,NIGHT_CLEAR,NIGHT_CLEAR","Onshore,Offshore,Offshore,Offshore",4
5842041f4e65fad6a7708a5a,2024_02_13,31.46684389030369,-81.2100056410468,Blackbeard Island,1,0.4325,0.7375,12,12,"MIST,NIGHT_CLEAR,NIGHT_CLEAR,NIGHT_CLEAR","Onshore,Offshore,Offshore,Offshore",4
5842041f4e65fad6a7708a5b,2024_02_13,31.85953587631629,-80.99031310336719,Wassaw Island/South End,0.5,0.2325,0.54,12,12,"MIST,NIGHT_CLEAR,NIGHT_CLEAR,NIGHT_CLEAR","Onshore,Offshore,Offshore,Offshore",4
5842041f4e65fad6a7708a5c,2024_02_13,31.62535662342983,-81.13328352167974,St. Catherines Island,1.75,0.5275,0.8325,12,12,"MIST,NIGHT_CLEAR,NIGHT_CLEAR,NIGHT_CLEAR","Cross-shore,Offshore,Offshore,Offshore",4
5842041f4e65fad6a7708a5d,2024_02_13,31.76502169596568,-81.07655443806622,Ossabaw Island,1.25,0.4825,0.785,12,12,"MIST,NIGHT_CLEAR,NIGHT_CLEAR,NIGHT_CLEAR","Onshore,Offshore,Offshore,Offshore",4
5842041f4e65fad6a7708a5e,2024_02_13,31.90593619092352,-80.93589231700857,Wassaw Island/North End,1,0.5275,0.835,12,12,"MIST,NIGHT_CLEAR,NIGHT_CLEAR,NIGHT_CLEAR","Onshore,Offshore,Offshore,Offshore",4
5842041f4e65fad6a7708a5f,2024_02_13,31.96738675414547,-80.86977980706155,Little Tybee Island,1,0.665,0.9725,12,12,"MIST,NIGHT_CLEAR,NIGHT_CLEAR,NIGHT_CLEAR","Onshore,Offshore,Offshore,Offshore",4
5842041f4e65fad6a7708a60,2024_02_13,31.9812255780179,-80.84773973467009,South Tybee Sandbars,1.25,0.66,0.9625,12,12,"MIST,NIGHT_CLEAR,NIGHT_CLEAR,NIGHT_CLEAR","Cross-shore,Offshore,Offshore,Offshore",4
5842041f4e65fad6a7708a61,2024_02_13,32.01226,-80.83983,Sugar Shack,1,0.7125,1.0175,12,12,"MIST,NIGHT_CLEAR,NIGHT_CLEAR,NIGHT_CLEAR","Offshore,Offshore,Offshore,Offshore",4
5842041f4e65fad6a7708a62,2024_02_13,31.98722842396969,-80.84773,18th St. Jetty,1,0.38142,0.595965,12,12,"MIST,NIGHT_CLEAR,NIGHT_CLEAR,NIGHT_CLEAR","Cross-shore,Offshore,Offshore,Offshore",4
5842041f4e65fad6a7708a64,2024_02_13,34.013473721006676,-77.8991,"Alabama Ave., Kure Beach",2.25,0.6325000000000001,0.9425,13,13,"NIGHT_LIGHT_RAIN,NIGHT_MIST,NIGHT_MOSTLY_CLEAR,NIGHT_CLEAR","Onshore,Offshore,Offshore,Offshore",4
5842041f4e65fad6a7708a65,2024_02_13,34.20859853336924,-77.79293,"C Street, Wrightsville Beach",1.625,0.8230166666666667,1.1265666666666667,11,10,"NIGHT_DRIZZLE,NIGHT_MOSTLY_CLEAR,NIGHT_CLEAR,NIGHT_MOSTLY_CLEAR","Onshore,Cross-shore,Cross-shore,Cross-shore",4
5842041f4e65fad6a7708a66,2024_02_13,32.831,-79.71,Dewees Island,1,0.595,0.9,13,13,"NIGHT_MIST,NIGHT_CLEAR,NIGHT_CLEAR,NIGHT_CLEAR","Onshore,Offshore,Offshore,Offshore",4
5842041f4e65fad6a7708a67,2024_02_13,33.82924423172106,-78.62813,Cherry Grove Pier,1.4575,0.5557166666666667,0.8615583333333334,11,11,"NIGHT_LIGHT_RAIN,NIGHT_CLEAR,NIGHT_CLEAR,NIGHT_CLEAR","Onshore,Cross-shore,Cross-shore,Cross-shore",4
5842041f4e65fad6a7708a69,2024_02_13,34.27197439666496,-77.74050223196774,Figure Eight and Shell Islands,1.5,0.7955166666666666,1.1040666666666668,11,10,"NIGHT_RAIN,NIGHT_MOSTLY_CLEAR,NIGHT_CLEAR,NIGHT_CLEAR","Onshore,Cross-shore,Cross-shore,Cross-shore",4
5842041f4e65fad6a7708a6b,2024_02_13,33.49041958261793,-79.07666070599386,North End,1,0.6224999999999999,0.93,12,12,"NIGHT_RAIN,NIGHT_CLEAR,NIGHT_CLEAR,NIGHT_CLEAR","Onshore,Cross-shore,Cross-shore,Offshore",4
5842041f4e65fad6a7708a6c,2024_02_13,33.39537062495087,-79.13835037835189,The South End,1,0.5575,0.86,13,13,"NIGHT_CLOUDY,NIGHT_CLEAR,NIGHT_CLEAR,NIGHT_CLEAR","Onshore,Offshore,Offshore,Offshore",4
5842041f4e65fad6a7708a6d,2024_02_13,33.29001727666697,-79.17190003352977,North Island,1,0.39249999999999996,0.6975,13,13,"NIGHT_OVERCAST,NIGHT_CLEAR,NIGHT_CLEAR,NIGHT_CLEAR","Onshore,Offshore,Offshore,Offshore",4
5842041f4e65fad6a7708a6e,2024_02_13,32.90929771158952,-79.57810400297359,Bull Island,1,0.6575,0.9624999999999999,14,14,"NIGHT_MIST,NIGHT_CLEAR,NIGHT_CLEAR,NIGHT_CLEAR","Onshore,Offshore,Offshore,Offshore",4
5842041f4e65fad6a7708a6f,2024_02_13,31.99153112815895,-80.84543050470074,Tybee Island Pier,1,0.3275,0.63,12,12,"MIST,NIGHT_CLEAR,NIGHT_CLEAR,NIGHT_CLEAR","Cross-shore,Offshore,Offshore,Offshore",4
5842041f4e65fad6a7708a70,2024_02_13,33.03478144356316,-79.35021028265125,Cape Romain,1.25,1.4175,1.72,14,14,"NIGHT_TORRENTIAL_RAIN,NIGHT_CLEAR,NIGHT_CLEAR,NIGHT_CLEAR","Onshore,Offshore,Offshore,Offshore",4
5842041f4e65fad6a7708a71,2024_02_13,33.43231073271028,-79.11789,The Pier,1,0.47973499999999997,0.749585,12,12,"NIGHT_OVERCAST,NIGHT_CLEAR,NIGHT_CLEAR,NIGHT_CLEAR","Onshore,Offshore,Offshore,Offshore",4
5842041f4e65fad6a7708a72,2024_02_13,33.45423621397969,-79.10497798178424,South Litchfield,1,0.5425,0.8524999999999999,12,12,"NIGHT_RAIN,NIGHT_CLEAR,NIGHT_CLEAR,NIGHT_CLEAR","Onshore,Offshore,Offshore,Offshore",4
5842041f4e65fad6a7708a73,2024_02_13,34.19316590251396,-77.8045,Crystal Pier,1.5,0.7967666666666666,1.0965666666666667,11,10,"NIGHT_DRIZZLE,NIGHT_MOSTLY_CLEAR,NIGHT_CLEAR,NIGHT_MOSTLY_CLEAR","Onshore,Cross-shore,Cross-shore,Offshore",4
5842041f4e65fad6a7708a74,2024_02_13,33.68628680045124,-78.883460274301,Myrtle Beach,1.75,0.6053000000000001,0.9065583333333334,11,11,"NIGHT_RAIN,NIGHT_MOSTLY_CLOUDY,NIGHT_CLEAR,NIGHT_CLEAR","Onshore,Cross-shore,Cross-shore,Cross-shore",4
5842041f4e65fad6a7708a75,2024_02_13,32.66166297145973,-79.91951806398808,10th Street,1.75,0.9824999999999999,1.2875,13,13,"MIST,NIGHT_CLEAR,NIGHT_CLEAR,NIGHT_CLEAR","Onshore,Offshore,Offshore,Offshore",4
5842041f4e65fad6a7708a76,2024_02_13,33.16729555197199,-79.19829236867845,South Island,1.5,1.035,1.3375,14,14,"NIGHT_LIGHT_SHOWERS_POSSIBLE,NIGHT_CLEAR,NIGHT_CLEAR,NIGHT_CLEAR","Onshore,Offshore,Offshore,Offshore",4
5842041f4e65fad6a7708a77,2024_02_13,32.595,-80.088,Kiawah Island/Seabrook Island,0.5,0.9650000000000001,1.27,12,12,"MIST,NIGHT_CLEAR,NIGHT_CLEAR,NIGHT_CLEAR","Onshore,Cross-shore,Cross-shore,Cross-shore",4
5842041f4e65fad6a7708a78,2024_02_13,32.51356930575787,-80.28223,Edisto Beach,1,0.6117625,0.9558800000000001,12,12,"DRIZZLE,NIGHT_CLEAR,NIGHT_CLEAR,NIGHT_CLEAR","Onshore,Cross-shore,Cross-shore,Offshore",4
5842041f4e65fad6a7708a79,2024_02_13,32.366270751262,-80.43911,Hunting Island,1,0.35277000000000003,0.551205,12,12,"MIST,NIGHT_CLEAR,NIGHT_CLEAR,NIGHT_CLEAR","Cross-shore,Offshore,Offshore,Offshore",4
5842041f4e65fad6a7708a7a,2024_02_13,32.65337734408365,-79.93983,Folly Beach Pier,1.75,0.72085,1.08655,13,12,"MIST,NIGHT_CLEAR,NIGHT_CLEAR,NIGHT_CLEAR","Onshore,Cross-shore,Cross-shore,Cross-shore",4
5842041f4e65fad6a7708a7b,2024_02_13,33.41209545530049,-79.13026341393126,South Jetty,1,0.5575,0.86,12,12,"NIGHT_LIGHT_RAIN,NIGHT_CLEAR,NIGHT_CLEAR,NIGHT_CLEAR","Onshore,Offshore,Offshore,Offshore",4
5842041f4e65fad6a7708a7c,2024_02_13,32.31115640606869,-80.48564,Fripp Island,0.5,0.640205,1.00032,12,12,"MIST,NIGHT_CLEAR,NIGHT_CLEAR,NIGHT_CLEAR","Onshore,Cross-shore,Cross-shore,Cross-shore",4
5842041f4e65fad6a7708a7d,2024_02_13,32.14365226036034,-80.74402,Hilton Head Island,1,0.21000000000000002,0.52,12,12,"MIST,NIGHT_CLEAR,NIGHT_CLEAR,NIGHT_CLEAR","Onshore,Offshore,Offshore,Offshore",4
5842041f4e65fad6a7708a7e,2024_02_13,29.70405364733744,-81.22426004725459,Matanzas Inlet,1.25,0.265,0.5700000000000001,15,15,"CLEAR,NIGHT_CLEAR,NIGHT_CLEAR,NIGHT_OVERCAST","Offshore,Offshore,Offshore,Offshore",4
5842041f4e65fad6a7708a81,2024_02_13,29.76878537149042,-81.25109,Crescent Beach,1.25,0.2975,0.6,15,15,"CLEAR,NIGHT_CLEAR,NIGHT_CLEAR,NIGHT_OVERCAST","Offshore,Offshore,Offshore,Offshore",4
5842041f4e65fad6a7708a82,2024_02_13,32.80251718689188,-79.73221919500764,Wild Dunes,0.5,0.7975,1.1025,13,13,"NIGHT_MIST,NIGHT_CLEAR,NIGHT_CLEAR,NIGHT_CLEAR","Onshore,Cross-shore,Cross-shore,Cross-shore",4
5842041f4e65fad6a7708a84,2024_02_13,32.75733539419244,-79.83258856064796,Bert's Bar,1,0.3975,0.7025,13,13,"MIST,NIGHT_CLEAR,NIGHT_CLEAR,NIGHT_CLEAR","Onshore,Offshore,Cross-shore,Offshore",4
5842041f4e65fad6a7708a85,2024_02_13,32.66829212943039,-79.90735,Washout,1.75,0.6243916666666667,0.9836333333333334,13,12,"MIST,NIGHT_CLEAR,NIGHT_CLEAR,NIGHT_CLEAR","Onshore,Offshore,Offshore,Offshore",4
5842041f4e65fad6a7708a86,2024_02_13,32.78452968219067,-79.78540233488354,The Pier/Windjammer,1,0.7175,1.0175,13,13,"MIST,NIGHT_CLEAR,NIGHT_CLEAR,NIGHT_CLEAR","Onshore,Cross-shore,Cross-shore,Cross-shore",4
5842041f4e65fad6a7708a87,2024_02_13,29.86618162637438,-81.2662150259608,Anastasia Park (The Entrance),1.25,0.26,0.5650000000000001,15,15,"CLEAR,NIGHT_CLEAR,NIGHT_CLEAR,NIGHT_CLOUDY","Offshore,Offshore,Offshore,Offshore",4
5842041f4e65fad6a7708a89,2024_02_13,29.89149785916623,-81.2723223244215,Blowholes,1.75,0.3407,0.671125,22,20,"CLEAR,NIGHT_CLEAR,NIGHT_CLEAR,NIGHT_CLOUDY","Offshore,Offshore,Offshore,Offshore",4
5842041f4e65fad6a7708a8a,2024_02_13,30.16227112983666,-81.35502907491218,Crossroads,1.7075,0.3698666666666667,0.6952916666666666,22,20,"CLEAR,NIGHT_CLEAR,NIGHT_BRIEF_SHOWERS,NIGHT_CLEAR","Cross-shore,Offshore,Offshore,Offshore",4
5842041f4e65fad6a7708a8b,2024_02_13,30.19308537587637,-81.36314247820911,Sawgrass,1.7075,0.41507499999999997,0.7390416666666666,22,20,"CLEAR,NIGHT_MOSTLY_CLOUDY,NIGHT_CLEAR,NIGHT_CLEAR","Cross-shore,Offshore,Offshore,Offshore",4
5842041f4e65fad6a7708a8c,2024_02_13,30.34696027700899,-81.39451,18th Street,1,0.3919,0.6123375,14,14,"CLEAR,NIGHT_MOSTLY_CLOUDY,NIGHT_CLEAR,NIGHT_CLEAR","Cross-shore,Offshore,Offshore,Offshore",4
5842041f4e65fad6a7708a8d,2024_02_13,30.381793,-81.39686,Mayport Poles,1.75,0.545,0.8525,14,14,"CLEAR,NIGHT_MOSTLY_CLOUDY,NIGHT_CLEAR,NIGHT_CLEAR","Cross-shore,Offshore,Offshore,Offshore",4
5842041f4e65fad6a7708a8e,2024_02_13,30.390516,-81.395591,Blue Roofs,1.75,0.5325,0.8325,14,14,"CLEAR,NIGHT_MOSTLY_CLOUDY,NIGHT_CLEAR,NIGHT_CLEAR","Cross-shore,Offshore,Offshore,Offshore",4
5842041f4e65fad6a7708a8f,2024_02_13,30.40517712722211,-81.40074116169004,Huguenot Park (North Jetty),1.5,0.325,0.63,14,14,"CLEAR,NIGHT_MOSTLY_CLOUDY,NIGHT_CLEAR,NIGHT_CLEAR","Offshore,Offshore,Offshore,Offshore",4
5842041f4e65fad6a7708a90,2024_02_13,30.47788918872762,-81.41055821335078,Talbot Island,2.25,0.6176820833333333,0.978300625,15,14,"CLEAR,NIGHT_CLEAR,NIGHT_CLEAR,NIGHT_MOSTLY_CLOUDY","Cross-shore,Offshore,Offshore,Offshore",4
5842041f4e65fad6a7708a91,2024_02_13,30.66753984549761,-81.42983,Main Beach,1,0.35,0.6599999999999999,13,13,"CLEAR,NIGHT_CLEAR,NIGHT_CLEAR,NIGHT_CLEAR","Cross-shore,Offshore,Offshore,Offshore",4
5842041f4e65fad6a7708a92,2024_02_13,30.69983581209126,-81.42483,Ft. Clinch State Park,1.75,0.47,0.78,13,13,"CLEAR,NIGHT_CLEAR,NIGHT_CLEAR,NIGHT_CLEAR","Cross-shore,Offshore,Offshore,Offshore",4
5842041f4e65fad6a7708a93,2024_02_13,30.62059700777582,-81.437252942757425,Amelia Pier,1.75,0.44,0.7475,13,13,"CLEAR,NIGHT_CLEAR,NIGHT_CLEAR,NIGHT_CLEAR","Cross-shore,Offshore,Offshore,Offshore",4
5842041f4e65fad6a7708a95,2024_02_13,28.95125170929067,-80.83837,Bethune Beach,2,0.47,0.775,17,17,"MOSTLY_CLEAR,NIGHT_CLEAR,NIGHT_CLEAR,NIGHT_CLEAR","Offshore,Offshore,Offshore,Offshore",4
5842041f4e65fad6a7708a96,2024_02_13,29.03874288905362,-80.8933424949646,Flagler Ave.,1.9175,0.4541,0.7836333333333333,22,21,"CLEAR,NIGHT_MOSTLY_CLOUDY,NIGHT_CLEAR,NIGHT_CLEAR","Offshore,Offshore,Offshore,Offshore",4
5842041f4e65fad6a7708a98,2024_02_13,30.332297686992757,-81.39319,Atlantic Beach,1,0.3755575,0.5868075,14,14,"CLEAR,NIGHT_MOSTLY_CLOUDY,NIGHT_CLEAR,NIGHT_CLEAR","Cross-shore,Offshore,Offshore,Offshore",4
5842041f4e65fad6a7708a99,2024_02_13,29.87530059952514,-81.26757958498874,Middles,1.75,0.32653333333333334,0.6505,22,20,"CLEAR,NIGHT_CLEAR,NIGHT_CLEAR,NIGHT_CLOUDY","Offshore,Offshore,Offshore,Offshore",4
5842041f4e65fad6a7708a9a,2024_02_13,29.146475528378218,-80.96347,Sunglow Pier,2,0.41000000000000003,0.715,16,16,"CLEAR,NIGHT_MOSTLY_CLEAR,NIGHT_CLEAR,NIGHT_CLEAR","Offshore,Offshore,Offshore,Offshore",4
5842041f4e65fad6a7708a9b,2024_02_13,30.02251238001095,-81.32183077344881,Gate Station,1,0.27174166666666666,0.6021666666666667,22,20,"CLEAR,NIGHT_CLEAR,NIGHT_CLEAR,NIGHT_MOSTLY_CLOUDY","Cross-shore,Offshore,Offshore,Offshore",4
5842041f4e65fad6a7708a9c,2024_02_13,29.33976495417899,-81.0606,Bicentennial Park,2,0.3675,0.67,15,15,"CLEAR,NIGHT_CLEAR,NIGHT_CLEAR,NIGHT_CLEAR","Offshore,Offshore,Offshore,Offshore",4
5842041f4e65fad6a7708a9d,2024_02_13,29.08257353385602,-80.92136998257725,Ponce Inlet,3.5425,0.7241083333333334,1.0289083333333333,17,16,"CLEAR,NIGHT_MOSTLY_CLOUDY,NIGHT_CLEAR,NIGHT_CLEAR","Offshore,Offshore,Offshore,Offshore",4
5842041f4e65fad6a7708a9f,2024_02_13,27.862962005874696,-80.44668,Sebastian Inlet,3,0.61024875,0.9839125,21,19,"CLEAR,NIGHT_BRIEF_SHOWERS,NIGHT_CLEAR,NIGHT_MOSTLY_CLOUDY","Offshore,Offshore,Offshore,Offshore",4
5842041f4e65fad6a7708aa0,2024_02_13,30.292626880836885,-81.38579,Jacksonville Beach Pier,2.2075,0.6173083333333333,0.9780083333333334,15,14,"CLEAR,NIGHT_CLEAR,NIGHT_CLEAR,NIGHT_CLEAR","Cross-shore,Offshore,Offshore,Offshore",4
5842041f4e65fad6a7708aa1,2024_02_13,29.22878213864532,-81.00551,Main Street North,2,0.527245,0.696795,16,16,"CLEAR,NIGHT_CLEAR,NIGHT_CLEAR,NIGHT_CLEAR","Offshore,Offshore,Offshore,Offshore",4
5842041f4e65fad6a7708aa2,2024_02_13,29.21860397328164,-81.0019,Daytona Beach,2,0.4125,0.7125,16,16,"CLEAR,NIGHT_CLEAR,NIGHT_CLEAR,NIGHT_CLEAR","Offshore,Offshore,Offshore,Offshore",4
5842041f4e65fad6a7708aa3,2024_02_13,27.47531255634912,-80.28914,Ft. Pierce Inlet,3,0.7241083333333334,1.0276583333333333,21,19,"CLEAR,NIGHT_CLEAR,NIGHT_OVERCAST,NIGHT_MOSTLY_CLOUDY","Offshore,Offshore,Offshore,Offshore",4
5842041f4e65fad6a7708aa4,2024_02_13,29.29239875585548,-81.0386,Ormond Beach,2,0.39,0.6950000000000001,16,16,"CLEAR,NIGHT_CLEAR,NIGHT_CLEAR,NIGHT_CLEAR","Offshore,Offshore,Offshore,Offshore",4
5842041f4e65fad6a7708aa5,2024_02_13,29.91629441498523,-81.28801,Vilano,1.25,0.2325,0.535,15,15,"CLEAR,NIGHT_CLEAR,NIGHT_CLEAR,NIGHT_CLOUDY","Cross-shore,Offshore,Offshore,Offshore",4
5842041f4e65fad6a7708aa6,2024_02_13,27.876230736320828,-80.4551,Spanish House,2.8325,0.9640666666666666,1.1790333333333334,20,19,"MOSTLY_CLEAR,NIGHT_BRIEF_SHOWERS,NIGHT_CLEAR,NIGHT_MOSTLY_CLOUDY","Offshore,Offshore,Offshore,Offshore",4
5842041f4e65fad6a7708aa7,2024_02_13,28.64397251741012,-80.62328519781694,Playalinda,2,0.445,0.75,18,18,"CLEAR,NIGHT_CLEAR,NIGHT_CLEAR,NIGHT_CLEAR","Offshore,Offshore,Offshore,Offshore",4
5842041f4e65fad6a7708aa8,2024_02_13,28.406142,-80.588858,Jetty Park,1.5,0.34750000000000003,0.6525,19,19,"MOSTLY_CLEAR,NIGHT_CLEAR,NIGHT_CLEAR,NIGHT_CLEAR","Cross-shore,Offshore,Offshore,Offshore",4
5842041f4e65fad6a7708aa9,2024_02_13,28.49083243010974,-80.58001715986319,Kennedy Space Center,3,0.8175,1.0975000000000001,19,19,"CLEAR,NIGHT_CLEAR,NIGHT_MOSTLY_CLOUDY,NIGHT_CLEAR","Offshore,Offshore,Offshore,Offshore",4
5842041f4e65fad6a7708aab,2024_02_13,28.336757013024314,-80.60568,Lori Wilson Park,1,0.2557666666666667,0.5615666666666667,18,17,"MOSTLY_CLEAR,NIGHT_CLEAR,NIGHT_CLEAR,NIGHT_CLEAR","Offshore,Offshore,Offshore,Offshore",4
5842041f4e65fad6a7708aad,2024_02_13,27.76388821683801,-80.3962958234027,Wabasso,2,0.43,0.735,20,20,"CLEAR,NIGHT_CLEAR,NIGHT_CLEAR,NIGHT_MOSTLY_CLOUDY","Offshore,Offshore,Offshore,Offshore",4
5842041f4e65fad6a7708aae,2024_02_13,27.521583322459,-80.30987620353699,P.V. Martin's,2,0.5516,0.8828,21,19,"CLEAR,NIGHT_BRIEF_SHOWERS_POSSIBLE,NIGHT_OVERCAST,NIGHT_MOSTLY_CLOUDY","Offshore,Offshore,Offshore,Offshore",4
5842041f4e65fad6a7708aaf,2024_02_13,27.644996047720046,-80.35242676734924,Riomar,2,0.5749333333333333,0.8640666666666668,21,19,"MOSTLY_CLEAR,NIGHT_MOSTLY_CLOUDY,NIGHT_MOSTLY_CLOUDY,NIGHT_MOSTLY_CLOUDY","Offshore,Offshore,Offshore,Offshore",4
5842041f4e65fad6a7708ab1,2024_02_13,27.670121806659253,-80.36026954650879,Vero Pier,2.75,1.0657666666666668,1.3157333333333332,21,19,"MOSTLY_CLEAR,NIGHT_MOSTLY_CLOUDY,NIGHT_CLEAR,NIGHT_MOSTLY_CLOUDY","Offshore,Offshore,Offshore,Offshore",4
5842041f4e65fad6a7708ab2,2024_02_13,28.047705032021486,-80.54680109024048,Spessard Holland,2.9575,0.7240702083333334,1.08584875,20,19,"CLEAR,NIGHT_CLEAR,NIGHT_CLEAR,NIGHT_MOSTLY_CLEAR","Offshore,Offshore,Offshore,Offshore",4
5842041f4e65fad6a7708ab7,2024_02_13,28.135426226217064,-80.57895541191101,The Radisson,2.5825,0.7257333333333333,1.0215333333333334,19,18,"CLEAR,NIGHT_CLEAR,NIGHT_CLEAR,NIGHT_CLEAR","Offshore,Offshore,Offshore,Offshore",4
5842041f4e65fad6a7708ab8,2024_02_13,28.26664623907351,-80.60448467731476,Picnic Tables,2.25,0.73,0.9924999999999999,18,18,"CLEAR,NIGHT_CLEAR,NIGHT_CLEAR,NIGHT_CLEAR","Offshore,Offshore,Offshore,Offshore",4
5842041f4e65fad6a7708ab9,2024_02_13,28.200840983180232,-80.59493,Perkins,2.125,0.6307333333333334,0.9232,19,18,"CLEAR,NIGHT_CLEAR,NIGHT_CLEAR,NIGHT_CLEAR","Offshore,Offshore,Offshore,Offshore",4
5842041f4e65fad6a7708aba,2024_02_13,28.185652556759443,-80.59154,RC's,3,0.7514000000000001,1.08335,19,18,"CLEAR,NIGHT_CLEAR,NIGHT_CLEAR,NIGHT_CLEAR","Offshore,Offshore,Offshore,Offshore",4
5842041f4e65fad6a7708abc,2024_02_13,28.252541991968208,-80.60269,2nd Light,2,0.585,0.89,18,18,"CLEAR,NIGHT_CLEAR,NIGHT_CLEAR,NIGHT_CLEAR","Offshore,Offshore,Offshore,Offshore",4
5842041f4e65fad6a7708abd,2024_02_13,27.901611308716447,-80.4697,Bonsteel Park,2.3325,0.5199,0.8282,20,19,"CLEAR,NIGHT_BRIEF_SHOWERS,NIGHT_CLEAR,NIGHT_MOSTLY_CLOUDY","Offshore,Offshore,Offshore,Offshore",4
5842041f4e65fad6a7708abe,2024_02_13,28.2423394657007,-80.60104,Hangar's Beach,2.625,0.7057333333333333,0.9940333333333333,19,18,"CLEAR,NIGHT_CLEAR,NIGHT_CLEAR,NIGHT_CLEAR","Offshore,Offshore,Offshore,Offshore",4
5842041f4e65fad6a7708abf,2024_02_13,27.34018197146798,-80.23278,Walton Rocks,2.9575,0.7214,1.0312,22,20,"CLEAR,NIGHT_LIGHT_RAIN,NIGHT_OVERCAST,NIGHT_CLEAR","Offshore,Offshore,Offshore,Offshore",4
5842041f4e65fad6a7708ac0,2024_02_13,25.80407401902198,-80.1222227290161,30th Street,1,0.2,0.5075000000000001,23,23,"CLEAR,NIGHT_MOSTLY_CLOUDY,NIGHT_CLOUDY,NIGHT_MIST","Cross-shore,Cross-shore,Cross-shore,Cross-shore",4
5842041f4e65fad6a7708ac1,2024_02_13,25.76570280215999,-80.12983304957051,South Beach,0.25,-0.03375,0.28042500000000004,24,23,"CLEAR,NIGHT_CLEAR,NIGHT_CLEAR,NIGHT_MIST","Cross-shore,Cross-shore,Cross-shore,Cross-shore",4
5842041f4e65fad6a7708ac2,2024_02_13,26.058022412197,-80.10873562327671,Dania Pier,1,0.1725,0.4775,24,24,"CLEAR,NIGHT_CLOUDY,NIGHT_CLOUDY,NIGHT_MIST","Cross-shore,Cross-shore,Cross-shore,Cross-shore",4
5842041f4e65fad6a7708ac3,2024_02_13,26.04825428257198,-80.11153150137932,Franklin Street,1,0.27,0.575,24,24,"CLEAR,NIGHT_CLOUDY,NIGHT_CLOUDY,NIGHT_MIST","Cross-shore,Cross-shore,Cross-shore,Cross-shore",4
5842041f4e65fad6a7708ac4,2024_02_13,26.09086461141498,-80.10728410144065,John Lloyd State Park,1,0.26,0.5700000000000001,24,24,"CLEAR,NIGHT_OVERCAST,NIGHT_OVERCAST,NIGHT_MIST","Cross-shore,Cross-shore,Cross-shore,Cross-shore",4
5842041f4e65fad6a7708ac5,2024_02_13,26.0971397396683,-80.10298876028907,Spoils,1,0.2,0.51,24,24,"CLEAR,NIGHT_OVERCAST,NIGHT_OVERCAST,NIGHT_CLEAR","Cross-shore,Cross-shore,Cross-shore,Cross-shore",4
5842041f4e65fad6a7708ac6,2024_02_13,26.18920557475824,-80.09224470008016,Commercial Pier,1,0.2925,0.5975,24,24,"CLEAR,NIGHT_OVERCAST,NIGHT_OVERCAST,NIGHT_CLOUDY","Cross-shore,Cross-shore,Cross-shore,Cross-shore",4
5842041f4e65fad6a7708ac7,2024_02_13,28.289851576629342,-80.6063,16th St. South,1.875,0.4166,0.7207333333333333,18,17,"MOSTLY_CLEAR,NIGHT_CLEAR,NIGHT_CLEAR,NIGHT_CLEAR","Offshore,Offshore,Offshore,Offshore",4
5842041f4e65fad6a7708ac8,2024_02_13,26.23467460139735,-80.08739675534814,Pompano Pier,1,0.0733,0.37243333333333334,24,23,"CLEAR,NIGHT_CLEAR,NIGHT_LIGHT_RAIN,NIGHT_OVERCAST","Cross-shore,Cross-shore,Cross-shore,Cross-shore",4
5842041f4e65fad6a7708acb,2024_02_13,26.44179551370651,-80.05928855229453,Atlantic Dunes Park,0.25,0.11453687500000004,0.41719416666666664,24,22,"CLEAR,NIGHT_OVERCAST,NIGHT_LIGHT_RAIN,NIGHT_MOSTLY_CLEAR","Cross-shore,Cross-shore,Offshore,Cross-shore",4
5842041f4e65fad6a7708acd,2024_02_13,26.62215707439298,-80.03599398392342,Hilton Hotel Backyard,1.25,0.37329999999999997,0.6791,24,22,"CLEAR,NIGHT_MOSTLY_CLOUDY,NIGHT_MOSTLY_CLOUDY,NIGHT_CLEAR","Cross-shore,Cross-shore,Offshore,Cross-shore",4
5842041f4e65fad6a7708ace,2024_02_13,26.96418190555367,-80.07769168113562,Coral Cove Park,2.8325,0.9132666666666667,1.1015666666666666,22,21,"MOSTLY_CLEAR,NIGHT_BRIEF_SHOWERS,NIGHT_MOSTLY_CLOUDY,NIGHT_MOSTLY_CLEAR","Offshore,Offshore,Offshore,Offshore",4
5842041f4e65fad6a7708acf,2024_02_13,26.7029496416037,-80.0318372872607,Palm Beach,1.4175,0.4358,0.7399333333333333,24,22,"CLEAR,NIGHT_SHOWERS,NIGHT_MOSTLY_CLOUDY,NIGHT_CLEAR","Offshore,Cross-shore,Offshore,Cross-shore",4
5842041f4e65fad6a7708ad0,2024_02_13,26.97679878167375,-80.08141631388132,Blowing Rocks,2,0.5324333333333333,0.8590666666666666,22,21,"MOSTLY_CLEAR,NIGHT_SHOWERS,NIGHT_CLEAR,NIGHT_MOSTLY_CLEAR","Offshore,Offshore,Offshore,Offshore",4
5842041f4e65fad6a7708ad2,2024_02_13,26.45661880078336,-80.05699952321751,Delray Beach,0.25,0.09763333333333335,0.402225,24,22,"CLEAR,NIGHT_OVERCAST,NIGHT_LIGHT_RAIN,NIGHT_MOSTLY_CLEAR","Cross-shore,Cross-shore,Offshore,Cross-shore",4
5842041f4e65fad6a7708ad3,2024_02_13,27.205685534312778,-80.16826629638672,Fletcher's,2,0.6191,0.9065666666666667,22,21,"CLEAR,NIGHT_CLEAR,NIGHT_DRIZZLE,NIGHT_LIGHT_SHOWERS_POSSIBLE","Offshore,Offshore,Offshore,Offshore",4
5842041f4e65fad6a7708ad5,2024_02_13,26.5848450388814,-80.03649735753257,Lantana Public Beach,1.25,0.42746666666666666,0.7307666666666667,24,22,"CLEAR,NIGHT_MOSTLY_CLOUDY,NIGHT_CLEAR,NIGHT_CLEAR","Cross-shore,Cross-shore,Offshore,Cross-shore",4
5842041f4e65fad6a7708ad6,2024_02_13,25.77468432731322,-80.12884045797499,5th Street,1,0.1625,0.47,23,23,"CLEAR,NIGHT_MOSTLY_CLOUDY,NIGHT_CLEAR,NIGHT_OVERCAST","Cross-shore,Cross-shore,Cross-shore,Cross-shore",4
5842041f4e65fad6a7708ad7,2024_02_13,25.795157990715975,-80.12527585029602,21st Street,1,0.1975,0.5,23,23,"CLEAR,NIGHT_MOSTLY_CLOUDY,NIGHT_CLEAR,NIGHT_OVERCAST","Cross-shore,Cross-shore,Cross-shore,Cross-shore",4
5842041f4e65fad6a7708ad8,2024_02_13,25.897806453088073,-80.1211827993393,Haulover Inlet (South Jetty),1,0.1425,0.45,23,23,"CLEAR,NIGHT_MOSTLY_CLOUDY,NIGHT_CLOUDY,NIGHT_MIST","Cross-shore,Cross-shore,Cross-shore,Cross-shore",4
5842041f4e65fad6a7708ad9,2024_02_13,25.90147392328634,-80.12110769748688,Haulover Inlet (North Jetty),1,0.2125,0.52,23,23,"CLEAR,NIGHT_MOSTLY_CLOUDY,NIGHT_CLOUDY,NIGHT_MIST","Cross-shore,Cross-shore,Cross-shore,Cross-shore",4
5842041f4e65fad6a7708ada,2024_02_13,25.87049374242476,-80.11828560342356,85th Street,1,0.12,0.42000000000000004,23,23,"CLEAR,NIGHT_CLEAR,NIGHT_OVERCAST,NIGHT_CLEAR","Cross-shore,Cross-shore,Offshore,Cross-shore",4
5842041f4e65fad6a7708adb,2024_02_13,26.25486382031396,-80.0805,Hillsboro Inlet,1,0.35400333333333334,0.57536,27,26,"CLEAR,NIGHT_CLOUDY,NIGHT_LIGHT_RAIN,NIGHT_MOSTLY_CLOUDY","Cross-shore,Cross-shore,Cross-shore,Cross-shore",4
5842041f4e65fad6a7708add,2024_02_13,26.29705672965111,-80.07612393274484,Hillsboro Beach,1,0.19996666666666668,0.5066,27,26,"CLEAR,NIGHT_CLEAR,NIGHT_LIGHT_RAIN,NIGHT_CLEAR","Cross-shore,Cross-shore,Offshore,Cross-shore",4
5842041f4e65fad6a7708ade,2024_02_13,26.36569956413266,-80.06717936869391,Red Reef Park,1,0.2966333333333333,0.6032666666666666,24,22,"CLEAR,NIGHT_CLEAR,NIGHT_OVERCAST,NIGHT_CLEAR","Cross-shore,Cross-shore,Offshore,Cross-shore",4
5842041f4e65fad6a7708adf,2024_02_13,26.54593873498907,-80.04104359585143,Boynton Beach Inlet (Northside),1,0.3091333333333333,0.6132666666666666,24,22,"CLEAR,NIGHT_MOSTLY_CLOUDY,NIGHT_MOSTLY_CLOUDY,NIGHT_CLEAR","Cross-shore,Cross-shore,Offshore,Cross-shore",4
5842041f4e65fad6a7708ae0,2024_02_13,26.92746505629809,-80.06721138954163,Corners,3,0.6149764583333334,0.98805875,24,22,"MOSTLY_CLEAR,NIGHT_MOSTLY_CLOUDY,NIGHT_CLEAR,NIGHT_CLEAR","Offshore,Offshore,Offshore,Offshore",4
5842041f4e65fad6a7708ae1,2024_02_13,26.76983179886943,-80.03413481937037,The Cove,1.9175,0.42746666666666666,0.7341,24,22,"CLEAR,NIGHT_MOSTLY_CLOUDY,NIGHT_CLEAR,NIGHT_CLEAR","Offshore,Cross-shore,Offshore,Offshore",4
5842041f4e65fad6a7708ae3,2024_02_13,26.39224485175123,-80.0650461233983,Japanese Rock,1,0.26413333333333333,0.5707666666666666,24,22,"CLEAR,NIGHT_OVERCAST,NIGHT_LIGHT_RAIN,NIGHT_MOSTLY_CLOUDY","Cross-shore,Cross-shore,Offshore,Cross-shore",4
5842041f4e65fad6a7708ae4,2024_02_13,29.94810928551321,-85.42545434612366,Mexico Beach,1.75,1.2725,1.5725,16,16,"CLEAR,NIGHT_CLEAR,NIGHT_CLEAR,NIGHT_CLEAR","Onshore,Cross-shore,Cross-shore,Cross-shore",4
5842041f4e65fad6a7708ae5,2024_02_13,30.11752500931267,-85.7306039427457,Shell Island,1.75,1.2075,1.5150000000000001,16,16,"CLEAR,NIGHT_CLEAR,NIGHT_MOSTLY_CLOUDY,NIGHT_CLEAR","Onshore,Cross-shore,Cross-shore,Cross-shore",4
5842041f4e65fad6a7708ae7,2024_02_13,29.94901514702268,-85.43042978529013,D.J.'s,2.5,1.2675,1.5725,16,16,"CLEAR,NIGHT_CLEAR,NIGHT_CLEAR,NIGHT_CLEAR","Onshore,Cross-shore,Cross-shore,Cross-shore",4
5842041f4e65fad6a7708ae8,2024_02_13,30.12396111446713,-85.73636797034509,St. Andrew's Park,1.75,1.0752583333333332,1.3931749999999998,17,16,"CLEAR,NIGHT_CLEAR,NIGHT_MOSTLY_CLOUDY,NIGHT_CLEAR","Onshore,Cross-shore,Cross-shore,Cross-shore",4
5842041f4e65fad6a7708ae9,2024_02_13,30.16781531760227,-85.79604918824084,Spinnaker,1.75,1.0046333333333333,1.3196333333333334,17,16,"CLEAR,NIGHT_CLEAR,NIGHT_MOSTLY_CLOUDY,NIGHT_CLEAR","Onshore,Cross-shore,Cross-shore,Offshore",4
5842041f4e65fad6a7708aea,2024_02_13,30.18877050526983,-85.83243530466363,Wood Pier,1.75,1.1693500000000001,1.4779833333333334,17,16,"MOSTLY_CLOUDY,NIGHT_CLEAR,NIGHT_MOSTLY_CLOUDY,NIGHT_CLEAR","Onshore,Cross-shore,Cross-shore,Cross-shore",4
5842041f4e65fad6a7708aeb,2024_02_13,30.2676205895555,-85.9938578144113,Inlet Beach Pier,1.75,1.1406,1.4542333333333333,17,16,"MOSTLY_CLOUDY,NIGHT_CLEAR,NIGHT_CLEAR,NIGHT_CLEAR","Onshore,Cross-shore,Cross-shore,Cross-shore",4
5842041f4e65fad6a7708aec,2024_02_13,30.31815542759119,-86.1383771867044,Bud and Alley's,1.75,1.0101833333333334,1.3038166666666666,17,16,"CLEAR,NIGHT_OVERCAST,NIGHT_OVERCAST,NIGHT_CLEAR","Onshore,Cross-shore,Cross-shore,Offshore",4
5842041f4e65fad6a7708aed,2024_02_13,30.32686082481946,-86.16650590275447,Grayton Beach,1.75,0.9785166666666667,1.2000666666666666,17,16,"MOSTLY_CLEAR,NIGHT_OVERCAST,NIGHT_OVERCAST,NIGHT_CLEAR","Onshore,Cross-shore,Cross-shore,Cross-shore",4
5842041f4e65fad6a7708aee,2024_02_13,30.33661488976303,-86.20094370184573,Blue Mountain Beach,1.75,1.0489333333333333,1.2354833333333333,17,16,"CLEAR,NIGHT_OVERCAST,NIGHT_CLOUDY,NIGHT_CLEAR","Onshore,Cross-shore,Cross-shore,Offshore",4
5842041f4e65fad6a7708aef,2024_02_13,30.37677202831587,-86.38513326644897,Pompano Joe's,0.75,0.8551833333333333,1.1638166666666665,17,16,"CLEAR,NIGHT_CLOUDY,NIGHT_CLEAR,NIGHT_CLEAR","Onshore,Cross-shore,Cross-shore,Offshore",4
5842041f4e65fad6a7708af0,2024_02_13,30.37429731725911,-86.36686966905461,Seascape,0.75,1.0431,1.24715,17,16,"CLEAR,NIGHT_CLOUDY,NIGHT_CLOUDY,NIGHT_CLEAR","Onshore,Cross-shore,Cross-shore,Offshore",4
5842041f4e65fad6a7708af1,2024_02_13,30.382815988547186,-86.45838975906372,The Back Porch,1,0.84935,1.1604833333333333,17,16,"CLEAR,NIGHT_CLOUDY,NIGHT_CLOUDY,NIGHT_CLEAR","Cross-shore,Cross-shore,Cross-shore,Offshore",4
5842041f4e65fad6a7708af2,2024_02_13,30.21207176798612,-85.87989730830542,Panama City Pier,1.75,1.1026833333333332,1.3842333333333334,17,16,"MOSTLY_CLOUDY,NIGHT_MOSTLY_CLOUDY,NIGHT_CLOUDY,NIGHT_CLEAR","Onshore,Cross-shore,Cross-shore,Cross-shore",4
5842041f4e65fad6a7708af3,2024_02_13,30.37521499110326,-86.37169944119874,Whale's Tail,1,0.9401833333333333,1.2013166666666666,17,16,"CLEAR,NIGHT_CLOUDY,NIGHT_CLOUDY,NIGHT_CLEAR","Onshore,Cross-shore,Cross-shore,Cross-shore",4
5842041f4e65fad6a7708af4,2024_02_13,30.38120596658251,-86.43045768307817,Old Crystal Pier,1,0.9385166666666667,1.1825666666666668,17,16,"CLEAR,NIGHT_CLOUDY,NIGHT_CLOUDY,NIGHT_CLEAR","Cross-shore,Cross-shore,Cross-shore,Offshore",4
5842041f4e65fad6a7708af5,2024_02_13,30.38090573159031,-86.50654862060082,Jetty East,1.75,0.9639333333333333,1.2325666666666666,17,16,"CLEAR,NIGHT_CLOUDY,NIGHT_CLOUDY,NIGHT_CLEAR","Cross-shore,Cross-shore,Offshore,Offshore",4
5842041f4e65fad6a7708af6,2024_02_13,30.37584509640838,-86.50563273884252,HMO's,1.25,0.9639333333333333,1.2375666666666667,17,16,"CLEAR,NIGHT_CLOUDY,NIGHT_CLOUDY,NIGHT_CLEAR","Cross-shore,Cross-shore,Offshore,Offshore",4
5842041f4e65fad6a7708af7,2024_02_13,30.38124006131522,-86.50052254675529,Two By Fours,1.25,0.9781,1.24965,17,16,"CLEAR,NIGHT_CLOUDY,NIGHT_CLOUDY,NIGHT_CLEAR","Cross-shore,Offshore,Offshore,Offshore",4
5842041f4e65fad6a7708af8,2024_02_13,30.38250751017554,-86.45775957227345,The Pumphouse,2,1.0556,1.30465,17,16,"CLEAR,NIGHT_CLOUDY,NIGHT_CLOUDY,NIGHT_CLEAR","Cross-shore,Cross-shore,Cross-shore,Offshore",4
5842041f4e65fad6a7708af9,2024_02_13,30.38655981578935,-86.52475380603576,NCO Club,1.75,0.9735166666666666,1.2450666666666668,17,16,"CLEAR,NIGHT_CLOUDY,NIGHT_CLOUDY,NIGHT_CLEAR","Cross-shore,Offshore,Offshore,Offshore",4
5842041f4e65fad6a7708afa,2024_02_13,30.39024516541047,-86.59341,Okaloosa Pier,1,0.8647666666666667,1.1784,17,16,"CLEAR,NIGHT_CLOUDY,NIGHT_CLOUDY,NIGHT_CLEAR","Cross-shore,Cross-shore,Cross-shore,Cross-shore",4
5842041f4e65fad6a7708afb,2024_02_13,30.39281125722673,-86.59766184693287,Dead Man's,1.5,0.8689333333333333,1.1775666666666667,17,16,"CLEAR,NIGHT_CLOUDY,NIGHT_CLOUDY,NIGHT_CLEAR","Cross-shore,Offshore,Offshore,Offshore",4
5842041f4e65fad6a7708afc,2024_02_13,30.32703176167034,-87.14196,Pensacola Pier,1,0.8075,1.0899999999999999,17,17,"CLEAR,NIGHT_CLOUDY,NIGHT_CLOUDY,NIGHT_CLOUDY","Cross-shore,Offshore,Offshore,Offshore",4
5842041f4e65fad6a7708afd,2024_02_13,30.37920054094992,-86.85583,Navarre Beach,2.29,0.88068625,1.29351875,17,16,"CLEAR,NIGHT_OVERCAST,NIGHT_CLOUDY,NIGHT_CLEAR","Cross-shore,Offshore,Offshore,Offshore",4
5842041f4e65fad6a7708afe,2024_02_13,30.39491626029151,-86.61248004999744,Blue Horizon Motel,1.75,0.8497666666666667,1.1559,17,16,"CLEAR,NIGHT_CLOUDY,NIGHT_CLOUDY,NIGHT_CLEAR","Cross-shore,Offshore,Offshore,Offshore",4
5842041f4e65fad6a7708aff,2024_02_13,30.29345899260828,-87.43546812169637,First Parking Lot,2,0.6675,0.975,17,17,"CLEAR,NIGHT_CLOUDY,NIGHT_CLOUDY,NIGHT_MOSTLY_CLOUDY","Cross-shore,Offshore,Offshore,Offshore",4
5842041f4e65fad6a7708b00,2024_02_13,30.29767401311303,-87.41361598257893,Johnsons Beach,1.75,0.6475,0.9225,17,17,"CLEAR,NIGHT_OVERCAST,NIGHT_CLOUDY,NIGHT_MOSTLY_CLOUDY","Cross-shore,Offshore,Offshore,Offshore",4
5842041f4e65fad6a7708b01,2024_02_13,30.29513397370759,-87.42642359089679,Sandy Key,2,0.6675,0.9724999999999999,17,17,"CLEAR,NIGHT_CLOUDY,NIGHT_CLOUDY,NIGHT_MOSTLY_CLOUDY","Cross-shore,Offshore,Offshore,Offshore",4
5842041f4e65fad6a7708b03,2024_02_13,30.377504907388026,-86.86444,Navarre Pier,2.29,0.8494333333333334,1.2472416666666666,17,16,"CLEAR,NIGHT_OVERCAST,NIGHT_CLOUDY,NIGHT_CLEAR","Offshore,Offshore,Offshore,Offshore",4
5842041f4e65fad6a7708b04,2024_02_13,30.31482647791307,-87.26163894669438,Pickens Point Dunes,1.75,0.8425,1.145,17,17,"CLEAR,NIGHT_CLOUDY,NIGHT_CLOUDY,NIGHT_CLEAR","Cross-shore,Offshore,Offshore,Offshore",4
5842041f4e65fad6a7708b05,2024_02_13,30.32632110836516,-87.16019503253068,Slabs,1,0.8175,1.105,17,17,"CLEAR,NIGHT_CLOUDY,NIGHT_CLOUDY,NIGHT_CLOUDY","Cross-shore,Offshore,Offshore,Offshore",4
5842041f4e65fad6a7708b06,2024_02_13,30.32739721382043,-87.30406515493348,Pickens Point,1,0.7424999999999999,1.05,17,17,"CLEAR,NIGHT_CLOUDY,NIGHT_CLOUDY,NIGHT_CLEAR","Onshore,Cross-shore,Cross-shore,Cross-shore",4
5842041f4e65fad6a7708b07,2024_02_13,30.27406893266753,-87.5436749948929,Bungalows,2,0.7,1.0025,17,17,"CLEAR,NIGHT_OVERCAST,NIGHT_CLOUDY,NIGHT_CLEAR","Cross-shore,Offshore,Offshore,Offshore",4
5842041f4e65fad6a7708b08,2024_02_13,27.99627311846992,-82.82942,880,1,0.8768675,1.37011,17,17,"DRIZZLE,NIGHT_CLEAR,NIGHT_CLEAR,NIGHT_CLEAR","Cross-shore,Onshore,Onshore,Onshore",4
5842041f4e65fad6a7708b09,2024_02_13,27.97779860371595,-82.83246509090527,Pier 60,1,1.085,1.3425,17,17,"MIST,NIGHT_CLEAR,NIGHT_MOSTLY_CLOUDY,NIGHT_CLEAR","Cross-shore,Onshore,Onshore,Onshore",4
5842041f4e65fad6a7708b0a,2024_02_13,27.96296387618043,-82.8332635965418,Sand Key,1,1.1125,1.42,17,17,"MIST,NIGHT_MOSTLY_CLEAR,NIGHT_MOSTLY_CLOUDY,NIGHT_CLOUDY","Cross-shore,Onshore,Onshore,Onshore",4
5842041f4e65fad6a7708b0b,2024_02_13,27.92492619212885,-82.8449122845279,Belleair,1,1.1325,1.4425,17,17,"MIST,NIGHT_CLEAR,NIGHT_MOSTLY_CLOUDY,NIGHT_CLOUDY","Cross-shore,Onshore,Onshore,Onshore",4
5842041f4e65fad6a7708b0c,2024_02_13,27.882,-82.854,Indian Rocks Beach,1,1.055,1.36,17,17,"MIST,NIGHT_MOSTLY_CLEAR,NIGHT_MOSTLY_CLOUDY,NIGHT_CLOUDY","Cross-shore,Onshore,Onshore,Onshore",4
5842041f4e65fad6a7708b0d,2024_02_13,27.83106104966094,-82.83550218771384,Redington Breakwater,1,1.21,1.5175,17,17,"LIGHT_RAIN,NIGHT_CLEAR,NIGHT_CLEAR,NIGHT_CLOUDY","Cross-shore,Onshore,Onshore,Onshore",4
5842041f4e65fad6a7708b0e,2024_02_13,27.74369029906206,-82.76053473435867,Middle Jetty,1,1.0875,1.395,17,17,"MIST,NIGHT_CLEAR,NIGHT_MOSTLY_CLEAR,NIGHT_CLOUDY","Cross-shore,Onshore,Onshore,Onshore",4
5842041f4e65fad6a7708b0f,2024_02_13,27.82174178852146,-82.83148664631841,Redington Pier,1,1.2,1.5025,17,17,"LIGHT_RAIN,NIGHT_CLEAR,NIGHT_CLEAR,NIGHT_CLOUDY","Cross-shore,Onshore,Onshore,Onshore",4
5842041f4e65fad6a7708b10,2024_02_13,27.31496308261514,-82.5830466912004,Lido Beach,1,0.8125,1.115,18,18,"MIST,NIGHT_MOSTLY_CLEAR,NIGHT_CLEAR,NIGHT_CLEAR","Cross-shore,Onshore,Onshore,Onshore",4
5842041f4e65fad6a7708b11,2024_02_13,27.31122010159892,-82.57833234007632,Coolidge,1,0.7975,1.105,18,18,"MIST,NIGHT_MOSTLY_CLEAR,NIGHT_CLEAR,NIGHT_CLEAR","Cross-shore,Onshore,Onshore,Onshore",4
5842041f4e65fad6a7708b12,2024_02_13,27.26471672017615,-82.55464835167173,Siesta Key,1,0.6206166666666667,0.9254,19,18,"MIST,NIGHT_CLEAR,NIGHT_CLEAR,NIGHT_CLEAR","Cross-shore,Onshore,Onshore,Onshore",4
