_id,date,lat,lon,name,daily_mean_swell_rating,daily_mean_wave_height_min,daily_mean_wave_height_max,daily_mean_water_temperature_max,daily_mean_water_temperature_min,weather_per_timestamp,wind_per_timestamp,n_samples_per_day
5842041f4e65fad6a77087f9,2024_06_11,37.741668,-122.51038,South Ocean Beach,2.3333333333333335,1.1010111111111112,1.394218888888889,11,11,"NIGHT_MIST,NIGHT_MIST,NIGHT_MIST,NIGHT_MIST,NIGHT_MIST,NIGHT_MIST,MIST,MIST,MIST","Onshore,Cross-shore,Cross-shore,Cross-shore,Cross-shore,Cross-shore,Cross-shore,Cross-shore,Onshore",9
5842041f4e65fad6a7708801,2024_06_11,37.49142,-122.50428,Maverick's,NA,1.5911111111111111,1.8922222222222222,14.444444444444445,14.444444444444445,"NIGHT_MIST,NIGHT_MIST,NIGHT_MIST,NIGHT_BRIEF_SHOWERS,NIGHT_MIST,NIGHT_BRIEF_SHOWERS,MIST,MIST,MOSTLY_CLOUDY","Onshore,Onshore,Onshore,Onshore,Cross-shore,Onshore,Onshore,Onshore,Onshore",9
5842041f4e65fad6a7708804,2024_06_11,44.997,-124.018,Roads End,2.2222222222222223,0.7233333333333334,1.0144444444444445,12.555555555555555,12.555555555555555,"NIGHT_MOSTLY_CLOUDY,NIGHT_MIST,NIGHT_MOSTLY_CLOUDY,NIGHT_MOSTLY_CLOUDY,NIGHT_MIST,NIGHT_MIST,MIST,MIST,BRIEF_SHOWERS","Cross-shore,Cross-shore,Cross-shore,Cross-shore,Onshore,Cross-shore,Cross-shore,Cross-shore,Cross-shore",9
5842041f4e65fad6a7708805,2024_06_11,36.95188851423011,-122.02522,Steamer Lane,3,0.73717,1.1332033333333333,13,13,"NIGHT_CLEAR,NIGHT_CLEAR,NIGHT_CLEAR,NIGHT_MOSTLY_CLOUDY,NIGHT_CLEAR,NIGHT_MOSTLY_CLEAR,MOSTLY_CLOUDY,MOSTLY_CLOUDY,MOSTLY_CLOUDY","Onshore,Onshore,Cross-shore,Cross-shore,Cross-shore,Onshore,Onshore,Cross-shore,Cross-shore",9
5842041f4e65fad6a7708806,2024_06_11,36.95918781542251,-122.02489,Cowells,1.3333333333333333,0.09313333333333333,0.30973666666666666,13,13,"NIGHT_CLEAR,NIGHT_CLEAR,NIGHT_CLEAR,NIGHT_MOSTLY_CLOUDY,NIGHT_CLEAR,NIGHT_MOSTLY_CLEAR,MOSTLY_CLOUDY,MOSTLY_CLOUDY,MOSTLY_CLOUDY","Onshore,Onshore,Offshore,Offshore,Offshore,Offshore,Onshore,Onshore,Offshore",9
5842041f4e65fad6a7708807,2024_06_11,36.95468082526536,-121.97234,Pleasure Point,3,0.71157,1.0658033333333334,13,13,"NIGHT_BRIEF_SHOWERS,NIGHT_MIST,NIGHT_MIST,NIGHT_MIST,NIGHT_MOSTLY_CLEAR,NIGHT_MOSTLY_CLEAR,MOSTLY_CLEAR,MOSTLY_CLEAR,MOSTLY_CLEAR","Onshore,Onshore,Onshore,Onshore,Onshore,Onshore,Onshore,Onshore,Onshore",9
5842041f4e65fad6a770880a,2024_06_11,35.37815414378748,-120.86589,Morro Bay,3,0.9866266666666667,1.2196588888888888,11,11,"NIGHT_MOSTLY_CLEAR,NIGHT_MOSTLY_CLOUDY,NIGHT_MIST,NIGHT_MOSTLY_CLOUDY,NIGHT_MOSTLY_CLOUDY,NIGHT_MOSTLY_CLOUDY,MOSTLY_CLOUDY,MOSTLY_CLOUDY,MOSTLY_CLEAR","Cross-shore,Onshore,Onshore,Onshore,Onshore,Onshore,Cross-shore,Cross-shore,Onshore",9
5842041f4e65fad6a770880b,2024_06_11,36.95782765000708,-121.96729,Jack's,2.241111111111111,0.3765411111111111,0.6793477777777778,13,13,"NIGHT_BRIEF_SHOWERS,NIGHT_MIST,NIGHT_MIST,NIGHT_MIST,NIGHT_MOSTLY_CLEAR,NIGHT_MOSTLY_CLEAR,MOSTLY_CLEAR,MOSTLY_CLEAR,MOSTLY_CLEAR","Onshore,Onshore,Onshore,Onshore,Onshore,Onshore,Onshore,Onshore,Cross-shore",9
5842041f4e65fad6a770880d,2024_06_11,34.29982939936656,-119.3489016603669,Gold Coast Beachbreaks,2,0.27,0.5755555555555556,17,17,"NIGHT_CLEAR,NIGHT_CLEAR,NIGHT_CLEAR,NIGHT_CLEAR,NIGHT_MOSTLY_CLEAR,NIGHT_MOSTLY_CLOUDY,MOSTLY_CLOUDY,MOSTLY_CLOUDY,MOSTLY_CLOUDY","Onshore,Offshore,Cross-shore,Onshore,Offshore,Offshore,Offshore,Cross-shore,Cross-shore",9
5842041f4e65fad6a7708811,2024_06_11,34.245076,-119.26799,Ventura Harbor,2.87,0.6569922222222222,0.9970888888888889,14,14,"NIGHT_CLEAR,NIGHT_CLEAR,NIGHT_MOSTLY_CLOUDY,NIGHT_MOSTLY_CLOUDY,NIGHT_MOSTLY_CLOUDY,NIGHT_MOSTLY_CLOUDY,MOSTLY_CLOUDY,MOSTLY_CLOUDY,MOSTLY_CLOUDY","Onshore,Onshore,Onshore,Offshore,Offshore,Offshore,Offshore,Offshore,Cross-shore",9
5842041f4e65fad6a7708813,2024_06_11,34.051,-118.964,County Line,2.888888888888889,0.7094222222222222,1.0130255555555556,14,14,"NIGHT_CLEAR,NIGHT_CLEAR,NIGHT_CLEAR,NIGHT_CLEAR,NIGHT_MIST,NIGHT_MIST,MIST,MIST,MIST","Offshore,Offshore,Offshore,Offshore,Offshore,Offshore,Offshore,Offshore,Offshore",9
5842041f4e65fad6a7708814,2024_06_11,34.37256264378892,-119.47797,Rincon,2,0.1688888888888889,0.47333333333333333,16.444444444444443,16.444444444444443,"NIGHT_MIST,NIGHT_BRIEF_SHOWERS,NIGHT_MIST,NIGHT_MIST,NIGHT_CLEAR,NIGHT_MOSTLY_CLOUDY,MOSTLY_CLOUDY,MOSTLY_CLOUDY,MOSTLY_CLOUDY","Onshore,Onshore,Onshore,Onshore,Onshore,Onshore,Onshore,Cross-shore,Onshore",9
5842041f4e65fad6a7708817,2024_06_11,34.03096101876324,-118.68109,Malibu Third Point,3,0.47777777777777775,0.7833333333333333,16.444444444444443,16.444444444444443,"NIGHT_MOSTLY_CLEAR,NIGHT_MOSTLY_CLEAR,NIGHT_MOSTLY_CLOUDY,NIGHT_MOSTLY_CLOUDY,NIGHT_MOSTLY_CLEAR,NIGHT_MIST,MOSTLY_CLEAR,MOSTLY_CLOUDY,MOSTLY_CLEAR","Onshore,Onshore,Onshore,Onshore,Onshore,Onshore,Cross-shore,Cross-shore,Cross-shore",9
5842041f4e65fad6a7708819,2024_06_11,33.984079047970035,-118.47382,Venice Beach,3,0.5954,0.9546666666666667,17,17,"NIGHT_MIST,NIGHT_MIST,NIGHT_MOSTLY_CLOUDY,NIGHT_MOSTLY_CLOUDY,NIGHT_CLEAR,NIGHT_MOSTLY_CLOUDY,MOSTLY_CLOUDY,MOSTLY_CLOUDY,MOSTLY_CLOUDY","Cross-shore,Cross-shore,Cross-shore,Cross-shore,Cross-shore,Onshore,Cross-shore,Cross-shore,Cross-shore",9
5842041f4e65fad6a770881e,2024_06_11,34.037508438646746,-118.5834,Topanga Beach,3,0.44730000000000003,0.7928444444444445,15,15,"NIGHT_CLEAR,NIGHT_CLEAR,NIGHT_CLEAR,NIGHT_CLEAR,NIGHT_CLEAR,NIGHT_MIST,MIST,MOSTLY_CLEAR,MOSTLY_CLEAR","Cross-shore,Cross-shore,Cross-shore,Cross-shore,Cross-shore,Offshore,Offshore,Offshore,Offshore",9
5842041f4e65fad6a7708820,2024_06_11,33.73954373690184,-118.11414,Seal Beach Jetty,2.5555555555555554,0.4211111111111111,0.7266666666666667,18,18,"NIGHT_CLEAR,NIGHT_CLEAR,NIGHT_CLEAR,NIGHT_CLEAR,NIGHT_MOSTLY_CLOUDY,NIGHT_OVERCAST,OVERCAST,OVERCAST,OVERCAST","Onshore,Onshore,Onshore,Onshore,Onshore,Onshore,Onshore,Onshore,Onshore",9
5842041f4e65fad6a7708822,2024_06_11,33.72309983348433,-118.08078,Anderson Street,1.5744444444444445,0.2032,0.5469888888888889,16,16,"NIGHT_CLEAR,NIGHT_CLEAR,NIGHT_CLEAR,NIGHT_CLEAR,NIGHT_MOSTLY_CLOUDY,NIGHT_OVERCAST,OVERCAST,OVERCAST,OVERCAST","Onshore,Onshore,Onshore,Onshore,Onshore,Onshore,Onshore,Onshore,Onshore",9
5842041f4e65fad6a7708827,2024_06_11,33.65574085629463,-118.00397,Huntington Beach Pier Northside,2.888888888888889,0.7860444444444444,1.1934111111111112,16,16,"NIGHT_CLEAR,NIGHT_MIST,NIGHT_MOSTLY_CLEAR,NIGHT_MOSTLY_CLOUDY,NIGHT_CLOUDY,NIGHT_CLOUDY,CLOUDY,CLEAR,CLOUDY","Onshore,Onshore,Onshore,Onshore,Onshore,Onshore,Onshore,Onshore,Onshore",9
5842041f4e65fad6a7708828,2024_06_11,34.272041739333,-119.29976,C St.,2.9444444444444446,0.5158366666666667,0.8168111111111112,14,14,"NIGHT_MOSTLY_CLEAR,NIGHT_MOSTLY_CLEAR,NIGHT_MOSTLY_CLOUDY,NIGHT_MOSTLY_CLOUDY,NIGHT_MOSTLY_CLOUDY,NIGHT_MIST,MOSTLY_CLOUDY,MOSTLY_CLOUDY,MIST","Onshore,Onshore,Onshore,Onshore,Cross-shore,Cross-shore,Cross-shore,Cross-shore,Onshore",9
5842041f4e65fad6a770882a,2024_06_11,33.61555743705257,-117.93676,Newport Lower Jetties,2.6666666666666665,0.5720222222222222,0.8780666666666667,16,16,"NIGHT_CLEAR,NIGHT_CLEAR,NIGHT_MOSTLY_CLOUDY,NIGHT_MOSTLY_CLOUDY,NIGHT_OVERCAST,NIGHT_OVERCAST,OVERCAST,OVERCAST,OVERCAST","Onshore,Onshore,Onshore,Onshore,Onshore,Onshore,Onshore,Onshore,Cross-shore",9
5842041f4e65fad6a770882b,2024_06_11,33.5930302087,-117.88199,The Wedge,2.7777777777777777,0.9845888888888888,1.3527888888888888,16,16,"NIGHT_MOSTLY_CLEAR,NIGHT_MOSTLY_CLOUDY,NIGHT_MOSTLY_CLOUDY,NIGHT_MIST,NIGHT_OVERCAST,NIGHT_OVERCAST,OVERCAST,OVERCAST,OVERCAST","Cross-shore,Cross-shore,Onshore,Onshore,Onshore,Onshore,Onshore,Onshore,Onshore",9
5842041f4e65fad6a770882e,2024_06_11,33.475793399792984,-117.72291,Salt Creek,3,0.7411888888888889,1.1000444444444444,18,18,"NIGHT_CLEAR,NIGHT_CLEAR,NIGHT_MIST,NIGHT_MIST,NIGHT_OVERCAST,NIGHT_OVERCAST,CLOUDY,CLOUDY,MOSTLY_CLOUDY","Onshore,Onshore,Onshore,Cross-shore,Onshore,Onshore,Onshore,Onshore,Onshore",9
5842041f4e65fad6a7708830,2024_06_11,33.41800974113613,-117.61952,T-Street,2.5555555555555554,0.7636888888888889,1.0775777777777777,18,18,"NIGHT_MOSTLY_CLOUDY,NIGHT_MOSTLY_CLOUDY,NIGHT_CLEAR,NIGHT_CLEAR,NIGHT_MOSTLY_CLOUDY,NIGHT_MOSTLY_CLOUDY,MOSTLY_CLOUDY,MOSTLY_CLOUDY,MOSTLY_CLOUDY","Cross-shore,Cross-shore,Cross-shore,Cross-shore,Cross-shore,Cross-shore,Cross-shore,Cross-shore,Cross-shore",9
5842041f4e65fad6a7708832,2024_06_11,33.202391008646,-117.39475,Oceanside Harbor,3,0.8183444444444444,1.1243888888888889,18,18,"NIGHT_MOSTLY_CLOUDY,NIGHT_CLOUDY,NIGHT_CLOUDY,NIGHT_MIST,NIGHT_MOSTLY_CLOUDY,NIGHT_MIST,CLEAR,CLOUDY,OVERCAST","Onshore,Onshore,Onshore,Onshore,Onshore,Onshore,Onshore,Onshore,Onshore",9
5842041f4e65fad6a7708835,2024_06_11,33.19477795952803,-117.38667,Oceanside Pier,3,0.7125777777777778,1.0669222222222223,18,18,"NIGHT_MOSTLY_CLOUDY,NIGHT_OVERCAST,NIGHT_OVERCAST,NIGHT_OVERCAST,NIGHT_CLEAR,NIGHT_CLEAR,CLEAR,OVERCAST,OVERCAST","Cross-shore,Onshore,Onshore,Onshore,Onshore,Cross-shore,Onshore,Onshore,Onshore",9
5842041f4e65fad6a7708837,2024_06_11,33.14948100706,-117.35029,Tamarack,3,0.6722222222222223,0.9755555555555555,18.444444444444443,18.444444444444443,"NIGHT_MOSTLY_CLOUDY,NIGHT_CLOUDY,NIGHT_OVERCAST,NIGHT_OVERCAST,NIGHT_MIST,NIGHT_BRIEF_SHOWERS,MIST,OVERCAST,OVERCAST","Onshore,Onshore,Onshore,Onshore,Onshore,Onshore,Onshore,Onshore,Onshore",9
5842041f4e65fad6a7708839,2024_06_11,32.865777159358856,-117.25614,Scripps,2.5555555555555554,0.6293111111111112,0.9850444444444444,17,17,"NIGHT_MOSTLY_CLOUDY,NIGHT_MOSTLY_CLOUDY,NIGHT_MOSTLY_CLOUDY,NIGHT_MIST,NIGHT_MIST,NIGHT_MIST,MIST,MIST,MIST","Onshore,Onshore,Onshore,Onshore,Onshore,Onshore,Onshore,Onshore,Onshore",9
5842041f4e65fad6a770883a,2024_06_11,32.813094,-117.27381,Birdrock,3,0.6766666666666666,0.9822222222222222,18.555555555555557,18.555555555555557,"NIGHT_MOSTLY_CLOUDY,NIGHT_MOSTLY_CLOUDY,NIGHT_MOSTLY_CLOUDY,NIGHT_OVERCAST,NIGHT_OVERCAST,NIGHT_OVERCAST,OVERCAST,OVERCAST,OVERCAST","Offshore,Offshore,Cross-shore,Offshore,Cross-shore,Offshore,Cross-shore,Onshore,Onshore",9
5842041f4e65fad6a770883b,2024_06_11,32.877231,-117.25303,Blacks,3,0.9230666666666667,1.2035555555555555,17,17,"NIGHT_MOSTLY_CLOUDY,NIGHT_MOSTLY_CLOUDY,NIGHT_MOSTLY_CLOUDY,NIGHT_MIST,NIGHT_MIST,NIGHT_MIST,MIST,MIST,MIST","Onshore,Onshore,Onshore,Onshore,Onshore,Cross-shore,Onshore,Onshore,Onshore",9
5842041f4e65fad6a770883c,2024_06_11,32.82978974229765,-117.28162,Windansea,3.2222222222222223,0.9377888888888889,1.1996666666666667,17,17,"NIGHT_MOSTLY_CLOUDY,NIGHT_MOSTLY_CLOUDY,NIGHT_MOSTLY_CLOUDY,NIGHT_OVERCAST,NIGHT_MIST,NIGHT_MIST,MIST,MIST,OVERCAST","Onshore,Onshore,Onshore,Onshore,Onshore,Onshore,Onshore,Onshore,Onshore",9
5842041f4e65fad6a770883d,2024_06_11,32.838278,-117.28396,Horseshoe,2.4444444444444446,0.7788888888888889,1.0422222222222222,19,19,"NIGHT_MOSTLY_CLOUDY,NIGHT_MOSTLY_CLOUDY,NIGHT_MOSTLY_CLOUDY,NIGHT_OVERCAST,NIGHT_MIST,NIGHT_MIST,MIST,MIST,OVERCAST","Onshore,Cross-shore,Onshore,Cross-shore,Cross-shore,Onshore,Onshore,Onshore,Onshore",9
5842041f4e65fad6a770883f,2024_06_11,32.75034717673179,-117.25337,Ocean Beach,2.9811111111111113,0.8648,1.2177222222222222,17,17,"NIGHT_CLEAR,NIGHT_MOSTLY_CLOUDY,NIGHT_MOSTLY_CLOUDY,NIGHT_CLOUDY,NIGHT_MIST,NIGHT_MIST,MIST,MIST,MIST","Onshore,Onshore,Onshore,Onshore,Onshore,Onshore,Onshore,Onshore,Onshore",9
5842041f4e65fad6a7708840,2024_06_11,32.73693,-117.25718,Sunset Cliffs,2.4444444444444446,0.6111111111111112,0.9166666666666666,18.555555555555557,18.555555555555557,"NIGHT_MOSTLY_CLOUDY,NIGHT_MOSTLY_CLOUDY,NIGHT_MOSTLY_CLOUDY,NIGHT_OVERCAST,NIGHT_OVERCAST,NIGHT_OVERCAST,OVERCAST,OVERCAST,OVERCAST","Onshore,Onshore,Onshore,Onshore,Onshore,Onshore,Onshore,Onshore,Onshore",9
5842041f4e65fad6a7708841,2024_06_11,32.796582258728826,-117.25779,Pacific Beach,3,0.8059111111111111,1.1477555555555556,17,17,"NIGHT_CLEAR,NIGHT_MOSTLY_CLOUDY,NIGHT_MOSTLY_CLOUDY,NIGHT_CLOUDY,NIGHT_MOSTLY_CLOUDY,NIGHT_OVERCAST,OVERCAST,OVERCAST,MIST","Offshore,Offshore,Cross-shore,Offshore,Cross-shore,Offshore,Cross-shore,Onshore,Onshore",9
5842041f4e65fad6a7708842,2024_06_11,32.776636,-117.25514,Mission Beach,3,0.8275777777777777,1.1594222222222221,17,17,"NIGHT_CLEAR,NIGHT_MOSTLY_CLOUDY,NIGHT_MOSTLY_CLOUDY,NIGHT_CLOUDY,NIGHT_MOSTLY_CLOUDY,NIGHT_OVERCAST,OVERCAST,OVERCAST,MIST","Cross-shore,Offshore,Onshore,Offshore,Cross-shore,Cross-shore,Onshore,Onshore,Onshore",9
5842041f4e65fad6a7708844,2024_06_11,32.577195519016,-117.13475,Imperial Beach Pier,3,0.9088888888888889,1.1222222222222222,18.555555555555557,18.555555555555557,"NIGHT_CLEAR,NIGHT_MOSTLY_CLOUDY,NIGHT_MOSTLY_CLOUDY,NIGHT_DRIZZLE,NIGHT_MOSTLY_CLOUDY,NIGHT_CLOUDY,OVERCAST,MIST,OVERCAST","Onshore,Onshore,Onshore,Onshore,Onshore,Onshore,Onshore,Onshore,Onshore",9
5842041f4e65fad6a770884a,2024_06_11,42.88678181061,-70.80843,Seabrook,1.3155555555555556,0.10878444444444445,0.33084444444444444,16,14,"NIGHT_CLEAR,NIGHT_CLEAR,NIGHT_CLEAR,CLEAR,CLEAR,CLEAR,CLEAR,CLEAR,CLEAR","Offshore,Offshore,Offshore,Offshore,Offshore,Offshore,Offshore,Cross-shore,Onshore",9
5842041f4e65fad6a770884e,2024_06_11,41.434181432898335,-71.45312,Narragansett,0.62,-0.02037,0.2803555555555556,17,16,"NIGHT_CLEAR,NIGHT_CLEAR,NIGHT_CLEAR,CLEAR,CLEAR,CLEAR,CLEAR,CLEAR,CLEAR","Offshore,Offshore,Offshore,Offshore,Offshore,Offshore,Cross-shore,Onshore,Onshore",9
5842041f4e65fad6a7708850,2024_06_11,40.582703230722,-73.65247,Lincoln Blvd,0.8055555555555556,-0.0011111111111111111,0.3075777777777778,18.333333333333332,16,"NIGHT_MOSTLY_CLEAR,NIGHT_CLEAR,NIGHT_CLEAR,CLEAR,CLEAR,CLEAR,CLEAR,CLEAR,CLEAR","Offshore,Offshore,Offshore,Offshore,Offshore,Offshore,Offshore,Offshore,Onshore",9
5842041f4e65fad6a7708852,2024_06_11,40.58342841721757,-73.81182,Rockaways,0.8055555555555556,-0.0016666666666666666,0.30646666666666667,18.333333333333332,16,"NIGHT_CLEAR,NIGHT_CLEAR,NIGHT_CLEAR,CLEAR,CLEAR,CLEAR,CLEAR,CLEAR,CLEAR","Offshore,Offshore,Offshore,Offshore,Offshore,Offshore,Offshore,Offshore,Cross-shore",9
5842041f4e65fad6a7708853,2024_06_11,40.330474,-73.9734,Monmouth Beach,0.6666666666666666,0.0725,0.3023777777777778,17,14,"NIGHT_MOSTLY_CLEAR,NIGHT_CLEAR,NIGHT_MOSTLY_CLEAR,CLEAR,CLEAR,CLEAR,CLEAR,CLEAR,CLEAR","Cross-shore,Cross-shore,Cross-shore,Cross-shore,Cross-shore,Cross-shore,Cross-shore,Cross-shore,Cross-shore",9
5842041f4e65fad6a7708856,2024_06_11,40.113,-74.028,Manasquan Inlet,0.6855555555555556,0.0016666666666666668,0.3081333333333333,17,14,"NIGHT_MOSTLY_CLOUDY,NIGHT_MOSTLY_CLEAR,NIGHT_CLEAR,CLEAR,CLEAR,CLEAR,CLEAR,CLEAR,CLEAR","Cross-shore,Cross-shore,Cross-shore,Cross-shore,Cross-shore,Onshore,Onshore,Onshore,Onshore",9
5842041f4e65fad6a7708857,2024_06_11,39.941519877445664,-74.06829,Casino Pier,0.5744444444444444,5.555555555555556e-4,0.30924444444444443,17,14,"NIGHT_MOSTLY_CLEAR,NIGHT_MOSTLY_CLOUDY,NIGHT_MOSTLY_CLOUDY,MOSTLY_CLOUDY,CLEAR,CLEAR,CLEAR,CLEAR,CLEAR","Offshore,Cross-shore,Cross-shore,Cross-shore,Cross-shore,Cross-shore,Cross-shore,Cross-shore,Cross-shore",9
5842041f4e65fad6a7708858,2024_06_11,39.28223089949212,-74.55766,North End OC,1,-1.4476028355505785e-19,0.3036888888888889,17,14,"NIGHT_MOSTLY_CLEAR,NIGHT_CLEAR,NIGHT_CLEAR,CLEAR,CLEAR,CLEAR,MOSTLY_CLOUDY,MOSTLY_CLOUDY,MOSTLY_CLEAR","Offshore,Offshore,Offshore,Offshore,Offshore,Offshore,Offshore,Offshore,Cross-shore",9
5842041f4e65fad6a770885b,2024_06_11,39.65080599934257,-74.17146,Ship Bottom,0.7411111111111112,0.0011111111111111111,0.30813333333333337,17,14,"NIGHT_MOSTLY_CLEAR,NIGHT_CLEAR,NIGHT_CLEAR,CLEAR,CLEAR,MOSTLY_CLEAR,CLEAR,MOSTLY_CLEAR,CLEAR","Cross-shore,Cross-shore,Cross-shore,Cross-shore,Offshore,Cross-shore,Cross-shore,Cross-shore,Onshore",9
5842041f4e65fad6a7708863,2024_06_11,36.034151543144,-75.66791,Third Street,0.5177777777777778,0,0.2011888888888889,21,17,"NIGHT_CLEAR,NIGHT_CLEAR,NIGHT_CLEAR,CLEAR,CLEAR,CLEAR,CLEAR,CLEAR,CLEAR","Offshore,Offshore,Offshore,Offshore,Offshore,Cross-shore,Onshore,Onshore,Onshore",9
5842041f4e65fad6a7708867,2024_06_11,35.605833221351425,-75.46303,S-Turns,1.741111111111111,0.16498555555555555,0.47423,23,21,"NIGHT_CLEAR,NIGHT_CLEAR,NIGHT_CLEAR,CLEAR,CLEAR,CLEAR,CLEAR,CLEAR,CLEAR","Onshore,Onshore,Onshore,Onshore,Cross-shore,Onshore,Onshore,Onshore,Onshore",9
5842041f4e65fad6a770886d,2024_06_11,38.338461,-75.08117,Ocean City Boardwalk,0.7222222222222222,-0.0022222222222222222,0.3036888888888889,20,17.666666666666668,"NIGHT_CLEAR,NIGHT_CLEAR,NIGHT_CLEAR,CLEAR,CLEAR,CLEAR,CLEAR,CLEAR,CLEAR","Onshore,Onshore,Onshore,Cross-shore,Onshore,Onshore,Onshore,Onshore,Onshore",9
5842041f4e65fad6a770886f,2024_06_11,29.844757212379562,-81.26136,A St.,1.3333333333333333,0.05333333333333334,0.36,28.555555555555557,28.555555555555557,"NIGHT_CLEAR,NIGHT_CLEAR,NIGHT_CLEAR,NIGHT_MOSTLY_CLOUDY,CLEAR,MIST,CLEAR,MOSTLY_CLEAR,CLEAR","Offshore,Offshore,Offshore,Offshore,Offshore,Offshore,Offshore,Offshore,Offshore",9
5842041f4e65fad6a7708871,2024_06_11,29.069417851135093,-80.90824,New Smyrna Beach,1,0.057036666666666666,0.36018555555555554,28,26,"NIGHT_CLEAR,NIGHT_CLEAR,NIGHT_CLEAR,NIGHT_CLEAR,CLEAR,CLEAR,CLEAR,MOSTLY_CLOUDY,MOSTLY_CLOUDY","Offshore,Offshore,Offshore,Offshore,Offshore,Offshore,Offshore,Cross-shore,Cross-shore",9
5842041f4e65fad6a7708872,2024_06_11,28.367707417566,-80.60171,Cocoa Beach Pier,0.3144444444444444,0.0044444444444444444,0.3071188888888889,28,28,"NIGHT_CLEAR,NIGHT_CLEAR,NIGHT_CLEAR,NIGHT_OVERCAST,CLEAR,CLEAR,HEAVY_SHOWERS,MIST,RAIN","Cross-shore,Offshore,Cross-shore,Cross-shore,Cross-shore,Cross-shore,Cross-shore,Cross-shore,Offshore",9
5842041f4e65fad6a7708873,2024_06_11,28.091782738658846,-80.56479,Indialantic,0.7033333333333334,0,0.20259222222222223,28,28,"NIGHT_CLEAR,NIGHT_CLEAR,NIGHT_CLEAR,NIGHT_CLEAR,CLEAR,MIST,HEAVY_SHOWERS,OVERCAST,CLEAR","Offshore,Offshore,Offshore,Offshore,Cross-shore,Cross-shore,Offshore,Offshore,Offshore",9
5842041f4e65fad6a7708876,2024_06_11,27.25392904143517,-80.19455,Jensen Beach,0,-0.0044444444444444444,0.2584444444444444,29,27,"NIGHT_CLEAR,NIGHT_CLEAR,NIGHT_CLEAR,NIGHT_CLEAR,SHOWERS,LIGHT_SHOWERS_POSSIBLE,CLEAR,CLEAR,DRIZZLE","Offshore,Offshore,Cross-shore,Offshore,Offshore,Offshore,Cross-shore,Offshore,Cross-shore",9
5842041f4e65fad6a7708879,2024_06_11,26.76346795333825,-80.03607,Reef Road,1.1477777777777778,0.08370333333333334,0.3786522222222222,29,28,"NIGHT_CLEAR,NIGHT_CLEAR,NIGHT_CLEAR,NIGHT_CLEAR,CLOUDY,BRIEF_SHOWERS_POSSIBLE,CLEAR,CLEAR,CLEAR","Offshore,Offshore,Offshore,Offshore,Cross-shore,Onshore,Cross-shore,Cross-shore,Onshore",9
5842041f4e65fad6a770887c,2024_06_11,26.336499228484,-80.06956100463,Boca Raton Inlet,0.4444444444444444,0.029444444444444447,0.3314811111111111,29,28,"NIGHT_CLEAR,NIGHT_CLEAR,NIGHT_CLOUDY,NIGHT_CLEAR,CLEAR,CLOUDY,CLEAR,OVERCAST,CLEAR","Offshore,Offshore,Cross-shore,Cross-shore,Onshore,Onshore,Onshore,Onshore,Onshore",9
5842041f4e65fad6a770887d,2024_06_11,26.31719311695038,-80.07453,Deerfield Beach Pier,0,0.06109333333333333,0.2743744444444445,29,28,"NIGHT_CLOUDY,NIGHT_CLEAR,NIGHT_CLOUDY,NIGHT_CLEAR,CLEAR,OVERCAST,CLEAR,CLEAR,CLEAR","Offshore,Offshore,Cross-shore,Cross-shore,Onshore,Onshore,Onshore,Onshore,Onshore",9
5842041f4e65fad6a7708881,2024_06_11,30.20276320866628,-85.85626528676136,"Spyglass Dr., Panama City",0.4433333333333333,0,0.21810000000000002,29,27.666666666666668,"NIGHT_OVERCAST,NIGHT_CLEAR,NIGHT_FOG,NIGHT_MOSTLY_CLOUDY,CLEAR,CLEAR,CLEAR,CLEAR,CLEAR","Onshore,Onshore,Cross-shore,Offshore,Offshore,Offshore,Offshore,Offshore,Offshore",9
5842041f4e65fad6a7708884,2024_06_11,33.39000832738053,-117.59852,Cottons,3.4444444444444446,1.0708444444444445,1.3371666666666666,18,18,"NIGHT_MOSTLY_CLOUDY,NIGHT_MOSTLY_CLOUDY,NIGHT_MOSTLY_CLOUDY,NIGHT_MOSTLY_CLOUDY,NIGHT_MIST,NIGHT_MIST,MOSTLY_CLOUDY,MOSTLY_CLOUDY,MOSTLY_CLOUDY","Onshore,Onshore,Onshore,Offshore,Onshore,Onshore,Onshore,Onshore,Onshore",9
5842041f4e65fad6a7708885,2024_06_11,33.359416282661,-117.54168,Trails,3,0.6888888888888889,0.9922222222222222,18.444444444444443,18.444444444444443,"NIGHT_MIST,NIGHT_MOSTLY_CLOUDY,NIGHT_MOSTLY_CLOUDY,NIGHT_MOSTLY_CLOUDY,NIGHT_FOG,NIGHT_FOG,MIST,MOSTLY_CLOUDY,MOSTLY_CLOUDY","Cross-shore,Onshore,Cross-shore,Onshore,Offshore,Onshore,Cross-shore,Onshore,Onshore",9
5842041f4e65fad6a7708886,2024_06_11,33.38042605929805,-117.58332,Middles,3,0.9693777777777778,1.2896666666666667,18,18,"NIGHT_MOSTLY_CLOUDY,NIGHT_MOSTLY_CLOUDY,NIGHT_MOSTLY_CLOUDY,NIGHT_MOSTLY_CLOUDY,NIGHT_MIST,NIGHT_MIST,MOSTLY_CLOUDY,MOSTLY_CLOUDY,MOSTLY_CLOUDY","Onshore,Onshore,Onshore,Offshore,Onshore,Onshore,Onshore,Onshore,Onshore",9
5842041f4e65fad6a7708887,2024_06_11,33.38445596302903,-117.59445,Upper Trestles,3,1.0508444444444445,1.2738333333333334,18,18,"NIGHT_MOSTLY_CLOUDY,NIGHT_MOSTLY_CLOUDY,NIGHT_MOSTLY_CLOUDY,NIGHT_MOSTLY_CLOUDY,NIGHT_MIST,NIGHT_MIST,MOSTLY_CLOUDY,MOSTLY_CLOUDY,MOSTLY_CLOUDY","Onshore,Onshore,Onshore,Onshore,Onshore,Onshore,Onshore,Offshore,Onshore",9
5842041f4e65fad6a7708889,2024_06_11,28.944414,-95.28883,Surfside,2,0.2491911111111111,0.38936,30,30,"NIGHT_CLEAR,NIGHT_CLOUDY,NIGHT_CLOUDY,NIGHT_FOG,NIGHT_CLOUDY,CLOUDY,CLOUDY,MOSTLY_CLOUDY,MOSTLY_CLOUDY","Onshore,Onshore,Onshore,Onshore,Onshore,Onshore,Onshore,Onshore,Onshore",9
5842041f4e65fad6a770888a,2024_06_11,33.38143999849023,-117.58843,Lower Trestles,3.4444444444444446,1.1122333333333334,1.4762666666666666,18,18,"NIGHT_MOSTLY_CLOUDY,NIGHT_MOSTLY_CLOUDY,NIGHT_MOSTLY_CLOUDY,NIGHT_MOSTLY_CLOUDY,NIGHT_MIST,NIGHT_MIST,MOSTLY_CLOUDY,MOSTLY_CLOUDY,MOSTLY_CLOUDY","Onshore,Onshore,Onshore,Onshore,Onshore,Onshore,Onshore,Offshore,Onshore",9
5842041f4e65fad6a770888b,2024_06_11,33.379622288757,-117.57894,Church,3.3333333333333335,0.9749333333333333,1.2982777777777776,18,18,"NIGHT_MOSTLY_CLOUDY,NIGHT_MOSTLY_CLOUDY,NIGHT_MOSTLY_CLOUDY,NIGHT_MOSTLY_CLOUDY,NIGHT_MIST,NIGHT_MIST,MOSTLY_CLOUDY,MOSTLY_CLOUDY,MOSTLY_CLOUDY","Onshore,Onshore,Onshore,Offshore,Onshore,Onshore,Onshore,Onshore,Onshore",9
5842041f4e65fad6a770888d,2024_06_11,21.679,-158.042,Sunset Beach,3,0.41555555555555557,0.7222222222222222,26,25,"NIGHT_CLEAR,NIGHT_MOSTLY_CLEAR,NIGHT_BRIEF_SHOWERS,NIGHT_CLEAR,NIGHT_SHOWERS,NIGHT_MOSTLY_CLEAR,NIGHT_BRIEF_SHOWERS,NIGHT_CLEAR,NIGHT_MOSTLY_CLOUDY","Cross-shore,Cross-shore,Cross-shore,Cross-shore,Cross-shore,Offshore,Cross-shore,Offshore,Offshore",9
5842041f4e65fad6a770888e,2024_06_11,21.670550036401,-158.0482,Rocky Point,3,0.42444444444444446,0.7288888888888889,26,25,"NIGHT_CLEAR,NIGHT_MOSTLY_CLEAR,NIGHT_CLEAR,NIGHT_MOSTLY_CLOUDY,NIGHT_SHOWERS,NIGHT_MOSTLY_CLEAR,NIGHT_CLEAR,NIGHT_CLEAR,NIGHT_MOSTLY_CLOUDY","Cross-shore,Cross-shore,Cross-shore,Cross-shore,Cross-shore,Offshore,Cross-shore,Cross-shore,Cross-shore",9
5842041f4e65fad6a770888f,2024_06_11,21.668,-158.05,Chambers,2.5555555555555554,0.4488888888888889,0.7544444444444445,26,26,"NIGHT_CLEAR,NIGHT_MOSTLY_CLEAR,NIGHT_CLEAR,NIGHT_MOSTLY_CLOUDY,NIGHT_SHOWERS,NIGHT_MOSTLY_CLEAR,NIGHT_CLEAR,NIGHT_CLEAR,NIGHT_MOSTLY_CLOUDY","Cross-shore,Cross-shore,Cross-shore,Cross-shore,Cross-shore,Cross-shore,Offshore,Offshore,Cross-shore",9
5842041f4e65fad6a7708890,2024_06_11,21.66522,-158.0526,Pipeline,1,0.25,0.5566666666666666,26,25,"NIGHT_CLEAR,NIGHT_MOSTLY_CLEAR,NIGHT_CLEAR,NIGHT_MOSTLY_CLOUDY,NIGHT_SHOWERS,NIGHT_MOSTLY_CLEAR,NIGHT_CLEAR,NIGHT_CLEAR,NIGHT_MOSTLY_CLOUDY","Cross-shore,Cross-shore,Cross-shore,Cross-shore,Cross-shore,Offshore,Cross-shore,Cross-shore,Cross-shore",9
5842041f4e65fad6a7708891,2024_06_11,21.665,-158.054,Backdoor,2,0.25,0.5566666666666666,26,25,"NIGHT_CLEAR,NIGHT_MOSTLY_CLEAR,NIGHT_CLEAR,NIGHT_MOSTLY_CLOUDY,NIGHT_SHOWERS,NIGHT_MOSTLY_CLEAR,NIGHT_CLEAR,NIGHT_CLEAR,NIGHT_MOSTLY_CLOUDY","Cross-shore,Cross-shore,Cross-shore,Cross-shore,Cross-shore,Cross-shore,Cross-shore,Cross-shore,Cross-shore",9
5842041f4e65fad6a7708892,2024_06_11,21.662,-158.057,Rockpile,3,0.41333333333333333,0.7188888888888889,26,26,"NIGHT_CLEAR,NIGHT_MOSTLY_CLEAR,NIGHT_CLEAR,NIGHT_MOSTLY_CLOUDY,NIGHT_SHOWERS,NIGHT_MOSTLY_CLEAR,NIGHT_CLEAR,NIGHT_CLEAR,NIGHT_MOSTLY_CLOUDY","Cross-shore,Cross-shore,Cross-shore,Cross-shore,Cross-shore,Cross-shore,Offshore,Offshore,Cross-shore",9
5842041f4e65fad6a7708893,2024_06_11,21.65870453806827,-158.06058,Log Cabins,1.8888888888888888,0.3022222222222222,0.6077777777777778,26,26,"NIGHT_CLEAR,NIGHT_MOSTLY_CLEAR,NIGHT_CLEAR,NIGHT_MOSTLY_CLOUDY,NIGHT_SHOWERS,NIGHT_MOSTLY_CLEAR,NIGHT_CLEAR,NIGHT_CLEAR,NIGHT_MOSTLY_CLOUDY","Cross-shore,Cross-shore,Cross-shore,Cross-shore,Cross-shore,Offshore,Cross-shore,Cross-shore,Cross-shore",9
5842041f4e65fad6a7708894,2024_06_11,21.66203493640557,-158.05495,Off-The-Wall,2.5555555555555554,0.3466666666666667,0.6533333333333333,26,26,"NIGHT_CLEAR,NIGHT_MOSTLY_CLEAR,NIGHT_CLEAR,NIGHT_MOSTLY_CLOUDY,NIGHT_SHOWERS,NIGHT_MOSTLY_CLEAR,NIGHT_CLEAR,NIGHT_CLEAR,NIGHT_MOSTLY_CLOUDY","Cross-shore,Cross-shore,Cross-shore,Cross-shore,Cross-shore,Cross-shore,Cross-shore,Cross-shore,Cross-shore",9
5842041f4e65fad6a7708895,2024_06_11,21.643,-158.067,Waimea Bay,NA,0.3611111111111111,0.6655555555555556,26,25,"NIGHT_CLEAR,NIGHT_MOSTLY_CLEAR,NIGHT_CLEAR,NIGHT_MOSTLY_CLOUDY,NIGHT_SHOWERS,NIGHT_MOSTLY_CLEAR,NIGHT_CLEAR,NIGHT_CLEAR,NIGHT_MOSTLY_CLOUDY","Offshore,Cross-shore,Offshore,Offshore,Cross-shore,Offshore,Cross-shore,Offshore,Offshore",9
5842041f4e65fad6a7708896,2024_06_11,21.622,-158.087,Hultin's,1.8888888888888888,0.3655555555555556,0.6711111111111111,26,25,"NIGHT_CLEAR,NIGHT_CLEAR,NIGHT_CLEAR,NIGHT_CLEAR,NIGHT_MOSTLY_CLEAR,NIGHT_CLEAR,NIGHT_MOSTLY_CLEAR,NIGHT_CLEAR,NIGHT_CLEAR","Offshore,Offshore,Offshore,Offshore,Offshore,Offshore,Offshore,Offshore,Offshore",9
5842041f4e65fad6a7708897,2024_06_11,21.623,-158.085,Jocko's,2,0.29555555555555557,0.5988888888888889,26,26,"NIGHT_CLEAR,NIGHT_CLEAR,NIGHT_CLEAR,NIGHT_CLEAR,NIGHT_MOSTLY_CLEAR,NIGHT_CLEAR,NIGHT_MOSTLY_CLEAR,NIGHT_CLEAR,NIGHT_CLEAR","Cross-shore,Cross-shore,Cross-shore,Cross-shore,Onshore,Onshore,Onshore,Cross-shore,Onshore",9
5842041f4e65fad6a7708898,2024_06_11,21.62,-158.088,Laniakea,2,0.5155555555555555,0.8211111111111111,26,25,"NIGHT_CLEAR,NIGHT_CLEAR,NIGHT_CLEAR,NIGHT_CLEAR,NIGHT_MOSTLY_CLEAR,NIGHT_CLEAR,NIGHT_MOSTLY_CLEAR,NIGHT_CLEAR,NIGHT_CLEAR","Offshore,Offshore,Offshore,Offshore,Cross-shore,Cross-shore,Cross-shore,Offshore,Cross-shore",9
5842041f4e65fad6a7708899,2024_06_11,21.625,-158.083,Chun's,1.8888888888888888,0.38222222222222224,0.6877777777777778,26,26,"NIGHT_CLEAR,NIGHT_CLEAR,NIGHT_CLEAR,NIGHT_CLEAR,NIGHT_MOSTLY_CLEAR,NIGHT_CLEAR,NIGHT_MOSTLY_CLEAR,NIGHT_CLEAR,NIGHT_CLEAR","Offshore,Offshore,Offshore,Offshore,Offshore,Offshore,Offshore,Offshore,Offshore",9
5842041f4e65fad6a770889c,2024_06_11,21.286357895152136,-157.8515,South Shore - Ala Moana Park,4,1.4288888888888889,1.708888888888889,26,26,"NIGHT_BRIEF_SHOWERS,NIGHT_CLEAR,NIGHT_CLEAR,NIGHT_CLEAR,NIGHT_CLEAR,NIGHT_CLEAR,NIGHT_CLEAR,NIGHT_CLEAR,NIGHT_CLEAR","Offshore,Offshore,Offshore,Offshore,Offshore,Offshore,Offshore,Offshore,Offshore",9
5842041f4e65fad6a770889d,2024_06_11,19.606,-155.978,Banyans,3,1.041111111111111,1.3044444444444445,26,25,"NIGHT_MOSTLY_CLEAR,NIGHT_CLEAR,NIGHT_CLEAR,NIGHT_CLEAR,NIGHT_FOG,NIGHT_FOG,NIGHT_BRIEF_SHOWERS,NIGHT_CLEAR,NIGHT_CLEAR","Onshore,Offshore,Cross-shore,Cross-shore,Onshore,Cross-shore,Offshore,Offshore,Cross-shore",9
5842041f4e65fad6a770889e,2024_06_11,20.029,-155.831,Kawaihae,2,0.4444,0.5640533333333334,26.444444444444443,26.444444444444443,"NIGHT_MOSTLY_CLEAR,NIGHT_MOSTLY_CLEAR,NIGHT_MOSTLY_CLEAR,NIGHT_FOG,NIGHT_CLEAR,NIGHT_MOSTLY_CLEAR,NIGHT_MOSTLY_CLEAR,NIGHT_MIST,NIGHT_MOSTLY_CLEAR","Onshore,Onshore,Onshore,Onshore,Onshore,Onshore,Onshore,Onshore,Offshore",9
5842041f4e65fad6a770889f,2024_06_11,33.07541383424675,-117.3105,Grandview,2.4444444444444446,0.6133333333333333,0.92,18.444444444444443,18.444444444444443,"NIGHT_MOSTLY_CLOUDY,NIGHT_CLOUDY,NIGHT_CLOUDY,NIGHT_CLOUDY,NIGHT_MIST,NIGHT_MOSTLY_CLOUDY,MIST,CLOUDY,CLOUDY","Onshore,Onshore,Onshore,Onshore,Cross-shore,Cross-shore,Onshore,Onshore,Onshore",9
5842041f4e65fad6a77088a0,2024_06_11,33.065267421296596,-117.30577,Beacons,2.4444444444444446,0.5788888888888889,0.8833333333333333,18.444444444444443,18.444444444444443,"NIGHT_MOSTLY_CLOUDY,NIGHT_CLOUDY,NIGHT_CLOUDY,NIGHT_CLOUDY,NIGHT_MIST,NIGHT_MOSTLY_CLOUDY,MIST,CLOUDY,CLOUDY","Onshore,Onshore,Onshore,Onshore,Cross-shore,Cross-shore,Onshore,Onshore,Onshore",9
5842041f4e65fad6a77088a2,2024_06_11,21.252,-157.805,Diamond Head,3,1.4341344444444444,1.72336,26,25,"NIGHT_MOSTLY_CLOUDY,NIGHT_MOSTLY_CLEAR,NIGHT_CLEAR,NIGHT_MOSTLY_CLOUDY,NIGHT_CLEAR,NIGHT_CLEAR,NIGHT_MOSTLY_CLEAR,NIGHT_CLEAR,NIGHT_CLEAR","Cross-shore,Cross-shore,Cross-shore,Cross-shore,Cross-shore,Cross-shore,Cross-shore,Cross-shore,Cross-shore",9
5842041f4e65fad6a77088a3,2024_06_11,33.04694255008896,-117.29966,Moonlight State Beach,3,0.5966666666666667,0.9033333333333333,18.444444444444443,18.444444444444443,"NIGHT_MOSTLY_CLOUDY,NIGHT_CLOUDY,NIGHT_CLOUDY,NIGHT_CLOUDY,NIGHT_MOSTLY_CLOUDY,NIGHT_MOSTLY_CLOUDY,MOSTLY_CLOUDY,MIST,OVERCAST","Onshore,Onshore,Onshore,Onshore,Onshore,Onshore,Cross-shore,Onshore,Cross-shore",9
5842041f4e65fad6a77088a5,2024_06_11,33.08685865930869,-117.31532,Ponto,3,0.7233333333333333,1.0144444444444445,18.444444444444443,18.444444444444443,"NIGHT_MOSTLY_CLOUDY,NIGHT_CLOUDY,NIGHT_CLOUDY,NIGHT_CLOUDY,NIGHT_MIST,NIGHT_MOSTLY_CLOUDY,MIST,CLOUDY,CLOUDY","Cross-shore,Onshore,Onshore,Onshore,Onshore,Onshore,Onshore,Onshore,Onshore",9
5842041f4e65fad6a77088a6,2024_06_11,33.130343587871906,-117.33668,Terra Mar Point,3,0.6367444444444444,1.0432777777777777,18,18,"NIGHT_MOSTLY_CLOUDY,NIGHT_OVERCAST,NIGHT_OVERCAST,NIGHT_OVERCAST,NIGHT_MOSTLY_CLOUDY,NIGHT_MOSTLY_CLOUDY,MOSTLY_CLOUDY,OVERCAST,OVERCAST","Onshore,Onshore,Onshore,Onshore,Onshore,Onshore,Onshore,Onshore,Onshore",9
5842041f4e65fad6a77088af,2024_06_11,32.95916304183685,-117.26963,Del Mar,3,0.67,0.9744444444444444,19,19,"NIGHT_MOSTLY_CLOUDY,NIGHT_MOSTLY_CLOUDY,NIGHT_CLOUDY,NIGHT_CLOUDY,NIGHT_MIST,NIGHT_OVERCAST,MIST,MIST,MIST","Onshore,Onshore,Onshore,Onshore,Onshore,Onshore,Onshore,Onshore,Onshore",9
5842041f4e65fad6a77088b0,2024_06_11,32.97527261243354,-117.2721061331305,Del Mar Rivermouth,2.6666666666666665,0.7122222222222222,1.0022222222222221,19,19,"NIGHT_MOSTLY_CLOUDY,NIGHT_MOSTLY_CLOUDY,NIGHT_CLOUDY,NIGHT_MIST,NIGHT_MOSTLY_CLOUDY,NIGHT_OVERCAST,MIST,MIST,MIST","Onshore,Onshore,Onshore,Onshore,Onshore,Onshore,Onshore,Onshore,Onshore",9
5842041f4e65fad6a77088b1,2024_06_11,33.01352178146273,-117.28219,Cardiff Reef,2.7777777777777777,0.6436888888888889,1.0002555555555555,18,18,"NIGHT_MOSTLY_CLOUDY,NIGHT_MOSTLY_CLOUDY,NIGHT_CLOUDY,NIGHT_MIST,NIGHT_CLEAR,NIGHT_MOSTLY_CLOUDY,CLOUDY,CLOUDY,CLOUDY","Cross-shore,Onshore,Onshore,Cross-shore,Cross-shore,Onshore,Cross-shore,Onshore,Cross-shore",9
5842041f4e65fad6a77088b3,2024_06_11,33.00211185876003,-117.2811,Seaside Reef,2.7777777777777777,0.7442444444444445,1.1487666666666667,18,18,"NIGHT_MOSTLY_CLOUDY,NIGHT_MOSTLY_CLOUDY,NIGHT_OVERCAST,NIGHT_MIST,NIGHT_MOSTLY_CLOUDY,NIGHT_MOSTLY_CLOUDY,OVERCAST,OVERCAST,OVERCAST","Onshore,Onshore,Onshore,Onshore,Cross-shore,Cross-shore,Cross-shore,Cross-shore,Cross-shore",9
5842041f4e65fad6a77088b4,2024_06_11,33.0341859796287,-117.29552,Swami's,2.9255555555555555,0.7406333333333334,1.0974777777777778,18,18,"NIGHT_MOSTLY_CLOUDY,NIGHT_MOSTLY_CLOUDY,NIGHT_CLOUDY,NIGHT_MIST,NIGHT_CLEAR,NIGHT_MOSTLY_CLOUDY,CLOUDY,CLOUDY,CLOUDY","Onshore,Onshore,Onshore,Onshore,Cross-shore,Onshore,Cross-shore,Onshore,Cross-shore",9
5842041f4e65fad6a77088b7,2024_06_11,33.04569760260221,-117.2994,D Street,3,0.6711111111111111,0.9777777777777777,18.444444444444443,18.444444444444443,"NIGHT_MOSTLY_CLOUDY,NIGHT_CLOUDY,NIGHT_CLOUDY,NIGHT_CLOUDY,NIGHT_MOSTLY_CLOUDY,NIGHT_MOSTLY_CLOUDY,MOSTLY_CLOUDY,MIST,OVERCAST","Onshore,Onshore,Onshore,Onshore,Onshore,Onshore,Cross-shore,Onshore,Cross-shore",9
5842041f4e65fad6a77088b8,2024_06_11,33.02090944350196,-117.28535,San Elijo State Beach,2.9077777777777776,0.5406333333333333,0.9005333333333333,18,18,"NIGHT_MOSTLY_CLOUDY,NIGHT_MOSTLY_CLOUDY,NIGHT_CLOUDY,NIGHT_MIST,NIGHT_CLEAR,NIGHT_MOSTLY_CLOUDY,CLOUDY,CLOUDY,CLOUDY","Offshore,Onshore,Onshore,Onshore,Onshore,Onshore,Cross-shore,Cross-shore,Cross-shore",9
5842041f4e65fad6a77088c2,2024_06_11,32.80662846492798,-117.26888,PB Point,3,0.6888888888888889,0.9955555555555555,18.555555555555557,18.555555555555557,"NIGHT_MOSTLY_CLOUDY,NIGHT_MOSTLY_CLOUDY,NIGHT_MOSTLY_CLOUDY,NIGHT_OVERCAST,NIGHT_OVERCAST,NIGHT_OVERCAST,OVERCAST,OVERCAST,OVERCAST","Offshore,Offshore,Offshore,Offshore,Cross-shore,Cross-shore,Cross-shore,Cross-shore,Onshore",9
5842041f4e65fad6a77088c4,2024_06_11,32.8060476681448,-117.26479,Old Man's at Tourmaline,3,0.5677777777777778,0.8722222222222222,18.555555555555557,18.555555555555557,"NIGHT_MOSTLY_CLOUDY,NIGHT_MOSTLY_CLOUDY,NIGHT_MOSTLY_CLOUDY,NIGHT_OVERCAST,NIGHT_OVERCAST,NIGHT_OVERCAST,OVERCAST,OVERCAST,OVERCAST","Offshore,Offshore,Offshore,Offshore,Offshore,Offshore,Cross-shore,Cross-shore,Onshore",9
5842041f4e65fad6a77088cb,2024_06_11,32.557056711256,-117.1327445020322,Tijuana Slough,3,0.5622222222222223,0.8688888888888889,18.555555555555557,18.555555555555557,"NIGHT_MOSTLY_CLOUDY,NIGHT_MOSTLY_CLOUDY,NIGHT_MOSTLY_CLOUDY,NIGHT_MOSTLY_CLOUDY,NIGHT_MOSTLY_CLOUDY,NIGHT_MOSTLY_CLOUDY,CLOUDY,CLOUDY,MIST","Onshore,Onshore,Onshore,Onshore,Onshore,Onshore,Onshore,Onshore,Onshore",9
5842041f4e65fad6a77088cc,2024_06_11,32.863,-117.257,La Jolla Shores,2.111111111111111,0.5166666666666667,0.8222222222222222,19,19,"NIGHT_MOSTLY_CLOUDY,NIGHT_MOSTLY_CLOUDY,NIGHT_MOSTLY_CLOUDY,NIGHT_MIST,NIGHT_MIST,NIGHT_MIST,MIST,MIST,MIST","Onshore,Onshore,Onshore,Onshore,Onshore,Onshore,Onshore,Onshore,Onshore",9
5842041f4e65fad6a77088ce,2024_06_11,32.67443657790586,-117.17421,Coronado Beach,3,0.8555555555555556,1.0755555555555556,18.555555555555557,18.555555555555557,"NIGHT_MOSTLY_CLOUDY,NIGHT_MOSTLY_CLOUDY,NIGHT_MOSTLY_CLOUDY,NIGHT_CLEAR,NIGHT_CLOUDY,NIGHT_DRIZZLE,OVERCAST,OVERCAST,OVERCAST","Cross-shore,Cross-shore,Cross-shore,Cross-shore,Cross-shore,Cross-shore,Cross-shore,Cross-shore,Cross-shore",9
5842041f4e65fad6a77088cf,2024_06_11,33.40484417640326,-117.60749,San Clemente State Beach,3,0.5044444444444445,0.8066666666666666,18.444444444444443,18.444444444444443,"NIGHT_CLEAR,NIGHT_MOSTLY_CLOUDY,NIGHT_CLEAR,NIGHT_MOSTLY_CLOUDY,NIGHT_MIST,NIGHT_MIST,MOSTLY_CLOUDY,MOSTLY_CLOUDY,MOSTLY_CLOUDY","Onshore,Cross-shore,Onshore,Cross-shore,Onshore,Cross-shore,Cross-shore,Cross-shore,Cross-shore",9
5842041f4e65fad6a77088d5,2024_06_11,33.4663042002114,-117.7168352817103,Strands,2.7777777777777777,0.7323,1.0925444444444443,18,18,"NIGHT_CLEAR,NIGHT_CLEAR,NIGHT_MIST,NIGHT_MIST,NIGHT_OVERCAST,NIGHT_OVERCAST,CLOUDY,CLOUDY,MOSTLY_CLOUDY","Cross-shore,Cross-shore,Cross-shore,Cross-shore,Onshore,Cross-shore,Cross-shore,Cross-shore,Onshore",9
5842041f4e65fad6a77088d7,2024_06_11,33.4609858001748,-117.68535,Doheny State Beach,3,0.41375555555555554,0.7209111111111112,18,18,"NIGHT_CLEAR,NIGHT_CLEAR,NIGHT_CLEAR,NIGHT_CLEAR,NIGHT_MOSTLY_CLOUDY,NIGHT_MOSTLY_CLOUDY,MOSTLY_CLOUDY,MOSTLY_CLOUDY,MOSTLY_CLOUDY","Cross-shore,Cross-shore,Cross-shore,Cross-shore,Cross-shore,Cross-shore,Cross-shore,Cross-shore,Cross-shore",9
5842041f4e65fad6a77088dc,2024_06_11,33.50894790083017,-117.75243,Aliso Creek,2.4444444444444446,0.45,0.7533333333333333,18.444444444444443,18.444444444444443,"NIGHT_MIST,NIGHT_MIST,NIGHT_MIST,NIGHT_MIST,NIGHT_MIST,NIGHT_MIST,MIST,MIST,MIST","Cross-shore,Cross-shore,Cross-shore,Cross-shore,Cross-shore,Cross-shore,Cross-shore,Cross-shore,Cross-shore",9
5842041f4e65fad6a77088dd,2024_06_11,33.5326591767067,-117.77764,Brooks Street,2,0.3344444444444445,0.64,18.444444444444443,18.444444444444443,"NIGHT_MIST,NIGHT_MIST,NIGHT_MIST,NIGHT_MIST,NIGHT_MIST,NIGHT_MIST,MIST,MIST,OVERCAST","Cross-shore,Cross-shore,Cross-shore,Cross-shore,Cross-shore,Cross-shore,Cross-shore,Cross-shore,Cross-shore",9
5842041f4e65fad6a77088de,2024_06_11,33.53561225884637,-117.7799,Thalia Street,2,0.2955555555555555,0.5988888888888889,18.444444444444443,18.444444444444443,"NIGHT_MIST,NIGHT_MIST,NIGHT_MIST,NIGHT_MIST,NIGHT_MIST,NIGHT_MIST,MIST,MIST,OVERCAST","Cross-shore,Cross-shore,Cross-shore,Cross-shore,Cross-shore,Cross-shore,Cross-shore,Cross-shore,Cross-shore",9
5842041f4e65fad6a77088e3,2024_06_11,33.54268310353641,-117.7916,Rockpile,2.7777777777777777,0.3344444444444445,0.64,18,18,"NIGHT_MIST,NIGHT_MIST,NIGHT_MIST,NIGHT_MIST,NIGHT_MIST,NIGHT_MIST,MIST,MIST,OVERCAST","Cross-shore,Cross-shore,Cross-shore,Offshore,Cross-shore,Cross-shore,Cross-shore,Cross-shore,Cross-shore",9
5842041f4e65fad6a77088e4,2024_06_11,33.7368459504689,-118.10342,"Seal Beach Pier, Southside",2,0.20111111111111113,0.5055555555555555,18,18,"NIGHT_CLEAR,NIGHT_CLEAR,NIGHT_CLEAR,NIGHT_CLEAR,NIGHT_MOSTLY_CLOUDY,NIGHT_CLOUDY,CLOUDY,CLOUDY,CLOUDY","Onshore,Onshore,Onshore,Onshore,Onshore,Onshore,Onshore,Onshore,Onshore",9
5842041f4e65fad6a77088e5,2024_06_11,33.73933701820233,-118.117,Ray Bay,2.3333333333333335,0.47333333333333333,0.7777777777777778,18,18,"NIGHT_CLEAR,NIGHT_CLEAR,NIGHT_CLEAR,NIGHT_CLEAR,NIGHT_MOSTLY_CLOUDY,NIGHT_OVERCAST,OVERCAST,OVERCAST,OVERCAST","Onshore,Onshore,Onshore,Onshore,Onshore,Onshore,Onshore,Onshore,Onshore",9
5842041f4e65fad6a77088e7,2024_06_11,33.728733,-118.08982,Surfside,1,0,0.2911111111111111,18,18,"NIGHT_CLEAR,NIGHT_CLEAR,NIGHT_CLEAR,NIGHT_CLEAR,NIGHT_MOSTLY_CLOUDY,NIGHT_OVERCAST,OVERCAST,OVERCAST,OVERCAST","Onshore,Onshore,Onshore,Onshore,Onshore,Onshore,Onshore,Onshore,Onshore",9
5842041f4e65fad6a77088e8,2024_06_11,33.68760321488161,-118.04236,Bolsa Chica State Beach,2.241111111111111,0.49514444444444444,0.8486555555555556,16,16,"NIGHT_CLEAR,NIGHT_MOSTLY_CLEAR,NIGHT_MOSTLY_CLEAR,NIGHT_MOSTLY_CLOUDY,NIGHT_MOSTLY_CLOUDY,NIGHT_OVERCAST,OVERCAST,OVERCAST,OVERCAST","Onshore,Onshore,Onshore,Onshore,Onshore,Onshore,Onshore,Onshore,Onshore",9
5842041f4e65fad6a77088ea,2024_06_11,33.66704400178788,-118.0192,North HB Streets,2.4444444444444446,0.6999333333333333,1.0558777777777777,16,16,"NIGHT_CLEAR,NIGHT_MIST,NIGHT_MOSTLY_CLEAR,NIGHT_MOSTLY_CLOUDY,NIGHT_CLOUDY,NIGHT_CLOUDY,CLOUDY,CLEAR,CLOUDY","Onshore,Onshore,Onshore,Onshore,Onshore,Onshore,Onshore,Onshore,Onshore",9
5842041f4e65fad6a77088ed,2024_06_11,33.65475101379567,-118.00291,Huntington Beach Pier Southside,2.888888888888889,0.8839,1.2012555555555555,16,16,"NIGHT_CLEAR,NIGHT_MIST,NIGHT_MOSTLY_CLEAR,NIGHT_MOSTLY_CLOUDY,NIGHT_CLOUDY,NIGHT_CLOUDY,CLOUDY,CLEAR,CLOUDY","Onshore,Onshore,Onshore,Onshore,Onshore,Onshore,Onshore,Onshore,Onshore",9
5842041f4e65fad6a77088ee,2024_06_11,33.62778647706099,-117.95939,River Jetties,2.6666666666666665,0.7421555555555556,1.1382777777777777,16,16,"NIGHT_CLEAR,NIGHT_CLEAR,NIGHT_MOSTLY_CLOUDY,NIGHT_MOSTLY_CLOUDY,NIGHT_OVERCAST,NIGHT_OVERCAST,OVERCAST,OVERCAST,OVERCAST","Onshore,Onshore,Onshore,Onshore,Onshore,Onshore,Onshore,Onshore,Onshore",9
5842041f4e65fad6a77088f2,2024_06_11,33.605165797643664,-117.925,Newport Point,2.7777777777777777,0.6900000000000001,0.9944444444444445,18,18,"NIGHT_CLEAR,NIGHT_MIST,NIGHT_MIST,NIGHT_MIST,NIGHT_CLOUDY,NIGHT_CLOUDY,CLOUDY,CLOUDY,CLOUDY","Onshore,Onshore,Onshore,Cross-shore,Cross-shore,Cross-shore,Cross-shore,Cross-shore,Cross-shore",9
5842041f4e65fad6a77088f3,2024_06_11,33.58982984726977,-117.87713,Corona del Mar,3,0.45555555555555555,0.7611111111111111,18,18,"NIGHT_MIST,NIGHT_MIST,NIGHT_MIST,NIGHT_MIST,NIGHT_OVERCAST,NIGHT_OVERCAST,OVERCAST,OVERCAST,OVERCAST","Onshore,Onshore,Onshore,Onshore,Onshore,Onshore,Onshore,Onshore,Onshore",9
5842041f4e65fad6a77088f7,2024_06_11,34.00750300824362,-118.4971783496269,Santa Monica Pier,2.2222222222222223,0.33555555555555555,0.6377777777777778,17,17,"NIGHT_MOSTLY_CLEAR,NIGHT_MOSTLY_CLEAR,NIGHT_MOSTLY_CLOUDY,NIGHT_MOSTLY_CLOUDY,NIGHT_MOSTLY_CLOUDY,NIGHT_MOSTLY_CLOUDY,MOSTLY_CLOUDY,MOSTLY_CLOUDY,BRIEF_SHOWERS","Onshore,Onshore,Onshore,Onshore,Onshore,Onshore,Onshore,Onshore,Onshore",9
5842041f4e65fad6a77088ff,2024_06_11,33.94070283102945,-118.44321,Dockweiler Beach,2.888888888888889,0.6173444444444445,0.9874444444444445,17,17,"NIGHT_MIST,NIGHT_MIST,NIGHT_MIST,NIGHT_MIST,NIGHT_MOSTLY_CLOUDY,NIGHT_MOSTLY_CLOUDY,MOSTLY_CLOUDY,MOSTLY_CLOUDY,MIST","Onshore,Onshore,Onshore,Onshore,Onshore,Onshore,Onshore,Onshore,Onshore",9
5842041f4e65fad6a7708900,2024_06_11,33.9231846937237,-118.4341465777908,Shitpipe,2.7777777777777777,0.6556777777777778,1.0213333333333334,17,17,"NIGHT_MIST,NIGHT_MIST,NIGHT_MIST,NIGHT_MIST,NIGHT_CLEAR,NIGHT_CLEAR,MOSTLY_CLOUDY,MOSTLY_CLOUDY,MOSTLY_CLOUDY","Onshore,Onshore,Onshore,Onshore,Onshore,Onshore,Onshore,Onshore,Onshore",9
5842041f4e65fad6a7708902,2024_06_11,33.9108528052242,-118.4279133138721,Hammerland,2.888888888888889,0.6556777777777778,1.0213333333333334,17,17,"NIGHT_MIST,NIGHT_MIST,NIGHT_MIST,NIGHT_MIST,NIGHT_CLEAR,NIGHT_CLEAR,MOSTLY_CLOUDY,MOSTLY_CLOUDY,MOSTLY_CLOUDY","Onshore,Onshore,Onshore,Onshore,Onshore,Onshore,Onshore,Onshore,Onshore",9
5842041f4e65fad6a7708904,2024_06_11,33.87201368173932,-118.40752,Hermosa Beach,2.888888888888889,0.5262555555555556,0.8392333333333333,17,17,"NIGHT_MIST,NIGHT_MIST,NIGHT_MIST,NIGHT_MIST,NIGHT_MIST,NIGHT_MIST,MIST,MIST,MIST","Onshore,Onshore,Onshore,Onshore,Onshore,Onshore,Onshore,Onshore,Onshore",9
5842041f4e65fad6a7708906,2024_06_11,33.90129336911256,-118.42184,El Porto,3,0.6556777777777778,1.0213333333333334,17,17,"NIGHT_MIST,NIGHT_MIST,NIGHT_MIST,NIGHT_MIST,NIGHT_MIST,NIGHT_MOSTLY_CLOUDY,MOSTLY_CLOUDY,MOSTLY_CLOUDY,MOSTLY_CLOUDY","Onshore,Onshore,Onshore,Onshore,Onshore,Onshore,Onshore,Onshore,Onshore",9
5842041f4e65fad6a7708907,2024_06_11,33.87963506431794,-118.41102,Manhattan Beach Pier,2.888888888888889,0.6954777777777778,1.0151222222222223,17,17,"NIGHT_MIST,NIGHT_MIST,NIGHT_MIST,NIGHT_MIST,NIGHT_MIST,NIGHT_MOSTLY_CLOUDY,MOSTLY_CLOUDY,MOSTLY_CLOUDY,MOSTLY_CLOUDY","Onshore,Onshore,Onshore,Onshore,Onshore,Onshore,Onshore,Onshore,Onshore",9
5842041f4e65fad6a7708914,2024_06_11,34.038053387863464,-118.5532,Sunset Point,2,0.21222222222222223,0.52,17,17,"NIGHT_MOSTLY_CLEAR,NIGHT_MOSTLY_CLOUDY,NIGHT_MOSTLY_CLOUDY,NIGHT_MOSTLY_CLOUDY,NIGHT_MOSTLY_CLOUDY,NIGHT_MIST,MIST,MIST,MOSTLY_CLOUDY","Cross-shore,Cross-shore,Cross-shore,Cross-shore,Onshore,Offshore,Offshore,Offshore,Offshore",9
5842041f4e65fad6a7708920,2024_06_11,33.80282,-118.39989,Haggerty's,2,0.26844444444444443,0.512888888888889,17,17,"NIGHT_MIST,NIGHT_MIST,NIGHT_MOSTLY_CLOUDY,NIGHT_MOSTLY_CLOUDY,NIGHT_MIST,NIGHT_MIST,MIST,MIST,MIST","Onshore,Onshore,Cross-shore,Onshore,Onshore,Onshore,Onshore,Onshore,Onshore",9
5842041f4e65fad6a7708921,2024_06_11,33.85044519861206,-118.40048,Redondo Breakwater,2.7777777777777777,0.44555555555555554,0.7522222222222222,17,17,"NIGHT_MIST,NIGHT_MIST,NIGHT_MIST,NIGHT_MIST,NIGHT_MIST,NIGHT_MIST,MIST,MIST,MIST","Onshore,Onshore,Onshore,Onshore,Onshore,Onshore,Onshore,Onshore,Onshore",9
5842041f4e65fad6a7708927,2024_06_11,33.70877301002487,-118.2840112858389,Cabrillo Beach,2,0.23555555555555555,0.5411111111111111,17.444444444444443,17.444444444444443,"NIGHT_CLEAR,NIGHT_CLEAR,NIGHT_CLEAR,NIGHT_CLEAR,NIGHT_MOSTLY_CLOUDY,NIGHT_MOSTLY_CLOUDY,MOSTLY_CLOUDY,MOSTLY_CLOUDY,MOSTLY_CLOUDY","Offshore,Offshore,Cross-shore,Offshore,Offshore,Offshore,Cross-shore,Offshore,Cross-shore",9
5842041f4e65fad6a770892c,2024_06_11,33.77209986806257,-118.4268428476672,Lunada Bay,1.8888888888888888,0.4811111111111111,0.788888888888889,17,17,"NIGHT_MIST,NIGHT_MIST,NIGHT_MOSTLY_CLOUDY,NIGHT_MOSTLY_CLOUDY,NIGHT_MIST,NIGHT_MIST,MIST,MIST,MIST","Onshore,Onshore,Onshore,Onshore,Cross-shore,Cross-shore,Cross-shore,Cross-shore,Cross-shore",9
5842041f4e65fad6a770892d,2024_06_11,33.79294656286144,-118.40703,PV Cove,2.2222222222222223,0.33555555555555555,0.6411111111111111,17,17,"NIGHT_MIST,NIGHT_MIST,NIGHT_MOSTLY_CLOUDY,NIGHT_MOSTLY_CLOUDY,NIGHT_MIST,NIGHT_MIST,MIST,MIST,MIST","Onshore,Onshore,Onshore,Onshore,Onshore,Onshore,Onshore,Onshore,Onshore",9
5842041f4e65fad6a7708930,2024_06_11,34.03944902292561,-118.57539,Chart House,0,0,0.10111111111111111,17,17,"NIGHT_CLEAR,NIGHT_CLEAR,NIGHT_CLEAR,NIGHT_CLEAR,NIGHT_MOSTLY_CLEAR,NIGHT_MOSTLY_CLEAR,MOSTLY_CLEAR,MOSTLY_CLEAR,MOSTLY_CLEAR","Onshore,Onshore,Cross-shore,Cross-shore,Onshore,Offshore,Offshore,Offshore,Offshore",9
5842041f4e65fad6a7708936,2024_06_11,34.0016731994772,-118.80456,Point Dume,2.888888888888889,0.3905411111111111,0.7388633333333333,14,14,"NIGHT_CLEAR,NIGHT_CLEAR,NIGHT_MOSTLY_CLOUDY,NIGHT_MOSTLY_CLOUDY,NIGHT_MIST,NIGHT_CLEAR,MOSTLY_CLOUDY,MOSTLY_CLOUDY,MOSTLY_CLOUDY","Offshore,Cross-shore,Cross-shore,Cross-shore,Onshore,Onshore,Onshore,Onshore,Onshore",9
5842041f4e65fad6a7708937,2024_06_11,34.02587527588963,-118.7554939066114,Latigo Point,3,0.36777777777777776,0.6755555555555556,16.444444444444443,16.444444444444443,"NIGHT_CLEAR,NIGHT_MOSTLY_CLEAR,NIGHT_MOSTLY_CLOUDY,NIGHT_MOSTLY_CLOUDY,NIGHT_MOSTLY_CLOUDY,NIGHT_BRIEF_SHOWERS,MOSTLY_CLOUDY,MOSTLY_CLOUDY,MOSTLY_CLOUDY","Offshore,Cross-shore,Cross-shore,Offshore,Onshore,Onshore,Onshore,Cross-shore,Onshore",9
5842041f4e65fad6a770893f,2024_06_11,34.043762,-118.93294,Leo Carrillo,2.6666666666666665,0.7606255555555556,1.0647855555555557,14,14,"NIGHT_CLEAR,NIGHT_CLEAR,NIGHT_CLEAR,NIGHT_MOSTLY_CLOUDY,NIGHT_MIST,NIGHT_BRIEF_SHOWERS,MIST,MIST,MIST","Cross-shore,Offshore,Cross-shore,Cross-shore,Onshore,Offshore,Offshore,Offshore,Cross-shore",9
5842041f4e65fad6a7708941,2024_06_11,36.69388179265737,-121.81289,Marina State Beach,3,1.248888888888889,1.5544444444444445,13.444444444444445,13.444444444444445,"NIGHT_MIST,NIGHT_BRIEF_SHOWERS,NIGHT_BRIEF_SHOWERS,NIGHT_MIST,NIGHT_MIST,NIGHT_MIST,MIST,MOSTLY_CLOUDY,MOSTLY_CLOUDY","Onshore,Onshore,Onshore,Onshore,Onshore,Onshore,Onshore,Onshore,Onshore",9
5842041f4e65fad6a7708944,2024_06_11,34.34145077331085,-119.416999352654,Stanley's,2,0.11888888888888889,0.42333333333333334,17,17,"NIGHT_MIST,NIGHT_MIST,NIGHT_MIST,NIGHT_CLEAR,NIGHT_CLEAR,NIGHT_MOSTLY_CLEAR,MOSTLY_CLOUDY,MOSTLY_CLOUDY,MOSTLY_CLOUDY","Cross-shore,Offshore,Offshore,Offshore,Cross-shore,Onshore,Cross-shore,Offshore,Cross-shore",9
5842041f4e65fad6a7708945,2024_06_11,34.35113017313915,-119.426921498899,Oil Piers,2,0.11888888888888889,0.42333333333333334,17,17,"NIGHT_MIST,NIGHT_MIST,NIGHT_MIST,NIGHT_CLEAR,NIGHT_CLEAR,NIGHT_MOSTLY_CLEAR,MOSTLY_CLOUDY,MOSTLY_CLOUDY,MOSTLY_CLOUDY","Offshore,Offshore,Offshore,Onshore,Onshore,Onshore,Offshore,Offshore,Cross-shore",9
5842041f4e65fad6a770894c,2024_06_11,34.17876333306018,-119.23995,Oxnard,3,0.6122222222222222,0.9144444444444444,16.555555555555557,16.555555555555557,"NIGHT_CLEAR,NIGHT_MOSTLY_CLEAR,NIGHT_MIST,NIGHT_MOSTLY_CLOUDY,NIGHT_MOSTLY_CLOUDY,NIGHT_MOSTLY_CLOUDY,MOSTLY_CLOUDY,OVERCAST,OVERCAST","Onshore,Onshore,Onshore,Onshore,Onshore,Onshore,Onshore,Onshore,Onshore",9
5842041f4e65fad6a7708957,2024_06_11,34.31720331100517,-119.3882324751725,Pitas Point,2.2222222222222223,0.2677777777777778,0.5722222222222222,17,17,"NIGHT_CLEAR,NIGHT_MOSTLY_CLEAR,NIGHT_MOSTLY_CLOUDY,NIGHT_MOSTLY_CLOUDY,NIGHT_MOSTLY_CLOUDY,NIGHT_BRIEF_SHOWERS,MOSTLY_CLOUDY,MOSTLY_CLOUDY,MOSTLY_CLOUDY","Onshore,Offshore,Onshore,Onshore,Offshore,Offshore,Offshore,Cross-shore,Cross-shore",9
5842041f4e65fad6a7708959,2024_06_11,34.27851754384724,-119.3162,Emma Wood,2.888888888888889,0.43666666666666665,0.741111111111111,16.444444444444443,16.444444444444443,"NIGHT_MOSTLY_CLEAR,NIGHT_MOSTLY_CLEAR,NIGHT_MOSTLY_CLOUDY,NIGHT_MOSTLY_CLOUDY,NIGHT_MOSTLY_CLOUDY,NIGHT_MOSTLY_CLOUDY,MOSTLY_CLOUDY,MOSTLY_CLOUDY,MOSTLY_CLOUDY","Onshore,Onshore,Onshore,Onshore,Onshore,Cross-shore,Cross-shore,Cross-shore,Cross-shore",9
5842041f4e65fad6a770895a,2024_06_11,34.35513640390276,-119.4400589884255,Mussel Shoals (aka Little Rincon),2,0.14333333333333334,0.4488888888888889,17,17,"NIGHT_MIST,NIGHT_MIST,NIGHT_MIST,NIGHT_MIST,NIGHT_MIST,NIGHT_BRIEF_SHOWERS,MOSTLY_CLOUDY,MOSTLY_CLOUDY,MOSTLY_CLOUDY","Offshore,Onshore,Cross-shore,Offshore,Offshore,Onshore,Offshore,Offshore,Offshore",9
5842041f4e65fad6a770895e,2024_06_11,34.28991757054902,-119.3366646794652,Summer Beach,2,0.27,0.5755555555555556,16.444444444444443,16.444444444444443,"NIGHT_MOSTLY_CLEAR,NIGHT_MOSTLY_CLEAR,NIGHT_MOSTLY_CLOUDY,NIGHT_MOSTLY_CLOUDY,NIGHT_MOSTLY_CLOUDY,NIGHT_MOSTLY_CLOUDY,MOSTLY_CLOUDY,MOSTLY_CLOUDY,MOSTLY_CLOUDY","Onshore,Onshore,Onshore,Onshore,Onshore,Cross-shore,Offshore,Offshore,Offshore",9
5842041f4e65fad6a770895f,2024_06_11,34.30897456105926,-119.3582501170116,Solimar,2,0.27,0.5755555555555556,17,17,"NIGHT_CLEAR,NIGHT_MOSTLY_CLEAR,NIGHT_MOSTLY_CLOUDY,NIGHT_MOSTLY_CLOUDY,NIGHT_MOSTLY_CLOUDY,NIGHT_BRIEF_SHOWERS,MOSTLY_CLOUDY,MOSTLY_CLOUDY,MOSTLY_CLOUDY","Offshore,Offshore,Offshore,Onshore,Offshore,Offshore,Offshore,Cross-shore,Cross-shore",9
5842041f4e65fad6a7708960,2024_06_11,34.39836265281686,-119.70213,Leadbetter Point,1,0,0.15333333333333332,16,16,"NIGHT_MIST,NIGHT_MIST,NIGHT_MIST,NIGHT_MIST,NIGHT_MIST,NIGHT_BRIEF_SHOWERS,MIST,MOSTLY_CLOUDY,MOSTLY_CLOUDY","Onshore,Onshore,Onshore,Onshore,Cross-shore,Cross-shore,Cross-shore,Offshore,Offshore",9
5842041f4e65fad6a7708961,2024_06_11,34.46052293893899,-120.07328,Refugio,2,0.07777777777777778,0.38222222222222224,16,16,"NIGHT_CLEAR,NIGHT_CLEAR,NIGHT_CLEAR,NIGHT_CLEAR,NIGHT_CLEAR,NIGHT_CLEAR,CLEAR,MOSTLY_CLOUDY,MOSTLY_CLOUDY","Cross-shore,Onshore,Onshore,Offshore,Onshore,Offshore,Offshore,Onshore,Onshore",9
5842041f4e65fad6a7708962,2024_06_11,34.40754276777778,-119.87639,Devereux,2,0.04555555555555556,0.3488888888888889,16,16,"NIGHT_MIST,NIGHT_MIST,NIGHT_MIST,NIGHT_MIST,NIGHT_MOSTLY_CLEAR,NIGHT_MOSTLY_CLEAR,MOSTLY_CLOUDY,CLEAR,CLEAR","Onshore,Onshore,Onshore,Onshore,Onshore,Onshore,Onshore,Onshore,Onshore",9
5842041f4e65fad6a7708963,2024_06_11,34.27479983305182,-119.3133222656776,Ventura Overhead,3,0.43666666666666665,0.741111111111111,16.444444444444443,16.444444444444443,"NIGHT_MOSTLY_CLEAR,NIGHT_MOSTLY_CLEAR,NIGHT_MOSTLY_CLOUDY,NIGHT_MOSTLY_CLOUDY,NIGHT_MOSTLY_CLOUDY,NIGHT_MIST,MOSTLY_CLOUDY,MOSTLY_CLOUDY,MIST","Onshore,Onshore,Onshore,Onshore,Onshore,Cross-shore,Offshore,Offshore,Cross-shore",9
5842041f4e65fad6a7708964,2024_06_11,34.41023236011655,-119.88261,Sands,2,0.02888888888888889,0.33444444444444443,16,16,"NIGHT_MIST,NIGHT_MIST,NIGHT_MIST,NIGHT_MIST,NIGHT_MOSTLY_CLEAR,NIGHT_MOSTLY_CLEAR,MOSTLY_CLOUDY,CLEAR,CLEAR","Offshore,Offshore,Offshore,Offshore,Offshore,Offshore,Cross-shore,Cross-shore,Cross-shore",9
5842041f4e65fad6a7708966,2024_06_11,34.40450193869233,-119.68752,Sandspit,0.5555555555555556,0,0.15333333333333332,16,16,"NIGHT_CLEAR,NIGHT_MOSTLY_CLEAR,NIGHT_MOSTLY_CLEAR,NIGHT_MOSTLY_CLEAR,NIGHT_MOSTLY_CLEAR,NIGHT_MOSTLY_CLEAR,MOSTLY_CLEAR,MOSTLY_CLOUDY,MOSTLY_CLOUDY","Onshore,Onshore,Onshore,Onshore,Cross-shore,Cross-shore,Cross-shore,Offshore,Offshore",9
5842041f4e65fad6a7708967,2024_06_11,34.41549098334453,-119.6375149840203,Hammond's,1.3333333333333333,0.007777777777777778,0.2888888888888889,16,16,"NIGHT_MOSTLY_CLEAR,NIGHT_MIST,NIGHT_MIST,NIGHT_MIST,NIGHT_MOSTLY_CLEAR,NIGHT_BRIEF_SHOWERS,MOSTLY_CLEAR,MOSTLY_CLOUDY,MOSTLY_CLOUDY","Onshore,Onshore,Onshore,Onshore,Onshore,Cross-shore,Onshore,Cross-shore,Onshore",9
5842041f4e65fad6a7708968,2024_06_11,34.45759322742309,-120.02203,El Capitan,2,0.08,0.38333333333333336,16,16,"NIGHT_CLEAR,NIGHT_CLEAR,NIGHT_CLEAR,NIGHT_CLEAR,NIGHT_MOSTLY_CLEAR,NIGHT_MOSTLY_CLEAR,MOSTLY_CLEAR,MIST,BRIEF_SHOWERS","Cross-shore,Onshore,Cross-shore,Onshore,Cross-shore,Onshore,Onshore,Onshore,Cross-shore",9
5842041f4e65fad6a770896c,2024_06_11,34.405117655616,-119.84317,Campus Point,2,0.02888888888888889,0.33444444444444443,16,16,"NIGHT_CLEAR,NIGHT_CLEAR,NIGHT_CLEAR,NIGHT_CLEAR,NIGHT_MOSTLY_CLEAR,NIGHT_MOSTLY_CLEAR,MOSTLY_CLOUDY,MOSTLY_CLOUDY,MOSTLY_CLOUDY","Onshore,Onshore,Onshore,Onshore,Onshore,Onshore,Onshore,Onshore,Onshore",9
5842041f4e65fad6a770896e,2024_06_11,34.38935162233354,-119.51955,Carpinteria State Beach,2,0.1111111111111111,0.41555555555555557,16,16,"NIGHT_MIST,NIGHT_MIST,NIGHT_MIST,NIGHT_MIST,NIGHT_MOSTLY_CLEAR,NIGHT_MOSTLY_CLEAR,MOSTLY_CLOUDY,MOSTLY_CLOUDY,MOSTLY_CLOUDY","Cross-shore,Cross-shore,Cross-shore,Offshore,Onshore,Onshore,Cross-shore,Offshore,Offshore",9
5842041f4e65fad6a770896f,2024_06_11,37.48296565175612,-122.45493,Half Moon Bay,3,1.0155555555555555,1.3222222222222222,14.444444444444445,14.444444444444445,"NIGHT_BRIEF_SHOWERS,NIGHT_MIST,NIGHT_MIST,NIGHT_BRIEF_SHOWERS,NIGHT_MIST,NIGHT_MIST,MIST,MIST,MIST","Onshore,Onshore,Onshore,Onshore,Onshore,Onshore,Onshore,Onshore,Onshore",9
5842041f4e65fad6a7708970,2024_06_11,37.499,-122.471,Princeton Jetty,3,0.7911111111111111,1.0522222222222222,14.444444444444445,14.444444444444445,"NIGHT_BRIEF_SHOWERS,NIGHT_BRIEF_SHOWERS,NIGHT_BRIEF_SHOWERS,NIGHT_BRIEF_SHOWERS,NIGHT_MIST,NIGHT_BRIEF_SHOWERS,MIST,MIST,CLEAR","Onshore,Onshore,Onshore,Onshore,Onshore,Onshore,Onshore,Onshore,Onshore",9
5842041f4e65fad6a7708972,2024_06_11,37.35699547365155,-122.4069534707252,Tunitas Creek,3,1.88,2.1855555555555557,14.444444444444445,14.444444444444445,"NIGHT_MOSTLY_CLOUDY,NIGHT_MOSTLY_CLOUDY,NIGHT_MOSTLY_CLOUDY,NIGHT_MOSTLY_CLOUDY,NIGHT_MOSTLY_CLOUDY,NIGHT_MOSTLY_CLOUDY,MOSTLY_CLOUDY,MOSTLY_CLOUDY,MOSTLY_CLOUDY","Cross-shore,Offshore,Cross-shore,Onshore,Cross-shore,Cross-shore,Cross-shore,Onshore,Onshore",9
5842041f4e65fad6a7708974,2024_06_11,37.54735589428842,-122.51611,Montara,3,1.6033333333333333,1.8444444444444446,14.444444444444445,14.444444444444445,"NIGHT_BRIEF_SHOWERS,NIGHT_BRIEF_SHOWERS,NIGHT_BRIEF_SHOWERS,NIGHT_BRIEF_SHOWERS,NIGHT_MIST,NIGHT_BRIEF_SHOWERS,MIST,MIST,BRIEF_SHOWERS","Cross-shore,Cross-shore,Cross-shore,Cross-shore,Cross-shore,Cross-shore,Cross-shore,Cross-shore,Cross-shore",9
5842041f4e65fad6a7708975,2024_06_11,34.3869373724559,-119.5142334209018,Tarpits,2,0.12333333333333334,0.4288888888888889,16,16,"NIGHT_MIST,NIGHT_MIST,NIGHT_MIST,NIGHT_MIST,NIGHT_MOSTLY_CLEAR,NIGHT_MOSTLY_CLEAR,MOSTLY_CLEAR,MOSTLY_CLOUDY,MOSTLY_CLOUDY","Onshore,Onshore,Onshore,Cross-shore,Onshore,Onshore,Onshore,Offshore,Offshore",9
5842041f4e65fad6a7708976,2024_06_11,37.59881852720143,-122.50463,Linda Mar,1.6111111111111112,0.5300966666666667,0.8833066666666667,11,11,"NIGHT_BRIEF_SHOWERS,NIGHT_BRIEF_SHOWERS,NIGHT_BRIEF_SHOWERS,NIGHT_BRIEF_SHOWERS,NIGHT_SHOWERS,NIGHT_BRIEF_SHOWERS,MIST,MIST,MIST","Onshore,Onshore,Onshore,Onshore,Onshore,Onshore,Onshore,Onshore,Onshore",9
5842041f4e65fad6a7708978,2024_06_11,37.59883098461164,-122.5143843582282,Pedro Point,3,1.6277777777777778,1.91,14.444444444444445,14.444444444444445,"NIGHT_MIST,NIGHT_MIST,NIGHT_MIST,NIGHT_MIST,NIGHT_MIST,NIGHT_MIST,MIST,MIST,MIST","Cross-shore,Cross-shore,Cross-shore,Cross-shore,Cross-shore,Cross-shore,Cross-shore,Cross-shore,Onshore",9
5842041f4e65fad6a7708979,2024_06_11,37.61081996647663,-122.49733,Rockaway,3,1.5755555555555556,1.8811111111111112,14.444444444444445,14.444444444444445,"NIGHT_BRIEF_SHOWERS,NIGHT_BRIEF_SHOWERS,NIGHT_BRIEF_SHOWERS,NIGHT_BRIEF_SHOWERS,NIGHT_SHOWERS,NIGHT_BRIEF_SHOWERS,MIST,MIST,MIST","Cross-shore,Cross-shore,Cross-shore,Cross-shore,Onshore,Onshore,Onshore,Onshore,Onshore",9
5842041f4e65fad6a770897a,2024_06_11,37.809987384424446,-122.47514,Fort Point,3,0.8477777777777777,1.1544444444444444,14.333333333333334,14.333333333333334,"NIGHT_BRIEF_SHOWERS,NIGHT_BRIEF_SHOWERS,NIGHT_BRIEF_SHOWERS,NIGHT_BRIEF_SHOWERS,NIGHT_MIST,NIGHT_MIST,MIST,MIST,MIST","Onshore,Onshore,Onshore,Onshore,Onshore,Onshore,Onshore,Onshore,Cross-shore",9
5842041f4e65fad6a770897c,2024_06_11,37.63422542967464,-122.4951,Sharp Park,2.4444444444444446,1.71,1.9844444444444445,14.444444444444445,14.444444444444445,"NIGHT_BRIEF_SHOWERS,NIGHT_BRIEF_SHOWERS,NIGHT_BRIEF_SHOWERS,NIGHT_BRIEF_SHOWERS,NIGHT_MIST,NIGHT_BRIEF_SHOWERS,MIST,MIST,BRIEF_SHOWERS","Cross-shore,Cross-shore,Cross-shore,Onshore,Onshore,Onshore,Onshore,Onshore,Onshore",9
5842041f4e65fad6a770897d,2024_06_11,37.27313605072472,-122.4127387912554,Pescadero,3,1.8166666666666667,2.121111111111111,14,14,"NIGHT_MIST,NIGHT_MIST,NIGHT_BRIEF_SHOWERS,NIGHT_MIST,NIGHT_MIST,NIGHT_MIST,MIST,MIST,MIST","Cross-shore,Cross-shore,Cross-shore,Onshore,Cross-shore,Onshore,Onshore,Onshore,Onshore",9
5842041f4e65fad6a770897e,2024_06_11,37.18140279972666,-122.3926685899327,Pigeon Point,4,1.9133333333333333,2.037777777777778,14,14,"NIGHT_BRIEF_SHOWERS,NIGHT_BRIEF_SHOWERS,NIGHT_BRIEF_SHOWERS,NIGHT_MIST,NIGHT_MIST,NIGHT_MIST,MIST,MIST,MIST","Offshore,Offshore,Offshore,Offshore,Offshore,Offshore,Offshore,Offshore,Offshore",9
5842041f4e65fad6a770897f,2024_06_11,37.11578956919415,-122.314699271291,Ano Nuevo,4,1.211111111111111,1.4433333333333334,14,14,"NIGHT_CLEAR,NIGHT_CLEAR,NIGHT_CLEAR,NIGHT_CLEAR,NIGHT_MIST,NIGHT_MIST,MIST,MIST,MIST","Offshore,Offshore,Offshore,Offshore,Offshore,Offshore,Offshore,Offshore,Offshore",9
5842041f4e65fad6a7708980,2024_06_11,37.09520872681598,-122.2805474707768,Waddell Creek,3.111111111111111,1.2866666666666666,1.5533333333333335,13.444444444444445,13.444444444444445,"NIGHT_CLEAR,NIGHT_CLEAR,NIGHT_CLEAR,NIGHT_CLEAR,NIGHT_CLEAR,NIGHT_CLEAR,CLEAR,CLEAR,CLEAR","Offshore,Offshore,Cross-shore,Onshore,Onshore,Cross-shore,Offshore,Cross-shore,Cross-shore",9
5842041f4e65fad6a7708981,2024_06_11,36.96512852130351,-122.1252825495626,Four Mile,3,0.96,1.1300000000000001,13.444444444444445,13.444444444444445,"NIGHT_MIST,NIGHT_CLEAR,NIGHT_CLEAR,NIGHT_CLEAR,NIGHT_MIST,NIGHT_MIST,MIST,MIST,CLEAR","Offshore,Offshore,Cross-shore,Onshore,Onshore,Cross-shore,Offshore,Onshore,Onshore",9
5842041f4e65fad6a7708982,2024_06_11,37.04122807048655,-122.23337,Scott Creek,3,1.5744444444444445,1.7555555555555555,13.444444444444445,13.444444444444445,"NIGHT_MIST,NIGHT_MIST,NIGHT_MIST,NIGHT_MIST,NIGHT_CLEAR,NIGHT_CLEAR,CLEAR,MIST,MIST","Onshore,Offshore,Cross-shore,Cross-shore,Offshore,Offshore,Offshore,Offshore,Cross-shore",9
5842041f4e65fad6a7708983,2024_06_11,37.02350229387179,-122.21908,Davenport,4,1.3133333333333335,1.5755555555555556,13.444444444444445,13.444444444444445,"NIGHT_MIST,NIGHT_MIST,NIGHT_MIST,NIGHT_MIST,NIGHT_MIST,NIGHT_MIST,MIST,MIST,MIST","Onshore,Offshore,Cross-shore,Cross-shore,Offshore,Offshore,Offshore,Offshore,Cross-shore",9
5842041f4e65fad6a7708986,2024_06_11,36.94905295955728,-122.06118,Natural Bridges,3,1.211111111111111,1.45,13.88888888888889,13.88888888888889,"NIGHT_CLEAR,NIGHT_CLEAR,NIGHT_CLEAR,NIGHT_MOSTLY_CLOUDY,NIGHT_MOSTLY_CLEAR,NIGHT_MOSTLY_CLOUDY,MOSTLY_CLOUDY,MOSTLY_CLOUDY,MOSTLY_CLOUDY","Cross-shore,Cross-shore,Onshore,Onshore,Onshore,Cross-shore,Offshore,Offshore,Cross-shore",9
5842041f4e65fad6a7708987,2024_06_11,36.95154854910425,-122.04207,Mitchell's Cove,3,0.7033333333333334,1.0077777777777779,13.88888888888889,13.88888888888889,"NIGHT_CLEAR,NIGHT_CLEAR,NIGHT_CLEAR,NIGHT_MOSTLY_CLOUDY,NIGHT_CLEAR,NIGHT_MOSTLY_CLEAR,MOSTLY_CLOUDY,MOSTLY_CLOUDY,MOSTLY_CLOUDY","Cross-shore,Onshore,Onshore,Onshore,Onshore,Onshore,Onshore,Onshore,Onshore",9
5842041f4e65fad6a770898a,2024_06_11,36.9572312370203,-121.98177,26th Ave,3,1.0355555555555556,1.327777777777778,14.444444444444445,14.444444444444445,"NIGHT_CLEAR,NIGHT_MOSTLY_CLEAR,NIGHT_MOSTLY_CLEAR,NIGHT_MOSTLY_CLEAR,NIGHT_CLEAR,NIGHT_MOSTLY_CLEAR,MOSTLY_CLEAR,MOSTLY_CLEAR,MOSTLY_CLEAR","Offshore,Offshore,Cross-shore,Onshore,Onshore,Onshore,Cross-shore,Cross-shore,Cross-shore",9
5842041f4e65fad6a770898e,2024_06_11,36.91899972819882,-121.85536,Manresa,3,1.031111111111111,1.267777777777778,14.444444444444445,14.444444444444445,"NIGHT_MIST,NIGHT_MIST,NIGHT_MIST,NIGHT_MIST,NIGHT_MIST,NIGHT_BRIEF_SHOWERS,MOSTLY_CLOUDY,MOSTLY_CLOUDY,MOSTLY_CLOUDY","Onshore,Onshore,Cross-shore,Cross-shore,Cross-shore,Cross-shore,Onshore,Onshore,Onshore",9
5842041f4e65fad6a7708990,2024_06_11,34.45747731928454,-120.34242,The Ranch,3,0.4,0.7077777777777777,15,15,"NIGHT_CLEAR,NIGHT_CLEAR,NIGHT_CLEAR,NIGHT_CLEAR,NIGHT_MOSTLY_CLEAR,NIGHT_MOSTLY_CLEAR,MOSTLY_CLEAR,MOSTLY_CLEAR,MOSTLY_CLEAR","Offshore,Offshore,Cross-shore,Offshore,Offshore,Offshore,Offshore,Offshore,Onshore",9
5842041f4e65fad6a7708991,2024_06_11,34.50875036590315,-120.50348,Jalama,3,0.7233333333333334,1.0255555555555556,14.444444444444445,14.444444444444445,"NIGHT_CLEAR,NIGHT_CLEAR,NIGHT_CLEAR,NIGHT_CLEAR,NIGHT_CLEAR,NIGHT_CLEAR,CLEAR,CLEAR,CLEAR","Offshore,Offshore,Offshore,Offshore,Offshore,Offshore,Offshore,Offshore,Onshore",9
5842041f4e65fad6a7708996,2024_06_11,34.68700870220497,-120.6111611019887,Surf Beach,2.888888888888889,1.6622222222222223,1.8688888888888888,14,14,"NIGHT_MIST,NIGHT_MIST,NIGHT_MIST,NIGHT_MIST,NIGHT_MOSTLY_CLOUDY,NIGHT_MOSTLY_CLOUDY,MOSTLY_CLOUDY,MIST,MIST","Onshore,Onshore,Onshore,Onshore,Onshore,Onshore,Onshore,Onshore,Onshore",9
5842041f4e65fad6a770899c,2024_06_11,35.5730538161116,-121.1143362345574,Moonstone,3,1.0055555555555555,1.202222222222222,13.444444444444445,13.444444444444445,"NIGHT_MIST,NIGHT_MIST,NIGHT_MIST,NIGHT_CLEAR,NIGHT_CLEAR,NIGHT_CLEAR,CLEAR,MOSTLY_CLOUDY,MIST","Onshore,Onshore,Onshore,Onshore,Onshore,Cross-shore,Cross-shore,Onshore,Onshore",9
5842041f4e65fad6a770899d,2024_06_11,35.61533716776573,-121.1502053073914,Pico Creek,3,1.021111111111111,1.3255555555555556,13.444444444444445,13.444444444444445,"NIGHT_MIST,NIGHT_MIST,NIGHT_MIST,NIGHT_CLEAR,NIGHT_CLEAR,NIGHT_CLEAR,CLEAR,MOSTLY_CLOUDY,MIST","Onshore,Onshore,Cross-shore,Cross-shore,Offshore,Offshore,Offshore,Cross-shore,Cross-shore",9
5842041f4e65fad6a770899e,2024_06_11,35.56829031927379,-121.11207,Santa Rosa Creek,3,1.0055555555555555,1.202222222222222,13.444444444444445,13.444444444444445,"NIGHT_MIST,NIGHT_MIST,NIGHT_MIST,NIGHT_MIST,NIGHT_MIST,NIGHT_MOSTLY_CLOUDY,MOSTLY_CLOUDY,MOSTLY_CLOUDY,MIST","Onshore,Onshore,Onshore,Onshore,Onshore,Onshore,Onshore,Onshore,Onshore",9
5842041f4e65fad6a77089a2,2024_06_11,35.44820114936284,-120.90715,"Cayucos Pier, Southside ",2.7777777777777777,0.3288888888888889,0.6333333333333333,14,14,"NIGHT_CLEAR,NIGHT_MOSTLY_CLOUDY,NIGHT_MOSTLY_CLOUDY,NIGHT_MOSTLY_CLOUDY,NIGHT_MOSTLY_CLOUDY,NIGHT_MOSTLY_CLOUDY,MOSTLY_CLOUDY,MOSTLY_CLOUDY,MOSTLY_CLOUDY","Onshore,Onshore,Onshore,Onshore,Onshore,Cross-shore,Offshore,Onshore,Onshore",9
5842041f4e65fad6a77089a4,2024_06_11,35.30143372628852,-120.877819239902,Cable Landing,2.888888888888889,1.9155555555555555,2.1333333333333333,14,14,"NIGHT_MIST,NIGHT_MIST,NIGHT_MIST,NIGHT_MIST,NIGHT_MIST,NIGHT_MIST,MIST,MIST,MIST","Onshore,Onshore,Onshore,Onshore,Onshore,Onshore,Onshore,Onshore,Onshore",9
5842041f4e65fad6a77089a9,2024_06_11,35.61269103500222,-121.14807,San Simeon,3,0.7046666666666667,0.868,13.444444444444445,13.444444444444445,"NIGHT_MOSTLY_CLOUDY,NIGHT_MOSTLY_CLEAR,NIGHT_MOSTLY_CLOUDY,NIGHT_MOSTLY_CLOUDY,NIGHT_MOSTLY_CLEAR,NIGHT_MOSTLY_CLEAR,MOSTLY_CLEAR,MOSTLY_CLEAR,MOSTLY_CLEAR","Onshore,Onshore,Onshore,Cross-shore,Cross-shore,Cross-shore,Cross-shore,Onshore,Onshore",9
5842041f4e65fad6a77089ab,2024_06_11,35.1775325966252,-120.73411,Avila Beach,2,0.12777777777777777,0.43222222222222223,14,14,"NIGHT_CLEAR,NIGHT_CLEAR,NIGHT_CLEAR,NIGHT_CLEAR,NIGHT_CLEAR,NIGHT_CLEAR,CLEAR,CLEAR,CLEAR","Cross-shore,Offshore,Onshore,Cross-shore,Offshore,Offshore,Onshore,Offshore,Offshore",9
5842041f4e65fad6a77089ac,2024_06_11,35.13877877884115,-120.64535,Pismo Beach Pier,2.9444444444444446,0.6564377777777778,0.9921811111111111,11,11,"NIGHT_CLEAR,NIGHT_CLEAR,NIGHT_CLEAR,NIGHT_CLEAR,NIGHT_CLEAR,NIGHT_MOSTLY_CLEAR,MOSTLY_CLEAR,MOSTLY_CLEAR,MOSTLY_CLEAR","Onshore,Onshore,Offshore,Cross-shore,Cross-shore,Offshore,Offshore,Offshore,Offshore",9
5842041f4e65fad6a77089ad,2024_06_11,46.8907710233147,-124.12964,Westport/Olympic Peninsula,2.4444444444444446,0.9500000000000001,1.1344444444444446,13,13,"NIGHT_CLEAR,NIGHT_CLEAR,NIGHT_CLEAR,NIGHT_CLEAR,NIGHT_OVERCAST,NIGHT_OVERCAST,OVERCAST,HEAVY_RAIN,OVERCAST","Cross-shore,Onshore,Onshore,Onshore,Onshore,Onshore,Onshore,Onshore,Onshore",9
5842041f4e65fad6a77089ae,2024_06_11,46.35185177248545,-124.06747,Long Beach Peninsula,2.4444444444444446,1.0522222222222222,1.2733333333333334,14,14,"NIGHT_CLEAR,NIGHT_CLEAR,NIGHT_MOSTLY_CLEAR,NIGHT_CLEAR,NIGHT_MIST,NIGHT_MIST,MIST,MIST,OVERCAST","Cross-shore,Onshore,Onshore,Onshore,Onshore,Cross-shore,Cross-shore,Onshore,Onshore",9
5842041f4e65fad6a77089af,2024_06_11,47.90649175554033,-124.63709,La Push,2.888888888888889,1.228888888888889,1.472222222222222,12,12,"NIGHT_MOSTLY_CLEAR,NIGHT_CLEAR,NIGHT_MOSTLY_CLOUDY,NIGHT_MOSTLY_CLOUDY,NIGHT_MOSTLY_CLOUDY,NIGHT_OVERCAST,OVERCAST,OVERCAST,CLOUDY","Cross-shore,Onshore,Onshore,Offshore,Offshore,Cross-shore,Cross-shore,Cross-shore,Onshore",9
5842041f4e65fad6a77089b0,2024_06_11,42.04368239985442,-124.26828,Brookings Jetty,3,0.50812,0.7939388888888889,11.666666666666666,11.666666666666666,"NIGHT_CLEAR,NIGHT_CLEAR,NIGHT_CLEAR,NIGHT_CLEAR,NIGHT_CLEAR,NIGHT_CLEAR,CLEAR,CLEAR,CLEAR","Onshore,Onshore,Cross-shore,Offshore,Offshore,Offshore,Offshore,Offshore,Cross-shore",9
5842041f4e65fad6a77089b1,2024_06_11,42.74071837900346,-124.4983727491047,Port Orford,2.5555555555555554,0.5644444444444444,0.8666666666666667,12.11111111111111,12.11111111111111,"NIGHT_CLEAR,NIGHT_CLEAR,NIGHT_CLEAR,NIGHT_CLEAR,NIGHT_CLEAR,NIGHT_CLEAR,CLEAR,CLEAR,CLEAR","Offshore,Offshore,Offshore,Offshore,Offshore,Offshore,Offshore,Offshore,Offshore",9
5842041f4e65fad6a77089b2,2024_06_11,44.01532689312291,-124.13865,Florence South Jetty,2.6666666666666665,0.7877777777777778,1.051111111111111,12,12,"NIGHT_CLEAR,NIGHT_MIST,NIGHT_MIST,NIGHT_MIST,NIGHT_MIST,NIGHT_MIST,MIST,MIST,MIST","Cross-shore,Onshore,Onshore,Onshore,Onshore,Onshore,Onshore,Cross-shore,Cross-shore",9
5842041f4e65fad6a77089b3,2024_06_11,42.41812540774362,-124.42945,Gold Beach South Jetty,3,0.8488888888888889,1.0855555555555556,12.11111111111111,12.11111111111111,"NIGHT_CLEAR,NIGHT_CLEAR,NIGHT_CLEAR,NIGHT_CLEAR,NIGHT_MIST,NIGHT_MIST,MIST,MIST,MIST","Offshore,Offshore,Offshore,Offshore,Offshore,Offshore,Offshore,Offshore,Offshore",9
5842041f4e65fad6a77089b4,2024_06_11,44.95857310226525,-124.0219,Lincoln City,3,0.7377777777777778,1.0166666666666666,12.555555555555555,12.555555555555555,"NIGHT_MIST,NIGHT_MIST,NIGHT_MOSTLY_CLOUDY,NIGHT_MOSTLY_CLOUDY,NIGHT_MIST,NIGHT_BRIEF_SHOWERS,MIST,MIST,MIST","Cross-shore,Cross-shore,Cross-shore,Onshore,Cross-shore,Cross-shore,Cross-shore,Cross-shore,Cross-shore",9
5842041f4e65fad6a77089b5,2024_06_11,44.63792761362982,-124.0657,Newport,3,0.92,1.1466666666666667,12,12,"NIGHT_MIST,NIGHT_MIST,NIGHT_MIST,NIGHT_OVERCAST,NIGHT_MIST,NIGHT_MIST,MIST,MIST,MIST","Cross-shore,Cross-shore,Cross-shore,Onshore,Onshore,Onshore,Onshore,Onshore,Onshore",9
5842041f4e65fad6a77089b6,2024_06_11,45.61468496266301,-123.94643,Rockaway Beach,2.6666666666666665,0.8333333333333334,1.0844444444444445,13,13,"NIGHT_MIST,NIGHT_MOSTLY_CLEAR,NIGHT_MIST,NIGHT_MIST,NIGHT_MIST,NIGHT_BRIEF_SHOWERS,MIST,MOSTLY_CLOUDY,DRIZZLE","Onshore,Onshore,Cross-shore,Cross-shore,Cross-shore,Cross-shore,Cross-shore,Cross-shore,Cross-shore",9
5842041f4e65fad6a77089b7,2024_06_11,45.20252914186085,-123.96975,Pacific City,3,0.6922222222222222,0.9811111111111112,12.555555555555555,12.555555555555555,"NIGHT_MIST,NIGHT_MOSTLY_CLOUDY,NIGHT_MOSTLY_CLOUDY,NIGHT_MOSTLY_CLOUDY,NIGHT_MIST,NIGHT_MIST,MIST,MIST,BRIEF_SHOWERS","Cross-shore,Cross-shore,Onshore,Onshore,Onshore,Onshore,Onshore,Onshore,Onshore",9
5842041f4e65fad6a77089b8,2024_06_11,45.88179930310263,-123.96681,Cannon Beach,2.6666666666666665,1.0422222222222222,1.2444444444444445,13,13,"NIGHT_MOSTLY_CLEAR,NIGHT_MOSTLY_CLEAR,NIGHT_MIST,NIGHT_BRIEF_SHOWERS,NIGHT_MIST,NIGHT_MOSTLY_CLOUDY,MOSTLY_CLOUDY,MOSTLY_CLOUDY,BRIEF_SHOWERS","Offshore,Onshore,Onshore,Onshore,Onshore,Onshore,Onshore,Onshore,Onshore",9
5842041f4e65fad6a77089ba,2024_06_11,40.02528754746774,-124.06372,Shelter Cove,3,0.4008977777777778,0.6264022222222222,13.11111111111111,13.11111111111111,"NIGHT_CLEAR,NIGHT_CLEAR,NIGHT_CLEAR,NIGHT_CLEAR,NIGHT_CLEAR,NIGHT_CLEAR,CLEAR,CLEAR,CLEAR","Offshore,Offshore,Offshore,Offshore,Offshore,Offshore,Offshore,Offshore,Offshore",9
5842041f4e65fad6a77089bb,2024_06_11,40.76816197136951,-124.24248,Humboldt Harbor Entrance,3,1.011111111111111,1.26,12.555555555555555,12.555555555555555,"NIGHT_MIST,NIGHT_MIST,NIGHT_MIST,NIGHT_DRIZZLE,NIGHT_MIST,NIGHT_MIST,MIST,MIST,MIST","Onshore,Cross-shore,Cross-shore,Cross-shore,Cross-shore,Offshore,Offshore,Offshore,Offshore",9
5842041f4e65fad6a77089bc,2024_06_11,40.76684246920174,-124.23107,North Jetty,3,1.0966666666666667,1.3522222222222222,12.555555555555555,12.555555555555555,"NIGHT_DRIZZLE,NIGHT_DRIZZLE,NIGHT_MIST,NIGHT_MIST,NIGHT_MIST,NIGHT_MIST,MIST,MIST,MIST","Onshore,Cross-shore,Cross-shore,Cross-shore,Cross-shore,Cross-shore,Offshore,Offshore,Offshore",9
5842041f4e65fad6a77089be,2024_06_11,41.13016238153297,-124.16466,Sue-meg,2.4444444444444446,0.9433333333333334,1.221111111111111,12.555555555555555,12.555555555555555,"NIGHT_MIST,NIGHT_MIST,NIGHT_MIST,NIGHT_MIST,NIGHT_MIST,NIGHT_MIST,MIST,MIST,MIST","Onshore,Cross-shore,Cross-shore,Cross-shore,Cross-shore,Cross-shore,Cross-shore,Cross-shore,Cross-shore",9
5842041f4e65fad6a77089bf,2024_06_11,37.8289474958188,-122.53768,Fort Cronkite/Rodeo Beach,2.2222222222222223,1.03,1.277777777777778,14.333333333333334,14.333333333333334,"NIGHT_MOSTLY_CLOUDY,NIGHT_MIST,NIGHT_MIST,NIGHT_MIST,NIGHT_MIST,NIGHT_MIST,MIST,MIST,MIST","Onshore,Onshore,Onshore,Onshore,Onshore,Onshore,Onshore,Onshore,Onshore",9
5842041f4e65fad6a77089c0,2024_06_11,41.74415759876137,-124.17717,South Beach CA,3,0.5655555555555556,0.8722222222222222,12.11111111111111,12.11111111111111,"NIGHT_MOSTLY_CLEAR,NIGHT_MIST,NIGHT_MOSTLY_CLOUDY,NIGHT_MOSTLY_CLOUDY,NIGHT_MOSTLY_CLOUDY,NIGHT_MOSTLY_CLOUDY,MOSTLY_CLOUDY,CLEAR,CLEAR","Onshore,Onshore,Onshore,Cross-shore,Cross-shore,Offshore,Offshore,Cross-shore,Cross-shore",9
5842041f4e65fad6a77089c1,2024_06_11,37.89801283969752,-122.64519,Stinson Beach,3,0.6222222222222222,0.9233333333333333,13.88888888888889,13.88888888888889,"NIGHT_CLEAR,NIGHT_CLEAR,NIGHT_CLEAR,NIGHT_CLEAR,NIGHT_CLEAR,NIGHT_CLEAR,CLEAR,CLEAR,CLEAR","Onshore,Cross-shore,Onshore,Onshore,Onshore,Cross-shore,Onshore,Cross-shore,Cross-shore",9
5842041f4e65fad6a77089c2,2024_06_11,37.90514516176495,-122.68151,Bolinas,3,0.7259622222222223,1.1343133333333333,13.88888888888889,13.88888888888889,"NIGHT_CLEAR,NIGHT_CLEAR,NIGHT_CLEAR,NIGHT_CLEAR,NIGHT_CLEAR,NIGHT_CLEAR,CLEAR,CLEAR,CLEAR","Cross-shore,Cross-shore,Onshore,Onshore,Cross-shore,Onshore,Cross-shore,Cross-shore,Cross-shore",9
5842041f4e65fad6a77089c3,2024_06_11,38.04892513158693,-122.98925,Point Reyes (north),2,2.431111111111111,2.738888888888889,12.555555555555555,12.555555555555555,"NIGHT_MIST,NIGHT_MIST,NIGHT_MIST,NIGHT_MIST,NIGHT_MIST,NIGHT_DRIZZLE,MIST,MIST,MIST","Onshore,Onshore,Onshore,Onshore,Onshore,Onshore,Onshore,Onshore,Onshore",9
5842041f4e65fad6a77089c6,2024_06_11,38.31088736605785,-123.0496777333731,Doran Beach,2,0.1488888888888889,0.45444444444444443,12.555555555555555,12.555555555555555,"NIGHT_MIST,NIGHT_MIST,NIGHT_MIST,NIGHT_MIST,NIGHT_MIST,NIGHT_MOSTLY_CLOUDY,MOSTLY_CLOUDY,MOSTLY_CLOUDY,MOSTLY_CLEAR","Offshore,Offshore,Offshore,Offshore,Offshore,Offshore,Offshore,Cross-shore,Cross-shore",9
5842041f4e65fad6a77089c7,2024_06_11,38.45077228660809,-123.13008,Russian Rivermouth,4,1.65,1.8444444444444443,11.555555555555555,11.555555555555555,"NIGHT_CLEAR,NIGHT_CLEAR,NIGHT_CLEAR,NIGHT_CLEAR,NIGHT_CLEAR,NIGHT_CLEAR,CLEAR,CLEAR,CLEAR","Offshore,Offshore,Offshore,Cross-shore,Offshore,Offshore,Offshore,Offshore,Cross-shore",9
5842041f4e65fad6a77089c8,2024_06_11,38.35329968518107,-123.06906,Salmon Creek,3.2222222222222223,2.0144444444444445,2.3177777777777777,12.555555555555555,12.555555555555555,"NIGHT_MIST,NIGHT_MIST,NIGHT_MIST,NIGHT_MIST,NIGHT_MIST,NIGHT_MIST,MIST,CLEAR,CLEAR","Offshore,Onshore,Onshore,Offshore,Offshore,Onshore,Onshore,Onshore,Onshore",9
5842041f4e65fad6a77089c9,2024_06_11,38.6845180197959,-123.4322714291198,Black Point Beach,3,0.7388888888888889,1.0444444444444445,11.11111111111111,11.11111111111111,"NIGHT_CLEAR,NIGHT_CLEAR,NIGHT_CLEAR,NIGHT_CLEAR,NIGHT_CLEAR,NIGHT_CLEAR,CLEAR,CLEAR,CLEAR","Onshore,Onshore,Onshore,Onshore,Onshore,Onshore,Onshore,Onshore,Onshore",9
5842041f4e65fad6a77089ca,2024_06_11,43.251076,-70.59144,Ogunquit,1.4266666666666667,0.07694444444444445,0.37975555555555557,16,14,"NIGHT_CLEAR,NIGHT_CLEAR,NIGHT_CLEAR,CLEAR,CLEAR,CLEAR,CLEAR,CLEAR,CLEAR","Offshore,Offshore,Offshore,Offshore,Offshore,Offshore,Onshore,Onshore,Onshore",9
5842041f4e65fad6a77089cb,2024_06_11,41.362631366305415,-71.48007,Point Judith,0.13,0.0074888888888888895,0.2569111111111111,17,16,"NIGHT_CLEAR,NIGHT_CLEAR,NIGHT_CLEAR,CLEAR,CLEAR,CLEAR,CLEAR,CLEAR,CLEAR","Offshore,Offshore,Offshore,Offshore,Offshore,Offshore,Offshore,Cross-shore,Offshore",9
5842041f4e65fad6a77089cd,2024_06_11,41.422678090954726,-71.45413,Monahan's - Narragansett,2,0.21126,0.33008777777777776,16.444444444444443,16.444444444444443,"NIGHT_CLEAR,NIGHT_CLEAR,NIGHT_CLEAR,CLEAR,CLEAR,CLEAR,CLEAR,CLEAR,CLEAR","Offshore,Offshore,Offshore,Offshore,Offshore,Offshore,Cross-shore,Cross-shore,Cross-shore",9
5842041f4e65fad6a77089ce,2024_06_11,41.469,-71.293,Ruggles - Newport,2,0.3527388888888889,0.5511588888888889,17,17,"NIGHT_CLEAR,NIGHT_CLEAR,NIGHT_CLEAR,CLEAR,CLEAR,CLEAR,CLEAR,CLEAR,CLEAR","Offshore,Offshore,Offshore,Offshore,Offshore,Offshore,Cross-shore,Onshore,Onshore",9
5842041f4e65fad6a77089cf,2024_06_11,43.175394,-70.606351,Short Sands Beach,2,0.16,0.46555555555555556,14.444444444444445,14.444444444444445,"NIGHT_CLEAR,NIGHT_CLEAR,NIGHT_CLEAR,CLEAR,CLEAR,CLEAR,CLEAR,CLEAR,CLEAR","Offshore,Offshore,Offshore,Offshore,Offshore,Offshore,Cross-shore,Cross-shore,Cross-shore",9
5842041f4e65fad6a77089d0,2024_06_11,41.487408,-71.29017,First Beach,2,0.051111111111111114,0.3555555555555555,17,17,"NIGHT_CLEAR,NIGHT_CLEAR,NIGHT_CLEAR,CLEAR,CLEAR,CLEAR,CLEAR,CLEAR,CLEAR","Offshore,Offshore,Offshore,Offshore,Offshore,Offshore,Offshore,Onshore,Onshore",9
5842041f4e65fad6a77089d1,2024_06_11,42.27916830233153,-70.86498,Nantasket Beach,0.1111111111111111,0,0.14904444444444445,17,14,"NIGHT_MOSTLY_CLEAR,NIGHT_MOSTLY_CLOUDY,NIGHT_MOSTLY_CLOUDY,MOSTLY_CLOUDY,CLEAR,CLEAR,CLEAR,CLEAR,CLEAR","Offshore,Offshore,Offshore,Offshore,Cross-shore,Cross-shore,Offshore,Offshore,Onshore",9
5842041f4e65fad6a77089d2,2024_06_11,41.817,-69.935,Cape Cod,1,0,0.2833333333333333,15.444444444444445,15.444444444444445,"NIGHT_CLEAR,NIGHT_CLEAR,NIGHT_CLEAR,CLEAR,CLEAR,CLEAR,CLEAR,CLEAR,CLEAR","Offshore,Offshore,Offshore,Offshore,Offshore,Offshore,Offshore,Offshore,Onshore",9
5842041f4e65fad6a77089d3,2024_06_11,42.22055448975661,-70.70634873403819,Egypt Beach,0.6666666666666666,0,0.15666666666666668,16.444444444444443,16.444444444444443,"NIGHT_CLEAR,NIGHT_MOSTLY_CLEAR,NIGHT_MOSTLY_CLEAR,MOSTLY_CLEAR,MOSTLY_CLEAR,CLEAR,CLEAR,CLEAR,CLEAR","Offshore,Offshore,Offshore,Offshore,Offshore,Offshore,Offshore,Offshore,Onshore",9
5842041f4e65fad6a77089d4,2024_06_11,41.48739647744607,-71.25723,Second Beach,1.2044444444444444,0.11800000000000001,0.34524,17,16,"NIGHT_CLEAR,NIGHT_CLEAR,NIGHT_CLEAR,CLEAR,CLEAR,CLEAR,CLEAR,CLEAR,CLEAR","Cross-shore,Cross-shore,Offshore,Offshore,Offshore,Offshore,Onshore,Onshore,Onshore",9
5842041f4e65fad6a77089d5,2024_06_11,42.964,-70.769,Fox Hill,1.4266666666666667,0.009444444444444445,0.3167,16,14,"NIGHT_CLEAR,NIGHT_CLEAR,NIGHT_CLEAR,CLEAR,CLEAR,CLEAR,CLEAR,CLEAR,CLEAR","Offshore,Offshore,Offshore,Offshore,Offshore,Offshore,Cross-shore,Onshore,Onshore",9
5842041f4e65fad6a77089d6,2024_06_11,42.991359,-70.75149,Straws Point,1.4266666666666667,0.025555555555555557,0.32614444444444446,16,14,"NIGHT_CLEAR,NIGHT_CLEAR,NIGHT_CLEAR,CLEAR,CLEAR,CLEAR,CLEAR,CLEAR,CLEAR","Offshore,Offshore,Offshore,Offshore,Offshore,Offshore,Cross-shore,Onshore,Onshore",9
5842041f4e65fad6a77089d7,2024_06_11,42.946,-70.786,Plaice Cove,1.4266666666666667,0.009444444444444445,0.3167,16,14,"NIGHT_CLEAR,NIGHT_CLEAR,NIGHT_CLEAR,CLEAR,CLEAR,CLEAR,CLEAR,CLEAR,CLEAR","Offshore,Offshore,Offshore,Offshore,Offshore,Offshore,Offshore,Cross-shore,Cross-shore",9
5842041f4e65fad6a77089d9,2024_06_11,42.911574,-70.80831,The Main Beach,0,-0.006366666666666667,0.2948511111111111,16,14,"NIGHT_CLEAR,NIGHT_CLEAR,NIGHT_CLEAR,CLEAR,CLEAR,CLEAR,CLEAR,CLEAR,CLEAR","Offshore,Offshore,Offshore,Offshore,Offshore,Offshore,Cross-shore,Onshore,Onshore",9
5842041f4e65fad6a77089da,2024_06_11,42.97583846220203,-70.764,Sawyer's Beach,1.4266666666666667,0.03861111111111111,0.3403111111111111,16,14,"NIGHT_CLEAR,NIGHT_CLEAR,NIGHT_CLEAR,CLEAR,CLEAR,CLEAR,CLEAR,CLEAR,CLEAR","Offshore,Offshore,Offshore,Offshore,Offshore,Offshore,Cross-shore,Cross-shore,Cross-shore",9
5842041f4e65fad6a77089db,2024_06_11,42.97,-70.77,Rye on the Rocks / 5-0's,0,-0.0017266666666666667,0.3048,16,14,"NIGHT_CLEAR,NIGHT_CLEAR,NIGHT_CLEAR,CLEAR,CLEAR,CLEAR,CLEAR,CLEAR,CLEAR","Offshore,Offshore,Offshore,Offshore,Offshore,Offshore,Cross-shore,Onshore,Onshore",9
5842041f4e65fad6a77089dc,2024_06_11,43.55902946610303,-70.27795,Higgins Beach,1.1111111111111112,0.010822222222222223,0.31895555555555555,16,14,"NIGHT_CLEAR,NIGHT_CLEAR,CLEAR,CLEAR,CLEAR,CLEAR,CLEAR,CLEAR,CLEAR","Offshore,Offshore,Offshore,Offshore,Offshore,Offshore,Onshore,Onshore,Onshore",9
5842041f4e65fad6a77089dd,2024_06_11,43.302676,-70.5652,Wells Beach,1.4266666666666667,0.06,0.36281111111111114,16,14,"NIGHT_CLEAR,NIGHT_CLEAR,NIGHT_CLEAR,CLEAR,CLEAR,CLEAR,CLEAR,CLEAR,CLEAR","Offshore,Offshore,Offshore,Offshore,Offshore,Offshore,Onshore,Onshore,Onshore",9
5842041f4e65fad6a77089de,2024_06_11,43.545359,-70.30479,Scarborough Beach State Park,1.0366666666666666,0.1547711111111111,0.4026966666666667,16,14,"NIGHT_CLEAR,NIGHT_CLEAR,CLEAR,CLEAR,CLEAR,CLEAR,CLEAR,CLEAR,CLEAR","Offshore,Offshore,Offshore,Offshore,Offshore,Offshore,Onshore,Onshore,Onshore",9
5842041f4e65fad6a77089df,2024_06_11,43.514481,-70.37215,Old Orchard Beach,1,0,0.30202222222222225,16,14,"NIGHT_CLEAR,NIGHT_CLEAR,CLEAR,CLEAR,CLEAR,CLEAR,CLEAR,CLEAR,CLEAR","Offshore,Offshore,Offshore,Offshore,Offshore,Offshore,Onshore,Onshore,Onshore",9
5842041f4e65fad6a77089e0,2024_06_11,43.34711,-70.48165,Gooch's Beach,1.4266666666666667,0.06472222222222222,0.3664222222222222,16,14,"NIGHT_CLEAR,NIGHT_CLEAR,NIGHT_CLEAR,CLEAR,CLEAR,CLEAR,CLEAR,CLEAR,CLEAR","Cross-shore,Cross-shore,Cross-shore,Cross-shore,Offshore,Offshore,Onshore,Onshore,Onshore",9
5842041f4e65fad6a77089e2,2024_06_11,40.58433,-73.62953,Lido Beach,0.8055555555555556,4.812402004029988e-20,0.30646666666666667,18.333333333333332,16,"NIGHT_CLEAR,NIGHT_CLEAR,NIGHT_CLEAR,CLEAR,CLEAR,CLEAR,CLEAR,CLEAR,CLEAR","Offshore,Offshore,Cross-shore,Offshore,Cross-shore,Cross-shore,Cross-shore,Cross-shore,Cross-shore",9
5842041f4e65fad6a77089e3,2024_06_11,43.163135,-70.61689,Long Sands Beach,1,-0.00820111111111111,0.29198666666666667,16,14,"NIGHT_CLEAR,NIGHT_CLEAR,NIGHT_CLEAR,CLEAR,CLEAR,CLEAR,CLEAR,CLEAR,CLEAR","Offshore,Offshore,Offshore,Offshore,Offshore,Offshore,Onshore,Onshore,Onshore",9
5842041f4e65fad6a77089e4,2024_06_11,40.61695351251805,-73.39376,Gilgo Beach,1.4255555555555555,0.07027777777777779,0.3748777777777778,19,17,"NIGHT_CLEAR,NIGHT_CLEAR,NIGHT_CLEAR,CLEAR,CLEAR,CLEAR,CLEAR,CLEAR,CLEAR","Offshore,Offshore,Offshore,Offshore,Offshore,Offshore,Offshore,Offshore,Offshore",9
5842041f4e65fad6a77089e5,2024_06_11,40.62530081928036,-73.23827,Robert Moses,1.1111111111111112,0.08777777777777777,0.3933333333333333,18.444444444444443,18.444444444444443,"NIGHT_CLEAR,NIGHT_CLEAR,NIGHT_CLEAR,CLEAR,CLEAR,CLEAR,CLEAR,CLEAR,CLEAR","Offshore,Offshore,Offshore,Offshore,Offshore,Offshore,Offshore,Offshore,Offshore",9
5842041f4e65fad6a77089e6,2024_06_11,40.64313317632791,-73.15727,Fire Island,1.4444444444444444,0.09222222222222222,0.3977777777777778,18.444444444444443,18.444444444444443,"NIGHT_CLEAR,NIGHT_CLEAR,NIGHT_CLEAR,CLEAR,CLEAR,CLEAR,CLEAR,CLEAR,CLEAR","Offshore,Offshore,Offshore,Offshore,Offshore,Offshore,Offshore,Offshore,Offshore",9
5842041f4e65fad6a77089e8,2024_06_11,40.76653118828782,-72.7458,Cupsogue,2,0.29777777777777775,0.6033333333333333,17.444444444444443,17.444444444444443,"NIGHT_MOSTLY_CLEAR,NIGHT_CLEAR,NIGHT_CLEAR,CLEAR,CLEAR,CLEAR,CLEAR,CLEAR,CLEAR","Offshore,Offshore,Offshore,Offshore,Offshore,Offshore,Offshore,Offshore,Onshore",9
5842041f4e65fad6a77089e9,2024_06_11,42.9376373334092,-70.79141,The Wall ,0,-0.0017366666666666667,0.30208666666666667,16,14,"NIGHT_CLEAR,NIGHT_CLEAR,NIGHT_CLEAR,CLEAR,CLEAR,CLEAR,CLEAR,CLEAR,CLEAR","Offshore,Offshore,Offshore,Offshore,Offshore,Offshore,Offshore,Cross-shore,Cross-shore",9
5842041f4e65fad6a77089ea,2024_06_11,40.887088,-72.33856,Flys,2,0.2411111111111111,0.5433333333333333,16,16,"NIGHT_CLEAR,NIGHT_CLEAR,NIGHT_CLEAR,CLEAR,CLEAR,CLEAR,CLEAR,CLEAR,CLEAR","Offshore,Offshore,Offshore,Offshore,Offshore,Offshore,Offshore,Onshore,Onshore",9
5842041f4e65fad6a77089eb,2024_06_11,41.0389266436591,-71.91068529316958,Trailer Park,1.3333333333333333,0.19005,0.4952911111111111,19,17,"NIGHT_CLEAR,NIGHT_CLEAR,NIGHT_CLEAR,CLEAR,CLEAR,CLEAR,CLEAR,CLEAR,CLEAR","Offshore,Offshore,Offshore,Offshore,Offshore,Offshore,Offshore,Offshore,Cross-shore",9
5842041f4e65fad6a77089ec,2024_06_11,41.039505402729105,-71.9142,Ditch Plains,2,0.3342866666666667,0.5223233333333334,16,16,"NIGHT_CLEAR,NIGHT_CLEAR,NIGHT_CLEAR,CLEAR,CLEAR,CLEAR,CLEAR,CLEAR,CLEAR","Offshore,Offshore,Offshore,Offshore,Offshore,Offshore,Offshore,Offshore,Offshore",9
5842041f4e65fad6a77089ee,2024_06_11,40.57633275206492,-73.56895305108567,"West End, Jones Beach",1.4255555555555555,0.07805555555555556,0.3826555555555556,18.333333333333332,16,"NIGHT_MOSTLY_CLEAR,NIGHT_CLEAR,NIGHT_CLEAR,CLEAR,CLEAR,CLEAR,CLEAR,CLEAR,CLEAR","Offshore,Offshore,Offshore,Offshore,Offshore,Offshore,Offshore,Offshore,Cross-shore",9
5842041f4e65fad6a77089f1,2024_06_11,41.038286691230795,-71.91991567611694,Poles,1.3333333333333333,0.19755555555555557,0.4978666666666667,19,17,"NIGHT_CLEAR,NIGHT_CLEAR,NIGHT_CLEAR,CLEAR,CLEAR,CLEAR,CLEAR,CLEAR,CLEAR","Offshore,Offshore,Offshore,Offshore,Offshore,Offshore,Offshore,Offshore,Cross-shore",9
5842041f4e65fad6a77089f3,2024_06_11,40.84077769766295,-72.47989493724765,The Bowl,2,0.25333333333333335,0.5555555555555556,16.444444444444443,16.444444444444443,"NIGHT_CLEAR,NIGHT_CLEAR,NIGHT_CLEAR,CLEAR,CLEAR,CLEAR,CLEAR,CLEAR,CLEAR","Offshore,Offshore,Offshore,Offshore,Offshore,Offshore,Offshore,Offshore,Offshore",9
5842041f4e65fad6a77089f4,2024_06_11,40.94235535243154,-72.19286,Main Beach,1.4255555555555555,0.28321111111111114,0.5886444444444444,20,18,"NIGHT_CLEAR,NIGHT_CLEAR,NIGHT_CLEAR,CLEAR,CLEAR,CLEAR,CLEAR,CLEAR,CLEAR","Offshore,Offshore,Offshore,Offshore,Offshore,Offshore,Offshore,Offshore,Cross-shore",9
5842041f4e65fad6a77089f5,2024_06_11,40.58270702399518,-73.67251552079799,Laurelton Blvd.,0.8055555555555556,3.022222222222222e-4,0.30540555555555554,18.333333333333332,16,"NIGHT_MOSTLY_CLEAR,NIGHT_CLEAR,NIGHT_CLEAR,CLEAR,CLEAR,CLEAR,CLEAR,CLEAR,CLEAR","Offshore,Offshore,Offshore,Offshore,Offshore,Offshore,Offshore,Offshore,Onshore",9
5842041f4e65fad6a77089f6,2024_06_11,41.033752854071416,-71.93696,Terrace,0.9688888888888889,0.18533333333333332,0.49217,19,17,"NIGHT_CLEAR,NIGHT_CLEAR,NIGHT_CLEAR,CLEAR,CLEAR,CLEAR,CLEAR,CLEAR,CLEAR","Offshore,Offshore,Offshore,Offshore,Offshore,Offshore,Offshore,Offshore,Cross-shore",9
5842041f4e65fad6a77089f7,2024_06_11,40.83372943645748,-72.50426173210144,K Road,2.888888888888889,0.3111111111111111,0.6144444444444445,16.444444444444443,16.444444444444443,"NIGHT_CLEAR,NIGHT_CLEAR,NIGHT_CLEAR,CLEAR,CLEAR,CLEAR,CLEAR,CLEAR,CLEAR","Offshore,Offshore,Offshore,Offshore,Offshore,Offshore,Offshore,Offshore,Offshore",9
5842041f4e65fad6a77089f8,2024_06_11,40.58456099581507,-73.80730032920837,84th Street,0.8055555555555556,0.0022222222222222222,0.30313333333333337,18.333333333333332,16,"NIGHT_CLEAR,NIGHT_CLEAR,NIGHT_CLEAR,CLEAR,CLEAR,CLEAR,CLEAR,CLEAR,CLEAR","Offshore,Offshore,Offshore,Offshore,Offshore,Offshore,Offshore,Offshore,Cross-shore",9
5842041f4e65fad6a77089fa,2024_06_11,40.1319,-74.02788,Sea Girt,0.8888888888888888,0.05555555555555555,0.3594777777777778,17,14,"NIGHT_MOSTLY_CLOUDY,NIGHT_MOSTLY_CLEAR,NIGHT_MOSTLY_CLEAR,CLEAR,CLEAR,CLEAR,CLEAR,CLEAR,CLEAR","Cross-shore,Offshore,Offshore,Cross-shore,Cross-shore,Onshore,Onshore,Onshore,Onshore",9
5842041f4e65fad6a77089fb,2024_06_11,40.54698301868125,-73.9268,Breezy Point,1.4444444444444444,0.03,0.3333333333333333,18.444444444444443,18.444444444444443,"NIGHT_CLEAR,NIGHT_CLEAR,NIGHT_CLEAR,CLEAR,CLEAR,CLEAR,CLEAR,CLEAR,CLEAR","Offshore,Offshore,Offshore,Offshore,Offshore,Offshore,Offshore,Offshore,Cross-shore",9
5842041f4e65fad6a77089fc,2024_06_11,40.152504,-74.02138,Spring Lake,1.0366666666666666,0.04888888888888889,0.3569777777777778,17,14,"NIGHT_MOSTLY_CLOUDY,NIGHT_MOSTLY_CLEAR,NIGHT_CLEAR,CLEAR,CLEAR,CLEAR,CLEAR,CLEAR,CLEAR","Offshore,Offshore,Offshore,Cross-shore,Cross-shore,Onshore,Onshore,Onshore,Onshore",9
5842041f4e65fad6a77089fd,2024_06_11,40.591277,-73.770792,30th - 39th Streets,1.3333333333333333,0.03833333333333333,0.3418222222222222,18.333333333333332,16,"NIGHT_CLEAR,NIGHT_CLEAR,NIGHT_CLEAR,CLEAR,CLEAR,CLEAR,CLEAR,CLEAR,CLEAR","Offshore,Offshore,Offshore,Offshore,Offshore,Offshore,Offshore,Offshore,Cross-shore",9
5842041f4e65fad6a77089fe,2024_06_11,40.18834955871439,-74.00860982500222,Avon,1.0366666666666666,0.0475,0.35336666666666666,17,14,"NIGHT_MOSTLY_CLOUDY,NIGHT_MOSTLY_CLEAR,NIGHT_MOSTLY_CLEAR,CLEAR,CLEAR,CLEAR,CLEAR,CLEAR,CLEAR","Offshore,Offshore,Offshore,Cross-shore,Cross-shore,Onshore,Onshore,Onshore,Onshore",9
5842041f4e65fad6a77089ff,2024_06_11,40.1974229100932,-74.00650533798255,Bradley Beach,1.0177777777777777,0.050833333333333335,0.3536444444444445,17,14,"NIGHT_MOSTLY_CLOUDY,NIGHT_MOSTLY_CLEAR,NIGHT_MOSTLY_CLEAR,CLEAR,CLEAR,CLEAR,CLEAR,CLEAR,CLEAR","Offshore,Offshore,Offshore,Cross-shore,Cross-shore,Onshore,Onshore,Onshore,Onshore",9
5842041f4e65fad6a7708a01,2024_06_11,40.17202,-74.01503,"16th Ave., Belmar",0.7222222222222222,0.0033333333333333335,0.30535555555555555,17,14,"NIGHT_MOSTLY_CLOUDY,NIGHT_MOSTLY_CLEAR,NIGHT_MOSTLY_CLEAR,CLEAR,CLEAR,CLEAR,CLEAR,CLEAR,CLEAR","Offshore,Offshore,Offshore,Cross-shore,Cross-shore,Onshore,Onshore,Onshore,Onshore",9
5842041f4e65fad6a7708a02,2024_06_11,40.217443,-73.99982,Asbury Park,1,0.05583333333333333,0.36281111111111114,17,14,"NIGHT_CLEAR,NIGHT_CLEAR,NIGHT_MOSTLY_CLEAR,MOSTLY_CLEAR,CLEAR,CLEAR,CLEAR,CLEAR,CLEAR","Offshore,Offshore,Offshore,Cross-shore,Cross-shore,Onshore,Onshore,Onshore,Onshore",9
5842041f4e65fad6a7708a03,2024_06_11,40.229841,-73.99678,Loch Arbour and Deal,0.7033333333333334,0.05444444444444444,0.35614444444444443,17,14,"NIGHT_MOSTLY_CLEAR,NIGHT_CLEAR,NIGHT_MOSTLY_CLEAR,MOSTLY_CLEAR,CLEAR,CLEAR,CLEAR,CLEAR,CLEAR","Offshore,Cross-shore,Cross-shore,Cross-shore,Cross-shore,Cross-shore,Cross-shore,Cross-shore,Cross-shore",9
5842041f4e65fad6a7708a05,2024_06_11,40.41754,-73.97935,Sandy Hook,1,0,0.26222222222222225,19,19,"NIGHT_MOSTLY_CLEAR,NIGHT_CLEAR,NIGHT_CLEAR,CLEAR,CLEAR,CLEAR,CLEAR,CLEAR,CLEAR","Cross-shore,Cross-shore,Cross-shore,Cross-shore,Cross-shore,Cross-shore,Cross-shore,Cross-shore,Offshore",9
5842041f4e65fad6a7708a06,2024_06_11,39.36353,-74.40873,Crystals,1.0366666666666666,0.14381,0.38557,17,14,"NIGHT_MOSTLY_CLEAR,NIGHT_CLEAR,NIGHT_MOSTLY_CLEAR,CLEAR,CLEAR,CLEAR,CLEAR,MOSTLY_CLOUDY,MOSTLY_CLEAR","Offshore,Offshore,Offshore,Offshore,Offshore,Cross-shore,Cross-shore,Cross-shore,Cross-shore",9
5842041f4e65fad6a7708a07,2024_06_11,39.31443,-74.51863,32nd Street,1,-0.001763333333333333,0.30204555555555557,17,14,"NIGHT_MOSTLY_CLEAR,NIGHT_CLEAR,NIGHT_MOSTLY_CLEAR,CLEAR,CLEAR,CLEAR,MOSTLY_CLOUDY,MOSTLY_CLOUDY,MOSTLY_CLEAR","Cross-shore,Offshore,Offshore,Offshore,Cross-shore,Cross-shore,Cross-shore,Cross-shore,Cross-shore",9
5842041f4e65fad6a7708a08,2024_06_11,39.327688,-74.49524,Margate Pier Northside,1,-0.001763333333333333,0.30204555555555557,17,14,"NIGHT_MOSTLY_CLEAR,NIGHT_CLEAR,NIGHT_MOSTLY_CLEAR,CLEAR,CLEAR,CLEAR,MOSTLY_CLOUDY,MOSTLY_CLOUDY,MOSTLY_CLEAR","Cross-shore,Offshore,Offshore,Offshore,Cross-shore,Cross-shore,Cross-shore,Cross-shore,Cross-shore",9
5842041f4e65fad6a7708a09,2024_06_11,39.336276,-74.47782,Ventnor Pier,1.0366666666666666,0.14636333333333335,0.38955666666666666,17,14,"NIGHT_MOSTLY_CLEAR,NIGHT_CLEAR,NIGHT_MOSTLY_CLEAR,CLEAR,CLEAR,CLEAR,MOSTLY_CLOUDY,MOSTLY_CLOUDY,MOSTLY_CLEAR","Cross-shore,Offshore,Offshore,Offshore,Offshore,Cross-shore,Cross-shore,Cross-shore,Cross-shore",9
5842041f4e65fad6a7708a0a,2024_06_11,39.35929751441085,-74.41683,States Avenue,1.24,0.14381,0.38557,17,14,"NIGHT_CLEAR,NIGHT_CLEAR,NIGHT_MOSTLY_CLEAR,CLEAR,CLEAR,CLEAR,CLEAR,MOSTLY_CLOUDY,MOSTLY_CLEAR","Offshore,Offshore,Offshore,Offshore,Offshore,Cross-shore,Cross-shore,Cross-shore,Cross-shore",9
5842041f4e65fad6a7708a0b,2024_06_11,39.37274173278517,-74.40454,Brigantine Jetty,1.0366666666666666,0.14883333333333335,0.3934155555555556,17,14,"NIGHT_MOSTLY_CLEAR,NIGHT_CLEAR,NIGHT_MOSTLY_CLEAR,CLEAR,CLEAR,CLEAR,CLEAR,MOSTLY_CLOUDY,MOSTLY_CLEAR","Offshore,Offshore,Offshore,Offshore,Offshore,Offshore,Offshore,Offshore,Offshore",9
5842041f4e65fad6a7708a0c,2024_06_11,39.356505,-74.42263,South Carolina Avenue,1.0366666666666666,0.14883333333333335,0.3934155555555556,17,14,"NIGHT_CLEAR,NIGHT_CLEAR,NIGHT_MOSTLY_CLEAR,CLEAR,CLEAR,CLEAR,CLEAR,MOSTLY_CLOUDY,MOSTLY_CLEAR","Offshore,Offshore,Offshore,Offshore,Offshore,Offshore,Offshore,Offshore,Offshore",9
5842041f4e65fad6a7708a0d,2024_06_11,39.413485,-74.35476,14th Street North,1.0366666666666666,0.034722222222222224,0.3405888888888889,17,14,"NIGHT_MOSTLY_CLEAR,NIGHT_MOSTLY_CLEAR,NIGHT_CLEAR,CLEAR,CLEAR,CLEAR,MOSTLY_CLEAR,MOSTLY_CLOUDY,MOSTLY_CLEAR","Offshore,Offshore,Offshore,Offshore,Cross-shore,Offshore,Onshore,Cross-shore,Cross-shore",9
5842041f4e65fad6a7708a0e,2024_06_11,39.531319,-74.263252,The Wooden Jetty,0.7411111111111112,-7.230367352534625e-20,0.30803555555555556,17,14,"NIGHT_MOSTLY_CLOUDY,NIGHT_MOSTLY_CLOUDY,NIGHT_CLEAR,CLEAR,CLEAR,CLEAR,CLEAR,CLEAR,CLEAR","Offshore,Offshore,Offshore,Cross-shore,Offshore,Cross-shore,Cross-shore,Cross-shore,Cross-shore",9
5842041f4e65fad6a7708a0f,2024_06_11,39.552472,-74.24344,Holyoke,0.7411111111111112,-0.004096666666666667,0.2984,17,14,"NIGHT_MOSTLY_CLOUDY,NIGHT_MOSTLY_CLOUDY,NIGHT_CLEAR,CLEAR,CLEAR,CLEAR,CLEAR,CLEAR,CLEAR","Offshore,Offshore,Offshore,Cross-shore,Cross-shore,Cross-shore,Cross-shore,Cross-shore,Cross-shore",9
5842041f4e65fad6a7708a10,2024_06_11,39.692364,-74.14068,Hudson Ave.,0.7411111111111112,0.003888888888888889,0.31035555555555555,17,14,"NIGHT_CLEAR,NIGHT_CLEAR,NIGHT_CLEAR,CLEAR,CLEAR,MOSTLY_CLEAR,CLEAR,MOSTLY_CLOUDY,CLEAR","Offshore,Cross-shore,Cross-shore,Cross-shore,Cross-shore,Cross-shore,Cross-shore,Cross-shore,Cross-shore",9
5842041f4e65fad6a7708a11,2024_06_11,39.79614,-74.09248,Island Beach State Park,0.9255555555555556,0.05333333333333333,0.3561444444444445,17,14,"NIGHT_CLEAR,NIGHT_CLEAR,NIGHT_MOSTLY_CLOUDY,MOSTLY_CLEAR,CLEAR,CLEAR,MOSTLY_CLOUDY,MOSTLY_CLEAR,CLEAR","Cross-shore,Cross-shore,Cross-shore,Cross-shore,Cross-shore,Cross-shore,Cross-shore,Cross-shore,Cross-shore",9
5842041f4e65fad6a7708a12,2024_06_11,39.91813588078152,-74.07527,Seaside Park,0.8144444444444444,0.045,0.3467,17,14,"NIGHT_MOSTLY_CLEAR,NIGHT_MOSTLY_CLEAR,NIGHT_CLEAR,MOSTLY_CLOUDY,CLEAR,CLEAR,MOSTLY_CLEAR,CLEAR,CLEAR","Cross-shore,Cross-shore,Cross-shore,Cross-shore,Cross-shore,Cross-shore,Onshore,Onshore,Onshore",9
5842041f4e65fad6a7708a15,2024_06_11,39.95745637606704,-74.06736,Ortley Beach,0.8144444444444444,0.03916666666666667,0.34086666666666665,17,14,"NIGHT_MOSTLY_CLEAR,NIGHT_MOSTLY_CLOUDY,NIGHT_MOSTLY_CLOUDY,MOSTLY_CLOUDY,CLEAR,CLEAR,CLEAR,CLEAR,CLEAR","Offshore,Cross-shore,Cross-shore,Cross-shore,Cross-shore,Cross-shore,Cross-shore,Cross-shore,Cross-shore",9
5842041f4e65fad6a7708a16,2024_06_11,39.98313468342945,-74.06265685577506,Lavallette,0.8144444444444444,0.04666666666666667,0.3536444444444445,17,14,"NIGHT_MOSTLY_CLOUDY,NIGHT_MOSTLY_CLOUDY,NIGHT_MOSTLY_CLOUDY,MOSTLY_CLOUDY,CLEAR,CLEAR,CLEAR,MOSTLY_CLEAR,CLEAR","Offshore,Cross-shore,Cross-shore,Cross-shore,Cross-shore,Cross-shore,Cross-shore,Cross-shore,Cross-shore",9
5842041f4e65fad6a7708a17,2024_06_11,40.0699319967757,-74.04145,Bay Head,0.7033333333333334,0.04416666666666667,0.3511444444444445,17,14,"NIGHT_CLEAR,NIGHT_CLEAR,NIGHT_MOSTLY_CLEAR,MOSTLY_CLOUDY,CLEAR,CLEAR,CLEAR,CLEAR,CLEAR","Cross-shore,Cross-shore,Cross-shore,Cross-shore,Cross-shore,Cross-shore,Cross-shore,Cross-shore,Cross-shore",9
5842041f4e65fad6a7708a18,2024_06_11,40.094041,-74.034859,Jenkinson's,0.9077777777777778,0.050833333333333335,0.3536444444444445,17,14,"NIGHT_MOSTLY_CLOUDY,NIGHT_MOSTLY_CLEAR,NIGHT_CLEAR,CLEAR,CLEAR,CLEAR,CLEAR,CLEAR,CLEAR","Offshore,Offshore,Offshore,Offshore,Offshore,Cross-shore,Cross-shore,Cross-shore,Onshore",9
5842041f4e65fad6a7708a1a,2024_06_11,38.148058,-75.17704,Assateague,0.5366666666666666,0.07194444444444445,0.37543333333333334,17.666666666666668,16,"NIGHT_MOSTLY_CLEAR,NIGHT_CLEAR,NIGHT_CLEAR,CLEAR,CLEAR,CLEAR,CLEAR,CLEAR,CLEAR","Onshore,Onshore,Onshore,Cross-shore,Cross-shore,Cross-shore,Cross-shore,Cross-shore,Cross-shore",9
5842041f4e65fad6a7708a1b,2024_06_11,38.33889038664497,-75.08017670566352,North End to Ocean City Inlet,0.5555555555555556,0.0675,0.3759888888888889,17.666666666666668,16,"NIGHT_CLEAR,NIGHT_CLEAR,NIGHT_CLEAR,CLEAR,CLEAR,CLEAR,CLEAR,CLEAR,CLEAR","Onshore,Onshore,Onshore,Onshore,Onshore,Onshore,Onshore,Onshore,Onshore",9
5842041f4e65fad6a7708a1c,2024_06_11,38.603993,-75.06271,Indian River Inlet,0.5366666666666666,0.07381222222222222,0.3015966666666667,17.666666666666668,16,"NIGHT_CLEAR,NIGHT_CLEAR,NIGHT_CLEAR,MOSTLY_CLOUDY,CLEAR,CLEAR,MOSTLY_CLEAR,CLEAR,CLEAR","Onshore,Offshore,Offshore,Cross-shore,Offshore,Offshore,Offshore,Offshore,Cross-shore",9
5842041f4e65fad6a7708a1d,2024_06_11,38.460477,-75.052069,Fenwick Island,0.4444444444444444,0.0025,0.30793333333333334,17.666666666666668,16,"NIGHT_MOSTLY_CLEAR,NIGHT_MOSTLY_CLEAR,NIGHT_CLEAR,MOSTLY_CLEAR,CLEAR,CLEAR,CLEAR,CLEAR,CLEAR","Onshore,Onshore,Onshore,Cross-shore,Onshore,Onshore,Onshore,Onshore,Onshore",9
5842041f4e65fad6a7708a1e,2024_06_11,38.538767,-75.05619,Bethany Beach,0.4444444444444444,0.06817,0.2927822222222222,17.666666666666668,16,"NIGHT_CLEAR,NIGHT_CLEAR,NIGHT_CLEAR,MOSTLY_CLEAR,CLEAR,CLEAR,CLEAR,CLEAR,CLEAR","Cross-shore,Cross-shore,Cross-shore,Cross-shore,Cross-shore,Onshore,Onshore,Cross-shore,Onshore",9
5842041f4e65fad6a7708a1f,2024_06_11,38.697657,-75.075951,Dewey Beach,0.5555555555555556,0.037222222222222226,0.34265555555555555,17.666666666666668,16,"NIGHT_CLEAR,NIGHT_CLEAR,NIGHT_CLEAR,MOSTLY_CLEAR,CLEAR,CLEAR,CLEAR,CLEAR,CLEAR","Cross-shore,Cross-shore,Cross-shore,Cross-shore,Onshore,Onshore,Onshore,Onshore,Onshore",9
5842041f4e65fad6a7708a20,2024_06_11,38.75034741676525,-75.08194,Gordons Pond,0.5555555555555556,0.07067999999999999,0.29670222222222226,17.666666666666668,16,"NIGHT_CLEAR,NIGHT_CLEAR,NIGHT_CLEAR,MOSTLY_CLEAR,CLEAR,CLEAR,CLEAR,MOSTLY_CLEAR,CLEAR","Offshore,Offshore,Cross-shore,Cross-shore,Cross-shore,Cross-shore,Cross-shore,Onshore,Onshore",9
5842041f4e65fad6a7708a21,2024_06_11,38.767837,-75.082841,Naval Jetties,0.5555555555555556,0.013055555555555556,0.3162666666666667,17.666666666666668,16,"NIGHT_CLEAR,NIGHT_CLEAR,NIGHT_CLEAR,MOSTLY_CLEAR,CLEAR,CLEAR,CLEAR,MOSTLY_CLEAR,CLEAR","Cross-shore,Cross-shore,Onshore,Onshore,Onshore,Onshore,Onshore,Onshore,Onshore",9
5842041f4e65fad6a7708a22,2024_06_11,36.81735875786576,-75.96624,Camp Pendleton,0,0.002777777777777778,0.2685777777777778,21,19,"NIGHT_CLEAR,NIGHT_CLEAR,NIGHT_CLEAR,CLEAR,CLEAR,CLEAR,CLEAR,MOSTLY_CLEAR,CLEAR","Offshore,Offshore,Offshore,Offshore,Offshore,Cross-shore,Cross-shore,Cross-shore,Onshore",9
5842041f4e65fad6a7708a23,2024_06_11,36.9102212316428,-75.98732471466064,North End,0,0,0.2043111111111111,21,19,"NIGHT_CLEAR,NIGHT_MOSTLY_CLEAR,NIGHT_CLEAR,CLEAR,CLEAR,CLEAR,CLEAR,CLEAR,CLEAR","Offshore,Offshore,Cross-shore,Cross-shore,Onshore,Onshore,Onshore,Onshore,Onshore",9
5842041f4e65fad6a7708a24,2024_06_11,36.737117517621314,-75.93924,Sandbridge Beach,0.63,0,0.2853111111111111,21,19,"NIGHT_CLEAR,NIGHT_CLEAR,NIGHT_CLEAR,CLEAR,CLEAR,CLEAR,CLEAR,CLEAR,MOSTLY_CLEAR","Offshore,Offshore,Offshore,Cross-shore,Offshore,Cross-shore,Cross-shore,Cross-shore,Onshore",9
5842041f4e65fad6a7708a26,2024_06_11,36.818257440557794,-75.96666,Croatan to Pendleton,0,0,0.26413333333333333,21,19,"NIGHT_CLEAR,NIGHT_CLEAR,NIGHT_CLEAR,CLEAR,CLEAR,CLEAR,CLEAR,MOSTLY_CLEAR,CLEAR","Offshore,Offshore,Offshore,Offshore,Offshore,Cross-shore,Cross-shore,Cross-shore,Cross-shore",9
5842041f4e65fad6a7708a27,2024_06_11,36.84318777204769,-75.9719,South End,0.1111111111111111,0,0.19348888888888888,21,19,"NIGHT_CLEAR,NIGHT_CLEAR,NIGHT_CLEAR,CLEAR,CLEAR,CLEAR,CLEAR,CLEAR,CLEAR","Offshore,Offshore,Offshore,Offshore,Offshore,Onshore,Cross-shore,Cross-shore,Onshore",9
5842041f4e65fad6a7708a28,2024_06_11,37.08612627584661,-75.976121638199,Fishermans Island,0.3333333333333333,0.024,0.14622222222222223,23,23,"NIGHT_CLEAR,NIGHT_CLEAR,NIGHT_CLEAR,CLEAR,CLEAR,CLEAR,CLEAR,CLEAR,CLEAR","Cross-shore,Cross-shore,Offshore,Offshore,Cross-shore,Cross-shore,Cross-shore,Offshore,Cross-shore",9
5842041f4e65fad6a7708a38,2024_06_11,35.254619418229026,-75.52074,Cape Hatteras Lighthouse,1.37,0.28830666666666666,0.5455511111111111,23,21,"NIGHT_CLEAR,NIGHT_CLEAR,NIGHT_CLEAR,MOSTLY_CLEAR,CLEAR,CLEAR,CLEAR,CLEAR,CLEAR","Cross-shore,Onshore,Onshore,Onshore,Onshore,Onshore,Onshore,Onshore,Onshore",9
5842041f4e65fad6a7708a3a,2024_06_11,35.54572934093336,-75.46477,Waves and Salvo,1.6477777777777778,0.23808888888888888,0.5461777777777778,23,21,"NIGHT_CLEAR,NIGHT_CLEAR,NIGHT_CLEAR,MOSTLY_CLEAR,CLEAR,CLEAR,CLEAR,CLEAR,CLEAR","Onshore,Onshore,Onshore,Onshore,Onshore,Onshore,Cross-shore,Cross-shore,Onshore",9
5842041f4e65fad6a7708a3b,2024_06_11,35.22565892751075,-75.63606,Frisco,1.87,0.42973333333333336,0.7032666666666667,24,22,"NIGHT_CLEAR,NIGHT_CLEAR,NIGHT_MOSTLY_CLEAR,MOSTLY_CLEAR,CLEAR,CLEAR,CLEAR,CLEAR,CLEAR","Offshore,Cross-shore,Cross-shore,Cross-shore,Cross-shore,Offshore,Offshore,Offshore,Cross-shore",9
5842041f4e65fad6a7708a3c,2024_06_11,35.13086,-75.90591,Ocracoke,2,0.3137588888888889,0.49025,26,26,"NIGHT_CLEAR,NIGHT_CLEAR,NIGHT_CLEAR,CLEAR,CLEAR,CLEAR,CLEAR,CLEAR,CLEAR","Cross-shore,Onshore,Onshore,Onshore,Cross-shore,Cross-shore,Cross-shore,Cross-shore,Cross-shore",9
5842041f4e65fad6a7708a3d,2024_06_11,35.34721340158342,-75.50084,Avon Pier,1.741111111111111,0.2894111111111111,0.5946555555555556,23,21,"NIGHT_CLEAR,NIGHT_CLEAR,NIGHT_CLEAR,CLEAR,CLEAR,CLEAR,CLEAR,CLEAR,CLEAR","Onshore,Onshore,Onshore,Onshore,Onshore,Onshore,Onshore,Onshore,Onshore",9
5842041f4e65fad6a7708a3f,2024_06_11,35.71680821253768,-75.49243,Pea Island,1,0.0022222222222222222,0.3022222222222222,24,24,"NIGHT_CLEAR,NIGHT_CLEAR,NIGHT_CLEAR,CLEAR,CLEAR,CLEAR,CLEAR,CLEAR,CLEAR","Offshore,Offshore,Offshore,Offshore,Offshore,Onshore,Cross-shore,Onshore,Onshore",9
5842041f4e65fad6a7708a40,2024_06_11,35.97427620657821,-75.62984,Nags Head Pier,0.8055555555555556,0,0.2821777777777778,21,17,"NIGHT_CLEAR,NIGHT_CLEAR,NIGHT_CLEAR,CLEAR,CLEAR,CLEAR,CLEAR,CLEAR,CLEAR","Offshore,Offshore,Offshore,Offshore,Offshore,Cross-shore,Onshore,Onshore,Onshore",9
5842041f4e65fad6a7708a41,2024_06_11,36.0439998039079,-75.67288,Avalon Pier,0.3888888888888889,0,0.19563333333333335,21,17,"NIGHT_CLEAR,NIGHT_CLEAR,NIGHT_CLEAR,CLEAR,CLEAR,CLEAR,CLEAR,CLEAR,CLEAR","Offshore,Offshore,Offshore,Offshore,Offshore,Offshore,Onshore,Onshore,Onshore",9
5842041f4e65fad6a7708a42,2024_06_11,36.03043116489792,-75.66413,First Street,0.9444444444444444,-5.555555555555556e-4,0.3036888888888889,21,17,"NIGHT_CLEAR,NIGHT_CLEAR,NIGHT_CLEAR,CLEAR,CLEAR,CLEAR,CLEAR,CLEAR,CLEAR","Offshore,Offshore,Offshore,Offshore,Offshore,Offshore,Onshore,Onshore,Onshore",9
5842041f4e65fad6a7708a43,2024_06_11,36.06829910590498,-75.6899,Old Station/Laundromats,0.5555555555555556,0,0.2943222222222222,21,17,"NIGHT_CLEAR,NIGHT_CLEAR,NIGHT_CLEAR,CLEAR,CLEAR,CLEAR,CLEAR,CLEAR,CLEAR","Cross-shore,Cross-shore,Cross-shore,Cross-shore,Offshore,Offshore,Offshore,Offshore,Onshore",9
5842041f4e65fad6a7708a44,2024_06_11,36.10126676607491,-75.71107,Kitty Hawk Pier,0.8055555555555556,-5.555555555555556e-4,0.2805111111111111,21,17,"NIGHT_CLEAR,NIGHT_CLEAR,NIGHT_CLEAR,CLEAR,CLEAR,CLEAR,CLEAR,CLEAR,CLEAR","Cross-shore,Cross-shore,Cross-shore,Cross-shore,Offshore,Offshore,Offshore,Offshore,Onshore",9
5842041f4e65fad6a7708a45,2024_06_11,36.18220630068973,-75.75013580649097,Duck Pier,0.4077777777777778,0,0.2809888888888889,21,17.666666666666668,"NIGHT_CLEAR,NIGHT_CLEAR,NIGHT_CLEAR,CLEAR,CLEAR,CLEAR,CLEAR,CLEAR,CLEAR","Offshore,Offshore,Offshore,Offshore,Offshore,Cross-shore,Onshore,Onshore,Cross-shore",9
