_id,date,lat,lon,name,daily_mean_swell_rating,daily_mean_wave_height_min,daily_mean_wave_height_max,daily_mean_water_temperature_max,daily_mean_water_temperature_min,weather_per_timestamp,wind_per_timestamp,n_samples_per_day
5842041f4e65fad6a77087f9,2024_02_07,37.741668,-122.51038,South Ocean Beach,0.6111111111111112,2.7207666666666666,3.5404555555555555,14,14,"NIGHT_CLEAR,NIGHT_MOSTLY_CLOUDY,NIGHT_CLEAR,NIGHT_CLEAR,NIGHT_MOSTLY_CLOUDY,LIGHT_RAIN,OVERCAST,RAIN,CLEAR","Onshore,Onshore,Onshore,Onshore,Onshore,Onshore,Cross-shore,Onshore,Onshore",9
5842041f4e65fad6a7708801,2024_02_07,37.49142,-122.50428,Maverick's,NA,1.6691222222222222,2.0727444444444445,13,13,"NIGHT_MOSTLY_CLOUDY,NIGHT_CLOUDY,NIGHT_MOSTLY_CLOUDY,NIGHT_MOSTLY_CLOUDY,NIGHT_MOSTLY_CLOUDY,DRIZZLE,OVERCAST,BRIEF_SHOWERS,CLEAR","Offshore,Offshore,Offshore,Offshore,Offshore,Cross-shore,Onshore,Onshore,Offshore",9
5842041f4e65fad6a7708804,2024_02_07,44.997,-124.018,Roads End,3,2.276666666666667,2.7199999999999998,11,11,"NIGHT_CLEAR,NIGHT_MOSTLY_CLOUDY,NIGHT_LIGHT_SHOWERS_POSSIBLE,NIGHT_BRIEF_SHOWERS_POSSIBLE,NIGHT_BRIEF_SHOWERS_POSSIBLE,DRIZZLE,MOSTLY_CLOUDY,CLEAR,CLEAR","Cross-shore,Cross-shore,Offshore,Offshore,Offshore,Offshore,Offshore,Offshore,Offshore",9
5842041f4e65fad6a7708805,2024_02_07,36.95188851423011,-122.02522,Steamer Lane,3.4255555555555555,1.6436629629629629,2.117248148148148,14,14,"NIGHT_MIST,NIGHT_MIST,NIGHT_CLEAR,NIGHT_CLEAR,NIGHT_CLEAR,CLEAR,DRIZZLE,LIGHT_RAIN,OVERCAST","Offshore,Offshore,Offshore,Offshore,Offshore,Cross-shore,Cross-shore,Onshore,Onshore",9
5842041f4e65fad6a7708806,2024_02_07,36.95918781542251,-122.02489,Cowells,1.4444444444444444,0.03665555555555555,0.2778333333333333,14,14,"NIGHT_MIST,NIGHT_MIST,NIGHT_CLEAR,NIGHT_CLEAR,NIGHT_CLEAR,CLEAR,DRIZZLE,LIGHT_RAIN,OVERCAST","Offshore,Cross-shore,Cross-shore,Cross-shore,Offshore,Offshore,Offshore,Cross-shore,Onshore",9
5842041f4e65fad6a7708807,2024_02_07,36.95468082526536,-121.97234,Pleasure Point,3.388888888888889,1.310462962962963,1.7389407407407407,14,14,"NIGHT_CLEAR,NIGHT_CLEAR,NIGHT_CLEAR,NIGHT_CLEAR,NIGHT_MOSTLY_CLEAR,CLEAR,DRIZZLE,LIGHT_RAIN,OVERCAST","Offshore,Offshore,Offshore,Offshore,Offshore,Offshore,Cross-shore,Cross-shore,Onshore",9
5842041f4e65fad6a770880a,2024_02_07,35.37815414378748,-120.86589,Morro Bay,3,1.7071407407407408,2.3187,14,14,"NIGHT_MOSTLY_CLEAR,NIGHT_CLEAR,NIGHT_MOSTLY_CLOUDY,NIGHT_MOSTLY_CLOUDY,CLEAR,MOSTLY_CLEAR,CLEAR,MOSTLY_CLEAR,CLEAR","Offshore,Offshore,Offshore,Offshore,Cross-shore,Offshore,Onshore,Onshore,Onshore",9
5842041f4e65fad6a770880b,2024_02_07,36.95782765000708,-121.9672887511276,Jack's,2,0.4693925925925926,0.7759407407407408,14,14,"NIGHT_CLEAR,NIGHT_CLEAR,NIGHT_CLEAR,NIGHT_CLEAR,NIGHT_MOSTLY_CLEAR,CLEAR,DRIZZLE,LIGHT_RAIN,OVERCAST","Offshore,Offshore,Offshore,Offshore,Offshore,Offshore,Offshore,Cross-shore,Cross-shore",9
5842041f4e65fad6a770880d,2024_02_07,34.29982939936656,-119.3489016603669,Gold Coast Beachbreaks,2.5555555555555554,0.4888888888888889,0.79,14.222222222222221,14.222222222222221,"NIGHT_CLEAR,NIGHT_CLEAR,NIGHT_CLEAR,NIGHT_CLEAR,CLEAR,CLEAR,CLEAR,CLEAR,CLEAR","Cross-shore,Cross-shore,Offshore,Cross-shore,Cross-shore,Cross-shore,Cross-shore,Cross-shore,Onshore",9
5842041f4e65fad6a7708811,2024_02_07,34.245076,-119.26799,Ventura Harbor,2.7777777777777777,1.0333709259259258,1.3519337962962963,14,14,"NIGHT_CLEAR,NIGHT_CLEAR,NIGHT_CLEAR,NIGHT_MIST,MIST,MIST,CLEAR,CLEAR,CLEAR","Offshore,Offshore,Offshore,Offshore,Offshore,Offshore,Onshore,Onshore,Onshore",9
5842041f4e65fad6a7708813,2024_02_07,34.051,-118.964,County Line,2.37,0.8447,1.2057666666666667,15,15,"NIGHT_OVERCAST,NIGHT_OVERCAST,NIGHT_MOSTLY_CLEAR,NIGHT_MOSTLY_CLEAR,CLEAR,CLEAR,CLEAR,MOSTLY_CLEAR,CLEAR","Offshore,Offshore,Offshore,Offshore,Cross-shore,Cross-shore,Onshore,Onshore,Onshore",9
5842041f4e65fad6a7708814,2024_02_07,34.37256264378892,-119.47797,Rincon,2.4444444444444446,0.6733333333333333,0.9466666666666667,14.222222222222221,14.222222222222221,"NIGHT_CLEAR,NIGHT_CLEAR,NIGHT_CLEAR,NIGHT_CLEAR,CLEAR,CLEAR,CLEAR,CLEAR,CLEAR","Cross-shore,Cross-shore,Offshore,Offshore,Onshore,Onshore,Cross-shore,Cross-shore,Cross-shore",9
5842041f4e65fad6a7708817,2024_02_07,34.03096101876324,-118.68109,Malibu Third Point,2.6666666666666665,0.6366666666666667,0.9422222222222222,15,15,"NIGHT_CLEAR,NIGHT_OVERCAST,NIGHT_MOSTLY_CLOUDY,NIGHT_CLEAR,FOG,MIST,MIST,CLEAR,MOSTLY_CLOUDY","Offshore,Offshore,Offshore,Offshore,Onshore,Onshore,Onshore,Onshore,Offshore",9
5842041f4e65fad6a7708819,2024_02_07,33.984079047970035,-118.47381591796875,Venice Beach,2.4255555555555555,0.7588370370370371,1.0864296296296296,15,15,"NIGHT_MOSTLY_CLOUDY,NIGHT_BRIEF_SHOWERS,NIGHT_MOSTLY_CLOUDY,NIGHT_MOSTLY_CLOUDY,MOSTLY_CLOUDY,MOSTLY_CLOUDY,CLEAR,MOSTLY_CLOUDY,CLEAR","Offshore,Offshore,Offshore,Offshore,Offshore,Offshore,Onshore,Onshore,Onshore",9
5842041f4e65fad6a770881e,2024_02_07,34.037508438646746,-118.58339846155594,Topanga Beach,2.5555555555555554,0.6006777777777778,0.9145555555555556,15,15,"NIGHT_MIST,NIGHT_FOG,NIGHT_MIST,NIGHT_CLEAR,FOG,MIST,MIST,MIST,MOSTLY_CLOUDY","Offshore,Offshore,Offshore,Offshore,Cross-shore,Offshore,Cross-shore,Onshore,Onshore",9
5842041f4e65fad6a7708820,2024_02_07,33.73954373690184,-118.11414,Seal Beach Jetty,2.888888888888889,0.47555555555555556,0.7788888888888889,15,15,"NIGHT_MIST,NIGHT_FOG,NIGHT_CLEAR,NIGHT_MIST,MIST,MOSTLY_CLOUDY,MIST,MIST,MIST","Cross-shore,Offshore,Offshore,Offshore,Offshore,Offshore,Onshore,Onshore,Onshore",9
5842041f4e65fad6a7708822,2024_02_07,33.72309983348433,-118.08078,Anderson Street,3,0.7222222222222222,0.9788888888888889,15,15,"NIGHT_HEAVY_SHOWERS,NIGHT_CLEAR,NIGHT_CLEAR,NIGHT_MOSTLY_CLOUDY,MIST,MIST,MIST,MIST,MOSTLY_CLOUDY","Cross-shore,Offshore,Offshore,Offshore,Offshore,Offshore,Onshore,Onshore,Onshore",9
5842041f4e65fad6a7708827,2024_02_07,33.65574085629463,-118.00397,Huntington Beach Pier Northside,2.3333333333333335,1.1099777777777777,1.3467925925925925,14,14,"NIGHT_FOG,NIGHT_MOSTLY_CLOUDY,NIGHT_BRIEF_SHOWERS,NIGHT_MOSTLY_CLOUDY,FOG,MIST,MIST,MOSTLY_CLOUDY,MOSTLY_CLOUDY","Offshore,Onshore,Onshore,Offshore,Offshore,Offshore,Onshore,Onshore,Onshore",9
5842041f4e65fad6a7708828,2024_02_07,34.272041739333,-119.2997646331,C St.,2.4633333333333334,0.7012888888888889,0.9824185185185185,14,14,"NIGHT_CLEAR,NIGHT_CLEAR,NIGHT_CLEAR,NIGHT_CLEAR,CLEAR,CLEAR,CLEAR,CLEAR,CLEAR","Offshore,Offshore,Offshore,Offshore,Offshore,Cross-shore,Onshore,Cross-shore,Cross-shore",9
5842041f4e65fad6a770882a,2024_02_07,33.61555743705257,-117.93676,Newport Lower Jetties,2.4444444444444446,0.6731333333333334,1.083862962962963,15,15,"NIGHT_FOG,NIGHT_SHOWERS,NIGHT_BRIEF_SHOWERS,NIGHT_CLEAR,FOG,MOSTLY_CLEAR,MIST,MOSTLY_CLOUDY,CLEAR","Offshore,Cross-shore,Offshore,Offshore,Offshore,Offshore,Onshore,Onshore,Onshore",9
5842041f4e65fad6a770882b,2024_02_07,33.5930302087,-117.88199,The Wedge,3,0.9311922222222222,1.3282500000000002,15,15,"NIGHT_MOSTLY_CLOUDY,NIGHT_HEAVY_SHOWERS,NIGHT_MOSTLY_CLOUDY,NIGHT_SHOWERS,CLEAR,CLEAR,MOSTLY_CLOUDY,MOSTLY_CLOUDY,MOSTLY_CLOUDY","Offshore,Offshore,Offshore,Offshore,Offshore,Offshore,Onshore,Onshore,Onshore",9
5842041f4e65fad6a770882c,2024_02_07,33.60577342582,-117.9315376281,Newport Beach Pier,1.258888888888889,0.6612814814814815,0.9615518518518518,15,15,"NIGHT_MOSTLY_CLOUDY,NIGHT_HEAVY_SHOWERS,NIGHT_MOSTLY_CLOUDY,NIGHT_CLEAR,CLEAR,MOSTLY_CLEAR,BRIEF_SHOWERS,MOSTLY_CLOUDY,CLEAR","Cross-shore,Onshore,Cross-shore,Cross-shore,Offshore,Onshore,Cross-shore,Cross-shore,Cross-shore",9
5842041f4e65fad6a770882e,2024_02_07,33.475793399792984,-117.72291,Salt Creek,1.758888888888889,0.8996148148148149,1.2783074074074074,15,15,"NIGHT_OVERCAST,NIGHT_CLEAR,NIGHT_MOSTLY_CLOUDY,NIGHT_MOSTLY_CLOUDY,MOSTLY_CLOUDY,MOSTLY_CLOUDY,MOSTLY_CLOUDY,MOSTLY_CLOUDY,CLEAR","Onshore,Onshore,Onshore,Onshore,Onshore,Onshore,Onshore,Onshore,Onshore",9
5842041f4e65fad6a7708830,2024_02_07,33.41800974113613,-117.61952,T-Street,1.2777777777777777,0.7566518518518519,1.028374074074074,16,16,"NIGHT_MOSTLY_CLOUDY,NIGHT_HEAVY_SHOWERS,NIGHT_MOSTLY_CLOUDY,NIGHT_MOSTLY_CLOUDY,MOSTLY_CLOUDY,CLEAR,MOSTLY_CLOUDY,CLEAR,MOSTLY_CLOUDY","Onshore,Onshore,Onshore,Onshore,Offshore,Onshore,Onshore,Onshore,Onshore",9
5842041f4e65fad6a7708832,2024_02_07,33.202391008646,-117.39475,Oceanside Harbor,1.6666666666666667,0.8254407407407407,1.1302814814814814,16,16,"NIGHT_MOSTLY_CLOUDY,NIGHT_MOSTLY_CLOUDY,NIGHT_CLEAR,NIGHT_CLEAR,HEAVY_SHOWERS,MOSTLY_CLOUDY,MIST,CLEAR,MOSTLY_CLOUDY","Onshore,Onshore,Onshore,Onshore,Offshore,Offshore,Onshore,Onshore,Onshore",9
5842041f4e65fad6a7708835,2024_02_07,33.19477795952803,-117.38667,Oceanside Pier,1.8888888888888888,0.7627037037037038,1.0817666666666665,16,16,"NIGHT_FOG,NIGHT_MIST,NIGHT_MOSTLY_CLOUDY,NIGHT_CLEAR,HEAVY_SHOWERS,MOSTLY_CLOUDY,BRIEF_SHOWERS,CLEAR,MOSTLY_CLOUDY","Onshore,Onshore,Onshore,Onshore,Cross-shore,Cross-shore,Onshore,Onshore,Onshore",9
5842041f4e65fad6a7708837,2024_02_07,33.14948100706,-117.35029,Tamarack,2,0.7688888888888888,1.0477777777777777,15,15,"NIGHT_MOSTLY_CLOUDY,NIGHT_MOSTLY_CLOUDY,NIGHT_FOG,NIGHT_MOSTLY_CLOUDY,MOSTLY_CLOUDY,BRIEF_SHOWERS,MIST,MIST,MOSTLY_CLOUDY","Onshore,Onshore,Onshore,Onshore,Cross-shore,Offshore,Cross-shore,Onshore,Onshore",9
5842041f4e65fad6a7708839,2024_02_07,32.865777159358856,-117.25614295356122,Scripps,1.2222222222222223,1.0488666666666666,1.391448148148148,14,14,"NIGHT_CLOUDY,NIGHT_OVERCAST,NIGHT_BRIEF_SHOWERS,NIGHT_CLEAR,CLEAR,MOSTLY_CLOUDY,MOSTLY_CLOUDY,MOSTLY_CLOUDY,MOSTLY_CLOUDY","Onshore,Onshore,Onshore,Cross-shore,Onshore,Onshore,Onshore,Onshore,Onshore",9
5842041f4e65fad6a770883a,2024_02_07,32.813094,-117.27381,Birdrock,2,1.3755555555555556,1.6122222222222222,15.777777777777779,15.777777777777779,"NIGHT_CLOUDY,NIGHT_OVERCAST,NIGHT_CLEAR,NIGHT_LIGHT_SHOWERS_POSSIBLE,MOSTLY_CLOUDY,CLEAR,BRIEF_SHOWERS,MOSTLY_CLOUDY,CLEAR","Onshore,Onshore,Onshore,Offshore,Onshore,Cross-shore,Cross-shore,Cross-shore,Onshore",9
5842041f4e65fad6a770883b,2024_02_07,32.877231,-117.25303,Blacks,1,1.3340444444444444,1.7518666666666667,14,14,"NIGHT_CLOUDY,NIGHT_OVERCAST,NIGHT_BRIEF_SHOWERS,NIGHT_CLEAR,CLEAR,MOSTLY_CLOUDY,MOSTLY_CLOUDY,MOSTLY_CLOUDY,MOSTLY_CLOUDY","Onshore,Onshore,Onshore,Onshore,Onshore,Onshore,Onshore,Onshore,Onshore",9
5842041f4e65fad6a770883c,2024_02_07,32.82978974229765,-117.28161740727381,Windansea,0.6666666666666666,1.1527888888888889,1.583388888888889,14,14,"NIGHT_CLOUDY,NIGHT_OVERCAST,NIGHT_MOSTLY_CLOUDY,NIGHT_FOG,MOSTLY_CLOUDY,CLEAR,SHOWERS,MOSTLY_CLOUDY,MOSTLY_CLOUDY","Onshore,Onshore,Onshore,Onshore,Onshore,Onshore,Onshore,Onshore,Onshore",9
5842041f4e65fad6a770883d,2024_02_07,32.838278,-117.28396,Horseshoe,1.4444444444444444,1.4055555555555557,1.6488888888888888,15.777777777777779,15.777777777777779,"NIGHT_CLOUDY,NIGHT_OVERCAST,NIGHT_MOSTLY_CLOUDY,NIGHT_FOG,MOSTLY_CLOUDY,CLEAR,SHOWERS,MOSTLY_CLOUDY,MOSTLY_CLOUDY","Onshore,Onshore,Onshore,Offshore,Onshore,Offshore,Cross-shore,Onshore,Onshore",9
5842041f4e65fad6a770883f,2024_02_07,32.75034717673179,-117.25337,Ocean Beach,1,1.4208962962962963,1.8204777777777776,14,14,"NIGHT_CLOUDY,NIGHT_CLOUDY,NIGHT_CLEAR,NIGHT_HEAVY_RAIN,MOSTLY_CLOUDY,CLEAR,MOSTLY_CLOUDY,CLEAR,CLEAR","Onshore,Onshore,Onshore,Onshore,Onshore,Onshore,Onshore,Onshore,Onshore",9
5842041f4e65fad6a7708840,2024_02_07,32.73693,-117.25718,Sunset Cliffs,1.2222222222222223,1.3222222222222222,1.58,15.777777777777779,15.777777777777779,"NIGHT_OVERCAST,NIGHT_OVERCAST,NIGHT_MOSTLY_CLOUDY,NIGHT_RAIN,MOSTLY_CLOUDY,CLEAR,MOSTLY_CLOUDY,BRIEF_SHOWERS,CLEAR","Onshore,Onshore,Onshore,Onshore,Onshore,Onshore,Onshore,Onshore,Onshore",9
5842041f4e65fad6a7708841,2024_02_07,32.796582258728826,-117.25779,Pacific Beach,1.1111111111111112,1.2689518518518517,1.571074074074074,14,14,"NIGHT_CLOUDY,NIGHT_CLOUDY,NIGHT_CLEAR,NIGHT_HEAVY_RAIN,MOSTLY_CLOUDY,CLEAR,MIST,CLEAR,CLEAR","Onshore,Onshore,Onshore,Offshore,Onshore,Cross-shore,Cross-shore,Cross-shore,Onshore",9
5842041f4e65fad6a7708842,2024_02_07,32.776636,-117.25514,Mission Beach,1.3333333333333333,1.3088592592592592,1.6057037037037039,14,14,"NIGHT_CLOUDY,NIGHT_CLOUDY,NIGHT_CLEAR,NIGHT_HEAVY_RAIN,MOSTLY_CLOUDY,CLEAR,MIST,CLEAR,CLEAR","Onshore,Onshore,Onshore,Cross-shore,Onshore,Offshore,Offshore,Onshore,Onshore",9
5842041f4e65fad6a7708844,2024_02_07,32.577195519016,-117.13475,Imperial Beach Pier,1,1.49,1.7166666666666666,15.777777777777779,15.777777777777779,"NIGHT_CLEAR,NIGHT_MOSTLY_CLOUDY,NIGHT_MOSTLY_CLOUDY,NIGHT_CLOUDY,CLEAR,DRIZZLE,MOSTLY_CLOUDY,MOSTLY_CLEAR,MOSTLY_CLOUDY","Onshore,Onshore,Onshore,Onshore,Onshore,Onshore,Onshore,Onshore,Onshore",9
5842041f4e65fad6a770884a,2024_02_07,42.88678181061,-70.80843,Seabrook,1.1666666666666667,0.6535491666666667,1.0497466666666666,5,4,"NIGHT_CLEAR,NIGHT_CLEAR,CLEAR,MOSTLY_CLOUDY,CLEAR,CLEAR,CLEAR,CLEAR,CLEAR","Cross-shore,Cross-shore,Cross-shore,Cross-shore,Cross-shore,Cross-shore,Cross-shore,Cross-shore,Cross-shore",9
5842041f4e65fad6a770884e,2024_02_07,41.434181432898335,-71.45312118111178,Narragansett,0.6111111111111112,0.015764444444444446,0.32512,7,6,"NIGHT_CLEAR,NIGHT_MOSTLY_CLEAR,OVERCAST,CLOUDY,MOSTLY_CLEAR,CLEAR,CLEAR,CLEAR,CLEAR","Offshore,Offshore,Offshore,Offshore,Offshore,Offshore,Offshore,Offshore,Offshore",9
5842041f4e65fad6a7708850,2024_02_07,40.582703230722,-73.65247,Lincoln Blvd,0.6944444444444444,0.11291481481481482,0.3779925925925926,7,6,"NIGHT_CLEAR,NIGHT_CLEAR,CLEAR,CLEAR,CLEAR,CLEAR,CLEAR,CLEAR,CLEAR","Offshore,Offshore,Offshore,Offshore,Offshore,Offshore,Offshore,Offshore,Onshore",9
5842041f4e65fad6a7708852,2024_02_07,40.58342841721757,-73.81182,Rockaways,2,0.39253111111111116,0.6977940740740741,7,6,"NIGHT_CLEAR,NIGHT_CLEAR,CLEAR,CLEAR,CLEAR,CLEAR,CLEAR,CLEAR,CLEAR","Offshore,Offshore,Offshore,Offshore,Offshore,Offshore,Offshore,Offshore,Offshore",9
5842041f4e65fad6a7708853,2024_02_07,40.330474,-73.9734,Monmouth Beach,1.5555555555555556,0.6420370370370371,1.0541666666666667,6,5,"NIGHT_CLEAR,NIGHT_CLEAR,CLEAR,CLEAR,CLEAR,CLEAR,CLEAR,CLEAR,CLEAR","Cross-shore,Cross-shore,Cross-shore,Cross-shore,Cross-shore,Cross-shore,Cross-shore,Cross-shore,Cross-shore",9
5842041f4e65fad6a7708856,2024_02_07,40.113,-74.028,Manasquan Inlet,1.0666666666666667,0.9356592592592593,1.4073407407407408,6,5,"NIGHT_CLEAR,NIGHT_CLEAR,CLEAR,CLEAR,CLEAR,CLEAR,CLEAR,CLEAR,CLEAR","Cross-shore,Cross-shore,Cross-shore,Cross-shore,Cross-shore,Cross-shore,Cross-shore,Cross-shore,Cross-shore",9
5842041f4e65fad6a7708857,2024_02_07,39.941519877445664,-74.06829,Casino Pier,1,1.0631762962962963,1.5264296296296298,6,5,"NIGHT_CLEAR,NIGHT_CLEAR,CLEAR,CLEAR,CLEAR,CLEAR,CLEAR,CLEAR,CLEAR","Cross-shore,Cross-shore,Cross-shore,Cross-shore,Cross-shore,Cross-shore,Cross-shore,Cross-shore,Cross-shore",9
5842041f4e65fad6a7708858,2024_02_07,39.28223089949212,-74.55766,North End OC,1.9555555555555555,0.8904962962962962,1.2287185185185185,6,5,"NIGHT_CLEAR,NIGHT_MOSTLY_CLEAR,CLEAR,CLEAR,CLEAR,CLEAR,CLEAR,CLEAR,CLEAR","Offshore,Offshore,Offshore,Offshore,Offshore,Cross-shore,Onshore,Onshore,Onshore",9
5842041f4e65fad6a770885b,2024_02_07,39.65080599934257,-74.17146,Ship Bottom,1.0666666666666667,0.9833592592592593,1.5349185185185186,6,5,"NIGHT_MOSTLY_CLEAR,NIGHT_MOSTLY_CLOUDY,CLEAR,CLEAR,CLEAR,CLEAR,CLEAR,CLEAR,CLEAR","Cross-shore,Cross-shore,Offshore,Offshore,Offshore,Cross-shore,Cross-shore,Cross-shore,Cross-shore",9
5842041f4e65fad6a7708863,2024_02_07,36.034151543144,-75.66791,Third Street,0.16666666666666669,1.6572222222222222,2.386111111111111,8,5,"NIGHT_OVERCAST,NIGHT_CLOUDY,CLOUDY,CLOUDY,OVERCAST,OVERCAST,CLEAR,OVERCAST,OVERCAST","Onshore,Onshore,Onshore,Onshore,Onshore,Onshore,Onshore,Onshore,Onshore",9
5842041f4e65fad6a7708867,2024_02_07,35.605833221351425,-75.46303,S-Turns,0,1.9081103703703703,2.6004548148148148,10,8,"NIGHT_OVERCAST,NIGHT_OVERCAST,CLOUDY,CLOUDY,OVERCAST,MOSTLY_CLOUDY,MOSTLY_CLOUDY,MOSTLY_CLOUDY,CLOUDY","Cross-shore,Cross-shore,Cross-shore,Cross-shore,Cross-shore,Cross-shore,Cross-shore,Cross-shore,Cross-shore",9
5842041f4e65fad6a770886d,2024_02_07,38.338461,-75.08117,Ocean City Boardwalk,0.87,1.0217103703703705,1.6176548148148149,7,5,"NIGHT_MOSTLY_CLOUDY,NIGHT_MOSTLY_CLOUDY,CLEAR,CLEAR,CLEAR,CLEAR,CLEAR,CLEAR,CLEAR","Onshore,Onshore,Cross-shore,Cross-shore,Onshore,Onshore,Onshore,Onshore,Onshore",9
5842041f4e65fad6a770886f,2024_02_07,29.844757212379562,-81.26136,A St.,2,1.9966666666666666,2.37,14.222222222222221,14.222222222222221,"NIGHT_CLEAR,NIGHT_CLEAR,CLEAR,CLEAR,CLEAR,CLEAR,MOSTLY_CLOUDY,MOSTLY_CLOUDY,MOSTLY_CLOUDY","Cross-shore,Cross-shore,Cross-shore,Cross-shore,Cross-shore,Cross-shore,Cross-shore,Cross-shore,Cross-shore",9
5842041f4e65fad6a7708871,2024_02_07,29.069417851135093,-80.90824,New Smyrna Beach,0.5,2.5477296296296297,3.3314481481481484,17,15,"NIGHT_CLEAR,NIGHT_MOSTLY_CLEAR,OVERCAST,CLOUDY,CLOUDY,OVERCAST,CLOUDY,CLOUDY,CLOUDY","Cross-shore,Cross-shore,Cross-shore,Cross-shore,Cross-shore,Cross-shore,Cross-shore,Cross-shore,Cross-shore",9
5842041f4e65fad6a7708872,2024_02_07,28.367707417566,-80.60171,Cocoa Beach Pier,1.8611111111111112,1.378040740740741,1.792774074074074,18,17,"NIGHT_MOSTLY_CLEAR,NIGHT_MOSTLY_CLEAR,MOSTLY_CLOUDY,MOSTLY_CLOUDY,MOSTLY_CLOUDY,BRIEF_SHOWERS,MOSTLY_CLOUDY,BRIEF_SHOWERS,MOSTLY_CLOUDY","Offshore,Cross-shore,Cross-shore,Cross-shore,Cross-shore,Cross-shore,Cross-shore,Offshore,Offshore",9
5842041f4e65fad6a7708873,2024_02_07,28.091782738658846,-80.56479,Indialantic,1.3333333333333333,2.356211111111111,3.3862888888888887,19,18,"NIGHT_CLEAR,NIGHT_MOSTLY_CLEAR,MOSTLY_CLOUDY,MOSTLY_CLOUDY,MOSTLY_CLOUDY,CLEAR,MOSTLY_CLOUDY,MOSTLY_CLOUDY,MOSTLY_CLEAR","Cross-shore,Cross-shore,Cross-shore,Cross-shore,Cross-shore,Cross-shore,Cross-shore,Cross-shore,Cross-shore",9
5842041f4e65fad6a7708876,2024_02_07,27.25392904143517,-80.19455,Jensen Beach,0.87,2.435585185185185,3.3630851851851853,22,21,"NIGHT_MOSTLY_CLOUDY,NIGHT_MOSTLY_CLEAR,MOSTLY_CLOUDY,MOSTLY_CLOUDY,MOSTLY_CLOUDY,BRIEF_SHOWERS,CLOUDY,MOSTLY_CLOUDY,MOSTLY_CLOUDY","Cross-shore,Cross-shore,Cross-shore,Cross-shore,Cross-shore,Cross-shore,Cross-shore,Cross-shore,Cross-shore",9
5842041f4e65fad6a7708879,2024_02_07,26.76346795333825,-80.0360655784607,Reef Road,2.1755555555555555,1.7897962962962963,2.503651851851852,24,22,"NIGHT_MOSTLY_CLEAR,NIGHT_CLEAR,CLEAR,MOSTLY_CLEAR,MOSTLY_CLOUDY,MOSTLY_CLOUDY,MOSTLY_CLOUDY,BRIEF_SHOWERS,MOSTLY_CLOUDY","Offshore,Offshore,Offshore,Cross-shore,Cross-shore,Cross-shore,Cross-shore,Cross-shore,Cross-shore",9
5842041f4e65fad6a770887c,2024_02_07,26.336499228484,-80.06956100463,Boca Raton Inlet,2.296666666666667,1.3423074074074075,1.8378481481481481,24,22,"NIGHT_CLEAR,NIGHT_CLEAR,CLEAR,CLEAR,CLEAR,CLEAR,CLEAR,CLEAR,MOSTLY_CLEAR","Offshore,Offshore,Offshore,Offshore,Offshore,Offshore,Cross-shore,Cross-shore,Offshore",9
5842041f4e65fad6a770887d,2024_02_07,26.31719311695038,-80.07452525176168,Deerfield Beach Pier,2.466666666666667,0.9483667222222222,1.511820925925926,24,23,"NIGHT_MOSTLY_CLEAR,NIGHT_CLEAR,CLEAR,CLEAR,CLEAR,CLEAR,CLEAR,CLEAR,MOSTLY_CLOUDY","Offshore,Offshore,Offshore,Offshore,Offshore,Offshore,Cross-shore,Cross-shore,Offshore",9
5842041f4e65fad6a7708881,2024_02_07,30.20276320866628,-85.85626528676136,"Spyglass Dr., Panama City",0,0,0.12264444444444444,16,14,"NIGHT_CLEAR,NIGHT_CLEAR,CLEAR,CLEAR,CLEAR,CLEAR,CLEAR,CLEAR,CLEAR","Offshore,Offshore,Offshore,Offshore,Offshore,Offshore,Offshore,Cross-shore,Offshore",9
5842041f4e65fad6a7708884,2024_02_07,33.39000832738053,-117.59852,Cottons,2.2777777777777777,0.730262962962963,1.1425666666666667,16,16,"NIGHT_MOSTLY_CLOUDY,NIGHT_SHOWERS,NIGHT_BRIEF_SHOWERS,NIGHT_MOSTLY_CLOUDY,MOSTLY_CLOUDY,MOSTLY_CLOUDY,BRIEF_SHOWERS,CLEAR,CLEAR","Cross-shore,Offshore,Cross-shore,Cross-shore,Cross-shore,Offshore,Offshore,Offshore,Offshore",9
5842041f4e65fad6a7708885,2024_02_07,33.359416282661,-117.54167901405711,Trails,2.4444444444444446,0.76,1.0644444444444445,15,15,"NIGHT_MOSTLY_CLOUDY,NIGHT_HEAVY_SHOWERS,NIGHT_FOG,NIGHT_MOSTLY_CLOUDY,MIST,BRIEF_SHOWERS,BRIEF_SHOWERS,MOSTLY_CLOUDY,MOSTLY_CLOUDY","Offshore,Offshore,Offshore,Offshore,Offshore,Offshore,Cross-shore,Cross-shore,Onshore",9
5842041f4e65fad6a7708886,2024_02_07,33.38042605929805,-117.58332,Middles,2.1844444444444444,0.787762962962963,1.0917074074074073,16,16,"NIGHT_MOSTLY_CLOUDY,NIGHT_SHOWERS,NIGHT_BRIEF_SHOWERS,NIGHT_MOSTLY_CLOUDY,MOSTLY_CLOUDY,MOSTLY_CLOUDY,BRIEF_SHOWERS,CLEAR,CLEAR","Offshore,Offshore,Offshore,Offshore,Cross-shore,Offshore,Offshore,Offshore,Cross-shore",9
5842041f4e65fad6a7708887,2024_02_07,33.38445596302903,-117.59445,Upper Trestles,2.128888888888889,0.7199851851851852,1.0608074074074074,16,16,"NIGHT_MOSTLY_CLOUDY,NIGHT_SHOWERS,NIGHT_BRIEF_SHOWERS,NIGHT_MOSTLY_CLOUDY,MOSTLY_CLOUDY,MOSTLY_CLOUDY,BRIEF_SHOWERS,CLEAR,CLEAR","Offshore,Offshore,Offshore,Offshore,Cross-shore,Offshore,Cross-shore,Offshore,Cross-shore",9
5842041f4e65fad6a7708889,2024_02_07,28.944414,-95.28883,Surfside,1,0.26578666666666667,0.4152911111111111,14,14,"NIGHT_CLEAR,NIGHT_CLEAR,NIGHT_CLEAR,CLEAR,CLEAR,CLEAR,CLOUDY,CLOUDY,OVERCAST","Onshore,Onshore,Onshore,Onshore,Onshore,Onshore,Onshore,Onshore,Onshore",9
5842041f4e65fad6a770888a,2024_02_07,33.38143999849023,-117.58843,Lower Trestles,2.1655555555555557,0.7924851851851852,1.0575407407407407,16,16,"NIGHT_MOSTLY_CLOUDY,NIGHT_SHOWERS,NIGHT_BRIEF_SHOWERS,NIGHT_MOSTLY_CLOUDY,MOSTLY_CLOUDY,MOSTLY_CLOUDY,BRIEF_SHOWERS,CLEAR,CLEAR","Offshore,Offshore,Offshore,Offshore,Cross-shore,Offshore,Cross-shore,Offshore,Cross-shore",9
5842041f4e65fad6a770888b,2024_02_07,33.379622288757,-117.57894,Church,2.0733333333333333,0.7297074074074075,1.0760592592592593,16,16,"NIGHT_MOSTLY_CLOUDY,NIGHT_SHOWERS,NIGHT_BRIEF_SHOWERS,NIGHT_MOSTLY_CLOUDY,MOSTLY_CLOUDY,MOSTLY_CLOUDY,BRIEF_SHOWERS,CLEAR,CLEAR","Cross-shore,Offshore,Offshore,Offshore,Cross-shore,Offshore,Offshore,Offshore,Cross-shore",9
5842041f4e65fad6a770888d,2024_02_07,21.679,-158.042,Sunset Beach,3.6855555555555557,1.857222222222222,2.4205,26,25,"NIGHT_SHOWERS,NIGHT_CLEAR,NIGHT_SHOWERS,NIGHT_MOSTLY_CLEAR,NIGHT_CLEAR,NIGHT_MOSTLY_CLEAR,SHOWERS,MOSTLY_CLEAR,MOSTLY_CLEAR","Offshore,Offshore,Offshore,Offshore,Offshore,Cross-shore,Offshore,Cross-shore,Cross-shore",9
5842041f4e65fad6a770888e,2024_02_07,21.670550036401,-158.0482,Rocky Point,3.6855555555555557,1.9079629629629629,2.4803148148148146,26,25,"NIGHT_SHOWERS,NIGHT_SHOWERS,NIGHT_CLEAR,NIGHT_MOSTLY_CLEAR,NIGHT_CLEAR,NIGHT_CLEAR,CLEAR,CLEAR,CLEAR","Cross-shore,Offshore,Offshore,Cross-shore,Cross-shore,Cross-shore,Cross-shore,Cross-shore,Cross-shore",9
5842041f4e65fad6a770888f,2024_02_07,21.668,-158.05,Chambers,4,2.0044444444444443,2.396666666666667,24,24,"NIGHT_SHOWERS,NIGHT_SHOWERS,NIGHT_CLEAR,NIGHT_MOSTLY_CLEAR,NIGHT_CLEAR,NIGHT_CLEAR,CLEAR,CLEAR,CLEAR","Cross-shore,Offshore,Offshore,Offshore,Cross-shore,Cross-shore,Cross-shore,Cross-shore,Cross-shore",9
5842041f4e65fad6a7708890,2024_02_07,21.66522,-158.0526,Pipeline,3.6666666666666665,1.7807407407407407,2.2318148148148147,26,25,"NIGHT_SHOWERS,NIGHT_SHOWERS,NIGHT_CLEAR,NIGHT_MOSTLY_CLEAR,NIGHT_CLEAR,NIGHT_CLEAR,CLEAR,CLEAR,CLEAR","Cross-shore,Offshore,Offshore,Cross-shore,Cross-shore,Cross-shore,Cross-shore,Cross-shore,Cross-shore",9
5842041f4e65fad6a7708891,2024_02_07,21.665,-158.054,Backdoor,3.6855555555555557,1.7807407407407407,2.2318148148148147,26,25,"NIGHT_SHOWERS,NIGHT_SHOWERS,NIGHT_CLEAR,NIGHT_MOSTLY_CLEAR,NIGHT_CLEAR,NIGHT_CLEAR,CLEAR,CLEAR,CLEAR","Cross-shore,Offshore,Offshore,Offshore,Cross-shore,Cross-shore,Cross-shore,Cross-shore,Cross-shore",9
5842041f4e65fad6a7708892,2024_02_07,21.662,-158.057,Rockpile,4,1.951111111111111,2.321111111111111,24,24,"NIGHT_SHOWERS,NIGHT_SHOWERS,NIGHT_CLEAR,NIGHT_MOSTLY_CLEAR,NIGHT_CLEAR,NIGHT_CLEAR,CLEAR,CLEAR,CLEAR","Cross-shore,Offshore,Offshore,Offshore,Cross-shore,Cross-shore,Cross-shore,Cross-shore,Cross-shore",9
5842041f4e65fad6a7708893,2024_02_07,21.65870453806827,-158.06058,Log Cabins,3.4444444444444446,1.641111111111111,1.962222222222222,24,24,"NIGHT_SHOWERS,NIGHT_SHOWERS,NIGHT_CLEAR,NIGHT_MOSTLY_CLEAR,NIGHT_CLEAR,NIGHT_CLEAR,CLEAR,CLEAR,CLEAR","Cross-shore,Offshore,Offshore,Offshore,Cross-shore,Cross-shore,Cross-shore,Cross-shore,Cross-shore",9
5842041f4e65fad6a7708894,2024_02_07,21.66203493640557,-158.05495,Off-The-Wall,4,1.9677777777777778,2.351111111111111,24,24,"NIGHT_SHOWERS,NIGHT_SHOWERS,NIGHT_CLEAR,NIGHT_MOSTLY_CLEAR,NIGHT_CLEAR,NIGHT_CLEAR,CLEAR,CLEAR,CLEAR","Offshore,Offshore,Offshore,Offshore,Cross-shore,Cross-shore,Cross-shore,Cross-shore,Cross-shore",9
5842041f4e65fad6a7708895,2024_02_07,21.643,-158.067,Waimea Bay,NA,1.7492592592592593,2.1811666666666665,26,25,"NIGHT_SHOWERS,NIGHT_SHOWERS,NIGHT_CLEAR,NIGHT_MOSTLY_CLEAR,NIGHT_CLEAR,NIGHT_CLEAR,CLEAR,CLEAR,CLEAR","Offshore,Offshore,Offshore,Offshore,Offshore,Cross-shore,Offshore,Offshore,Offshore",9
5842041f4e65fad6a7708896,2024_02_07,21.622,-158.087,Hultin's,3.6855555555555557,1.8856481481481482,2.4546666666666668,26,25,"NIGHT_CLEAR,NIGHT_CLEAR,NIGHT_CLEAR,NIGHT_CLEAR,NIGHT_CLEAR,NIGHT_MOSTLY_CLEAR,CLEAR,CLEAR,CLEAR","Offshore,Offshore,Offshore,Offshore,Offshore,Offshore,Offshore,Offshore,Offshore",9
5842041f4e65fad6a7708897,2024_02_07,21.623,-158.085,Jocko's,3,1.7422222222222221,2.0833333333333335,24,24,"NIGHT_CLEAR,NIGHT_CLEAR,NIGHT_CLEAR,NIGHT_CLEAR,NIGHT_CLEAR,NIGHT_MOSTLY_CLEAR,CLEAR,CLEAR,CLEAR","Cross-shore,Cross-shore,Cross-shore,Cross-shore,Cross-shore,Cross-shore,Cross-shore,Cross-shore,Cross-shore",9
5842041f4e65fad6a7708898,2024_02_07,21.62,-158.088,Laniakea,3.6855555555555557,1.5007592592592593,1.9640925925925925,26,25,"NIGHT_CLEAR,NIGHT_CLEAR,NIGHT_CLEAR,NIGHT_CLEAR,NIGHT_CLEAR,NIGHT_MOSTLY_CLEAR,CLEAR,CLEAR,CLEAR","Offshore,Offshore,Offshore,Offshore,Offshore,Offshore,Offshore,Offshore,Offshore",9
5842041f4e65fad6a7708899,2024_02_07,21.625,-158.083,Chun's,3.3333333333333335,1.71,2.0444444444444443,24,24,"NIGHT_CLEAR,NIGHT_CLEAR,NIGHT_CLEAR,NIGHT_CLEAR,NIGHT_CLEAR,NIGHT_MOSTLY_CLEAR,CLEAR,CLEAR,CLEAR","Offshore,Offshore,Offshore,Offshore,Offshore,Offshore,Offshore,Offshore,Offshore",9
5842041f4e65fad6a770889c,2024_02_07,21.286357895152136,-157.8515,South Shore - Ala Moana Park,2.111111111111111,0.5966666666666667,0.9022222222222223,24.22222222222222,24.22222222222222,"NIGHT_CLEAR,NIGHT_CLEAR,NIGHT_CLEAR,NIGHT_CLEAR,NIGHT_CLEAR,NIGHT_CLEAR,CLEAR,CLEAR,CLEAR","Offshore,Offshore,Offshore,Offshore,Offshore,Offshore,Offshore,Offshore,Offshore",9
5842041f4e65fad6a770889d,2024_02_07,19.606,-155.978,Banyans,3,0.9560666666666666,1.1953111111111112,26,25,"NIGHT_MOSTLY_CLEAR,NIGHT_MOSTLY_CLEAR,NIGHT_CLEAR,NIGHT_CLEAR,NIGHT_CLEAR,NIGHT_CLEAR,CLEAR,CLEAR,CLEAR","Onshore,Cross-shore,Offshore,Offshore,Offshore,Offshore,Onshore,Onshore,Onshore",9
5842041f4e65fad6a770889e,2024_02_07,20.029,-155.831,Kawaihae,2,0.4444,0.6979511111111111,25,25,"NIGHT_MOSTLY_CLEAR,NIGHT_CLEAR,NIGHT_MOSTLY_CLEAR,NIGHT_CLEAR,NIGHT_CLEAR,NIGHT_CLEAR,CLEAR,CLEAR,CLEAR","Offshore,Offshore,Offshore,Offshore,Offshore,Offshore,Offshore,Offshore,Offshore",9
5842041f4e65fad6a770889f,2024_02_07,33.07541383424675,-117.3105,Grandview,1.5555555555555556,1.2433333333333334,1.55,15,15,"NIGHT_FOG,NIGHT_MOSTLY_CLOUDY,NIGHT_CLEAR,NIGHT_SHOWERS,CLEAR,FOG,MOSTLY_CLOUDY,MOSTLY_CLOUDY,MOSTLY_CLOUDY","Onshore,Onshore,Onshore,Onshore,Cross-shore,Offshore,Offshore,Onshore,Onshore",9
5842041f4e65fad6a77088a0,2024_02_07,33.065267421296596,-117.30577,Beacons,1.4444444444444444,1.2222222222222223,1.5255555555555556,15,15,"NIGHT_FOG,NIGHT_MOSTLY_CLOUDY,NIGHT_CLEAR,NIGHT_SHOWERS,CLEAR,FOG,MOSTLY_CLOUDY,MOSTLY_CLOUDY,MOSTLY_CLOUDY","Onshore,Onshore,Onshore,Onshore,Offshore,Offshore,Offshore,Onshore,Onshore",9
5842041f4e65fad6a77088a2,2024_02_07,21.252,-157.805,Diamond Head,2.6666666666666665,0.852305,1.1675194444444446,26,25,"NIGHT_CLEAR,NIGHT_CLEAR,NIGHT_MOSTLY_CLEAR,NIGHT_CLEAR,NIGHT_CLEAR,NIGHT_CLEAR,CLEAR,CLEAR,CLEAR","Cross-shore,Cross-shore,Cross-shore,Cross-shore,Cross-shore,Cross-shore,Cross-shore,Cross-shore,Cross-shore",9
5842041f4e65fad6a77088a3,2024_02_07,33.04694255008896,-117.29966,Moonlight State Beach,1.4444444444444444,1.2077777777777778,1.511111111111111,15,15,"NIGHT_MOSTLY_CLOUDY,NIGHT_MOSTLY_CLOUDY,NIGHT_CLEAR,NIGHT_SHOWERS,CLEAR,LIGHT_SHOWERS_POSSIBLE,MIST,CLEAR,MOSTLY_CLOUDY","Onshore,Onshore,Onshore,Onshore,Onshore,Cross-shore,Offshore,Onshore,Onshore",9
5842041f4e65fad6a77088a5,2024_02_07,33.08685865930869,-117.31532,Ponto,1.5555555555555556,1.1488888888888888,1.4477777777777778,15,15,"NIGHT_FOG,NIGHT_MOSTLY_CLOUDY,NIGHT_CLEAR,NIGHT_SHOWERS,CLEAR,FOG,MOSTLY_CLOUDY,MOSTLY_CLOUDY,MOSTLY_CLOUDY","Onshore,Onshore,Onshore,Onshore,Cross-shore,Offshore,Offshore,Onshore,Onshore",9
5842041f4e65fad6a77088a6,2024_02_07,33.130343587871906,-117.33667796442558,Terra Mar Point,1.6666666666666667,0.9308111111111111,1.2369481481481481,16,16,"NIGHT_FOG,NIGHT_MOSTLY_CLOUDY,NIGHT_HEAVY_SHOWERS,NIGHT_MOSTLY_CLOUDY,HEAVY_SHOWERS,MIST,SHOWERS,BRIEF_SHOWERS,MOSTLY_CLOUDY","Onshore,Onshore,Onshore,Onshore,Cross-shore,Offshore,Cross-shore,Onshore,Onshore",9
5842041f4e65fad6a77088af,2024_02_07,32.95916304183685,-117.26963,Del Mar,1.1111111111111112,1.0255555555555556,1.3122222222222222,15.777777777777779,15.777777777777779,"NIGHT_MOSTLY_CLOUDY,NIGHT_MOSTLY_CLOUDY,NIGHT_MOSTLY_CLOUDY,NIGHT_MOSTLY_CLOUDY,CLEAR,LIGHT_SHOWERS_POSSIBLE,MOSTLY_CLOUDY,CLEAR,BRIEF_SHOWERS","Onshore,Onshore,Onshore,Onshore,Onshore,Onshore,Offshore,Onshore,Onshore",9
5842041f4e65fad6a77088b0,2024_02_07,32.97527261243354,-117.2721061331305,Del Mar Rivermouth,1.1111111111111112,1.1322222222222222,1.4322222222222223,15.777777777777779,15.777777777777779,"NIGHT_MOSTLY_CLOUDY,NIGHT_BRIEF_SHOWERS,NIGHT_MOSTLY_CLOUDY,NIGHT_MOSTLY_CLOUDY,CLEAR,SHOWERS,MOSTLY_CLOUDY,CLEAR,BRIEF_SHOWERS","Onshore,Onshore,Onshore,Onshore,Onshore,Onshore,Offshore,Onshore,Onshore",9
5842041f4e65fad6a77088b1,2024_02_07,33.01352178146273,-117.28219,Cardiff Reef,1,1.2654407407407406,1.6477148148148149,16,16,"NIGHT_MOSTLY_CLOUDY,NIGHT_MOSTLY_CLOUDY,NIGHT_CLEAR,NIGHT_BRIEF_SHOWERS,MOSTLY_CLOUDY,BRIEF_SHOWERS_POSSIBLE,BRIEF_SHOWERS,CLEAR,MOSTLY_CLOUDY","Onshore,Onshore,Onshore,Onshore,Onshore,Cross-shore,Cross-shore,Onshore,Onshore",9
5842041f4e65fad6a77088b3,2024_02_07,33.00211185876003,-117.2811,Seaside Reef,1,1.0605333333333333,1.424474074074074,16,16,"NIGHT_MOSTLY_CLOUDY,NIGHT_MOSTLY_CLOUDY,NIGHT_MOSTLY_CLOUDY,NIGHT_MOSTLY_CLOUDY,MOSTLY_CLOUDY,MOSTLY_CLOUDY,MIST,CLEAR,MOSTLY_CLOUDY","Onshore,Onshore,Onshore,Onshore,Onshore,Onshore,Onshore,Onshore,Onshore",9
5842041f4e65fad6a77088b4,2024_02_07,33.0341859796287,-117.29552,Swami's,1,0.9427555555555556,1.306788888888889,16,16,"NIGHT_MOSTLY_CLOUDY,NIGHT_MOSTLY_CLOUDY,NIGHT_CLEAR,NIGHT_BRIEF_SHOWERS,MOSTLY_CLOUDY,BRIEF_SHOWERS_POSSIBLE,BRIEF_SHOWERS,CLEAR,MOSTLY_CLOUDY","Onshore,Onshore,Onshore,Onshore,Onshore,Cross-shore,Offshore,Onshore,Onshore",9
5842041f4e65fad6a77088b7,2024_02_07,33.04569760260221,-117.2994,D Street,1.2222222222222223,1.1144444444444446,1.3833333333333333,15,15,"NIGHT_MOSTLY_CLOUDY,NIGHT_MOSTLY_CLOUDY,NIGHT_CLEAR,NIGHT_SHOWERS,CLEAR,LIGHT_SHOWERS_POSSIBLE,MIST,CLEAR,MOSTLY_CLOUDY","Onshore,Onshore,Onshore,Onshore,Onshore,Cross-shore,Offshore,Onshore,Onshore",9
5842041f4e65fad6a77088b8,2024_02_07,33.02090944350196,-117.28535,San Elijo State Beach,1.4444444444444444,1.0082185185185186,1.3971592592592592,16,16,"NIGHT_MOSTLY_CLOUDY,NIGHT_MOSTLY_CLOUDY,NIGHT_CLEAR,NIGHT_BRIEF_SHOWERS,MOSTLY_CLOUDY,BRIEF_SHOWERS_POSSIBLE,BRIEF_SHOWERS,CLEAR,MOSTLY_CLOUDY","Onshore,Onshore,Onshore,Onshore,Onshore,Cross-shore,Cross-shore,Onshore,Onshore",9
5842041f4e65fad6a77088c2,2024_02_07,32.80662846492798,-117.2688764333725,PB Point,2.111111111111111,1.1133333333333333,1.3411111111111111,15.777777777777779,15.777777777777779,"NIGHT_CLOUDY,NIGHT_OVERCAST,NIGHT_CLEAR,NIGHT_LIGHT_SHOWERS_POSSIBLE,MOSTLY_CLOUDY,CLEAR,BRIEF_SHOWERS,MOSTLY_CLOUDY,CLEAR","Cross-shore,Cross-shore,Cross-shore,Cross-shore,Onshore,Onshore,Cross-shore,Cross-shore,Cross-shore",9
5842041f4e65fad6a77088c4,2024_02_07,32.8060476681448,-117.26479,Old Man's at Tourmaline,2,1.021111111111111,1.2677777777777777,15.777777777777779,15.777777777777779,"NIGHT_CLOUDY,NIGHT_OVERCAST,NIGHT_CLEAR,NIGHT_LIGHT_SHOWERS_POSSIBLE,MOSTLY_CLOUDY,CLEAR,BRIEF_SHOWERS,MOSTLY_CLOUDY,CLEAR","Onshore,Cross-shore,Cross-shore,Offshore,Cross-shore,Offshore,Cross-shore,Cross-shore,Cross-shore",9
5842041f4e65fad6a77088cb,2024_02_07,32.557056711256,-117.1327445020322,Tijuana Slough,1,0.9811111111111112,1.2333333333333334,15.777777777777779,15.777777777777779,"NIGHT_CLEAR,NIGHT_MOSTLY_CLOUDY,NIGHT_MOSTLY_CLOUDY,NIGHT_OVERCAST,CLEAR,LIGHT_RAIN,MOSTLY_CLOUDY,MOSTLY_CLEAR,MOSTLY_CLOUDY","Onshore,Onshore,Onshore,Onshore,Onshore,Onshore,Onshore,Onshore,Onshore",9
5842041f4e65fad6a77088cc,2024_02_07,32.863,-117.257,La Jolla Shores,1.2222222222222223,0.9588888888888889,1.2522222222222221,15.777777777777779,15.777777777777779,"NIGHT_CLOUDY,NIGHT_OVERCAST,NIGHT_BRIEF_SHOWERS,NIGHT_CLEAR,CLEAR,MOSTLY_CLOUDY,MOSTLY_CLOUDY,MOSTLY_CLOUDY,MOSTLY_CLOUDY","Onshore,Onshore,Onshore,Cross-shore,Onshore,Onshore,Onshore,Onshore,Onshore",9
5842041f4e65fad6a77088ce,2024_02_07,32.67443657790586,-117.17421316238693,Coronado Beach,2,1.1466666666666667,1.3955555555555557,15.777777777777779,15.777777777777779,"NIGHT_CLEAR,NIGHT_DRIZZLE,NIGHT_MOSTLY_CLOUDY,NIGHT_OVERCAST,CLEAR,MOSTLY_CLOUDY,MOSTLY_CLOUDY,HEAVY_SHOWERS,CLEAR","Onshore,Cross-shore,Onshore,Onshore,Onshore,Onshore,Cross-shore,Cross-shore,Cross-shore",9
5842041f4e65fad6a77088cf,2024_02_07,33.40484417640326,-117.60749,San Clemente State Beach,2,0.8966666666666666,1.1588888888888889,15,15,"NIGHT_MOSTLY_CLOUDY,NIGHT_HEAVY_SHOWERS,NIGHT_MOSTLY_CLOUDY,NIGHT_MOSTLY_CLOUDY,MOSTLY_CLOUDY,MOSTLY_CLOUDY,SHOWERS,MOSTLY_CLOUDY,CLEAR","Onshore,Onshore,Onshore,Onshore,Offshore,Cross-shore,Onshore,Onshore,Onshore",9
5842041f4e65fad6a77088d5,2024_02_07,33.4663042002114,-117.7168352817103,Strands,2,0.8873,1.2642333333333333,15,15,"NIGHT_OVERCAST,NIGHT_CLEAR,NIGHT_MOSTLY_CLOUDY,NIGHT_MOSTLY_CLOUDY,MOSTLY_CLOUDY,MOSTLY_CLOUDY,MOSTLY_CLOUDY,MOSTLY_CLOUDY,CLEAR","Onshore,Onshore,Onshore,Onshore,Onshore,Onshore,Onshore,Onshore,Onshore",9
5842041f4e65fad6a77088d7,2024_02_07,33.4609858001748,-117.68535,Doheny State Beach,1.6666666666666667,0.13077407407407407,0.43372962962962963,16,16,"NIGHT_OVERCAST,NIGHT_MOSTLY_CLOUDY,NIGHT_CLEAR,NIGHT_MOSTLY_CLOUDY,MOSTLY_CLOUDY,MOSTLY_CLOUDY,MIST,CLEAR,MOSTLY_CLOUDY","Offshore,Offshore,Offshore,Cross-shore,Offshore,Offshore,Cross-shore,Cross-shore,Onshore",9
5842041f4e65fad6a77088dc,2024_02_07,33.50894790083017,-117.75243,Aliso Creek,1.4444444444444444,0.7811111111111111,1.0622222222222222,15,15,"NIGHT_CLOUDY,NIGHT_MOSTLY_CLOUDY,NIGHT_MOSTLY_CLOUDY,NIGHT_CLEAR,BRIEF_SHOWERS,MOSTLY_CLOUDY,CLEAR,MOSTLY_CLOUDY,MOSTLY_CLOUDY","Onshore,Onshore,Onshore,Onshore,Onshore,Onshore,Onshore,Onshore,Onshore",9
5842041f4e65fad6a77088dd,2024_02_07,33.5326591767067,-117.77764,Brooks Street,1.4444444444444444,0.6433333333333333,0.9477777777777778,15,15,"NIGHT_CLOUDY,NIGHT_MOSTLY_CLOUDY,NIGHT_MOSTLY_CLOUDY,NIGHT_CLEAR,BRIEF_SHOWERS,MOSTLY_CLOUDY,MOSTLY_CLOUDY,MOSTLY_CLOUDY,MOSTLY_CLOUDY","Onshore,Onshore,Onshore,Onshore,Onshore,Onshore,Onshore,Onshore,Cross-shore",9
5842041f4e65fad6a77088de,2024_02_07,33.53561225884637,-117.7799,Thalia Street,1.3333333333333333,0.6555555555555556,0.9588888888888889,15,15,"NIGHT_CLOUDY,NIGHT_MOSTLY_CLOUDY,NIGHT_MOSTLY_CLOUDY,NIGHT_CLEAR,BRIEF_SHOWERS,MOSTLY_CLOUDY,MOSTLY_CLOUDY,MOSTLY_CLOUDY,MOSTLY_CLOUDY","Onshore,Onshore,Onshore,Cross-shore,Cross-shore,Onshore,Onshore,Onshore,Cross-shore",9
5842041f4e65fad6a77088e3,2024_02_07,33.54268310353641,-117.7916,Rockpile,1.3333333333333333,0.8,1.05,15,15,"NIGHT_CLOUDY,NIGHT_MOSTLY_CLOUDY,NIGHT_MOSTLY_CLOUDY,NIGHT_CLEAR,BRIEF_SHOWERS,MOSTLY_CLOUDY,MOSTLY_CLOUDY,MOSTLY_CLOUDY,MOSTLY_CLOUDY","Onshore,Onshore,Onshore,Cross-shore,Cross-shore,Onshore,Onshore,Cross-shore,Cross-shore",9
5842041f4e65fad6a77088e4,2024_02_07,33.7368459504689,-118.10342,"Seal Beach Pier, Southside",2,0.27,0.5744444444444444,15,15,"NIGHT_LIGHT_SHOWERS_POSSIBLE,NIGHT_CLEAR,NIGHT_CLEAR,NIGHT_SHOWERS,MIST,FOG,MIST,MIST,MOSTLY_CLOUDY","Cross-shore,Offshore,Offshore,Offshore,Offshore,Offshore,Onshore,Onshore,Onshore",9
5842041f4e65fad6a77088e5,2024_02_07,33.73933701820233,-118.117,Ray Bay,2,0.23,0.5322222222222223,15,15,"NIGHT_MIST,NIGHT_FOG,NIGHT_CLEAR,NIGHT_MIST,MIST,MOSTLY_CLOUDY,MIST,MIST,MIST","Cross-shore,Offshore,Offshore,Offshore,Offshore,Offshore,Onshore,Onshore,Onshore",9
5842041f4e65fad6a77088e7,2024_02_07,33.728733,-118.08982,Surfside,2.7777777777777777,0.6033333333333333,0.9088888888888889,15,15,"NIGHT_HEAVY_SHOWERS,NIGHT_CLEAR,NIGHT_CLEAR,NIGHT_MOSTLY_CLOUDY,MIST,MIST,MIST,MIST,MOSTLY_CLOUDY","Cross-shore,Offshore,Offshore,Offshore,Offshore,Offshore,Onshore,Onshore,Onshore",9
5842041f4e65fad6a77088e8,2024_02_07,33.68760321488161,-118.04236,Bolsa Chica State Beach,1.9444444444444444,0.7657592592592593,1.1055925925925925,14,14,"NIGHT_BRIEF_SHOWERS,NIGHT_MOSTLY_CLOUDY,NIGHT_MOSTLY_CLOUDY,NIGHT_CLEAR,SHOWERS,MIST,BRIEF_SHOWERS,MOSTLY_CLOUDY,MOSTLY_CLOUDY","Onshore,Onshore,Onshore,Onshore,Offshore,Offshore,Onshore,Onshore,Onshore",9
5842041f4e65fad6a77088ea,2024_02_07,33.66704400178788,-118.0192,North HB Streets,1.981111111111111,0.9814592592592593,1.3145703703703704,14,14,"NIGHT_BRIEF_SHOWERS,NIGHT_MOSTLY_CLOUDY,NIGHT_MOSTLY_CLOUDY,NIGHT_CLEAR,FOG,MIST,MOSTLY_CLOUDY,CLEAR,MOSTLY_CLOUDY","Onshore,Onshore,Onshore,Onshore,Offshore,Cross-shore,Onshore,Onshore,Cross-shore",9
5842041f4e65fad6a77088ed,2024_02_07,33.65475101379567,-118.00291,Huntington Beach Pier Southside,1.8711111111111112,0.9780333333333333,1.2868555555555556,14,14,"NIGHT_FOG,NIGHT_MOSTLY_CLOUDY,NIGHT_BRIEF_SHOWERS,NIGHT_MOSTLY_CLOUDY,FOG,MIST,MIST,MOSTLY_CLOUDY,MOSTLY_CLOUDY","Offshore,Onshore,Onshore,Offshore,Offshore,Offshore,Onshore,Onshore,Onshore",9
5842041f4e65fad6a77088ee,2024_02_07,33.62778647706099,-117.95939,River Jetties,2.0555555555555554,0.8533518518518518,1.2199444444444443,15,15,"NIGHT_FOG,NIGHT_SHOWERS,NIGHT_BRIEF_SHOWERS,NIGHT_CLEAR,FOG,MOSTLY_CLEAR,MIST,MOSTLY_CLOUDY,CLEAR","Offshore,Onshore,Cross-shore,Offshore,Offshore,Offshore,Onshore,Onshore,Onshore",9
5842041f4e65fad6a77088f2,2024_02_07,33.605165797643664,-117.92500376701355,Newport Point,2.3333333333333335,0.9488888888888889,1.1366666666666667,15,15,"NIGHT_MOSTLY_CLOUDY,NIGHT_HEAVY_SHOWERS,NIGHT_MOSTLY_CLOUDY,NIGHT_CLEAR,CLEAR,MOSTLY_CLEAR,BRIEF_SHOWERS,MOSTLY_CLOUDY,CLEAR","Cross-shore,Onshore,Onshore,Cross-shore,Offshore,Onshore,Onshore,Cross-shore,Cross-shore",9
5842041f4e65fad6a77088f3,2024_02_07,33.58982984726977,-117.87713,Corona del Mar,2,0.23686555555555555,0.3701011111111111,15,15,"NIGHT_MOSTLY_CLOUDY,NIGHT_SHOWERS,NIGHT_BRIEF_SHOWERS_POSSIBLE,NIGHT_SHOWERS,CLEAR,MOSTLY_CLEAR,MOSTLY_CLOUDY,MOSTLY_CLOUDY,MOSTLY_CLOUDY","Offshore,Offshore,Offshore,Offshore,Offshore,Offshore,Onshore,Onshore,Onshore",9
5842041f4e65fad6a77088f7,2024_02_07,34.00750300824362,-118.4971783496269,Santa Monica Pier,2.4444444444444446,0.68,0.9855555555555555,15,15,"NIGHT_MOSTLY_CLOUDY,NIGHT_MOSTLY_CLOUDY,NIGHT_MOSTLY_CLOUDY,NIGHT_MOSTLY_CLOUDY,MIST,MIST,MIST,MOSTLY_CLOUDY,MOSTLY_CLOUDY","Onshore,Onshore,Onshore,Cross-shore,Offshore,Offshore,Offshore,Cross-shore,Onshore",9
5842041f4e65fad6a77088ff,2024_02_07,33.94070283102945,-118.44321,Dockweiler Beach,2,1.0203512037037037,1.2697406481481481,15,15,"NIGHT_MOSTLY_CLOUDY,NIGHT_MOSTLY_CLOUDY,NIGHT_MOSTLY_CLOUDY,NIGHT_MOSTLY_CLOUDY,FOG,FOG,CLEAR,MOSTLY_CLOUDY,MOSTLY_CLOUDY","Onshore,Onshore,Onshore,Onshore,Offshore,Offshore,Offshore,Onshore,Onshore",9
5842041f4e65fad6a7708900,2024_02_07,33.9231846937237,-118.4341465777908,Shitpipe,1.87,0.9468518518518518,1.2545111111111111,15,15,"NIGHT_MOSTLY_CLOUDY,NIGHT_MOSTLY_CLOUDY,NIGHT_MOSTLY_CLOUDY,NIGHT_MOSTLY_CLOUDY,FOG,MIST,CLEAR,MOSTLY_CLOUDY,MOSTLY_CLOUDY","Onshore,Onshore,Onshore,Onshore,Offshore,Offshore,Offshore,Onshore,Onshore",9
5842041f4e65fad6a7708902,2024_02_07,33.9108528052242,-118.4279133138721,Hammerland,2.3144444444444443,1.009074074074074,1.4237296296296296,15,15,"NIGHT_MOSTLY_CLOUDY,NIGHT_MOSTLY_CLOUDY,NIGHT_MOSTLY_CLOUDY,NIGHT_MOSTLY_CLOUDY,MOSTLY_CLOUDY,MIST,CLEAR,MOSTLY_CLOUDY,MOSTLY_CLOUDY","Onshore,Onshore,Onshore,Onshore,Onshore,Offshore,Offshore,Onshore,Onshore",9
5842041f4e65fad6a7708904,2024_02_07,33.87201368173932,-118.4075151286262,Hermosa Beach,1.63,0.8042592592592592,1.1792592592592592,15,15,"NIGHT_MOSTLY_CLOUDY,NIGHT_MOSTLY_CLOUDY,NIGHT_MOSTLY_CLOUDY,NIGHT_MOSTLY_CLOUDY,FOG,MIST,MIST,CLEAR,MOSTLY_CLOUDY","Onshore,Onshore,Onshore,Onshore,Offshore,Offshore,Offshore,Onshore,Onshore",9
5842041f4e65fad6a7708906,2024_02_07,33.90129336911256,-118.42184,El Porto,2.203333333333333,1.0816666666666668,1.5189148148148148,15,15,"NIGHT_MOSTLY_CLOUDY,NIGHT_MOSTLY_CLOUDY,NIGHT_MOSTLY_CLOUDY,NIGHT_MOSTLY_CLOUDY,FOG,MIST,CLEAR,CLEAR,MOSTLY_CLOUDY","Onshore,Onshore,Onshore,Onshore,Offshore,Offshore,Offshore,Onshore,Onshore",9
5842041f4e65fad6a7708907,2024_02_07,33.87963506431794,-118.41102,Manhattan Beach Pier,2.0922222222222224,1.1097222222222223,1.3992592592592592,15,15,"NIGHT_MOSTLY_CLOUDY,NIGHT_MOSTLY_CLOUDY,NIGHT_MOSTLY_CLOUDY,NIGHT_MOSTLY_CLOUDY,FOG,MIST,CLEAR,CLEAR,MOSTLY_CLOUDY","Onshore,Onshore,Onshore,Onshore,Offshore,Offshore,Offshore,Onshore,Onshore",9
5842041f4e65fad6a7708914,2024_02_07,34.038053387863464,-118.5532,Sunset Point,2.7777777777777777,0.5144444444444445,0.8188888888888889,15,15,"NIGHT_CLEAR,NIGHT_MOSTLY_CLOUDY,NIGHT_MOSTLY_CLOUDY,NIGHT_CLEAR,CLEAR,MOSTLY_CLOUDY,CLEAR,MOSTLY_CLOUDY,MOSTLY_CLOUDY","Offshore,Offshore,Offshore,Offshore,Offshore,Offshore,Onshore,Onshore,Onshore",9
5842041f4e65fad6a7708920,2024_02_07,33.80930828074364,-118.3933198342649,Haggerty's,1.3333333333333333,0.26666666666666666,0.45,15,15,"NIGHT_MOSTLY_CLOUDY,NIGHT_MOSTLY_CLOUDY,NIGHT_MOSTLY_CLOUDY,NIGHT_MOSTLY_CLOUDY,FOG,MIST,MIST,MOSTLY_CLOUDY,MOSTLY_CLOUDY","Onshore,Onshore,Onshore,Onshore,Offshore,Offshore,Onshore,Onshore,Onshore",9
5842041f4e65fad6a7708921,2024_02_07,33.85044519861206,-118.40048,Redondo Breakwater,2.3333333333333335,1.0566666666666666,1.36,15,15,"NIGHT_MOSTLY_CLOUDY,NIGHT_MOSTLY_CLOUDY,NIGHT_MOSTLY_CLOUDY,NIGHT_MOSTLY_CLOUDY,FOG,MIST,MIST,CLEAR,MOSTLY_CLOUDY","Onshore,Onshore,Onshore,Onshore,Offshore,Offshore,Offshore,Onshore,Onshore",9
5842041f4e65fad6a7708927,2024_02_07,33.70877301002487,-118.2840112858389,Cabrillo Beach,2,0.29555555555555557,0.6033333333333333,15.222222222222221,15.222222222222221,"NIGHT_CLEAR,NIGHT_MOSTLY_CLOUDY,NIGHT_CLEAR,NIGHT_CLEAR,FOG,CLEAR,MOSTLY_CLOUDY,CLEAR,MOSTLY_CLOUDY","Offshore,Offshore,Offshore,Offshore,Cross-shore,Cross-shore,Offshore,Offshore,Offshore",9
5842041f4e65fad6a770892c,2024_02_07,33.77209986806257,-118.4268428476672,Lunada Bay,1.3333333333333333,1.1488888888888888,1.3911111111111112,15,15,"NIGHT_MOSTLY_CLOUDY,NIGHT_MOSTLY_CLOUDY,NIGHT_MOSTLY_CLOUDY,NIGHT_CLEAR,FOG,FOG,MOSTLY_CLOUDY,MOSTLY_CLOUDY,MOSTLY_CLOUDY","Onshore,Onshore,Onshore,Onshore,Offshore,Onshore,Cross-shore,Cross-shore,Onshore",9
5842041f4e65fad6a770892d,2024_02_07,33.79294656286144,-118.4070316699825,PV Cove,1.7777777777777777,0.8700166666666667,1.1259666666666666,15,15,"NIGHT_MOSTLY_CLOUDY,NIGHT_MOSTLY_CLOUDY,NIGHT_MOSTLY_CLOUDY,NIGHT_MOSTLY_CLOUDY,FOG,MIST,MIST,MOSTLY_CLOUDY,MOSTLY_CLOUDY","Onshore,Onshore,Onshore,Onshore,Offshore,Offshore,Onshore,Onshore,Onshore",9
5842041f4e65fad6a7708930,2024_02_07,34.03944902292561,-118.57539,Chart House,2.7777777777777777,0.4577777777777778,0.7644444444444445,15,15,"NIGHT_CLEAR,NIGHT_FOG,NIGHT_MOSTLY_CLOUDY,NIGHT_CLEAR,FOG,MIST,MIST,MIST,MIST","Offshore,Offshore,Offshore,Offshore,Offshore,Offshore,Onshore,Onshore,Onshore",9
5842041f4e65fad6a7708936,2024_02_07,34.0016731994772,-118.80456,Point Dume,1.63,0.3367222222222222,0.6430333333333333,15,15,"NIGHT_OVERCAST,NIGHT_OVERCAST,NIGHT_CLEAR,NIGHT_MOSTLY_CLEAR,MOSTLY_CLEAR,CLEAR,CLEAR,CLEAR,CLEAR","Cross-shore,Cross-shore,Offshore,Offshore,Onshore,Onshore,Cross-shore,Cross-shore,Cross-shore",9
5842041f4e65fad6a7708937,2024_02_07,34.02587527588963,-118.7554939066114,Latigo Point,2.111111111111111,0.38222222222222224,0.6866666666666666,15,15,"NIGHT_MOSTLY_CLOUDY,NIGHT_CLOUDY,NIGHT_CLEAR,NIGHT_CLEAR,FOG,MIST,CLEAR,CLEAR,CLEAR","Cross-shore,Cross-shore,Offshore,Offshore,Onshore,Onshore,Onshore,Cross-shore,Cross-shore",9
5842041f4e65fad6a770893f,2024_02_07,34.043762,-118.93294,Leo Carrillo,2.296666666666667,0.6735888888888889,1.017711111111111,15,15,"NIGHT_OVERCAST,NIGHT_CLOUDY,NIGHT_CLEAR,NIGHT_CLEAR,CLEAR,CLEAR,CLEAR,CLEAR,CLEAR","Offshore,Offshore,Offshore,Offshore,Offshore,Offshore,Cross-shore,Cross-shore,Cross-shore",9
5842041f4e65fad6a7708941,2024_02_07,36.69388179265737,-121.81289,Marina State Beach,2,2.1533333333333333,2.5733333333333333,13,13,"NIGHT_MOSTLY_CLEAR,NIGHT_MOSTLY_CLOUDY,NIGHT_CLEAR,NIGHT_MOSTLY_CLOUDY,NIGHT_MOSTLY_CLEAR,CLEAR,LIGHT_RAIN,RAIN,OVERCAST","Onshore,Onshore,Onshore,Onshore,Onshore,Onshore,Onshore,Onshore,Cross-shore",9
5842041f4e65fad6a7708944,2024_02_07,34.34145077331085,-119.416999352654,Stanley's,2.4444444444444446,0.57,0.8733333333333333,14.222222222222221,14.222222222222221,"NIGHT_CLEAR,NIGHT_CLEAR,NIGHT_CLEAR,NIGHT_CLEAR,CLEAR,CLEAR,CLEAR,CLEAR,CLEAR","Onshore,Onshore,Cross-shore,Onshore,Offshore,Onshore,Onshore,Onshore,Onshore",9
5842041f4e65fad6a7708945,2024_02_07,34.35113017313915,-119.426921498899,Oil Piers,2.4444444444444446,0.46222222222222226,0.7666666666666666,14.222222222222221,14.222222222222221,"NIGHT_CLEAR,NIGHT_CLEAR,NIGHT_CLEAR,NIGHT_CLEAR,CLEAR,CLEAR,CLEAR,CLEAR,CLEAR","Onshore,Onshore,Offshore,Onshore,Cross-shore,Onshore,Onshore,Onshore,Onshore",9
5842041f4e65fad6a770894c,2024_02_07,34.17876333306018,-119.2399483564372,Oxnard,2.111111111111111,0.8177777777777777,1.0577777777777777,15,15,"NIGHT_CLEAR,NIGHT_CLEAR,NIGHT_CLEAR,NIGHT_CLEAR,MIST,MOSTLY_CLEAR,CLEAR,CLEAR,CLEAR","Onshore,Onshore,Cross-shore,Cross-shore,Offshore,Offshore,Onshore,Onshore,Onshore",9
5842041f4e65fad6a7708957,2024_02_07,34.31720331100517,-119.3882324751725,Pitas Point,2.6666666666666665,0.5622222222222222,0.8688888888888888,14.222222222222221,14.222222222222221,"NIGHT_CLEAR,NIGHT_CLEAR,NIGHT_CLEAR,NIGHT_CLEAR,CLEAR,CLEAR,CLEAR,CLEAR,CLEAR","Offshore,Cross-shore,Offshore,Offshore,Offshore,Offshore,Offshore,Cross-shore,Cross-shore",9
5842041f4e65fad6a7708959,2024_02_07,34.27851754384724,-119.316202617226,Emma Wood,2.4444444444444446,0.5266666666666666,0.8311111111111111,15,15,"NIGHT_CLEAR,NIGHT_CLEAR,NIGHT_CLEAR,NIGHT_CLEAR,CLEAR,CLEAR,CLEAR,CLEAR,CLEAR","Offshore,Offshore,Cross-shore,Offshore,Offshore,Offshore,Cross-shore,Onshore,Onshore",9
5842041f4e65fad6a770895a,2024_02_07,34.35513640390276,-119.4400589884255,Mussel Shoals (aka Little Rincon),2,0.5700000000000001,0.8733333333333333,14.222222222222221,14.222222222222221,"NIGHT_CLEAR,NIGHT_CLEAR,NIGHT_CLEAR,NIGHT_CLEAR,CLEAR,CLEAR,CLEAR,CLEAR,CLEAR","Cross-shore,Cross-shore,Cross-shore,Cross-shore,Cross-shore,Onshore,Cross-shore,Cross-shore,Onshore",9
5842041f4e65fad6a770895e,2024_02_07,34.28991757054902,-119.3366646794652,Summer Beach,2.111111111111111,0.3988888888888889,0.7044444444444444,15,15,"NIGHT_CLEAR,NIGHT_CLEAR,NIGHT_CLEAR,NIGHT_CLEAR,CLEAR,CLEAR,CLEAR,CLEAR,CLEAR","Offshore,Cross-shore,Cross-shore,Offshore,Offshore,Offshore,Offshore,Onshore,Onshore",9
5842041f4e65fad6a770895f,2024_02_07,34.30897456105926,-119.3582501170116,Solimar,2.6666666666666665,0.4311111111111111,0.7355555555555555,14.222222222222221,14.222222222222221,"NIGHT_CLEAR,NIGHT_CLEAR,NIGHT_CLEAR,NIGHT_CLEAR,CLEAR,CLEAR,CLEAR,CLEAR,CLEAR","Offshore,Cross-shore,Offshore,Offshore,Offshore,Cross-shore,Offshore,Cross-shore,Cross-shore",9
5842041f4e65fad6a7708960,2024_02_07,34.39836265281686,-119.70213,Leadbetter Point,2,0.08,0.3844444444444444,14.222222222222221,14.222222222222221,"NIGHT_CLEAR,NIGHT_CLEAR,NIGHT_CLEAR,NIGHT_CLEAR,CLEAR,CLEAR,CLEAR,CLEAR,CLEAR","Offshore,Offshore,Offshore,Offshore,Offshore,Offshore,Offshore,Offshore,Offshore",9
5842041f4e65fad6a7708961,2024_02_07,34.46052293893899,-120.07328,Refugio,1,0.14555555555555555,0.45222222222222225,14,14,"NIGHT_CLEAR,NIGHT_CLEAR,NIGHT_CLEAR,NIGHT_CLEAR,CLEAR,CLEAR,CLEAR,CLEAR,CLEAR","Offshore,Offshore,Offshore,Offshore,Offshore,Offshore,Offshore,Offshore,Offshore",9
5842041f4e65fad6a7708962,2024_02_07,34.40754276777778,-119.87639,Devereux,2.4444444444444446,0.48333333333333334,0.7866666666666666,14,14,"NIGHT_CLEAR,NIGHT_CLEAR,NIGHT_CLEAR,NIGHT_CLEAR,CLEAR,CLEAR,CLEAR,CLEAR,CLEAR","Offshore,Offshore,Offshore,Offshore,Offshore,Offshore,Offshore,Offshore,Offshore",9
5842041f4e65fad6a7708963,2024_02_07,34.27479983305182,-119.3133222656776,Ventura Overhead,2.2222222222222223,0.5611111111111111,0.8677777777777778,15,15,"NIGHT_CLEAR,NIGHT_CLEAR,NIGHT_CLEAR,NIGHT_CLEAR,CLEAR,CLEAR,CLEAR,CLEAR,CLEAR","Offshore,Cross-shore,Cross-shore,Offshore,Offshore,Offshore,Cross-shore,Onshore,Onshore",9
5842041f4e65fad6a7708964,2024_02_07,34.41023236011655,-119.88261,Sands,1.4444444444444444,0.5599999999999999,0.8644444444444445,14,14,"NIGHT_CLEAR,NIGHT_CLEAR,NIGHT_CLEAR,NIGHT_CLEAR,CLEAR,CLEAR,CLEAR,CLEAR,CLEAR","Cross-shore,Cross-shore,Cross-shore,Cross-shore,Cross-shore,Cross-shore,Cross-shore,Cross-shore,Onshore",9
5842041f4e65fad6a7708966,2024_02_07,34.40450193869233,-119.68752,Sandspit,1,0,0.26555555555555554,14.222222222222221,14.222222222222221,"NIGHT_CLEAR,NIGHT_CLEAR,NIGHT_CLEAR,NIGHT_CLEAR,CLEAR,CLEAR,CLEAR,CLEAR,CLEAR","Offshore,Offshore,Offshore,Offshore,Offshore,Offshore,Offshore,Offshore,Offshore",9
5842041f4e65fad6a7708967,2024_02_07,34.41549098334453,-119.6375149840203,Hammond's,1.5555555555555556,0.08222222222222222,0.3844444444444444,14.222222222222221,14.222222222222221,"NIGHT_CLEAR,NIGHT_CLEAR,NIGHT_CLEAR,NIGHT_CLEAR,CLEAR,CLEAR,CLEAR,CLEAR,CLEAR","Offshore,Offshore,Offshore,Offshore,Offshore,Offshore,Offshore,Offshore,Offshore",9
5842041f4e65fad6a7708968,2024_02_07,34.45759322742309,-120.0220251867315,El Capitan,1,0.26555555555555554,0.5688888888888889,14,14,"NIGHT_CLEAR,NIGHT_CLEAR,NIGHT_CLEAR,NIGHT_MOSTLY_CLEAR,CLEAR,CLEAR,CLEAR,CLEAR,CLEAR","Offshore,Offshore,Offshore,Offshore,Offshore,Offshore,Offshore,Offshore,Offshore",9
5842041f4e65fad6a770896c,2024_02_07,34.405117655616,-119.84317,Campus Point,1.6666666666666667,0.22444444444444445,0.5277777777777778,14,14,"NIGHT_CLEAR,NIGHT_CLEAR,NIGHT_CLEAR,NIGHT_CLEAR,CLEAR,CLEAR,CLEAR,CLEAR,CLEAR","Offshore,Offshore,Offshore,Offshore,Offshore,Offshore,Offshore,Offshore,Offshore",9
5842041f4e65fad6a770896e,2024_02_07,34.38935162233354,-119.51955,Carpinteria State Beach,2.111111111111111,0.4611111111111111,0.7666666666666667,14.222222222222221,14.222222222222221,"NIGHT_CLEAR,NIGHT_CLEAR,NIGHT_CLEAR,NIGHT_CLEAR,CLEAR,CLEAR,CLEAR,CLEAR,CLEAR","Offshore,Offshore,Offshore,Offshore,Offshore,Offshore,Cross-shore,Onshore,Onshore",9
5842041f4e65fad6a770896f,2024_02_07,37.48296565175612,-122.4549300127824,Half Moon Bay,2,1.758888888888889,2.101111111111111,13,13,"NIGHT_CLEAR,NIGHT_MOSTLY_CLOUDY,NIGHT_MOSTLY_CLOUDY,NIGHT_MOSTLY_CLOUDY,NIGHT_MOSTLY_CLOUDY,RAIN,LIGHT_RAIN,SHOWERS,MOSTLY_CLOUDY","Cross-shore,Cross-shore,Cross-shore,Cross-shore,Onshore,Onshore,Onshore,Onshore,Onshore",9
5842041f4e65fad6a7708970,2024_02_07,37.499,-122.471,Princeton Jetty,2.2222222222222223,1.6933333333333334,2.0255555555555556,13,13,"NIGHT_MOSTLY_CLOUDY,NIGHT_MOSTLY_CLOUDY,NIGHT_CLEAR,NIGHT_CLEAR,NIGHT_MOSTLY_CLOUDY,RAIN,LIGHT_RAIN,BRIEF_SHOWERS,MOSTLY_CLOUDY","Cross-shore,Cross-shore,Cross-shore,Cross-shore,Cross-shore,Onshore,Onshore,Onshore,Cross-shore",9
5842041f4e65fad6a7708972,2024_02_07,37.35699547365155,-122.4069534707252,Tunitas Creek,1.7777777777777777,2.898888888888889,3.4655555555555555,13,13,"NIGHT_CLOUDY,NIGHT_CLOUDY,NIGHT_MOSTLY_CLOUDY,NIGHT_MOSTLY_CLOUDY,NIGHT_MOSTLY_CLOUDY,LIGHT_RAIN,HEAVY_RAIN,DRIZZLE,HEAVY_SHOWERS","Cross-shore,Cross-shore,Cross-shore,Cross-shore,Cross-shore,Onshore,Onshore,Onshore,Onshore",9
5842041f4e65fad6a7708974,2024_02_07,37.54735589428842,-122.5161090212687,Montara,1,2.2555555555555555,2.6955555555555555,13,13,"NIGHT_MOSTLY_CLOUDY,NIGHT_MOSTLY_CLOUDY,NIGHT_MOSTLY_CLOUDY,NIGHT_MOSTLY_CLOUDY,NIGHT_CLEAR,LIGHT_RAIN,DRIZZLE,MIST,CLEAR","Onshore,Onshore,Onshore,Onshore,Onshore,Onshore,Cross-shore,Cross-shore,Onshore",9
5842041f4e65fad6a7708975,2024_02_07,34.3869373724559,-119.5142334209018,Tarpits,2.111111111111111,0.4211111111111111,0.7255555555555555,14.222222222222221,14.222222222222221,"NIGHT_CLEAR,NIGHT_CLEAR,NIGHT_CLEAR,NIGHT_CLEAR,CLEAR,CLEAR,CLEAR,CLEAR,CLEAR","Offshore,Offshore,Offshore,Offshore,Offshore,Offshore,Cross-shore,Cross-shore,Cross-shore",9
5842041f4e65fad6a7708976,2024_02_07,37.59881852720143,-122.50463,Pacifica / Linda Mar,1.017777777777778,1.0097666666666667,1.401,14,14,"NIGHT_MOSTLY_CLOUDY,NIGHT_MOSTLY_CLOUDY,NIGHT_BRIEF_SHOWERS,NIGHT_BRIEF_SHOWERS,NIGHT_CLEAR,OVERCAST,DRIZZLE,MOSTLY_CLOUDY,CLEAR","Onshore,Onshore,Onshore,Onshore,Onshore,Onshore,Cross-shore,Cross-shore,Onshore",9
5842041f4e65fad6a7708978,2024_02_07,37.59883098461164,-122.5143843582282,Pedro Point,1,2.272222222222222,2.712222222222222,13,13,"NIGHT_MOSTLY_CLOUDY,NIGHT_MOSTLY_CLOUDY,NIGHT_CLEAR,NIGHT_MOSTLY_CLOUDY,NIGHT_MOSTLY_CLOUDY,CLOUDY,DRIZZLE,MOSTLY_CLOUDY,CLEAR","Onshore,Onshore,Onshore,Onshore,Onshore,Onshore,Cross-shore,Cross-shore,Onshore",9
5842041f4e65fad6a7708979,2024_02_07,37.61081996647663,-122.4973287570634,Rockaway,1.1111111111111112,2.2911111111111113,2.74,13,13,"NIGHT_MOSTLY_CLOUDY,NIGHT_MOSTLY_CLOUDY,NIGHT_BRIEF_SHOWERS,NIGHT_BRIEF_SHOWERS,NIGHT_CLEAR,OVERCAST,DRIZZLE,MOSTLY_CLOUDY,CLEAR","Onshore,Onshore,Onshore,Onshore,Onshore,Onshore,Cross-shore,Cross-shore,Onshore",9
5842041f4e65fad6a770897a,2024_02_07,37.809987384424446,-122.4751353263855,Fort Point,3.3333333333333335,1.3877777777777778,1.6655555555555557,13,13,"NIGHT_CLEAR,NIGHT_CLEAR,NIGHT_CLEAR,NIGHT_CLEAR,NIGHT_CLEAR,LIGHT_RAIN,LIGHT_RAIN,LIGHT_RAIN,MOSTLY_CLEAR","Offshore,Cross-shore,Cross-shore,Cross-shore,Cross-shore,Cross-shore,Onshore,Onshore,Cross-shore",9
5842041f4e65fad6a770897c,2024_02_07,37.63422542967464,-122.4951,Sharp Park,1,2.4444444444444446,2.918888888888889,13,13,"NIGHT_MOSTLY_CLOUDY,NIGHT_MOSTLY_CLOUDY,NIGHT_MOSTLY_CLOUDY,NIGHT_MOSTLY_CLOUDY,NIGHT_MOSTLY_CLOUDY,DRIZZLE,DRIZZLE,MOSTLY_CLOUDY,MOSTLY_CLOUDY","Onshore,Onshore,Onshore,Onshore,Onshore,Onshore,Onshore,Cross-shore,Onshore",9
5842041f4e65fad6a770897d,2024_02_07,37.27313605072472,-122.4127387912554,Pescadero,1.4444444444444444,2.732222222222222,3.2644444444444445,13,13,"NIGHT_OVERCAST,NIGHT_OVERCAST,NIGHT_MOSTLY_CLOUDY,NIGHT_MOSTLY_CLOUDY,NIGHT_MOSTLY_CLOUDY,LIGHT_RAIN,RAIN,LIGHT_RAIN,MOSTLY_CLOUDY","Onshore,Onshore,Onshore,Onshore,Onshore,Onshore,Cross-shore,Cross-shore,Onshore",9
5842041f4e65fad6a770897e,2024_02_07,37.18140279972666,-122.3926685899327,Pigeon Point,2.5555555555555554,2.5966666666666667,3.1066666666666665,13,13,"NIGHT_OVERCAST,NIGHT_OVERCAST,NIGHT_CLEAR,NIGHT_MOSTLY_CLOUDY,NIGHT_MOSTLY_CLOUDY,BRIEF_SHOWERS,RAIN,RAIN,BRIEF_SHOWERS","Offshore,Offshore,Offshore,Offshore,Offshore,Cross-shore,Onshore,Onshore,Onshore",9
5842041f4e65fad6a770897f,2024_02_07,37.11578956919415,-122.314699271291,Ano Nuevo,3.2222222222222223,2.1777777777777776,2.6033333333333335,13,13,"NIGHT_OVERCAST,NIGHT_CLOUDY,NIGHT_CLEAR,NIGHT_MOSTLY_CLOUDY,NIGHT_BRIEF_SHOWERS,SHOWERS,RAIN,DRIZZLE,HEAVY_SHOWERS","Offshore,Offshore,Offshore,Offshore,Offshore,Offshore,Cross-shore,Onshore,Onshore",9
5842041f4e65fad6a7708980,2024_02_07,37.09520872681598,-122.2805474707768,Waddell Creek,2.3333333333333335,2.1344444444444446,2.5522222222222224,13,13,"NIGHT_MOSTLY_CLOUDY,NIGHT_CLOUDY,NIGHT_CLEAR,NIGHT_CLEAR,NIGHT_CLEAR,FOG,LIGHT_RAIN,DRIZZLE,BRIEF_SHOWERS","Cross-shore,Cross-shore,Cross-shore,Cross-shore,Cross-shore,Cross-shore,Onshore,Onshore,Onshore",9
5842041f4e65fad6a7708981,2024_02_07,36.96512852130351,-122.1252825495626,Four Mile,3.2222222222222223,2.13,2.5477777777777777,13,13,"NIGHT_BRIEF_SHOWERS,NIGHT_BRIEF_SHOWERS,NIGHT_MOSTLY_CLOUDY,NIGHT_CLEAR,NIGHT_CLEAR,MOSTLY_CLOUDY,CLOUDY,DRIZZLE,LIGHT_RAIN","Offshore,Offshore,Offshore,Offshore,Offshore,Offshore,Cross-shore,Onshore,Onshore",9
5842041f4e65fad6a7708982,2024_02_07,37.04122807048655,-122.2333684729756,Scott Creek,2,2.2544444444444443,2.6933333333333334,13,13,"NIGHT_MOSTLY_CLOUDY,NIGHT_MOSTLY_CLOUDY,NIGHT_MOSTLY_CLOUDY,NIGHT_MOSTLY_CLEAR,NIGHT_MOSTLY_CLOUDY,BRIEF_SHOWERS,RAIN,MIST,LIGHT_RAIN","Cross-shore,Cross-shore,Cross-shore,Cross-shore,Cross-shore,Cross-shore,Onshore,Onshore,Onshore",9
5842041f4e65fad6a7708983,2024_02_07,37.02350229387179,-122.21908,Davenport,2,2.1644444444444444,2.5866666666666664,13,13,"NIGHT_MOSTLY_CLOUDY,NIGHT_MOSTLY_CLOUDY,NIGHT_MOSTLY_CLOUDY,NIGHT_MOSTLY_CLEAR,NIGHT_CLEAR,MOSTLY_CLOUDY,RAIN,OVERCAST,DRIZZLE","Cross-shore,Cross-shore,Cross-shore,Cross-shore,Cross-shore,Cross-shore,Onshore,Onshore,Onshore",9
5842041f4e65fad6a7708986,2024_02_07,36.94905295955728,-122.0611823912244,Natural Bridges,3,1.961111111111111,2.3466666666666667,13,13,"NIGHT_CLEAR,NIGHT_CLEAR,NIGHT_MOSTLY_CLOUDY,NIGHT_CLEAR,NIGHT_CLEAR,MOSTLY_CLOUDY,LIGHT_RAIN,RAIN,OVERCAST","Offshore,Cross-shore,Cross-shore,Cross-shore,Cross-shore,Cross-shore,Cross-shore,Onshore,Onshore",9
5842041f4e65fad6a7708987,2024_02_07,36.95154854910425,-122.0420693940968,Mitchell's Cove,3.6666666666666665,1.2833333333333334,1.5322222222222222,13,13,"NIGHT_MIST,NIGHT_MIST,NIGHT_CLEAR,NIGHT_CLEAR,NIGHT_CLEAR,CLEAR,DRIZZLE,LIGHT_RAIN,OVERCAST","Offshore,Offshore,Offshore,Offshore,Offshore,Cross-shore,Cross-shore,Onshore,Onshore",9
5842041f4e65fad6a770898a,2024_02_07,36.9572312370203,-121.98177,26th Ave,2.888888888888889,1.501111111111111,1.798888888888889,13,13,"NIGHT_MIST,NIGHT_MIST,NIGHT_MOSTLY_CLEAR,NIGHT_CLEAR,NIGHT_CLEAR,CLEAR,DRIZZLE,LIGHT_RAIN,DRIZZLE","Cross-shore,Cross-shore,Cross-shore,Cross-shore,Onshore,Onshore,Onshore,Onshore,Onshore",9
5842041f4e65fad6a770898e,2024_02_07,36.91899972819882,-121.85536,Manresa,2.7777777777777777,1.9944444444444445,2.3855555555555554,13,13,"NIGHT_CLEAR,NIGHT_CLEAR,NIGHT_CLEAR,NIGHT_CLEAR,NIGHT_CLEAR,CLEAR,LIGHT_RAIN,LIGHT_RAIN,RAIN","Cross-shore,Cross-shore,Cross-shore,Onshore,Cross-shore,Onshore,Onshore,Onshore,Onshore",9
5842041f4e65fad6a7708990,2024_02_07,34.45747731928454,-120.34242,The Ranch,3,0.7533333333333333,1.0344444444444445,14,14,"NIGHT_CLEAR,NIGHT_CLEAR,NIGHT_CLEAR,NIGHT_CLEAR,BRIEF_SHOWERS,CLEAR,CLEAR,CLEAR,MOSTLY_CLEAR","Offshore,Offshore,Offshore,Offshore,Offshore,Offshore,Offshore,Offshore,Offshore",9
5842041f4e65fad6a7708991,2024_02_07,34.50875036590315,-120.50348,Jalama,2.2222222222222223,1.288888888888889,1.5444444444444445,14,14,"NIGHT_BRIEF_SHOWERS,NIGHT_CLEAR,NIGHT_CLEAR,NIGHT_BRIEF_SHOWERS,MOSTLY_CLEAR,CLEAR,MOSTLY_CLOUDY,CLEAR,CLEAR","Cross-shore,Cross-shore,Cross-shore,Cross-shore,Cross-shore,Cross-shore,Cross-shore,Cross-shore,Cross-shore",9
5842041f4e65fad6a7708996,2024_02_07,34.68700870220497,-120.6111611019887,Surf Beach,0.8888888888888888,3.6422222222222222,4.352222222222222,14,14,"NIGHT_MOSTLY_CLOUDY,NIGHT_MOSTLY_CLOUDY,NIGHT_CLOUDY,NIGHT_MOSTLY_CLOUDY,CLEAR,CLEAR,CLEAR,MOSTLY_CLOUDY,CLEAR","Onshore,Onshore,Onshore,Onshore,Onshore,Onshore,Onshore,Onshore,Onshore",9
5842041f4e65fad6a770899c,2024_02_07,35.5730538161116,-121.1143362345574,Moonstone,2.6666666666666665,2.5877777777777777,3.092222222222222,13,13,"NIGHT_CLEAR,NIGHT_CLEAR,NIGHT_MOSTLY_CLOUDY,NIGHT_CLEAR,CLEAR,CLEAR,MOSTLY_CLEAR,MOSTLY_CLOUDY,MOSTLY_CLOUDY","Cross-shore,Offshore,Onshore,Cross-shore,Cross-shore,Cross-shore,Onshore,Onshore,Onshore",9
5842041f4e65fad6a770899d,2024_02_07,35.61533716776573,-121.1502053073914,Pico Creek,2.4444444444444446,1.7977777777777777,2.147777777777778,13,13,"NIGHT_CLEAR,NIGHT_CLEAR,NIGHT_MOSTLY_CLOUDY,NIGHT_CLEAR,CLEAR,CLEAR,CLEAR,MOSTLY_CLOUDY,OVERCAST","Cross-shore,Cross-shore,Onshore,Cross-shore,Cross-shore,Cross-shore,Onshore,Onshore,Onshore",9
5842041f4e65fad6a770899e,2024_02_07,35.56829031927379,-121.1120653023953,Santa Rosa Creek,2.5555555555555554,2.5877777777777777,3.092222222222222,13,13,"NIGHT_CLEAR,NIGHT_CLEAR,NIGHT_CLEAR,NIGHT_CLEAR,CLEAR,FOG,MOSTLY_CLEAR,CLEAR,MOSTLY_CLOUDY","Cross-shore,Cross-shore,Cross-shore,Cross-shore,Cross-shore,Cross-shore,Cross-shore,Cross-shore,Onshore",9
5842041f4e65fad6a77089a2,2024_02_07,35.44820114936284,-120.90715,"Cayucos Pier, Southside ",2.7777777777777777,1.0066666666666666,1.2533333333333334,14,14,"NIGHT_MOSTLY_CLEAR,NIGHT_CLEAR,NIGHT_BRIEF_SHOWERS,NIGHT_CLEAR,CLEAR,CLEAR,MOSTLY_CLEAR,CLEAR,MOSTLY_CLOUDY","Offshore,Cross-shore,Cross-shore,Cross-shore,Cross-shore,Offshore,Cross-shore,Cross-shore,Onshore",9
5842041f4e65fad6a77089a4,2024_02_07,35.30143372628852,-120.877819239902,Cable Landing,2,3.6466666666666665,4.358888888888889,14,14,"NIGHT_CLEAR,NIGHT_CLEAR,NIGHT_MOSTLY_CLOUDY,NIGHT_MOSTLY_CLOUDY,MOSTLY_CLEAR,MOSTLY_CLEAR,CLEAR,MOSTLY_CLEAR,MOSTLY_CLOUDY","Onshore,Onshore,Onshore,Onshore,Onshore,Onshore,Onshore,Onshore,Onshore",9
5842041f4e65fad6a77089a9,2024_02_07,35.61269103500222,-121.1480725356606,San Simeon,2.888888888888889,1.1845555555555556,1.4163333333333334,13,13,"NIGHT_CLEAR,NIGHT_CLEAR,NIGHT_MOSTLY_CLOUDY,NIGHT_CLEAR,CLEAR,CLEAR,CLEAR,CLEAR,OVERCAST","Offshore,Offshore,Cross-shore,Cross-shore,Offshore,Cross-shore,Cross-shore,Cross-shore,Onshore",9
5842041f4e65fad6a77089ab,2024_02_07,35.1775325966252,-120.7341125142258,Avila Beach,2,0.1688888888888889,0.47444444444444445,13.222222222222221,13.222222222222221,"NIGHT_MOSTLY_CLEAR,NIGHT_CLEAR,NIGHT_CLEAR,NIGHT_MOSTLY_CLOUDY,CLEAR,CLEAR,BRIEF_SHOWERS,MIST,OVERCAST","Offshore,Offshore,Cross-shore,Cross-shore,Offshore,Cross-shore,Cross-shore,Cross-shore,Cross-shore",9
5842041f4e65fad6a77089ac,2024_02_07,35.13877877884115,-120.64535,Pismo Beach Pier,2.6855555555555557,1.3979222222222223,1.908714814814815,14,14,"NIGHT_MIST,NIGHT_MIST,NIGHT_FOG,NIGHT_MOSTLY_CLOUDY,MIST,FOG,MOSTLY_CLOUDY,MIST,MOSTLY_CLOUDY","Onshore,Cross-shore,Cross-shore,Cross-shore,Cross-shore,Cross-shore,Cross-shore,Onshore,Cross-shore",9
5842041f4e65fad6a77089ad,2024_02_07,46.8907710233147,-124.12964,Westport/Olympic Peninsula,3.6666666666666665,1.6566666666666667,1.9822222222222223,10,10,"NIGHT_MOSTLY_CLOUDY,NIGHT_MOSTLY_CLOUDY,NIGHT_MOSTLY_CLEAR,NIGHT_CLEAR,NIGHT_CLEAR,CLEAR,CLEAR,CLEAR,CLEAR","Onshore,Cross-shore,Offshore,Offshore,Offshore,Offshore,Offshore,Offshore,Offshore",9
5842041f4e65fad6a77089ae,2024_02_07,46.35185177248545,-124.06747,Long Beach Peninsula,3,2.654444444444444,3.17,10,10,"NIGHT_BRIEF_SHOWERS,NIGHT_BRIEF_SHOWERS,NIGHT_MOSTLY_CLOUDY,NIGHT_CLOUDY,NIGHT_CLEAR,CLEAR,CLEAR,CLEAR,CLEAR","Cross-shore,Onshore,Offshore,Offshore,Offshore,Offshore,Offshore,Offshore,Cross-shore",9
5842041f4e65fad6a77089af,2024_02_07,47.90649175554033,-124.6370864743483,La Push,3.5555555555555554,2.12,2.533333333333333,10,10,"NIGHT_DRIZZLE,NIGHT_OVERCAST,NIGHT_MOSTLY_CLOUDY,NIGHT_MOSTLY_CLOUDY,NIGHT_CLEAR,CLEAR,CLEAR,CLEAR,CLEAR","Onshore,Onshore,Offshore,Offshore,Offshore,Offshore,Offshore,Offshore,Offshore",9
5842041f4e65fad6a77089b0,2024_02_07,42.04368239985442,-124.26828,Brookings Jetty,2.2222222222222223,1.25363,1.9587966666666667,12,12,"NIGHT_CLEAR,NIGHT_CLEAR,NIGHT_RAIN,NIGHT_LIGHT_RAIN,NIGHT_FOG,CLOUDY,CLOUDY,MOSTLY_CLOUDY,BRIEF_SHOWERS","Cross-shore,Offshore,Onshore,Onshore,Onshore,Onshore,Cross-shore,Cross-shore,Cross-shore",9
5842041f4e65fad6a77089b1,2024_02_07,42.74071837900346,-124.4983727491047,Port Orford,2.6666666666666665,1.7555555555555555,2.098888888888889,11,11,"NIGHT_CLEAR,NIGHT_CLEAR,NIGHT_RAIN,NIGHT_FOG,NIGHT_LIGHT_SHOWERS_POSSIBLE,OVERCAST,LIGHT_RAIN,OVERCAST,OVERCAST","Offshore,Cross-shore,Onshore,Cross-shore,Offshore,Offshore,Offshore,Offshore,Offshore",9
5842041f4e65fad6a77089b2,2024_02_07,44.01532689312291,-124.13865,Florence South Jetty,2.7777777777777777,2.802222222222222,3.351111111111111,11,11,"NIGHT_FOG,NIGHT_DRIZZLE,NIGHT_LIGHT_SHOWERS_POSSIBLE,NIGHT_LIGHT_SHOWERS_POSSIBLE,NIGHT_LIGHT_RAIN,CLEAR,MOSTLY_CLOUDY,CLEAR,CLEAR","Cross-shore,Cross-shore,Cross-shore,Offshore,Cross-shore,Cross-shore,Offshore,Offshore,Offshore",9
5842041f4e65fad6a77089b3,2024_02_07,42.41812540774362,-124.42945,Gold Beach South Jetty,2.2222222222222223,2.718888888888889,3.203333333333333,12,12,"NIGHT_CLEAR,NIGHT_CLEAR,NIGHT_RAIN,NIGHT_LIGHT_RAIN,NIGHT_RAIN,LIGHT_RAIN,CLOUDY,CLOUDY,OVERCAST","Offshore,Offshore,Onshore,Onshore,Cross-shore,Offshore,Offshore,Offshore,Offshore",9
5842041f4e65fad6a77089b4,2024_02_07,44.95857310226525,-124.0219017690976,Lincoln City,3,2.6255555555555556,3.1355555555555554,11,11,"NIGHT_MOSTLY_CLEAR,NIGHT_MOSTLY_CLOUDY,NIGHT_LIGHT_SHOWERS_POSSIBLE,NIGHT_LIGHT_SHOWERS_POSSIBLE,NIGHT_LIGHT_RAIN,LIGHT_RAIN,MOSTLY_CLOUDY,CLEAR,CLEAR","Cross-shore,Cross-shore,Offshore,Offshore,Offshore,Offshore,Offshore,Offshore,Offshore",9
5842041f4e65fad6a77089b5,2024_02_07,44.63792761362982,-124.0657,Newport,3,3.0877777777777777,3.69,11,11,"NIGHT_MOSTLY_CLOUDY,NIGHT_CLOUDY,NIGHT_LIGHT_RAIN,NIGHT_CLOUDY,NIGHT_FOG,DRIZZLE,CLEAR,CLEAR,CLEAR","Onshore,Cross-shore,Offshore,Offshore,Offshore,Offshore,Offshore,Offshore,Offshore",9
5842041f4e65fad6a77089b6,2024_02_07,45.61468496266301,-123.94643,Rockaway Beach,3.6666666666666665,2.681111111111111,3.2044444444444444,11,11,"NIGHT_MOSTLY_CLEAR,NIGHT_CLEAR,NIGHT_CLOUDY,NIGHT_CLEAR,NIGHT_CLEAR,CLEAR,CLEAR,CLEAR,CLEAR","Cross-shore,Offshore,Offshore,Offshore,Offshore,Offshore,Offshore,Offshore,Onshore",9
5842041f4e65fad6a77089b7,2024_02_07,45.20252914186085,-123.96975,Pacific City,3.4444444444444446,2.4077777777777776,2.878888888888889,11,11,"NIGHT_MOSTLY_CLEAR,NIGHT_CLEAR,NIGHT_LIGHT_RAIN,NIGHT_LIGHT_RAIN,NIGHT_DRIZZLE,CLOUDY,MOSTLY_CLOUDY,CLEAR,CLEAR","Onshore,Cross-shore,Offshore,Offshore,Offshore,Offshore,Offshore,Offshore,Offshore",9
5842041f4e65fad6a77089b8,2024_02_07,45.88179930310263,-123.96681,Cannon Beach,3.3333333333333335,2.511111111111111,3.0011111111111113,11,11,"NIGHT_MOSTLY_CLOUDY,NIGHT_BRIEF_SHOWERS,NIGHT_LIGHT_RAIN,NIGHT_OVERCAST,NIGHT_BRIEF_SHOWERS_POSSIBLE,BRIEF_SHOWERS_POSSIBLE,CLEAR,CLEAR,CLEAR","Cross-shore,Onshore,Offshore,Offshore,Offshore,Offshore,Offshore,Offshore,Cross-shore",9
5842041f4e65fad6a77089ba,2024_02_07,40.02528754746774,-124.06372,Shelter Cove,2.4444444444444446,0.7132822222222223,1.1145055555555556,13,13,"NIGHT_CLEAR,NIGHT_CLEAR,NIGHT_DRIZZLE,NIGHT_LIGHT_RAIN_AND_FOG,NIGHT_FOG,FOG,MIST,CLEAR,CLEAR","Offshore,Offshore,Onshore,Onshore,Onshore,Onshore,Offshore,Offshore,Offshore",9
5842041f4e65fad6a77089bb,2024_02_07,40.76816197136951,-124.24248,Humboldt Harbor Entrance,1.1111111111111112,3.3722222222222222,4.03,12.777777777777779,12.777777777777779,"NIGHT_OVERCAST,NIGHT_OVERCAST,NIGHT_HEAVY_RAIN,NIGHT_RAIN,NIGHT_MOSTLY_CLOUDY,BRIEF_SHOWERS,MOSTLY_CLOUDY,MOSTLY_CLOUDY,MOSTLY_CLOUDY","Cross-shore,Cross-shore,Cross-shore,Onshore,Offshore,Cross-shore,Onshore,Onshore,Onshore",9
5842041f4e65fad6a77089bc,2024_02_07,40.76684246920174,-124.23107,North Jetty,1.3333333333333333,3.982222222222222,4.761111111111111,12.777777777777779,12.777777777777779,"NIGHT_CLOUDY,NIGHT_OVERCAST,NIGHT_RAIN,NIGHT_RAIN,NIGHT_BRIEF_SHOWERS,BRIEF_SHOWERS,MOSTLY_CLOUDY,MOSTLY_CLOUDY,MOSTLY_CLOUDY","Cross-shore,Cross-shore,Cross-shore,Cross-shore,Offshore,Cross-shore,Onshore,Onshore,Onshore",9
5842041f4e65fad6a77089bd,2024_02_07,41.02731183893966,-124.1149972888982,Westhaven,2,4.515555555555555,5.398888888888889,12,12,"NIGHT_CLOUDY,NIGHT_CLOUDY,NIGHT_LIGHT_RAIN_AND_FOG,NIGHT_RAIN_AND_FOG,NIGHT_CLEAR,RAIN,BRIEF_SHOWERS_POSSIBLE,CLOUDY,MOSTLY_CLOUDY","Cross-shore,Cross-shore,Cross-shore,Cross-shore,Cross-shore,Cross-shore,Cross-shore,Cross-shore,Cross-shore",9
5842041f4e65fad6a77089be,2024_02_07,41.13016238153297,-124.16466,Sue-meg,1.7777777777777777,2.9055555555555554,3.41,12,12,"NIGHT_CLOUDY,NIGHT_OVERCAST,NIGHT_LIGHT_RAIN,NIGHT_LIGHT_RAIN,NIGHT_OVERCAST,LIGHT_RAIN,OVERCAST,MOSTLY_CLOUDY,MOSTLY_CLOUDY","Onshore,Onshore,Cross-shore,Offshore,Offshore,Offshore,Onshore,Onshore,Onshore",9
5842041f4e65fad6a77089bf,2024_02_07,37.8289474958188,-122.5376795097543,Fort Cronkite/Rodeo Beach,2.2222222222222223,2.506666666666667,2.9955555555555557,13,13,"NIGHT_CLEAR,NIGHT_CLEAR,NIGHT_CLEAR,NIGHT_CLEAR,NIGHT_CLOUDY,LIGHT_RAIN,LIGHT_SHOWERS_POSSIBLE,DRIZZLE,CLEAR","Cross-shore,Cross-shore,Cross-shore,Cross-shore,Cross-shore,Cross-shore,Onshore,Onshore,Cross-shore",9
5842041f4e65fad6a77089c0,2024_02_07,41.74415759876137,-124.1771718063073,South Beach CA,3,1.4922222222222223,1.7844444444444445,12,12,"NIGHT_CLEAR,NIGHT_CLOUDY,NIGHT_RAIN,NIGHT_RAIN,NIGHT_CLEAR,DRIZZLE,LIGHT_SHOWERS_POSSIBLE,OVERCAST,OVERCAST","Offshore,Offshore,Onshore,Onshore,Onshore,Onshore,Offshore,Offshore,Offshore",9
5842041f4e65fad6a77089c1,2024_02_07,37.89801283969752,-122.64519,Stinson Beach,2.7777777777777777,0.6733333333333333,0.9811111111111112,13,13,"NIGHT_MOSTLY_CLEAR,NIGHT_MOSTLY_CLEAR,NIGHT_MOSTLY_CLEAR,NIGHT_MOSTLY_CLEAR,NIGHT_DRIZZLE,LIGHT_RAIN,RAIN,RAIN,MIST","Offshore,Offshore,Offshore,Offshore,Offshore,Cross-shore,Cross-shore,Offshore,Cross-shore",9
5842041f4e65fad6a77089c2,2024_02_07,37.90514516176495,-122.68151,Bolinas,2.888888888888889,0.6766311111111111,1.0572388888888888,13,13,"NIGHT_MOSTLY_CLEAR,NIGHT_MOSTLY_CLOUDY,NIGHT_CLEAR,NIGHT_MOSTLY_CLEAR,NIGHT_OVERCAST,RAIN,RAIN,MIST,MOSTLY_CLOUDY","Cross-shore,Cross-shore,Cross-shore,Cross-shore,Cross-shore,Cross-shore,Offshore,Cross-shore,Onshore",9
5842041f4e65fad6a77089c3,2024_02_07,38.04892513158693,-122.9892494965416,Point Reyes (north),0.5555555555555556,3.41,4.0744444444444445,13,13,"NIGHT_MOSTLY_CLOUDY,NIGHT_MOSTLY_CLOUDY,NIGHT_MOSTLY_CLOUDY,NIGHT_CLEAR,NIGHT_LIGHT_RAIN,DRIZZLE,HEAVY_SHOWERS,CLEAR,CLEAR","Onshore,Onshore,Onshore,Onshore,Onshore,Onshore,Cross-shore,Onshore,Onshore",9
5842041f4e65fad6a77089c6,2024_02_07,38.31088736605785,-123.0496777333731,Doran Beach,2.5555555555555554,0.7355555555555555,1.0244444444444445,13,13,"NIGHT_CLEAR,NIGHT_CLEAR,NIGHT_MOSTLY_CLEAR,NIGHT_MOSTLY_CLOUDY,NIGHT_OVERCAST,LIGHT_SHOWERS_POSSIBLE,SHOWERS,CLEAR,MOSTLY_CLEAR","Offshore,Offshore,Offshore,Offshore,Offshore,Offshore,Onshore,Offshore,Offshore",9
5842041f4e65fad6a77089c7,2024_02_07,38.45077228660809,-123.13008,Russian Rivermouth,2.5555555555555554,2.5544444444444445,3.0544444444444445,13,13,"NIGHT_CLEAR,NIGHT_CLEAR,NIGHT_MOSTLY_CLEAR,NIGHT_BRIEF_SHOWERS,NIGHT_CLEAR,LIGHT_SHOWERS_POSSIBLE,SHOWERS,CLEAR,CLEAR","Cross-shore,Cross-shore,Cross-shore,Onshore,Onshore,Onshore,Offshore,Offshore,Onshore",9
5842041f4e65fad6a77089c8,2024_02_07,38.35329968518107,-123.06906,Salmon Creek,1.2222222222222223,2.4444444444444446,2.922222222222222,13,13,"NIGHT_CLEAR,NIGHT_CLEAR,NIGHT_MOSTLY_CLEAR,NIGHT_MOSTLY_CLOUDY,NIGHT_CLOUDY,LIGHT_RAIN,SHOWERS,CLEAR,CLEAR","Onshore,Onshore,Onshore,Onshore,Onshore,Onshore,Onshore,Cross-shore,Onshore",9
5842041f4e65fad6a77089c9,2024_02_07,38.6845180197959,-123.4322714291198,Black Point Beach,2.888888888888889,1.6933333333333334,2.0244444444444443,12.777777777777779,12.777777777777779,"NIGHT_CLEAR,NIGHT_CLEAR,NIGHT_MOSTLY_CLOUDY,NIGHT_CLEAR,NIGHT_LIGHT_RAIN,LIGHT_RAIN,BRIEF_SHOWERS,CLEAR,BRIEF_SHOWERS","Onshore,Onshore,Onshore,Onshore,Onshore,Onshore,Offshore,Onshore,Onshore",9
5842041f4e65fad6a77089ca,2024_02_07,43.251076,-70.59144,Ogunquit,1.6666666666666667,0.6664925925925926,0.9330259259259259,5,4,"NIGHT_CLEAR,NIGHT_CLEAR,CLEAR,CLEAR,CLEAR,CLEAR,CLEAR,CLEAR,CLEAR","Cross-shore,Cross-shore,Cross-shore,Cross-shore,Cross-shore,Cross-shore,Cross-shore,Cross-shore,Cross-shore",9
5842041f4e65fad6a77089cb,2024_02_07,41.362631366305415,-71.48006772942608,Point Judith,0.06666666666666667,0.015023703703703706,0.28126814814814816,7,6,"NIGHT_CLEAR,NIGHT_MOSTLY_CLEAR,CLOUDY,CLOUDY,CLEAR,CLEAR,CLEAR,CLEAR,CLEAR","Onshore,Offshore,Cross-shore,Cross-shore,Onshore,Onshore,Onshore,Onshore,Onshore",9
5842041f4e65fad6a77089cd,2024_02_07,41.422678090954726,-71.45413,Monahan's - Narragansett,1,0.16010555555555556,0.25016555555555553,5,5,"NIGHT_CLEAR,NIGHT_CLEAR,CLOUDY,OVERCAST,CLEAR,CLEAR,CLEAR,CLEAR,CLEAR","Cross-shore,Cross-shore,Cross-shore,Cross-shore,Cross-shore,Cross-shore,Cross-shore,Cross-shore,Cross-shore",9
5842041f4e65fad6a77089ce,2024_02_07,41.469,-71.293,Ruggles - Newport,1,0.16051666666666667,0.25080444444444444,5,5,"NIGHT_CLEAR,NIGHT_MOSTLY_CLOUDY,CLOUDY,OVERCAST,MOSTLY_CLOUDY,MOSTLY_CLOUDY,CLEAR,CLEAR,MOSTLY_CLOUDY","Offshore,Offshore,Offshore,Offshore,Offshore,Offshore,Offshore,Offshore,Offshore",9
5842041f4e65fad6a77089cf,2024_02_07,43.175394,-70.606351,Short Sands Beach,1.5555555555555556,0.6944444444444444,0.9988888888888888,3.2222222222222223,3.2222222222222223,"NIGHT_CLEAR,NIGHT_CLEAR,CLEAR,CLEAR,CLEAR,CLEAR,CLEAR,CLEAR,CLEAR","Cross-shore,Cross-shore,Onshore,Onshore,Onshore,Cross-shore,Onshore,Onshore,Onshore",9
5842041f4e65fad6a77089d0,2024_02_07,41.487408,-71.29017,First Beach,0.4444444444444444,0,0.15333333333333332,5,5,"NIGHT_CLEAR,NIGHT_MOSTLY_CLOUDY,OVERCAST,OVERCAST,CLEAR,MOSTLY_CLOUDY,MOSTLY_CLOUDY,MOSTLY_CLOUDY,MOSTLY_CLOUDY","Offshore,Offshore,Offshore,Offshore,Offshore,Offshore,Offshore,Offshore,Offshore",9
5842041f4e65fad6a77089d1,2024_02_07,42.27916830233153,-70.86498,Nantasket Beach,1.0555555555555556,0.8795592592592593,1.185214814814815,5,4,"NIGHT_CLOUDY,NIGHT_CLOUDY,CLOUDY,CLOUDY,CLOUDY,CLOUDY,MOSTLY_CLOUDY,MOSTLY_CLOUDY,MOSTLY_CLOUDY","Onshore,Onshore,Onshore,Onshore,Onshore,Onshore,Onshore,Onshore,Onshore",9
5842041f4e65fad6a77089d2,2024_02_07,41.817,-69.935,Cape Cod,1,0.8444444444444444,1.1488888888888888,5,5,"NIGHT_CLOUDY,NIGHT_CLOUDY,CLOUDY,CLOUDY,CLOUDY,CLOUDY,CLOUDY,CLOUDY,CLOUDY","Cross-shore,Cross-shore,Cross-shore,Cross-shore,Cross-shore,Cross-shore,Cross-shore,Cross-shore,Cross-shore",9
5842041f4e65fad6a77089d3,2024_02_07,42.22055448975661,-70.70634873403819,Egypt Beach,1,0.9222222222222223,1.2255555555555555,4,4,"NIGHT_CLOUDY,NIGHT_MOSTLY_CLOUDY,CLOUDY,CLOUDY,CLOUDY,CLOUDY,CLOUDY,CLOUDY,CLOUDY","Onshore,Onshore,Onshore,Onshore,Onshore,Onshore,Onshore,Onshore,Onshore",9
5842041f4e65fad6a77089d4,2024_02_07,41.48739647744607,-71.25723,Second Beach,0.05555555555555556,0.02883138888888889,0.1974487962962963,7,6,"NIGHT_CLEAR,NIGHT_CLEAR,CLOUDY,OVERCAST,MOSTLY_CLOUDY,MOSTLY_CLOUDY,MOSTLY_CLOUDY,MOSTLY_CLOUDY,MOSTLY_CLOUDY","Offshore,Offshore,Offshore,Offshore,Offshore,Offshore,Offshore,Offshore,Offshore",9
5842041f4e65fad6a77089d5,2024_02_07,42.964,-70.769,Fox Hill,1.37,0.5275148148148149,0.8856814814814814,5,4,"NIGHT_CLEAR,NIGHT_CLEAR,CLEAR,CLEAR,CLEAR,CLEAR,CLEAR,CLEAR,CLEAR","Offshore,Offshore,Cross-shore,Cross-shore,Cross-shore,Cross-shore,Cross-shore,Cross-shore,Cross-shore",9
5842041f4e65fad6a77089d6,2024_02_07,42.991359,-70.75149,Straws Point,1.7222222222222223,0.6183481481481481,0.9791074074074074,5,4,"NIGHT_CLEAR,NIGHT_CLEAR,CLEAR,CLEAR,CLEAR,CLEAR,CLEAR,CLEAR,CLEAR","Offshore,Offshore,Offshore,Offshore,Offshore,Offshore,Cross-shore,Cross-shore,Cross-shore",9
5842041f4e65fad6a77089d7,2024_02_07,42.946,-70.786,Plaice Cove,1.4444444444444444,0.5275148148148149,0.8856814814814814,5,4,"NIGHT_CLEAR,NIGHT_CLEAR,CLEAR,CLEAR,CLEAR,CLEAR,CLEAR,CLEAR,CLEAR","Cross-shore,Cross-shore,Cross-shore,Cross-shore,Cross-shore,Cross-shore,Cross-shore,Cross-shore,Onshore",9
5842041f4e65fad6a77089d9,2024_02_07,42.911574,-70.80831,The Main Beach,1.0666666666666667,0.7608778518518519,1.154717888888889,6,4,"NIGHT_CLEAR,NIGHT_CLEAR,CLEAR,CLEAR,CLEAR,CLEAR,CLEAR,CLEAR,CLEAR","Offshore,Offshore,Offshore,Offshore,Offshore,Offshore,Offshore,Offshore,Cross-shore",9
5842041f4e65fad6a77089da,2024_02_07,42.97583846220203,-70.764,Sawyer's Beach,1.4444444444444444,0.5200148148148148,0.8766074074074074,5,4,"NIGHT_CLEAR,NIGHT_CLEAR,CLEAR,CLEAR,CLEAR,CLEAR,CLEAR,CLEAR,CLEAR","Cross-shore,Cross-shore,Cross-shore,Cross-shore,Cross-shore,Cross-shore,Cross-shore,Cross-shore,Cross-shore",9
5842041f4e65fad6a77089db,2024_02_07,42.97,-70.77,Rye on the Rocks / 5-0's,1,0.7618922222222222,1.1518605185185185,6,4,"NIGHT_CLEAR,NIGHT_CLEAR,CLEAR,CLEAR,CLEAR,CLEAR,CLEAR,CLEAR,CLEAR","Offshore,Offshore,Cross-shore,Cross-shore,Cross-shore,Cross-shore,Cross-shore,Cross-shore,Cross-shore",9
5842041f4e65fad6a77089dc,2024_02_07,43.55902946610303,-70.27795,Higgins Beach,1.4666666666666666,0.03685185185185185,0.3380037037037037,5,4,"NIGHT_CLEAR,NIGHT_CLEAR,CLEAR,CLEAR,CLEAR,CLEAR,CLEAR,CLEAR,CLEAR","Offshore,Offshore,Offshore,Offshore,Offshore,Offshore,Offshore,Offshore,Offshore",9
5842041f4e65fad6a77089dd,2024_02_07,43.302676,-70.5652,Wells Beach,1.4444444444444444,0.543437037037037,0.8495074074074074,5,4,"NIGHT_CLEAR,NIGHT_CLEAR,CLEAR,CLEAR,CLEAR,CLEAR,CLEAR,CLEAR,CLEAR","Cross-shore,Cross-shore,Cross-shore,Cross-shore,Cross-shore,Cross-shore,Cross-shore,Cross-shore,Cross-shore",9
5842041f4e65fad6a77089de,2024_02_07,43.545359,-70.30479,Scarborough Beach State Park,1.5933333333333333,0.5714128703703704,0.8674336111111111,5,4,"NIGHT_CLEAR,NIGHT_CLEAR,CLEAR,CLEAR,CLEAR,CLEAR,CLEAR,CLEAR,CLEAR","Offshore,Offshore,Offshore,Offshore,Offshore,Offshore,Offshore,Offshore,Offshore",9
5842041f4e65fad6a77089df,2024_02_07,43.514481,-70.372146,Old Orchard Beach,2.0922222222222224,0.5241577777777778,0.842817037037037,5,4,"NIGHT_CLEAR,NIGHT_CLEAR,CLEAR,CLEAR,CLEAR,CLEAR,CLEAR,CLEAR,CLEAR","Offshore,Offshore,Cross-shore,Offshore,Offshore,Offshore,Offshore,Offshore,Offshore",9
5842041f4e65fad6a77089e0,2024_02_07,43.34711,-70.48165,Gooch's Beach,1.6666666666666667,0.09907407407407408,0.4050518518518519,5,4,"NIGHT_CLEAR,NIGHT_CLEAR,CLEAR,CLEAR,CLEAR,CLEAR,CLEAR,CLEAR,CLEAR","Offshore,Offshore,Offshore,Offshore,Offshore,Offshore,Offshore,Offshore,Offshore",9
5842041f4e65fad6a77089e2,2024_02_07,40.58433,-73.62953,Lido Beach,2,0.5239,0.8270518518518518,7,6,"NIGHT_CLEAR,NIGHT_CLEAR,CLEAR,CLEAR,CLEAR,CLEAR,CLEAR,CLEAR,CLEAR","Offshore,Offshore,Offshore,Offshore,Offshore,Offshore,Offshore,Cross-shore,Onshore",9
5842041f4e65fad6a77089e3,2024_02_07,43.163135,-70.61689,Long Sands Beach,2.033333333333333,0.5238197592592593,0.8397760925925926,5,4,"NIGHT_CLEAR,NIGHT_CLEAR,CLEAR,CLEAR,CLEAR,CLEAR,CLEAR,CLEAR,CLEAR","Offshore,Offshore,Offshore,Offshore,Offshore,Offshore,Offshore,Offshore,Offshore",9
5842041f4e65fad6a77089e4,2024_02_07,40.61695351251805,-73.39376,Gilgo Beach,1,0,0.28870370370370374,8,6,"NIGHT_CLEAR,NIGHT_CLEAR,CLEAR,CLEAR,CLEAR,CLEAR,CLEAR,CLEAR,CLEAR","Offshore,Offshore,Offshore,Offshore,Offshore,Offshore,Offshore,Offshore,Offshore",9
5842041f4e65fad6a77089e5,2024_02_07,40.62530081928036,-73.23827,Robert Moses,1,0.09777777777777778,0.40222222222222226,5,5,"NIGHT_CLEAR,NIGHT_CLEAR,CLEAR,CLEAR,CLEAR,CLEAR,CLEAR,CLEAR,CLEAR","Offshore,Offshore,Offshore,Offshore,Offshore,Offshore,Offshore,Offshore,Offshore",9
5842041f4e65fad6a77089e6,2024_02_07,40.64313317632791,-73.15727,Fire Island,1.1111111111111112,0.09444444444444444,0.3988888888888889,5,5,"NIGHT_CLEAR,NIGHT_CLEAR,CLEAR,CLEAR,CLEAR,CLEAR,CLEAR,CLEAR,CLEAR","Offshore,Offshore,Offshore,Offshore,Offshore,Offshore,Offshore,Offshore,Offshore",9
5842041f4e65fad6a77089e8,2024_02_07,40.76653118828782,-72.74579619372713,Cupsogue,1.4444444444444444,0.16444444444444445,0.46888888888888886,5.222222222222222,5.222222222222222,"NIGHT_CLEAR,NIGHT_CLEAR,CLEAR,CLEAR,CLEAR,CLEAR,CLEAR,CLEAR,CLEAR","Offshore,Offshore,Offshore,Offshore,Offshore,Offshore,Offshore,Offshore,Offshore",9
5842041f4e65fad6a77089e9,2024_02_07,42.9376373334092,-70.79141,The Wall ,1.0666666666666667,0.7608346851851852,1.1546589629629629,6,4,"NIGHT_CLEAR,NIGHT_CLEAR,CLEAR,CLEAR,CLEAR,CLEAR,CLEAR,CLEAR,CLEAR","Cross-shore,Cross-shore,Onshore,Onshore,Onshore,Cross-shore,Onshore,Onshore,Onshore",9
5842041f4e65fad6a77089ea,2024_02_07,40.887088,-72.33856,Flys,1.3333333333333333,0.21222222222222223,0.5177777777777778,5.222222222222222,5.222222222222222,"NIGHT_CLEAR,NIGHT_CLEAR,CLEAR,CLEAR,CLEAR,CLEAR,CLEAR,CLEAR,CLEAR","Offshore,Offshore,Offshore,Offshore,Offshore,Offshore,Offshore,Offshore,Offshore",9
5842041f4e65fad6a77089eb,2024_02_07,41.0389266436591,-71.91068529316958,Trailer Park,1.5555555555555556,0.382809425925926,0.6840749814814815,8,6,"NIGHT_CLEAR,NIGHT_CLEAR,MOSTLY_CLOUDY,MOSTLY_CLOUDY,CLEAR,CLEAR,CLEAR,CLEAR,CLEAR","Offshore,Offshore,Offshore,Offshore,Offshore,Offshore,Offshore,Offshore,Offshore",9
5842041f4e65fad6a77089ec,2024_02_07,41.039505402729105,-71.9142,Ditch Plains,1,0.31254333333333334,0.4883488888888889,5,5,"NIGHT_CLEAR,NIGHT_CLEAR,MOSTLY_CLOUDY,MOSTLY_CLOUDY,CLEAR,CLEAR,CLEAR,CLEAR,CLEAR","Offshore,Offshore,Offshore,Offshore,Offshore,Offshore,Offshore,Offshore,Cross-shore",9
5842041f4e65fad6a77089ee,2024_02_07,40.57633275206492,-73.56895305108567,"West End, Jones Beach",1.37,0.2414814814814815,0.5474074074074075,7,6,"NIGHT_CLEAR,NIGHT_CLEAR,CLEAR,CLEAR,CLEAR,CLEAR,CLEAR,CLEAR,CLEAR","Offshore,Offshore,Offshore,Offshore,Offshore,Offshore,Offshore,Offshore,Offshore",9
5842041f4e65fad6a77089f1,2024_02_07,41.038286691230795,-71.91991567611694,Poles,1.4066666666666667,0.36821072222222223,0.6748822037037037,8,6,"NIGHT_CLEAR,NIGHT_CLEAR,MOSTLY_CLOUDY,MOSTLY_CLOUDY,CLEAR,CLEAR,CLEAR,CLEAR,CLEAR","Offshore,Offshore,Offshore,Offshore,Offshore,Offshore,Offshore,Offshore,Offshore",9
5842041f4e65fad6a77089f3,2024_02_07,40.84077769766295,-72.47989493724765,The Bowl,1.3333333333333333,0.1366666666666667,0.4411111111111111,5.222222222222222,5.222222222222222,"NIGHT_CLEAR,NIGHT_CLEAR,CLEAR,CLEAR,CLEAR,CLEAR,CLEAR,CLEAR,CLEAR","Offshore,Offshore,Offshore,Offshore,Offshore,Offshore,Offshore,Offshore,Offshore",9
5842041f4e65fad6a77089f4,2024_02_07,40.94235535243154,-72.19286,Main Beach,1.0555555555555556,0.2701851851851852,0.5750000000000001,14,13,"NIGHT_CLEAR,NIGHT_CLEAR,CLEAR,CLEAR,CLEAR,CLEAR,CLEAR,CLEAR,CLEAR","Offshore,Offshore,Offshore,Offshore,Offshore,Offshore,Offshore,Offshore,Offshore",9
5842041f4e65fad6a77089f5,2024_02_07,40.58270702399518,-73.67251552079799,Laurelton Blvd.,0.6944444444444444,0.10836740740740741,0.37179111111111113,7,6,"NIGHT_CLEAR,NIGHT_CLEAR,CLEAR,CLEAR,CLEAR,CLEAR,CLEAR,CLEAR,CLEAR","Offshore,Offshore,Offshore,Offshore,Offshore,Offshore,Offshore,Offshore,Onshore",9
5842041f4e65fad6a77089f6,2024_02_07,41.033752854071416,-71.93695522488403,Terrace,1.5555555555555556,0.3720496296296297,0.6790718518518519,8,6,"NIGHT_CLEAR,NIGHT_CLEAR,CLEAR,MOSTLY_CLOUDY,CLEAR,CLEAR,CLEAR,CLEAR,CLEAR","Offshore,Offshore,Offshore,Offshore,Offshore,Offshore,Offshore,Offshore,Offshore",9
5842041f4e65fad6a77089f7,2024_02_07,40.83372943645748,-72.50426173210144,K Road,1.3333333333333333,0.2,0.5055555555555555,5.222222222222222,5.222222222222222,"NIGHT_CLEAR,NIGHT_CLEAR,CLEAR,CLEAR,CLEAR,CLEAR,CLEAR,CLEAR,CLEAR","Offshore,Offshore,Offshore,Offshore,Offshore,Offshore,Offshore,Offshore,Offshore",9
5842041f4e65fad6a77089f8,2024_02_07,40.58456099581507,-73.80730032920837,84th Street,2,0.39225333333333334,0.6983311111111111,7,6,"NIGHT_CLEAR,NIGHT_CLEAR,CLEAR,CLEAR,CLEAR,CLEAR,CLEAR,CLEAR,CLEAR","Offshore,Offshore,Offshore,Offshore,Offshore,Offshore,Offshore,Offshore,Offshore",9
5842041f4e65fad6a77089fa,2024_02_07,40.1319,-74.02788,Sea Girt,1.481111111111111,0.8647222222222222,1.2762037037037037,6,5,"NIGHT_CLEAR,NIGHT_CLEAR,CLEAR,CLEAR,CLEAR,CLEAR,CLEAR,CLEAR,CLEAR","Cross-shore,Offshore,Cross-shore,Onshore,Onshore,Onshore,Onshore,Onshore,Onshore",9
5842041f4e65fad6a77089fb,2024_02_07,40.54698301868125,-73.9268,Breezy Point,2,0.21888888888888888,0.5211111111111111,5.777777777777778,5.777777777777778,"NIGHT_CLEAR,NIGHT_CLEAR,CLEAR,CLEAR,CLEAR,CLEAR,CLEAR,CLEAR,CLEAR","Offshore,Offshore,Offshore,Offshore,Offshore,Offshore,Offshore,Offshore,Offshore",9
5842041f4e65fad6a77089fc,2024_02_07,40.152504,-74.021383,Spring Lake,1.4444444444444444,0.87,1.172962962962963,6,5,"NIGHT_CLEAR,NIGHT_CLEAR,CLEAR,CLEAR,CLEAR,CLEAR,CLEAR,CLEAR,CLEAR","Offshore,Offshore,Cross-shore,Onshore,Onshore,Onshore,Onshore,Onshore,Onshore",9
5842041f4e65fad6a77089fd,2024_02_07,40.591277,-73.770792,30th - 39th Streets,1.1855555555555555,0.2138888888888889,0.5167592592592593,7,6,"NIGHT_CLEAR,NIGHT_CLEAR,CLEAR,CLEAR,CLEAR,CLEAR,CLEAR,CLEAR,CLEAR","Offshore,Offshore,Offshore,Offshore,Offshore,Offshore,Offshore,Offshore,Offshore",9
5842041f4e65fad6a77089fe,2024_02_07,40.18834955871439,-74.00860982500222,Avon,1.481111111111111,0.8975925925925926,1.2053703703703704,6,5,"NIGHT_CLEAR,NIGHT_CLEAR,CLEAR,CLEAR,CLEAR,CLEAR,CLEAR,CLEAR,CLEAR","Cross-shore,Offshore,Cross-shore,Onshore,Onshore,Onshore,Onshore,Onshore,Onshore",9
5842041f4e65fad6a77089ff,2024_02_07,40.1974229100932,-74.00650533798255,Bradley Beach,1.481111111111111,0.8891666666666667,1.1937037037037037,6,5,"NIGHT_CLEAR,NIGHT_CLEAR,CLEAR,CLEAR,CLEAR,CLEAR,CLEAR,CLEAR,CLEAR","Cross-shore,Offshore,Cross-shore,Onshore,Onshore,Onshore,Onshore,Onshore,Onshore",9
5842041f4e65fad6a7708a01,2024_02_07,40.17202,-74.01503,"16th Ave., Belmar",1.0666666666666667,0.9314,1.2841592592592592,6,5,"NIGHT_CLEAR,NIGHT_CLEAR,CLEAR,CLEAR,CLEAR,CLEAR,CLEAR,CLEAR,CLEAR","Cross-shore,Offshore,Cross-shore,Onshore,Onshore,Onshore,Onshore,Onshore,Onshore",9
5842041f4e65fad6a7708a02,2024_02_07,40.217443,-73.99982,Asbury Park,1.3888888888888888,0.8588888888888888,1.1625925925925926,6,5,"NIGHT_CLEAR,NIGHT_CLEAR,CLEAR,CLEAR,CLEAR,CLEAR,CLEAR,CLEAR,CLEAR","Offshore,Offshore,Cross-shore,Onshore,Onshore,Onshore,Onshore,Onshore,Onshore",9
5842041f4e65fad6a7708a03,2024_02_07,40.229841,-73.996782,Loch Arbour and Deal,1.3155555555555556,0.8498148148148148,1.1558333333333333,6,5,"NIGHT_CLEAR,NIGHT_CLEAR,CLEAR,CLEAR,CLEAR,CLEAR,CLEAR,CLEAR,CLEAR","Cross-shore,Cross-shore,Cross-shore,Cross-shore,Cross-shore,Cross-shore,Cross-shore,Cross-shore,Cross-shore",9
5842041f4e65fad6a7708a05,2024_02_07,40.41754,-73.97935,Sandy Hook,1.3333333333333333,0.23222222222222222,0.5366666666666666,4.777777777777778,4.777777777777778,"NIGHT_CLEAR,NIGHT_CLEAR,CLEAR,CLEAR,CLEAR,CLEAR,CLEAR,CLEAR,CLEAR","Cross-shore,Cross-shore,Cross-shore,Cross-shore,Cross-shore,Cross-shore,Cross-shore,Cross-shore,Offshore",9
5842041f4e65fad6a7708a06,2024_02_07,39.36353,-74.40873,Crystals,1.3155555555555556,0.8279531481481481,1.359824537037037,6,5,"NIGHT_MOSTLY_CLOUDY,NIGHT_MOSTLY_CLOUDY,CLEAR,CLEAR,CLEAR,CLEAR,CLEAR,CLEAR,CLEAR","Offshore,Offshore,Offshore,Offshore,Offshore,Offshore,Offshore,Offshore,Cross-shore",9
5842041f4e65fad6a7708a07,2024_02_07,39.31443,-74.51863,32nd Street,2,0.9149616666666667,1.265056814814815,6,5,"NIGHT_CLEAR,NIGHT_MOSTLY_CLOUDY,CLEAR,CLEAR,CLEAR,CLEAR,CLEAR,CLEAR,CLEAR","Offshore,Offshore,Offshore,Offshore,Offshore,Offshore,Offshore,Cross-shore,Cross-shore",9
5842041f4e65fad6a7708a08,2024_02_07,39.327688,-74.49524,Margate Pier Northside,2,0.9149616666666667,1.265056814814815,6,5,"NIGHT_CLEAR,NIGHT_MOSTLY_CLOUDY,CLEAR,CLEAR,CLEAR,CLEAR,CLEAR,CLEAR,CLEAR","Offshore,Offshore,Offshore,Offshore,Offshore,Offshore,Offshore,Cross-shore,Cross-shore",9
5842041f4e65fad6a7708a09,2024_02_07,39.336276,-74.47782,Ventnor Pier,1.5555555555555556,0.8235344444444445,1.3529170370370371,6,5,"NIGHT_CLEAR,NIGHT_MOSTLY_CLOUDY,CLEAR,CLEAR,CLEAR,CLEAR,CLEAR,CLEAR,CLEAR","Offshore,Offshore,Offshore,Offshore,Offshore,Offshore,Offshore,Offshore,Cross-shore",9
5842041f4e65fad6a7708a0a,2024_02_07,39.35929751441085,-74.41683,States Avenue,1.1677777777777778,0.8279531481481481,1.359824537037037,6,5,"NIGHT_MOSTLY_CLOUDY,NIGHT_CLEAR,CLEAR,CLEAR,CLEAR,CLEAR,CLEAR,CLEAR,CLEAR","Offshore,Offshore,Offshore,Offshore,Offshore,Offshore,Offshore,Cross-shore,Cross-shore",9
5842041f4e65fad6a7708a0b,2024_02_07,39.37274173278517,-74.40454,Brigantine Jetty,1.3333333333333333,0.7502610185185186,1.2384300925925926,6,5,"NIGHT_MOSTLY_CLOUDY,NIGHT_MOSTLY_CLOUDY,CLEAR,CLEAR,CLEAR,CLEAR,CLEAR,CLEAR,CLEAR","Offshore,Offshore,Offshore,Offshore,Offshore,Offshore,Offshore,Offshore,Offshore",9
5842041f4e65fad6a7708a0c,2024_02_07,39.356505,-74.42263,South Carolina Avenue,1.3333333333333333,0.7502610185185186,1.2384300925925926,6,5,"NIGHT_MOSTLY_CLOUDY,NIGHT_CLEAR,CLEAR,CLEAR,CLEAR,CLEAR,CLEAR,CLEAR,CLEAR","Offshore,Offshore,Offshore,Offshore,Offshore,Offshore,Offshore,Offshore,Offshore",9
5842041f4e65fad6a7708a0d,2024_02_07,39.413485,-74.35476,14th Street North,1.1477777777777778,0.7592592592592592,1.2735185185185185,6,5,"NIGHT_MOSTLY_CLOUDY,NIGHT_MOSTLY_CLOUDY,CLEAR,CLEAR,CLEAR,CLEAR,CLEAR,CLEAR,CLEAR","Cross-shore,Cross-shore,Offshore,Offshore,Offshore,Cross-shore,Cross-shore,Cross-shore,Cross-shore",9
5842041f4e65fad6a7708a0e,2024_02_07,39.531319,-74.263252,The Wooden Jetty,1.0166666666666666,0.9763659814814815,1.5287312222222222,6,5,"NIGHT_MOSTLY_CLOUDY,NIGHT_MOSTLY_CLOUDY,CLEAR,CLEAR,CLEAR,CLEAR,CLEAR,CLEAR,CLEAR","Cross-shore,Cross-shore,Offshore,Offshore,Offshore,Offshore,Offshore,Offshore,Offshore",9
5842041f4e65fad6a7708a0f,2024_02_07,39.552472,-74.24344,Holyoke,0.8055555555555556,0.9770307592592593,1.5370199259259258,6,5,"NIGHT_MOSTLY_CLOUDY,NIGHT_MOSTLY_CLOUDY,CLEAR,CLEAR,CLEAR,CLEAR,CLEAR,CLEAR,CLEAR","Cross-shore,Cross-shore,Offshore,Offshore,Offshore,Cross-shore,Cross-shore,Cross-shore,Cross-shore",9
5842041f4e65fad6a7708a10,2024_02_07,39.692364,-74.14068,Hudson Ave.,1.3055555555555556,0.9844703703703703,1.5364,6,5,"NIGHT_MOSTLY_CLEAR,NIGHT_MOSTLY_CLOUDY,CLEAR,CLEAR,CLEAR,CLEAR,CLEAR,CLEAR,CLEAR","Cross-shore,Cross-shore,Offshore,Offshore,Offshore,Offshore,Offshore,Offshore,Offshore",9
5842041f4e65fad6a7708a11,2024_02_07,39.79614,-74.09248,Island Beach State Park,1.0555555555555556,1.0006333333333333,1.4228703703703705,6,5,"NIGHT_CLEAR,NIGHT_CLEAR,CLEAR,CLEAR,CLEAR,CLEAR,CLEAR,CLEAR,CLEAR","Cross-shore,Cross-shore,Cross-shore,Cross-shore,Cross-shore,Cross-shore,Cross-shore,Cross-shore,Cross-shore",9
5842041f4e65fad6a7708a12,2024_02_07,39.91813588078152,-74.07527,Seaside Park,1.0555555555555556,0.9792444444444445,1.4013888888888888,6,5,"NIGHT_CLEAR,NIGHT_CLEAR,CLEAR,CLEAR,CLEAR,CLEAR,CLEAR,CLEAR,CLEAR","Cross-shore,Cross-shore,Cross-shore,Cross-shore,Cross-shore,Cross-shore,Cross-shore,Cross-shore,Cross-shore",9
5842041f4e65fad6a7708a14,2024_02_07,39.946638,-74.06884,Seaside Heights,1.0922222222222222,0.9253703703703704,1.4428703703703705,6,5,"NIGHT_CLEAR,NIGHT_CLEAR,CLEAR,CLEAR,CLEAR,CLEAR,CLEAR,CLEAR,CLEAR","Cross-shore,Cross-shore,Cross-shore,Cross-shore,Cross-shore,Cross-shore,Cross-shore,Cross-shore,Cross-shore",9
5842041f4e65fad6a7708a15,2024_02_07,39.95745637606704,-74.06736,Ortley Beach,1.0377777777777777,0.8719444444444444,1.4950925925925924,6,5,"NIGHT_CLEAR,NIGHT_CLEAR,CLEAR,CLEAR,CLEAR,CLEAR,CLEAR,CLEAR,CLEAR","Cross-shore,Cross-shore,Cross-shore,Cross-shore,Cross-shore,Cross-shore,Cross-shore,Cross-shore,Cross-shore",9
5842041f4e65fad6a7708a16,2024_02_07,39.98313468342945,-74.06265685577506,Lavallette,1.0755555555555556,0.8733333333333333,1.4964814814814813,6,5,"NIGHT_CLEAR,NIGHT_CLEAR,CLEAR,CLEAR,CLEAR,CLEAR,CLEAR,CLEAR,CLEAR","Cross-shore,Cross-shore,Cross-shore,Cross-shore,Cross-shore,Cross-shore,Cross-shore,Cross-shore,Cross-shore",9
5842041f4e65fad6a7708a17,2024_02_07,40.0699319967757,-74.04144910856634,Bay Head,1.2033333333333334,0.8870370370370371,1.5073148148148148,6,5,"NIGHT_CLEAR,NIGHT_CLEAR,CLEAR,CLEAR,CLEAR,CLEAR,CLEAR,CLEAR,CLEAR","Cross-shore,Cross-shore,Cross-shore,Cross-shore,Cross-shore,Cross-shore,Cross-shore,Cross-shore,Cross-shore",9
5842041f4e65fad6a7708a18,2024_02_07,40.094041,-74.034859,Jenkinson's,1.4066666666666667,0.8725925925925926,1.4937037037037035,6,5,"NIGHT_CLEAR,NIGHT_CLEAR,CLEAR,CLEAR,CLEAR,CLEAR,CLEAR,CLEAR,CLEAR","Cross-shore,Cross-shore,Cross-shore,Cross-shore,Cross-shore,Cross-shore,Cross-shore,Cross-shore,Cross-shore",9
5842041f4e65fad6a7708a1a,2024_02_07,38.148058,-75.17704,Assateague,0.7222222222222222,1.0616666666666668,1.520462962962963,6,5,"NIGHT_MOSTLY_CLOUDY,NIGHT_MOSTLY_CLOUDY,CLEAR,CLEAR,CLEAR,MOSTLY_CLEAR,CLEAR,CLEAR,CLEAR","Cross-shore,Cross-shore,Offshore,Cross-shore,Cross-shore,Cross-shore,Cross-shore,Cross-shore,Cross-shore",9
5842041f4e65fad6a7708a1b,2024_02_07,38.33889038664497,-75.08017670566352,North End to Ocean City Inlet,1,1.0344444444444445,1.551111111111111,6,5,"NIGHT_MOSTLY_CLOUDY,NIGHT_MOSTLY_CLOUDY,CLEAR,CLEAR,CLEAR,CLEAR,CLEAR,CLEAR,CLEAR","Onshore,Onshore,Cross-shore,Onshore,Onshore,Onshore,Onshore,Onshore,Onshore",9
5842041f4e65fad6a7708a1c,2024_02_07,38.603993,-75.06271,Indian River Inlet,1.0933333333333333,0.9114542592592593,1.4902912962962964,6,5,"NIGHT_CLEAR,NIGHT_CLEAR,CLEAR,CLEAR,CLEAR,CLEAR,CLEAR,CLEAR,CLEAR","Cross-shore,Cross-shore,Cross-shore,Cross-shore,Cross-shore,Cross-shore,Cross-shore,Cross-shore,Cross-shore",9
5842041f4e65fad6a7708a1d,2024_02_07,38.460477,-75.052069,Fenwick Island,1.0555555555555556,0.866574074074074,1.3816666666666668,6,5,"NIGHT_MOSTLY_CLOUDY,NIGHT_MOSTLY_CLOUDY,CLEAR,CLEAR,CLEAR,CLEAR,CLEAR,CLEAR,CLEAR","Onshore,Onshore,Cross-shore,Onshore,Onshore,Onshore,Onshore,Onshore,Onshore",9
5842041f4e65fad6a7708a1e,2024_02_07,38.538767,-75.05619,Bethany Beach,1.0555555555555556,0.9143475,1.494815925925926,6,5,"NIGHT_MOSTLY_CLOUDY,NIGHT_MOSTLY_CLOUDY,CLEAR,CLEAR,CLEAR,CLEAR,CLEAR,CLEAR,CLEAR","Cross-shore,Onshore,Cross-shore,Cross-shore,Cross-shore,Cross-shore,Cross-shore,Cross-shore,Cross-shore",9
5842041f4e65fad6a7708a1f,2024_02_07,38.697657,-75.075951,Dewey Beach,1.0555555555555556,0.8863888888888889,1.4016666666666666,6,5,"NIGHT_CLEAR,NIGHT_CLEAR,CLEAR,CLEAR,CLEAR,CLEAR,CLEAR,CLEAR,CLEAR","Onshore,Onshore,Cross-shore,Cross-shore,Cross-shore,Cross-shore,Cross-shore,Cross-shore,Onshore",9
5842041f4e65fad6a7708a20,2024_02_07,38.75034741676525,-75.08194,Gordons Pond,1.3155555555555556,0.8228005555555555,1.3517725925925925,6,5,"NIGHT_CLEAR,NIGHT_CLEAR,CLEAR,CLEAR,CLEAR,CLEAR,CLEAR,CLEAR,CLEAR","Cross-shore,Cross-shore,Cross-shore,Cross-shore,Cross-shore,Offshore,Offshore,Offshore,Cross-shore",9
5842041f4e65fad6a7708a21,2024_02_07,38.767837,-75.082841,Naval Jetties,1.3333333333333333,0.8994444444444445,1.4177777777777778,6,5,"NIGHT_CLEAR,NIGHT_CLEAR,CLEAR,CLEAR,CLEAR,CLEAR,CLEAR,CLEAR,CLEAR","Onshore,Onshore,Cross-shore,Onshore,Onshore,Cross-shore,Cross-shore,Cross-shore,Onshore",9
5842041f4e65fad6a7708a22,2024_02_07,36.81735875786576,-75.96624,Camp Pendleton,0.2,0.9383074074074074,1.3865903703703704,8,6,"NIGHT_OVERCAST,NIGHT_CLOUDY,CLEAR,CLEAR,CLEAR,CLEAR,CLEAR,CLEAR,CLEAR","Onshore,Onshore,Cross-shore,Cross-shore,Cross-shore,Cross-shore,Cross-shore,Cross-shore,Cross-shore",9
5842041f4e65fad6a7708a23,2024_02_07,36.9102212316428,-75.98732471466064,North End,0.24444444444444446,0.8996592592592593,1.4167325925925927,8,6,"NIGHT_MOSTLY_CLOUDY,NIGHT_MOSTLY_CLOUDY,CLEAR,CLEAR,CLEAR,CLEAR,CLEAR,CLEAR,CLEAR","Onshore,Onshore,Cross-shore,Cross-shore,Cross-shore,Cross-shore,Cross-shore,Onshore,Onshore",9
5842041f4e65fad6a7708a24,2024_02_07,36.737117517621314,-75.93923719853362,Sandbridge Beach,0.5,0.9799296296296296,1.4492962962962963,8,6,"NIGHT_OVERCAST,NIGHT_OVERCAST,CLEAR,CLEAR,CLEAR,CLEAR,MOSTLY_CLEAR,CLEAR,CLEAR","Onshore,Onshore,Cross-shore,Cross-shore,Cross-shore,Cross-shore,Cross-shore,Cross-shore,Onshore",9
5842041f4e65fad6a7708a26,2024_02_07,36.818257440557794,-75.96666,Croatan to Pendleton,0.2,0.896325925925926,1.3438125925925926,8,6,"NIGHT_OVERCAST,NIGHT_CLOUDY,CLEAR,CLEAR,CLEAR,CLEAR,CLEAR,CLEAR,CLEAR","Cross-shore,Cross-shore,Cross-shore,Cross-shore,Cross-shore,Cross-shore,Cross-shore,Cross-shore,Cross-shore",9
5842041f4e65fad6a7708a27,2024_02_07,36.84318777204769,-75.9719,South End,0.22222222222222224,0.9174296296296296,1.221974074074074,8,6,"NIGHT_CLOUDY,NIGHT_CLOUDY,CLEAR,CLEAR,CLEAR,CLEAR,CLEAR,CLEAR,CLEAR","Onshore,Onshore,Cross-shore,Cross-shore,Cross-shore,Cross-shore,Cross-shore,Cross-shore,Cross-shore",9
5842041f4e65fad6a7708a28,2024_02_07,37.08612627584661,-75.976121638199,Fishermans Island,1.3333333333333333,0.10933333333333334,0.23155555555555554,7,7,"NIGHT_MOSTLY_CLOUDY,NIGHT_MOSTLY_CLOUDY,CLEAR,CLEAR,CLEAR,CLEAR,CLEAR,CLEAR,CLEAR","Offshore,Offshore,Offshore,Offshore,Offshore,Offshore,Offshore,Offshore,Offshore",9
5842041f4e65fad6a7708a38,2024_02_07,35.254619418229026,-75.52074,Cape Hatteras Lighthouse,0.2311111111111111,1.961246351851852,2.7019355740740743,11,9,"NIGHT_OVERCAST,NIGHT_OVERCAST,CLOUDY,CLOUDY,CLOUDY,CLOUDY,CLOUDY,CLEAR,CLOUDY","Cross-shore,Cross-shore,Cross-shore,Cross-shore,Cross-shore,Cross-shore,Cross-shore,Cross-shore,Cross-shore",9
5842041f4e65fad6a7708a3a,2024_02_07,35.54572934093336,-75.46477,Waves and Salvo,0,1.9568518518518518,2.4733333333333336,10,8,"NIGHT_OVERCAST,NIGHT_OVERCAST,CLOUDY,CLOUDY,OVERCAST,CLOUDY,CLOUDY,CLOUDY,CLOUDY","Cross-shore,Cross-shore,Cross-shore,Cross-shore,Cross-shore,Cross-shore,Cross-shore,Cross-shore,Cross-shore",9
5842041f4e65fad6a7708a3b,2024_02_07,35.22565892751075,-75.63606,Frisco,1.758888888888889,0.7835185185185185,1.179685185185185,12,11,"NIGHT_DRIZZLE,NIGHT_OVERCAST,CLOUDY,CLOUDY,CLOUDY,CLOUDY,OVERCAST,MOSTLY_CLOUDY,CLOUDY","Offshore,Offshore,Offshore,Offshore,Offshore,Offshore,Offshore,Offshore,Offshore",9
5842041f4e65fad6a7708a3c,2024_02_07,35.13086,-75.90591,Ocracoke,0.7777777777777778,0.51629,0.8067011111111111,8,8,"NIGHT_OVERCAST,NIGHT_CLOUDY,CLOUDY,CLOUDY,CLOUDY,CLOUDY,CLEAR,CLOUDY,CLEAR","Offshore,Offshore,Offshore,Offshore,Offshore,Offshore,Offshore,Offshore,Offshore",9
5842041f4e65fad6a7708a3d,2024_02_07,35.34721340158342,-75.50084,Avon Pier,0,1.9818548148148147,2.738105925925926,11,8,"NIGHT_OVERCAST,NIGHT_OVERCAST,OVERCAST,CLOUDY,CLOUDY,OVERCAST,CLOUDY,CLOUDY,CLOUDY","Cross-shore,Cross-shore,Cross-shore,Cross-shore,Cross-shore,Cross-shore,Cross-shore,Cross-shore,Cross-shore",9
5842041f4e65fad6a7708a3f,2024_02_07,35.71680821253768,-75.49243,Pea Island,0,1.751111111111111,2.0533333333333332,7,7,"NIGHT_OVERCAST,NIGHT_OVERCAST,CLOUDY,OVERCAST,OVERCAST,OVERCAST,MOSTLY_CLOUDY,OVERCAST,CLOUDY","Onshore,Onshore,Onshore,Onshore,Onshore,Onshore,Onshore,Onshore,Onshore",9
5842041f4e65fad6a7708a40,2024_02_07,35.97427620657821,-75.62984,Nags Head Pier,0,1.6693,2.3962814814814815,8,5,"NIGHT_OVERCAST,NIGHT_OVERCAST,CLOUDY,CLOUDY,CLOUDY,OVERCAST,CLOUDY,OVERCAST,CLOUDY","Onshore,Onshore,Onshore,Onshore,Onshore,Onshore,Onshore,Onshore,Onshore",9
5842041f4e65fad6a7708a41,2024_02_07,36.0439998039079,-75.67288,Avalon Pier,0,1.6572222222222222,2.3876851851851852,8,5,"NIGHT_OVERCAST,NIGHT_CLOUDY,CLOUDY,CLOUDY,OVERCAST,OVERCAST,CLEAR,OVERCAST,OVERCAST","Onshore,Onshore,Onshore,Onshore,Onshore,Onshore,Onshore,Onshore,Onshore",9
5842041f4e65fad6a7708a42,2024_02_07,36.03043116489792,-75.66413,First Street,0,1.6193,2.377114814814815,8,5,"NIGHT_OVERCAST,NIGHT_CLOUDY,CLOUDY,CLOUDY,OVERCAST,OVERCAST,CLEAR,OVERCAST,OVERCAST","Onshore,Onshore,Onshore,Onshore,Onshore,Onshore,Onshore,Onshore,Onshore",9
5842041f4e65fad6a7708a43,2024_02_07,36.06829910590498,-75.6899,Old Station/Laundromats,0,1.584074074074074,2.31212962962963,8,5,"NIGHT_OVERCAST,NIGHT_CLOUDY,CLOUDY,CLOUDY,OVERCAST,OVERCAST,CLOUDY,OVERCAST,OVERCAST","Onshore,Onshore,Onshore,Onshore,Onshore,Onshore,Onshore,Cross-shore,Cross-shore",9
5842041f4e65fad6a7708a44,2024_02_07,36.10126676607491,-75.71107462163894,Kitty Hawk Pier,0,1.5898555555555556,2.347577777777778,8,5,"NIGHT_OVERCAST,NIGHT_OVERCAST,CLOUDY,CLOUDY,OVERCAST,OVERCAST,CLOUDY,OVERCAST,OVERCAST","Onshore,Onshore,Onshore,Onshore,Onshore,Onshore,Onshore,Cross-shore,Onshore",9
5842041f4e65fad6a7708a45,2024_02_07,36.18220630068973,-75.75013580649097,Duck Pier,0,1.1802777777777778,1.6958333333333333,8,5,"NIGHT_CLOUDY,NIGHT_OVERCAST,CLEAR,CLOUDY,CLOUDY,OVERCAST,CLOUDY,CLOUDY,CLOUDY","Onshore,Onshore,Cross-shore,Onshore,Onshore,Cross-shore,Cross-shore,Cross-shore,Cross-shore",9
5842041f4e65fad6a7708a46,2024_02_07,36.37660668125033,-75.82409701687456,Corolla,0,1.1989814814814814,1.7158333333333333,8,5,"NIGHT_CLOUDY,NIGHT_CLOUDY,CLOUDY,CLOUDY,CLOUDY,OVERCAST,CLOUDY,MOSTLY_CLOUDY,CLOUDY","Onshore,Onshore,Cross-shore,Onshore,Cross-shore,Cross-shore,Cross-shore,Cross-shore,Cross-shore",9
5842041f4e65fad6a7708a47,2024_02_07,33.90373404124834,-78.08241431707907,Oak Island,1.3333333333333333,0.25555555555555554,0.5611111111111111,11,11,"NIGHT_CLEAR,NIGHT_CLEAR,CLEAR,CLEAR,CLEAR,CLEAR,CLEAR,CLEAR,CLEAR","Offshore,Offshore,Offshore,Offshore,Offshore,Offshore,Offshore,Offshore,Offshore",9
5842041f4e65fad6a7708a48,2024_02_07,33.91108837766468,-78.29653,South Brunswick Beaches,1.1111111111111112,0.36353444444444444,0.5680222222222222,11,11,"NIGHT_CLEAR,NIGHT_CLEAR,CLEAR,CLEAR,CLEAR,CLEAR,CLEAR,CLEAR,CLEAR","Offshore,Offshore,Offshore,Offshore,Offshore,Offshore,Offshore,Offshore,Offshore",9
