_id,date,lat,lon,name,daily_mean_swell_rating,daily_mean_wave_height_min,daily_mean_wave_height_max,daily_mean_water_temperature_max,daily_mean_water_temperature_min,weather_per_timestamp,wind_per_timestamp,n_samples_per_day
5842041f4e65fad6a77087f9,2024_02_27,37.741668,-122.51038,South Ocean Beach,1.145,1.69425,2.565,14,14,"CLEAR,CLEAR,MOSTLY_CLEAR,NIGHT_MOSTLY_CLEAR,NIGHT_MOSTLY_CLEAR,NIGHT_CLEAR,NIGHT_CLEAR,NIGHT_CLEAR","Onshore,Onshore,Onshore,Onshore,Onshore,Onshore,Onshore,Onshore",8
5842041f4e65fad6a7708801,2024_02_27,37.49142,-122.50428,Maverick's,NA,1.51625,1.785,13,13,"MIST,CLEAR,MOSTLY_CLOUDY,NIGHT_MOSTLY_CLOUDY,NIGHT_MOSTLY_CLOUDY,NIGHT_CLEAR,NIGHT_CLEAR,NIGHT_CLEAR","Offshore,Offshore,Offshore,Offshore,Offshore,Offshore,Offshore,Offshore",8
5842041f4e65fad6a7708804,2024_02_27,44.997,-124.018,Roads End,1,4.03,4.47,11,11,"CLEAR,BRIEF_SHOWERS,MOSTLY_CLEAR,NIGHT_MOSTLY_CLOUDY,NIGHT_CLEAR,NIGHT_BRIEF_SHOWERS,NIGHT_MOSTLY_CLOUDY,NIGHT_BRIEF_SHOWERS","Onshore,Onshore,Onshore,Onshore,Onshore,Onshore,Onshore,Onshore",8
5842041f4e65fad6a7708805,2024_02_27,36.95188851423011,-122.02522,Steamer Lane,3,1.3378125,1.7985,14,14,"CLEAR,CLEAR,MOSTLY_CLOUDY,NIGHT_MOSTLY_CLOUDY,NIGHT_MOSTLY_CLOUDY,NIGHT_CLEAR,NIGHT_CLEAR,NIGHT_CLEAR","Cross-shore,Onshore,Cross-shore,Offshore,Offshore,Offshore,Offshore,Offshore",8
5842041f4e65fad6a7708806,2024_02_27,36.95918781542251,-122.02489,Cowells,1,0.0012500000000000005,0.21525000000000002,14,14,"CLEAR,CLEAR,MOSTLY_CLOUDY,NIGHT_MOSTLY_CLOUDY,NIGHT_MOSTLY_CLOUDY,NIGHT_CLEAR,NIGHT_CLEAR,NIGHT_CLEAR","Offshore,Onshore,Onshore,Offshore,Offshore,Offshore,Offshore,Offshore",8
5842041f4e65fad6a7708807,2024_02_27,36.95468082526536,-121.97234,Pleasure Point,3.66625,1.167,1.5767499999999999,14,14,"MOSTLY_CLEAR,CLEAR,CLEAR,NIGHT_CLEAR,NIGHT_MOSTLY_CLOUDY,NIGHT_CLEAR,NIGHT_CLEAR,NIGHT_CLEAR","Onshore,Onshore,Onshore,Onshore,Onshore,Cross-shore,Cross-shore,Offshore",8
5842041f4e65fad6a770880a,2024_02_27,35.37815414378748,-120.86589,Morro Bay,3,0.9577,1.4574166666666666,14,14,"CLEAR,MOSTLY_CLOUDY,MOSTLY_CLEAR,NIGHT_CLEAR,NIGHT_MOSTLY_CLOUDY,NIGHT_MOSTLY_CLOUDY,NIGHT_MOSTLY_CLEAR,NIGHT_MOSTLY_CLOUDY","Onshore,Onshore,Cross-shore,Onshore,Cross-shore,Onshore,Offshore,Offshore",8
5842041f4e65fad6a770880b,2024_02_27,36.95782765000708,-121.9672887511276,Jack's,1.66625,0.11750000000000001,0.418,14,14,"MOSTLY_CLEAR,CLEAR,CLEAR,NIGHT_CLEAR,NIGHT_MOSTLY_CLOUDY,NIGHT_CLEAR,NIGHT_CLEAR,NIGHT_CLEAR","Cross-shore,Cross-shore,Onshore,Onshore,Onshore,Cross-shore,Offshore,Offshore",8
5842041f4e65fad6a770880d,2024_02_27,34.29982939936656,-119.3489016603669,Gold Coast Beachbreaks,2,0.0925,0.39625,15,15,"CLEAR,MOSTLY_CLOUDY,MIST,NIGHT_MOSTLY_CLOUDY,NIGHT_MOSTLY_CLOUDY,NIGHT_MOSTLY_CLEAR,NIGHT_MOSTLY_CLOUDY,NIGHT_FOG","Cross-shore,Offshore,Cross-shore,Cross-shore,Cross-shore,Cross-shore,Cross-shore,Cross-shore",8
5842041f4e65fad6a7708811,2024_02_27,34.245076,-119.26799,Ventura Harbor,2.625,0.6017225,0.887575,14,14,"MOSTLY_CLEAR,MIST,MIST,NIGHT_MIST,NIGHT_MOSTLY_CLOUDY,NIGHT_FOG,NIGHT_FOG,NIGHT_FOG","Onshore,Onshore,Cross-shore,Onshore,Cross-shore,Onshore,Offshore,Offshore",8
5842041f4e65fad6a7708813,2024_02_27,34.051,-118.964,County Line,2.25,0.3096833333333333,0.6122833333333333,15,15,"MOSTLY_CLOUDY,MIST,MIST,NIGHT_MIST,NIGHT_BRIEF_SHOWERS,NIGHT_FOG,NIGHT_FOG,NIGHT_FOG","Onshore,Onshore,Cross-shore,Onshore,Cross-shore,Cross-shore,Onshore,Offshore",8
5842041f4e65fad6a7708814,2024_02_27,34.37256264378892,-119.47797,Rincon,2,0.0325,0.33625,15,15,"MIST,MIST,MIST,NIGHT_MIST,NIGHT_MOSTLY_CLOUDY,NIGHT_MOSTLY_CLEAR,NIGHT_MOSTLY_CLEAR,NIGHT_MOSTLY_CLOUDY","Onshore,Cross-shore,Cross-shore,Onshore,Onshore,Onshore,Onshore,Cross-shore",8
5842041f4e65fad6a7708817,2024_02_27,34.03096101876324,-118.68109,Malibu Third Point,2.125,0.28375,0.5874999999999999,15,15,"MOSTLY_CLOUDY,MOSTLY_CLOUDY,BRIEF_SHOWERS,NIGHT_MIST,NIGHT_MIST,NIGHT_OVERCAST,NIGHT_FOG,NIGHT_FOG","Onshore,Onshore,Cross-shore,Cross-shore,Onshore,Offshore,Cross-shore,Cross-shore",8
5842041f4e65fad6a7708819,2024_02_27,33.984079047970035,-118.47381591796875,Venice Beach,2.355,0.45353333333333334,0.7582166666666666,14,14,"CLEAR,CLEAR,BRIEF_SHOWERS,NIGHT_MIST,NIGHT_MIST,NIGHT_MOSTLY_CLOUDY,NIGHT_MOSTLY_CLOUDY,NIGHT_MOSTLY_CLOUDY","Onshore,Onshore,Onshore,Onshore,Onshore,Onshore,Onshore,Onshore",8
5842041f4e65fad6a770881e,2024_02_27,34.037508438646746,-118.58339846155594,Topanga Beach,2,0.24635,0.5510333333333334,15,15,"MIST,MIST,BRIEF_SHOWERS,NIGHT_MIST,NIGHT_MIST,NIGHT_OVERCAST,NIGHT_MOSTLY_CLOUDY,NIGHT_MOSTLY_CLOUDY","Onshore,Onshore,Onshore,Cross-shore,Offshore,Cross-shore,Offshore,Offshore",8
5842041f4e65fad6a7708820,2024_02_27,33.73954373690184,-118.11414,Seal Beach Jetty,2,0.07875,0.38375000000000004,15,15,"OVERCAST,CLEAR,CLEAR,NIGHT_MOSTLY_CLOUDY,NIGHT_MOSTLY_CLOUDY,NIGHT_CLEAR,NIGHT_MIST,NIGHT_MOSTLY_CLEAR","Onshore,Onshore,Onshore,Cross-shore,Cross-shore,Cross-shore,Offshore,Cross-shore",8
5842041f4e65fad6a7708822,2024_02_27,33.72309983348433,-118.08078,Anderson Street,1.75,0.0575,0.36124999999999996,15,15,"OVERCAST,MOSTLY_CLOUDY,CLEAR,NIGHT_MOSTLY_CLOUDY,NIGHT_MOSTLY_CLOUDY,NIGHT_MOSTLY_CLEAR,NIGHT_MOSTLY_CLOUDY,NIGHT_MOSTLY_CLEAR","Onshore,Onshore,Onshore,Cross-shore,Cross-shore,Cross-shore,Offshore,Cross-shore",8
5842041f4e65fad6a7708827,2024_02_27,33.65574085629463,-118.00397,Huntington Beach Pier Northside,2.5625,0.49225,0.8955,14,14,"OVERCAST,CLEAR,MOSTLY_CLEAR,NIGHT_MOSTLY_CLOUDY,NIGHT_MOSTLY_CLEAR,NIGHT_MOSTLY_CLEAR,NIGHT_MOSTLY_CLOUDY,NIGHT_MOSTLY_CLOUDY","Onshore,Onshore,Onshore,Onshore,Onshore,Cross-shore,Offshore,Cross-shore",8
5842041f4e65fad6a7708828,2024_02_27,34.272041739333,-119.2997646331,C St.,2,0.2505,0.5535,14,14,"BRIEF_SHOWERS,MIST,MIST,NIGHT_MIST,NIGHT_MOSTLY_CLOUDY,NIGHT_MOSTLY_CLEAR,NIGHT_FOG,NIGHT_FOG","Cross-shore,Cross-shore,Offshore,Offshore,Offshore,Offshore,Offshore,Offshore",8
5842041f4e65fad6a770882a,2024_02_27,33.61555743705257,-117.93676,Newport Lower Jetties,2,0.24425000000000002,0.54975,15,15,"OVERCAST,CLEAR,CLEAR,NIGHT_MOSTLY_CLOUDY,NIGHT_MOSTLY_CLEAR,NIGHT_CLEAR,NIGHT_MOSTLY_CLOUDY,NIGHT_MOSTLY_CLOUDY","Onshore,Onshore,Cross-shore,Cross-shore,Onshore,Offshore,Offshore,Cross-shore",8
5842041f4e65fad6a770882b,2024_02_27,33.5930302087,-117.88199,The Wedge,2,0.61248875,1.03807625,15,15,"OVERCAST,CLEAR,CLEAR,NIGHT_MOSTLY_CLOUDY,NIGHT_CLEAR,NIGHT_CLEAR,NIGHT_MOSTLY_CLOUDY,NIGHT_CLEAR","Onshore,Cross-shore,Cross-shore,Offshore,Offshore,Offshore,Offshore,Cross-shore",8
5842041f4e65fad6a770882c,2024_02_27,33.60577342582,-117.9315376281,Newport Beach Pier,2,0.2005,0.501,15,15,"CLOUDY,MOSTLY_CLOUDY,CLEAR,NIGHT_MOSTLY_CLOUDY,NIGHT_MOSTLY_CLEAR,NIGHT_MOSTLY_CLEAR,NIGHT_MOSTLY_CLOUDY,NIGHT_MOSTLY_CLOUDY","Offshore,Cross-shore,Onshore,Onshore,Onshore,Offshore,Offshore,Offshore",8
5842041f4e65fad6a770882e,2024_02_27,33.475793399792984,-117.72291,Salt Creek,3,0.4935,0.8917499999999999,14,14,"DRIZZLE,MOSTLY_CLOUDY,CLEAR,NIGHT_CLEAR,NIGHT_MOSTLY_CLOUDY,NIGHT_CLEAR,NIGHT_MOSTLY_CLOUDY,NIGHT_MOSTLY_CLOUDY","Cross-shore,Offshore,Offshore,Cross-shore,Onshore,Offshore,Cross-shore,Cross-shore",8
5842041f4e65fad6a7708830,2024_02_27,33.41800974113613,-117.61952,T-Street,2.97875,0.481,0.78775,14,14,"OVERCAST,MOSTLY_CLOUDY,CLEAR,NIGHT_MOSTLY_CLOUDY,NIGHT_MOSTLY_CLOUDY,NIGHT_CLEAR,NIGHT_MOSTLY_CLOUDY,NIGHT_MOSTLY_CLOUDY","Offshore,Offshore,Cross-shore,Onshore,Onshore,Offshore,Offshore,Offshore",8
5842041f4e65fad6a7708832,2024_02_27,33.202391008646,-117.39475,Oceanside Harbor,3,0.7414499999999999,1.04985,15,15,"OVERCAST,DRIZZLE,OVERCAST,NIGHT_CLEAR,NIGHT_MOSTLY_CLOUDY,NIGHT_MOSTLY_CLEAR,NIGHT_MOSTLY_CLOUDY,NIGHT_MOSTLY_CLOUDY","Cross-shore,Onshore,Cross-shore,Cross-shore,Onshore,Onshore,Onshore,Onshore",8
5842041f4e65fad6a7708835,2024_02_27,33.19477795952803,-117.38667,Oceanside Pier,2.625,0.5213833333333333,0.93065,15,15,"OVERCAST,LIGHT_RAIN,CLEAR,NIGHT_MOSTLY_CLOUDY,NIGHT_MOSTLY_CLOUDY,NIGHT_MOSTLY_CLOUDY,NIGHT_MOSTLY_CLOUDY,NIGHT_MOSTLY_CLOUDY","Onshore,Onshore,Cross-shore,Cross-shore,Onshore,Onshore,Onshore,Onshore",8
5842041f4e65fad6a7708837,2024_02_27,33.14948100706,-117.35029,Tamarack,3,0.31625000000000003,0.61875,15,15,"OVERCAST,OVERCAST,CLEAR,NIGHT_MOSTLY_CLEAR,NIGHT_CLEAR,NIGHT_CLEAR,NIGHT_MOSTLY_CLOUDY,NIGHT_MOSTLY_CLOUDY","Cross-shore,Cross-shore,Cross-shore,Onshore,Cross-shore,Onshore,Onshore,Onshore",8
5842041f4e65fad6a7708839,2024_02_27,32.865777159358856,-117.25614295356122,Scripps,2.35375,0.5457583333333333,0.8497833333333333,14,14,"OVERCAST,MOSTLY_CLOUDY,MOSTLY_CLOUDY,NIGHT_CLEAR,NIGHT_MOSTLY_CLOUDY,NIGHT_CLEAR,NIGHT_CLEAR,NIGHT_MOSTLY_CLOUDY","Onshore,Onshore,Offshore,Offshore,Offshore,Onshore,Cross-shore,Cross-shore",8
5842041f4e65fad6a770883a,2024_02_27,32.813094,-117.27381,Birdrock,2.625,0.51,0.8150000000000001,15,15,"OVERCAST,MOSTLY_CLOUDY,MOSTLY_CLOUDY,NIGHT_MOSTLY_CLEAR,NIGHT_MOSTLY_CLOUDY,NIGHT_OVERCAST,NIGHT_MOSTLY_CLOUDY,NIGHT_CLEAR","Cross-shore,Cross-shore,Cross-shore,Cross-shore,Cross-shore,Offshore,Cross-shore,Cross-shore",8
5842041f4e65fad6a770883b,2024_02_27,32.877231,-117.25303,Blacks,3.45875,0.805825,1.327,14,14,"OVERCAST,MOSTLY_CLOUDY,MOSTLY_CLOUDY,NIGHT_CLEAR,NIGHT_MOSTLY_CLOUDY,NIGHT_CLEAR,NIGHT_CLEAR,NIGHT_MOSTLY_CLOUDY","Onshore,Onshore,Onshore,Onshore,Onshore,Onshore,Onshore,Onshore",8
5842041f4e65fad6a770883c,2024_02_27,32.82978974229765,-117.28161740727381,Windansea,2.77125,0.77145,1.0786,14,14,"OVERCAST,MOSTLY_CLOUDY,MOSTLY_CLOUDY,NIGHT_MOSTLY_CLEAR,NIGHT_MOSTLY_CLOUDY,NIGHT_CLOUDY,NIGHT_CLEAR,NIGHT_MOSTLY_CLOUDY","Cross-shore,Cross-shore,Offshore,Offshore,Offshore,Onshore,Onshore,Onshore",8
5842041f4e65fad6a770883d,2024_02_27,32.838278,-117.28396,Horseshoe,2.5,0.50625,0.81,15,15,"OVERCAST,MOSTLY_CLOUDY,MOSTLY_CLOUDY,NIGHT_MOSTLY_CLEAR,NIGHT_MOSTLY_CLOUDY,NIGHT_CLOUDY,NIGHT_CLEAR,NIGHT_MOSTLY_CLOUDY","Onshore,Onshore,Cross-shore,Cross-shore,Cross-shore,Offshore,Cross-shore,Onshore",8
5842041f4e65fad6a770883f,2024_02_27,32.75034717673179,-117.25337,Ocean Beach,3,0.7997833333333333,1.1081833333333333,14,14,"CLOUDY,BRIEF_SHOWERS,MOSTLY_CLOUDY,NIGHT_CLEAR,NIGHT_MOSTLY_CLOUDY,NIGHT_CLEAR,NIGHT_CLEAR,NIGHT_MOSTLY_CLOUDY","Cross-shore,Cross-shore,Offshore,Offshore,Cross-shore,Onshore,Onshore,Cross-shore",8
5842041f4e65fad6a7708840,2024_02_27,32.73693,-117.25718,Sunset Cliffs,2,0.49124999999999996,0.7937500000000001,15,15,"CLOUDY,MOSTLY_CLOUDY,CLEAR,NIGHT_MOSTLY_CLEAR,NIGHT_CLOUDY,NIGHT_MOSTLY_CLOUDY,NIGHT_CLEAR,NIGHT_MOSTLY_CLOUDY","Cross-shore,Cross-shore,Offshore,Offshore,Cross-shore,Onshore,Onshore,Cross-shore",8
5842041f4e65fad6a7708841,2024_02_27,32.796582258728826,-117.25779,Pacific Beach,2.54125,0.7804083333333334,1.0856833333333333,14,14,"OVERCAST,MOSTLY_CLOUDY,MOSTLY_CLOUDY,NIGHT_MOSTLY_CLEAR,NIGHT_MOSTLY_CLOUDY,NIGHT_OVERCAST,NIGHT_CLEAR,NIGHT_CLEAR","Cross-shore,Cross-shore,Cross-shore,Cross-shore,Cross-shore,Offshore,Cross-shore,Cross-shore",8
5842041f4e65fad6a7708842,2024_02_27,32.776636,-117.25514,Mission Beach,2.54125,0.7785333333333333,1.0856833333333333,14,14,"OVERCAST,MOSTLY_CLOUDY,MOSTLY_CLOUDY,NIGHT_MOSTLY_CLEAR,NIGHT_MOSTLY_CLOUDY,NIGHT_OVERCAST,NIGHT_CLEAR,NIGHT_CLEAR","Onshore,Onshore,Cross-shore,Cross-shore,Cross-shore,Cross-shore,Offshore,Onshore",8
5842041f4e65fad6a7708844,2024_02_27,32.577195519016,-117.13475,Imperial Beach Pier,3,0.66,0.9662499999999999,16,16,"CLOUDY,OVERCAST,MOSTLY_CLOUDY,NIGHT_MOSTLY_CLEAR,NIGHT_MOSTLY_CLOUDY,NIGHT_CLEAR,NIGHT_CLEAR,NIGHT_MOSTLY_CLOUDY","Cross-shore,Offshore,Offshore,Offshore,Offshore,Onshore,Onshore,Cross-shore",8
5842041f4e65fad6a770884a,2024_02_27,42.88678181061,-70.80843,Seabrook,2.5,0.45099958333333334,0.7435791666666667,4,3,"NIGHT_CLEAR,NIGHT_CLEAR,NIGHT_CLEAR,NIGHT_CLEAR,NIGHT_CLEAR,NIGHT_CLEAR,NIGHT_CLEAR,NIGHT_CLEAR","Offshore,Offshore,Offshore,Offshore,Offshore,Onshore,Onshore,Onshore",8
5842041f4e65fad6a770884e,2024_02_27,41.434181432898335,-71.45312118111178,Narragansett,1.625,0.22098333333333334,0.5261333333333333,5,4,"NIGHT_CLEAR,NIGHT_CLEAR,NIGHT_CLEAR,NIGHT_MIST,NIGHT_MIST,NIGHT_MIST,NIGHT_MIST,NIGHT_MIST","Cross-shore,Cross-shore,Cross-shore,Cross-shore,Onshore,Cross-shore,Onshore,Onshore",8
5842041f4e65fad6a7708850,2024_02_27,40.582703230722,-73.65247,Lincoln Blvd,0.9375,0.41306666666666664,0.7204041666666667,5,4,"NIGHT_MIST,NIGHT_MIST,NIGHT_MIST,NIGHT_MIST,NIGHT_MIST,NIGHT_MIST,NIGHT_MIST,NIGHT_MIST","Onshore,Onshore,Onshore,Onshore,Onshore,Onshore,Onshore,Cross-shore",8
5842041f4e65fad6a7708852,2024_02_27,40.58342841721757,-73.81182,Rockaways,1,0.3918166666666667,0.6957166666666666,5,4,"NIGHT_CLEAR,NIGHT_MIST,NIGHT_MIST,NIGHT_CLEAR,NIGHT_CLEAR,NIGHT_MIST,NIGHT_MIST,NIGHT_MIST","Onshore,Onshore,Onshore,Onshore,Onshore,Onshore,Onshore,Cross-shore",8
5842041f4e65fad6a7708853,2024_02_27,40.330474,-73.9734,Monmouth Beach,1.60375,0.45515000000000005,0.7586333333333333,6,5,"NIGHT_CLEAR,NIGHT_CLEAR,NIGHT_CLEAR,NIGHT_MIST,NIGHT_MIST,NIGHT_CLEAR,NIGHT_CLEAR,NIGHT_MIST","Cross-shore,Cross-shore,Cross-shore,Cross-shore,Cross-shore,Cross-shore,Cross-shore,Onshore",8
5842041f4e65fad6a7708856,2024_02_27,40.113,-74.028,Manasquan Inlet,1.97875,0.34613333333333335,0.6551833333333333,6,5,"NIGHT_CLEAR,NIGHT_CLEAR,NIGHT_CLEAR,NIGHT_CLEAR,NIGHT_MIST,NIGHT_MIST,NIGHT_MIST,NIGHT_MIST","Cross-shore,Cross-shore,Cross-shore,Cross-shore,Cross-shore,Cross-shore,Cross-shore,Cross-shore",8
5842041f4e65fad6a7708857,2024_02_27,39.941519877445664,-74.06829,Casino Pier,1.97875,0.44530000000000003,0.75295,6,5,"NIGHT_CLEAR,NIGHT_CLEAR,NIGHT_CLEAR,NIGHT_CLEAR,NIGHT_CLEAR,NIGHT_CLEAR,NIGHT_MIST,NIGHT_CLEAR","Cross-shore,Cross-shore,Cross-shore,Cross-shore,Cross-shore,Cross-shore,Onshore,Onshore",8
5842041f4e65fad6a7708858,2024_02_27,39.28223089949212,-74.55766,North End OC,1,0.36765000000000003,0.6736333333333333,6,5,"NIGHT_MIST,NIGHT_MIST,NIGHT_MIST,NIGHT_MIST,NIGHT_MIST,NIGHT_BRIEF_SHOWERS_POSSIBLE,NIGHT_BRIEF_SHOWERS_POSSIBLE,NIGHT_BRIEF_SHOWERS","Onshore,Onshore,Onshore,Onshore,Onshore,Onshore,Onshore,Onshore",8
5842041f4e65fad6a770885b,2024_02_27,39.65080599934257,-74.17146,Ship Bottom,0.97875,0.48238333333333333,0.7862833333333333,6,5,"NIGHT_CLEAR,NIGHT_CLEAR,NIGHT_CLEAR,NIGHT_CLEAR,NIGHT_CLEAR,NIGHT_BRIEF_SHOWERS_POSSIBLE,NIGHT_MIST,NIGHT_MIST","Onshore,Onshore,Cross-shore,Cross-shore,Onshore,Onshore,Onshore,Onshore",8
5842041f4e65fad6a7708863,2024_02_27,36.034151543144,-75.66791,Third Street,1,0.11055000000000001,0.41609999999999997,7,6,"NIGHT_CLEAR,NIGHT_CLEAR,NIGHT_CLEAR,NIGHT_CLEAR,NIGHT_CLEAR,NIGHT_CLEAR,NIGHT_CLEAR,NIGHT_CLEAR","Offshore,Offshore,Offshore,Offshore,Offshore,Offshore,Offshore,Offshore",8
5842041f4e65fad6a7708867,2024_02_27,35.605833221351425,-75.46303,S-Turns,1.97875,0.44805,0.7526999999999999,8,7,"NIGHT_CLEAR,NIGHT_CLEAR,NIGHT_CLEAR,NIGHT_CLEAR,NIGHT_CLEAR,NIGHT_CLEAR,NIGHT_CLEAR,NIGHT_CLEAR","Offshore,Offshore,Offshore,Offshore,Offshore,Offshore,Offshore,Offshore",8
5842041f4e65fad6a770886d,2024_02_27,38.338461,-75.08117,Ocean City Boardwalk,0.5,0.29181666666666667,0.5968625000000001,7,5,"NIGHT_CLEAR,NIGHT_CLEAR,NIGHT_CLEAR,NIGHT_BRIEF_SHOWERS,NIGHT_MOSTLY_CLEAR,NIGHT_CLEAR,NIGHT_CLEAR,NIGHT_CLEAR","Cross-shore,Cross-shore,Cross-shore,Cross-shore,Cross-shore,Cross-shore,Cross-shore,Cross-shore",8
5842041f4e65fad6a770886f,2024_02_27,29.844757212379562,-81.26136,A St.,1,0.13625,0.43875000000000003,15,15,"CLEAR,NIGHT_CLEAR,NIGHT_CLEAR,NIGHT_CLEAR,NIGHT_CLEAR,NIGHT_CLEAR,NIGHT_CLEAR,NIGHT_CLEAR","Onshore,Onshore,Onshore,Onshore,Onshore,Cross-shore,Cross-shore,Cross-shore",8
5842041f4e65fad6a7708871,2024_02_27,29.069417851135093,-80.90824,New Smyrna Beach,1.54125,0.33188333333333336,0.6385583333333333,17,16,"CLEAR,NIGHT_CLEAR,NIGHT_CLEAR,NIGHT_CLEAR,NIGHT_CLEAR,NIGHT_CLEAR,NIGHT_CLEAR,NIGHT_CLEAR","Onshore,Onshore,Cross-shore,Cross-shore,Cross-shore,Cross-shore,Cross-shore,Cross-shore",8
5842041f4e65fad6a7708872,2024_02_27,28.367707417566,-80.60171,Cocoa Beach Pier,0.45875,0.009583333333333336,0.31938333333333335,18,17,"CLEAR,NIGHT_CLEAR,NIGHT_CLEAR,NIGHT_CLEAR,NIGHT_CLEAR,NIGHT_CLEAR,NIGHT_CLEAR,NIGHT_CLEAR","Onshore,Onshore,Onshore,Onshore,Onshore,Onshore,Onshore,Onshore",8
5842041f4e65fad6a7708873,2024_02_27,28.091782738658846,-80.56479,Indialantic,0.91625,0.085,0.39055,19,18,"CLEAR,NIGHT_CLEAR,NIGHT_CLEAR,NIGHT_CLEAR,NIGHT_CLEAR,NIGHT_CLEAR,NIGHT_CLEAR,NIGHT_CLEAR","Onshore,Onshore,Onshore,Onshore,Onshore,Onshore,Onshore,Cross-shore",8
5842041f4e65fad6a7708876,2024_02_27,27.25392904143517,-80.19455,Jensen Beach,0,-0.01291666666666667,0.29396666666666665,22,20,"CLEAR,NIGHT_MOSTLY_CLEAR,NIGHT_CLEAR,NIGHT_CLEAR,NIGHT_CLEAR,NIGHT_CLEAR,NIGHT_CLEAR,NIGHT_CLEAR","Onshore,Onshore,Onshore,Onshore,Cross-shore,Cross-shore,Cross-shore,Cross-shore",8
5842041f4e65fad6a7708879,2024_02_27,26.76346795333825,-80.0360655784607,Reef Road,0,-0.017708333333333336,0.17518333333333339,23,22,"CLEAR,NIGHT_CLEAR,NIGHT_CLEAR,NIGHT_CLEAR,NIGHT_CLEAR,NIGHT_CLEAR,NIGHT_CLEAR,NIGHT_CLEAR","Onshore,Onshore,Onshore,Onshore,Onshore,Onshore,Onshore,Onshore",8
5842041f4e65fad6a770887c,2024_02_27,26.336499228484,-80.06956100463,Boca Raton Inlet,0.91625,0,0.2393,24,22,"CLEAR,NIGHT_CLEAR,NIGHT_MOSTLY_CLOUDY,NIGHT_MOSTLY_CLOUDY,NIGHT_MOSTLY_CLOUDY,NIGHT_CLEAR,NIGHT_CLEAR,NIGHT_CLEAR","Onshore,Onshore,Onshore,Onshore,Onshore,Onshore,Onshore,Onshore",8
5842041f4e65fad6a770887d,2024_02_27,26.31719311695038,-80.07452525176168,Deerfield Beach Pier,0,-0.0017416666666666691,0.19061666666666668,24,23,"CLEAR,NIGHT_CLEAR,NIGHT_MOSTLY_CLOUDY,NIGHT_MOSTLY_CLOUDY,NIGHT_MOSTLY_CLOUDY,NIGHT_CLEAR,NIGHT_CLEAR,NIGHT_CLEAR","Onshore,Onshore,Onshore,Onshore,Onshore,Onshore,Onshore,Onshore",8
5842041f4e65fad6a7708881,2024_02_27,30.20276320866628,-85.85626528676136,"Spyglass Dr., Panama City",1.395,0.0721,0.4054416666666667,16,15,"CLEAR,NIGHT_CLEAR,NIGHT_CLEAR,NIGHT_CLEAR,NIGHT_CLEAR,NIGHT_MOSTLY_CLOUDY,NIGHT_CLEAR,NIGHT_MOSTLY_CLEAR","Onshore,Onshore,Onshore,Onshore,Onshore,Onshore,Onshore,Onshore",8
5842041f4e65fad6a7708884,2024_02_27,33.39000832738053,-117.59852,Cottons,3,0.5038125,0.9055,14,14,"OVERCAST,MOSTLY_CLOUDY,MOSTLY_CLEAR,NIGHT_MOSTLY_CLOUDY,NIGHT_MOSTLY_CLOUDY,NIGHT_MOSTLY_CLEAR,NIGHT_MOSTLY_CLOUDY,NIGHT_MOSTLY_CLOUDY","Onshore,Onshore,Cross-shore,Onshore,Onshore,Cross-shore,Offshore,Cross-shore",8
5842041f4e65fad6a7708885,2024_02_27,33.359416282661,-117.54167901405711,Trails,2,0.195,0.50125,15,15,"OVERCAST,MOSTLY_CLOUDY,MOSTLY_CLOUDY,NIGHT_MOSTLY_CLOUDY,NIGHT_MOSTLY_CLOUDY,NIGHT_MOSTLY_CLOUDY,NIGHT_MOSTLY_CLOUDY,NIGHT_MOSTLY_CLOUDY","Cross-shore,Cross-shore,Offshore,Cross-shore,Offshore,Cross-shore,Offshore,Onshore",8
5842041f4e65fad6a7708886,2024_02_27,33.38042605929805,-117.58332,Middles,2.66625,0.32175,0.7237500000000001,14,14,"OVERCAST,MOSTLY_CLOUDY,MOSTLY_CLEAR,NIGHT_MOSTLY_CLOUDY,NIGHT_MOSTLY_CLOUDY,NIGHT_MOSTLY_CLEAR,NIGHT_MOSTLY_CLOUDY,NIGHT_MOSTLY_CLOUDY","Onshore,Cross-shore,Cross-shore,Cross-shore,Cross-shore,Cross-shore,Offshore,Offshore",8
5842041f4e65fad6a7708887,2024_02_27,33.38445596302903,-117.59445,Upper Trestles,3,0.50725,0.9117500000000001,14,14,"OVERCAST,MOSTLY_CLOUDY,MOSTLY_CLEAR,NIGHT_MOSTLY_CLOUDY,NIGHT_MOSTLY_CLOUDY,NIGHT_MOSTLY_CLEAR,NIGHT_MOSTLY_CLOUDY,NIGHT_MOSTLY_CLOUDY","Onshore,Cross-shore,Cross-shore,Cross-shore,Cross-shore,Cross-shore,Offshore,Cross-shore",8
5842041f4e65fad6a7708889,2024_02_27,28.944414,-95.28883,Surfside,1,0.6367975,0.99499625,17,17,"MIST,DRIZZLE,NIGHT_MIST,NIGHT_MIST,NIGHT_MIST,NIGHT_DRIZZLE,NIGHT_MIST,NIGHT_DRIZZLE","Onshore,Onshore,Onshore,Onshore,Onshore,Onshore,Onshore,Onshore",8
5842041f4e65fad6a770888a,2024_02_27,33.38143999849023,-117.58843,Lower Trestles,3,0.541,0.93675,14,14,"OVERCAST,MOSTLY_CLOUDY,MOSTLY_CLEAR,NIGHT_MOSTLY_CLOUDY,NIGHT_MOSTLY_CLOUDY,NIGHT_MOSTLY_CLEAR,NIGHT_MOSTLY_CLOUDY,NIGHT_MOSTLY_CLOUDY","Onshore,Cross-shore,Cross-shore,Cross-shore,Cross-shore,Cross-shore,Offshore,Cross-shore",8
5842041f4e65fad6a770888b,2024_02_27,33.379622288757,-117.57894,Church,2.66625,0.263,0.66625,14,14,"OVERCAST,MOSTLY_CLOUDY,MOSTLY_CLEAR,NIGHT_MOSTLY_CLOUDY,NIGHT_MOSTLY_CLOUDY,NIGHT_MOSTLY_CLEAR,NIGHT_MOSTLY_CLOUDY,NIGHT_MOSTLY_CLOUDY","Onshore,Onshore,Cross-shore,Onshore,Cross-shore,Cross-shore,Offshore,Cross-shore",8
5842041f4e65fad6a770888d,2024_02_27,21.679,-158.042,Sunset Beach,2.97875,1.3372666666666666,1.7541000000000002,26,25,"MOSTLY_CLEAR,BRIEF_SHOWERS,CLEAR,CLEAR,MOSTLY_CLEAR,CLEAR,NIGHT_MOSTLY_CLEAR,NIGHT_CLEAR","Cross-shore,Cross-shore,Offshore,Cross-shore,Cross-shore,Cross-shore,Cross-shore,Cross-shore",8
5842041f4e65fad6a770888e,2024_02_27,21.670550036401,-158.0482,Rocky Point,3.22875,1.87185,2.3924333333333334,26,25,"CLEAR,SHOWERS,BRIEF_SHOWERS,CLEAR,SHOWERS,MOSTLY_CLEAR,NIGHT_MOSTLY_CLEAR,NIGHT_CLEAR","Cross-shore,Cross-shore,Cross-shore,Cross-shore,Cross-shore,Cross-shore,Cross-shore,Cross-shore",8
5842041f4e65fad6a770888f,2024_02_27,21.668,-158.05,Chambers,3,2.01,2.4025,24,24,"CLEAR,SHOWERS,BRIEF_SHOWERS,CLEAR,SHOWERS,MOSTLY_CLEAR,NIGHT_MOSTLY_CLEAR,NIGHT_CLEAR","Cross-shore,Cross-shore,Cross-shore,Cross-shore,Cross-shore,Cross-shore,Cross-shore,Cross-shore",8
5842041f4e65fad6a7708890,2024_02_27,21.66522,-158.0526,Pipeline,2.02125,1.4335166666666668,1.8163166666666668,26,25,"CLEAR,SHOWERS,BRIEF_SHOWERS,CLEAR,SHOWERS,MOSTLY_CLEAR,NIGHT_MOSTLY_CLEAR,NIGHT_CLEAR","Cross-shore,Cross-shore,Cross-shore,Cross-shore,Cross-shore,Cross-shore,Cross-shore,Cross-shore",8
5842041f4e65fad6a7708891,2024_02_27,21.665,-158.054,Backdoor,3.10375,1.4335166666666668,1.8163166666666668,26,25,"CLEAR,SHOWERS,BRIEF_SHOWERS,CLEAR,SHOWERS,MOSTLY_CLEAR,NIGHT_MOSTLY_CLEAR,NIGHT_CLEAR","Cross-shore,Cross-shore,Cross-shore,Cross-shore,Cross-shore,Cross-shore,Cross-shore,Cross-shore",8
5842041f4e65fad6a7708892,2024_02_27,21.662,-158.057,Rockpile,3,1.6525,1.9762499999999998,24,24,"CLEAR,SHOWERS,BRIEF_SHOWERS,CLEAR,SHOWERS,MOSTLY_CLEAR,NIGHT_MOSTLY_CLEAR,NIGHT_CLEAR","Cross-shore,Cross-shore,Cross-shore,Cross-shore,Cross-shore,Cross-shore,Cross-shore,Cross-shore",8
5842041f4e65fad6a7708893,2024_02_27,21.65870453806827,-158.06058,Log Cabins,2.75,1.33125,1.595,24,24,"CLEAR,SHOWERS,BRIEF_SHOWERS,CLEAR,SHOWERS,MOSTLY_CLEAR,NIGHT_MOSTLY_CLEAR,NIGHT_CLEAR","Cross-shore,Cross-shore,Cross-shore,Cross-shore,Cross-shore,Cross-shore,Cross-shore,Cross-shore",8
5842041f4e65fad6a7708894,2024_02_27,21.66203493640557,-158.05495,Off-The-Wall,3,1.3625,1.635,24,24,"CLEAR,SHOWERS,BRIEF_SHOWERS,CLEAR,SHOWERS,MOSTLY_CLEAR,NIGHT_MOSTLY_CLEAR,NIGHT_CLEAR","Cross-shore,Cross-shore,Cross-shore,Cross-shore,Cross-shore,Cross-shore,Cross-shore,Cross-shore",8
5842041f4e65fad6a7708895,2024_02_27,21.643,-158.067,Waimea Bay,NA,1.1797666666666666,1.5649333333333333,26,25,"CLEAR,SHOWERS,BRIEF_SHOWERS,CLEAR,SHOWERS,MOSTLY_CLEAR,NIGHT_MOSTLY_CLEAR,NIGHT_CLEAR","Offshore,Cross-shore,Cross-shore,Offshore,Cross-shore,Offshore,Offshore,Offshore",8
5842041f4e65fad6a7708896,2024_02_27,21.622,-158.087,Hultin's,3,1.1751833333333335,1.5366,26,25,"CLEAR,CLEAR,MOSTLY_CLEAR,CLEAR,BRIEF_SHOWERS_POSSIBLE,CLEAR,NIGHT_CLEAR,NIGHT_CLEAR","Offshore,Offshore,Offshore,Offshore,Offshore,Offshore,Offshore,Offshore",8
5842041f4e65fad6a7708897,2024_02_27,21.623,-158.085,Jocko's,2.625,1.445,1.73375,24,24,"CLEAR,CLEAR,MOSTLY_CLEAR,CLEAR,BRIEF_SHOWERS_POSSIBLE,CLEAR,NIGHT_CLEAR,NIGHT_CLEAR","Onshore,Onshore,Onshore,Cross-shore,Onshore,Onshore,Cross-shore,Cross-shore",8
5842041f4e65fad6a7708898,2024_02_27,21.62,-158.088,Laniakea,3,1.1839333333333333,1.5325666666666666,26,25,"CLEAR,CLEAR,MOSTLY_CLEAR,CLEAR,BRIEF_SHOWERS_POSSIBLE,CLEAR,NIGHT_CLEAR,NIGHT_CLEAR","Cross-shore,Cross-shore,Cross-shore,Cross-shore,Cross-shore,Cross-shore,Offshore,Offshore",8
5842041f4e65fad6a7708899,2024_02_27,21.625,-158.083,Chun's,2.125,1.55125,1.855,24,24,"CLEAR,CLEAR,MOSTLY_CLEAR,CLEAR,BRIEF_SHOWERS_POSSIBLE,CLEAR,NIGHT_CLEAR,NIGHT_CLEAR","Offshore,Cross-shore,Offshore,Offshore,Offshore,Offshore,Offshore,Offshore",8
5842041f4e65fad6a770889c,2024_02_27,21.286357895152136,-157.8515,South Shore - Ala Moana Park,2,0.48375,0.7887500000000001,24,24,"CLEAR,CLEAR,CLEAR,CLEAR,CLEAR,BRIEF_SHOWERS_POSSIBLE,NIGHT_CLEAR,NIGHT_BRIEF_SHOWERS","Offshore,Offshore,Offshore,Offshore,Offshore,Offshore,Offshore,Offshore",8
5842041f4e65fad6a770889d,2024_02_27,19.606,-155.978,Banyans,2,0.5482166666666667,0.85045,26,25,"CLEAR,CLEAR,CLEAR,CLEAR,MOSTLY_CLEAR,MOSTLY_CLEAR,NIGHT_MOSTLY_CLEAR,NIGHT_CLEAR","Onshore,Onshore,Onshore,Onshore,Onshore,Onshore,Onshore,Onshore",8
5842041f4e65fad6a770889e,2024_02_27,20.029,-155.831,Kawaihae,1.625,0.4444,0.6415075,25,25,"CLEAR,CLEAR,CLEAR,CLEAR,CLEAR,CLEAR,NIGHT_CLEAR,NIGHT_CLEAR","Offshore,Offshore,Cross-shore,Offshore,Offshore,Offshore,Offshore,Offshore",8
5842041f4e65fad6a770889f,2024_02_27,33.07541383424675,-117.3105,Grandview,3,0.32875,0.63125,15,15,"OVERCAST,CLOUDY,CLEAR,NIGHT_CLEAR,NIGHT_MOSTLY_CLOUDY,NIGHT_MOSTLY_CLOUDY,NIGHT_MOSTLY_CLOUDY,NIGHT_MOSTLY_CLOUDY","Onshore,Onshore,Onshore,Onshore,Onshore,Cross-shore,Onshore,Cross-shore",8
5842041f4e65fad6a77088a0,2024_02_27,33.065267421296596,-117.30577,Beacons,3,0.32375,0.62625,15,15,"OVERCAST,CLOUDY,CLEAR,NIGHT_CLEAR,NIGHT_MOSTLY_CLOUDY,NIGHT_MOSTLY_CLOUDY,NIGHT_MOSTLY_CLOUDY,NIGHT_MOSTLY_CLOUDY","Onshore,Onshore,Onshore,Onshore,Onshore,Cross-shore,Onshore,Cross-shore",8
5842041f4e65fad6a77088a2,2024_02_27,21.252,-157.805,Diamond Head,3,0.72469625,1.0858104166666667,26,25,"CLEAR,MOSTLY_CLEAR,CLEAR,CLEAR,CLEAR,CLEAR,NIGHT_CLEAR,NIGHT_MOSTLY_CLOUDY","Cross-shore,Cross-shore,Cross-shore,Offshore,Offshore,Cross-shore,Offshore,Cross-shore",8
5842041f4e65fad6a77088a3,2024_02_27,33.04694255008896,-117.29966,Moonlight State Beach,3,0.32,0.625,15,15,"OVERCAST,OVERCAST,CLEAR,NIGHT_CLEAR,NIGHT_MOSTLY_CLOUDY,NIGHT_CLEAR,NIGHT_CLEAR,NIGHT_MOSTLY_CLOUDY","Onshore,Onshore,Onshore,Onshore,Onshore,Cross-shore,Cross-shore,Onshore",8
5842041f4e65fad6a77088a5,2024_02_27,33.08685865930869,-117.31532,Ponto,2.25,0.435,0.7424999999999999,15,15,"OVERCAST,CLOUDY,CLEAR,NIGHT_CLEAR,NIGHT_MOSTLY_CLOUDY,NIGHT_MOSTLY_CLOUDY,NIGHT_MOSTLY_CLOUDY,NIGHT_MOSTLY_CLOUDY","Onshore,Onshore,Onshore,Onshore,Onshore,Offshore,Onshore,Onshore",8
5842041f4e65fad6a77088a6,2024_02_27,33.130343587871906,-117.33667796442558,Terra Mar Point,2.75,0.7177,1.0211000000000001,15,15,"OVERCAST,OVERCAST,CLEAR,NIGHT_MOSTLY_CLEAR,NIGHT_MOSTLY_CLOUDY,NIGHT_MOSTLY_CLOUDY,NIGHT_MOSTLY_CLOUDY,NIGHT_MOSTLY_CLOUDY","Cross-shore,Onshore,Cross-shore,Cross-shore,Offshore,Onshore,Onshore,Onshore",8
5842041f4e65fad6a77088af,2024_02_27,32.95916304183685,-117.26963,Del Mar,3,0.4475,0.75125,15,15,"CLOUDY,OVERCAST,CLEAR,NIGHT_CLEAR,NIGHT_MOSTLY_CLOUDY,NIGHT_CLOUDY,NIGHT_CLEAR,NIGHT_MOSTLY_CLOUDY","Onshore,Cross-shore,Onshore,Cross-shore,Cross-shore,Onshore,Cross-shore,Cross-shore",8
5842041f4e65fad6a77088b0,2024_02_27,32.97527261243354,-117.2721061331305,Del Mar Rivermouth,2.5,0.41874999999999996,0.7224999999999999,15,15,"CLEAR,OVERCAST,MOSTLY_CLOUDY,NIGHT_CLEAR,NIGHT_MOSTLY_CLOUDY,NIGHT_MOSTLY_CLOUDY,NIGHT_MOSTLY_CLOUDY,NIGHT_MOSTLY_CLOUDY","Onshore,Cross-shore,Onshore,Cross-shore,Cross-shore,Onshore,Offshore,Onshore",8
5842041f4e65fad6a77088b1,2024_02_27,33.01352178146273,-117.28219,Cardiff Reef,3,0.5147166666666667,0.9246083333333334,15,15,"OVERCAST,OVERCAST,MOSTLY_CLOUDY,NIGHT_CLEAR,NIGHT_MOSTLY_CLOUDY,NIGHT_MOSTLY_CLOUDY,NIGHT_MOSTLY_CLOUDY,NIGHT_MOSTLY_CLOUDY","Cross-shore,Cross-shore,Cross-shore,Offshore,Offshore,Onshore,Onshore,Onshore",8
5842041f4e65fad6a77088b3,2024_02_27,33.00211185876003,-117.2811,Seaside Reef,3,0.5447166666666666,0.9539833333333333,15,15,"OVERCAST,OVERCAST,MOSTLY_CLOUDY,NIGHT_CLEAR,NIGHT_MOSTLY_CLOUDY,NIGHT_MOSTLY_CLOUDY,NIGHT_MOSTLY_CLOUDY,NIGHT_MOSTLY_CLOUDY","Cross-shore,Cross-shore,Offshore,Offshore,Offshore,Cross-shore,Cross-shore,Onshore",8
5842041f4e65fad6a77088b4,2024_02_27,33.0341859796287,-117.29552,Swami's,3,0.772075,1.07735,15,15,"OVERCAST,OVERCAST,MOSTLY_CLOUDY,NIGHT_CLEAR,NIGHT_MOSTLY_CLOUDY,NIGHT_MOSTLY_CLOUDY,NIGHT_MOSTLY_CLOUDY,NIGHT_MOSTLY_CLOUDY","Onshore,Onshore,Onshore,Onshore,Onshore,Cross-shore,Cross-shore,Onshore",8
5842041f4e65fad6a77088b7,2024_02_27,33.04569760260221,-117.2994,D Street,3,0.3925,0.6975,15,15,"OVERCAST,OVERCAST,CLEAR,NIGHT_CLEAR,NIGHT_MOSTLY_CLOUDY,NIGHT_CLEAR,NIGHT_CLEAR,NIGHT_MOSTLY_CLOUDY","Onshore,Onshore,Onshore,Onshore,Onshore,Cross-shore,Cross-shore,Onshore",8
5842041f4e65fad6a77088b8,2024_02_27,33.02090944350196,-117.28535,San Elijo State Beach,3,0.48096666666666665,0.8948166666666667,15,15,"OVERCAST,OVERCAST,MOSTLY_CLOUDY,NIGHT_CLEAR,NIGHT_MOSTLY_CLOUDY,NIGHT_MOSTLY_CLOUDY,NIGHT_MOSTLY_CLOUDY,NIGHT_MOSTLY_CLOUDY","Cross-shore,Cross-shore,Cross-shore,Offshore,Offshore,Onshore,Onshore,Onshore",8
5842041f4e65fad6a77088c2,2024_02_27,32.80662846492798,-117.2688764333725,PB Point,2.625,0.43875,0.74375,15,15,"OVERCAST,MOSTLY_CLOUDY,MOSTLY_CLOUDY,NIGHT_MOSTLY_CLEAR,NIGHT_MOSTLY_CLOUDY,NIGHT_OVERCAST,NIGHT_MOSTLY_CLOUDY,NIGHT_CLEAR","Cross-shore,Offshore,Offshore,Cross-shore,Offshore,Cross-shore,Onshore,Cross-shore",8
5842041f4e65fad6a77088c4,2024_02_27,32.8060476681448,-117.26479,Old Man's at Tourmaline,2.75,0.37875000000000003,0.6825,15,15,"OVERCAST,MOSTLY_CLOUDY,MOSTLY_CLOUDY,NIGHT_MOSTLY_CLEAR,NIGHT_MOSTLY_CLOUDY,NIGHT_OVERCAST,NIGHT_MOSTLY_CLOUDY,NIGHT_CLEAR","Cross-shore,Cross-shore,Offshore,Offshore,Offshore,Offshore,Cross-shore,Cross-shore",8
5842041f4e65fad6a77088cb,2024_02_27,32.557056711256,-117.1327445020322,Tijuana Slough,2,0.315,0.6225,16,16,"CLEAR,MOSTLY_CLOUDY,MOSTLY_CLOUDY,NIGHT_MOSTLY_CLEAR,NIGHT_MOSTLY_CLOUDY,NIGHT_CLEAR,NIGHT_CLEAR,NIGHT_CLEAR","Cross-shore,Offshore,Offshore,Offshore,Offshore,Onshore,Onshore,Onshore",8
5842041f4e65fad6a77088cc,2024_02_27,32.863,-117.257,La Jolla Shores,2,0.335,0.64,15,15,"OVERCAST,MOSTLY_CLOUDY,MOSTLY_CLOUDY,NIGHT_CLEAR,NIGHT_MOSTLY_CLOUDY,NIGHT_CLEAR,NIGHT_CLEAR,NIGHT_MOSTLY_CLOUDY","Onshore,Onshore,Offshore,Offshore,Offshore,Onshore,Cross-shore,Cross-shore",8
5842041f4e65fad6a77088ce,2024_02_27,32.67443657790586,-117.17421316238693,Coronado Beach,2.625,0.35375,0.66,15,15,"LIGHT_RAIN,OVERCAST,MOSTLY_CLOUDY,NIGHT_MOSTLY_CLEAR,NIGHT_OVERCAST,NIGHT_CLEAR,NIGHT_CLEAR,NIGHT_MOSTLY_CLOUDY","Offshore,Offshore,Cross-shore,Cross-shore,Cross-shore,Cross-shore,Onshore,Onshore",8
5842041f4e65fad6a77088cf,2024_02_27,33.40484417640326,-117.60749,San Clemente State Beach,2,0.24375,0.5475000000000001,15,15,"OVERCAST,MOSTLY_CLOUDY,CLEAR,NIGHT_MOSTLY_CLOUDY,NIGHT_MOSTLY_CLOUDY,NIGHT_MOSTLY_CLEAR,NIGHT_MOSTLY_CLOUDY,NIGHT_MOSTLY_CLOUDY","Offshore,Offshore,Onshore,Onshore,Onshore,Offshore,Offshore,Offshore",8
5842041f4e65fad6a77088d5,2024_02_27,33.4663042002114,-117.7168352817103,Strands,3,0.48975,0.8917499999999999,14,14,"DRIZZLE,MOSTLY_CLOUDY,CLEAR,NIGHT_CLEAR,NIGHT_MOSTLY_CLOUDY,NIGHT_CLEAR,NIGHT_MOSTLY_CLOUDY,NIGHT_MOSTLY_CLOUDY","Offshore,Offshore,Cross-shore,Onshore,Onshore,Offshore,Offshore,Cross-shore",8
5842041f4e65fad6a77088d7,2024_02_27,33.4609858001748,-117.68535,Doheny State Beach,2,0.018749999999999996,0.32675,14,14,"OVERCAST,MOSTLY_CLOUDY,CLEAR,NIGHT_CLEAR,NIGHT_MOSTLY_CLOUDY,NIGHT_MOSTLY_CLEAR,NIGHT_MOSTLY_CLOUDY,NIGHT_MOSTLY_CLOUDY","Onshore,Cross-shore,Offshore,Cross-shore,Offshore,Offshore,Onshore,Offshore",8
5842041f4e65fad6a77088dc,2024_02_27,33.50894790083017,-117.75243,Aliso Creek,2,0.2875,0.59,15,15,"DRIZZLE,MOSTLY_CLOUDY,CLEAR,NIGHT_CLEAR,NIGHT_CLEAR,NIGHT_CLEAR,NIGHT_CLEAR,NIGHT_MOSTLY_CLOUDY","Offshore,Offshore,Cross-shore,Onshore,Onshore,Offshore,Offshore,Cross-shore",8
5842041f4e65fad6a77088dd,2024_02_27,33.5326591767067,-117.77764,Brooks Street,2,0.1525,0.45625,15,15,"OVERCAST,MOSTLY_CLOUDY,CLEAR,NIGHT_CLEAR,NIGHT_MOSTLY_CLEAR,NIGHT_CLEAR,NIGHT_MOSTLY_CLOUDY,NIGHT_MOSTLY_CLOUDY","Offshore,Offshore,Cross-shore,Onshore,Onshore,Offshore,Offshore,Cross-shore",8
5842041f4e65fad6a77088de,2024_02_27,33.53561225884637,-117.7799,Thalia Street,2,0.18,0.485,15,15,"OVERCAST,MOSTLY_CLOUDY,CLEAR,NIGHT_CLEAR,NIGHT_MOSTLY_CLEAR,NIGHT_CLEAR,NIGHT_MOSTLY_CLOUDY,NIGHT_MOSTLY_CLOUDY","Offshore,Offshore,Onshore,Onshore,Onshore,Offshore,Offshore,Cross-shore",8
5842041f4e65fad6a77088e3,2024_02_27,33.54268310353641,-117.7916,Rockpile,2.625,0.30625,0.61,15,15,"OVERCAST,MOSTLY_CLOUDY,CLEAR,NIGHT_CLEAR,NIGHT_MOSTLY_CLEAR,NIGHT_CLEAR,NIGHT_MOSTLY_CLOUDY,NIGHT_MOSTLY_CLOUDY","Offshore,Offshore,Onshore,Onshore,Onshore,Offshore,Offshore,Cross-shore",8
5842041f4e65fad6a77088e4,2024_02_27,33.7368459504689,-118.10342,"Seal Beach Pier, Southside",1,0,0.25375000000000003,15,15,"OVERCAST,CLEAR,CLEAR,NIGHT_MOSTLY_CLOUDY,NIGHT_MOSTLY_CLOUDY,NIGHT_CLEAR,NIGHT_MOSTLY_CLOUDY,NIGHT_MOSTLY_CLEAR","Onshore,Onshore,Cross-shore,Cross-shore,Cross-shore,Offshore,Offshore,Cross-shore",8
5842041f4e65fad6a77088e5,2024_02_27,33.73933701820233,-118.117,Ray Bay,1,0,0.275,15,15,"OVERCAST,CLEAR,CLEAR,NIGHT_MOSTLY_CLOUDY,NIGHT_MOSTLY_CLOUDY,NIGHT_CLEAR,NIGHT_MIST,NIGHT_MOSTLY_CLEAR","Onshore,Onshore,Onshore,Onshore,Cross-shore,Offshore,Cross-shore,Cross-shore",8
5842041f4e65fad6a77088e7,2024_02_27,33.728733,-118.08982,Surfside,1.625,0.0225,0.32875,15,15,"OVERCAST,MOSTLY_CLOUDY,CLEAR,NIGHT_MOSTLY_CLOUDY,NIGHT_MOSTLY_CLOUDY,NIGHT_MOSTLY_CLEAR,NIGHT_MOSTLY_CLOUDY,NIGHT_MOSTLY_CLEAR","Onshore,Onshore,Cross-shore,Cross-shore,Cross-shore,Offshore,Offshore,Offshore",8
5842041f4e65fad6a77088e8,2024_02_27,33.68760321488161,-118.04236,Bolsa Chica State Beach,2.375,0.44725000000000004,0.7565,14,14,"OVERCAST,MOSTLY_CLOUDY,CLEAR,NIGHT_MOSTLY_CLOUDY,NIGHT_MOSTLY_CLEAR,NIGHT_MOSTLY_CLEAR,NIGHT_MOSTLY_CLOUDY,NIGHT_MOSTLY_CLEAR","Cross-shore,Cross-shore,Onshore,Onshore,Onshore,Onshore,Onshore,Cross-shore",8
5842041f4e65fad6a77088ea,2024_02_27,33.66704400178788,-118.0192,North HB Streets,2.64625,0.47475,0.8720625,14,14,"OVERCAST,CLEAR,MOSTLY_CLEAR,NIGHT_MOSTLY_CLOUDY,NIGHT_CLEAR,NIGHT_MOSTLY_CLEAR,NIGHT_MOSTLY_CLOUDY,NIGHT_MOSTLY_CLOUDY","Offshore,Cross-shore,Onshore,Onshore,Onshore,Onshore,Cross-shore,Cross-shore",8
5842041f4e65fad6a77088ed,2024_02_27,33.65475101379567,-118.00291,Huntington Beach Pier Southside,2.4375,0.48225,0.883,14,14,"OVERCAST,CLEAR,MOSTLY_CLEAR,NIGHT_MOSTLY_CLOUDY,NIGHT_MOSTLY_CLEAR,NIGHT_MOSTLY_CLEAR,NIGHT_MOSTLY_CLOUDY,NIGHT_MOSTLY_CLOUDY","Onshore,Onshore,Onshore,Onshore,Onshore,Onshore,Cross-shore,Onshore",8
5842041f4e65fad6a77088ee,2024_02_27,33.62778647706099,-117.95939,River Jetties,2.4375,0.49725,0.8967499999999999,15,15,"OVERCAST,CLEAR,CLEAR,NIGHT_MOSTLY_CLOUDY,NIGHT_MOSTLY_CLEAR,NIGHT_CLEAR,NIGHT_MOSTLY_CLOUDY,NIGHT_MOSTLY_CLOUDY","Onshore,Onshore,Onshore,Cross-shore,Onshore,Offshore,Onshore,Cross-shore",8
5842041f4e65fad6a77088f2,2024_02_27,33.605165797643664,-117.92500376701355,Newport Point,2.25,0.2875,0.5925,15,15,"CLOUDY,MOSTLY_CLOUDY,CLEAR,NIGHT_MOSTLY_CLOUDY,NIGHT_MOSTLY_CLEAR,NIGHT_MOSTLY_CLEAR,NIGHT_MOSTLY_CLOUDY,NIGHT_MOSTLY_CLOUDY","Offshore,Cross-shore,Onshore,Onshore,Onshore,Offshore,Cross-shore,Cross-shore",8
5842041f4e65fad6a77088f3,2024_02_27,33.58982984726977,-117.87713,Corona del Mar,1.125,0.18990875000000002,0.2967325,15,15,"OVERCAST,CLEAR,CLEAR,NIGHT_CLEAR,NIGHT_CLEAR,NIGHT_CLEAR,NIGHT_MOSTLY_CLOUDY,NIGHT_MOSTLY_CLOUDY","Onshore,Cross-shore,Cross-shore,Offshore,Offshore,Cross-shore,Offshore,Cross-shore",8
5842041f4e65fad6a77088f7,2024_02_27,34.00750300824362,-118.4971783496269,Santa Monica Pier,2,0.26625,0.57375,15,15,"OVERCAST,MOSTLY_CLOUDY,MOSTLY_CLOUDY,NIGHT_DRIZZLE,NIGHT_MIST,NIGHT_MOSTLY_CLOUDY,NIGHT_MOSTLY_CLOUDY,NIGHT_MOSTLY_CLOUDY","Onshore,Onshore,Onshore,Onshore,Onshore,Onshore,Onshore,Onshore",8
5842041f4e65fad6a77088ff,2024_02_27,33.94070283102945,-118.44321,Dockweiler Beach,2.48,0.6411895833333333,0.8930220833333333,14,14,"BRIEF_SHOWERS,MIST,MIST,NIGHT_DRIZZLE,NIGHT_MIST,NIGHT_MOSTLY_CLOUDY,NIGHT_MOSTLY_CLOUDY,NIGHT_CLOUDY","Onshore,Onshore,Onshore,Onshore,Onshore,Onshore,Onshore,Onshore",8
5842041f4e65fad6a7708900,2024_02_27,33.9231846937237,-118.4341465777908,Shitpipe,2.48,0.43520000000000003,0.7386333333333333,14,14,"BRIEF_SHOWERS,CLEAR,MOSTLY_CLOUDY,NIGHT_LIGHT_RAIN,NIGHT_BRIEF_SHOWERS,NIGHT_MOSTLY_CLOUDY,NIGHT_MOSTLY_CLOUDY,NIGHT_OVERCAST","Onshore,Onshore,Onshore,Onshore,Onshore,Onshore,Onshore,Onshore",8
5842041f4e65fad6a7708902,2024_02_27,33.9108528052242,-118.4279133138721,Hammerland,2.48,0.4597833333333334,0.7657166666666666,14,14,"BRIEF_SHOWERS,CLEAR,MOSTLY_CLOUDY,NIGHT_LIGHT_RAIN,NIGHT_BRIEF_SHOWERS,NIGHT_MOSTLY_CLOUDY,NIGHT_MOSTLY_CLOUDY,NIGHT_OVERCAST","Onshore,Onshore,Onshore,Onshore,Onshore,Onshore,Onshore,Onshore",8
5842041f4e65fad6a7708904,2024_02_27,33.87201368173932,-118.4075151286262,Hermosa Beach,1.605,0.25843333333333335,0.5647833333333334,14,14,"CLOUDY,CLEAR,MOSTLY_CLOUDY,NIGHT_MIST,NIGHT_BRIEF_SHOWERS,NIGHT_MOSTLY_CLEAR,NIGHT_MOSTLY_CLEAR,NIGHT_MOSTLY_CLOUDY","Cross-shore,Onshore,Onshore,Onshore,Onshore,Onshore,Onshore,Onshore",8
5842041f4e65fad6a7708906,2024_02_27,33.90129336911256,-118.42184,El Porto,2.605,0.4802,0.7823833333333334,14,14,"MIST,CLEAR,MOSTLY_CLOUDY,NIGHT_MIST,NIGHT_MIST,NIGHT_CLEAR,NIGHT_MOSTLY_CLOUDY,NIGHT_OVERCAST","Cross-shore,Onshore,Onshore,Onshore,Onshore,Onshore,Onshore,Onshore",8
5842041f4e65fad6a7708907,2024_02_27,33.87963506431794,-118.41102,Manhattan Beach Pier,2.605,0.4552,0.7573833333333333,14,14,"MIST,CLEAR,MOSTLY_CLOUDY,NIGHT_MIST,NIGHT_MIST,NIGHT_CLEAR,NIGHT_MOSTLY_CLOUDY,NIGHT_OVERCAST","Cross-shore,Onshore,Onshore,Onshore,Onshore,Onshore,Onshore,Onshore",8
5842041f4e65fad6a7708914,2024_02_27,34.038053387863464,-118.5532,Sunset Point,2,0.14375000000000002,0.4475,15,15,"MOSTLY_CLOUDY,CLEAR,MIST,NIGHT_MIST,NIGHT_MIST,NIGHT_CLOUDY,NIGHT_MOSTLY_CLOUDY,NIGHT_MOSTLY_CLOUDY","Onshore,Cross-shore,Onshore,Offshore,Offshore,Cross-shore,Offshore,Offshore",8
5842041f4e65fad6a7708920,2024_02_27,33.80930828074364,-118.3933198342649,Haggerty's,1,0.0345,0.219,15,15,"CLEAR,CLEAR,CLEAR,NIGHT_CLOUDY,NIGHT_MIST,NIGHT_MOSTLY_CLEAR,NIGHT_MOSTLY_CLEAR,NIGHT_MOSTLY_CLOUDY","Offshore,Offshore,Cross-shore,Cross-shore,Cross-shore,Onshore,Onshore,Onshore",8
5842041f4e65fad6a7708921,2024_02_27,33.85044519861206,-118.40048,Redondo Breakwater,2,0.28,0.585,15,15,"CLOUDY,CLEAR,MOSTLY_CLOUDY,NIGHT_MIST,NIGHT_BRIEF_SHOWERS,NIGHT_MOSTLY_CLEAR,NIGHT_MOSTLY_CLEAR,NIGHT_MOSTLY_CLOUDY","Cross-shore,Onshore,Onshore,Onshore,Onshore,Onshore,Onshore,Onshore",8
5842041f4e65fad6a7708927,2024_02_27,33.70877301002487,-118.2840112858389,Cabrillo Beach,1,0,0.2375,15,15,"CLEAR,MOSTLY_CLEAR,MOSTLY_CLOUDY,NIGHT_MOSTLY_CLOUDY,NIGHT_OVERCAST,NIGHT_MOSTLY_CLEAR,NIGHT_MIST,NIGHT_MOSTLY_CLOUDY","Onshore,Onshore,Onshore,Onshore,Onshore,Offshore,Offshore,Offshore",8
5842041f4e65fad6a770892c,2024_02_27,33.77209986806257,-118.4268428476672,Lunada Bay,1,0.28500000000000003,0.58875,15,15,"MIST,CLEAR,MIST,NIGHT_MIST,NIGHT_MIST,NIGHT_MOSTLY_CLEAR,NIGHT_MOSTLY_CLEAR,NIGHT_MOSTLY_CLOUDY","Offshore,Onshore,Onshore,Onshore,Onshore,Cross-shore,Cross-shore,Cross-shore",8
5842041f4e65fad6a770892d,2024_02_27,33.79294656286144,-118.4070316699825,PV Cove,2,0.4480975,0.6986162499999999,15,15,"CLEAR,CLEAR,CLEAR,NIGHT_CLOUDY,NIGHT_MIST,NIGHT_MOSTLY_CLEAR,NIGHT_MOSTLY_CLEAR,NIGHT_MOSTLY_CLOUDY","Offshore,Offshore,Cross-shore,Cross-shore,Cross-shore,Onshore,Onshore,Onshore",8
5842041f4e65fad6a7708930,2024_02_27,34.03944902292561,-118.57539,Chart House,1.75,0.07875,0.3825,15,15,"MIST,MIST,BRIEF_SHOWERS,NIGHT_MIST,NIGHT_BRIEF_SHOWERS,NIGHT_OVERCAST,NIGHT_MOSTLY_CLOUDY,NIGHT_MOSTLY_CLOUDY","Onshore,Cross-shore,Cross-shore,Offshore,Offshore,Offshore,Offshore,Offshore",8
5842041f4e65fad6a7708936,2024_02_27,34.0016731994772,-118.80456,Point Dume,2,0.22176666666666667,0.5293666666666668,15,15,"CLEAR,MOSTLY_CLOUDY,MIST,NIGHT_MIST,NIGHT_BRIEF_SHOWERS,NIGHT_FOG,NIGHT_FOG,NIGHT_MIST","Onshore,Onshore,Onshore,Onshore,Onshore,Onshore,Onshore,Onshore",8
5842041f4e65fad6a7708937,2024_02_27,34.02587527588963,-118.7554939066114,Latigo Point,2,0.21,0.51625,15,15,"MIST,MOSTLY_CLOUDY,MIST,NIGHT_MIST,NIGHT_BRIEF_SHOWERS,NIGHT_FOG,NIGHT_FOG,NIGHT_FOG","Onshore,Onshore,Onshore,Onshore,Onshore,Onshore,Onshore,Onshore",8
5842041f4e65fad6a770893f,2024_02_27,34.043762,-118.93294,Leo Carrillo,1.75,0.3201,0.6264500000000001,15,15,"MOSTLY_CLOUDY,MIST,MIST,NIGHT_MIST,NIGHT_BRIEF_SHOWERS,NIGHT_MIST,NIGHT_MIST,NIGHT_MIST","Onshore,Cross-shore,Offshore,Cross-shore,Onshore,Offshore,Offshore,Offshore",8
5842041f4e65fad6a7708941,2024_02_27,36.69388179265737,-121.81289,Marina State Beach,2.75,1.14875,1.39875,13,13,"MOSTLY_CLOUDY,BRIEF_SHOWERS,BRIEF_SHOWERS,NIGHT_MIST,NIGHT_FOG,NIGHT_MIST,NIGHT_MIST,NIGHT_MOSTLY_CLOUDY","Onshore,Onshore,Onshore,Onshore,Onshore,Onshore,Onshore,Onshore",8
5842041f4e65fad6a7708944,2024_02_27,34.34145077331085,-119.416999352654,Stanley's,2,0.045,0.35124999999999995,15,15,"CLEAR,MOSTLY_CLOUDY,MIST,NIGHT_MIST,NIGHT_MOSTLY_CLOUDY,NIGHT_MIST,NIGHT_FOG,NIGHT_FOG","Onshore,Onshore,Onshore,Onshore,Cross-shore,Onshore,Onshore,Onshore",8
5842041f4e65fad6a7708945,2024_02_27,34.35113017313915,-119.426921498899,Oil Piers,2,0.085,0.39,15,15,"CLEAR,MOSTLY_CLOUDY,MIST,NIGHT_MIST,NIGHT_MOSTLY_CLOUDY,NIGHT_MIST,NIGHT_FOG,NIGHT_FOG","Onshore,Onshore,Cross-shore,Cross-shore,Cross-shore,Onshore,Onshore,Onshore",8
5842041f4e65fad6a770894c,2024_02_27,34.17876333306018,-119.2399483564372,Oxnard,2,0.36875,0.6737500000000001,15,15,"MOSTLY_CLOUDY,OVERCAST,MIST,NIGHT_MIST,NIGHT_OVERCAST,NIGHT_FOG,NIGHT_FOG,NIGHT_FOG","Onshore,Onshore,Onshore,Onshore,Onshore,Onshore,Onshore,Onshore",8
5842041f4e65fad6a7708957,2024_02_27,34.31720331100517,-119.3882324751725,Pitas Point,2,0.07375000000000001,0.38125,15,15,"BRIEF_SHOWERS,MIST,MIST,NIGHT_BRIEF_SHOWERS,NIGHT_MOSTLY_CLOUDY,NIGHT_MOSTLY_CLEAR,NIGHT_FOG,NIGHT_FOG","Onshore,Cross-shore,Onshore,Offshore,Offshore,Offshore,Offshore,Offshore",8
5842041f4e65fad6a7708959,2024_02_27,34.27851754384724,-119.316202617226,Emma Wood,2,0.06125,0.365,15,15,"MIST,MIST,MIST,NIGHT_MIST,NIGHT_BRIEF_SHOWERS,NIGHT_CLEAR,NIGHT_FOG,NIGHT_FOG","Onshore,Cross-shore,Offshore,Cross-shore,Offshore,Offshore,Offshore,Offshore",8
5842041f4e65fad6a770895a,2024_02_27,34.35513640390276,-119.4400589884255,Mussel Shoals (aka Little Rincon),2,0.0375,0.3425,15,15,"MIST,MIST,MIST,NIGHT_MIST,NIGHT_MOSTLY_CLOUDY,NIGHT_MOSTLY_CLEAR,NIGHT_MIST,NIGHT_CLEAR","Onshore,Cross-shore,Cross-shore,Cross-shore,Onshore,Cross-shore,Onshore,Onshore",8
5842041f4e65fad6a770895e,2024_02_27,34.28991757054902,-119.3366646794652,Summer Beach,2,0.07250000000000001,0.3775,15,15,"MIST,MIST,MIST,NIGHT_MIST,NIGHT_BRIEF_SHOWERS,NIGHT_CLEAR,NIGHT_FOG,NIGHT_FOG","Onshore,Onshore,Offshore,Cross-shore,Cross-shore,Offshore,Offshore,Offshore",8
5842041f4e65fad6a770895f,2024_02_27,34.30897456105926,-119.3582501170116,Solimar,2,0.05375,0.35875,15,15,"BRIEF_SHOWERS,MIST,MIST,NIGHT_BRIEF_SHOWERS,NIGHT_MOSTLY_CLOUDY,NIGHT_MOSTLY_CLEAR,NIGHT_FOG,NIGHT_FOG","Onshore,Cross-shore,Cross-shore,Offshore,Offshore,Offshore,Offshore,Offshore",8
5842041f4e65fad6a7708960,2024_02_27,34.39836265281686,-119.70213,Leadbetter Point,1,0,0.21875,15,15,"CLEAR,MOSTLY_CLOUDY,MOSTLY_CLOUDY,NIGHT_MOSTLY_CLOUDY,NIGHT_MOSTLY_CLOUDY,NIGHT_MIST,NIGHT_FOG,NIGHT_FOG","Cross-shore,Onshore,Cross-shore,Offshore,Cross-shore,Offshore,Offshore,Offshore",8
5842041f4e65fad6a7708961,2024_02_27,34.46052293893899,-120.07328,Refugio,2,0.05,0.35125,15,15,"MOSTLY_CLEAR,MOSTLY_CLOUDY,MOSTLY_CLOUDY,NIGHT_MOSTLY_CLOUDY,NIGHT_MOSTLY_CLOUDY,NIGHT_MIST,NIGHT_MOSTLY_CLOUDY,NIGHT_CLEAR","Onshore,Cross-shore,Offshore,Offshore,Offshore,Offshore,Offshore,Offshore",8
5842041f4e65fad6a7708962,2024_02_27,34.40754276777778,-119.87639,Devereux,2,0.2075,0.51375,15,15,"MIST,MIST,MIST,NIGHT_MOSTLY_CLOUDY,NIGHT_MOSTLY_CLOUDY,NIGHT_MOSTLY_CLOUDY,NIGHT_FOG,NIGHT_FOG","Onshore,Cross-shore,Offshore,Offshore,Cross-shore,Cross-shore,Cross-shore,Cross-shore",8
5842041f4e65fad6a7708963,2024_02_27,34.27479983305182,-119.3133222656776,Ventura Overhead,2,0.07500000000000001,0.38125,15,15,"BRIEF_SHOWERS,MIST,MIST,NIGHT_MIST,NIGHT_MOSTLY_CLOUDY,NIGHT_MOSTLY_CLEAR,NIGHT_FOG,NIGHT_FOG","Onshore,Cross-shore,Offshore,Cross-shore,Cross-shore,Offshore,Offshore,Offshore",8
5842041f4e65fad6a7708964,2024_02_27,34.41023236011655,-119.88261,Sands,2,0.2175,0.525,15,15,"MIST,MIST,MIST,NIGHT_MOSTLY_CLOUDY,NIGHT_MOSTLY_CLOUDY,NIGHT_MOSTLY_CLOUDY,NIGHT_FOG,NIGHT_FOG","Onshore,Onshore,Onshore,Cross-shore,Offshore,Onshore,Onshore,Onshore",8
5842041f4e65fad6a7708966,2024_02_27,34.40450193869233,-119.68752,Sandspit,1,0,0.17125,15,15,"MOSTLY_CLOUDY,MOSTLY_CLOUDY,MOSTLY_CLOUDY,NIGHT_MOSTLY_CLOUDY,NIGHT_MOSTLY_CLOUDY,NIGHT_FOG,NIGHT_FOG,NIGHT_FOG","Cross-shore,Onshore,Cross-shore,Offshore,Cross-shore,Offshore,Offshore,Offshore",8
5842041f4e65fad6a7708967,2024_02_27,34.41549098334453,-119.6375149840203,Hammond's,1,0,0.165,15,15,"MOSTLY_CLEAR,CLEAR,CLEAR,NIGHT_MOSTLY_CLOUDY,NIGHT_MOSTLY_CLOUDY,NIGHT_CLEAR,NIGHT_FOG,NIGHT_FOG","Onshore,Cross-shore,Onshore,Onshore,Onshore,Onshore,Cross-shore,Cross-shore",8
5842041f4e65fad6a7708968,2024_02_27,34.45759322742309,-120.0220251867315,El Capitan,2,0.09375,0.4,15,15,"MOSTLY_CLEAR,MOSTLY_CLOUDY,MOSTLY_CLOUDY,NIGHT_MOSTLY_CLOUDY,NIGHT_CLEAR,NIGHT_FOG,NIGHT_MIST,NIGHT_CLEAR","Onshore,Offshore,Offshore,Offshore,Offshore,Offshore,Offshore,Offshore",8
5842041f4e65fad6a770896c,2024_02_27,34.405117655616,-119.84317,Campus Point,1.125,0.00125,0.28250000000000003,15,15,"CLEAR,MOSTLY_CLOUDY,MOSTLY_CLOUDY,NIGHT_MOSTLY_CLOUDY,NIGHT_MOSTLY_CLOUDY,NIGHT_MIST,NIGHT_FOG,NIGHT_FOG","Onshore,Cross-shore,Offshore,Offshore,Onshore,Cross-shore,Cross-shore,Cross-shore",8
5842041f4e65fad6a770896e,2024_02_27,34.38935162233354,-119.51955,Carpinteria State Beach,1.625,0.0025,0.3075,15,15,"MIST,MIST,MIST,NIGHT_MOSTLY_CLOUDY,NIGHT_MOSTLY_CLOUDY,NIGHT_MOSTLY_CLEAR,NIGHT_FOG,NIGHT_FOG","Onshore,Onshore,Onshore,Onshore,Onshore,Onshore,Offshore,Offshore",8
5842041f4e65fad6a770896f,2024_02_27,37.48296565175612,-122.4549300127824,Half Moon Bay,2,0.85375,1.1199999999999999,14,14,"MIST,CLEAR,MOSTLY_CLOUDY,NIGHT_MOSTLY_CLOUDY,NIGHT_MOSTLY_CLOUDY,NIGHT_MOSTLY_CLEAR,NIGHT_MOSTLY_CLEAR,NIGHT_CLEAR","Onshore,Onshore,Cross-shore,Cross-shore,Cross-shore,Cross-shore,Cross-shore,Cross-shore",8
5842041f4e65fad6a7708970,2024_02_27,37.499,-122.471,Princeton Jetty,3,0.94625,1.13375,14,14,"MIST,MOSTLY_CLEAR,BRIEF_SHOWERS,NIGHT_BRIEF_SHOWERS,NIGHT_MIST,NIGHT_CLEAR,NIGHT_MOSTLY_CLEAR,NIGHT_CLEAR","Cross-shore,Cross-shore,Cross-shore,Cross-shore,Cross-shore,Cross-shore,Cross-shore,Offshore",8
5842041f4e65fad6a7708972,2024_02_27,37.35699547365155,-122.4069534707252,Tunitas Creek,3,1.885,2.255,14,14,"BRIEF_SHOWERS,MIST,MOSTLY_CLEAR,NIGHT_MOSTLY_CLOUDY,NIGHT_MOSTLY_CLOUDY,NIGHT_CLEAR,NIGHT_MOSTLY_CLOUDY,NIGHT_CLEAR","Cross-shore,Cross-shore,Cross-shore,Cross-shore,Cross-shore,Cross-shore,Cross-shore,Cross-shore",8
5842041f4e65fad6a7708974,2024_02_27,37.54735589428842,-122.5161090212687,Montara,1.875,1.24375,1.49625,14,14,"MOSTLY_CLEAR,MOSTLY_CLOUDY,MIST,NIGHT_MOSTLY_CLOUDY,NIGHT_MIST,NIGHT_MOSTLY_CLEAR,NIGHT_CLEAR,NIGHT_CLEAR","Onshore,Onshore,Onshore,Onshore,Onshore,Onshore,Onshore,Onshore",8
5842041f4e65fad6a7708975,2024_02_27,34.3869373724559,-119.5142334209018,Tarpits,1,0,0.29374999999999996,15,15,"MOSTLY_CLEAR,MOSTLY_CLOUDY,MOSTLY_CLOUDY,NIGHT_MIST,NIGHT_MOSTLY_CLOUDY,NIGHT_MOSTLY_CLEAR,NIGHT_FOG,NIGHT_FOG","Onshore,Onshore,Cross-shore,Cross-shore,Onshore,Onshore,Cross-shore,Offshore",8
5842041f4e65fad6a7708976,2024_02_27,37.59881852720143,-122.50463,Pacifica / Linda Mar,1.52125,0.5685,0.97175,14,14,"MOSTLY_CLEAR,MIST,MOSTLY_CLOUDY,NIGHT_BRIEF_SHOWERS,NIGHT_MIST,NIGHT_MOSTLY_CLEAR,NIGHT_MOSTLY_CLEAR,NIGHT_MOSTLY_CLEAR","Onshore,Onshore,Onshore,Onshore,Onshore,Onshore,Onshore,Onshore",8
5842041f4e65fad6a7708978,2024_02_27,37.59883098461164,-122.5143843582282,Pedro Point,2,1.2525,1.4962499999999999,14,14,"MOSTLY_CLEAR,MOSTLY_CLOUDY,MOSTLY_CLOUDY,NIGHT_MOSTLY_CLOUDY,NIGHT_MOSTLY_CLOUDY,NIGHT_CLEAR,NIGHT_CLEAR,NIGHT_CLEAR","Onshore,Onshore,Onshore,Onshore,Onshore,Onshore,Onshore,Onshore",8
5842041f4e65fad6a7708979,2024_02_27,37.61081996647663,-122.4973287570634,Rockaway,1.75,1.27625,1.525,14,14,"MOSTLY_CLEAR,MIST,MOSTLY_CLOUDY,NIGHT_BRIEF_SHOWERS,NIGHT_MIST,NIGHT_MOSTLY_CLEAR,NIGHT_MOSTLY_CLEAR,NIGHT_MOSTLY_CLEAR","Onshore,Onshore,Onshore,Onshore,Onshore,Onshore,Onshore,Onshore",8
5842041f4e65fad6a770897a,2024_02_27,37.809987384424446,-122.4751353263855,Fort Point,2,0.6125,0.91875,13,13,"CLEAR,CLEAR,CLEAR,NIGHT_CLEAR,NIGHT_CLEAR,NIGHT_CLEAR,NIGHT_CLEAR,NIGHT_CLEAR","Cross-shore,Cross-shore,Cross-shore,Cross-shore,Cross-shore,Offshore,Offshore,Offshore",8
5842041f4e65fad6a770897c,2024_02_27,37.63422542967464,-122.4951,Sharp Park,1.75,1.3025,1.55625,14,14,"MOSTLY_CLEAR,MOSTLY_CLEAR,MOSTLY_CLEAR,NIGHT_MOSTLY_CLOUDY,NIGHT_MOSTLY_CLOUDY,NIGHT_CLEAR,NIGHT_MOSTLY_CLEAR,NIGHT_CLEAR","Onshore,Onshore,Onshore,Onshore,Onshore,Onshore,Onshore,Onshore",8
5842041f4e65fad6a770897d,2024_02_27,37.27313605072472,-122.4127387912554,Pescadero,2.5,1.86,2.225,14,14,"SHOWERS,BRIEF_SHOWERS,CLEAR,NIGHT_MOSTLY_CLOUDY,NIGHT_MOSTLY_CLOUDY,NIGHT_MOSTLY_CLOUDY,NIGHT_MOSTLY_CLOUDY,NIGHT_CLEAR","Cross-shore,Cross-shore,Cross-shore,Cross-shore,Cross-shore,Onshore,Onshore,Cross-shore",8
5842041f4e65fad6a770897e,2024_02_27,37.18140279972666,-122.3926685899327,Pigeon Point,4,1.77375,2.12,14,14,"LIGHT_RAIN,BRIEF_SHOWERS,MOSTLY_CLOUDY,NIGHT_MOSTLY_CLOUDY,NIGHT_MOSTLY_CLOUDY,NIGHT_BRIEF_SHOWERS,NIGHT_MOSTLY_CLOUDY,NIGHT_CLEAR","Offshore,Offshore,Offshore,Offshore,Offshore,Offshore,Offshore,Offshore",8
5842041f4e65fad6a770897f,2024_02_27,37.11578956919415,-122.314699271291,Ano Nuevo,4,1.23375,1.47625,14,14,"BRIEF_SHOWERS,BRIEF_SHOWERS,MOSTLY_CLOUDY,NIGHT_MOSTLY_CLOUDY,NIGHT_MOSTLY_CLOUDY,NIGHT_CLEAR,NIGHT_MOSTLY_CLOUDY,NIGHT_MOSTLY_CLOUDY","Offshore,Offshore,Offshore,Offshore,Offshore,Offshore,Offshore,Offshore",8
5842041f4e65fad6a7708980,2024_02_27,37.09520872681598,-122.2805474707768,Waddell Creek,3,1.40125,1.6837499999999999,14,14,"MOSTLY_CLOUDY,BRIEF_SHOWERS,MOSTLY_CLOUDY,NIGHT_MOSTLY_CLOUDY,NIGHT_MOSTLY_CLOUDY,NIGHT_CLEAR,NIGHT_CLEAR,NIGHT_CLEAR","Cross-shore,Offshore,Offshore,Offshore,Offshore,Offshore,Offshore,Cross-shore",8
5842041f4e65fad6a7708981,2024_02_27,36.96512852130351,-122.1252825495626,Four Mile,4,1.42375,1.70625,14,14,"MOSTLY_CLEAR,MOSTLY_CLOUDY,MOSTLY_CLEAR,NIGHT_MOSTLY_CLOUDY,NIGHT_MOSTLY_CLOUDY,NIGHT_CLEAR,NIGHT_CLEAR,NIGHT_CLEAR","Offshore,Offshore,Offshore,Offshore,Offshore,Offshore,Offshore,Offshore",8
5842041f4e65fad6a7708982,2024_02_27,37.04122807048655,-122.2333684729756,Scott Creek,3,1.29125,1.5425,14,14,"MIST,MOSTLY_CLOUDY,MOSTLY_CLOUDY,NIGHT_MOSTLY_CLOUDY,NIGHT_MOSTLY_CLOUDY,NIGHT_CLEAR,NIGHT_CLEAR,NIGHT_MOSTLY_CLEAR","Cross-shore,Cross-shore,Offshore,Cross-shore,Offshore,Offshore,Offshore,Cross-shore",8
5842041f4e65fad6a7708983,2024_02_27,37.02350229387179,-122.21908,Davenport,3,1.5675000000000001,1.875,14,14,"MOSTLY_CLEAR,MOSTLY_CLOUDY,MOSTLY_CLOUDY,NIGHT_MOSTLY_CLOUDY,NIGHT_MOSTLY_CLOUDY,NIGHT_CLEAR,NIGHT_CLEAR,NIGHT_MOSTLY_CLEAR","Cross-shore,Cross-shore,Offshore,Cross-shore,Cross-shore,Offshore,Offshore,Cross-shore",8
5842041f4e65fad6a7708986,2024_02_27,36.94905295955728,-122.0611823912244,Natural Bridges,3,1.15875,1.41,14,14,"CLEAR,CLEAR,MOSTLY_CLOUDY,NIGHT_MOSTLY_CLOUDY,NIGHT_MOSTLY_CLOUDY,NIGHT_CLEAR,NIGHT_CLEAR,NIGHT_CLEAR","Onshore,Cross-shore,Cross-shore,Offshore,Offshore,Offshore,Offshore,Offshore",8
5842041f4e65fad6a7708987,2024_02_27,36.95154854910425,-122.0420693940968,Mitchell's Cove,3,0.84375,1.0875,14,14,"CLEAR,CLEAR,MOSTLY_CLOUDY,NIGHT_MOSTLY_CLOUDY,NIGHT_MOSTLY_CLOUDY,NIGHT_CLEAR,NIGHT_CLEAR,NIGHT_CLEAR","Cross-shore,Cross-shore,Cross-shore,Offshore,Offshore,Offshore,Offshore,Offshore",8
5842041f4e65fad6a770898a,2024_02_27,36.9572312370203,-121.98177,26th Ave,3,1.03375,1.2875,14,14,"CLEAR,CLEAR,CLEAR,NIGHT_MOSTLY_CLOUDY,NIGHT_MOSTLY_CLOUDY,NIGHT_MOSTLY_CLEAR,NIGHT_CLEAR,NIGHT_CLEAR","Onshore,Onshore,Cross-shore,Offshore,Offshore,Onshore,Onshore,Cross-shore",8
5842041f4e65fad6a770898e,2024_02_27,36.91899972819882,-121.85536,Manresa,3,1.1,1.3287499999999999,14,14,"MOSTLY_CLEAR,CLEAR,MOSTLY_CLEAR,NIGHT_CLEAR,NIGHT_MOSTLY_CLOUDY,NIGHT_MIST,NIGHT_MIST,NIGHT_MIST","Onshore,Onshore,Onshore,Onshore,Onshore,Offshore,Onshore,Onshore",8
5842041f4e65fad6a7708990,2024_02_27,34.45747731928454,-120.34242,The Ranch,3,0.42625,0.73,15,15,"MOSTLY_CLOUDY,OVERCAST,OVERCAST,NIGHT_MOSTLY_CLOUDY,NIGHT_OVERCAST,NIGHT_MOSTLY_CLOUDY,NIGHT_MOSTLY_CLOUDY,NIGHT_MOSTLY_CLEAR","Onshore,Cross-shore,Cross-shore,Offshore,Offshore,Offshore,Offshore,Offshore",8
5842041f4e65fad6a7708991,2024_02_27,34.50875036590315,-120.50348,Jalama,3,0.9325,1.115,15,15,"OVERCAST,MOSTLY_CLOUDY,MOSTLY_CLOUDY,NIGHT_BRIEF_SHOWERS,NIGHT_MOSTLY_CLOUDY,NIGHT_MOSTLY_CLOUDY,NIGHT_LIGHT_SHOWERS_POSSIBLE,NIGHT_CLEAR","Onshore,Cross-shore,Offshore,Offshore,Offshore,Cross-shore,Cross-shore,Offshore",8
5842041f4e65fad6a7708996,2024_02_27,34.68700870220497,-120.6111611019887,Surf Beach,3,2.3225,2.77875,14,14,"OVERCAST,CLEAR,MIST,NIGHT_MOSTLY_CLOUDY,NIGHT_MOSTLY_CLOUDY,NIGHT_MIST,NIGHT_MIST,NIGHT_MIST","Onshore,Onshore,Onshore,Cross-shore,Offshore,Onshore,Cross-shore,Offshore",8
5842041f4e65fad6a770899c,2024_02_27,35.5730538161116,-121.1143362345574,Moonstone,3,1.68125,2.0075,14,14,"MOSTLY_CLOUDY,BRIEF_SHOWERS,MIST,NIGHT_CLEAR,NIGHT_CLEAR,NIGHT_CLEAR,NIGHT_CLEAR,NIGHT_FOG","Onshore,Onshore,Onshore,Cross-shore,Offshore,Cross-shore,Onshore,Cross-shore",8
5842041f4e65fad6a770899d,2024_02_27,35.61533716776573,-121.1502053073914,Pico Creek,3,1.23125,1.475,14,14,"MOSTLY_CLOUDY,MOSTLY_CLOUDY,MOSTLY_CLOUDY,NIGHT_MOSTLY_CLOUDY,NIGHT_CLEAR,NIGHT_CLEAR,NIGHT_FOG,NIGHT_FOG","Onshore,Onshore,Onshore,Cross-shore,Offshore,Cross-shore,Onshore,Cross-shore",8
5842041f4e65fad6a770899e,2024_02_27,35.56829031927379,-121.1120653023953,Santa Rosa Creek,3,1.68125,2.0075,14,14,"BRIEF_SHOWERS,BRIEF_SHOWERS,MIST,NIGHT_MIST,NIGHT_MOSTLY_CLOUDY,NIGHT_CLEAR,NIGHT_CLEAR,NIGHT_FOG","Onshore,Onshore,Onshore,Cross-shore,Offshore,Onshore,Onshore,Cross-shore",8
5842041f4e65fad6a77089a2,2024_02_27,35.44820114936284,-120.90715,"Cayucos Pier, Southside ",3,0.66125,0.9675,14,14,"MOSTLY_CLOUDY,MOSTLY_CLOUDY,MOSTLY_CLEAR,NIGHT_MOSTLY_CLOUDY,NIGHT_MIST,NIGHT_FOG,NIGHT_FOG,NIGHT_FOG","Onshore,Onshore,Onshore,Onshore,Onshore,Onshore,Onshore,Onshore",8
5842041f4e65fad6a77089a4,2024_02_27,35.30143372628852,-120.877819239902,Cable Landing,3,2.3575,2.8175,14,14,"CLEAR,MOSTLY_CLOUDY,CLEAR,NIGHT_CLEAR,NIGHT_MIST,NIGHT_MOSTLY_CLOUDY,NIGHT_MOSTLY_CLEAR,NIGHT_MOSTLY_CLOUDY","Onshore,Onshore,Onshore,Onshore,Onshore,Onshore,Cross-shore,Onshore",8
5842041f4e65fad6a77089a9,2024_02_27,35.61269103500222,-121.1480725356606,San Simeon,3,0.8312499999999999,0.9931249999999999,14,14,"MOSTLY_CLOUDY,BRIEF_SHOWERS,MOSTLY_CLOUDY,NIGHT_MOSTLY_CLOUDY,NIGHT_MIST,NIGHT_MIST,NIGHT_FOG,NIGHT_FOG","Onshore,Onshore,Onshore,Offshore,Offshore,Onshore,Onshore,Offshore",8
5842041f4e65fad6a77089ab,2024_02_27,35.1775325966252,-120.7341125142258,Avila Beach,2,0.052500000000000005,0.35875,14,14,"MOSTLY_CLOUDY,MOSTLY_CLOUDY,BRIEF_SHOWERS,NIGHT_MOSTLY_CLEAR,NIGHT_MOSTLY_CLEAR,NIGHT_MOSTLY_CLOUDY,NIGHT_MOSTLY_CLEAR,NIGHT_MOSTLY_CLOUDY","Onshore,Onshore,Onshore,Offshore,Offshore,Offshore,Offshore,Cross-shore",8
5842041f4e65fad6a77089ac,2024_02_27,35.13877877884115,-120.64535,Pismo Beach Pier,3,0.94645,1.3286333333333333,14,14,"CLEAR,MOSTLY_CLOUDY,FOG,NIGHT_MIST,NIGHT_MIST,NIGHT_MOSTLY_CLOUDY,NIGHT_MOSTLY_CLOUDY,NIGHT_MIST","Cross-shore,Cross-shore,Cross-shore,Cross-shore,Offshore,Cross-shore,Offshore,Cross-shore",8
5842041f4e65fad6a77089ad,2024_02_27,46.8907710233147,-124.12964,Westport/Olympic Peninsula,0,2.53125,3.02875,10,10,"BRIEF_SHOWERS,CLEAR,CLEAR,NIGHT_CLEAR,NIGHT_BRIEF_SHOWERS,NIGHT_MOSTLY_CLOUDY,NIGHT_CLEAR,NIGHT_MOSTLY_CLEAR","Onshore,Onshore,Onshore,Onshore,Onshore,Onshore,Onshore,Onshore",8
5842041f4e65fad6a77089ae,2024_02_27,46.35185177248545,-124.06747,Long Beach Peninsula,0.375,4.1137500000000005,4.56875,10,10,"MOSTLY_CLOUDY,CLEAR,CLEAR,NIGHT_CLEAR,NIGHT_CLEAR,NIGHT_CLEAR,NIGHT_CLEAR,NIGHT_CLEAR","Onshore,Onshore,Onshore,Onshore,Onshore,Onshore,Onshore,Onshore",8
5842041f4e65fad6a77089af,2024_02_27,47.90649175554033,-124.6370864743483,La Push,0.375,3.2375,3.59625,10,10,"MOSTLY_CLEAR,MOSTLY_CLEAR,CLEAR,NIGHT_MOSTLY_CLOUDY,NIGHT_CLEAR,NIGHT_CLEAR,NIGHT_CLEAR,NIGHT_MOSTLY_CLOUDY","Cross-shore,Cross-shore,Cross-shore,Cross-shore,Cross-shore,Cross-shore,Cross-shore,Cross-shore",8
5842041f4e65fad6a77089b0,2024_02_27,42.04368239985442,-124.26828,Brookings Jetty,3,0.837715,1.30893,12,12,"CLEAR,CLEAR,CLEAR,CLEAR,NIGHT_CLEAR,NIGHT_MOSTLY_CLEAR,NIGHT_CLEAR,NIGHT_CLEAR","Offshore,Offshore,Cross-shore,Cross-shore,Offshore,Offshore,Offshore,Offshore",8
5842041f4e65fad6a77089b1,2024_02_27,42.74071837900346,-124.4983727491047,Port Orford,4,1.77,2.06125,12,12,"MOSTLY_CLOUDY,MOSTLY_CLOUDY,MOSTLY_CLOUDY,MOSTLY_CLEAR,NIGHT_MOSTLY_CLOUDY,NIGHT_SHOWERS,NIGHT_MOSTLY_CLEAR,NIGHT_MOSTLY_CLOUDY","Offshore,Offshore,Offshore,Offshore,Offshore,Offshore,Offshore,Offshore",8
5842041f4e65fad6a77089b2,2024_02_27,44.01532689312291,-124.13865,Florence South Jetty,1.375,3.9675,4.61625,11,11,"MOSTLY_CLOUDY,MOSTLY_CLOUDY,CLEAR,NIGHT_MOSTLY_CLOUDY,NIGHT_SHOWERS,NIGHT_CLEAR,NIGHT_MOSTLY_CLOUDY,NIGHT_MOSTLY_CLOUDY","Onshore,Onshore,Onshore,Onshore,Onshore,Onshore,Onshore,Onshore",8
5842041f4e65fad6a77089b3,2024_02_27,42.41812540774362,-124.42945,Gold Beach South Jetty,3.375,2.3625,2.80125,11,11,"MOSTLY_CLEAR,MOSTLY_CLOUDY,MOSTLY_CLOUDY,MOSTLY_CLOUDY,NIGHT_MOSTLY_CLOUDY,NIGHT_CLEAR,NIGHT_MOSTLY_CLEAR,NIGHT_CLEAR","Offshore,Offshore,Offshore,Offshore,Offshore,Offshore,Offshore,Offshore",8
5842041f4e65fad6a77089b4,2024_02_27,44.95857310226525,-124.0219017690976,Lincoln City,1,4.0275,4.4662500000000005,11,11,"CLEAR,MOSTLY_CLOUDY,CLEAR,NIGHT_MOSTLY_CLOUDY,NIGHT_CLEAR,NIGHT_MOSTLY_CLOUDY,NIGHT_CLEAR,NIGHT_MOSTLY_CLOUDY","Onshore,Onshore,Onshore,Onshore,Onshore,Onshore,Onshore,Onshore",8
5842041f4e65fad6a77089b5,2024_02_27,44.63792761362982,-124.0657,Newport,1.5,4.21,4.675,12,12,"CLEAR,BRIEF_SHOWERS,CLEAR,NIGHT_MOSTLY_CLEAR,NIGHT_CLEAR,NIGHT_MOSTLY_CLOUDY,NIGHT_CLEAR,NIGHT_MOSTLY_CLOUDY","Cross-shore,Cross-shore,Onshore,Onshore,Onshore,Onshore,Onshore,Onshore",8
5842041f4e65fad6a77089b6,2024_02_27,45.61468496266301,-123.94643,Rockaway Beach,1,4.2524999999999995,4.7175,11,11,"HEAVY_SHOWERS,MIST,CLEAR,NIGHT_MOSTLY_CLOUDY,NIGHT_MOSTLY_CLOUDY,NIGHT_CLEAR,NIGHT_CLOUDY,NIGHT_MOSTLY_CLOUDY","Onshore,Onshore,Onshore,Onshore,Onshore,Onshore,Onshore,Onshore",8
5842041f4e65fad6a77089b7,2024_02_27,45.20252914186085,-123.96975,Pacific City,2,3.05125,3.4425,11,11,"CLEAR,MOSTLY_CLOUDY,HEAVY_SHOWERS,NIGHT_BRIEF_SHOWERS,NIGHT_MOSTLY_CLOUDY,NIGHT_BRIEF_SHOWERS,NIGHT_CLEAR,NIGHT_MOSTLY_CLOUDY","Cross-shore,Onshore,Cross-shore,Cross-shore,Onshore,Cross-shore,Onshore,Onshore",8
5842041f4e65fad6a77089b8,2024_02_27,45.88179930310263,-123.96681,Cannon Beach,2,3.8725,4.29625,11,11,"CLEAR,CLEAR,CLEAR,NIGHT_MOSTLY_CLEAR,NIGHT_MOSTLY_CLOUDY,NIGHT_CLEAR,NIGHT_CLOUDY,NIGHT_MOSTLY_CLOUDY","Onshore,Cross-shore,Onshore,Onshore,Onshore,Onshore,Onshore,Onshore",8
5842041f4e65fad6a77089ba,2024_02_27,40.02528754746774,-124.06372,Shelter Cove,2.125,0.466745,0.7292875,13,13,"SHOWERS,CLEAR,CLEAR,CLEAR,NIGHT_CLEAR,NIGHT_CLEAR,NIGHT_CLEAR,NIGHT_CLEAR","Offshore,Offshore,Offshore,Offshore,Offshore,Offshore,Offshore,Offshore",8
5842041f4e65fad6a77089bb,2024_02_27,40.76816197136951,-124.24248,Humboldt Harbor Entrance,0.625,2.38625,2.855,12,12,"MOSTLY_CLOUDY,MOSTLY_CLOUDY,MOSTLY_CLOUDY,CLEAR,NIGHT_MOSTLY_CLEAR,NIGHT_MOSTLY_CLEAR,NIGHT_MOSTLY_CLEAR,NIGHT_CLEAR","Cross-shore,Cross-shore,Cross-shore,Cross-shore,Cross-shore,Cross-shore,Cross-shore,Cross-shore",8
5842041f4e65fad6a77089bc,2024_02_27,40.76684246920174,-124.23107,North Jetty,1.375,3.6475,4.3325,12,12,"CLEAR,MOSTLY_CLOUDY,BRIEF_SHOWERS,CLEAR,NIGHT_MOSTLY_CLEAR,NIGHT_MOSTLY_CLEAR,NIGHT_CLEAR,NIGHT_CLEAR","Cross-shore,Cross-shore,Cross-shore,Cross-shore,Cross-shore,Cross-shore,Cross-shore,Cross-shore",8
5842041f4e65fad6a77089bd,2024_02_27,41.02731183893966,-124.1149972888982,Westhaven,2.75,3.5975,4.27125,12,12,"MOSTLY_CLEAR,BRIEF_SHOWERS,CLEAR,CLEAR,NIGHT_CLEAR,NIGHT_CLEAR,NIGHT_MOSTLY_CLEAR,NIGHT_CLEAR","Cross-shore,Cross-shore,Offshore,Cross-shore,Cross-shore,Offshore,Offshore,Offshore",8
5842041f4e65fad6a77089be,2024_02_27,41.13016238153297,-124.16466,Sue-meg,1.875,2.7887500000000003,3.28625,12,12,"MOSTLY_CLOUDY,BRIEF_SHOWERS,MOSTLY_CLEAR,BRIEF_SHOWERS,NIGHT_CLEAR,NIGHT_MOSTLY_CLEAR,NIGHT_MOSTLY_CLEAR,NIGHT_CLEAR","Onshore,Onshore,Cross-shore,Cross-shore,Cross-shore,Cross-shore,Cross-shore,Cross-shore",8
5842041f4e65fad6a77089bf,2024_02_27,37.8289474958188,-122.5376795097543,Fort Cronkite/Rodeo Beach,2.5,1.24125,1.48375,13,13,"MOSTLY_CLEAR,CLEAR,CLEAR,NIGHT_CLEAR,NIGHT_CLEAR,NIGHT_CLEAR,NIGHT_CLEAR,NIGHT_CLEAR","Cross-shore,Cross-shore,Cross-shore,Cross-shore,Cross-shore,Offshore,Offshore,Offshore",8
5842041f4e65fad6a77089c0,2024_02_27,41.74415759876137,-124.17717,South Beach CA,3,0.89,1.08375,12,12,"MOSTLY_CLEAR,CLEAR,CLEAR,MOSTLY_CLEAR,NIGHT_CLEAR,NIGHT_CLEAR,NIGHT_CLEAR,NIGHT_CLEAR","Offshore,Offshore,Offshore,Offshore,Offshore,Offshore,Offshore,Offshore",8
5842041f4e65fad6a77089c1,2024_02_27,37.89801283969752,-122.64519,Stinson Beach,3,0.42374999999999996,0.72875,13,13,"MIST,CLEAR,CLEAR,NIGHT_CLEAR,NIGHT_CLEAR,NIGHT_CLEAR,NIGHT_CLEAR,NIGHT_CLEAR","Offshore,Offshore,Offshore,Offshore,Offshore,Offshore,Offshore,Offshore",8
5842041f4e65fad6a77089c2,2024_02_27,37.90514516176495,-122.68151,Bolinas,2.875,0.47994125000000004,0.7499075,13,13,"MIST,MOSTLY_CLEAR,CLEAR,NIGHT_MOSTLY_CLEAR,NIGHT_MOSTLY_CLEAR,NIGHT_CLEAR,NIGHT_CLEAR,NIGHT_CLEAR","Offshore,Offshore,Offshore,Cross-shore,Cross-shore,Cross-shore,Cross-shore,Cross-shore",8
5842041f4e65fad6a77089c3,2024_02_27,38.04892513158693,-122.9892494965416,Point Reyes (north),1.125,2.30875,2.7600000000000002,14,14,"MOSTLY_CLEAR,MOSTLY_CLOUDY,CLEAR,CLEAR,NIGHT_MOSTLY_CLEAR,NIGHT_CLEAR,NIGHT_CLEAR,NIGHT_CLEAR","Onshore,Onshore,Onshore,Onshore,Onshore,Onshore,Onshore,Onshore",8
5842041f4e65fad6a77089c6,2024_02_27,38.31088736605785,-123.0496777333731,Doran Beach,1.75,0.27,0.57625,14,14,"MOSTLY_CLEAR,MOSTLY_CLEAR,CLEAR,CLEAR,NIGHT_CLEAR,NIGHT_CLEAR,NIGHT_CLEAR,NIGHT_CLEAR","Offshore,Offshore,Offshore,Offshore,Offshore,Offshore,Offshore,Offshore",8
5842041f4e65fad6a77089c7,2024_02_27,38.45077228660809,-123.13008,Russian Rivermouth,3,1.58875,1.89875,13,13,"CLEAR,CLEAR,CLEAR,CLEAR,NIGHT_CLEAR,NIGHT_CLEAR,NIGHT_CLEAR,NIGHT_CLEAR","Onshore,Onshore,Cross-shore,Cross-shore,Cross-shore,Cross-shore,Cross-shore,Cross-shore",8
5842041f4e65fad6a77089c8,2024_02_27,38.35329968518107,-123.06906,Salmon Creek,2,1.83,2.1875,14,14,"MOSTLY_CLEAR,CLEAR,CLEAR,CLEAR,NIGHT_CLEAR,NIGHT_CLEAR,NIGHT_CLEAR,NIGHT_CLEAR","Onshore,Onshore,Onshore,Onshore,Onshore,Cross-shore,Cross-shore,Cross-shore",8
5842041f4e65fad6a77089c9,2024_02_27,38.6845180197959,-123.4322714291198,Black Point Beach,1.625,0.77,1.04375,14,14,"CLEAR,CLEAR,CLEAR,CLEAR,NIGHT_CLEAR,NIGHT_CLEAR,NIGHT_CLEAR,NIGHT_CLEAR","Onshore,Onshore,Onshore,Onshore,Onshore,Onshore,Onshore,Onshore",8
5842041f4e65fad6a77089ca,2024_02_27,43.251076,-70.59144,Ogunquit,2.95875,0.54765,0.8498833333333333,4,3,"NIGHT_CLEAR,NIGHT_CLEAR,NIGHT_CLEAR,NIGHT_CLEAR,NIGHT_CLEAR,NIGHT_CLEAR,NIGHT_CLEAR,NIGHT_CLEAR","Offshore,Offshore,Offshore,Offshore,Offshore,Onshore,Onshore,Onshore",8
5842041f4e65fad6a77089cb,2024_02_27,41.362631366305415,-71.48006772942608,Point Judith,1.97875,0.24723333333333333,0.5523833333333333,5,4,"NIGHT_CLEAR,NIGHT_CLEAR,NIGHT_CLEAR,NIGHT_MIST,NIGHT_MIST,NIGHT_MIST,NIGHT_MIST,NIGHT_MIST","Offshore,Offshore,Offshore,Offshore,Cross-shore,Offshore,Offshore,Offshore",8
5842041f4e65fad6a77089cd,2024_02_27,41.422678090954726,-71.45413,Monahan's - Narragansett,1.75,0.3472725,0.542615,4,4,"NIGHT_CLEAR,NIGHT_CLEAR,NIGHT_CLEAR,NIGHT_MIST,NIGHT_MIST,NIGHT_MIST,NIGHT_MIST,NIGHT_MIST","Offshore,Offshore,Offshore,Offshore,Cross-shore,Offshore,Cross-shore,Cross-shore",8
5842041f4e65fad6a77089ce,2024_02_27,41.469,-71.293,Ruggles - Newport,1.75,0.4521325,0.70645625,4,4,"NIGHT_CLEAR,NIGHT_CLEAR,NIGHT_MIST,NIGHT_MIST,NIGHT_MIST,NIGHT_MIST,NIGHT_MIST,NIGHT_MIST","Onshore,Onshore,Onshore,Onshore,Onshore,Onshore,Onshore,Onshore",8
5842041f4e65fad6a77089cf,2024_02_27,43.175394,-70.606351,Short Sands Beach,2.625,0.6575,0.96375,3,3,"NIGHT_CLEAR,NIGHT_CLEAR,NIGHT_CLEAR,NIGHT_CLEAR,NIGHT_CLEAR,NIGHT_CLEAR,NIGHT_CLEAR,NIGHT_CLEAR","Offshore,Offshore,Offshore,Offshore,Offshore,Onshore,Onshore,Onshore",8
5842041f4e65fad6a77089d0,2024_02_27,41.487408,-71.29017,First Beach,1,0.23,0.53625,4,4,"NIGHT_CLEAR,NIGHT_CLEAR,NIGHT_CLEAR,NIGHT_CLEAR,NIGHT_MIST,NIGHT_MIST,NIGHT_MIST,NIGHT_MIST","Onshore,Onshore,Onshore,Onshore,Onshore,Onshore,Onshore,Onshore",8
5842041f4e65fad6a77089d1,2024_02_27,42.27916830233153,-70.86498,Nantasket Beach,0.97875,0,0.19681666666666667,4,3,"NIGHT_CLEAR,NIGHT_CLEAR,NIGHT_CLEAR,NIGHT_CLEAR,NIGHT_CLEAR,NIGHT_CLEAR,NIGHT_CLEAR,NIGHT_CLEAR","Offshore,Offshore,Offshore,Offshore,Offshore,Offshore,Offshore,Cross-shore",8
5842041f4e65fad6a77089d2,2024_02_27,41.817,-69.935,Cape Cod,1.75,0.18375,0.4875,3,3,"NIGHT_CLEAR,NIGHT_CLEAR,NIGHT_CLEAR,NIGHT_CLEAR,NIGHT_CLEAR,NIGHT_CLEAR,NIGHT_CLEAR,NIGHT_CLEAR","Offshore,Offshore,Offshore,Offshore,Offshore,Offshore,Offshore,Cross-shore",8
5842041f4e65fad6a77089d3,2024_02_27,42.22055448975661,-70.70634873403819,Egypt Beach,1,0,0.19375,3,3,"NIGHT_CLEAR,NIGHT_CLEAR,NIGHT_CLEAR,NIGHT_CLEAR,NIGHT_CLEAR,NIGHT_CLEAR,NIGHT_CLEAR,NIGHT_CLEAR","Offshore,Offshore,Offshore,Offshore,Offshore,Offshore,Offshore,Cross-shore",8
5842041f4e65fad6a77089d4,2024_02_27,41.48739647744607,-71.25723,Second Beach,1,0.36888583333333336,0.5652691666666667,5,4,"NIGHT_CLEAR,NIGHT_CLEAR,NIGHT_MIST,NIGHT_MIST,NIGHT_MIST,NIGHT_MIST,NIGHT_MIST,NIGHT_MIST","Onshore,Onshore,Onshore,Onshore,Onshore,Onshore,Onshore,Onshore",8
5842041f4e65fad6a77089d5,2024_02_27,42.964,-70.769,Fox Hill,2.85375,0.3584833333333334,0.6661333333333334,4,3,"NIGHT_CLEAR,NIGHT_CLEAR,NIGHT_CLEAR,NIGHT_CLEAR,NIGHT_CLEAR,NIGHT_CLEAR,NIGHT_CLEAR,NIGHT_CLEAR","Offshore,Offshore,Offshore,Offshore,Offshore,Onshore,Onshore,Onshore",8
5842041f4e65fad6a77089d6,2024_02_27,42.991359,-70.75149,Straws Point,2.35375,0.3864,0.6928,4,3,"NIGHT_CLEAR,NIGHT_CLEAR,NIGHT_CLEAR,NIGHT_CLEAR,NIGHT_CLEAR,NIGHT_CLEAR,NIGHT_CLEAR,NIGHT_CLEAR","Cross-shore,Cross-shore,Cross-shore,Offshore,Offshore,Cross-shore,Onshore,Onshore",8
5842041f4e65fad6a77089d7,2024_02_27,42.946,-70.786,Plaice Cove,2.58375,0.3584833333333334,0.6661333333333334,4,3,"NIGHT_CLEAR,NIGHT_CLEAR,NIGHT_CLEAR,NIGHT_CLEAR,NIGHT_CLEAR,NIGHT_CLEAR,NIGHT_CLEAR,NIGHT_CLEAR","Offshore,Offshore,Offshore,Offshore,Offshore,Onshore,Onshore,Onshore",8
5842041f4e65fad6a77089d9,2024_02_27,42.911574,-70.80831,The Main Beach,1.875,0.314141875,0.6241989583333334,4,3,"NIGHT_CLEAR,NIGHT_CLEAR,NIGHT_CLEAR,NIGHT_CLEAR,NIGHT_CLEAR,NIGHT_CLEAR,NIGHT_CLEAR,NIGHT_CLEAR","Cross-shore,Cross-shore,Cross-shore,Cross-shore,Offshore,Cross-shore,Cross-shore,Cross-shore",8
5842041f4e65fad6a77089da,2024_02_27,42.97583846220203,-70.764,Sawyer's Beach,2.58375,0.41265,0.7148833333333333,4,3,"NIGHT_CLEAR,NIGHT_CLEAR,NIGHT_CLEAR,NIGHT_CLEAR,NIGHT_CLEAR,NIGHT_CLEAR,NIGHT_CLEAR,NIGHT_CLEAR","Offshore,Offshore,Offshore,Offshore,Offshore,Onshore,Onshore,Onshore",8
5842041f4e65fad6a77089db,2024_02_27,42.97,-70.77,Rye on the Rocks / 5-0's,2,0.2903966666666667,0.5935806250000001,4,3,"NIGHT_CLEAR,NIGHT_CLEAR,NIGHT_CLEAR,NIGHT_CLEAR,NIGHT_CLEAR,NIGHT_CLEAR,NIGHT_CLEAR,NIGHT_CLEAR","Cross-shore,Offshore,Offshore,Offshore,Offshore,Onshore,Onshore,Onshore",8
5842041f4e65fad6a77089dc,2024_02_27,43.55902946610303,-70.27795,Higgins Beach,1.89625,0.5611333333333334,0.9119833333333334,4,3,"NIGHT_CLEAR,NIGHT_CLEAR,NIGHT_CLEAR,NIGHT_CLEAR,NIGHT_CLEAR,NIGHT_CLEAR,NIGHT_CLEAR,NIGHT_CLEAR","Cross-shore,Offshore,Offshore,Offshore,Offshore,Cross-shore,Cross-shore,Cross-shore",8
5842041f4e65fad6a77089dd,2024_02_27,43.302676,-70.5652,Wells Beach,2.85375,0.5539000000000001,0.8573833333333334,4,3,"NIGHT_CLEAR,NIGHT_CLEAR,NIGHT_CLEAR,NIGHT_CLEAR,NIGHT_CLEAR,NIGHT_CLEAR,NIGHT_CLEAR,NIGHT_CLEAR","Offshore,Offshore,Offshore,Offshore,Offshore,Onshore,Onshore,Onshore",8
5842041f4e65fad6a77089de,2024_02_27,43.545359,-70.30479,Scarborough Beach State Park,2.875,0.69461625,1.1242316666666667,4,3,"NIGHT_CLEAR,NIGHT_CLEAR,NIGHT_CLEAR,NIGHT_CLEAR,NIGHT_CLEAR,NIGHT_CLEAR,NIGHT_CLEAR,NIGHT_CLEAR","Cross-shore,Offshore,Offshore,Cross-shore,Cross-shore,Cross-shore,Cross-shore,Onshore",8
5842041f4e65fad6a77089df,2024_02_27,43.514481,-70.372146,Old Orchard Beach,2.35375,0.4357166666666667,0.74045,4,3,"NIGHT_CLEAR,NIGHT_CLEAR,NIGHT_CLEAR,NIGHT_CLEAR,NIGHT_CLEAR,NIGHT_CLEAR,NIGHT_CLEAR,NIGHT_MOSTLY_CLEAR","Cross-shore,Offshore,Offshore,Offshore,Cross-shore,Cross-shore,Cross-shore,Onshore",8
5842041f4e65fad6a77089e0,2024_02_27,43.34711,-70.48165,Gooch's Beach,2.72875,0.66155,0.9692,4,3,"NIGHT_CLEAR,NIGHT_CLEAR,NIGHT_CLEAR,NIGHT_CLEAR,NIGHT_CLEAR,NIGHT_CLEAR,NIGHT_CLEAR,NIGHT_CLEAR","Onshore,Cross-shore,Offshore,Offshore,Offshore,Offshore,Cross-shore,Cross-shore",8
5842041f4e65fad6a77089e2,2024_02_27,40.58433,-73.62953,Lido Beach,1,0.5069666666666667,0.8108666666666667,5,4,"NIGHT_CLEAR,NIGHT_CLEAR,NIGHT_CLEAR,NIGHT_CLEAR,NIGHT_CLEAR,NIGHT_CLEAR,NIGHT_MIST,NIGHT_MIST","Onshore,Onshore,Cross-shore,Onshore,Onshore,Cross-shore,Onshore,Cross-shore",8
5842041f4e65fad6a77089e3,2024_02_27,43.163135,-70.61689,Long Sands Beach,2,0.62021249999999994,0.9579666666666667,4,3,"NIGHT_CLEAR,NIGHT_CLEAR,NIGHT_CLEAR,NIGHT_CLEAR,NIGHT_CLEAR,NIGHT_CLEAR,NIGHT_CLEAR,NIGHT_CLEAR","Cross-shore,Cross-shore,Offshore,Offshore,Offshore,Cross-shore,Cross-shore,Cross-shore",8
5842041f4e65fad6a77089e4,2024_02_27,40.61695351251805,-73.39376,Gilgo Beach,1.97875,0.44723333333333337,0.7536333333333333,5,4,"NIGHT_CLEAR,NIGHT_CLEAR,NIGHT_CLEAR,NIGHT_CLEAR,NIGHT_CLEAR,NIGHT_MIST,NIGHT_MIST,NIGHT_MIST","Onshore,Onshore,Onshore,Onshore,Onshore,Onshore,Onshore,Onshore",8
5842041f4e65fad6a77089e5,2024_02_27,40.62530081928036,-73.23827,Robert Moses,2,0.3875,0.69125,4,4,"NIGHT_CLEAR,NIGHT_CLEAR,NIGHT_CLEAR,NIGHT_CLEAR,NIGHT_CLEAR,NIGHT_MIST,NIGHT_MIST,NIGHT_MIST","Onshore,Onshore,Onshore,Onshore,Onshore,Onshore,Onshore,Onshore",8
5842041f4e65fad6a77089e6,2024_02_27,40.64313317632791,-73.15727,Fire Island,2,0.38125000000000003,0.68375,5,5,"NIGHT_CLEAR,NIGHT_CLEAR,NIGHT_CLEAR,NIGHT_CLEAR,NIGHT_MIST,NIGHT_MIST,NIGHT_MIST,NIGHT_MIST","Onshore,Onshore,Onshore,Onshore,Onshore,Onshore,Onshore,Onshore",8
5842041f4e65fad6a77089e8,2024_02_27,40.76653118828782,-72.74579619372713,Cupsogue,2,0.695,0.99875,5,5,"NIGHT_CLEAR,NIGHT_CLEAR,NIGHT_MIST,NIGHT_MIST,NIGHT_MIST,NIGHT_MIST,NIGHT_MIST,NIGHT_MIST","Onshore,Onshore,Onshore,Onshore,Onshore,Onshore,Onshore,Onshore",8
5842041f4e65fad6a77089e9,2024_02_27,42.9376373334092,-70.79141,The Wall ,1.9575,0.30045791666666666,0.6028183333333333,4,3,"NIGHT_CLEAR,NIGHT_CLEAR,NIGHT_CLEAR,NIGHT_CLEAR,NIGHT_CLEAR,NIGHT_CLEAR,NIGHT_CLEAR,NIGHT_CLEAR","Offshore,Offshore,Offshore,Offshore,Offshore,Onshore,Onshore,Onshore",8
5842041f4e65fad6a77089ea,2024_02_27,40.887088,-72.33856,Flys,1.75,0.56625,0.87125,5,5,"NIGHT_MIST,NIGHT_CLEAR,NIGHT_CLEAR,NIGHT_MIST,NIGHT_BRIEF_SHOWERS_POSSIBLE,NIGHT_MIST,NIGHT_MIST,NIGHT_MIST","Onshore,Onshore,Onshore,Onshore,Onshore,Onshore,Onshore,Onshore",8
5842041f4e65fad6a77089eb,2024_02_27,41.0389266436591,-71.91068529316958,Trailer Park,0.9375,0.6210904166666666,0.8828591666666666,5,4,"NIGHT_CLEAR,NIGHT_CLEAR,NIGHT_CLEAR,NIGHT_MIST,NIGHT_MIST,NIGHT_MIST,NIGHT_MIST,NIGHT_MIST","Onshore,Onshore,Onshore,Onshore,Onshore,Onshore,Onshore,Onshore",8
5842041f4e65fad6a77089ec,2024_02_27,41.039505402729105,-71.9142,Ditch Plains,1.5,0.55487875,0.8669975,5,5,"NIGHT_CLEAR,NIGHT_CLEAR,NIGHT_CLEAR,NIGHT_MIST,NIGHT_MIST,NIGHT_DRIZZLE,NIGHT_MIST,NIGHT_MIST","Cross-shore,Cross-shore,Cross-shore,Cross-shore,Cross-shore,Cross-shore,Cross-shore,Onshore",8
5842041f4e65fad6a77089ee,2024_02_27,40.57633275206492,-73.56895305108567,"West End, Jones Beach",1.97875,0.4772333333333333,0.7819666666666667,5,4,"NIGHT_CLEAR,NIGHT_CLEAR,NIGHT_CLEAR,NIGHT_CLEAR,NIGHT_CLEAR,NIGHT_CLEAR,NIGHT_MIST,NIGHT_MIST","Onshore,Onshore,Onshore,Onshore,Onshore,Onshore,Onshore,Cross-shore",8
5842041f4e65fad6a77089f1,2024_02_27,41.038286691230795,-71.91991567611694,Poles,0.9375,0.52035875,0.8301572916666666,5,4,"NIGHT_CLEAR,NIGHT_CLEAR,NIGHT_CLEAR,NIGHT_MIST,NIGHT_MIST,NIGHT_MIST,NIGHT_MIST,NIGHT_MIST","Onshore,Onshore,Onshore,Onshore,Onshore,Onshore,Onshore,Onshore",8
5842041f4e65fad6a77089f3,2024_02_27,40.84077769766295,-72.47989493724765,The Bowl,1.875,0.5925,0.895,5,5,"NIGHT_CLEAR,NIGHT_CLEAR,NIGHT_MIST,NIGHT_MIST,NIGHT_MIST,NIGHT_MIST,NIGHT_MIST,NIGHT_MIST","Onshore,Onshore,Onshore,Onshore,Onshore,Onshore,Onshore,Onshore",8
5842041f4e65fad6a77089f4,2024_02_27,40.94235535243154,-72.19286,Main Beach,1.75,0.62405,0.9279499999999999,13,12,"NIGHT_CLEAR,NIGHT_CLEAR,NIGHT_MOSTLY_CLEAR,NIGHT_MIST,NIGHT_MIST,NIGHT_MIST,NIGHT_MIST,NIGHT_MIST","Onshore,Onshore,Onshore,Onshore,Onshore,Onshore,Onshore,Onshore",8
5842041f4e65fad6a77089f5,2024_02_27,40.58270702399518,-73.67251552079799,Laurelton Blvd.,1,0.5370008333333334,0.7441808333333333,5,4,"NIGHT_MIST,NIGHT_MIST,NIGHT_MIST,NIGHT_MIST,NIGHT_MIST,NIGHT_MIST,NIGHT_MIST,NIGHT_MIST","Onshore,Onshore,Onshore,Onshore,Onshore,Onshore,Onshore,Cross-shore",8
5842041f4e65fad6a77089f6,2024_02_27,41.033752854071416,-71.93695522488403,Terrace,0.97875,0.5007166666666667,0.8042,5,4,"NIGHT_CLEAR,NIGHT_CLEAR,NIGHT_CLEAR,NIGHT_MIST,NIGHT_MIST,NIGHT_MIST,NIGHT_MIST,NIGHT_MIST","Onshore,Onshore,Onshore,Onshore,Onshore,Onshore,Onshore,Onshore",8
5842041f4e65fad6a77089f7,2024_02_27,40.83372943645748,-72.50426173210144,K Road,1.75,0.6925,0.99875,5,5,"NIGHT_CLEAR,NIGHT_CLEAR,NIGHT_MIST,NIGHT_BRIEF_SHOWERS_POSSIBLE,NIGHT_MIST,NIGHT_MIST,NIGHT_MIST,NIGHT_MIST","Onshore,Onshore,Onshore,Onshore,Onshore,Onshore,Onshore,Onshore",8
5842041f4e65fad6a77089f8,2024_02_27,40.58456099581507,-73.80730032920837,84th Street,1,0.4259833333333333,0.7282166666666667,5,4,"NIGHT_CLEAR,NIGHT_MIST,NIGHT_MIST,NIGHT_CLEAR,NIGHT_CLEAR,NIGHT_MIST,NIGHT_MIST,NIGHT_MIST","Onshore,Onshore,Onshore,Onshore,Onshore,Onshore,Onshore,Cross-shore",8
5842041f4e65fad6a77089fa,2024_02_27,40.1319,-74.02788,Sea Girt,2.72875,0.3947333333333333,0.7011333333333333,6,5,"NIGHT_CLEAR,NIGHT_CLEAR,NIGHT_CLEAR,NIGHT_CLEAR,NIGHT_CLEAR,NIGHT_CLEAR,NIGHT_MIST,NIGHT_MIST","Cross-shore,Offshore,Cross-shore,Offshore,Offshore,Cross-shore,Offshore,Onshore",8
5842041f4e65fad6a77089fb,2024_02_27,40.54698301868125,-73.9268,Breezy Point,2,0.3275,0.63125,5,5,"NIGHT_MIST,NIGHT_MIST,NIGHT_MIST,NIGHT_MIST,NIGHT_MIST,NIGHT_MIST,NIGHT_MIST,NIGHT_MIST","Onshore,Onshore,Onshore,Onshore,Onshore,Onshore,Onshore,Cross-shore",8
5842041f4e65fad6a77089fc,2024_02_27,40.152504,-74.021383,Spring Lake,2.60375,0.3747333333333333,0.6811333333333334,6,5,"NIGHT_CLEAR,NIGHT_CLEAR,NIGHT_CLEAR,NIGHT_CLEAR,NIGHT_CLEAR,NIGHT_CLEAR,NIGHT_MIST,NIGHT_MIST","Cross-shore,Offshore,Cross-shore,Cross-shore,Offshore,Onshore,Offshore,Offshore",8
5842041f4e65fad6a77089fd,2024_02_27,40.591277,-73.770792,30th - 39th Streets,1.97875,0.3593166666666667,0.6632166666666667,5,4,"NIGHT_CLEAR,NIGHT_CLEAR,NIGHT_CLEAR,NIGHT_MIST,NIGHT_MIST,NIGHT_MIST,NIGHT_MIST,NIGHT_MIST","Onshore,Onshore,Onshore,Onshore,Onshore,Onshore,Onshore,Cross-shore",8
5842041f4e65fad6a77089fe,2024_02_27,40.18834955871439,-74.00860982500222,Avon,2.60375,0.3665041666666667,0.67155,6,5,"NIGHT_CLEAR,NIGHT_CLEAR,NIGHT_CLEAR,NIGHT_CLEAR,NIGHT_CLEAR,NIGHT_CLEAR,NIGHT_MIST,NIGHT_MIST","Cross-shore,Offshore,Cross-shore,Offshore,Offshore,Cross-shore,Offshore,Offshore",8
5842041f4e65fad6a77089ff,2024_02_27,40.1974229100932,-74.00650533798255,Bradley Beach,2.60375,0.3505666666666667,0.65155,6,5,"NIGHT_CLEAR,NIGHT_CLEAR,NIGHT_CLEAR,NIGHT_CLEAR,NIGHT_CLEAR,NIGHT_CLEAR,NIGHT_MIST,NIGHT_MIST","Cross-shore,Offshore,Cross-shore,Offshore,Offshore,Cross-shore,Offshore,Onshore",8
5842041f4e65fad6a7708a01,2024_02_27,40.17202,-74.01503,"16th Ave., Belmar",2.1875,0.3528,0.6583083333333334,6,5,"NIGHT_CLEAR,NIGHT_CLEAR,NIGHT_CLEAR,NIGHT_CLEAR,NIGHT_CLEAR,NIGHT_CLEAR,NIGHT_MIST,NIGHT_MIST","Cross-shore,Offshore,Cross-shore,Offshore,Offshore,Cross-shore,Offshore,Offshore",8
5842041f4e65fad6a7708a02,2024_02_27,40.217443,-73.99982,Asbury Park,2.47875,0.38931666666666664,0.6928000000000001,6,5,"NIGHT_CLEAR,NIGHT_CLEAR,NIGHT_CLEAR,NIGHT_CLEAR,NIGHT_CLEAR,NIGHT_MIST,NIGHT_MIST,NIGHT_MIST","Cross-shore,Offshore,Cross-shore,Offshore,Offshore,Cross-shore,Offshore,Offshore",8
5842041f4e65fad6a7708a03,2024_02_27,40.229841,-73.996782,Loch Arbour and Deal,1.72875,0.39265,0.6990500000000001,6,5,"NIGHT_CLEAR,NIGHT_CLEAR,NIGHT_CLEAR,NIGHT_CLEAR,NIGHT_CLEAR,NIGHT_MIST,NIGHT_MIST,NIGHT_MIST","Cross-shore,Cross-shore,Cross-shore,Cross-shore,Cross-shore,Cross-shore,Cross-shore,Onshore",8
5842041f4e65fad6a7708a05,2024_02_27,40.41754,-73.97935,Sandy Hook,1.75,0.11625,0.4225,5,5,"NIGHT_CLEAR,NIGHT_CLEAR,NIGHT_CLEAR,NIGHT_CLEAR,NIGHT_CLEAR,NIGHT_CLEAR,NIGHT_CLEAR,NIGHT_MIST","Onshore,Onshore,Onshore,Onshore,Onshore,Onshore,Onshore,Onshore",8
5842041f4e65fad6a7708a06,2024_02_27,39.36353,-74.40873,Crystals,1.75,0.41221875,0.6829870833333334,6,5,"NIGHT_CLEAR,NIGHT_CLEAR,NIGHT_CLEAR,NIGHT_CLEAR,NIGHT_CLEAR,NIGHT_MIST,NIGHT_MIST,NIGHT_MIST","Onshore,Onshore,Onshore,Onshore,Onshore,Onshore,Onshore,Onshore",8
5842041f4e65fad6a7708a07,2024_02_27,39.31443,-74.51863,32nd Street,0.97875,0.41971427083333335,0.6946958333333334,6,5,"NIGHT_MIST,NIGHT_MIST,NIGHT_MIST,NIGHT_MIST,NIGHT_MIST,NIGHT_MIST,NIGHT_MIST,NIGHT_MIST","Onshore,Onshore,Onshore,Onshore,Onshore,Onshore,Onshore,Onshore",8
5842041f4e65fad6a7708a08,2024_02_27,39.327688,-74.49524,Margate Pier Northside,0.97875,0.41971427083333335,0.6946958333333334,6,5,"NIGHT_MIST,NIGHT_MIST,NIGHT_MIST,NIGHT_MIST,NIGHT_MIST,NIGHT_MIST,NIGHT_MIST,NIGHT_MIST","Onshore,Onshore,Onshore,Onshore,Onshore,Onshore,Onshore,Onshore",8
5842041f4e65fad6a7708a09,2024_02_27,39.336276,-74.47782,Ventnor Pier,1.75,0.4340702083333333,0.7171279166666666,6,5,"NIGHT_MIST,NIGHT_MIST,NIGHT_MIST,NIGHT_MIST,NIGHT_MIST,NIGHT_MIST,NIGHT_MIST,NIGHT_MIST","Onshore,Onshore,Onshore,Onshore,Onshore,Onshore,Onshore,Onshore",8
5842041f4e65fad6a7708a0a,2024_02_27,39.35929751441085,-74.41683,States Avenue,1.75,0.41221875,0.6829870833333334,6,5,"NIGHT_CLEAR,NIGHT_CLEAR,NIGHT_CLEAR,NIGHT_CLEAR,NIGHT_CLEAR,NIGHT_MIST,NIGHT_MIST,NIGHT_MIST","Onshore,Onshore,Onshore,Onshore,Onshore,Onshore,Onshore,Onshore",8
5842041f4e65fad6a7708a0b,2024_02_27,39.37274173278517,-74.40454,Brigantine Jetty,1.625,0.47170208333333336,0.7759258333333333,6,5,"NIGHT_CLEAR,NIGHT_CLEAR,NIGHT_CLEAR,NIGHT_CLEAR,NIGHT_CLEAR,NIGHT_MIST,NIGHT_MIST,NIGHT_MIST","Onshore,Onshore,Onshore,Onshore,Onshore,Onshore,Onshore,Onshore",8
5842041f4e65fad6a7708a0c,2024_02_27,39.356505,-74.42263,South Carolina Avenue,1.75,0.47170208333333336,0.7759258333333333,6,5,"NIGHT_CLEAR,NIGHT_CLEAR,NIGHT_CLEAR,NIGHT_CLEAR,NIGHT_CLEAR,NIGHT_MIST,NIGHT_MIST,NIGHT_MIST","Onshore,Onshore,Onshore,Onshore,Onshore,Onshore,Onshore,Onshore",8
5842041f4e65fad6a7708a0d,2024_02_27,39.413485,-74.35476,14th Street North,1.75,0.35098333333333337,0.6561333333333333,6,5,"NIGHT_CLEAR,NIGHT_CLEAR,NIGHT_CLEAR,NIGHT_CLEAR,NIGHT_CLEAR,NIGHT_MIST,NIGHT_MIST,NIGHT_MIST","Onshore,Onshore,Onshore,Onshore,Onshore,Onshore,Onshore,Onshore",8
5842041f4e65fad6a7708a0e,2024_02_27,39.531319,-74.263252,The Wooden Jetty,0.9375,0.6104720833333334,0.8585570833333334,6,5,"NIGHT_CLEAR,NIGHT_CLEAR,NIGHT_CLEAR,NIGHT_CLEAR,NIGHT_CLEAR,NIGHT_MIST,NIGHT_MIST,NIGHT_MIST","Onshore,Onshore,Onshore,Onshore,Onshore,Onshore,Onshore,Onshore",8
5842041f4e65fad6a7708a0f,2024_02_27,39.552472,-74.24344,Holyoke,0.89625,0.4975995833333333,0.76639375,6,5,"NIGHT_CLEAR,NIGHT_CLEAR,NIGHT_CLEAR,NIGHT_CLEAR,NIGHT_CLEAR,NIGHT_MIST,NIGHT_MIST,NIGHT_MIST","Onshore,Onshore,Onshore,Onshore,Onshore,Onshore,Onshore,Onshore",8
5842041f4e65fad6a7708a10,2024_02_27,39.692364,-74.14068,Hudson Ave.,0.89625,0.5361333333333334,0.8412833333333334,6,5,"NIGHT_CLEAR,NIGHT_CLEAR,NIGHT_CLEAR,NIGHT_CLEAR,NIGHT_MIST,NIGHT_MIST,NIGHT_BRIEF_SHOWERS_POSSIBLE,NIGHT_CLEAR","Onshore,Onshore,Onshore,Onshore,Onshore,Onshore,Onshore,Onshore",8
5842041f4e65fad6a7708a11,2024_02_27,39.79614,-74.09248,Island Beach State Park,1,0.4903,0.7925333333333333,6,5,"NIGHT_CLEAR,NIGHT_CLEAR,NIGHT_CLEAR,NIGHT_CLEAR,NIGHT_CLEAR,NIGHT_CLEAR,NIGHT_MIST,NIGHT_BRIEF_SHOWERS_POSSIBLE","Cross-shore,Cross-shore,Cross-shore,Cross-shore,Cross-shore,Cross-shore,Onshore,Onshore",8
5842041f4e65fad6a7708a12,2024_02_27,39.91813588078152,-74.07527,Seaside Park,1,0.4332166666666667,0.73295,6,5,"NIGHT_CLEAR,NIGHT_CLEAR,NIGHT_CLEAR,NIGHT_CLEAR,NIGHT_CLEAR,NIGHT_CLEAR,NIGHT_MIST,NIGHT_CLEAR","Cross-shore,Cross-shore,Cross-shore,Cross-shore,Cross-shore,Cross-shore,Onshore,Onshore",8
5842041f4e65fad6a7708a14,2024_02_27,39.946638,-74.06884,Seaside Heights,1.47875,0.38265,0.68905,6,5,"NIGHT_CLEAR,NIGHT_CLEAR,NIGHT_CLEAR,NIGHT_CLEAR,NIGHT_CLEAR,NIGHT_CLEAR,NIGHT_MIST,NIGHT_CLEAR","Cross-shore,Cross-shore,Cross-shore,Cross-shore,Cross-shore,Cross-shore,Onshore,Onshore",8
5842041f4e65fad6a7708a15,2024_02_27,39.95745637606704,-74.06736,Ortley Beach,1.47875,0.32556666666666667,0.6315500000000001,6,5,"NIGHT_CLEAR,NIGHT_CLEAR,NIGHT_CLEAR,NIGHT_CLEAR,NIGHT_CLEAR,NIGHT_CLEAR,NIGHT_MIST,NIGHT_CLEAR","Cross-shore,Cross-shore,Cross-shore,Cross-shore,Cross-shore,Cross-shore,Onshore,Onshore",8
5842041f4e65fad6a7708a16,2024_02_27,39.98313468342945,-74.06265685577506,Lavallette,1.47875,0.3714,0.6748833333333334,6,5,"NIGHT_CLEAR,NIGHT_CLEAR,NIGHT_CLEAR,NIGHT_CLEAR,NIGHT_CLEAR,NIGHT_CLEAR,NIGHT_MIST,NIGHT_MIST","Cross-shore,Cross-shore,Cross-shore,Cross-shore,Cross-shore,Cross-shore,Onshore,Onshore",8
5842041f4e65fad6a7708a17,2024_02_27,40.0699319967757,-74.04144910856634,Bay Head,1.10375,0.3514,0.65405,6,5,"NIGHT_MIST,NIGHT_MIST,NIGHT_MIST,NIGHT_MIST,NIGHT_MIST,NIGHT_CLEAR,NIGHT_MIST,NIGHT_CLEAR","Cross-shore,Cross-shore,Cross-shore,Cross-shore,Cross-shore,Cross-shore,Cross-shore,Onshore",8
5842041f4e65fad6a7708a18,2024_02_27,40.094041,-74.034859,Jenkinson's,1.60375,0.38848333333333335,0.6894666666666667,6,5,"NIGHT_CLEAR,NIGHT_CLEAR,NIGHT_CLEAR,NIGHT_CLEAR,NIGHT_MIST,NIGHT_MIST,NIGHT_MIST,NIGHT_MIST","Cross-shore,Cross-shore,Cross-shore,Cross-shore,Cross-shore,Cross-shore,Onshore,Onshore",8
5842041f4e65fad6a7708a1a,2024_02_27,38.148058,-75.17704,Assateague,1,0.4600458333333333,0.7673833333333333,6,5,"NIGHT_CLEAR,NIGHT_MOSTLY_CLOUDY,NIGHT_MOSTLY_CLOUDY,NIGHT_MOSTLY_CLOUDY,NIGHT_CLEAR,NIGHT_CLEAR,NIGHT_CLEAR,NIGHT_CLEAR","Cross-shore,Onshore,Onshore,Onshore,Onshore,Onshore,Cross-shore,Cross-shore",8
5842041f4e65fad6a7708a1b,2024_02_27,38.33889038664497,-75.08017670566352,North End to Ocean City Inlet,1.97875,0.47098333333333336,0.7769666666666667,6,5,"NIGHT_CLEAR,NIGHT_CLEAR,NIGHT_CLEAR,NIGHT_BRIEF_SHOWERS,NIGHT_MOSTLY_CLEAR,NIGHT_CLEAR,NIGHT_CLEAR,NIGHT_CLEAR","Offshore,Cross-shore,Cross-shore,Cross-shore,Cross-shore,Cross-shore,Cross-shore,Cross-shore",8
5842041f4e65fad6a7708a1c,2024_02_27,38.603993,-75.06271,Indian River Inlet,1,0.3649216666666667,0.6090816666666666,6,5,"NIGHT_CLEAR,NIGHT_CLEAR,NIGHT_CLEAR,NIGHT_CLEAR,NIGHT_MOSTLY_CLOUDY,NIGHT_CLOUDY,NIGHT_CLEAR,NIGHT_CLEAR","Cross-shore,Cross-shore,Onshore,Cross-shore,Cross-shore,Cross-shore,Cross-shore,Cross-shore",8
5842041f4e65fad6a7708a1d,2024_02_27,38.460477,-75.052069,Fenwick Island,1,0.21056666666666668,0.5118625,6,5,"NIGHT_CLEAR,NIGHT_CLEAR,NIGHT_MOSTLY_CLEAR,NIGHT_CLEAR,NIGHT_CLEAR,NIGHT_MOSTLY_CLOUDY,NIGHT_CLEAR,NIGHT_CLEAR","Offshore,Offshore,Cross-shore,Cross-shore,Cross-shore,Cross-shore,Cross-shore,Cross-shore",8
5842041f4e65fad6a7708a1e,2024_02_27,38.538767,-75.05619,Bethany Beach,1,0.3595858333333333,0.60074625,6,5,"NIGHT_CLEAR,NIGHT_CLEAR,NIGHT_CLEAR,NIGHT_MOSTLY_CLOUDY,NIGHT_BRIEF_SHOWERS,NIGHT_MOSTLY_CLOUDY,NIGHT_CLEAR,NIGHT_CLEAR","Cross-shore,Cross-shore,Cross-shore,Cross-shore,Cross-shore,Cross-shore,Cross-shore,Cross-shore",8
5842041f4e65fad6a7708a1f,2024_02_27,38.697657,-75.075951,Dewey Beach,1.97875,0.30598333333333333,0.6082166666666666,6,5,"NIGHT_CLEAR,NIGHT_CLEAR,NIGHT_CLEAR,NIGHT_MOSTLY_CLOUDY,NIGHT_MOSTLY_CLOUDY,NIGHT_CLEAR,NIGHT_MOSTLY_CLOUDY,NIGHT_CLEAR","Cross-shore,Cross-shore,Cross-shore,Cross-shore,Cross-shore,Cross-shore,Cross-shore,Cross-shore",8
5842041f4e65fad6a7708a20,2024_02_27,38.75034741676525,-75.08194,Gordons Pond,1,0.2835754166666667,0.48198250000000004,6,5,"NIGHT_CLEAR,NIGHT_CLEAR,NIGHT_CLEAR,NIGHT_CLEAR,NIGHT_MOSTLY_CLOUDY,NIGHT_CLOUDY,NIGHT_CLOUDY,NIGHT_CLEAR","Onshore,Cross-shore,Onshore,Onshore,Onshore,Onshore,Onshore,Onshore",8
5842041f4e65fad6a7708a21,2024_02_27,38.767837,-75.082841,Naval Jetties,0.97875,0.2064,0.5115500000000001,6,5,"NIGHT_CLEAR,NIGHT_CLEAR,NIGHT_CLEAR,NIGHT_CLEAR,NIGHT_MOSTLY_CLOUDY,NIGHT_CLOUDY,NIGHT_CLOUDY,NIGHT_CLEAR","Cross-shore,Offshore,Cross-shore,Cross-shore,Cross-shore,Cross-shore,Cross-shore,Cross-shore",8
5842041f4e65fad6a7708a22,2024_02_27,36.81735875786576,-75.96624,Camp Pendleton,1,0.08541666666666667,0.39105416666666665,7,6,"NIGHT_CLEAR,NIGHT_CLEAR,NIGHT_MOSTLY_CLOUDY,NIGHT_CLEAR,NIGHT_CLEAR,NIGHT_CLEAR,NIGHT_MOSTLY_CLOUDY,NIGHT_CLEAR","Cross-shore,Cross-shore,Cross-shore,Cross-shore,Cross-shore,Cross-shore,Cross-shore,Cross-shore",8
5842041f4e65fad6a7708a23,2024_02_27,36.9102212316428,-75.98732471466064,North End,0.625,0,0.30173333333333335,7,6,"NIGHT_CLEAR,NIGHT_CLEAR,NIGHT_CLEAR,NIGHT_CLEAR,NIGHT_CLEAR,NIGHT_CLEAR,NIGHT_CLOUDY,NIGHT_CLEAR","Offshore,Cross-shore,Cross-shore,Offshore,Offshore,Cross-shore,Cross-shore,Cross-shore",8
5842041f4e65fad6a7708a24,2024_02_27,36.737117517621314,-75.93923719853362,Sandbridge Beach,1,0.03125000000000001,0.3359833333333333,7,6,"NIGHT_CLEAR,NIGHT_CLEAR,NIGHT_CLEAR,NIGHT_CLEAR,NIGHT_CLEAR,NIGHT_MOSTLY_CLOUDY,NIGHT_MOSTLY_CLOUDY,NIGHT_MOSTLY_CLOUDY","Offshore,Offshore,Offshore,Offshore,Offshore,Offshore,Offshore,Cross-shore",8
5842041f4e65fad6a7708a26,2024_02_27,36.818257440557794,-75.96666,Croatan to Pendleton,1,0.026145833333333333,0.33303333333333335,7,6,"NIGHT_CLEAR,NIGHT_CLEAR,NIGHT_MOSTLY_CLOUDY,NIGHT_CLEAR,NIGHT_CLEAR,NIGHT_CLEAR,NIGHT_MOSTLY_CLOUDY,NIGHT_CLEAR","Cross-shore,Cross-shore,Cross-shore,Cross-shore,Cross-shore,Cross-shore,Cross-shore,Cross-shore",8
5842041f4e65fad6a7708a27,2024_02_27,36.84318777204769,-75.9719,South End,0.77125,0.01916666666666666,0.3214,7,6,"NIGHT_CLEAR,NIGHT_CLEAR,NIGHT_CLEAR,NIGHT_MOSTLY_CLOUDY,NIGHT_CLEAR,NIGHT_MOSTLY_CLOUDY,NIGHT_MOSTLY_CLOUDY,NIGHT_CLEAR","Cross-shore,Cross-shore,Cross-shore,Cross-shore,Cross-shore,Cross-shore,Cross-shore,Cross-shore",8
5842041f4e65fad6a7708a28,2024_02_27,37.08612627584661,-75.976121638199,Fishermans Island,1,0.1075,0.23,7,7,"NIGHT_CLEAR,NIGHT_CLEAR,NIGHT_CLEAR,NIGHT_MOSTLY_CLOUDY,NIGHT_MOSTLY_CLOUDY,NIGHT_CLOUDY,NIGHT_CLOUDY,NIGHT_CLEAR","Onshore,Onshore,Onshore,Onshore,Onshore,Onshore,Onshore,Onshore",8
5842041f4e65fad6a7708a38,2024_02_27,35.254619418229026,-75.52074,Cape Hatteras Lighthouse,0.97875,0.5394979166666667,0.8159804166666667,11,9,"NIGHT_CLEAR,NIGHT_CLEAR,NIGHT_CLEAR,NIGHT_CLEAR,NIGHT_CLEAR,NIGHT_CLEAR,NIGHT_CLEAR,NIGHT_CLEAR","Cross-shore,Cross-shore,Cross-shore,Cross-shore,Cross-shore,Cross-shore,Cross-shore,Cross-shore",8
5842041f4e65fad6a7708a3a,2024_02_27,35.54572934093336,-75.46477,Waves and Salvo,1.08375,0.29610000000000003,0.5954,9,7,"NIGHT_CLEAR,NIGHT_CLEAR,NIGHT_CLEAR,NIGHT_CLEAR,NIGHT_CLEAR,NIGHT_CLEAR,NIGHT_CLEAR,NIGHT_CLEAR","Cross-shore,Cross-shore,Cross-shore,Cross-shore,Cross-shore,Cross-shore,Cross-shore,Cross-shore",8
5842041f4e65fad6a7708a3b,2024_02_27,35.22565892751075,-75.63606,Frisco,0.91625,0.2435,0.5113,12,11,"NIGHT_CLEAR,NIGHT_CLEAR,NIGHT_CLEAR,NIGHT_CLEAR,NIGHT_CLEAR,NIGHT_CLEAR,NIGHT_CLEAR,NIGHT_CLEAR","Onshore,Onshore,Onshore,Onshore,Onshore,Onshore,Onshore,Onshore",8
5842041f4e65fad6a7708a3c,2024_02_27,35.13086,-75.90591,Ocracoke,0.75,0.30834625,0.48179125,9,9,"NIGHT_CLEAR,NIGHT_CLEAR,NIGHT_CLEAR,NIGHT_CLEAR,NIGHT_CLEAR,NIGHT_CLEAR,NIGHT_CLEAR,NIGHT_CLEAR","Onshore,Onshore,Onshore,Onshore,Onshore,Onshore,Onshore,Onshore",8
5842041f4e65fad6a7708a3d,2024_02_27,35.34721340158342,-75.50084,Avon Pier,0.89625,0.5138833333333334,0.8151999999999999,9,8,"NIGHT_CLEAR,NIGHT_CLEAR,NIGHT_CLEAR,NIGHT_CLEAR,NIGHT_CLEAR,NIGHT_CLEAR,NIGHT_CLEAR,NIGHT_CLEAR","Cross-shore,Cross-shore,Cross-shore,Cross-shore,Cross-shore,Cross-shore,Cross-shore,Cross-shore",8
5842041f4e65fad6a7708a3f,2024_02_27,35.71680821253768,-75.49243,Pea Island,1,0.11625,0.42125,7,7,"NIGHT_CLEAR,NIGHT_CLEAR,NIGHT_CLEAR,NIGHT_CLEAR,NIGHT_CLEAR,NIGHT_CLEAR,NIGHT_CLEAR,NIGHT_CLEAR","Offshore,Offshore,Offshore,Offshore,Offshore,Offshore,Offshore,Offshore",8
5842041f4e65fad6a7708a40,2024_02_27,35.97427620657821,-75.62984,Nags Head Pier,1.875,0.42055,0.7243666666666666,8,6,"NIGHT_CLEAR,NIGHT_CLEAR,NIGHT_CLEAR,NIGHT_CLEAR,NIGHT_CLEAR,NIGHT_CLEAR,NIGHT_CLEAR,NIGHT_CLEAR","Offshore,Offshore,Offshore,Offshore,Offshore,Offshore,Offshore,Offshore",8
5842041f4e65fad6a7708a41,2024_02_27,36.0439998039079,-75.67288,Avalon Pier,1.08375,0.11305000000000001,0.42110000000000003,7,6,"NIGHT_CLEAR,NIGHT_CLEAR,NIGHT_CLEAR,NIGHT_CLEAR,NIGHT_CLEAR,NIGHT_CLEAR,NIGHT_CLEAR,NIGHT_CLEAR","Offshore,Offshore,Offshore,Offshore,Offshore,Offshore,Offshore,Offshore",8
5842041f4e65fad6a7708a42,2024_02_27,36.03043116489792,-75.66413,First Street,1.45875,0.41763333333333336,0.7216583333333333,7,6,"NIGHT_CLEAR,NIGHT_CLEAR,NIGHT_CLEAR,NIGHT_CLEAR,NIGHT_CLEAR,NIGHT_CLEAR,NIGHT_CLEAR,NIGHT_CLEAR","Offshore,Offshore,Offshore,Offshore,Offshore,Offshore,Offshore,Offshore",8
5842041f4e65fad6a7708a43,2024_02_27,36.06829910590498,-75.6899,Old Station/Laundromats,1.08375,0.13305,0.43235,7,6,"NIGHT_CLEAR,NIGHT_CLEAR,NIGHT_CLEAR,NIGHT_CLEAR,NIGHT_CLEAR,NIGHT_CLEAR,NIGHT_CLEAR,NIGHT_CLEAR","Offshore,Offshore,Offshore,Offshore,Offshore,Offshore,Offshore,Offshore",8
5842041f4e65fad6a7708a44,2024_02_27,36.10126676607491,-75.71107462163894,Kitty Hawk Pier,1.45875,0.4134666666666667,0.7206166666666667,7,6,"NIGHT_CLEAR,NIGHT_CLEAR,NIGHT_CLEAR,NIGHT_CLEAR,NIGHT_CLEAR,NIGHT_CLEAR,NIGHT_MOSTLY_CLEAR,NIGHT_CLEAR","Offshore,Offshore,Offshore,Offshore,Offshore,Offshore,Offshore,Offshore",8
5842041f4e65fad6a7708a45,2024_02_27,36.18220630068973,-75.75013580649097,Duck Pier,1,0.12180000000000002,0.42235,7,6,"NIGHT_CLEAR,NIGHT_CLEAR,NIGHT_CLEAR,NIGHT_CLEAR,NIGHT_CLEAR,NIGHT_CLEAR,NIGHT_CLEAR,NIGHT_CLEAR","Offshore,Offshore,Offshore,Offshore,Offshore,Offshore,Offshore,Offshore",8
5842041f4e65fad6a7708a46,2024_02_27,36.37660668125033,-75.82409701687456,Corolla,1,0.19305000000000003,0.49610000000000004,7,6,"NIGHT_CLEAR,NIGHT_CLEAR,NIGHT_CLEAR,NIGHT_CLEAR,NIGHT_CLEAR,NIGHT_MOSTLY_CLOUDY,NIGHT_CLEAR,NIGHT_CLEAR","Offshore,Cross-shore,Offshore,Cross-shore,Offshore,Offshore,Cross-shore,Cross-shore",8
5842041f4e65fad6a7708a47,2024_02_27,33.90373404124834,-78.08241431707907,Oak Island,1,0.06875,0.37375,12,12,"CLEAR,NIGHT_CLEAR,NIGHT_CLEAR,NIGHT_CLEAR,NIGHT_CLEAR,NIGHT_CLEAR,NIGHT_CLEAR,NIGHT_CLEAR","Onshore,Onshore,Onshore,Onshore,Onshore,Onshore,Onshore,Onshore",8
5842041f4e65fad6a7708a48,2024_02_27,33.91108837766468,-78.29653,South Brunswick Beaches,1,0.33461875,0.522845,11,11,"CLEAR,NIGHT_CLEAR,NIGHT_CLEAR,NIGHT_CLEAR,NIGHT_CLEAR,NIGHT_CLEAR,NIGHT_CLEAR,NIGHT_CLEAR","Onshore,Onshore,Onshore,Onshore,Onshore,Onshore,Onshore,Onshore",8
5842041f4e65fad6a7708a49,2024_02_27,34.05683595651973,-77.88128,Carolina Beach Pier,0,-0.019375,0.290425,13,12,"CLEAR,NIGHT_CLEAR,NIGHT_CLEAR,NIGHT_CLEAR,NIGHT_CLEAR,NIGHT_CLEAR,NIGHT_CLEAR,NIGHT_CLEAR","Cross-shore,Cross-shore,Cross-shore,Cross-shore,Cross-shore,Cross-shore,Cross-shore,Cross-shore",8
5842041f4e65fad6a7708a4a,2024_02_27,33.96841191816696,-77.9180242565498,Fort Fisher,0,-0.028125000000000004,0.2798,13,12,"CLEAR,NIGHT_CLEAR,NIGHT_CLEAR,NIGHT_CLEAR,NIGHT_CLEAR,NIGHT_CLEAR,NIGHT_CLEAR,NIGHT_CLEAR","Cross-shore,Cross-shore,Cross-shore,Cross-shore,Cross-shore,Cross-shore,Cross-shore,Cross-shore",8
5842041f4e65fad6a7708a4b,2024_02_27,34.46776662988774,-77.47083191635772,Topsail Beach,0.91625,0.06937499999999999,0.372425,12,11,"CLEAR,NIGHT_CLEAR,NIGHT_CLEAR,NIGHT_CLEAR,NIGHT_CLEAR,NIGHT_CLEAR,NIGHT_CLEAR,NIGHT_MIST","Onshore,Onshore,Onshore,Onshore,Onshore,Onshore,Onshore,Onshore",8
5842041f4e65fad6a7708a4c,2024_02_27,34.69270354752445,-76.82854854446575,Iron Steamer,0,-0.011458333333333327,0.2933416666666667,12,11,"NIGHT_CLEAR,NIGHT_CLEAR,NIGHT_CLEAR,NIGHT_CLEAR,NIGHT_CLEAR,NIGHT_CLEAR,NIGHT_CLEAR,NIGHT_CLEAR","Onshore,Onshore,Onshore,Onshore,Onshore,Onshore,Onshore,Onshore",8
5842041f4e65fad6a7708a4f,2024_02_27,30.85132684893727,-81.42283496231143,Cumberland Island,1,0.1,0.4075,14,14,"MIST,NIGHT_CLEAR,NIGHT_CLEAR,NIGHT_CLEAR,NIGHT_CLEAR,NIGHT_CLEAR,NIGHT_CLEAR,NIGHT_CLEAR","Onshore,Onshore,Onshore,Onshore,Onshore,Cross-shore,Cross-shore,Cross-shore",8
5842041f4e65fad6a7708a50,2024_02_27,34.686741128540874,-76.47516712138378,Cape Lookout National Seashore,1,0.28875,0.59375,10,10,"NIGHT_CLEAR,NIGHT_CLEAR,NIGHT_CLEAR,NIGHT_CLEAR,NIGHT_CLEAR,NIGHT_CLEAR,NIGHT_CLEAR,NIGHT_CLEAR","Cross-shore,Cross-shore,Cross-shore,Cross-shore,Cross-shore,Cross-shore,Cross-shore,Cross-shore",8
5842041f4e65fad6a7708a51,2024_02_27,31.10585419260024,-81.40422767604812,Jekyll Island,0.375,0,0.27125,14,14,"CLEAR,NIGHT_CLEAR,NIGHT_CLEAR,NIGHT_CLEAR,NIGHT_CLEAR,NIGHT_CLEAR,NIGHT_CLEAR,NIGHT_CLEAR","Onshore,Onshore,Onshore,Cross-shore,Cross-shore,Cross-shore,Cross-shore,Cross-shore",8
5842041f4e65fad6a7708a52,2024_02_27,31.16212806376699,-81.32512426500224,Harbor Marker Buoys,1,0.02875,0.33125,13,13,"CLEAR,NIGHT_CLEAR,NIGHT_CLEAR,NIGHT_CLEAR,NIGHT_CLEAR,NIGHT_CLEAR,NIGHT_CLEAR,NIGHT_CLEAR","Onshore,Onshore,Onshore,Onshore,Onshore,Cross-shore,Cross-shore,Cross-shore",8
5842041f4e65fad6a7708a53,2024_02_27,31.20076299997009,-81.32629,Sea Island,1,0.058750000000000004,0.36625,13,13,"MIST,NIGHT_MIST,NIGHT_MIST,NIGHT_MIST,NIGHT_MIST,NIGHT_CLEAR,NIGHT_CLEAR,NIGHT_CLEAR","Onshore,Onshore,Onshore,Onshore,Onshore,Onshore,Onshore,Cross-shore",8
5842041f4e65fad6a7708a54,2024_02_27,31.13553222995767,-81.38457634790909,St. Simons Island,1,0.0375,0.33875,13,13,"MIST,NIGHT_MIST,NIGHT_MIST,NIGHT_MIST,NIGHT_MIST,NIGHT_MIST,NIGHT_MIST,NIGHT_CLEAR","Onshore,Onshore,Onshore,Onshore,Onshore,Onshore,Onshore,Onshore",8
5842041f4e65fad6a7708a55,2024_02_27,31.33550077186516,-81.28383377408417,Wolf Island,1,0.0225,0.30625,13,13,"MIST,NIGHT_MIST,NIGHT_MIST,NIGHT_MIST,NIGHT_MIST,NIGHT_CLEAR,NIGHT_CLEAR,NIGHT_CLEAR","Onshore,Onshore,Onshore,Onshore,Onshore,Cross-shore,Cross-shore,Cross-shore",8
5842041f4e65fad6a7708a56,2024_02_27,31.2704493877174,-81.27324039152315,Little St. Simons Island,1.125,0.058750000000000004,0.365,13,13,"MIST,NIGHT_CLEAR,NIGHT_CLEAR,NIGHT_CLEAR,NIGHT_CLEAR,NIGHT_CLEAR,NIGHT_CLEAR,NIGHT_CLEAR","Onshore,Onshore,Cross-shore,Cross-shore,Cross-shore,Cross-shore,Cross-shore,Cross-shore",8
5842041f4e65fad6a7708a57,2024_02_27,31.39261761368919,-81.26190520231917,Sapelo Island,1,0.03,0.32999999999999996,13,13,"CLEAR,NIGHT_CLEAR,NIGHT_CLEAR,NIGHT_CLEAR,NIGHT_CLEAR,NIGHT_CLEAR,NIGHT_CLEAR,NIGHT_CLEAR","Onshore,Onshore,Onshore,Onshore,Onshore,Onshore,Onshore,Cross-shore",8
5842041f4e65fad6a7708a58,2024_02_27,34.42458783809001,-77.54492,Surf City Pier,0.91625,0.06812499999999999,0.37367500000000003,12,11,"CLEAR,NIGHT_CLEAR,NIGHT_CLEAR,NIGHT_CLEAR,NIGHT_CLEAR,NIGHT_CLEAR,NIGHT_CLEAR,NIGHT_CLEAR","Onshore,Onshore,Onshore,Onshore,Onshore,Onshore,Onshore,Onshore",8
5842041f4e65fad6a7708a59,2024_02_27,31.4231993614213,-81.24725340591522,Cabretta Island,1,0.0475,0.355,13,13,"CLEAR,NIGHT_CLEAR,NIGHT_CLEAR,NIGHT_CLEAR,NIGHT_CLEAR,NIGHT_CLEAR,NIGHT_CLEAR,NIGHT_CLEAR","Onshore,Onshore,Onshore,Onshore,Onshore,Onshore,Onshore,Onshore",8
5842041f4e65fad6a7708a5a,2024_02_27,31.46684389030369,-81.2100056410468,Blackbeard Island,1,0.03,0.32999999999999996,13,13,"CLEAR,NIGHT_CLEAR,NIGHT_CLEAR,NIGHT_CLEAR,NIGHT_CLEAR,NIGHT_CLEAR,NIGHT_CLEAR,NIGHT_CLEAR","Onshore,Onshore,Onshore,Onshore,Onshore,Onshore,Onshore,Onshore",8
5842041f4e65fad6a7708a5b,2024_02_27,31.85953587631629,-80.99031310336719,Wassaw Island/South End,0,0,0.16625,13,13,"MIST,NIGHT_MIST,NIGHT_MIST,NIGHT_CLEAR,NIGHT_CLEAR,NIGHT_CLEAR,NIGHT_CLEAR,NIGHT_CLEAR","Onshore,Onshore,Onshore,Onshore,Onshore,Onshore,Onshore,Onshore",8
5842041f4e65fad6a7708a5c,2024_02_27,31.62535662342983,-81.13328352167974,St. Catherines Island,1,0.035,0.33749999999999997,13,13,"CLEAR,NIGHT_CLEAR,NIGHT_CLEAR,NIGHT_CLEAR,NIGHT_CLEAR,NIGHT_CLEAR,NIGHT_CLEAR,NIGHT_CLEAR","Onshore,Onshore,Onshore,Onshore,Cross-shore,Cross-shore,Cross-shore,Cross-shore",8
5842041f4e65fad6a7708a5d,2024_02_27,31.76502169596568,-81.07655443806622,Ossabaw Island,1,0.0025,0.28375,13,13,"MIST,NIGHT_MIST,NIGHT_MIST,NIGHT_MIST,NIGHT_MIST,NIGHT_MIST,NIGHT_MIST,NIGHT_MIST","Onshore,Onshore,Onshore,Onshore,Onshore,Cross-shore,Cross-shore,Cross-shore",8
5842041f4e65fad6a7708a5e,2024_02_27,31.90593619092352,-80.93589231700857,Wassaw Island/North End,1,0.0575,0.36125,13,13,"MIST,NIGHT_MIST,NIGHT_MIST,NIGHT_MIST,NIGHT_MIST,NIGHT_CLEAR,NIGHT_CLEAR,NIGHT_CLEAR","Onshore,Onshore,Onshore,Onshore,Onshore,Onshore,Onshore,Onshore",8
5842041f4e65fad6a7708a5f,2024_02_27,31.96738675414547,-80.86977980706155,Little Tybee Island,1,0.02375,0.31625000000000003,13,13,"MIST,NIGHT_MIST,NIGHT_MIST,NIGHT_CLEAR,NIGHT_CLEAR,NIGHT_CLEAR,NIGHT_CLEAR,NIGHT_CLEAR","Onshore,Onshore,Onshore,Onshore,Onshore,Onshore,Onshore,Onshore",8
5842041f4e65fad6a7708a60,2024_02_27,31.9812255780179,-80.84773973467009,South Tybee Sandbars,1,0.01,0.2825,13,13,"MIST,NIGHT_MIST,NIGHT_MIST,NIGHT_CLEAR,NIGHT_CLEAR,NIGHT_CLEAR,NIGHT_CLEAR,NIGHT_CLEAR","Onshore,Cross-shore,Cross-shore,Cross-shore,Cross-shore,Cross-shore,Cross-shore,Cross-shore",8
5842041f4e65fad6a7708a61,2024_02_27,32.01226,-80.83983,Sugar Shack,0.5,0,0.23625000000000002,13,13,"CLEAR,NIGHT_MIST,NIGHT_BRIEF_SHOWERS_POSSIBLE,NIGHT_MIST,NIGHT_MIST,NIGHT_CLEAR,NIGHT_CLEAR,NIGHT_CLEAR","Cross-shore,Cross-shore,Cross-shore,Cross-shore,Cross-shore,Offshore,Offshore,Offshore",8
5842041f4e65fad6a7708a62,2024_02_27,31.98722842396969,-80.84773,18th St. Jetty,1,0.21726625,0.3394775,13,13,"MIST,NIGHT_MIST,NIGHT_MIST,NIGHT_MIST,NIGHT_MIST,NIGHT_CLEAR,NIGHT_CLEAR,NIGHT_CLEAR","Onshore,Cross-shore,Cross-shore,Cross-shore,Cross-shore,Cross-shore,Cross-shore,Cross-shore",8
5842041f4e65fad6a7708a64,2024_02_27,34.013473721006676,-77.8991,"Alabama Ave., Kure Beach",1,0.0475,0.35125,12,12,"CLEAR,NIGHT_CLEAR,NIGHT_CLEAR,NIGHT_CLEAR,NIGHT_CLEAR,NIGHT_CLEAR,NIGHT_CLEAR,NIGHT_CLEAR","Offshore,Offshore,Offshore,Offshore,Offshore,Offshore,Offshore,Offshore",8
5842041f4e65fad6a7708a65,2024_02_27,34.20859853336924,-77.79293,"C Street, Wrightsville Beach",0,-0.006666666666666666,0.29438333333333333,13,12,"CLEAR,NIGHT_CLEAR,NIGHT_CLEAR,NIGHT_CLEAR,NIGHT_CLEAR,NIGHT_CLEAR,NIGHT_CLEAR,NIGHT_CLEAR","Cross-shore,Cross-shore,Cross-shore,Onshore,Cross-shore,Cross-shore,Cross-shore,Cross-shore",8
5842041f4e65fad6a7708a66,2024_02_27,32.831,-79.71,Dewees Island,0.125,0.00125,0.2675,12,12,"CLEAR,NIGHT_CLEAR,NIGHT_CLEAR,NIGHT_MOSTLY_CLOUDY,NIGHT_CLEAR,NIGHT_CLEAR,NIGHT_CLEAR,NIGHT_CLEAR","Cross-shore,Cross-shore,Cross-shore,Cross-shore,Cross-shore,Cross-shore,Cross-shore,Cross-shore",8
5842041f4e65fad6a7708a67,2024_02_27,33.82924423172106,-78.62813,Cherry Grove Pier,0,-0.03854166666666667,0.26480000000000004,11,11,"CLEAR,NIGHT_CLEAR,NIGHT_CLEAR,NIGHT_CLEAR,NIGHT_CLEAR,NIGHT_CLEAR,NIGHT_CLEAR,NIGHT_CLEAR","Onshore,Onshore,Onshore,Onshore,Onshore,Onshore,Onshore,Onshore",8
5842041f4e65fad6a7708a69,2024_02_27,34.27197439666496,-77.74050223196774,Figure Eight and Shell Islands,0,-0.01854166666666667,0.2900083333333333,13,12,"CLEAR,NIGHT_CLEAR,NIGHT_CLEAR,NIGHT_CLEAR,NIGHT_CLEAR,NIGHT_CLEAR,NIGHT_CLEAR,NIGHT_CLEAR","Onshore,Onshore,Onshore,Onshore,Onshore,Onshore,Onshore,Onshore",8
5842041f4e65fad6a7708a6b,2024_02_27,33.49041958261793,-79.07666070599386,North End,1,0.085,0.38875,11,11,"CLEAR,NIGHT_CLEAR,NIGHT_CLEAR,NIGHT_CLEAR,NIGHT_CLEAR,NIGHT_CLEAR,NIGHT_CLEAR,NIGHT_CLEAR","Onshore,Onshore,Onshore,Onshore,Onshore,Onshore,Onshore,Onshore",8
5842041f4e65fad6a7708a6c,2024_02_27,33.39537062495087,-79.13835037835189,The South End,0.5,0.0075,0.30874999999999997,12,12,"CLEAR,NIGHT_CLEAR,NIGHT_CLEAR,NIGHT_CLEAR,NIGHT_CLEAR,NIGHT_CLEAR,NIGHT_CLEAR,NIGHT_CLEAR","Cross-shore,Cross-shore,Cross-shore,Cross-shore,Cross-shore,Cross-shore,Cross-shore,Cross-shore",8
