_id,date,lat,lon,name,daily_mean_swell_rating,daily_mean_wave_height_min,daily_mean_wave_height_max,daily_mean_water_temperature_max,daily_mean_water_temperature_min,weather_per_timestamp,wind_per_timestamp,n_samples_per_day
5842041f4e65fad6a77087f9,2024_11_23,37.741668,-122.51038,South Ocean Beach,1.5555555555555556,1.5293866666666667,2.14817,12,12,"LIGHT_RAIN,NIGHT_MOSTLY_CLOUDY,MOSTLY_CLOUDY","Cross-shore,Cross-shore,Onshore",3
5842041f4e65fad6a7708801,2024_11_23,37.49142,-122.50428,Maverick's,NA,0.95,1.21398,12,12,"LIGHT_RAIN,NIGHT_MIST,MIST","Onshore,Onshore,Onshore",3
5842041f4e65fad6a7708804,2024_11_23,44.997,-124.018,Roads End,1.6666666666666667,2.4966666666666666,2.87,11,11,"MOSTLY_CLOUDY,NIGHT_CLEAR,CLEAR","Cross-shore,Offshore,Onshore",3
5842041f4e65fad6a7708805,2024_11_23,36.95188851423011,-122.02522,Steamer Lane,1.8333333333333333,1.4120033333333333,1.7835233333333333,12,12,"OVERCAST,NIGHT_MOSTLY_CLOUDY,MIST","Onshore,Offshore,Onshore",3
5842041f4e65fad6a7708806,2024_11_23,36.95918781542251,-122.02489,Cowells,1.722222222222222,0.43872333333333335,0.7387266666666666,12,12,"OVERCAST,NIGHT_MOSTLY_CLOUDY,MIST","Onshore,Offshore,Onshore",3
5842041f4e65fad6a7708807,2024_11_23,36.95468082526536,-121.97234,Pleasure Point,2.5,1.0697133333333333,1.4351933333333333,12,12,"OVERCAST,NIGHT_RAIN,CLEAR","Onshore,Cross-shore,Onshore",3
5842041f4e65fad6a770880a,2024_11_23,35.37815414378748,-120.86589,Morro Bay,3.0555555555555554,1.1010566666666666,1.4406233333333334,12,12,"MOSTLY_CLOUDY,NIGHT_MOSTLY_CLOUDY,BRIEF_SHOWERS","Onshore,Offshore,Onshore",3
5842041f4e65fad6a770880b,2024_11_23,36.95782765000708,-121.96729,Jack's,1.722222222222222,0.5822733333333333,0.9199433333333333,12,12,"OVERCAST,NIGHT_RAIN,CLEAR","Cross-shore,Offshore,Cross-shore",3
5842041f4e65fad6a770880d,2024_11_23,34.29982939936656,-119.3489016603669,Gold Coast Beachbreaks,2.6666666666666665,0.29,0.6,13.333333333333334,13.333333333333334,"CLEAR,NIGHT_MIST,LIGHT_RAIN","Onshore,Offshore,Offshore",3
5842041f4e65fad6a7708811,2024_11_23,34.245076,-119.26799,Ventura Harbor,2.7222222222222223,0.92991,1.2859766666666665,13,13,"CLEAR,NIGHT_MOSTLY_CLOUDY,RAIN","Onshore,Offshore,Offshore",3
5842041f4e65fad6a7708813,2024_11_23,34.051,-118.964,County Line,2.388888888888889,0.6366433333333333,0.94291,13,13,"MOSTLY_CLEAR,NIGHT_BRIEF_SHOWERS,RAIN","Onshore,Offshore,Offshore",3
5842041f4e65fad6a7708814,2024_11_23,34.37256264378892,-119.47797,Rincon,3,0.5333333333333333,0.8366666666666667,13.333333333333334,13.333333333333334,"MIST,NIGHT_MIST,DRIZZLE","Cross-shore,Onshore,Offshore",3
5842041f4e65fad6a7708817,2024_11_23,34.03096101876324,-118.68109,Malibu Third Point,2.3333333333333335,0.31220000000000003,0.6151433333333334,15,15,"CLEAR,NIGHT_CLEAR,MOSTLY_CLOUDY","Cross-shore,Offshore,Onshore",3
5842041f4e65fad6a7708819,2024_11_23,33.984079047970035,-118.47382,Venice Beach,3,0.6019333333333333,0.9052833333333333,14,14,"SHOWERS,NIGHT_MIST,CLEAR","Onshore,Offshore,Onshore",3
5842041f4e65fad6a770881e,2024_11_23,34.037508438646746,-118.5834,Topanga Beach,2.8333333333333335,0.6388433333333333,1.03932,14,14,"CLEAR,NIGHT_CLEAR,MOSTLY_CLOUDY","Onshore,Offshore,Cross-shore",3
5842041f4e65fad6a7708820,2024_11_23,33.73954373690184,-118.11414,Seal Beach Jetty,2.6666666666666665,0.45666666666666667,0.7633333333333333,14,14,"CLEAR,NIGHT_OVERCAST,MOSTLY_CLOUDY","Onshore,Offshore,Onshore",3
5842041f4e65fad6a7708822,2024_11_23,33.72309983348433,-118.08078,Anderson Street,2,0.38366666666666666,0.6591833333333333,14,14,"CLEAR,NIGHT_OVERCAST,MOSTLY_CLOUDY","Onshore,Offshore,Onshore",3
5842041f4e65fad6a7708827,2024_11_23,33.65574085629463,-118.00397,Huntington Beach Pier Northside,3,0.79561,1.2687166666666667,14,14,"CLEAR,NIGHT_OVERCAST,MOSTLY_CLOUDY","Onshore,Offshore,Onshore",3
5842041f4e65fad6a7708828,2024_11_23,34.272041739333,-119.29976,C St.,2.8333333333333335,0.5737233333333334,0.8896733333333333,13,13,"BRIEF_SHOWERS,NIGHT_MOSTLY_CLOUDY,RAIN","Cross-shore,Offshore,Offshore",3
5842041f4e65fad6a770882a,2024_11_23,33.61555743705257,-117.93676,Newport Lower Jetties,3,0.5655533333333334,0.9262366666666667,13,13,"CLEAR,NIGHT_DRIZZLE,MOSTLY_CLOUDY","Onshore,Offshore,Onshore",3
5842041f4e65fad6a770882b,2024_11_23,33.5930302087,-117.88199,The Wedge,1.3333333333333333,0.21777666666666665,0.41451,14,14,"CLEAR,NIGHT_OVERCAST,MOSTLY_CLOUDY","Onshore,Offshore,Onshore",3
5842041f4e65fad6a770882e,2024_11_23,33.475793399792984,-117.72291,Salt Creek,3,0.8662666666666667,1.2298066666666667,14,14,"MIST,NIGHT_DRIZZLE,CLEAR","Onshore,Cross-shore,Onshore",3
5842041f4e65fad6a7708830,2024_11_23,33.41800974113613,-117.61952,T-Street,3,0.8649100000000001,1.3151766666666667,14,14,"BRIEF_SHOWERS,NIGHT_BRIEF_SHOWERS,MIST","Onshore,Offshore,Onshore",3
5842041f4e65fad6a7708832,2024_11_23,33.202391008646,-117.39475,Oceanside Harbor,2.7777777777777777,0.8339099999999999,1.1286366666666665,15,15,"BRIEF_SHOWERS,NIGHT_MIST,MIST","Onshore,Offshore,Onshore",3
5842041f4e65fad6a7708835,2024_11_23,33.19477795952803,-117.38667,Oceanside Pier,2.8333333333333335,0.50302,0.8526733333333333,15,15,"CLEAR,NIGHT_OVERCAST,CLEAR","Onshore,Offshore,Onshore",3
5842041f4e65fad6a7708837,2024_11_23,33.14948100706,-117.35029,Tamarack,2.6666666666666665,0.5270900000000001,0.9428866666666667,15,15,"BRIEF_SHOWERS,NIGHT_MIST,BRIEF_SHOWERS","Cross-shore,Offshore,Onshore",3
5842041f4e65fad6a7708839,2024_11_23,32.865777159358856,-117.25614,Scripps,2.8333333333333335,0.8213433333333333,1.1847833333333333,15,15,"BRIEF_SHOWERS,NIGHT_DRIZZLE,MIST","Onshore,Cross-shore,Onshore",3
5842041f4e65fad6a770883a,2024_11_23,32.813094,-117.27381,Birdrock,3,0.57,0.8766666666666667,15.666666666666666,15.666666666666666,"CLEAR,NIGHT_OVERCAST,CLEAR","Cross-shore,Offshore,Cross-shore",3
5842041f4e65fad6a770883b,2024_11_23,32.88338,-117.25571,Blacks,2.8333333333333335,0.92909,1.22982,15,15,"BRIEF_SHOWERS,NIGHT_DRIZZLE,MIST","Onshore,Onshore,Onshore",3
5842041f4e65fad6a770883c,2024_11_23,32.82978974229765,-117.28162,Windansea,2.5,0.7094666666666667,1.0925099999999999,15,15,"CLEAR,NIGHT_OVERCAST,CLEAR","Onshore,Cross-shore,Onshore",3
5842041f4e65fad6a770883d,2024_11_23,32.838278,-117.28396,Horseshoe,2.6666666666666665,0.66,0.9666666666666667,15.666666666666666,15.666666666666666,"CLEAR,NIGHT_OVERCAST,CLEAR","Onshore,Cross-shore,Onshore",3
5842041f4e65fad6a770883f,2024_11_23,32.75034717673179,-117.25337,Ocean Beach,2.8333333333333335,0.8146366666666667,1.1602933333333334,15,15,"MIST,NIGHT_MIST,CLEAR","Onshore,Cross-shore,Onshore",3
5842041f4e65fad6a7708840,2024_11_23,32.73693,-117.25718,Sunset Cliffs,2,0.5326166666666666,0.83477,15.666666666666666,15.666666666666666,"BRIEF_SHOWERS,NIGHT_MIST,MOSTLY_CLEAR","Onshore,Cross-shore,Onshore",3
5842041f4e65fad6a7708841,2024_11_23,32.796582258728826,-117.25779,Pacific Beach,2.7777777777777777,0.6993066666666666,1.0530633333333332,15,15,"CLEAR,NIGHT_MIST,CLEAR","Cross-shore,Offshore,Cross-shore",3
5842041f4e65fad6a7708842,2024_11_23,32.776636,-117.25514,Mission Beach,2.555555555555556,0.6994666666666667,1.0457333333333332,15,15,"CLEAR,NIGHT_MIST,CLEAR","Onshore,Offshore,Onshore",3
5842041f4e65fad6a7708844,2024_11_23,32.577195519016,-117.13475,Imperial Beach Pier,2.6666666666666665,0.6733333333333333,0.9766666666666667,15,15,"CLEAR,NIGHT_MIST,MIST","Onshore,Cross-shore,Onshore",3
5842041f4e65fad6a770884a,2024_11_23,42.88678181061,-70.80843,Seabrook,1.777777777777778,0.66205,1.1047033333333334,11,9,"NIGHT_CLEAR,NIGHT_LIGHT_SHOWERS_POSSIBLE,LIGHT_SHOWERS_POSSIBLE","Onshore,Offshore,Offshore",3
5842041f4e65fad6a770884e,2024_11_23,41.434181432898335,-71.45312,Narragansett,1.2222222222222223,0.10315333333333333,0.4058333333333333,12,12,"NIGHT_MOSTLY_CLEAR,NIGHT_CLEAR,CLEAR","Onshore,Offshore,Offshore",3
5842041f4e65fad6a7708850,2024_11_23,40.582703230722,-73.65247,Lincoln Blvd,1.3333333333333333,0.30159,0.6369566666666666,13,12,"NIGHT_LIGHT_SHOWERS_POSSIBLE,NIGHT_CLEAR,CLEAR","Onshore,Offshore,Cross-shore",3
5842041f4e65fad6a7708852,2024_11_23,40.58342841721757,-73.81182,Rockaways,0.5555555555555556,0.3438966666666667,0.6354233333333333,13,12,"NIGHT_LIGHT_SHOWERS_POSSIBLE,NIGHT_CLEAR,CLEAR","Onshore,Offshore,Offshore",3
5842041f4e65fad6a7708853,2024_11_23,40.330474,-73.9734,Monmouth Beach,1,0.19888666666666666,0.5079533333333333,12,11,"NIGHT_BRIEF_SHOWERS_POSSIBLE,NIGHT_CLEAR,CLEAR","Cross-shore,Offshore,Offshore",3
5842041f4e65fad6a7708856,2024_11_23,40.113,-74.028,Manasquan Inlet,1.3333333333333335,0.0045566666666666655,0.30883333333333335,12,11,"NIGHT_CLEAR,NIGHT_MOSTLY_CLOUDY,CLEAR","Offshore,Offshore,Offshore",3
5842041f4e65fad6a7708857,2024_11_23,39.941519877445664,-74.06829,Casino Pier,0.6666666666666666,0.11222,0.41823333333333335,12,11,"NIGHT_CLEAR,NIGHT_MOSTLY_CLOUDY,CLEAR","Cross-shore,Offshore,Offshore",3
5842041f4e65fad6a7708858,2024_11_23,39.28223089949212,-74.55766,North End OC,1.2222222222222223,0.07,0.37035666666666667,12,11,"NIGHT_CLEAR,NIGHT_CLOUDY,CLEAR","Cross-shore,Offshore,Offshore",3
5842041f4e65fad6a770885b,2024_11_23,39.65080599934257,-74.17146,Ship Bottom,0.7777777777777778,0.30706666666666665,0.61543,13.666666666666666,13.666666666666666,"NIGHT_CLEAR,NIGHT_CLEAR,CLEAR","Cross-shore,Offshore,Offshore",3
5842041f4e65fad6a7708863,2024_11_23,36.034151543144,-75.66791,Third Street,0.7777777777777778,0.13287666666666667,0.43346666666666667,17,16,"NIGHT_CLEAR,NIGHT_CLEAR,CLEAR","Offshore,Offshore,Offshore",3
5842041f4e65fad6a7708867,2024_11_23,35.605833221351425,-75.46303,S-Turns,0.39999999999999997,0.16843333333333335,0.46902333333333335,17,16,"NIGHT_CLEAR,NIGHT_CLEAR,CLEAR","Offshore,Offshore,Offshore",3
5842041f4e65fad6a770886d,2024_11_23,38.338461,-75.08117,Ocean City Boardwalk,1.1111111111111112,0.05300666666666667,0.3534733333333333,14,13,"NIGHT_CLEAR,NIGHT_MOSTLY_CLOUDY,CLEAR","Offshore,Offshore,Offshore",3
5842041f4e65fad6a770886f,2024_11_23,29.844757212379562,-81.26136,A St.,1,0,0.29333333333333333,23.666666666666668,23.666666666666668,"NIGHT_CLEAR,NIGHT_CLEAR,CLEAR","Offshore,Offshore,Offshore",3
5842041f4e65fad6a7708871,2024_11_23,29.069417851135093,-80.90824,New Smyrna Beach,1.5555555555555556,0.4225,0.75259,24,23,"NIGHT_CLEAR,NIGHT_CLEAR,CLEAR","Offshore,Offshore,Offshore",3
5842041f4e65fad6a7708872,2024_11_23,28.367707417566,-80.60171,Cocoa Beach Pier,0.7777777777777778,0,0.20277666666666666,23,23,"NIGHT_CLEAR,NIGHT_CLEAR,CLEAR","Offshore,Offshore,Offshore",3
5842041f4e65fad6a7708873,2024_11_23,28.091782738658846,-80.56479,Indialantic,0.7777777777777778,0.07593333333333332,0.33509999999999995,24,23,"NIGHT_CLEAR,NIGHT_CLEAR,CLEAR","Offshore,Offshore,Cross-shore",3
5842041f4e65fad6a7708876,2024_11_23,27.25392904143517,-80.19455,Jensen Beach,1.1111111111111112,0.38194666666666666,0.6924,24,24,"NIGHT_CLEAR,NIGHT_CLEAR,CLEAR","Offshore,Cross-shore,Cross-shore",3
5842041f4e65fad6a7708879,2024_11_23,26.76346795333825,-80.03607,Reef Road,3,0.5765566666666667,0.9406233333333334,25,24,"NIGHT_CLEAR,NIGHT_CLEAR,CLEAR","Offshore,Offshore,Cross-shore",3
5842041f4e65fad6a770887c,2024_11_23,26.336499228484,-80.06956100463,Boca Raton Inlet,1.3333333333333333,0.1442,0.43006666666666665,26,24,"NIGHT_CLEAR,NIGHT_CLEAR,CLEAR","Offshore,Offshore,Offshore",3
5842041f4e65fad6a770887d,2024_11_23,26.31719311695038,-80.07453,Deerfield Beach Pier,2,0.3202666666666667,0.6265333333333334,27,25,"NIGHT_CLEAR,NIGHT_CLEAR,CLEAR","Offshore,Offshore,Offshore",3
5842041f4e65fad6a7708881,2024_11_23,30.20276320866628,-85.85626528676136,"Spyglass Dr., Panama City",0.6666666666666666,0.24289,0.45874333333333334,21,19,"NIGHT_CLEAR,NIGHT_CLEAR,CLEAR","Offshore,Offshore,Offshore",3
5842041f4e65fad6a7708884,2024_11_23,33.39000832738053,-117.59852,Cottons,2.7222222222222223,0.73162,1.034,14,14,"CLEAR,NIGHT_MIST,CLEAR","Onshore,Offshore,Onshore",3
5842041f4e65fad6a7708885,2024_11_23,33.359416282661,-117.54168,Trails,2.6666666666666665,0.45,0.7533333333333333,15,15,"CLEAR,NIGHT_MIST,CLEAR","Cross-shore,Offshore,Onshore",3
5842041f4e65fad6a7708886,2024_11_23,33.38042605929805,-117.58332,Middles,2.6666666666666665,0.57,0.8733333333333333,15,15,"CLEAR,NIGHT_MIST,CLEAR","Cross-shore,Offshore,Onshore",3
5842041f4e65fad6a7708887,2024_11_23,33.38445596302903,-117.59445,Upper Trestles,3,0.7377333333333334,1.044,14,14,"CLEAR,NIGHT_MIST,CLEAR","Cross-shore,Offshore,Onshore",3
5842041f4e65fad6a7708889,2024_11_23,28.944414,-95.28883,Surfside,0.3333333333333333,0,0.12468,24,24,"CLEAR,NIGHT_CLEAR,CLEAR","Cross-shore,Cross-shore,Onshore",3
5842041f4e65fad6a770888a,2024_11_23,33.38143999849023,-117.58843,Lower Trestles,2.944444444444444,0.8100666666666667,1.2521633333333333,14,14,"CLEAR,NIGHT_MIST,CLEAR","Cross-shore,Offshore,Onshore",3
5842041f4e65fad6a770888b,2024_11_23,33.379622288757,-117.57894,Church,2.7222222222222223,0.5997566666666667,0.99971,14,14,"CLEAR,NIGHT_MIST,CLEAR","Onshore,Offshore,Onshore",3
5842041f4e65fad6a770888d,2024_11_23,21.679,-158.042,Sunset Beach,4,1.3022,1.6778766666666667,26,25,"MOSTLY_CLOUDY,NIGHT_OVERCAST,CLEAR","Cross-shore,Offshore,Onshore",3
5842041f4e65fad6a770888e,2024_11_23,21.670550036401,-158.0482,Rocky Point,4.111111111111111,1.2903233333333333,1.83189,26,25,"CLEAR,NIGHT_OVERCAST,CLEAR","Cross-shore,Offshore,Onshore",3
5842041f4e65fad6a770888f,2024_11_23,21.668,-158.05,Chambers,4,1.4730033333333332,2.0813333333333333,26,26,"CLEAR,NIGHT_OVERCAST,CLEAR","Cross-shore,Offshore,Onshore",3
5842041f4e65fad6a7708890,2024_11_23,21.66522,-158.0526,Pipeline,2.2222222222222223,1.2010466666666666,1.7835533333333333,26,25,"CLEAR,NIGHT_OVERCAST,CLEAR","Cross-shore,Offshore,Onshore",3
5842041f4e65fad6a7708891,2024_11_23,21.665,-158.054,Backdoor,3.3333333333333335,1.1299333333333332,1.45399,26,25,"CLEAR,NIGHT_OVERCAST,CLEAR","Cross-shore,Offshore,Onshore",3
5842041f4e65fad6a7708892,2024_11_23,21.662,-158.057,Rockpile,3.3333333333333335,1.5033333333333334,1.8133333333333332,26,26,"CLEAR,NIGHT_OVERCAST,CLEAR","Cross-shore,Offshore,Onshore",3
5842041f4e65fad6a7708893,2024_11_23,21.65870453806827,-158.06058,Log Cabins,3.3333333333333335,1.2,1.43,26,26,"CLEAR,NIGHT_OVERCAST,CLEAR","Cross-shore,Offshore,Onshore",3
5842041f4e65fad6a7708894,2024_11_23,21.66203493640557,-158.05495,Off-The-Wall,3.3333333333333335,1.0766666666666667,1.3266666666666667,26,26,"CLEAR,NIGHT_OVERCAST,CLEAR","Cross-shore,Offshore,Onshore",3
5842041f4e65fad6a7708895,2024_11_23,21.643,-158.067,Waimea Bay,NA,1.3063666666666667,1.6673233333333333,26,25,"CLEAR,NIGHT_OVERCAST,CLEAR","Cross-shore,Offshore,Onshore",3
5842041f4e65fad6a7708896,2024_11_23,21.622,-158.087,Hultin's,3.555555555555556,1.06831,1.44399,26,25,"CLEAR,NIGHT_CLEAR,CLEAR","Offshore,Offshore,Offshore",3
5842041f4e65fad6a7708897,2024_11_23,21.623,-158.085,Jocko's,3.3333333333333335,1.1607633333333334,1.5600466666666666,26,26,"CLEAR,NIGHT_CLEAR,CLEAR","Onshore,Cross-shore,Cross-shore",3
5842041f4e65fad6a7708898,2024_11_23,21.62,-158.088,Laniakea,3.444444444444444,1.1971233333333333,1.6360333333333332,26,25,"CLEAR,NIGHT_CLEAR,CLEAR","Cross-shore,Offshore,Offshore",3
5842041f4e65fad6a7708899,2024_11_23,21.625,-158.083,Chun's,3.6666666666666665,1.1333333333333333,1.39,26,26,"CLEAR,NIGHT_CLEAR,CLEAR","Offshore,Offshore,Offshore",3
5842041f4e65fad6a770889c,2024_11_23,21.286357895152136,-157.8515,Ala Moana Beach Park,2,0.25333333333333335,0.56,26,26,"CLEAR,NIGHT_CLEAR,CLEAR","Offshore,Offshore,Offshore",3
5842041f4e65fad6a770889d,2024_11_23,19.606,-155.978,Banyans,1.8888888888888888,0.26184666666666667,0.5709133333333334,26,25,"MOSTLY_CLOUDY,NIGHT_CLEAR,CLEAR","Onshore,Offshore,Onshore",3
5842041f4e65fad6a770889e,2024_11_23,20.029,-155.831,Kawaihae,1.6666666666666667,0.4444,0.5170466666666667,26,26,"CLEAR,NIGHT_MOSTLY_CLEAR,CLEAR","Onshore,Offshore,Onshore",3
5842041f4e65fad6a770889f,2024_11_23,33.07541383424675,-117.3105,Grandview,3,0.5683766666666666,0.9606333333333333,15,15,"BRIEF_SHOWERS,NIGHT_OVERCAST,MIST","Onshore,Cross-shore,Onshore",3
5842041f4e65fad6a77088a0,2024_11_23,33.065267421296596,-117.30577,Beacons,3,0.8006,1.1197933333333334,15,15,"BRIEF_SHOWERS,NIGHT_OVERCAST,MIST","Onshore,Cross-shore,Onshore",3
5842041f4e65fad6a77088a2,2024_11_23,21.252,-157.805,Diamond Head,2.2222222222222223,0.5719733333333333,0.8890233333333334,26,25,"BRIEF_SHOWERS,NIGHT_CLEAR,CLEAR","Offshore,Cross-shore,Offshore",3
5842041f4e65fad6a77088a3,2024_11_23,33.04694255008896,-117.29966,Moonlight State Beach,3,0.55,0.8566666666666667,15,15,"BRIEF_SHOWERS,NIGHT_OVERCAST,MIST","Onshore,Offshore,Onshore",3
5842041f4e65fad6a77088a5,2024_11_23,33.08685865930869,-117.31532,Ponto,3,0.7869633333333333,1.1533033333333333,15,15,"BRIEF_SHOWERS,NIGHT_OVERCAST,MIST","Onshore,Offshore,Onshore",3
5842041f4e65fad6a77088a6,2024_11_23,33.130343587871906,-117.33668,Terra Mar Point,2.6666666666666665,0.54012,0.88209,15,15,"CLEAR,NIGHT_OVERCAST,CLEAR","Onshore,Offshore,Onshore",3
5842041f4e65fad6a77088af,2024_11_23,32.95916304183685,-117.26963,Del Mar,3,0.6150366666666667,0.9261866666666666,15,15,"BRIEF_SHOWERS,NIGHT_MIST,MIST","Onshore,Offshore,Onshore",3
5842041f4e65fad6a77088b0,2024_11_23,32.97527261243354,-117.2721061331305,Del Mar Rivermouth,2.6666666666666665,0.61,0.9199999999999999,15,15,"BRIEF_SHOWERS,NIGHT_MIST,MIST","Onshore,Offshore,Onshore",3
5842041f4e65fad6a77088b1,2024_11_23,33.01352178146273,-117.28219,Cardiff Reef,2.555555555555556,0.6761433333333333,1.0200033333333334,15,15,"BRIEF_SHOWERS,NIGHT_DRIZZLE,MIST","Cross-shore,Offshore,Onshore",3
5842041f4e65fad6a77088b3,2024_11_23,33.00211185876003,-117.2811,Seaside Reef,2.8333333333333335,0.6950233333333333,1.0708466666666667,15,15,"BRIEF_SHOWERS,NIGHT_MIST,MIST","Cross-shore,Offshore,Onshore",3
5842041f4e65fad6a77088b4,2024_11_23,33.0341859796287,-117.29552,Swami's,2.8333333333333335,0.6420866666666667,1.0079666666666667,15,15,"BRIEF_SHOWERS,NIGHT_DRIZZLE,MIST","Onshore,Offshore,Onshore",3
5842041f4e65fad6a77088b7,2024_11_23,33.04569760260221,-117.2994,D Street,3,0.7618433333333333,1.1617199999999999,15,15,"BRIEF_SHOWERS,NIGHT_OVERCAST,MIST","Onshore,Offshore,Onshore",3
5842041f4e65fad6a77088b8,2024_11_23,33.02090944350196,-117.28535,San Elijo State Beach,1.888888888888889,0.49606333333333336,0.7869933333333333,15,15,"BRIEF_SHOWERS,NIGHT_DRIZZLE,MIST","Cross-shore,Offshore,Onshore",3
5842041f4e65fad6a77088c2,2024_11_23,32.80662846492798,-117.26888,PB Point,2.3333333333333335,0.54,0.8466666666666667,15.666666666666666,15.666666666666666,"CLEAR,NIGHT_OVERCAST,CLEAR","Cross-shore,Offshore,Cross-shore",3
5842041f4e65fad6a77088c4,2024_11_23,32.8060476681448,-117.26479,Old Man's at Tourmaline,2.3333333333333335,0.32615333333333335,0.63314,15.666666666666666,15.666666666666666,"CLEAR,NIGHT_OVERCAST,CLEAR","Cross-shore,Offshore,Cross-shore",3
5842041f4e65fad6a77088cb,2024_11_23,32.557056711256,-117.1327445020322,Tijuana Slough,2.3333333333333335,0.43666666666666665,0.7433333333333333,15,15,"BRIEF_SHOWERS,NIGHT_MIST,MIST","Onshore,Offshore,Onshore",3
5842041f4e65fad6a77088cc,2024_11_23,32.863,-117.257,La Jolla Shores,2.6666666666666665,0.5266666666666667,0.8333333333333334,15.666666666666666,15.666666666666666,"BRIEF_SHOWERS,NIGHT_DRIZZLE,MIST","Onshore,Cross-shore,Onshore",3
5842041f4e65fad6a77088ce,2024_11_23,32.67443657790586,-117.17421,Coronado Beach,2.6666666666666665,0.37333333333333335,0.6766666666666666,15,15,"CLEAR,NIGHT_MIST,MOSTLY_CLEAR","Cross-shore,Offshore,Cross-shore",3
5842041f4e65fad6a77088cf,2024_11_23,33.40484417640326,-117.60749,San Clemente State Beach,2.6666666666666665,0.44,0.7466666666666667,15,15,"CLEAR,NIGHT_MIST,CLEAR","Onshore,Offshore,Onshore",3
5842041f4e65fad6a77088d5,2024_11_23,33.4663042002114,-117.7168352817103,Strands,3,0.6927333333333333,1.09158,14,14,"MIST,NIGHT_DRIZZLE,CLEAR","Onshore,Cross-shore,Onshore",3
5842041f4e65fad6a77088d7,2024_11_23,33.4609858001748,-117.68535,Doheny State Beach,2.0555555555555554,0.4257166666666667,0.7216733333333333,14,14,"CLEAR,NIGHT_MIST,CLEAR","Onshore,Offshore,Onshore",3
5842041f4e65fad6a77088dc,2024_11_23,33.50894790083017,-117.75243,Aliso Creek,3,0.41,0.7166666666666667,15,15,"BRIEF_SHOWERS,NIGHT_OVERCAST,MIST","Onshore,Offshore,Onshore",3
5842041f4e65fad6a77088dd,2024_11_23,33.5326591767067,-117.77764,Brooks Street,2,0.3,0.6066666666666667,15,15,"MIST,NIGHT_DRIZZLE,MIST","Cross-shore,Offshore,Onshore",3
5842041f4e65fad6a77088de,2024_11_23,33.53561225884637,-117.7799,Thalia Street,2.3333333333333335,0.30333333333333334,0.6133333333333333,15,15,"MIST,NIGHT_DRIZZLE,MIST","Cross-shore,Offshore,Onshore",3
5842041f4e65fad6a77088e3,2024_11_23,33.54268310353641,-117.7916,Rockpile,2.3333333333333335,0.3,0.6066666666666667,15,15,"MIST,NIGHT_DRIZZLE,MIST","Cross-shore,Offshore,Onshore",3
5842041f4e65fad6a77088e4,2024_11_23,33.7368459504689,-118.10342,"Seal Beach Pier, Southside",2.6666666666666665,0.5166666666666666,0.8266666666666667,15,15,"BRIEF_SHOWERS,NIGHT_DRIZZLE,MOSTLY_CLOUDY","Onshore,Offshore,Onshore",3
5842041f4e65fad6a77088e5,2024_11_23,33.73933701820233,-118.117,Ray Bay,2.6666666666666665,0.51,0.8133333333333334,15,15,"CLEAR,NIGHT_OVERCAST,MOSTLY_CLOUDY","Onshore,Offshore,Onshore",3
5842041f4e65fad6a77088e7,2024_11_23,33.728733,-118.08982,Surfside,1,0,0.23333333333333334,15,15,"CLEAR,NIGHT_OVERCAST,MOSTLY_CLOUDY","Onshore,Offshore,Onshore",3
5842041f4e65fad6a77088e8,2024_11_23,33.68760321488161,-118.04236,Bolsa Chica State Beach,2.7222222222222223,0.5917100000000001,0.9401933333333333,14,14,"CLEAR,NIGHT_OVERCAST,MOSTLY_CLOUDY","Offshore,Offshore,Offshore",3
5842041f4e65fad6a77088ea,2024_11_23,33.66704400178788,-118.0192,North HB Streets,3,0.86514,1.2653633333333334,14,14,"CLEAR,NIGHT_OVERCAST,MOSTLY_CLOUDY","Onshore,Offshore,Onshore",3
5842041f4e65fad6a77088ed,2024_11_23,33.65475101379567,-118.00291,Huntington Beach Pier Southside,3,0.8631766666666667,1.3867766666666668,14,14,"CLEAR,NIGHT_OVERCAST,MOSTLY_CLOUDY","Onshore,Cross-shore,Onshore",3
5842041f4e65fad6a77088ee,2024_11_23,33.62778647706099,-117.95939,River Jetties,3.2777777777777777,0.8270666666666666,1.2321333333333333,13,13,"CLEAR,NIGHT_DRIZZLE,MOSTLY_CLOUDY","Onshore,Cross-shore,Onshore",3
5842041f4e65fad6a77088f2,2024_11_23,33.605165797643664,-117.925,Newport Point,2,0.20333333333333334,0.5033333333333333,15,15,"BRIEF_SHOWERS,NIGHT_LIGHT_RAIN,MOSTLY_CLOUDY","Onshore,Cross-shore,Onshore",3
5842041f4e65fad6a77088f3,2024_11_23,33.58982984726977,-117.87713,Corona del Mar,2.6666666666666665,0.31666666666666665,0.6166666666666667,15,15,"MIST,NIGHT_OVERCAST,MIST","Onshore,Offshore,Onshore",3
5842041f4e65fad6a77088f7,2024_11_23,34.00750300824362,-118.49718,Santa Monica Pier,2.3333333333333335,0.39999999999999997,0.7033333333333334,15,15,"CLEAR,NIGHT_MIST,MOSTLY_CLEAR","Onshore,Offshore,Onshore",3
5842041f4e65fad6a77088ff,2024_11_23,33.94070283102945,-118.44321,Dockweiler Beach,3,0.7172,1.0691333333333333,14,14,"SHOWERS,NIGHT_MIST,MOSTLY_CLEAR","Onshore,Offshore,Cross-shore",3
5842041f4e65fad6a7708900,2024_11_23,33.9231846937237,-118.4341465777908,Shitpipe,3,0.6583100000000001,1.0491333333333333,14,14,"SHOWERS,NIGHT_OVERCAST,CLEAR","Onshore,Offshore,Cross-shore",3
5842041f4e65fad6a7708902,2024_11_23,33.9108528052242,-118.4279133138721,Hammerland,3,0.75991,1.1507333333333334,14,14,"SHOWERS,NIGHT_OVERCAST,CLEAR","Onshore,Offshore,Cross-shore",3
5842041f4e65fad6a7708904,2024_11_23,33.87201368173932,-118.40752,Hermosa Beach,2.6666666666666665,0.5896866666666667,0.8886366666666666,15,15,"BRIEF_SHOWERS,NIGHT_MIST,CLEAR","Onshore,Onshore,Cross-shore",3
5842041f4e65fad6a7708906,2024_11_23,33.90129336911256,-118.42184,El Porto,3,0.6126666666666667,0.9453466666666667,14,14,"SHOWERS,NIGHT_OVERCAST,CLEAR","Onshore,Onshore,Cross-shore",3
5842041f4e65fad6a7708907,2024_11_23,33.87963506431794,-118.41102,Manhattan Beach Pier,2.6666666666666665,0.53646,0.98879,15,15,"SHOWERS,NIGHT_OVERCAST,CLEAR","Onshore,Onshore,Cross-shore",3
5842041f4e65fad6a7708914,2024_11_23,34.038053387863464,-118.5532,Sunset Point,3,0.39,0.7,15,15,"MIST,NIGHT_MOSTLY_CLOUDY,MIST","Onshore,Offshore,Onshore",3
5842041f4e65fad6a7708920,2024_11_23,33.80282,-118.39989,Haggerty's,2.6666666666666665,0.44533333333333336,0.6880000000000001,15,15,"BRIEF_SHOWERS,NIGHT_LIGHT_RAIN,CLEAR","Onshore,Onshore,Onshore",3
5842041f4e65fad6a7708921,2024_11_23,33.85044519861206,-118.40048,Redondo Breakwater,2.6666666666666665,0.68348,1.0422666666666667,14.666666666666666,14.666666666666666,"BRIEF_SHOWERS,NIGHT_MIST,CLEAR","Onshore,Onshore,Cross-shore",3
5842041f4e65fad6a7708927,2024_11_23,33.70877301002487,-118.2840112858389,Cabrillo Beach,2.3333333333333335,0.32,0.6266666666666667,15,15,"CLEAR,NIGHT_OVERCAST,MOSTLY_CLOUDY","Cross-shore,Offshore,Offshore",3
5842041f4e65fad6a770892c,2024_11_23,33.77209986806257,-118.4268428476672,Lunada Bay,2.3333333333333335,0.92,1.1433333333333333,15,15,"MIST,NIGHT_MIST,CLEAR","Onshore,Onshore,Cross-shore",3
5842041f4e65fad6a770892d,2024_11_23,33.79294656286144,-118.40703,PV Cove,2.3333333333333335,0.5566666666666666,0.86,15,15,"BRIEF_SHOWERS,NIGHT_LIGHT_RAIN,CLEAR","Onshore,Onshore,Onshore",3
5842041f4e65fad6a7708930,2024_11_23,34.03944902292561,-118.57539,Chart House,1.3333333333333333,0.02,0.3066666666666667,15,15,"CLEAR,NIGHT_CLEAR,MOSTLY_CLOUDY","Onshore,Offshore,Onshore",3
5842041f4e65fad6a7708936,2024_11_23,34.0016731994772,-118.80456,Point Dume,2.4444444444444446,0.32815666666666665,0.6344233333333333,14,14,"MIST,NIGHT_CLEAR,LIGHT_RAIN","Cross-shore,Cross-shore,Cross-shore",3
5842041f4e65fad6a7708937,2024_11_23,34.02587527588963,-118.7554939066114,Latigo Point,2,0.17,0.47333333333333333,15,15,"MIST,NIGHT_CLEAR,LIGHT_RAIN","Cross-shore,Offshore,Cross-shore",3
5842041f4e65fad6a770893f,2024_11_23,34.043762,-118.93294,Leo Carrillo,2.3333333333333335,0.6549766666666667,0.9551333333333333,13,13,"MIST,NIGHT_CLEAR,MIST","Cross-shore,Offshore,Cross-shore",3
5842041f4e65fad6a7708941,2024_11_23,36.69388179265737,-121.81289,Marina State Beach,2.6666666666666665,1.5433333333333334,1.8133333333333332,13,13,"CLEAR,NIGHT_MOSTLY_CLOUDY,MOSTLY_CLEAR","Onshore,Onshore,Onshore",3
5842041f4e65fad6a7708944,2024_11_23,34.34145077331085,-119.416999352654,Stanley's,2.6666666666666665,0.4433333333333333,0.7466666666666667,13.333333333333334,13.333333333333334,"CLEAR,NIGHT_BRIEF_SHOWERS,DRIZZLE","Onshore,Cross-shore,Cross-shore",3
5842041f4e65fad6a7708945,2024_11_23,34.35113017313915,-119.426921498899,Oil Piers,2.6666666666666665,0.4433333333333333,0.7466666666666667,13.333333333333334,13.333333333333334,"CLEAR,NIGHT_BRIEF_SHOWERS,DRIZZLE","Onshore,Offshore,Offshore",3
5842041f4e65fad6a770894c,2024_11_23,34.17876333306018,-119.23995,Oxnard,2.6666666666666665,0.5366666666666666,0.8466666666666667,14,14,"CLEAR,NIGHT_MOSTLY_CLOUDY,RAIN","Onshore,Offshore,Offshore",3
5842041f4e65fad6a7708957,2024_11_23,34.31720331100517,-119.3882324751725,Pitas Point,2.6666666666666665,0.44333333333333336,0.7433333333333334,13.333333333333334,13.333333333333334,"MIST,NIGHT_BRIEF_SHOWERS,LIGHT_RAIN","Onshore,Offshore,Offshore",3
5842041f4e65fad6a7708959,2024_11_23,34.27851754384724,-119.3162,Emma Wood,2.6666666666666665,0.49333333333333335,0.8033333333333333,14,14,"BRIEF_SHOWERS,NIGHT_BRIEF_SHOWERS,RAIN","Onshore,Offshore,Offshore",3
5842041f4e65fad6a770895a,2024_11_23,34.35513640390276,-119.4400589884255,Mussel Shoals (aka Little Rincon),3,0.49000000000000005,0.7933333333333333,13.333333333333334,13.333333333333334,"MIST,NIGHT_MOSTLY_CLOUDY,DRIZZLE","Onshore,Onshore,Offshore",3
5842041f4e65fad6a770895e,2024_11_23,34.28991757054902,-119.3366646794652,Summer Beach,2.6666666666666665,0.29,0.6,14,14,"BRIEF_SHOWERS,NIGHT_BRIEF_SHOWERS,RAIN","Onshore,Offshore,Offshore",3
5842041f4e65fad6a770895f,2024_11_23,34.30897456105926,-119.3582501170116,Solimar,2.6666666666666665,0.29,0.6,13.333333333333334,13.333333333333334,"MIST,NIGHT_BRIEF_SHOWERS,LIGHT_RAIN","Onshore,Offshore,Offshore",3
5842041f4e65fad6a7708960,2024_11_23,34.39836265281686,-119.70213,Leadbetter Point,1.6666666666666667,0.013333333333333332,0.31,14,14,"CLEAR,NIGHT_FOG,MIST","Offshore,Cross-shore,Onshore",3
5842041f4e65fad6a7708961,2024_11_23,34.46052293893899,-120.07328,Refugio,1.3333333333333333,0.18666666666666668,0.49333333333333335,13.333333333333334,13.333333333333334,"CLEAR,NIGHT_BRIEF_SHOWERS,BRIEF_SHOWERS","Offshore,Offshore,Onshore",3
5842041f4e65fad6a7708962,2024_11_23,34.40754276777778,-119.87639,Devereux,2.3333333333333335,0.30666666666666664,0.61,14,14,"BRIEF_SHOWERS_POSSIBLE,NIGHT_BRIEF_SHOWERS,MIST","Cross-shore,Onshore,Cross-shore",3
5842041f4e65fad6a7708963,2024_11_23,34.27479983305182,-119.3133222656776,Ventura Overhead,3,0.49333333333333335,0.8033333333333333,14,14,"BRIEF_SHOWERS,NIGHT_MOSTLY_CLOUDY,RAIN","Cross-shore,Offshore,Offshore",3
5842041f4e65fad6a7708964,2024_11_23,34.41023236011655,-119.88261,Sands,2.3333333333333335,0.29333333333333333,0.5966666666666667,14,14,"BRIEF_SHOWERS_POSSIBLE,NIGHT_BRIEF_SHOWERS,MIST","Onshore,Offshore,Offshore",3
5842041f4e65fad6a7708966,2024_11_23,34.40450193869233,-119.68752,Sandspit,1.6666666666666667,0.013333333333333332,0.31,14,14,"CLEAR,NIGHT_BRIEF_SHOWERS,MIST","Cross-shore,Cross-shore,Onshore",3
5842041f4e65fad6a7708967,2024_11_23,34.41549098334453,-119.6375149840203,Hammond's,2,0.15333333333333332,0.45666666666666667,14,14,"CLEAR,NIGHT_FOG,MIST","Cross-shore,Cross-shore,Onshore",3
5842041f4e65fad6a7708968,2024_11_23,34.45759322742309,-120.02203,El Capitan,2,0.22,0.5233333333333333,13.333333333333334,13.333333333333334,"CLEAR,NIGHT_FOG,MOSTLY_CLOUDY","Offshore,Onshore,Cross-shore",3
5842041f4e65fad6a770896c,2024_11_23,34.405117655616,-119.84317,Campus Point,2,0.29333333333333333,0.5966666666666667,14,14,"CLEAR,NIGHT_FOG,MIST","Cross-shore,Onshore,Cross-shore",3
5842041f4e65fad6a770896e,2024_11_23,34.38935162233354,-119.51955,Carpinteria State Beach,3,0.4166666666666667,0.72,13.333333333333334,13.333333333333334,"CLEAR,NIGHT_MIST,MIST","Cross-shore,Offshore,Onshore",3
5842041f4e65fad6a770896f,2024_11_23,37.48296565175612,-122.45493,Half Moon Bay,1.6666666666666667,1.8733333333333333,2.1333333333333333,13,13,"RAIN,NIGHT_MIST,MIST","Onshore,Onshore,Onshore",3
5842041f4e65fad6a7708970,2024_11_23,37.499,-122.471,Princeton Jetty,1.6666666666666667,1.31,1.5733333333333335,13,13,"RAIN,NIGHT_MIST,MIST","Onshore,Onshore,Onshore",3
5842041f4e65fad6a7708972,2024_11_23,37.35699547365155,-122.4069534707252,Tunitas Creek,1.6666666666666667,2.07,2.473333333333333,13,13,"OVERCAST,NIGHT_BRIEF_SHOWERS,MIST","Onshore,Onshore,Onshore",3
5842041f4e65fad6a7708974,2024_11_23,37.54735589428842,-122.51611,Montara,2.6666666666666665,1.8266666666666667,2.1366666666666667,13,13,"RAIN,NIGHT_MIST,MIST","Cross-shore,Cross-shore,Cross-shore",3
5842041f4e65fad6a7708975,2024_11_23,34.3869373724559,-119.5142334209018,Tarpits,3,0.45,0.75,13.333333333333334,13.333333333333334,"CLEAR,NIGHT_MOSTLY_CLEAR,DRIZZLE","Cross-shore,Offshore,Onshore",3
5842041f4e65fad6a7708976,2024_11_23,37.59881852720143,-122.50463,Linda Mar,2.8333333333333335,0.8235899999999999,1.1712333333333333,12,12,"RAIN,NIGHT_MOSTLY_CLEAR,MOSTLY_CLOUDY","Offshore,Offshore,Cross-shore",3
5842041f4e65fad6a7708978,2024_11_23,37.59883098461164,-122.5143843582282,Pedro Point,3,1.8066666666666666,2.12,13,13,"RAIN,NIGHT_MOSTLY_CLEAR,MOSTLY_CLOUDY","Offshore,Onshore,Cross-shore",3
5842041f4e65fad6a7708979,2024_11_23,37.61081996647663,-122.49733,Rockaway,3,1.76,2.0933333333333333,13,13,"RAIN,NIGHT_MOSTLY_CLEAR,MOSTLY_CLOUDY","Cross-shore,Offshore,Cross-shore",3
5842041f4e65fad6a770897a,2024_11_23,37.809987384424446,-122.47514,Fort Point,3,1.2,1.45,13,13,"LIGHT_RAIN,NIGHT_CLEAR,MOSTLY_CLOUDY","Onshore,Onshore,Onshore",3
5842041f4e65fad6a770897c,2024_11_23,37.63422542967464,-122.4951,Sharp Park,2.6666666666666665,1.9233333333333333,2.256666666666667,13,13,"RAIN,NIGHT_MOSTLY_CLOUDY,MOSTLY_CLOUDY","Cross-shore,Cross-shore,Cross-shore",3
5842041f4e65fad6a770897d,2024_11_23,37.27313605072472,-122.4127387912554,Pescadero,2,2.026666666666667,2.42,13,13,"RAIN,NIGHT_BRIEF_SHOWERS,MIST","Cross-shore,Cross-shore,Cross-shore",3
5842041f4e65fad6a770897e,2024_11_23,37.18140279972666,-122.3926685899327,Pigeon Point,2,2.0366666666666666,2.4333333333333336,13,13,"LIGHT_RAIN,NIGHT_MOSTLY_CLOUDY,MOSTLY_CLOUDY","Onshore,Cross-shore,Onshore",3
5842041f4e65fad6a770897f,2024_11_23,37.11578956919415,-122.314699271291,Ano Nuevo,2,1.84,2.1666666666666665,13,13,"LIGHT_RAIN,NIGHT_MOSTLY_CLOUDY,MOSTLY_CLOUDY","Onshore,Offshore,Onshore",3
5842041f4e65fad6a7708980,2024_11_23,37.09520872681598,-122.2805474707768,Waddell Creek,2.6666666666666665,1.8966666666666667,2.2533333333333334,13,13,"DRIZZLE,NIGHT_MOSTLY_CLOUDY,MIST","Onshore,Offshore,Onshore",3
5842041f4e65fad6a7708981,2024_11_23,36.96512852130351,-122.1252825495626,Four Mile,2.6666666666666665,1.6666666666666667,1.9566666666666668,13,13,"MOSTLY_CLOUDY,NIGHT_OVERCAST,MIST","Onshore,Offshore,Onshore",3
5842041f4e65fad6a7708982,2024_11_23,37.04122807048655,-122.23337,Scott Creek,3,1.73,2.0566666666666666,13,13,"HEAVY_RAIN,NIGHT_BRIEF_SHOWERS,MIST","Onshore,Offshore,Cross-shore",3
5842041f4e65fad6a7708983,2024_11_23,37.02350229387179,-122.21908,Davenport,2.6666666666666665,1.77,2.0966666666666667,13,13,"SHOWERS,NIGHT_BRIEF_SHOWERS,MIST","Cross-shore,Offshore,Onshore",3
5842041f4e65fad6a7708986,2024_11_23,36.94905295955728,-122.06118,Natural Bridges,2,2.1166666666666667,2.42,13,13,"CLOUDY,NIGHT_MOSTLY_CLOUDY,MIST","Onshore,Cross-shore,Onshore",3
5842041f4e65fad6a7708987,2024_11_23,36.95154854910425,-122.04207,Mitchell's Cove,2.6666666666666665,1.11819,1.4707,13,13,"OVERCAST,NIGHT_MOSTLY_CLOUDY,MIST","Onshore,Cross-shore,Onshore",3
5842041f4e65fad6a770898a,2024_11_23,36.9572312370203,-121.98177,26th Ave,2,1.5266666666666666,1.8366666666666667,13,13,"OVERCAST,NIGHT_LIGHT_RAIN,MIST","Onshore,Onshore,Onshore",3
5842041f4e65fad6a770898e,2024_11_23,36.91899972819882,-121.85536,Manresa,2.3333333333333335,1.7566666666666666,2.033333333333333,13,13,"OVERCAST,NIGHT_OVERCAST,MIST","Onshore,Onshore,Onshore",3
5842041f4e65fad6a7708990,2024_11_23,34.45747731928454,-120.34242,The Ranch,2.6666666666666665,0.8633333333333334,1.0999999999999999,13.333333333333334,13.333333333333334,"CLEAR,NIGHT_FOG,MOSTLY_CLOUDY","Onshore,Cross-shore,Offshore",3
5842041f4e65fad6a7708991,2024_11_23,34.50875036590315,-120.50348,Jalama,3,1.1666666666666667,1.4233333333333333,13,13,"MIST,NIGHT_BRIEF_SHOWERS,MIST","Onshore,Onshore,Offshore",3
5842041f4e65fad6a7708996,2024_11_23,34.68700870220497,-120.6111611019887,Surf Beach,3,1.7366666666666666,2.08,12.333333333333334,12.333333333333334,"MIST,NIGHT_BRIEF_SHOWERS,CLEAR","Onshore,Cross-shore,Cross-shore",3
5842041f4e65fad6a770899c,2024_11_23,35.5730538161116,-121.1143362345574,Moonstone,2.6666666666666665,1.5366666666666666,1.7933333333333332,12,12,"BRIEF_SHOWERS,NIGHT_DRIZZLE,MIST","Onshore,Cross-shore,Onshore",3
5842041f4e65fad6a770899d,2024_11_23,35.61533716776573,-121.1502053073914,Pico Creek,2.6666666666666665,1.49,1.72,12,12,"BRIEF_SHOWERS,NIGHT_LIGHT_RAIN,MIST","Offshore,Offshore,Cross-shore",3
5842041f4e65fad6a770899e,2024_11_23,35.56829031927379,-121.11207,Santa Rosa Creek,2.6666666666666665,1.5366666666666666,1.7933333333333332,12,12,"MIST,NIGHT_MIST,MIST","Onshore,Onshore,Onshore",3
5842041f4e65fad6a77089a2,2024_11_23,35.44820114936284,-120.90715,"Cayucos Pier, Southside",2,0.6002833333333333,0.9465766666666667,12,12,"MIST,NIGHT_MOSTLY_CLOUDY,MIST","Onshore,Onshore,Onshore",3
5842041f4e65fad6a77089a4,2024_11_23,35.30143372628852,-120.877819239902,Cable Landing,2.3333333333333335,1.96,2.3466666666666667,12,12,"MOSTLY_CLOUDY,NIGHT_BRIEF_SHOWERS,OVERCAST","Onshore,Cross-shore,Onshore",3
5842041f4e65fad6a77089a9,2024_11_23,35.61269103500222,-121.14807,San Simeon,2.3333333333333335,0.98,1.1386666666666667,12,12,"MOSTLY_CLOUDY,NIGHT_BRIEF_SHOWERS,CLEAR","Onshore,Onshore,Onshore",3
5842041f4e65fad6a77089ab,2024_11_23,35.1775325966252,-120.73411,Avila Beach,2,0.09,0.3933333333333333,12,12,"MOSTLY_CLOUDY,NIGHT_LIGHT_RAIN,MIST","Onshore,Onshore,Onshore",3
5842041f4e65fad6a77089ac,2024_11_23,35.13877877884115,-120.64535,Pismo Beach Pier,3.2222222222222223,1.1055566666666667,1.5219,12,12,"MOSTLY_CLEAR,NIGHT_LIGHT_RAIN,MIST","Onshore,Cross-shore,Onshore",3
5842041f4e65fad6a77089ad,2024_11_23,46.8907710233147,-124.12964,Westport/Olympic Peninsula,1,3.0533333333333332,3.36,11,11,"OVERCAST,NIGHT_OVERCAST,MOSTLY_CLOUDY","Onshore,Onshore,Onshore",3
5842041f4e65fad6a77089ae,2024_11_23,46.35185177248545,-124.06747,Long Beach Peninsula,1,2.61,2.8833333333333333,11,11,"CLEAR,NIGHT_CLOUDY,MOSTLY_CLOUDY","Cross-shore,Cross-shore,Onshore",3
5842041f4e65fad6a77089af,2024_11_23,47.90649175554033,-124.63709,La Push,1,2.8566666666666665,3.236666666666667,11,11,"MOSTLY_CLOUDY,NIGHT_MOSTLY_CLOUDY,BRIEF_SHOWERS","Cross-shore,Onshore,Cross-shore",3
5842041f4e65fad6a77089b0,2024_11_23,42.04368239985442,-124.26828,Brookings Jetty,2,1.299,1.5393566666666667,12,12,"LIGHT_RAIN,NIGHT_CLEAR,MOSTLY_CLEAR","Onshore,Onshore,Onshore",3
5842041f4e65fad6a77089b1,2024_11_23,42.74071837900346,-124.4983727491047,Port Orford,1.3333333333333333,2.2933333333333334,2.506666666666667,11,11,"MOSTLY_CLOUDY,NIGHT_BRIEF_SHOWERS,MOSTLY_CLOUDY","Onshore,Onshore,Cross-shore",3
5842041f4e65fad6a77089b2,2024_11_23,44.01532689312291,-124.13865,Florence South Jetty,2.3333333333333335,2.3,2.58,12,12,"MOSTLY_CLOUDY,NIGHT_MOSTLY_CLOUDY,MOSTLY_CLOUDY","Cross-shore,Offshore,Onshore",3
5842041f4e65fad6a77089b3,2024_11_23,42.41812540774362,-124.42945,Gold Beach South Jetty,1.3333333333333333,2.1766666666666667,2.6033333333333335,12,12,"MOSTLY_CLOUDY,NIGHT_SHOWERS,CLEAR","Onshore,Onshore,Onshore",3
5842041f4e65fad6a77089b4,2024_11_23,44.95857310226525,-124.0219,Lincoln City,1.3333333333333333,2.356666666666667,2.6533333333333333,11,11,"CLOUDY,NIGHT_MOSTLY_CLOUDY,CLEAR","Cross-shore,Onshore,Onshore",3
5842041f4e65fad6a77089b5,2024_11_23,44.63792761362982,-124.0657,Newport,2.3333333333333335,2.4966666666666666,2.69,11,11,"MOSTLY_CLEAR,NIGHT_CLEAR,MOSTLY_CLOUDY","Cross-shore,Onshore,Cross-shore",3
5842041f4e65fad6a77089b6,2024_11_23,45.61468496266301,-123.94643,Rockaway Beach,1.6666666666666667,2.4233333333333333,2.743333333333333,11.666666666666666,11.666666666666666,"MOSTLY_CLOUDY,NIGHT_OVERCAST,MOSTLY_CLOUDY","Cross-shore,Cross-shore,Onshore",3
5842041f4e65fad6a77089b7,2024_11_23,45.20252914186085,-123.96975,Pacific City,1.6666666666666667,2.2933333333333334,2.57,11.666666666666666,11.666666666666666,"CLEAR,NIGHT_MOSTLY_CLOUDY,MOSTLY_CLEAR","Onshore,Onshore,Onshore",3
5842041f4e65fad6a77089b8,2024_11_23,45.88179930310263,-123.96681,Cannon Beach,1.3333333333333333,2.6766666666666667,2.986666666666667,11.666666666666666,11.666666666666666,"CLEAR,NIGHT_FOG,MOSTLY_CLOUDY","Onshore,Onshore,Onshore",3
5842041f4e65fad6a77089ba,2024_11_23,40.02528754746774,-124.06372,Shelter Cove,1.6666666666666667,0.85464,1.0424333333333333,13.666666666666666,13.666666666666666,"MOSTLY_CLOUDY,NIGHT_MOSTLY_CLOUDY,CLEAR","Onshore,Onshore,Onshore",3
5842041f4e65fad6a77089bb,2024_11_23,40.76816197136951,-124.24248,Humboldt Harbor Entrance,3,2.1666666666666665,2.59,13,13,"CLEAR,NIGHT_CLOUDY,SHOWERS","Cross-shore,Offshore,Offshore",3
5842041f4e65fad6a77089bc,2024_11_23,40.76684246920174,-124.23107,North Jetty,3.3333333333333335,2.48,2.853333333333333,13,13,"MOSTLY_CLEAR,NIGHT_OVERCAST,SHOWERS","Cross-shore,Offshore,Cross-shore",3
5842041f4e65fad6a77089be,2024_11_23,41.13016238153297,-124.16466,Sue-meg,3,2.1833333333333336,2.6066666666666665,12.666666666666666,12.666666666666666,"BRIEF_SHOWERS,NIGHT_MOSTLY_CLOUDY,CLEAR","Cross-shore,Offshore,Cross-shore",3
5842041f4e65fad6a77089bf,2024_11_23,37.8289474958188,-122.53768,Fort Cronkite/Rodeo Beach,1.6666666666666667,1.8299999999999998,2.11,13,13,"LIGHT_RAIN,NIGHT_MOSTLY_CLEAR,BRIEF_SHOWERS","Onshore,Onshore,Onshore",3
5842041f4e65fad6a77089c0,2024_11_23,41.74415759876137,-124.17717,South Beach CA,2,1.93,2.23,12,12,"BRIEF_SHOWERS,NIGHT_CLEAR,MIST","Onshore,Onshore,Onshore",3
5842041f4e65fad6a77089c1,2024_11_23,37.89801283969752,-122.64519,Stinson Beach,3,1.0433333333333334,1.29,13,13,"RAIN,NIGHT_MIST,MIST","Onshore,Cross-shore,Cross-shore",3
5842041f4e65fad6a77089c2,2024_11_23,37.90514516176495,-122.68151,Bolinas,3,0.84461,1.1514433333333334,13,13,"DRIZZLE,NIGHT_MOSTLY_CLEAR,MIST","Cross-shore,Cross-shore,Offshore",3
5842041f4e65fad6a77089c3,2024_11_23,38.04892513158693,-122.98925,Point Reyes (north),2.3333333333333335,2.1866666666666665,2.6133333333333333,14,14,"LIGHT_RAIN,NIGHT_CLEAR,MOSTLY_CLOUDY","Cross-shore,Offshore,Onshore",3
5842041f4e65fad6a77089c6,2024_11_23,38.31088736605785,-123.0496777333731,Doran Beach,1.6666666666666667,0.52,0.8266666666666667,13.666666666666666,13.666666666666666,"LIGHT_RAIN,NIGHT_MOSTLY_CLEAR,MIST","Onshore,Onshore,Cross-shore",3
5842041f4e65fad6a77089c7,2024_11_23,38.45077228660809,-123.13008,Russian Rivermouth,2.6666666666666665,1.91,2.243333333333333,14,14,"DRIZZLE,NIGHT_CLEAR,MIST","Onshore,Onshore,Onshore",3
5842041f4e65fad6a77089c8,2024_11_23,38.35329968518107,-123.06906,Salmon Creek,2.3333333333333335,2.163333333333333,2.5866666666666664,13.666666666666666,13.666666666666666,"LIGHT_RAIN,NIGHT_MOSTLY_CLEAR,MIST","Onshore,Onshore,Onshore",3
5842041f4e65fad6a77089c9,2024_11_23,38.6845180197959,-123.4322714291198,Black Point Beach,3,1.7333333333333334,1.97,14,14,"HEAVY_RAIN,NIGHT_MOSTLY_CLEAR,CLEAR","Cross-shore,Cross-shore,Onshore",3
5842041f4e65fad6a77089ca,2024_11_23,43.251076,-70.59144,Ogunquit,1.8888888888888888,0.7949,1.1632333333333333,11,9,"NIGHT_CLOUDY,NIGHT_LIGHT_SHOWERS_POSSIBLE,CLOUDY","Onshore,Offshore,Offshore",3
5842041f4e65fad6a77089cb,2024_11_23,41.362631366305415,-71.48007,Point Judith,1.8888888888888888,0.4571466666666667,0.80334,12,12,"NIGHT_CLEAR,NIGHT_CLEAR,CLOUDY","Onshore,Offshore,Offshore",3
5842041f4e65fad6a77089cd,2024_11_23,41.422678090954726,-71.45413,Monahan's - Narragansett,1,0.06529333333333333,0.34279,13.666666666666666,13.666666666666666,"NIGHT_MOSTLY_CLEAR,NIGHT_CLEAR,CLOUDY","Onshore,Offshore,Offshore",3
5842041f4e65fad6a77089ce,2024_11_23,41.469,-71.293,Ruggles - Newport,1.3333333333333333,0.4693,0.8203166666666667,13,13,"NIGHT_MOSTLY_CLEAR,NIGHT_OVERCAST,CLEAR","Onshore,Offshore,Offshore",3
5842041f4e65fad6a77089cf,2024_11_23,43.175394,-70.606351,Short Sands Beach,2,0.9,1.2066666666666668,10,10,"NIGHT_CLOUDY,NIGHT_RAIN,BRIEF_SHOWERS_POSSIBLE","Onshore,Cross-shore,Offshore",3
5842041f4e65fad6a77089d0,2024_11_23,41.487408,-71.29017,First Beach,1,0.11666666666666667,0.42333333333333334,13,13,"NIGHT_MOSTLY_CLEAR,NIGHT_OVERCAST,CLEAR","Onshore,Offshore,Offshore",3
5842041f4e65fad6a77089d1,2024_11_23,42.27916830233153,-70.86498,Nantasket Beach,1.2222222222222223,0.6765666666666666,1.0066533333333334,12,11,"NIGHT_MOSTLY_CLOUDY,NIGHT_BRIEF_SHOWERS_POSSIBLE,OVERCAST","Cross-shore,Onshore,Cross-shore",3
5842041f4e65fad6a77089d2,2024_11_23,41.817,-69.935,Cape Cod,1.3333333333333333,0.8766666666666667,1.1366666666666667,11,11,"NIGHT_MOSTLY_CLOUDY,NIGHT_RAIN,OVERCAST","Onshore,Offshore,Offshore",3
5842041f4e65fad6a77089d3,2024_11_23,42.22055448975661,-70.70634873403819,Egypt Beach,0.6666666666666666,0.7833333333333333,1.09,11,11,"NIGHT_MOSTLY_CLOUDY,NIGHT_LIGHT_SHOWERS_POSSIBLE,CLOUDY","Onshore,Cross-shore,Offshore",3
5842041f4e65fad6a77089d4,2024_11_23,41.48739647744607,-71.25723,Second Beach,0.888888888888889,0.36605,0.6301,12,12,"NIGHT_CLEAR,NIGHT_CLOUDY,CLEAR","Onshore,Offshore,Cross-shore",3
5842041f4e65fad6a77089d5,2024_11_23,42.964,-70.769,Fox Hill,2,0.63018,1.04508,11,9,"NIGHT_CLEAR,NIGHT_RAIN,LIGHT_SHOWERS_POSSIBLE","Onshore,Offshore,Offshore",3
5842041f4e65fad6a77089d6,2024_11_23,42.991359,-70.75149,Straws Point,2,0.7015666666666667,1.1100766666666666,11,9,"NIGHT_CLEAR,NIGHT_RAIN,LIGHT_SHOWERS_POSSIBLE","Onshore,Offshore,Offshore",3
5842041f4e65fad6a77089d7,2024_11_23,42.946,-70.786,Plaice Cove,2.2222222222222223,0.63018,1.04508,11,9,"NIGHT_OVERCAST,NIGHT_RAIN,LIGHT_SHOWERS_POSSIBLE","Onshore,Offshore,Offshore",3
5842041f4e65fad6a77089d9,2024_11_23,42.911574,-70.80831,The Main Beach,2.2222222222222223,0.7972366666666667,1.2100266666666666,11,9,"NIGHT_CLEAR,NIGHT_LIGHT_SHOWERS_POSSIBLE,LIGHT_SHOWERS_POSSIBLE","Onshore,Offshore,Offshore",3
5842041f4e65fad6a77089da,2024_11_23,42.97583846220203,-70.764,Sawyer's Beach,2,0.6310133333333333,1.04258,11,9,"NIGHT_CLEAR,NIGHT_RAIN,LIGHT_SHOWERS_POSSIBLE","Onshore,Offshore,Offshore",3
5842041f4e65fad6a77089db,2024_11_23,42.97,-70.77,Rye on the Rocks / 5-0's,1.8888888888888888,0.8121966666666667,1.2204,11,9,"NIGHT_CLEAR,NIGHT_RAIN,LIGHT_SHOWERS_POSSIBLE","Onshore,Offshore,Offshore",3
5842041f4e65fad6a77089dc,2024_11_23,43.55902946610303,-70.27795,Higgins Beach,2.2222222222222223,0.6217566666666666,0.98249,11,9,"NIGHT_CLEAR,NIGHT_DRIZZLE,DRIZZLE","Onshore,Offshore,Offshore",3
5842041f4e65fad6a77089dd,2024_11_23,43.302676,-70.5652,Wells Beach,1.5555555555555556,0.6482333333333333,1.0135133333333333,11,9,"NIGHT_CLEAR,NIGHT_RAIN,CLOUDY","Onshore,Offshore,Offshore",3
5842041f4e65fad6a77089de,2024_11_23,43.545359,-70.30479,Scarborough Beach State Park,2.5555555555555554,0.6461133333333333,1.07797,11,9,"NIGHT_CLEAR,NIGHT_OVERCAST,CLOUDY","Onshore,Offshore,Offshore",3
5842041f4e65fad6a77089df,2024_11_23,43.514481,-70.37215,Old Orchard Beach,2.444444444444444,0.8155,1.20162,11,9,"NIGHT_CLEAR,NIGHT_LIGHT_RAIN,CLOUDY","Onshore,Offshore,Offshore",3
5842041f4e65fad6a77089e0,2024_11_23,43.34711,-70.48165,Gooch's Beach,1.5555555555555556,0.43861,0.7987,11,9,"NIGHT_CLEAR,NIGHT_RAIN,OVERCAST","Cross-shore,Offshore,Offshore",3
5842041f4e65fad6a77089e2,2024_11_23,40.58433,-73.62953,Lido Beach,1.2222222222222223,0.32131333333333334,0.6516766666666667,13,12,"NIGHT_BRIEF_SHOWERS_POSSIBLE,NIGHT_CLEAR,CLEAR","Onshore,Offshore,Offshore",3
5842041f4e65fad6a77089e3,2024_11_23,43.163135,-70.61689,Long Sands Beach,1.9999999999999998,0.73966,1.1261333333333334,11,9,"NIGHT_CLOUDY,NIGHT_RAIN,CLEAR","Onshore,Offshore,Offshore",3
5842041f4e65fad6a77089e4,2024_11_23,40.61695351251805,-73.39376,Gilgo Beach,1,0.45639,0.7920333333333334,12,12,"NIGHT_CLOUDY,NIGHT_CLEAR,CLEAR","Cross-shore,Offshore,Offshore",3
5842041f4e65fad6a77089e5,2024_11_23,40.62530081928036,-73.23827,Robert Moses,0.6666666666666666,0.4266666666666667,0.7266666666666667,14.666666666666666,14.666666666666666,"NIGHT_CLOUDY,NIGHT_CLEAR,CLEAR","Onshore,Offshore,Cross-shore",3
5842041f4e65fad6a77089e6,2024_11_23,40.64313317632791,-73.15727,Fire Island,1,0.43,0.73,14.666666666666666,14.666666666666666,"NIGHT_CLOUDY,NIGHT_CLEAR,CLEAR","Onshore,Offshore,Cross-shore",3
5842041f4e65fad6a77089e8,2024_11_23,40.76653118828782,-72.7458,Cupsogue,1.3333333333333333,0.75,1.0566666666666666,14.666666666666666,14.666666666666666,"NIGHT_SHOWERS,NIGHT_CLEAR,CLEAR","Onshore,Offshore,Cross-shore",3
5842041f4e65fad6a77089e9,2024_11_23,42.9376373334092,-70.79141,The Wall,2.2222222222222223,0.92353,1.2283933333333332,11,9,"NIGHT_CLEAR,NIGHT_LIGHT_SHOWERS_POSSIBLE,LIGHT_SHOWERS_POSSIBLE","Onshore,Offshore,Offshore",3
5842041f4e65fad6a77089ea,2024_11_23,40.887088,-72.33856,Flys,1.3333333333333333,0.6633333333333333,0.97,14,14,"NIGHT_CLEAR,NIGHT_CLEAR,CLEAR","Onshore,Offshore,Cross-shore",3
5842041f4e65fad6a77089eb,2024_11_23,41.0389266436591,-71.91068529316958,Trailer Park,2,0.6444733333333333,0.9483733333333333,12,12,"NIGHT_CLEAR,NIGHT_CLEAR,CLEAR","Onshore,Offshore,Offshore",3
5842041f4e65fad6a77089ec,2024_11_23,41.039505402729105,-71.9142,Ditch Plains,0.6666666666666666,0.3514933333333333,0.6880333333333334,14,14,"NIGHT_MOSTLY_CLOUDY,NIGHT_CLEAR,CLEAR","Onshore,Offshore,Offshore",3
5842041f4e65fad6a77089ee,2024_11_23,40.57633275206492,-73.56895305108567,"West End, Jones Beach",1.2222222222222223,0.3693666666666667,0.7063999999999999,13,12,"NIGHT_DRIZZLE,NIGHT_CLEAR,CLEAR","Onshore,Offshore,Cross-shore",3
5842041f4e65fad6a77089f1,2024_11_23,41.038286691230795,-71.91991567611694,Poles,2.2222222222222223,0.5662866666666666,0.8875166666666667,12,12,"NIGHT_CLEAR,NIGHT_CLEAR,CLEAR","Onshore,Offshore,Offshore",3
5842041f4e65fad6a77089f3,2024_11_23,40.84077769766295,-72.47989493724765,The Bowl,1.3333333333333333,0.7266666666666666,1.03,14,14,"NIGHT_CLEAR,NIGHT_CLEAR,CLEAR","Onshore,Offshore,Cross-shore",3
5842041f4e65fad6a77089f4,2024_11_23,40.94235535243154,-72.19286,Main Beach,1.3333333333333333,0.60341,0.93378,17,16,"NIGHT_MOSTLY_CLOUDY,NIGHT_CLEAR,CLEAR","Onshore,Offshore,Cross-shore",3
5842041f4e65fad6a77089f5,2024_11_23,40.58270702399518,-73.67251552079799,Laurelton Blvd.,1.2222222222222223,0.43138666666666664,0.6970766666666667,13,12,"NIGHT_LIGHT_SHOWERS_POSSIBLE,NIGHT_CLEAR,CLEAR","Onshore,Offshore,Cross-shore",3
5842041f4e65fad6a77089f6,2024_11_23,41.033752854071416,-71.93696,Terrace,2,0.6432,0.9913266666666667,12,12,"NIGHT_CLEAR,NIGHT_CLEAR,CLEAR","Onshore,Offshore,Offshore",3
5842041f4e65fad6a77089f7,2024_11_23,40.83372943645748,-72.50426173210144,K Road,1.6666666666666667,0.7866666666666666,1.0966666666666667,14.666666666666666,14.666666666666666,"NIGHT_CLEAR,NIGHT_CLEAR,CLEAR","Onshore,Offshore,Offshore",3
5842041f4e65fad6a77089f8,2024_11_23,40.58456099581507,-73.80730032920837,84th Street,0.7777777777777778,0.25075666666666663,0.5752866666666666,13,12,"NIGHT_LIGHT_SHOWERS_POSSIBLE,NIGHT_CLEAR,CLEAR","Onshore,Offshore,Offshore",3
5842041f4e65fad6a77089fa,2024_11_23,40.1319,-74.02788,Sea Girt,0.7777777777777778,0.061943333333333336,0.36795666666666665,12,11,"NIGHT_BRIEF_SHOWERS_POSSIBLE,NIGHT_MOSTLY_CLOUDY,CLEAR","Offshore,Offshore,Offshore",3
5842041f4e65fad6a77089fb,2024_11_23,40.54698301868125,-73.9268,Breezy Point,1,0.17,0.46,14,14,"NIGHT_LIGHT_SHOWERS_POSSIBLE,NIGHT_CLEAR,CLEAR","Onshore,Offshore,Cross-shore",3
5842041f4e65fad6a77089fc,2024_11_23,40.152504,-74.02138,Spring Lake,1.4444444444444444,0.07639,0.38045666666666667,12,11,"NIGHT_BRIEF_SHOWERS_POSSIBLE,NIGHT_MOSTLY_CLOUDY,CLEAR","Offshore,Offshore,Offshore",3
5842041f4e65fad6a77089fd,2024_11_23,40.591277,-73.770792,30th - 39th Streets,0.7777777777777778,0.22380999999999998,0.5464,13,12,"NIGHT_LIGHT_SHOWERS_POSSIBLE,NIGHT_CLEAR,CLEAR","Onshore,Offshore,Cross-shore",3
5842041f4e65fad6a77089fe,2024_11_23,40.18834955871439,-74.00860982500222,Avon,1.4444444444444444,0.08027666666666668,0.3807333333333333,12,11,"NIGHT_BRIEF_SHOWERS_POSSIBLE,NIGHT_MOSTLY_CLOUDY,CLEAR","Offshore,Offshore,Offshore",3
5842041f4e65fad6a77089ff,2024_11_23,40.1974229100932,-74.00650533798255,Bradley Beach,1.4444444444444444,0.08499999999999999,0.3907333333333333,12,11,"NIGHT_BRIEF_SHOWERS_POSSIBLE,NIGHT_MOSTLY_CLOUDY,CLEAR","Offshore,Offshore,Offshore",3
5842041f4e65fad6a7708a01,2024_11_23,40.17202,-74.01503,"16th Ave., Belmar",1.1111111111111112,0.11694333333333333,0.37305666666666665,12,11,"NIGHT_BRIEF_SHOWERS_POSSIBLE,NIGHT_MOSTLY_CLOUDY,CLEAR","Offshore,Offshore,Offshore",3
5842041f4e65fad6a7708a02,2024_11_23,40.217443,-73.99982,Asbury Park,1.4444444444444444,0.06999999999999999,0.37934666666666667,12,11,"NIGHT_BRIEF_SHOWERS_POSSIBLE,NIGHT_CLEAR,CLEAR","Offshore,Offshore,Offshore",3
5842041f4e65fad6a7708a03,2024_11_23,40.229841,-73.99678,Loch Arbour and Deal,0.6666666666666666,0.06694333333333334,0.36934333333333336,12,11,"NIGHT_BRIEF_SHOWERS_POSSIBLE,NIGHT_CLEAR,CLEAR","Cross-shore,Offshore,Offshore",3
5842041f4e65fad6a7708a05,2024_11_23,40.41754,-73.97935,Sandy Hook,0.6666666666666666,0,0.21,14,14,"NIGHT_BRIEF_SHOWERS_POSSIBLE,NIGHT_CLEAR,CLEAR","Cross-shore,Offshore,Offshore",3
5842041f4e65fad6a7708a06,2024_11_23,39.36353,-74.40873,Crystals,1,0.29551,0.62549,15.666666666666666,15.666666666666666,"NIGHT_CLOUDY,NIGHT_OVERCAST,CLEAR","Cross-shore,Offshore,Offshore",3
5842041f4e65fad6a7708a07,2024_11_23,39.31443,-74.51863,32nd Street,0.5555555555555556,0.24125,0.5845366666666667,12,11,"NIGHT_DRIZZLE,NIGHT_DRIZZLE,CLEAR","Cross-shore,Offshore,Offshore",3
5842041f4e65fad6a7708a08,2024_11_23,39.327688,-74.49524,Margate Pier Northside,0.5555555555555556,0.24125,0.5845366666666667,12,11,"NIGHT_DRIZZLE,NIGHT_DRIZZLE,CLEAR","Cross-shore,Offshore,Offshore",3
5842041f4e65fad6a7708a09,2024_11_23,39.336276,-74.47782,Ventnor Pier,0.6666666666666666,0.30866000000000005,0.6321166666666667,15.666666666666666,15.666666666666666,"NIGHT_DRIZZLE,NIGHT_DRIZZLE,CLEAR","Cross-shore,Offshore,Offshore",3
5842041f4e65fad6a7708a0a,2024_11_23,39.35929751441085,-74.41683,States Avenue,1,0.29551,0.62549,15,15,"NIGHT_CLOUDY,NIGHT_DRIZZLE,CLEAR","Cross-shore,Offshore,Offshore",3
5842041f4e65fad6a7708a0b,2024_11_23,39.37274173278517,-74.40454,Brigantine Jetty,0.6666666666666666,0.35347666666666666,0.6850766666666667,15,15,"NIGHT_CLOUDY,NIGHT_OVERCAST,CLEAR","Cross-shore,Offshore,Offshore",3
5842041f4e65fad6a7708a0c,2024_11_23,39.356505,-74.42263,South Carolina Avenue,0.3333333333333333,0.35347666666666666,0.6850766666666667,15.666666666666666,15.666666666666666,"NIGHT_CLOUDY,NIGHT_DRIZZLE,CLEAR","Cross-shore,Offshore,Offshore",3
5842041f4e65fad6a7708a0d,2024_11_23,39.413485,-74.35476,14th Street North,1,0.03,0.3325766666666667,15,15,"NIGHT_CLOUDY,NIGHT_OVERCAST,CLEAR","Offshore,Offshore,Offshore",3
5842041f4e65fad6a7708a0e,2024_11_23,39.531319,-74.263252,The Wooden Jetty,0.3333333333333333,0.38025333333333333,0.6009866666666667,13.666666666666666,13.666666666666666,"NIGHT_CLEAR,NIGHT_MOSTLY_CLOUDY,CLEAR","Cross-shore,Offshore,Offshore",3
5842041f4e65fad6a7708a0f,2024_11_23,39.552472,-74.24344,Holyoke,0.3333333333333333,0.24552666666666667,0.5968233333333334,13.666666666666666,13.666666666666666,"NIGHT_CLEAR,NIGHT_MOSTLY_CLOUDY,CLEAR","Offshore,Offshore,Offshore",3
5842041f4e65fad6a7708a10,2024_11_23,39.692364,-74.14068,Hudson Ave.,0.4444444444444445,0.10639,0.40879,12,11,"NIGHT_CLEAR,NIGHT_CLEAR,CLEAR","Cross-shore,Offshore,Offshore",3
5842041f4e65fad6a7708a11,2024_11_23,39.79614,-74.09248,Island Beach State Park,0.11111111111111109,0.09833333333333333,0.40212333333333333,15,15,"NIGHT_CLEAR,NIGHT_CLEAR,CLEAR","Cross-shore,Offshore,Offshore",3
5842041f4e65fad6a7708a12,2024_11_23,39.91813588078152,-74.07527,Seaside Park,0.4444444444444444,0.23473666666666668,0.5410133333333333,15,15,"NIGHT_CLEAR,NIGHT_MOSTLY_CLOUDY,CLEAR","Offshore,Offshore,Offshore",3
5842041f4e65fad6a7708a15,2024_11_23,39.95745637606704,-74.06736,Ortley Beach,0.4444444444444444,0.20725,0.5111966666666666,12,11,"NIGHT_CLEAR,NIGHT_MOSTLY_CLOUDY,CLEAR","Cross-shore,Offshore,Offshore",3
5842041f4e65fad6a7708a16,2024_11_23,39.98313468342945,-74.06265685577506,Lavallette,0.7777777777777778,0.05444333333333334,0.36045666666666665,12,11,"NIGHT_CLEAR,NIGHT_MOSTLY_CLOUDY,CLEAR","Cross-shore,Offshore,Offshore",3
5842041f4e65fad6a7708a17,2024_11_23,40.0699319967757,-74.04145,Bay Head,0.7777777777777778,0.07138666666666667,0.37184333333333336,12,11,"NIGHT_BRIEF_SHOWERS_POSSIBLE,NIGHT_MOSTLY_CLOUDY,CLEAR","Cross-shore,Offshore,Offshore",3
5842041f4e65fad6a7708a18,2024_11_23,40.094041,-74.034859,Jenkinson's,0.7777777777777778,0.06166666666666667,0.36879,12,11,"NIGHT_CLEAR,NIGHT_MOSTLY_CLOUDY,CLEAR","Cross-shore,Offshore,Offshore",3
5842041f4e65fad6a7708a1a,2024_11_23,38.148058,-75.17704,Assateague,0.11111111111111109,0.09287666666666666,0.39888666666666667,13.666666666666666,12.666666666666666,"NIGHT_CLEAR,NIGHT_MOSTLY_CLOUDY,CLEAR","Offshore,Offshore,Offshore",3
5842041f4e65fad6a7708a1b,2024_11_23,38.33889038664497,-75.08017670566352,North End to Ocean City Inlet,0.4444444444444444,0.09815666666666667,0.4008333333333333,13.666666666666666,12.666666666666666,"NIGHT_CLEAR,NIGHT_MOSTLY_CLOUDY,CLEAR","Offshore,Offshore,Offshore",3
5842041f4e65fad6a7708a1c,2024_11_23,38.603993,-75.06271,Indian River Inlet,0.3333333333333333,0.09476333333333332,0.4501233333333333,14.666666666666666,14.666666666666666,"NIGHT_CLEAR,NIGHT_MOSTLY_CLOUDY,CLEAR","Offshore,Offshore,Offshore",3
5842041f4e65fad6a7708a1d,2024_11_23,38.460477,-75.05207,Fenwick Island,1,0.06,0.37,14.666666666666666,14.666666666666666,"NIGHT_CLEAR,NIGHT_CLEAR,CLEAR","Offshore,Offshore,Offshore",3
5842041f4e65fad6a7708a1e,2024_11_23,38.538767,-75.05619,Bethany Beach,0.6666666666666666,0.09408,0.44689,14.666666666666666,14.666666666666666,"NIGHT_CLEAR,NIGHT_MOSTLY_CLOUDY,CLEAR","Offshore,Offshore,Offshore",3
5842041f4e65fad6a7708a1f,2024_11_23,38.697657,-75.07595,Dewey Beach,1,0.016666666666666666,0.29666666666666663,14.666666666666666,14.666666666666666,"NIGHT_CLEAR,NIGHT_MOSTLY_CLOUDY,CLEAR","Offshore,Offshore,Offshore",3
5842041f4e65fad6a7708a20,2024_11_23,38.75034741676525,-75.08194,Gordons Pond,0.6666666666666666,0,0.30216333333333334,14.666666666666666,14.666666666666666,"NIGHT_CLOUDY,NIGHT_MOSTLY_CLOUDY,CLEAR","Offshore,Offshore,Offshore",3
5842041f4e65fad6a7708a21,2024_11_23,38.767837,-75.08284,Naval Jetties,0.3333333333333333,0.04,0.3433333333333333,14.666666666666666,14.666666666666666,"NIGHT_CLOUDY,NIGHT_MOSTLY_CLOUDY,CLEAR","Offshore,Offshore,Offshore",3
5842041f4e65fad6a7708a22,2024_11_23,36.81735875786576,-75.96624,Camp Pendleton,0.6666666666666666,0.03222333333333333,0.33271,15.666666666666666,15.666666666666666,"NIGHT_CLEAR,NIGHT_CLEAR,CLEAR","Offshore,Offshore,Offshore",3
5842041f4e65fad6a7708a23,2024_11_23,36.9102212316428,-75.98732471466064,North End,0.6666666666666666,0.0019433333333333334,0.24915333333333334,17,15,"NIGHT_CLEAR,NIGHT_CLEAR,CLEAR","Offshore,Offshore,Offshore",3
5842041f4e65fad6a7708a24,2024_11_23,36.737117517621314,-75.93924,Sandbridge Beach,0.7777777777777778,0.010833333333333334,0.2736,17,15,"NIGHT_CLEAR,NIGHT_CLEAR,CLEAR","Offshore,Offshore,Offshore",3
5842041f4e65fad6a7708a26,2024_11_23,36.818257440557794,-75.96666,Croatan to Pendleton,0.6666666666666666,0.008936666666666667,0.2705633333333333,17,15,"NIGHT_CLEAR,NIGHT_CLEAR,CLEAR","Offshore,Offshore,Offshore",3
5842041f4e65fad6a7708a27,2024_11_23,36.84318777204769,-75.9719,South End,0.7777777777777778,0.006666666666666667,0.27249,17,15,"NIGHT_CLEAR,NIGHT_CLEAR,CLEAR","Offshore,Offshore,Offshore",3
5842041f4e65fad6a7708a28,2024_11_23,37.08612627584661,-75.976121638199,Fishermans Island,0,0,0.052,15,15,"NIGHT_CLEAR,NIGHT_CLEAR,CLEAR","Cross-shore,Offshore,Offshore",3
5842041f4e65fad6a7708a38,2024_11_23,35.254619418229026,-75.52074,Cape Hatteras Lighthouse,1.3333333333333333,0.44129666666666667,0.7621,18,16,"NIGHT_CLEAR,NIGHT_CLEAR,CLEAR","Offshore,Offshore,Offshore",3
5842041f4e65fad6a7708a3a,2024_11_23,35.54572934093336,-75.46477,Waves and Salvo,0.3333333333333333,0.2783666666666667,0.5842333333333334,17,16,"NIGHT_CLEAR,NIGHT_CLEAR,CLEAR","Offshore,Offshore,Offshore",3
5842041f4e65fad6a7708a3b,2024_11_23,35.22565892751075,-75.63606,Frisco,0.3333333333333333,0.8112233333333333,1.13889,19,17,"NIGHT_CLEAR,NIGHT_CLEAR,CLEAR","Cross-shore,Cross-shore,Offshore",3
5842041f4e65fad6a7708a3c,2024_11_23,35.13086,-75.90591,Ocracoke,0,0.20431000000000002,0.5697133333333333,18.333333333333332,18.333333333333332,"NIGHT_CLEAR,NIGHT_CLEAR,CLEAR","Offshore,Offshore,Offshore",3
5842041f4e65fad6a7708a3d,2024_11_23,35.34721340158342,-75.50084,Avon Pier,1.3333333333333333,0.39781,0.7036766666666666,17,16,"NIGHT_CLEAR,NIGHT_CLEAR,CLEAR","Offshore,Offshore,Offshore",3
5842041f4e65fad6a7708a3f,2024_11_23,35.71680821253768,-75.49243,Pea Island,0.6666666666666666,0.25,0.5566666666666666,16,16,"NIGHT_CLEAR,NIGHT_CLEAR,CLEAR","Offshore,Offshore,Offshore",3
5842041f4e65fad6a7708a40,2024_11_23,35.97427620657821,-75.62984,Nags Head Pier,1.0666666666666667,0.22836666666666666,0.5356233333333333,17,16,"NIGHT_CLEAR,NIGHT_CLEAR,CLEAR","Offshore,Offshore,Offshore",3
5842041f4e65fad6a7708a41,2024_11_23,36.0439998039079,-75.67288,Avalon Pier,0.055555555555555546,0.14454333333333333,0.45041,17,16,"NIGHT_CLEAR,NIGHT_CLEAR,CLEAR","Offshore,Offshore,Offshore",3
5842041f4e65fad6a7708a42,2024_11_23,36.03043116489792,-75.66413,First Street,0.06666666666666665,0.23447666666666667,0.5436766666666667,17,16,"NIGHT_CLEAR,NIGHT_CLEAR,CLEAR","Offshore,Offshore,Offshore",3
5842041f4e65fad6a7708a43,2024_11_23,36.06829910590498,-75.6899,Old Station/Laundromats,0.055555555555555546,0.14371,0.44430000000000003,17,16,"NIGHT_CLEAR,NIGHT_CLEAR,CLEAR","Offshore,Offshore,Offshore",3
5842041f4e65fad6a7708a44,2024_11_23,36.10126676607491,-75.71107,Kitty Hawk Pier,0.39999999999999997,0.13899,0.44819,17,16,"NIGHT_CLEAR,NIGHT_CLEAR,CLEAR","Offshore,Offshore,Offshore",3
5842041f4e65fad6a7708a45,2024_11_23,36.18220630068973,-75.75014,Duck Pier,1,0.06666666666666667,0.36,16,16,"NIGHT_CLEAR,NIGHT_CLEAR,CLEAR","Offshore,Offshore,Offshore",3
5842041f4e65fad6a7708a46,2024_11_23,36.37660668125033,-75.8241,Corolla,1,0.16999999999999998,0.47333333333333333,16,16,"NIGHT_CLEAR,NIGHT_CLEAR,CLEAR","Offshore,Offshore,Offshore",3
5842041f4e65fad6a7708a47,2024_11_23,33.90373404124834,-78.08241431707907,Oak Island,0.6666666666666666,0,0.23666666666666666,19.333333333333332,19.333333333333332,"NIGHT_CLEAR,NIGHT_CLEAR,CLEAR","Cross-shore,Cross-shore,Cross-shore",3
5842041f4e65fad6a7708a48,2024_11_23,33.91108837766468,-78.29653,South Brunswick Beaches,0.6666666666666666,0.06397,0.41369333333333336,19.333333333333332,19.333333333333332,"NIGHT_CLEAR,NIGHT_CLEAR,CLEAR","Cross-shore,Cross-shore,Cross-shore",3
5842041f4e65fad6a7708a49,2024_11_23,34.05683595651973,-77.88128,Carolina Beach Pier,-0.22222222222222224,0,0.16095666666666666,17,16,"NIGHT_CLEAR,NIGHT_CLEAR,CLEAR","Offshore,Offshore,Offshore",3
5842041f4e65fad6a7708a4a,2024_11_23,33.96841191816696,-77.9180242565498,Fort Fisher,0,0,0.15951,17,16,"NIGHT_CLEAR,NIGHT_CLEAR,CLEAR","Offshore,Offshore,Offshore",3
5842041f4e65fad6a7708a4b,2024_11_23,34.46776662988774,-77.47083,Topsail Beach,0.4444444444444444,0.0626,0.36139,18,17,"NIGHT_CLEAR,NIGHT_CLEAR,CLEAR","Offshore,Cross-shore,Offshore",3
5842041f4e65fad6a7708a4c,2024_11_23,34.69270354752445,-76.82854854446575,Iron Steamer,0.6666666666666666,0.35083333333333333,0.6535133333333333,19,18,"NIGHT_CLEAR,NIGHT_CLEAR,CLEAR","Cross-shore,Cross-shore,Offshore",3
5842041f4e65fad6a7708a4f,2024_11_23,30.85132684893727,-81.42283496231143,Cumberland Island,1,0,0.18333333333333332,21.666666666666668,21.666666666666668,"NIGHT_CLEAR,NIGHT_CLEAR,CLEAR","Offshore,Offshore,Offshore",3
5842041f4e65fad6a7708a50,2024_11_23,34.686741128540874,-76.47516712138378,Cape Lookout National Seashore,0.3333333333333333,0.14333333333333334,0.45333333333333337,19.333333333333332,19.333333333333332,"NIGHT_CLEAR,NIGHT_CLEAR,CLEAR","Offshore,Offshore,Offshore",3
5842041f4e65fad6a7708a51,2024_11_23,31.10585419260024,-81.40422767604812,Jekyll Island,0,0,0.08666666666666667,21,21,"NIGHT_CLEAR,NIGHT_CLEAR,CLEAR","Offshore,Offshore,Offshore",3
5842041f4e65fad6a7708a52,2024_11_23,31.16212806376699,-81.32512426500224,Harbor Marker Buoys,0,0,0.13,21.333333333333332,21.333333333333332,"NIGHT_CLEAR,NIGHT_CLEAR,CLEAR","Offshore,Offshore,Offshore",3
5842041f4e65fad6a7708a53,2024_11_23,31.20076299997009,-81.32629,Sea Island,0,0,0.11666666666666667,21.666666666666668,21.666666666666668,"NIGHT_CLEAR,NIGHT_CLEAR,CLEAR","Offshore,Offshore,Offshore",3
5842041f4e65fad6a7708a54,2024_11_23,31.13553222995767,-81.38457634790909,St. Simons Island,0,0,0.11666666666666667,20.666666666666668,20.666666666666668,"NIGHT_CLEAR,NIGHT_CLEAR,CLEAR","Offshore,Offshore,Offshore",3
5842041f4e65fad6a7708a55,2024_11_23,31.33550077186516,-81.28383377408417,Wolf Island,0,0,0.10333333333333333,21,21,"NIGHT_CLEAR,NIGHT_CLEAR,CLEAR","Offshore,Offshore,Offshore",3
5842041f4e65fad6a7708a56,2024_11_23,31.2704493877174,-81.27324039152315,Little St. Simons Island,0,0,0.12,21.666666666666668,21.666666666666668,"NIGHT_CLEAR,NIGHT_CLEAR,CLEAR","Offshore,Offshore,Offshore",3
5842041f4e65fad6a7708a57,2024_11_23,31.39261761368919,-81.26190520231917,Sapelo Island,0,0,0.11,21,21,"NIGHT_CLEAR,NIGHT_CLEAR,CLEAR","Offshore,Offshore,Offshore",3
5842041f4e65fad6a7708a58,2024_11_23,34.42458783809001,-77.54492,Surf City Pier,0.6666666666666666,0.06593333333333334,0.36777666666666664,18,17,"NIGHT_CLEAR,NIGHT_CLEAR,CLEAR","Offshore,Offshore,Offshore",3
5842041f4e65fad6a7708a59,2024_11_23,31.4231993614213,-81.24725340591522,Cabretta Island,0,0,0.12666666666666668,21,21,"NIGHT_CLEAR,NIGHT_CLEAR,CLEAR","Offshore,Offshore,Offshore",3
5842041f4e65fad6a7708a5a,2024_11_23,31.46684389030369,-81.2100056410468,Blackbeard Island,0,0,0.11,20.666666666666668,20.666666666666668,"NIGHT_CLEAR,NIGHT_CLEAR,CLEAR","Offshore,Offshore,Offshore",3
5842041f4e65fad6a7708a5b,2024_11_23,31.85953587631629,-80.99031310336719,Wassaw Island/South End,0,0,0.08,20,20,"NIGHT_CLEAR,NIGHT_CLEAR,CLEAR","Offshore,Offshore,Offshore",3
5842041f4e65fad6a7708a5c,2024_11_23,31.62535662342983,-81.13328352167974,St. Catherines Island,0,0,0.12666666666666668,20.666666666666668,20.666666666666668,"NIGHT_CLEAR,NIGHT_CLEAR,CLEAR","Offshore,Offshore,Offshore",3
5842041f4e65fad6a7708a5d,2024_11_23,31.76502169596568,-81.07655443806622,Ossabaw Island,0,0,0.08666666666666667,20.666666666666668,20.666666666666668,"NIGHT_CLEAR,NIGHT_CLEAR,CLEAR","Offshore,Offshore,Offshore",3
5842041f4e65fad6a7708a5e,2024_11_23,31.90593619092352,-80.93589231700857,Wassaw Island/North End,0,0,0.11,20.666666666666668,20.666666666666668,"NIGHT_CLEAR,NIGHT_CLEAR,CLEAR","Offshore,Offshore,Offshore",3
5842041f4e65fad6a7708a5f,2024_11_23,31.96738675414547,-80.86977980706155,Little Tybee Island,0,0,0.12,20.666666666666668,20.666666666666668,"NIGHT_CLEAR,NIGHT_CLEAR,CLEAR","Offshore,Offshore,Offshore",3
5842041f4e65fad6a7708a60,2024_11_23,31.9812255780179,-80.84773973467009,South Tybee Sandbars,0,0,0.12,20.666666666666668,20.666666666666668,"NIGHT_CLEAR,NIGHT_CLEAR,CLEAR","Offshore,Offshore,Offshore",3
5842041f4e65fad6a7708a61,2024_11_23,32.01226,-80.83983,Sugar Shack,0,0,0.09,20.666666666666668,20.666666666666668,"NIGHT_CLEAR,NIGHT_CLEAR,CLEAR","Offshore,Offshore,Cross-shore",3
5842041f4e65fad6a7708a62,2024_11_23,31.98722842396969,-80.84773,18th St. Jetty,0,0,0.12107666666666667,20.666666666666668,20.666666666666668,"NIGHT_CLEAR,NIGHT_CLEAR,CLEAR","Offshore,Offshore,Offshore",3
5842041f4e65fad6a7708a64,2024_11_23,34.013473721006676,-77.8991,"Alabama Ave., Kure Beach",0.6666666666666666,0,0.18,19,19,"NIGHT_CLEAR,NIGHT_CLEAR,CLEAR","Offshore,Offshore,Offshore",3
5842041f4e65fad6a7708a65,2024_11_23,34.20859853336924,-77.79293,"C Street, Wrightsville Beach",0,0,0.19493,17,16,"NIGHT_CLEAR,NIGHT_CLEAR,CLEAR","Cross-shore,Cross-shore,Onshore",3
5842041f4e65fad6a7708a66,2024_11_23,32.831,-79.71,Dewees Island,0,0,0.08666666666666667,20,20,"NIGHT_CLEAR,NIGHT_CLEAR,CLEAR","Offshore,Offshore,Offshore",3
5842041f4e65fad6a7708a67,2024_11_23,33.82924423172106,-78.62813,Cherry Grove Pier,0.11111111111111109,0.18626666666666666,0.4225,19.333333333333332,19.333333333333332,"NIGHT_CLEAR,NIGHT_CLEAR,CLEAR","Offshore,Cross-shore,Offshore",3
5842041f4e65fad6a7708a69,2024_11_23,34.27197439666496,-77.74050223196774,Figure Eight and Shell Islands,0,0,0.19493,17,16,"NIGHT_CLEAR,NIGHT_CLEAR,CLEAR","Offshore,Offshore,Offshore",3
5842041f4e65fad6a7708a6b,2024_11_23,33.49041958261793,-79.07666070599386,North End,0,0,0.12000000000000001,19.333333333333332,19.333333333333332,"NIGHT_CLEAR,NIGHT_CLEAR,CLEAR","Offshore,Offshore,Offshore",3
5842041f4e65fad6a7708a6c,2024_11_23,33.39537062495087,-79.13835037835189,The South End,0,0,0.09666666666666666,19.333333333333332,19.333333333333332,"NIGHT_CLEAR,NIGHT_CLEAR,CLEAR","Offshore,Offshore,Offshore",3
5842041f4e65fad6a7708a6d,2024_11_23,33.29001727666697,-79.17190003352977,North Island,0.6666666666666666,0,0.15666666666666668,19.333333333333332,19.333333333333332,"NIGHT_CLEAR,NIGHT_CLEAR,CLEAR","Offshore,Offshore,Offshore",3
5842041f4e65fad6a7708a6e,2024_11_23,32.90929771158952,-79.57810400297359,Bull Island,0.3333333333333333,0,0.20666666666666667,20,20,"NIGHT_CLEAR,NIGHT_CLEAR,CLEAR","Offshore,Offshore,Offshore",3
5842041f4e65fad6a7708a6f,2024_11_23,31.99153112815895,-80.84543050470074,Tybee Island Pier,0,0,0.08333333333333333,20.666666666666668,20.666666666666668,"NIGHT_CLEAR,NIGHT_CLEAR,CLEAR","Offshore,Offshore,Offshore",3
5842041f4e65fad6a7708a70,2024_11_23,33.03478144356316,-79.35021028265125,Cape Romain,0,0,0.13999999999999999,20,20,"NIGHT_CLEAR,NIGHT_CLEAR,CLEAR","Offshore,Offshore,Offshore",3
5842041f4e65fad6a7708a71,2024_11_23,33.43231073271028,-79.11789,The Pier,0,0,0.10339,19.333333333333332,19.333333333333332,"NIGHT_CLEAR,NIGHT_CLEAR,CLEAR","Offshore,Offshore,Offshore",3
5842041f4e65fad6a7708a72,2024_11_23,33.45423621397969,-79.10497798178424,South Litchfield,0,0,0.09,19.333333333333332,19.333333333333332,"NIGHT_CLEAR,NIGHT_CLEAR,CLEAR","Offshore,Offshore,Offshore",3
5842041f4e65fad6a7708a73,2024_11_23,34.19316590251396,-77.8045,Crystal Pier,0,0.17356333333333332,0.39985,17,16,"NIGHT_CLEAR,NIGHT_CLEAR,CLEAR","Cross-shore,Cross-shore,Cross-shore",3
5842041f4e65fad6a7708a74,2024_11_23,33.68628680045124,-78.88346,Myrtle Beach,0,0,0.12333333333333334,19.333333333333332,19.333333333333332,"NIGHT_CLEAR,NIGHT_CLEAR,CLEAR","Offshore,Offshore,Offshore",3
5842041f4e65fad6a7708a75,2024_11_23,32.66166297145973,-79.91951806398808,10th Street,0,0,0.13999999999999999,20,20,"NIGHT_CLEAR,NIGHT_CLEAR,CLEAR","Offshore,Offshore,Offshore",3
5842041f4e65fad6a7708a76,2024_11_23,33.16729555197199,-79.19829236867845,South Island,0,0,0.19333333333333333,20,20,"NIGHT_CLEAR,NIGHT_CLEAR,CLEAR","Offshore,Offshore,Offshore",3
5842041f4e65fad6a7708a77,2024_11_23,32.595,-80.088,Kiawah Island/Seabrook Island,0,0,0.11,20,20,"NIGHT_CLEAR,NIGHT_CLEAR,CLEAR","Offshore,Offshore,Offshore",3
5842041f4e65fad6a7708a78,2024_11_23,32.51356930575787,-80.28223,Edisto Beach,0,0,0.15035333333333334,20,20,"NIGHT_CLEAR,NIGHT_CLEAR,CLEAR","Offshore,Offshore,Offshore",3
5842041f4e65fad6a7708a79,2024_11_23,32.366270751262,-80.43911,Hunting Island,0,0,0.12383,20,20,"NIGHT_CLEAR,NIGHT_CLEAR,CLEAR","Offshore,Offshore,Offshore",3
5842041f4e65fad6a7708a7a,2024_11_23,32.65337734408365,-79.93983,Folly Beach Pier,0.11111111111111109,0,0.19991,20,20,"NIGHT_CLEAR,NIGHT_CLEAR,CLEAR","Offshore,Offshore,Offshore",3
5842041f4e65fad6a7708a7b,2024_11_23,33.41209545530049,-79.13026341393126,South Jetty,0,0,0.09666666666666666,19.333333333333332,19.333333333333332,"NIGHT_CLEAR,NIGHT_CLEAR,CLEAR","Offshore,Offshore,Offshore",3
5842041f4e65fad6a7708a7c,2024_11_23,32.31115640606869,-80.48564,Fripp Island,0,0,0.18635,20,20,"NIGHT_CLEAR,NIGHT_CLEAR,CLEAR","Offshore,Offshore,Offshore",3
5842041f4e65fad6a7708a7d,2024_11_23,32.14365226036034,-80.74402,Hilton Head Island,0,0,0.016666666666666666,20.666666666666668,20.666666666666668,"NIGHT_CLEAR,NIGHT_CLEAR,CLEAR","Offshore,Offshore,Offshore",3
5842041f4e65fad6a7708a7e,2024_11_23,29.70405364733744,-81.22426,Matanzas Inlet,1.3333333333333333,0.23407,0.5304066666666667,23,22,"NIGHT_CLEAR,NIGHT_CLEAR,CLEAR","Offshore,Offshore,Offshore",3
5842041f4e65fad6a7708a81,2024_11_23,29.76878537149042,-81.25109,Crescent Beach,1,0.02,0.32666666666666666,23.666666666666668,23.666666666666668,"NIGHT_CLEAR,NIGHT_CLEAR,CLEAR","Offshore,Offshore,Offshore",3
5842041f4e65fad6a7708a82,2024_11_23,32.80251718689188,-79.73221919500764,Wild Dunes,0.6666666666666666,0,0.14666666666666667,20,20,"NIGHT_CLEAR,NIGHT_CLEAR,CLEAR","Offshore,Offshore,Offshore",3
5842041f4e65fad6a7708a84,2024_11_23,32.75733539419244,-79.83258856064796,Bert's Bar,0,0,0.12333333333333334,20,20,"NIGHT_CLEAR,NIGHT_CLEAR,CLEAR","Offshore,Offshore,Offshore",3
5842041f4e65fad6a7708a85,2024_11_23,32.66829212943039,-79.90735,Washout,0,0,0.17055666666666666,19,17,"NIGHT_CLEAR,NIGHT_CLEAR,CLEAR","Offshore,Offshore,Offshore",3
5842041f4e65fad6a7708a86,2024_11_23,32.78452968219067,-79.7854,The Pier/Windjammer,0,0,0.13333333333333333,20,20,"NIGHT_CLEAR,NIGHT_CLEAR,CLEAR","Offshore,Offshore,Offshore",3
5842041f4e65fad6a7708a87,2024_11_23,29.86618162637438,-81.2662150259608,Anastasia Park (The Entrance),1,0.05,0.35333333333333333,23.666666666666668,23.666666666666668,"NIGHT_CLEAR,NIGHT_CLEAR,CLEAR","Offshore,Offshore,Offshore",3
5842041f4e65fad6a7708a89,2024_11_23,29.89149785916623,-81.2723223244215,Blowholes,0.7777777777777778,0.04778,0.35379,26,24,"NIGHT_CLEAR,NIGHT_CLEAR,CLEAR","Offshore,Offshore,Offshore",3
5842041f4e65fad6a7708a8a,2024_11_23,30.16227112983666,-81.35502907491218,Crossroads,0.7777777777777778,0,0.2604533333333333,26,24,"NIGHT_CLEAR,NIGHT_CLEAR,CLEAR","Offshore,Offshore,Offshore",3
5842041f4e65fad6a7708a8b,2024_11_23,30.19308537587637,-81.36314247820911,Sawgrass,0.7777777777777778,0,0.24267666666666668,26,24,"NIGHT_CLEAR,NIGHT_CLEAR,CLEAR","Offshore,Offshore,Offshore",3
5842041f4e65fad6a7708a8c,2024_11_23,30.34696027700899,-81.39451,18th Street,1,0.09736666666666667,0.3814166666666667,22.666666666666668,22.666666666666668,"NIGHT_CLEAR,NIGHT_CLEAR,CLEAR","Offshore,Offshore,Offshore",3
5842041f4e65fad6a7708a8d,2024_11_23,30.381793,-81.39686,Mayport Poles,1,0,0.22666666666666666,22.666666666666668,22.666666666666668,"NIGHT_CLEAR,NIGHT_CLEAR,CLEAR","Offshore,Offshore,Offshore",3
5842041f4e65fad6a7708a8e,2024_11_23,30.390516,-81.395591,Blue Roofs,1,0,0.19,22.666666666666668,22.666666666666668,"NIGHT_CLEAR,NIGHT_CLEAR,CLEAR","Offshore,Offshore,Offshore",3
5842041f4e65fad6a7708a8f,2024_11_23,30.40517712722211,-81.40074116169004,Huguenot Park (North Jetty),1,0,0.16333333333333333,22.666666666666668,22.666666666666668,"NIGHT_CLEAR,NIGHT_CLEAR,CLEAR","Offshore,Offshore,Offshore",3
5842041f4e65fad6a7708a90,2024_11_23,30.47788918872762,-81.41055821335078,Talbot Island,0.7777777777777778,0.20375,0.40751666666666664,23,22,"NIGHT_CLEAR,NIGHT_CLEAR,CLEAR","Offshore,Offshore,Offshore",3
5842041f4e65fad6a7708a91,2024_11_23,30.66753984549761,-81.42983,Main Beach,0.3333333333333333,0,0.15333333333333332,22.666666666666668,22.666666666666668,"NIGHT_CLEAR,NIGHT_CLEAR,CLEAR","Offshore,Offshore,Offshore",3
5842041f4e65fad6a7708a92,2024_11_23,30.69983581209126,-81.42483,Ft. Clinch State Park,1,0,0.17,22.666666666666668,22.666666666666668,"NIGHT_CLEAR,NIGHT_CLEAR,CLEAR","Offshore,Offshore,Offshore",3
5842041f4e65fad6a7708a93,2024_11_23,30.62059700777582,-81.437252942757425,Amelia Pier,0,0,0.16666666666666666,22.666666666666668,22.666666666666668,"NIGHT_CLEAR,NIGHT_CLEAR,CLEAR","Offshore,Offshore,Offshore",3
5842041f4e65fad6a7708a95,2024_11_23,28.95125170929067,-80.83837,Bethune Beach,1.6666666666666667,0.2733333333333333,0.5766666666666667,24.666666666666668,24.666666666666668,"NIGHT_CLEAR,NIGHT_CLEAR,CLEAR","Offshore,Offshore,Offshore",3
5842041f4e65fad6a7708a96,2024_11_23,29.03874288905362,-80.8933424949646,Flagler Ave.,1.1111111111111112,0.31916666666666665,0.6559233333333333,26,24,"NIGHT_CLEAR,NIGHT_CLEAR,CLEAR","Offshore,Offshore,Offshore",3
5842041f4e65fad6a7708a98,2024_11_23,30.332297686992757,-81.39319,Atlantic Beach,1,0,0.25076333333333334,22.666666666666668,22.666666666666668,"NIGHT_CLEAR,NIGHT_CLEAR,CLEAR","Offshore,Offshore,Offshore",3
5842041f4e65fad6a7708a99,2024_11_23,29.87530059952514,-81.26757958498874,Middles,0.7777777777777778,0.05111333333333333,0.3549,26,24,"NIGHT_CLEAR,NIGHT_CLEAR,CLEAR","Offshore,Offshore,Offshore",3
5842041f4e65fad6a7708a9a,2024_11_23,29.146475528378218,-80.96347,Sunglow Pier,1.3333333333333333,0.20666666666666667,0.51,23.666666666666668,23.666666666666668,"NIGHT_CLEAR,NIGHT_CLEAR,CLEAR","Offshore,Offshore,Offshore",3
5842041f4e65fad6a7708a9b,2024_11_23,30.02251238001095,-81.32183077344881,Gate Station,0.7777777777777778,0.03,0.3307333333333333,26,24,"NIGHT_CLEAR,NIGHT_CLEAR,CLEAR","Offshore,Offshore,Offshore",3
5842041f4e65fad6a7708a9c,2024_11_23,29.33976495417899,-81.0606,Bicentennial Park,1.3333333333333333,0.19,0.49333333333333335,23.666666666666668,23.666666666666668,"NIGHT_CLEAR,NIGHT_CLEAR,CLEAR","Offshore,Offshore,Offshore",3
5842041f4e65fad6a7708a9d,2024_11_23,29.08257353385602,-80.92137,Ponce Inlet,0.7777777777777778,0.3875,0.69462,24,23,"NIGHT_CLEAR,NIGHT_CLEAR,CLEAR","Offshore,Offshore,Offshore",3
5842041f4e65fad6a7708a9f,2024_11_23,27.862962005874696,-80.44668,Sebastian Inlet,0.888888888888889,0.4619533333333333,0.7237833333333333,24,23,"NIGHT_CLEAR,NIGHT_CLEAR,CLEAR","Offshore,Cross-shore,Cross-shore",3
5842041f4e65fad6a7708aa0,2024_11_23,30.292626880836885,-81.38579,Jacksonville Beach Pier,0.888888888888889,0,0.2546233333333333,23,22,"NIGHT_CLEAR,NIGHT_CLEAR,CLEAR","Cross-shore,Cross-shore,Cross-shore",3
5842041f4e65fad6a7708aa2,2024_11_23,29.21860397328164,-81.0019,Daytona Beach,1.3333333333333333,0.2,0.5033333333333333,23.666666666666668,23.666666666666668,"NIGHT_CLEAR,NIGHT_CLEAR,CLEAR","Offshore,Offshore,Offshore",3
5842041f4e65fad6a7708aa3,2024_11_23,27.47531255634912,-80.28914,Ft. Pierce Inlet,1,0.3630566666666667,0.6931466666666667,24,23,"NIGHT_CLEAR,NIGHT_CLEAR,CLEAR","Offshore,Cross-shore,Onshore",3
5842041f4e65fad6a7708aa4,2024_11_23,29.29239875585548,-81.0386,Ormond Beach,1.3333333333333333,0.08666666666666667,0.39666666666666667,23.666666666666668,23.666666666666668,"NIGHT_CLEAR,NIGHT_CLEAR,CLEAR","Offshore,Offshore,Offshore",3
5842041f4e65fad6a7708aa5,2024_11_23,29.91629441498523,-81.28801,Vilano,1.3333333333333333,0.08333333333333333,0.39,23.666666666666668,23.666666666666668,"NIGHT_CLEAR,NIGHT_CLEAR,CLEAR","Offshore,Offshore,Offshore",3
5842041f4e65fad6a7708aa6,2024_11_23,27.876230736320828,-80.4551,Spanish House,1.1111111111111112,0.31861333333333336,0.6246233333333334,24,23,"NIGHT_CLEAR,NIGHT_CLEAR,CLEAR","Offshore,Cross-shore,Cross-shore",3
5842041f4e65fad6a7708aa7,2024_11_23,28.64397251741012,-80.62329,Playalinda,1.6666666666666667,0.36333333333333334,0.67,25.333333333333332,25.333333333333332,"NIGHT_CLEAR,NIGHT_CLEAR,CLEAR","Offshore,Offshore,Offshore",3
5842041f4e65fad6a7708aa8,2024_11_23,28.406142,-80.58886,Jetty Park,1,0,0.20333333333333334,25.333333333333332,25.333333333333332,"NIGHT_CLEAR,NIGHT_CLEAR,CLEAR","Offshore,Offshore,Offshore",3
5842041f4e65fad6a7708aa9,2024_11_23,28.49083243010974,-80.58001715986319,Kennedy Space Center,1.6666666666666667,0.31666666666666665,0.6166666666666667,25.333333333333332,25.333333333333332,"NIGHT_CLEAR,NIGHT_CLEAR,CLEAR","Offshore,Offshore,Cross-shore",3
5842041f4e65fad6a7708aab,2024_11_23,28.336757013024314,-80.60568,Lori Wilson Park,0.7777777777777778,0,0.2175,23,23,"NIGHT_CLEAR,NIGHT_CLEAR,CLEAR","Offshore,Offshore,Offshore",3
5842041f4e65fad6a7708aad,2024_11_23,27.76388821683801,-80.3962958234027,Wabasso,1,0.26666666666666666,0.5700000000000001,25.333333333333332,25.333333333333332,"NIGHT_CLEAR,NIGHT_CLEAR,CLEAR","Offshore,Offshore,Cross-shore",3
5842041f4e65fad6a7708aae,2024_11_23,27.521583322459,-80.30987620353699,P.V. Martin's,1.3333333333333333,0.3405566666666667,0.67259,24,23,"NIGHT_CLEAR,NIGHT_CLEAR,CLEAR","Offshore,Offshore,Cross-shore",3
5842041f4e65fad6a7708aaf,2024_11_23,27.644996047720046,-80.35242676734924,Riomar,1.3333333333333333,0.33166666666666667,0.6637,24,23,"NIGHT_CLEAR,NIGHT_CLEAR,CLEAR","Offshore,Offshore,Cross-shore",3
5842041f4e65fad6a7708ab1,2024_11_23,27.670121806659253,-80.36026954650879,Vero Pier,1.7777777777777777,0.3372233333333333,0.67259,24,23,"NIGHT_CLEAR,NIGHT_CLEAR,CLEAR","Offshore,Offshore,Cross-shore",3
5842041f4e65fad6a7708ab2,2024_11_23,28.047705032021486,-80.54680109024048,Spessard Holland,1.222222222222222,0.30982333333333334,0.5815866666666667,24,23,"NIGHT_CLEAR,NIGHT_CLEAR,CLEAR","Offshore,Offshore,Cross-shore",3
5842041f4e65fad6a7708ab7,2024_11_23,28.135426226217064,-80.57895541191101,The Radisson,0.7777777777777778,0.10315666666666666,0.40388666666666667,23,23,"NIGHT_CLEAR,NIGHT_CLEAR,CLEAR","Offshore,Offshore,Offshore",3
5842041f4e65fad6a7708ab8,2024_11_23,28.26664623907351,-80.60448,Picnic Tables,1,0.013333333333333332,0.31666666666666665,25.333333333333332,25.333333333333332,"NIGHT_CLEAR,NIGHT_CLEAR,CLEAR","Offshore,Offshore,Offshore",3
5842041f4e65fad6a7708ab9,2024_11_23,28.200840983180232,-80.59493,Perkins,1,0.04,0.34,25.333333333333332,25.333333333333332,"NIGHT_CLEAR,NIGHT_CLEAR,CLEAR","Offshore,Offshore,Offshore",3
5842041f4e65fad6a7708aba,2024_11_23,28.185652556759443,-80.59154,RC's,0.6666666666666666,0.08666666666666667,0.38666666666666666,25.333333333333332,25.333333333333332,"NIGHT_CLEAR,NIGHT_CLEAR,CLEAR","Offshore,Offshore,Offshore",3
5842041f4e65fad6a7708abc,2024_11_23,28.252541991968208,-80.60269,2nd Light,1,0.006666666666666667,0.30333333333333334,25.333333333333332,25.333333333333332,"NIGHT_CLEAR,NIGHT_CLEAR,CLEAR","Offshore,Offshore,Offshore",3
5842041f4e65fad6a7708abd,2024_11_23,27.901611308716447,-80.4697,Bonsteel Park,1.1111111111111112,0.3630566666666667,0.67018,24,23,"NIGHT_CLEAR,NIGHT_CLEAR,CLEAR","Offshore,Cross-shore,Cross-shore",3
5842041f4e65fad6a7708abe,2024_11_23,28.2423394657007,-80.60104,Hangar's Beach,1,0.10666666666666666,0.41333333333333333,25.333333333333332,25.333333333333332,"NIGHT_CLEAR,NIGHT_CLEAR,CLEAR","Offshore,Offshore,Offshore",3
5842041f4e65fad6a7708abf,2024_11_23,27.34018197146798,-80.23278,Walton Rocks,0.7777777777777778,0.35222333333333333,0.6593433333333333,24,24,"NIGHT_CLEAR,NIGHT_CLEAR,CLEAR","Offshore,Offshore,Cross-shore",3
5842041f4e65fad6a7708ac0,2024_11_23,25.80407401902198,-80.1222227290161,30th Street,1,0.01,0.25333333333333335,27,27,"NIGHT_CLEAR,NIGHT_CLEAR,CLEAR","Offshore,Offshore,Offshore",3
5842041f4e65fad6a7708ac1,2024_11_23,25.76570280215999,-80.12983,South Beach,1.3888888888888888,0.20042333333333334,0.5102233333333334,27,25,"NIGHT_CLEAR,NIGHT_CLEAR,CLEAR","Offshore,Offshore,Cross-shore",3
5842041f4e65fad6a7708ac2,2024_11_23,26.058022412197,-80.10873562327671,Dania Pier,1,0.006666666666666667,0.25666666666666665,27,27,"NIGHT_CLEAR,NIGHT_CLEAR,CLEAR","Offshore,Offshore,Cross-shore",3
5842041f4e65fad6a7708ac3,2024_11_23,26.04825428257198,-80.11153150137932,Franklin Street,1.6666666666666667,0.16,0.4666666666666666,27,27,"NIGHT_CLEAR,NIGHT_CLEAR,CLEAR","Offshore,Offshore,Offshore",3
5842041f4e65fad6a7708ac4,2024_11_23,26.09086461141498,-80.10728410144065,John Lloyd State Park,1.3333333333333333,0.16,0.45999999999999996,27,27,"NIGHT_CLEAR,NIGHT_CLEAR,CLEAR","Offshore,Offshore,Offshore",3
5842041f4e65fad6a7708ac5,2024_11_23,26.0971397396683,-80.10298876028907,Spoils,0.3333333333333333,0.016666666666666666,0.28,27,27,"NIGHT_CLEAR,NIGHT_CLEAR,CLEAR","Offshore,Offshore,Offshore",3
5842041f4e65fad6a7708ac6,2024_11_23,26.18920557475824,-80.09224,Commercial Pier,1,0.013333333333333334,0.2966666666666667,27,27,"NIGHT_CLEAR,NIGHT_CLEAR,CLEAR","Offshore,Offshore,Offshore",3
5842041f4e65fad6a7708ac7,2024_11_23,28.289851576629342,-80.6063,16th St. South,0.7777777777777778,0,0.28573333333333334,25,24,"NIGHT_CLEAR,NIGHT_CLEAR,CLEAR","Offshore,Offshore,Offshore",3
5842041f4e65fad6a7708ac8,2024_11_23,26.23467460139735,-80.0874,Pompano Pier,1,0.12003333333333334,0.41522666666666663,26.333333333333332,26.333333333333332,"NIGHT_CLEAR,NIGHT_CLEAR,CLEAR","Offshore,Offshore,Offshore",3
5842041f4e65fad6a7708acb,2024_11_23,26.44179551370651,-80.05928855229453,Atlantic Dunes Park,2.4,0.5070466666666666,0.91186,25,24,"NIGHT_CLEAR,NIGHT_CLEAR,CLEAR","Offshore,Offshore,Offshore",3
5842041f4e65fad6a7708acd,2024_11_23,26.62215707439298,-80.03599398392342,Hilton Hotel Backyard,1.6666666666666667,0.33152333333333334,0.66174333333333335,25,24,"NIGHT_CLEAR,NIGHT_CLEAR,CLEAR","Offshore,Offshore,Cross-shore",3
5842041f4e65fad6a7708ace,2024_11_23,26.96418190555367,-80.07769168113562,Coral Cove Park,1.3333333333333333,0.3495766666666667,0.6850766666666667,24,23,"NIGHT_CLEAR,NIGHT_CLEAR,CLEAR","Offshore,Offshore,Cross-shore",3
5842041f4e65fad6a7708acf,2024_11_23,26.7029496416037,-80.03184,Palm Beach,2.3333333333333335,0.32569,0.66119000000000006,25,24,"NIGHT_CLEAR,NIGHT_CLEAR,CLEAR","Offshore,Offshore,Cross-shore",3
5842041f4e65fad6a7708ad0,2024_11_23,26.97679878167375,-80.08141631388132,Blowing Rocks,2,0.4387433333333333,0.7775766666666667,24,23,"NIGHT_CLEAR,NIGHT_CLEAR,CLEAR","Offshore,Offshore,Cross-shore",3
5842041f4e65fad6a7708ad2,2024_11_23,26.45661880078336,-80.057,Delray Beach,2.4,0.5035566666666667,0.9127333333333334,25,24,"NIGHT_CLEAR,NIGHT_CLEAR,CLEAR","Offshore,Offshore,Offshore",3
5842041f4e65fad6a7708ad3,2024_11_23,27.205685534312778,-80.16826629638672,Fletcher's,1.3333333333333333,0.37069,0.7028566666666667,24,23,"NIGHT_CLEAR,NIGHT_CLEAR,CLEAR","Offshore,Offshore,Onshore",3
5842041f4e65fad6a7708ad5,2024_11_23,26.5848450388814,-80.03649735753257,Lantana Public Beach,2,0.52569,0.8592433333333334,25,24,"NIGHT_CLEAR,NIGHT_CLEAR,CLEAR","Offshore,Offshore,Cross-shore",3
5842041f4e65fad6a7708ad6,2024_11_23,25.77468432731322,-80.12884045797499,5th Street,1,0.09333333333333334,0.39666666666666667,27,27,"NIGHT_CLEAR,NIGHT_CLEAR,CLEAR","Offshore,Offshore,Cross-shore",3
5842041f4e65fad6a7708ad7,2024_11_23,25.795157990715975,-80.12527585029602,21st Street,1,0,0.22999999999999998,27,27,"NIGHT_CLEAR,NIGHT_CLEAR,CLEAR","Offshore,Offshore,Cross-shore",3
5842041f4e65fad6a7708ad8,2024_11_23,25.897806453088073,-80.1211827993393,Haulover Inlet (South Jetty),1,0.060000000000000005,0.36,27,27,"NIGHT_CLEAR,NIGHT_CLEAR,CLEAR","Offshore,Offshore,Offshore",3
5842041f4e65fad6a7708ad9,2024_11_23,25.90147392328634,-80.12110769748688,Haulover Inlet (North Jetty),1.3333333333333333,0.19,0.49666666666666665,27,27,"NIGHT_CLEAR,NIGHT_CLEAR,CLEAR","Offshore,Offshore,Offshore",3
5842041f4e65fad6a7708ada,2024_11_23,25.87049374242476,-80.11828560342356,85th Street,1,0.06666666666666667,0.37333333333333335,27,27,"NIGHT_CLEAR,NIGHT_CLEAR,CLEAR","Offshore,Offshore,Cross-shore",3
5842041f4e65fad6a7708adb,2024_11_23,26.25486382031396,-80.0805,Hillsboro Inlet,1.3333333333333333,0.06277333333333333,0.38361666666666666,26.333333333333332,26.333333333333332,"NIGHT_CLEAR,NIGHT_CLEAR,CLEAR","Offshore,Offshore,Offshore",3
5842041f4e65fad6a7708add,2024_11_23,26.29705672965111,-80.07612,Hillsboro Beach,1.3333333333333333,0.01,0.2866666666666667,26.333333333333332,26.333333333333332,"NIGHT_CLEAR,NIGHT_CLEAR,CLEAR","Offshore,Offshore,Offshore",3
5842041f4e65fad6a7708ade,2024_11_23,26.36569956413266,-80.06717936869391,Red Reef Park,1.3333333333333333,0.16253333333333334,0.5013666666666667,26,24,"NIGHT_CLEAR,NIGHT_CLEAR,CLEAR","Offshore,Offshore,Offshore",3
5842041f4e65fad6a7708adf,2024_11_23,26.54593873498907,-80.04104359585143,Boynton Beach Inlet (Northside),1.3333333333333333,0.20402333333333333,0.5175766666666667,25,24,"NIGHT_CLEAR,NIGHT_CLEAR,CLEAR","Offshore,Offshore,Cross-shore",3
5842041f4e65fad6a7708ae0,2024_11_23,26.92746505629809,-80.06721138954163,Corners,2.6666666666666665,0.70286,1.00566,25,24,"NIGHT_CLEAR,NIGHT_CLEAR,CLEAR","Offshore,Offshore,Cross-shore",3
5842041f4e65fad6a7708ae1,2024_11_23,26.76983179886943,-80.03413481937037,The Cove,2.3333333333333335,0.36763333333333337,0.7031333333333334,25,24,"NIGHT_CLEAR,NIGHT_CLEAR,CLEAR","Offshore,Offshore,Cross-shore",3
5842041f4e65fad6a7708ae3,2024_11_23,26.39224485175123,-80.0650461233983,Japanese Rock,1.3888888888888888,0.14836666666666667,0.4738666666666667,26,24,"NIGHT_CLEAR,NIGHT_CLEAR,CLEAR","Offshore,Offshore,Offshore",3
5842041f4e65fad6a7708ae4,2024_11_23,29.94810928551321,-85.42545434612366,Mexico Beach,0.6666666666666666,0.05333333333333334,0.2833333333333333,22.666666666666668,22.666666666666668,"NIGHT_CLEAR,NIGHT_CLEAR,CLEAR","Cross-shore,Cross-shore,Onshore",3
5842041f4e65fad6a7708ae5,2024_11_23,30.11752500931267,-85.7306,Shell Island,0.6666666666666666,0.03333333333333333,0.25333333333333335,23,23,"NIGHT_CLEAR,NIGHT_CLEAR,CLEAR","Offshore,Offshore,Offshore",3
5842041f4e65fad6a7708ae7,2024_11_23,29.94901514702268,-85.43042978529013,D.J.'s,0.6666666666666666,0.05333333333333334,0.28,22.666666666666668,22.666666666666668,"NIGHT_CLEAR,NIGHT_CLEAR,CLEAR","Offshore,Offshore,Onshore",3
5842041f4e65fad6a7708ae8,2024_11_23,30.12396111446713,-85.73637,St. Andrew's Park,0.6666666666666666,0.24705666666666665,0.48207666666666665,21,19,"NIGHT_CLEAR,NIGHT_CLEAR,CLEAR","Cross-shore,Offshore,Offshore",3
5842041f4e65fad6a7708ae9,2024_11_23,30.16781531760227,-85.79604918824084,Spinnaker,0.6666666666666666,0.24955666666666665,0.45624333333333333,21,19,"NIGHT_CLEAR,NIGHT_CLEAR,CLEAR","Offshore,Offshore,Offshore",3
5842041f4e65fad6a7708aea,2024_11_23,30.18877050526983,-85.83243530466363,Wood Pier,0.6666666666666666,0.021500000000000002,0.21130000000000002,21,19,"NIGHT_CLEAR,NIGHT_CLEAR,CLEAR","Cross-shore,Offshore,Offshore",3
5842041f4e65fad6a7708aeb,2024_11_23,30.2676205895555,-85.9938578144113,Inlet Beach Pier,0.6666666666666666,0.02705666666666667,0.21019000000000002,21,19,"NIGHT_CLEAR,NIGHT_CLEAR,CLEAR","Offshore,Offshore,Offshore",3
5842041f4e65fad6a7708aec,2024_11_23,30.31815542759119,-86.1383771867044,Bud and Alley's,0.6666666666666666,0.036776666666666666,0.20352333333333333,21,19,"NIGHT_CLEAR,NIGHT_CLEAR,CLEAR","Offshore,Offshore,Offshore",3
5842041f4e65fad6a7708aed,2024_11_23,30.32686082481946,-86.16650590275447,Grayton Beach,0.6666666666666666,0.042333333333333334,0.19157666666666667,21,19,"NIGHT_CLEAR,NIGHT_CLEAR,CLEAR","Offshore,Offshore,Offshore",3
5842041f4e65fad6a7708aee,2024_11_23,30.33661488976303,-86.20094,Blue Mountain Beach,0.6666666666666666,0.04094333333333333,0.19741,21,19,"NIGHT_CLEAR,NIGHT_CLEAR,CLEAR","Offshore,Offshore,Offshore",3
5842041f4e65fad6a7708aef,2024_11_23,30.37677202831587,-86.38513,Pompano Joe's,0.6666666666666666,0.042333333333333334,0.17769,21,19,"NIGHT_CLEAR,NIGHT_CLEAR,CLEAR","Offshore,Offshore,Offshore",3
5842041f4e65fad6a7708af0,2024_11_23,30.37429731725911,-86.36687,Seascape,0.6666666666666666,0.042333333333333334,0.19269,21,19,"NIGHT_CLEAR,NIGHT_CLEAR,CLEAR","Offshore,Offshore,Offshore",3
5842041f4e65fad6a7708af1,2024_11_23,30.382815988547186,-86.45839,The Back Porch,0.6666666666666666,0.042333333333333334,0.17907666666666666,21,19,"NIGHT_CLEAR,NIGHT_CLEAR,CLEAR","Offshore,Offshore,Offshore",3
5842041f4e65fad6a7708af2,2024_11_23,30.21207176798612,-85.87989730830542,Panama City Pier,0.6666666666666666,0.02427666666666667,0.20935666666666666,21,19,"NIGHT_CLEAR,NIGHT_CLEAR,CLEAR","Cross-shore,Offshore,Offshore",3
5842041f4e65fad6a7708af3,2024_11_23,30.37521499110326,-86.3717,Whale's Tail,0.6666666666666666,0.042333333333333334,0.18185666666666667,21,19,"NIGHT_CLEAR,NIGHT_CLEAR,CLEAR","Cross-shore,Offshore,Offshore",3
5842041f4e65fad6a7708af4,2024_11_23,30.38120596658251,-86.43046,Old Crystal Pier,0.6666666666666666,0.042333333333333334,0.18185666666666667,21,19,"NIGHT_CLEAR,NIGHT_CLEAR,CLEAR","Offshore,Offshore,Offshore",3
5842041f4e65fad6a7708af5,2024_11_23,30.38090573159031,-86.50655,Jetty East,0.6666666666666666,0.042333333333333334,0.18463333333333332,21,19,"NIGHT_CLEAR,NIGHT_CLEAR,CLEAR","Offshore,Offshore,Offshore",3
5842041f4e65fad6a7708af6,2024_11_23,30.37584509640838,-86.50563,HMO's,0.3333333333333333,0.042333333333333334,0.18852333333333332,21,19,"NIGHT_CLEAR,NIGHT_CLEAR,CLEAR","Offshore,Offshore,Offshore",3
5842041f4e65fad6a7708af7,2024_11_23,30.38124006131522,-86.50052,Two By Fours,0,0.042333333333333334,0.18185666666666667,21,19,"NIGHT_CLEAR,NIGHT_CLEAR,CLEAR","Offshore,Offshore,Offshore",3
5842041f4e65fad6a7708af8,2024_11_23,30.38250751017554,-86.45776,The Pumphouse,0.6666666666666666,0.042333333333333334,0.18519,21,19,"NIGHT_CLEAR,NIGHT_CLEAR,CLEAR","Offshore,Offshore,Offshore",3
5842041f4e65fad6a7708af9,2024_11_23,30.38655981578935,-86.52475,NCO Club,0.6666666666666666,0.042333333333333334,0.18185666666666667,21,19,"NIGHT_CLEAR,NIGHT_CLEAR,CLEAR","Offshore,Offshore,Offshore",3
5842041f4e65fad6a7708afa,2024_11_23,30.39024516541047,-86.59341,Okaloosa Pier,0.6666666666666666,0.042333333333333334,0.18435666666666667,21,19,"NIGHT_CLEAR,NIGHT_CLEAR,CLEAR","Offshore,Offshore,Offshore",3
5842041f4e65fad6a7708afb,2024_11_23,30.39281125722673,-86.59766,Dead Man's,0.6666666666666666,0.042333333333333334,0.17574333333333333,21,19,"NIGHT_CLEAR,NIGHT_CLEAR,CLEAR","Offshore,Offshore,Offshore",3
5842041f4e65fad6a7708afc,2024_11_23,30.32703176167034,-87.14196,Pensacola Pier,0,0,0.05333333333333334,23,23,"NIGHT_CLEAR,NIGHT_CLEAR,CLEAR","Offshore,Offshore,Offshore",3
5842041f4e65fad6a7708afd,2024_11_23,30.37920054094992,-86.85583,Navarre Beach,0,0,0.0699,21,19,"NIGHT_CLEAR,NIGHT_CLEAR,CLEAR","Offshore,Offshore,Cross-shore",3
5842041f4e65fad6a7708afe,2024_11_23,30.39491626029151,-86.61248,Blue Horizon Motel,0.6666666666666666,0.042333333333333334,0.17435666666666666,21,19,"NIGHT_CLEAR,NIGHT_CLEAR,CLEAR","Offshore,Offshore,Offshore",3
5842041f4e65fad6a7708aff,2024_11_23,30.29345899260828,-87.43547,First Parking Lot,0,0,0.04666666666666667,22.666666666666668,22.666666666666668,"NIGHT_CLEAR,NIGHT_CLEAR,CLEAR","Offshore,Offshore,Offshore",3
5842041f4e65fad6a7708b00,2024_11_23,30.29767401311303,-87.41362,Johnsons Beach,0,0,0.04666666666666667,22.666666666666668,22.666666666666668,"NIGHT_CLEAR,NIGHT_CLEAR,CLEAR","Offshore,Offshore,Offshore",3
5842041f4e65fad6a7708b01,2024_11_23,30.29513397370759,-87.42642,Sandy Key,0,0,0.04666666666666667,22.666666666666668,22.666666666666668,"NIGHT_CLEAR,NIGHT_CLEAR,CLEAR","Offshore,Offshore,Offshore",3
5842041f4e65fad6a7708b03,2024_11_23,30.377504907388026,-86.86444,Navarre Pier,0,0,0.08879000000000001,21,19,"NIGHT_CLEAR,NIGHT_CLEAR,CLEAR","Offshore,Offshore,Cross-shore",3
5842041f4e65fad6a7708b04,2024_11_23,30.31482647791307,-87.26164,Pickens Point Dunes,0,0,0.06,22.666666666666668,22.666666666666668,"NIGHT_CLEAR,NIGHT_CLEAR,CLEAR","Offshore,Offshore,Offshore",3
5842041f4e65fad6a7708b05,2024_11_23,30.32632110836516,-87.16019503253068,Slabs,0,0,0.05666666666666667,23,23,"NIGHT_CLEAR,NIGHT_CLEAR,CLEAR","Offshore,Offshore,Offshore",3
5842041f4e65fad6a7708b06,2024_11_23,30.32739721382043,-87.30406515493348,Pickens Point,0,0,0.06,22.666666666666668,22.666666666666668,"NIGHT_CLEAR,NIGHT_CLEAR,CLEAR","Cross-shore,Offshore,Offshore",3
5842041f4e65fad6a7708b07,2024_11_23,30.27406893266753,-87.54367,Bungalows,0,0,0.04666666666666667,22.666666666666668,22.666666666666668,"NIGHT_CLEAR,NIGHT_CLEAR,CLEAR","Offshore,Offshore,Offshore",3
5842041f4e65fad6a7708b08,2024_11_23,27.99627311846992,-82.82942,880,1.6666666666666667,0.6350833333333333,0.9728133333333333,23.666666666666668,23.666666666666668,"NIGHT_CLEAR,NIGHT_CLEAR,CLEAR","Onshore,Offshore,Cross-shore",3
5842041f4e65fad6a7708b09,2024_11_23,27.97779860371595,-82.83246509090527,Pier 60,1.3333333333333333,0.64,0.9466666666666667,23.666666666666668,23.666666666666668,"NIGHT_CLEAR,NIGHT_CLEAR,CLEAR","Onshore,Offshore,Cross-shore",3
5842041f4e65fad6a7708b0a,2024_11_23,27.96296387618043,-82.8332635965418,Sand Key,1.3333333333333333,0.64,0.9466666666666667,23.666666666666668,23.666666666666668,"NIGHT_CLEAR,NIGHT_CLEAR,CLEAR","Onshore,Offshore,Cross-shore",3
5842041f4e65fad6a7708b0b,2024_11_23,27.92492619212885,-82.8449122845279,Belleair,1.3333333333333333,0.65,0.9533333333333334,23.666666666666668,23.666666666666668,"NIGHT_CLEAR,NIGHT_CLEAR,CLEAR","Onshore,Offshore,Cross-shore",3
5842041f4e65fad6a7708b0c,2024_11_23,27.882,-82.854,Indian Rocks Beach,1.3333333333333333,0.7133333333333334,1.0166666666666666,23.666666666666668,23.666666666666668,"NIGHT_CLEAR,NIGHT_CLEAR,CLEAR","Onshore,Offshore,Cross-shore",3
5842041f4e65fad6a7708b0d,2024_11_23,27.83106104966094,-82.83550218771384,Redington Breakwater,2.3333333333333335,0.7,1,23.666666666666668,23.666666666666668,"NIGHT_CLEAR,NIGHT_CLEAR,CLEAR","Onshore,Offshore,Cross-shore",3
5842041f4e65fad6a7708b0e,2024_11_23,27.74369029906206,-82.76053473435867,Middle Jetty,1.6666666666666667,0.6466666666666667,0.95,23.666666666666668,23.666666666666668,"NIGHT_CLEAR,NIGHT_CLEAR,CLEAR","Onshore,Offshore,Cross-shore",3
5842041f4e65fad6a7708b0f,2024_11_23,27.82174178852146,-82.83148664631841,Redington Pier,2,0.67,0.98,23.666666666666668,23.666666666666668,"NIGHT_CLEAR,NIGHT_CLEAR,CLEAR","Cross-shore,Offshore,Cross-shore",3
5842041f4e65fad6a7708b10,2024_11_23,27.31496308261514,-82.5830466912004,Lido Beach,1.6666666666666667,0.5633333333333334,0.8633333333333334,24.333333333333332,24.333333333333332,"NIGHT_CLEAR,NIGHT_CLEAR,CLEAR","Onshore,Offshore,Cross-shore",3
5842041f4e65fad6a7708b11,2024_11_23,27.31122010159892,-82.57833234007632,Coolidge,1.6666666666666667,0.5566666666666666,0.8633333333333334,24.333333333333332,24.333333333333332,"NIGHT_CLEAR,NIGHT_CLEAR,CLEAR","Onshore,Offshore,Cross-shore",3
5842041f4e65fad6a7708b12,2024_11_23,27.26471672017615,-82.55464835167173,Siesta Key,1.3333333333333333,0.2941333333333333,0.6016,20,19,"NIGHT_CLEAR,NIGHT_CLEAR,CLEAR","Cross-shore,Offshore,Cross-shore",3
5842041f4e65fad6a7708b13,2024_11_23,27.24638693488133,-82.53809115716797,Stickney Point,1.6666666666666667,0.5066666666666666,0.8133333333333334,24.333333333333332,24.333333333333332,"NIGHT_CLEAR,NIGHT_CLEAR,CLEAR","Cross-shore,Offshore,Offshore",3
5842041f4e65fad6a7708b14,2024_11_23,27.21907878229092,-82.51813937562073,Turtles,1.3333333333333333,0.49,0.7933333333333333,24.333333333333332,24.333333333333332,"NIGHT_CLEAR,NIGHT_CLEAR,CLEAR","Cross-shore,Offshore,Offshore",3
5842041f4e65fad6a7708b15,2024_11_23,27.11375765852028,-82.47039,Venice Jetties North,1.5555555555555556,0.621,0.9247333333333333,20,19,"NIGHT_CLEAR,NIGHT_CLEAR,CLEAR","Onshore,Offshore,Cross-shore",3
5842041f4e65fad6a7708b16,2024_11_23,27.111485758834025,-82.46757,Venice Jetties South,1.3333333333333333,0.3466666666666667,0.6533333333333333,20,19,"NIGHT_CLEAR,NIGHT_CLEAR,CLEAR","Cross-shore,Offshore,Cross-shore",3
5842041f4e65fad6a7708b17,2024_11_23,27.07249378831575,-82.4530285256104,Venice Pier,1.6666666666666667,0.5333333333333333,0.84,20,19,"NIGHT_CLEAR,NIGHT_CLEAR,CLEAR","Cross-shore,Offshore,Offshore",3
5842041f4e65fad6a7708b19,2024_11_23,27.49680446426314,-82.7140145455959,Holmes Beach Pier,1,0.52,0.8266666666666667,24.333333333333332,24.333333333333332,"NIGHT_CLEAR,NIGHT_CLEAR,CLEAR","Onshore,Offshore,Cross-shore",3
5842041f4e65fad6a7708b1a,2024_11_23,27.7390348493064,-82.75763,Sunset Beach,1.6666666666666667,0.64,0.9466666666666667,23.666666666666668,23.666666666666668,"NIGHT_CLEAR,NIGHT_CLEAR,CLEAR","Cross-shore,Offshore,Offshore",3
5842041f4e65fad6a7708b1b,2024_11_23,26.80347307599041,-82.28564775623539,Gasparilla Point,1.3333333333333333,0.4666666666666667,0.7766666666666666,23.666666666666668,23.666666666666668,"NIGHT_CLEAR,NIGHT_MOSTLY_CLEAR,CLEAR","Cross-shore,Offshore,Offshore",3
5842041f4e65fad6a7708b1c,2024_11_23,27.45365831548911,-82.69609,Coquina Jetties,1,0.49,0.7966666666666667,24.333333333333332,24.333333333333332,"NIGHT_CLEAR,NIGHT_CLEAR,CLEAR","Cross-shore,Offshore,Cross-shore",3
5842041f4e65fad6a7708b1d,2024_11_23,27.46077315206043,-82.69924,Twin Piers,1.5555555555555556,0.6040433333333334,0.90969,20,19,"NIGHT_CLEAR,NIGHT_CLEAR,CLEAR","Onshore,Offshore,Cross-shore",3
5842041f4e65fad6a7708b1e,2024_11_23,26.91007316019612,-82.35352,Englewood,1.3333333333333333,0.29333333333333333,0.6033333333333333,23.666666666666668,23.666666666666668,"NIGHT_CLEAR,NIGHT_CLEAR,CLEAR","Cross-shore,Offshore,Offshore",3
5842041f4e65fad6a7708b1f,2024_11_23,26.88221101560038,-82.3359828282636,Knight's Point,1.3333333333333333,0.44666666666666666,0.7533333333333333,24,24,"NIGHT_CLEAR,NIGHT_CLEAR,CLEAR","Cross-shore,Offshore,Offshore",3
5842041f4e65fad6a7708b20,2024_11_23,26.51219285784982,-82.1928203289264,Tween Waters,1,0.5066666666666667,0.8166666666666667,23.666666666666668,23.666666666666668,"NIGHT_CLEAR,NIGHT_MOSTLY_CLEAR,CLEAR","Onshore,Offshore,Cross-shore",3
5842041f4e65fad6a7708b21,2024_11_23,26.55130241615096,-82.20222762415648,Redfish Pass,1,0.5166666666666666,0.82,23.666666666666668,23.666666666666668,"NIGHT_CLEAR,NIGHT_CLEAR,CLEAR","Onshore,Cross-shore,Cross-shore",3
5842041f4e65fad6a7708b22,2024_11_23,26.71713432926596,-82.26287777058234,Boca Grande,1,0.44666666666666666,0.7566666666666667,23.666666666666668,23.666666666666668,"NIGHT_CLEAR,NIGHT_CLEAR,CLEAR","Onshore,Cross-shore,Cross-shore",3
5842041f4e65fad6a7708b23,2024_11_23,26.47856785808584,-82.181288592828,Blind Pass,1.3333333333333333,0.52,0.83,23.666666666666668,23.666666666666668,"NIGHT_CLEAR,NIGHT_CLEAR,CLEAR","Cross-shore,Offshore,Offshore",3
5842041f4e65fad6a7708b24,2024_11_23,26.25358330618783,-81.82429246081317,The Wall,1.3333333333333333,0.26,0.5666666666666667,24.666666666666668,24.666666666666668,"NIGHT_CLEAR,NIGHT_CLEAR,CLEAR","Onshore,Offshore,Cross-shore",3
5842041f4e65fad6a7708b25,2024_11_23,26.17456407516186,-81.81588575623482,Doctor's Pass,1,0.25666666666666665,0.56,24.666666666666668,24.666666666666668,"NIGHT_CLEAR,NIGHT_CLEAR,CLEAR","Onshore,Offshore,Cross-shore",3
5842041f4e65fad6a7708b26,2024_11_23,27.427134501874612,-82.68110766159296,Whitney Beach,1.3333333333333333,0.6233333333333333,0.9299999999999999,24.333333333333332,24.333333333333332,"NIGHT_CLEAR,NIGHT_CLEAR,CLEAR","Cross-shore,Offshore,Cross-shore",3
