_id,date,lat,lon,name,daily_mean_swell_rating,daily_mean_wave_height_min,daily_mean_wave_height_max,daily_mean_water_temperature_max,daily_mean_water_temperature_min,weather_per_timestamp,wind_per_timestamp,n_samples_per_day
5842041f4e65fad6a77087f9,2024_03_08,37.741668,-122.51038,South Ocean Beach,2.6666666666666665,1.1799333333333335,1.7542666666666666,14,14,"CLEAR,CLEAR,CLEAR,CLEAR,CLEAR,CLEAR","Offshore,Offshore,Onshore,Onshore,Onshore,Onshore",6
5842041f4e65fad6a7708801,2024_03_08,37.49142,-122.50428,Maverick's,NA,1.0916666666666668,1.3016666666666667,13,13,"CLEAR,CLEAR,CLEAR,CLEAR,CLEAR,CLEAR","Offshore,Offshore,Offshore,Offshore,Offshore,Offshore",6
5842041f4e65fad6a7708804,2024_03_08,44.997,-124.018,Roads End,3.5,1.2283333333333333,1.5166666666666666,10,10,"CLEAR,CLEAR,CLEAR,CLEAR,CLEAR,CLEAR","Offshore,Offshore,Offshore,Cross-shore,Cross-shore,Onshore",6
5842041f4e65fad6a7708805,2024_03_08,36.95188851423011,-122.02522,Steamer Lane,2.5833333333333335,0.7864777777777778,1.113911111111111,14,14,"CLEAR,CLEAR,CLEAR,CLEAR,CLEAR,CLEAR","Offshore,Offshore,Onshore,Onshore,Cross-shore,Offshore",6
5842041f4e65fad6a7708806,2024_03_08,36.95918781542251,-122.02489,Cowells,1,0,0.17876111111111112,14,14,"CLEAR,CLEAR,CLEAR,CLEAR,CLEAR,CLEAR","Cross-shore,Cross-shore,Onshore,Cross-shore,Offshore,Offshore",6
5842041f4e65fad6a7708807,2024_03_08,36.95468082526536,-121.97234,Pleasure Point,3,0.5421888888888888,0.9616777777777779,14,14,"CLEAR,CLEAR,CLEAR,CLEAR,CLEAR,CLEAR","Onshore,Onshore,Onshore,Onshore,Cross-shore,Cross-shore",6
5842041f4e65fad6a770880a,2024_03_08,35.37815414378748,-120.86589,Morro Bay,3,0.84245,1.2606888888888887,14,14,"CLEAR,CLEAR,CLEAR,CLEAR,CLEAR,CLEAR","Offshore,Cross-shore,Onshore,Offshore,Cross-shore,Onshore",6
5842041f4e65fad6a770880b,2024_03_08,36.95782765000708,-121.9672887511276,Jack's,1,-0.019444444444444438,0.19237222222222222,14,14,"CLEAR,CLEAR,CLEAR,CLEAR,CLEAR,CLEAR","Onshore,Onshore,Onshore,Onshore,Cross-shore,Cross-shore",6
5842041f4e65fad6a770880d,2024_03_08,34.29982939936656,-119.3489016603669,Gold Coast Beachbreaks,2,0.11833333333333333,0.42333333333333334,14,14,"CLEAR,CLEAR,CLEAR,CLEAR,CLEAR,CLEAR","Cross-shore,Onshore,Onshore,Onshore,Cross-shore,Onshore",6
5842041f4e65fad6a7708811,2024_03_08,34.245076,-119.26799,Ventura Harbor,2.695,0.8055736111111111,1.23197625,14,14,"CLEAR,CLEAR,CLEAR,CLEAR,CLEAR,CLEAR","Onshore,Offshore,Cross-shore,Cross-shore,Cross-shore,Cross-shore",6
5842041f4e65fad6a7708813,2024_03_08,34.051,-118.964,County Line,2.138333333333333,0.5037166666666667,0.8107833333333333,15,15,"CLEAR,CLEAR,CLEAR,MOSTLY_CLEAR,BRIEF_SHOWERS,MOSTLY_CLEAR","Offshore,Cross-shore,Cross-shore,Cross-shore,Onshore,Onshore",6
5842041f4e65fad6a7708814,2024_03_08,34.37256264378892,-119.47797,Rincon,2,0.16333333333333333,0.4683333333333333,14,14,"CLEAR,CLEAR,CLEAR,CLEAR,CLEAR,CLEAR","Offshore,Onshore,Onshore,Cross-shore,Cross-shore,Cross-shore",6
5842041f4e65fad6a7708817,2024_03_08,34.03096101876324,-118.68109,Malibu Third Point,2,0.14166666666666666,0.445,15,15,"CLEAR,CLEAR,CLEAR,CLEAR,CLEAR,CLEAR","Cross-shore,Onshore,Onshore,Onshore,Onshore,Cross-shore",6
5842041f4e65fad6a7708819,2024_03_08,33.984079047970035,-118.47381591796875,Venice Beach,2.0833333333333335,0.5169111111111111,0.9379277777777777,14,14,"MIST,CLEAR,CLEAR,MIST,BRIEF_SHOWERS_POSSIBLE,CLEAR","Offshore,Offshore,Onshore,Onshore,Onshore,Onshore",6
5842041f4e65fad6a770881e,2024_03_08,34.037508438646746,-118.58339846155594,Topanga Beach,2,0.23734444444444444,0.5477444444444445,15,15,"CLEAR,CLEAR,CLEAR,CLEAR,MOSTLY_CLEAR,CLEAR","Cross-shore,Onshore,Onshore,Onshore,Onshore,Onshore",6
5842041f4e65fad6a7708820,2024_03_08,33.73954373690184,-118.11414,Seal Beach Jetty,1.8333333333333333,0.13833333333333334,0.44333333333333336,15,15,"MOSTLY_CLOUDY,MOSTLY_CLOUDY,MOSTLY_CLOUDY,MOSTLY_CLOUDY,CLEAR,CLEAR","Offshore,Offshore,Onshore,Onshore,Onshore,Onshore",6
5842041f4e65fad6a7708822,2024_03_08,33.72309983348433,-118.08078,Anderson Street,1.6666666666666667,0.195,0.49666666666666665,15,15,"MOSTLY_CLOUDY,MOSTLY_CLOUDY,MOSTLY_CLOUDY,MOSTLY_CLOUDY,MOSTLY_CLOUDY,CLEAR","Offshore,Offshore,Onshore,Onshore,Onshore,Onshore",6
5842041f4e65fad6a7708827,2024_03_08,33.65574085629463,-118.00397,Huntington Beach Pier Northside,2.555,0.6872666666666667,1.0652166666666667,15,15,"MOSTLY_CLOUDY,MOSTLY_CLOUDY,MOSTLY_CLOUDY,MOSTLY_CLOUDY,MOSTLY_CLOUDY,CLEAR","Offshore,Offshore,Cross-shore,Onshore,Onshore,Onshore",6
5842041f4e65fad6a7708828,2024_03_08,34.272041739333,-119.2997646331,C St.,2,0.27615,0.5852166666666666,14,14,"CLEAR,CLEAR,CLEAR,CLEAR,CLEAR,CLEAR","Offshore,Offshore,Cross-shore,Onshore,Cross-shore,Onshore",6
5842041f4e65fad6a770882a,2024_03_08,33.61555743705257,-117.93676,Newport Lower Jetties,1.6666666666666667,0.4801,0.78265,15,15,"MOSTLY_CLOUDY,MOSTLY_CLOUDY,MOSTLY_CLOUDY,CLEAR,CLEAR,CLEAR","Offshore,Offshore,Onshore,Onshore,Onshore,Onshore",6
5842041f4e65fad6a770882b,2024_03_08,33.5930302087,-117.88199,The Wedge,2,0.23790333333333333,0.6740433333333333,15,15,"MOSTLY_CLOUDY,MOSTLY_CLOUDY,MOSTLY_CLOUDY,MOSTLY_CLOUDY,MOSTLY_CLOUDY,CLEAR","Offshore,Offshore,Onshore,Onshore,Onshore,Onshore",6
5842041f4e65fad6a770882c,2024_03_08,33.60577342582,-117.9315376281,Newport Beach Pier,2.6666666666666665,0.48760000000000003,0.8899833333333333,15,15,"MOSTLY_CLOUDY,MOSTLY_CLOUDY,MOSTLY_CLOUDY,MOSTLY_CLOUDY,MOSTLY_CLOUDY,CLEAR","Onshore,Onshore,Onshore,Onshore,Onshore,Onshore",6
5842041f4e65fad6a770882e,2024_03_08,33.475793399792984,-117.72291,Salt Creek,2.8333333333333335,0.8493166666666667,1.2487833333333334,15,15,"MOSTLY_CLOUDY,MOSTLY_CLOUDY,MOSTLY_CLOUDY,MOSTLY_CLOUDY,MOSTLY_CLOUDY,CLEAR","Cross-shore,Cross-shore,Onshore,Onshore,Onshore,Onshore",6
5842041f4e65fad6a7708830,2024_03_08,33.41800974113613,-117.61952,T-Street,1.805,0.5571833333333334,0.9833,16,16,"MOSTLY_CLOUDY,MOSTLY_CLOUDY,MOSTLY_CLOUDY,MOSTLY_CLOUDY,MOSTLY_CLEAR,MIST","Onshore,Onshore,Onshore,Onshore,Onshore,Onshore",6
5842041f4e65fad6a7708832,2024_03_08,33.202391008646,-117.39475,Oceanside Harbor,1.9716666666666667,0.7131000000000001,1.1363,16,16,"MOSTLY_CLOUDY,MOSTLY_CLOUDY,CLEAR,CLEAR,MIST,CLEAR","Offshore,Offshore,Onshore,Onshore,Onshore,Onshore",6
5842041f4e65fad6a7708835,2024_03_08,33.19477795952803,-117.38667,Oceanside Pier,2,0.7555666666666666,1.0581166666666666,16,16,"MOSTLY_CLOUDY,MOSTLY_CLEAR,CLEAR,CLEAR,CLEAR,CLEAR","Offshore,Offshore,Offshore,Onshore,Onshore,Onshore",6
5842041f4e65fad6a7708837,2024_03_08,33.14948100706,-117.35029,Tamarack,2.5,0.38666666666666666,0.69,16,16,"CLEAR,CLEAR,CLEAR,CLEAR,CLEAR,CLEAR","Offshore,Offshore,Cross-shore,Cross-shore,Onshore,Cross-shore",6
5842041f4e65fad6a7708839,2024_03_08,32.865777159358856,-117.25614295356122,Scripps,2.361666666666667,0.9577777777777778,1.2344444444444445,16,16,"CLEAR,CLEAR,CLEAR,CLEAR,MIST,MIST","Offshore,Cross-shore,Onshore,Onshore,Onshore,Onshore",6
5842041f4e65fad6a770883a,2024_03_08,32.813094,-117.27381,Birdrock,3,0.9,1.1366666666666667,16,16,"CLEAR,CLEAR,CLEAR,CLEAR,CLEAR,CLEAR","Offshore,Offshore,Onshore,Onshore,Cross-shore,Cross-shore",6
5842041f4e65fad6a770883b,2024_03_08,32.877231,-117.25303,Blacks,2.388333333333333,1.0408333333333335,1.5070833333333333,16,16,"CLEAR,CLEAR,CLEAR,CLEAR,MIST,MIST","Onshore,Onshore,Onshore,Onshore,Onshore,Onshore",6
5842041f4e65fad6a770883c,2024_03_08,32.82978974229765,-117.28161740727381,Windansea,2,0.9841666666666666,1.2108333333333334,15,15,"CLEAR,CLEAR,CLEAR,CLEAR,CLEAR,CLEAR","Offshore,Offshore,Cross-shore,Onshore,Onshore,Onshore",6
5842041f4e65fad6a770883d,2024_03_08,32.838278,-117.28396,Horseshoe,3.3333333333333335,1.075,1.2983333333333333,16,16,"CLEAR,CLEAR,CLEAR,CLEAR,CLEAR,CLEAR","Offshore,Offshore,Onshore,Onshore,Onshore,Onshore",6
5842041f4e65fad6a770883f,2024_03_08,32.75034717673179,-117.25337,Ocean Beach,1.9166666666666667,1.0458333333333334,1.3166666666666667,15,15,"CLEAR,CLEAR,CLEAR,CLEAR,CLEAR,CLEAR","Offshore,Offshore,Onshore,Onshore,Onshore,Onshore",6
5842041f4e65fad6a7708840,2024_03_08,32.73693,-117.25718,Sunset Cliffs,2.5,1.08,1.3283333333333334,16,16,"CLEAR,CLEAR,CLEAR,CLEAR,CLEAR,CLEAR","Offshore,Offshore,Onshore,Onshore,Onshore,Onshore",6
5842041f4e65fad6a7708841,2024_03_08,32.796582258728826,-117.25779,Pacific Beach,2.388333333333333,1.0097222222222222,1.2858333333333332,15,15,"CLEAR,CLEAR,CLEAR,CLEAR,CLEAR,CLEAR","Offshore,Offshore,Onshore,Onshore,Cross-shore,Cross-shore",6
5842041f4e65fad6a7708842,2024_03_08,32.776636,-117.25514,Mission Beach,1.9716666666666667,1.0080555555555555,1.2891666666666666,15,15,"CLEAR,CLEAR,CLEAR,CLEAR,CLEAR,CLEAR","Offshore,Offshore,Onshore,Onshore,Onshore,Onshore",6
5842041f4e65fad6a7708844,2024_03_08,32.577195519016,-117.13475,Imperial Beach Pier,2.6666666666666665,1.2516666666666667,1.5,15,15,"CLEAR,CLEAR,CLEAR,CLEAR,CLEAR,CLEAR","Offshore,Offshore,Cross-shore,Onshore,Onshore,Onshore",6
5842041f4e65fad6a770884a,2024_03_08,42.88678181061,-70.80843,Seabrook,2.041875,1.0891096875000001,1.5340555729166667,4,3,"NIGHT_CLEAR,NIGHT_CLEAR,NIGHT_CLEAR,NIGHT_CLEAR,NIGHT_CLEAR,CLEAR,CLEAR,CLEAR,CLEAR,CLEAR,CLEAR,CLEAR,CLEAR,CLEAR,CLEAR,CLEAR","Cross-shore,Cross-shore,Cross-shore,Cross-shore,Cross-shore,Cross-shore,Cross-shore,Cross-shore,Cross-shore,Cross-shore,Cross-shore,Onshore,Onshore,Onshore,Onshore,Onshore",16
5842041f4e65fad6a770884e,2024_03_08,41.434181432898335,-71.45312118111178,Narragansett,1.9,0.47573352272727276,0.7769356060606061,6,4,"NIGHT_CLEAR,NIGHT_CLEAR,NIGHT_CLEAR,NIGHT_CLEAR,NIGHT_CLEAR,CLEAR,CLEAR,CLEAR,CLEAR,CLEAR,CLEAR,CLEAR,CLEAR,CLEAR,CLEAR,CLEAR","Offshore,Offshore,Offshore,Offshore,Offshore,Offshore,Offshore,Offshore,Offshore,Offshore,Offshore,Offshore,Offshore,Offshore,Offshore,Offshore",16
5842041f4e65fad6a7708850,2024_03_08,40.582703230722,-73.65247,Lincoln Blvd,2.739375,0.6372166666666667,0.9765991666666667,7,6,"NIGHT_CLEAR,NIGHT_CLEAR,NIGHT_CLEAR,NIGHT_CLEAR,NIGHT_MIST,CLEAR,MIST,CLEAR,CLEAR,CLEAR,CLEAR,CLEAR,CLEAR,CLEAR,CLEAR,CLEAR","Offshore,Offshore,Offshore,Offshore,Offshore,Offshore,Offshore,Offshore,Offshore,Offshore,Offshore,Onshore,Onshore,Onshore,Onshore,Onshore",16
5842041f4e65fad6a7708852,2024_03_08,40.58342841721757,-73.81182,Rockaways,3.0875,0.83845,1.15119375,7,6,"NIGHT_CLEAR,NIGHT_CLEAR,NIGHT_CLEAR,NIGHT_CLEAR,NIGHT_CLEAR,CLEAR,MIST,CLEAR,CLEAR,CLEAR,CLEAR,CLEAR,CLEAR,CLEAR,CLEAR,CLEAR","Offshore,Offshore,Offshore,Offshore,Offshore,Offshore,Offshore,Offshore,Offshore,Offshore,Offshore,Offshore,Offshore,Cross-shore,Onshore,Onshore",16
5842041f4e65fad6a7708853,2024_03_08,40.330474,-73.9734,Monmouth Beach,1.979375,0.8482624999999999,1.1960166666666667,7,6,"NIGHT_CLEAR,NIGHT_CLEAR,NIGHT_CLEAR,NIGHT_CLEAR,NIGHT_CLEAR,CLEAR,CLEAR,CLEAR,CLEAR,CLEAR,CLEAR,CLEAR,CLEAR,CLEAR,CLEAR,CLEAR","Cross-shore,Cross-shore,Offshore,Offshore,Offshore,Cross-shore,Cross-shore,Cross-shore,Cross-shore,Cross-shore,Cross-shore,Cross-shore,Cross-shore,Cross-shore,Onshore,Onshore",16
5842041f4e65fad6a7708856,2024_03_08,40.113,-74.028,Manasquan Inlet,1.614375,0.9153458333333333,1.2596854166666667,7,6,"NIGHT_CLEAR,NIGHT_CLEAR,NIGHT_CLEAR,NIGHT_CLEAR,NIGHT_CLEAR,CLEAR,CLEAR,CLEAR,CLEAR,CLEAR,CLEAR,CLEAR,CLEAR,CLEAR,CLEAR,CLEAR","Cross-shore,Cross-shore,Cross-shore,Offshore,Cross-shore,Cross-shore,Cross-shore,Cross-shore,Cross-shore,Cross-shore,Cross-shore,Onshore,Cross-shore,Onshore,Onshore,Onshore",16
5842041f4e65fad6a7708857,2024_03_08,39.941519877445664,-74.06829,Casino Pier,1.45375,1.1026833333333335,1.4061666666666666,7,6,"NIGHT_CLEAR,NIGHT_CLEAR,NIGHT_CLEAR,NIGHT_CLEAR,NIGHT_CLEAR,CLEAR,CLEAR,CLEAR,CLEAR,CLEAR,CLEAR,CLEAR,CLEAR,CLEAR,CLEAR,CLEAR","Cross-shore,Cross-shore,Offshore,Offshore,Offshore,Offshore,Cross-shore,Cross-shore,Cross-shore,Cross-shore,Cross-shore,Cross-shore,Cross-shore,Cross-shore,Onshore,Onshore",16
5842041f4e65fad6a7708858,2024_03_08,39.28223089949212,-74.55766,North End OC,1.765625,0.825875,1.1547291666666668,7.5,6,"NIGHT_CLEAR,NIGHT_CLEAR,NIGHT_CLEAR,NIGHT_CLEAR,NIGHT_CLEAR,CLEAR,CLEAR,CLEAR,CLEAR,CLEAR,CLEAR,CLEAR,CLEAR,CLEAR,CLEAR,CLEAR","Offshore,Offshore,Offshore,Offshore,Offshore,Offshore,Cross-shore,Cross-shore,Cross-shore,Cross-shore,Cross-shore,Onshore,Cross-shore,Onshore,Onshore,Onshore",16
5842041f4e65fad6a770885b,2024_03_08,39.65080599934257,-74.17146,Ship Bottom,1.614375,0.9470208333333333,1.4229479166666668,7.5,6,"NIGHT_CLEAR,NIGHT_CLEAR,NIGHT_CLEAR,NIGHT_CLEAR,NIGHT_CLEAR,CLEAR,CLEAR,CLEAR,CLEAR,CLEAR,CLEAR,CLEAR,CLEAR,CLEAR,CLEAR,CLEAR","Offshore,Offshore,Offshore,Offshore,Offshore,Offshore,Offshore,Cross-shore,Cross-shore,Cross-shore,Cross-shore,Cross-shore,Cross-shore,Cross-shore,Cross-shore,Cross-shore",16
5842041f4e65fad6a7708863,2024_03_08,36.034151543144,-75.66791,Third Street,1.3125,0.8956791666666667,1.2300375000000001,10,8.5,"NIGHT_CLEAR,NIGHT_CLEAR,NIGHT_CLEAR,NIGHT_OVERCAST,NIGHT_OVERCAST,OVERCAST,OVERCAST,OVERCAST,OVERCAST,CLEAR,CLEAR,CLEAR,CLEAR,CLEAR,MOSTLY_CLOUDY,OVERCAST","Onshore,Onshore,Onshore,Onshore,Onshore,Onshore,Onshore,Onshore,Onshore,Onshore,Onshore,Onshore,Onshore,Onshore,Onshore,Onshore",16
5842041f4e65fad6a7708867,2024_03_08,35.605833221351425,-75.46303,S-Turns,0.675,1.0824383333333334,1.5719975,11,9,"NIGHT_MIST,NIGHT_CLEAR,NIGHT_CLEAR,NIGHT_MIST,NIGHT_MIST,MIST,MIST,DRIZZLE,DRIZZLE,MOSTLY_CLOUDY,MIST,MIST,MIST,MIST,MIST,OVERCAST","Cross-shore,Cross-shore,Cross-shore,Onshore,Onshore,Onshore,Cross-shore,Cross-shore,Onshore,Onshore,Onshore,Cross-shore,Cross-shore,Cross-shore,Onshore,Onshore",16
5842041f4e65fad6a770886d,2024_03_08,38.338461,-75.08117,Ocean City Boardwalk,1.239375,0.9834770833333333,1.3480020833333333,8,7,"NIGHT_CLEAR,NIGHT_CLEAR,NIGHT_CLEAR,NIGHT_CLEAR,NIGHT_CLEAR,CLEAR,CLEAR,CLEAR,CLEAR,CLEAR,CLEAR,CLEAR,MOSTLY_CLEAR,CLEAR,CLEAR,CLEAR","Onshore,Onshore,Onshore,Onshore,Onshore,Onshore,Onshore,Onshore,Onshore,Onshore,Onshore,Onshore,Onshore,Onshore,Onshore,Onshore",16
5842041f4e65fad6a770886f,2024_03_08,29.844757212379562,-81.26136,A St.,2.1875,0.453125,0.75875,17,17,"NIGHT_CLEAR,NIGHT_CLEAR,NIGHT_MIST,NIGHT_MIST,NIGHT_MIST,MIST,MIST,CLEAR,CLEAR,MIST,MIST,MIST,MIST,MIST,MIST,MIST","Cross-shore,Cross-shore,Cross-shore,Onshore,Onshore,Onshore,Onshore,Onshore,Onshore,Onshore,Onshore,Onshore,Onshore,Onshore,Onshore,Onshore",16
5842041f4e65fad6a7708871,2024_03_08,29.069417851135093,-80.90824,New Smyrna Beach,2.56,0.9050145833333333,1.2993770833333333,19,17,"NIGHT_MIST,NIGHT_MIST,NIGHT_CLOUDY,NIGHT_CLOUDY,NIGHT_MIST,MOSTLY_CLOUDY,BRIEF_SHOWERS,MIST,MIST,MIST,BRIEF_SHOWERS,SHOWERS,MIST,BRIEF_SHOWERS,MIST,MIST","Onshore,Onshore,Onshore,Onshore,Onshore,Onshore,Onshore,Onshore,Onshore,Onshore,Onshore,Onshore,Onshore,Onshore,Onshore,Onshore",16
5842041f4e65fad6a7708872,2024_03_08,28.367707417566,-80.60171,Cocoa Beach Pier,2,0.5846250000000001,0.93215625,21,20,"NIGHT_CLEAR,NIGHT_MIST,NIGHT_MIST,NIGHT_MIST,NIGHT_MIST,MOSTLY_CLOUDY,MOSTLY_CLOUDY,MOSTLY_CLOUDY,BRIEF_SHOWERS,CLEAR,CLEAR,CLEAR,CLEAR,CLEAR,CLEAR,MOSTLY_CLEAR","Onshore,Onshore,Onshore,Onshore,Onshore,Onshore,Onshore,Onshore,Onshore,Onshore,Onshore,Onshore,Onshore,Onshore,Onshore,Onshore",16
5842041f4e65fad6a7708873,2024_03_08,28.091782738658846,-80.56479,Indialantic,2.60375,0.7816854166666667,1.0857541666666668,21,20,"NIGHT_MIST,NIGHT_MIST,NIGHT_MIST,NIGHT_BRIEF_SHOWERS,NIGHT_MIST,CLEAR,MIST,MIST,MOSTLY_CLOUDY,CLEAR,CLEAR,MIST,MIST,MIST,MIST,MIST","Cross-shore,Cross-shore,Onshore,Onshore,Onshore,Onshore,Onshore,Onshore,Onshore,Onshore,Onshore,Onshore,Onshore,Onshore,Onshore,Onshore",16
5842041f4e65fad6a7708876,2024_03_08,27.25392904143517,-80.19455,Jensen Beach,1.76,0.5129125,0.8145249999999999,23,22,"NIGHT_MIST,NIGHT_MIST,NIGHT_MIST,NIGHT_MOSTLY_CLOUDY,NIGHT_MOSTLY_CLOUDY,MIST,MOSTLY_CLOUDY,MOSTLY_CLOUDY,CLEAR,MIST,MIST,MIST,MIST,BRIEF_SHOWERS,CLEAR,CLEAR","Offshore,Cross-shore,Onshore,Offshore,Onshore,Offshore,Cross-shore,Cross-shore,Cross-shore,Onshore,Onshore,Onshore,Onshore,Onshore,Onshore,Onshore",16
5842041f4e65fad6a7708879,2024_03_08,26.76346795333825,-80.0360655784607,Reef Road,0.33375,0.05975000000000001,0.26812916666666664,24,23,"NIGHT_MIST,NIGHT_MIST,NIGHT_MIST,NIGHT_FOG,NIGHT_MIST,MIST,MIST,MIST,MOSTLY_CLOUDY,CLEAR,CLEAR,CLEAR,CLEAR,BRIEF_SHOWERS_POSSIBLE,MIST,MOSTLY_CLEAR","Offshore,Offshore,Offshore,Offshore,Offshore,Offshore,Offshore,Offshore,Cross-shore,Onshore,Onshore,Onshore,Onshore,Onshore,Onshore,Onshore",16
5842041f4e65fad6a770887c,2024_03_08,26.336499228484,-80.06956100463,Boca Raton Inlet,0.926875,0.0334375,0.337475,25,23,"NIGHT_MIST,NIGHT_CLEAR,NIGHT_CLEAR,NIGHT_CLEAR,NIGHT_CLEAR,MIST,CLEAR,CLEAR,CLEAR,CLEAR,CLEAR,CLEAR,CLEAR,CLEAR,CLEAR,CLEAR","Cross-shore,Offshore,Cross-shore,Cross-shore,Offshore,Offshore,Offshore,Offshore,Cross-shore,Onshore,Onshore,Onshore,Onshore,Onshore,Onshore,Onshore",16
5842041f4e65fad6a770887d,2024_03_08,26.31719311695038,-80.07452525176168,Deerfield Beach Pier,0,-7.791666666666676e-4,0.15244583333333334,25,23,"NIGHT_CLEAR,NIGHT_CLEAR,NIGHT_BRIEF_SHOWERS_POSSIBLE,NIGHT_MIST,NIGHT_MIST,BRIEF_SHOWERS_POSSIBLE,BRIEF_SHOWERS_POSSIBLE,CLEAR,CLEAR,CLEAR,CLEAR,CLEAR,CLEAR,CLEAR,CLEAR,CLEAR","Cross-shore,Offshore,Offshore,Cross-shore,Offshore,Offshore,Offshore,Offshore,Onshore,Onshore,Onshore,Onshore,Onshore,Onshore,Onshore,Onshore",16
5842041f4e65fad6a7708881,2024_03_08,30.20276320866628,-85.85626528676136,"Spyglass Dr., Panama City",0.591875,0.011208333333333334,0.24280416666666668,19,18,"NIGHT_CLEAR,NIGHT_CLEAR,NIGHT_CLEAR,NIGHT_MIST,NIGHT_MIST,NIGHT_CLEAR,CLEAR,CLEAR,CLEAR,CLEAR,MOSTLY_CLOUDY,CLEAR,OVERCAST,MOSTLY_CLEAR,OVERCAST,OVERCAST","Cross-shore,Cross-shore,Cross-shore,Offshore,Cross-shore,Cross-shore,Offshore,Cross-shore,Cross-shore,Cross-shore,Cross-shore,Cross-shore,Cross-shore,Cross-shore,Cross-shore,Cross-shore",16
5842041f4e65fad6a7708884,2024_03_08,33.39000832738053,-117.59852,Cottons,1.75,0.5888500000000001,0.8976500000000001,16,16,"MOSTLY_CLOUDY,MOSTLY_CLOUDY,MOSTLY_CLOUDY,MOSTLY_CLOUDY,MOSTLY_CLEAR,CLEAR","Cross-shore,Cross-shore,Onshore,Onshore,Onshore,Onshore",6
5842041f4e65fad6a7708885,2024_03_08,33.359416282661,-117.54167901405711,Trails,2.1666666666666665,0.4033333333333333,0.7033333333333334,15,15,"MOSTLY_CLOUDY,MOSTLY_CLOUDY,MOSTLY_CLOUDY,MOSTLY_CLEAR,MOSTLY_CLEAR,CLEAR","Offshore,Offshore,Onshore,Onshore,Onshore,Onshore",6
5842041f4e65fad6a7708886,2024_03_08,33.38042605929805,-117.58332,Middles,2.195,0.44930000000000003,0.7518499999999999,16,16,"MOSTLY_CLOUDY,MOSTLY_CLOUDY,MOSTLY_CLOUDY,MOSTLY_CLOUDY,MOSTLY_CLEAR,CLEAR","Offshore,Offshore,Onshore,Onshore,Onshore,Onshore",6
5842041f4e65fad6a7708887,2024_03_08,33.38445596302903,-117.59445,Upper Trestles,1.75,0.6192666666666666,0.92015,16,16,"MOSTLY_CLOUDY,MOSTLY_CLOUDY,MOSTLY_CLOUDY,MOSTLY_CLOUDY,MOSTLY_CLEAR,CLEAR","Offshore,Offshore,Onshore,Onshore,Onshore,Cross-shore",6
5842041f4e65fad6a7708889,2024_03_08,28.944414,-95.28883,Surfside,2,0.7158116666666667,1.118455,18,18,"MIST,MIST,LIGHT_RAIN,MIST,CLEAR,CLEAR","Onshore,Onshore,Cross-shore,Cross-shore,Cross-shore,Onshore",6
5842041f4e65fad6a770888a,2024_03_08,33.38143999849023,-117.58843,Lower Trestles,2.0833333333333335,0.5305166666666667,0.8330666666666667,16,16,"MOSTLY_CLOUDY,MOSTLY_CLOUDY,MOSTLY_CLOUDY,MOSTLY_CLOUDY,MOSTLY_CLEAR,CLEAR","Offshore,Offshore,Onshore,Onshore,Onshore,Cross-shore",6
5842041f4e65fad6a770888b,2024_03_08,33.379622288757,-117.57894,Church,2.195,0.4622166666666667,0.7647666666666667,16,16,"MOSTLY_CLOUDY,MOSTLY_CLOUDY,MOSTLY_CLOUDY,MOSTLY_CLOUDY,MOSTLY_CLEAR,CLEAR","Offshore,Offshore,Onshore,Onshore,Onshore,Onshore",6
5842041f4e65fad6a770888d,2024_03_08,21.679,-158.042,Sunset Beach,2.770625,0.96661875,1.2470375,26,25,"NIGHT_MOSTLY_CLOUDY,NIGHT_BRIEF_SHOWERS,NIGHT_CLEAR,NIGHT_MOSTLY_CLEAR,NIGHT_MOSTLY_CLOUDY,NIGHT_BRIEF_SHOWERS,NIGHT_BRIEF_SHOWERS,NIGHT_LIGHT_RAIN,NIGHT_BRIEF_SHOWERS,NIGHT_CLEAR,BRIEF_SHOWERS,OVERCAST,CLEAR,MOSTLY_CLOUDY,MOSTLY_CLEAR,MOSTLY_CLEAR","Cross-shore,Cross-shore,Cross-shore,Cross-shore,Offshore,Offshore,Offshore,Offshore,Offshore,Offshore,Cross-shore,Offshore,Offshore,Cross-shore,Cross-shore,Cross-shore",16
5842041f4e65fad6a770888e,2024_03_08,21.670550036401,-158.0482,Rocky Point,2.770625,0.98880625,1.2597625000000001,26,25,"NIGHT_MOSTLY_CLOUDY,NIGHT_CLEAR,NIGHT_CLEAR,NIGHT_MOSTLY_CLEAR,NIGHT_CLEAR,NIGHT_CLEAR,NIGHT_CLEAR,NIGHT_DRIZZLE,NIGHT_CLEAR,NIGHT_CLEAR,LIGHT_RAIN,CLOUDY,OVERCAST,CLEAR,CLEAR,CLEAR","Cross-shore,Cross-shore,Cross-shore,Cross-shore,Cross-shore,Cross-shore,Cross-shore,Cross-shore,Cross-shore,Cross-shore,Cross-shore,Cross-shore,Cross-shore,Cross-shore,Cross-shore,Cross-shore",16
5842041f4e65fad6a770888f,2024_03_08,21.668,-158.05,Chambers,3,0.83875,1.0925,24,24,"NIGHT_MOSTLY_CLOUDY,NIGHT_CLEAR,NIGHT_CLEAR,NIGHT_MOSTLY_CLEAR,NIGHT_CLEAR,NIGHT_CLEAR,NIGHT_CLEAR,NIGHT_DRIZZLE,NIGHT_CLEAR,NIGHT_CLEAR,LIGHT_RAIN,CLOUDY,OVERCAST,CLEAR,CLEAR,CLEAR","Cross-shore,Cross-shore,Cross-shore,Cross-shore,Offshore,Cross-shore,Cross-shore,Cross-shore,Cross-shore,Cross-shore,Cross-shore,Cross-shore,Cross-shore,Cross-shore,Cross-shore,Cross-shore",16
5842041f4e65fad6a7708890,2024_03_08,21.66522,-158.0526,Pipeline,1.416875,0.73738125,1.064675,26,25,"NIGHT_MOSTLY_CLOUDY,NIGHT_CLEAR,NIGHT_CLEAR,NIGHT_MOSTLY_CLEAR,NIGHT_CLEAR,NIGHT_CLEAR,NIGHT_CLEAR,NIGHT_DRIZZLE,NIGHT_CLEAR,NIGHT_CLEAR,LIGHT_RAIN,CLOUDY,OVERCAST,CLEAR,CLEAR,CLEAR","Cross-shore,Cross-shore,Cross-shore,Cross-shore,Cross-shore,Cross-shore,Cross-shore,Cross-shore,Cross-shore,Cross-shore,Cross-shore,Cross-shore,Cross-shore,Cross-shore,Cross-shore,Cross-shore",16
5842041f4e65fad6a7708891,2024_03_08,21.665,-158.054,Backdoor,2.770625,0.73613125,1.063425,26,25,"NIGHT_MOSTLY_CLOUDY,NIGHT_CLEAR,NIGHT_CLEAR,NIGHT_MOSTLY_CLEAR,NIGHT_CLEAR,NIGHT_CLEAR,NIGHT_CLEAR,NIGHT_DRIZZLE,NIGHT_CLEAR,NIGHT_CLEAR,LIGHT_RAIN,CLOUDY,OVERCAST,CLEAR,CLEAR,CLEAR","Cross-shore,Cross-shore,Cross-shore,Cross-shore,Cross-shore,Cross-shore,Cross-shore,Cross-shore,Cross-shore,Cross-shore,Cross-shore,Cross-shore,Cross-shore,Cross-shore,Cross-shore,Cross-shore",16
5842041f4e65fad6a7708892,2024_03_08,21.662,-158.057,Rockpile,3,1.0075,1.21,24,24,"NIGHT_MOSTLY_CLOUDY,NIGHT_CLEAR,NIGHT_CLEAR,NIGHT_MOSTLY_CLEAR,NIGHT_CLEAR,NIGHT_CLEAR,NIGHT_CLEAR,NIGHT_DRIZZLE,NIGHT_CLEAR,NIGHT_CLEAR,LIGHT_RAIN,CLOUDY,OVERCAST,CLEAR,CLEAR,CLEAR","Cross-shore,Cross-shore,Cross-shore,Cross-shore,Cross-shore,Cross-shore,Cross-shore,Cross-shore,Cross-shore,Cross-shore,Cross-shore,Cross-shore,Cross-shore,Cross-shore,Cross-shore,Cross-shore",16
5842041f4e65fad6a7708893,2024_03_08,21.65870453806827,-158.06058,Log Cabins,2.375,0.75,1.0450000000000002,24,24,"NIGHT_MOSTLY_CLOUDY,NIGHT_CLEAR,NIGHT_CLEAR,NIGHT_MOSTLY_CLEAR,NIGHT_CLEAR,NIGHT_CLEAR,NIGHT_CLEAR,NIGHT_DRIZZLE,NIGHT_CLEAR,NIGHT_CLEAR,LIGHT_RAIN,CLOUDY,OVERCAST,CLEAR,CLEAR,CLEAR","Cross-shore,Cross-shore,Cross-shore,Cross-shore,Cross-shore,Cross-shore,Cross-shore,Cross-shore,Cross-shore,Cross-shore,Cross-shore,Cross-shore,Cross-shore,Cross-shore,Cross-shore,Cross-shore",16
5842041f4e65fad6a7708894,2024_03_08,21.66203493640557,-158.05495,Off-The-Wall,3,0.9425,1.164375,24,24,"NIGHT_MOSTLY_CLOUDY,NIGHT_CLEAR,NIGHT_CLEAR,NIGHT_MOSTLY_CLEAR,NIGHT_CLEAR,NIGHT_CLEAR,NIGHT_CLEAR,NIGHT_DRIZZLE,NIGHT_CLEAR,NIGHT_CLEAR,LIGHT_RAIN,CLOUDY,OVERCAST,CLEAR,CLEAR,CLEAR","Cross-shore,Cross-shore,Cross-shore,Cross-shore,Cross-shore,Cross-shore,Cross-shore,Cross-shore,Cross-shore,Cross-shore,Cross-shore,Cross-shore,Cross-shore,Cross-shore,Cross-shore,Cross-shore",16
5842041f4e65fad6a7708895,2024_03_08,21.643,-158.067,Waimea Bay,NA,0.98130625,1.2726625,26,25,"NIGHT_MOSTLY_CLOUDY,NIGHT_CLEAR,NIGHT_CLEAR,NIGHT_MOSTLY_CLEAR,NIGHT_CLEAR,NIGHT_CLEAR,NIGHT_CLEAR,NIGHT_DRIZZLE,NIGHT_CLEAR,NIGHT_CLEAR,LIGHT_RAIN,CLOUDY,OVERCAST,CLEAR,CLEAR,CLEAR","Cross-shore,Offshore,Offshore,Cross-shore,Offshore,Offshore,Offshore,Offshore,Offshore,Offshore,Offshore,Offshore,Offshore,Offshore,Offshore,Cross-shore",16
5842041f4e65fad6a7708896,2024_03_08,21.622,-158.087,Hultin's,2.375,0.98630625,1.23241875,26,25,"NIGHT_MOSTLY_CLOUDY,NIGHT_CLEAR,NIGHT_MOSTLY_CLOUDY,NIGHT_CLEAR,NIGHT_CLEAR,NIGHT_MOSTLY_CLOUDY,NIGHT_MOSTLY_CLOUDY,NIGHT_CLEAR,NIGHT_CLEAR,NIGHT_CLEAR,CLOUDY,CLEAR,CLEAR,CLEAR,CLEAR,CLEAR","Offshore,Offshore,Offshore,Offshore,Offshore,Offshore,Offshore,Offshore,Offshore,Offshore,Offshore,Offshore,Offshore,Offshore,Offshore,Offshore",16
5842041f4e65fad6a7708897,2024_03_08,21.623,-158.085,Jocko's,2,0.709375,1.01375,24,24,"NIGHT_MOSTLY_CLOUDY,NIGHT_CLEAR,NIGHT_CLEAR,NIGHT_CLEAR,NIGHT_CLEAR,NIGHT_MOSTLY_CLOUDY,NIGHT_MOSTLY_CLOUDY,NIGHT_CLEAR,NIGHT_CLEAR,NIGHT_CLEAR,CLOUDY,CLEAR,CLEAR,CLEAR,CLEAR,CLEAR","Onshore,Onshore,Onshore,Onshore,Onshore,Onshore,Onshore,Onshore,Onshore,Onshore,Onshore,Onshore,Onshore,Onshore,Onshore,Onshore",16
5842041f4e65fad6a7708898,2024_03_08,21.62,-158.088,Laniakea,2.229375,0.90943125,1.1369500000000001,26,25,"NIGHT_MOSTLY_CLOUDY,NIGHT_CLEAR,NIGHT_MOSTLY_CLOUDY,NIGHT_CLEAR,NIGHT_CLEAR,NIGHT_MOSTLY_CLOUDY,NIGHT_MOSTLY_CLOUDY,NIGHT_CLEAR,NIGHT_CLEAR,NIGHT_CLEAR,CLOUDY,CLEAR,CLEAR,CLEAR,CLEAR,CLEAR","Cross-shore,Cross-shore,Cross-shore,Cross-shore,Cross-shore,Cross-shore,Cross-shore,Cross-shore,Cross-shore,Cross-shore,Cross-shore,Cross-shore,Cross-shore,Cross-shore,Cross-shore,Cross-shore",16
5842041f4e65fad6a7708899,2024_03_08,21.625,-158.083,Chun's,1.8125,0.829375,1.081875,24,24,"NIGHT_MOSTLY_CLOUDY,NIGHT_CLEAR,NIGHT_MOSTLY_CLOUDY,NIGHT_CLEAR,NIGHT_CLEAR,NIGHT_MOSTLY_CLOUDY,NIGHT_MOSTLY_CLOUDY,NIGHT_CLEAR,NIGHT_CLEAR,NIGHT_CLEAR,CLOUDY,CLEAR,CLEAR,CLEAR,CLEAR,CLEAR","Cross-shore,Cross-shore,Offshore,Cross-shore,Cross-shore,Cross-shore,Cross-shore,Cross-shore,Offshore,Offshore,Cross-shore,Offshore,Cross-shore,Cross-shore,Cross-shore,Cross-shore",16
5842041f4e65fad6a770889c,2024_03_08,21.286357895152136,-157.8515,South Shore - Ala Moana Park,1,0.234375,0.53625,24.3125,24.3125,"NIGHT_CLEAR,NIGHT_BRIEF_SHOWERS_POSSIBLE,NIGHT_CLEAR,NIGHT_CLEAR,NIGHT_CLEAR,NIGHT_CLEAR,NIGHT_CLEAR,NIGHT_CLEAR,NIGHT_CLEAR,NIGHT_CLEAR,CLEAR,CLEAR,CLEAR,CLEAR,CLEAR,CLEAR","Offshore,Offshore,Offshore,Offshore,Offshore,Offshore,Offshore,Offshore,Offshore,Offshore,Offshore,Offshore,Offshore,Offshore,Offshore,Offshore",16
5842041f4e65fad6a770889d,2024_03_08,19.606,-155.978,Banyans,2.21875,0.3076041666666667,0.6132291666666667,26,25,"NIGHT_CLEAR,NIGHT_CLEAR,NIGHT_CLEAR,NIGHT_FOG,NIGHT_OVERCAST,NIGHT_OVERCAST,NIGHT_MIST,NIGHT_CLEAR,NIGHT_CLEAR,NIGHT_CLEAR,CLEAR,CLEAR,CLEAR,MOSTLY_CLOUDY,MOSTLY_CLEAR,CLEAR","Cross-shore,Onshore,Cross-shore,Onshore,Onshore,Onshore,Onshore,Offshore,Offshore,Cross-shore,Cross-shore,Onshore,Onshore,Onshore,Onshore,Onshore",16
5842041f4e65fad6a770889e,2024_03_08,20.029,-155.831,Kawaihae,1.875,0.4444,0.6535262500000001,25,25,"NIGHT_MOSTLY_CLOUDY,NIGHT_MOSTLY_CLOUDY,NIGHT_CLEAR,NIGHT_OVERCAST,NIGHT_CLEAR,NIGHT_CLEAR,NIGHT_MOSTLY_CLOUDY,NIGHT_CLEAR,NIGHT_CLEAR,NIGHT_CLEAR,CLEAR,CLEAR,CLEAR,CLEAR,CLEAR,CLEAR","Offshore,Offshore,Offshore,Offshore,Offshore,Offshore,Offshore,Offshore,Offshore,Offshore,Offshore,Offshore,Offshore,Offshore,Offshore,Offshore",16
5842041f4e65fad6a770889f,2024_03_08,33.07541383424675,-117.3105,Grandview,3,0.7616666666666667,1.0233333333333334,16,16,"CLEAR,CLEAR,CLEAR,CLEAR,CLEAR,CLEAR","Offshore,Offshore,Onshore,Onshore,Onshore,Onshore",6
5842041f4e65fad6a77088a0,2024_03_08,33.065267421296596,-117.30577,Beacons,3,0.7683333333333333,1.0316666666666667,16,16,"CLEAR,CLEAR,CLEAR,CLEAR,CLEAR,CLEAR","Offshore,Offshore,Onshore,Onshore,Onshore,Onshore",6
5842041f4e65fad6a77088a2,2024_03_08,21.252,-157.805,Diamond Head,1.770625,0.5112890625000001,0.8258788541666666,26,25,"NIGHT_CLEAR,NIGHT_CLEAR,NIGHT_CLEAR,NIGHT_CLEAR,NIGHT_CLEAR,NIGHT_CLEAR,NIGHT_CLEAR,NIGHT_CLEAR,NIGHT_CLEAR,NIGHT_CLEAR,CLEAR,CLEAR,CLEAR,CLEAR,CLEAR,CLEAR","Offshore,Offshore,Cross-shore,Offshore,Offshore,Offshore,Offshore,Offshore,Offshore,Offshore,Offshore,Offshore,Offshore,Offshore,Offshore,Offshore",16
5842041f4e65fad6a77088a3,2024_03_08,33.04694255008896,-117.29966,Moonlight State Beach,2.5,0.7583333333333333,1.025,16,16,"CLEAR,CLEAR,CLEAR,CLEAR,CLEAR,CLEAR","Offshore,Offshore,Onshore,Onshore,Onshore,Onshore",6
5842041f4e65fad6a77088a5,2024_03_08,33.08685865930869,-117.31532,Ponto,2.6666666666666665,0.9383333333333334,1.1716666666666666,16,16,"CLEAR,CLEAR,CLEAR,CLEAR,CLEAR,CLEAR","Offshore,Offshore,Onshore,Onshore,Onshore,Onshore",6
5842041f4e65fad6a77088a6,2024_03_08,33.130343587871906,-117.33667796442558,Terra Mar Point,1.9716666666666667,0.7497666666666667,1.1696333333333333,16,16,"CLEAR,CLEAR,CLEAR,CLEAR,CLEAR,CLEAR","Offshore,Offshore,Cross-shore,Cross-shore,Onshore,Onshore",6
5842041f4e65fad6a77088af,2024_03_08,32.95916304183685,-117.26963,Del Mar,2.5,0.9,1.145,16,16,"MOSTLY_CLEAR,CLEAR,CLEAR,CLEAR,CLEAR,CLEAR","Offshore,Offshore,Onshore,Onshore,Onshore,Onshore",6
5842041f4e65fad6a77088b0,2024_03_08,32.97527261243354,-117.2721061331305,Del Mar Rivermouth,2.6666666666666665,1.0033333333333334,1.2133333333333334,16,16,"CLEAR,CLEAR,CLEAR,CLEAR,CLEAR,CLEAR","Offshore,Offshore,Onshore,Onshore,Onshore,Onshore",6
5842041f4e65fad6a77088b1,2024_03_08,33.01352178146273,-117.28219,Cardiff Reef,1.7783333333333333,0.9798166666666668,1.2715166666666669,16,16,"MOSTLY_CLEAR,CLEAR,CLEAR,CLEAR,CLEAR,CLEAR","Offshore,Offshore,Cross-shore,Onshore,Onshore,Cross-shore",6
5842041f4e65fad6a77088b3,2024_03_08,33.00211185876003,-117.2811,Seaside Reef,1.75,0.9723166666666667,1.26485,16,16,"MOSTLY_CLEAR,CLEAR,CLEAR,CLEAR,CLEAR,CLEAR","Offshore,Offshore,Cross-shore,Onshore,Onshore,Cross-shore",6
5842041f4e65fad6a77088b4,2024_03_08,33.0341859796287,-117.29552,Swami's,1.9166666666666667,0.7114,1.1208666666666667,16,16,"MOSTLY_CLEAR,CLEAR,CLEAR,CLEAR,CLEAR,CLEAR","Offshore,Offshore,Onshore,Onshore,Onshore,Onshore",6
5842041f4e65fad6a77088b7,2024_03_08,33.04569760260221,-117.2994,D Street,2.5,0.8933333333333333,1.1316666666666666,16,16,"CLEAR,CLEAR,CLEAR,CLEAR,CLEAR,CLEAR","Offshore,Offshore,Onshore,Onshore,Onshore,Onshore",6
5842041f4e65fad6a77088b8,2024_03_08,33.02090944350196,-117.28535,San Elijo State Beach,1.805,0.72765,1.2444333333333333,16,16,"MOSTLY_CLEAR,CLEAR,CLEAR,CLEAR,CLEAR,CLEAR","Offshore,Offshore,Cross-shore,Onshore,Onshore,Cross-shore",6
5842041f4e65fad6a77088c2,2024_03_08,32.80662846492798,-117.2688764333725,PB Point,2.8333333333333335,0.9916666666666667,1.2683333333333333,16,16,"CLEAR,CLEAR,CLEAR,CLEAR,CLEAR,CLEAR","Offshore,Onshore,Onshore,Cross-shore,Cross-shore,Cross-shore",6
5842041f4e65fad6a77088c4,2024_03_08,32.8060476681448,-117.26479,Old Man's at Tourmaline,2.5,0.6950000000000001,0.9966666666666667,16,16,"CLEAR,CLEAR,CLEAR,CLEAR,CLEAR,CLEAR","Offshore,Cross-shore,Onshore,Cross-shore,Cross-shore,Cross-shore",6
5842041f4e65fad6a77088cb,2024_03_08,32.557056711256,-117.1327445020322,Tijuana Slough,2.1666666666666665,0.7733333333333333,1.0383333333333333,15,15,"CLEAR,CLEAR,CLEAR,CLEAR,CLEAR,CLEAR","Offshore,Offshore,Cross-shore,Onshore,Onshore,Onshore",6
5842041f4e65fad6a77088cc,2024_03_08,32.863,-117.257,La Jolla Shores,2.5,0.8466666666666667,1.0916666666666668,16,16,"CLEAR,CLEAR,CLEAR,CLEAR,MIST,MIST","Offshore,Cross-shore,Onshore,Onshore,Onshore,Onshore",6
5842041f4e65fad6a77088ce,2024_03_08,32.67443657790586,-117.17421316238693,Coronado Beach,2.5,0.39166666666666666,0.6966666666666667,15,15,"CLEAR,CLEAR,CLEAR,CLEAR,CLEAR,CLEAR","Offshore,Offshore,Offshore,Cross-shore,Cross-shore,Cross-shore",6
5842041f4e65fad6a77088cf,2024_03_08,33.40484417640326,-117.60749,San Clemente State Beach,2.5,0.5266666666666666,0.8316666666666667,15,15,"MOSTLY_CLOUDY,MOSTLY_CLOUDY,MOSTLY_CLOUDY,MOSTLY_CLOUDY,MOSTLY_CLEAR,CLEAR","Onshore,Onshore,Onshore,Onshore,Onshore,Onshore",6
5842041f4e65fad6a77088d5,2024_03_08,33.4663042002114,-117.7168352817103,Strands,2.8333333333333335,0.8368166666666667,1.2375333333333334,15,15,"MOSTLY_CLOUDY,MOSTLY_CLOUDY,MOSTLY_CLOUDY,MOSTLY_CLOUDY,MOSTLY_CLOUDY,CLEAR","Cross-shore,Onshore,Onshore,Onshore,Onshore,Onshore",6
5842041f4e65fad6a77088d7,2024_03_08,33.4609858001748,-117.68535,Doheny State Beach,0.5266666666666666,-0.02541666666666667,0.18480000000000002,16,16,"MOSTLY_CLOUDY,MOSTLY_CLOUDY,MOSTLY_CLOUDY,MOSTLY_CLOUDY,MOSTLY_CLOUDY,CLEAR","Offshore,Offshore,Onshore,Onshore,Onshore,Onshore",6
5842041f4e65fad6a77088dc,2024_03_08,33.50894790083017,-117.75243,Aliso Creek,2,0.375,0.6799999999999999,15,15,"MOSTLY_CLOUDY,MOSTLY_CLOUDY,MOSTLY_CLOUDY,MOSTLY_CLOUDY,MOSTLY_CLOUDY,MIST","Cross-shore,Onshore,Onshore,Onshore,Onshore,Onshore",6
5842041f4e65fad6a77088dd,2024_03_08,33.5326591767067,-117.77764,Brooks Street,2,0.25666666666666665,0.5633333333333334,15,15,"MOSTLY_CLOUDY,MOSTLY_CLOUDY,MOSTLY_CLOUDY,MOSTLY_CLOUDY,MOSTLY_CLOUDY,CLEAR","Onshore,Onshore,Onshore,Onshore,Onshore,Onshore",6
5842041f4e65fad6a77088de,2024_03_08,33.53561225884637,-117.7799,Thalia Street,2.3333333333333335,0.2833333333333333,0.5866666666666667,15,15,"MOSTLY_CLOUDY,MOSTLY_CLOUDY,MOSTLY_CLOUDY,MOSTLY_CLOUDY,MOSTLY_CLOUDY,CLEAR","Onshore,Onshore,Onshore,Onshore,Onshore,Onshore",6
5842041f4e65fad6a77088e3,2024_03_08,33.54268310353641,-117.7916,Rockpile,2.3333333333333335,0.2833333333333333,0.5883333333333334,15,15,"MOSTLY_CLOUDY,MOSTLY_CLOUDY,MOSTLY_CLOUDY,MOSTLY_CLOUDY,MOSTLY_CLOUDY,CLEAR","Onshore,Onshore,Onshore,Onshore,Onshore,Onshore",6
5842041f4e65fad6a77088e4,2024_03_08,33.7368459504689,-118.10342,"Seal Beach Pier, Southside",1.5,0.015,0.31333333333333335,15,15,"MOSTLY_CLOUDY,MOSTLY_CLOUDY,MOSTLY_CLOUDY,MOSTLY_CLOUDY,CLEAR,CLEAR","Offshore,Offshore,Onshore,Onshore,Onshore,Onshore",6
5842041f4e65fad6a77088e5,2024_03_08,33.73933701820233,-118.117,Ray Bay,1,0,0.275,15,15,"MOSTLY_CLOUDY,MOSTLY_CLOUDY,MOSTLY_CLOUDY,MOSTLY_CLOUDY,CLEAR,CLEAR","Offshore,Offshore,Onshore,Onshore,Onshore,Onshore",6
5842041f4e65fad6a77088e7,2024_03_08,33.728733,-118.08982,Surfside,1.6666666666666667,0.06333333333333334,0.37,15,15,"MOSTLY_CLOUDY,MOSTLY_CLOUDY,MOSTLY_CLOUDY,MOSTLY_CLOUDY,MOSTLY_CLOUDY,CLEAR","Offshore,Offshore,Onshore,Onshore,Onshore,Onshore",6
5842041f4e65fad6a77088e8,2024_03_08,33.68760321488161,-118.04236,Bolsa Chica State Beach,1.8333333333333333,0.25005000000000005,0.5571833333333334,15,15,"MOSTLY_CLOUDY,MOSTLY_CLOUDY,MOSTLY_CLOUDY,MOSTLY_CLOUDY,MOSTLY_CLOUDY,CLEAR","Offshore,Onshore,Onshore,Onshore,Onshore,Onshore",6
5842041f4e65fad6a77088ea,2024_03_08,33.66704400178788,-118.0192,North HB Streets,2.2216666666666667,0.45885,0.8426499999999999,15,15,"MOSTLY_CLOUDY,MOSTLY_CLOUDY,MOSTLY_CLOUDY,CLEAR,MOSTLY_CLOUDY,CLEAR","Cross-shore,Onshore,Onshore,Onshore,Onshore,Onshore",6
5842041f4e65fad6a77088ed,2024_03_08,33.65475101379567,-118.00291,Huntington Beach Pier Southside,2.5833333333333335,0.72015,1.1975333333333333,15,15,"MOSTLY_CLOUDY,MOSTLY_CLOUDY,MOSTLY_CLOUDY,MOSTLY_CLOUDY,MOSTLY_CLOUDY,CLEAR","Offshore,Offshore,Cross-shore,Onshore,Onshore,Onshore",6
5842041f4e65fad6a77088ee,2024_03_08,33.62778647706099,-117.95939,River Jetties,1.75,0.6255166666666667,1.0249833333333334,15,15,"MOSTLY_CLOUDY,MOSTLY_CLOUDY,MOSTLY_CLOUDY,CLEAR,CLEAR,CLEAR","Offshore,Cross-shore,Onshore,Onshore,Onshore,Onshore",6
5842041f4e65fad6a77088f2,2024_03_08,33.605165797643664,-117.92500376701355,Newport Point,2,0.18,0.4866666666666667,15,15,"MOSTLY_CLOUDY,MOSTLY_CLOUDY,MOSTLY_CLOUDY,MOSTLY_CLOUDY,MOSTLY_CLOUDY,CLEAR","Onshore,Onshore,Onshore,Onshore,Onshore,Onshore",6
5842041f4e65fad6a77088f3,2024_03_08,33.58982984726977,-117.87713,Corona del Mar,1,0.126685,0.19794666666666666,15,15,"MOSTLY_CLOUDY,MOSTLY_CLOUDY,MOSTLY_CLOUDY,MOSTLY_CLOUDY,MOSTLY_CLOUDY,CLEAR","Offshore,Offshore,Onshore,Onshore,Onshore,Onshore",6
5842041f4e65fad6a77088f7,2024_03_08,34.00750300824362,-118.4971783496269,Santa Monica Pier,1.6666666666666667,0.24666666666666667,0.55,15,15,"CLEAR,CLEAR,CLEAR,CLEAR,CLEAR,CLEAR","Offshore,Offshore,Cross-shore,Onshore,Onshore,Onshore",6
5842041f4e65fad6a77088ff,2024_03_08,33.94070283102945,-118.44321,Dockweiler Beach,2.4166666666666665,0.7976076388888889,1.0952205555555556,14,14,"MIST,CLEAR,CLEAR,CLEAR,BRIEF_SHOWERS,CLEAR","Offshore,Offshore,Cross-shore,Onshore,Onshore,Onshore",6
5842041f4e65fad6a7708900,2024_03_08,33.9231846937237,-118.4341465777908,Shitpipe,2.4166666666666665,0.6993555555555555,1.0298444444444446,14,14,"MIST,CLEAR,CLEAR,CLEAR,MIST,CLEAR","Offshore,Offshore,Cross-shore,Onshore,Onshore,Onshore",6
5842041f4e65fad6a7708902,2024_03_08,33.9108528052242,-118.4279133138721,Hammerland,2.5833333333333335,0.7356444444444444,1.25205,14,14,"MIST,CLEAR,CLEAR,CLEAR,MIST,CLEAR","Offshore,Offshore,Cross-shore,Onshore,Onshore,Onshore",6
5842041f4e65fad6a7708904,2024_03_08,33.87201368173932,-118.4075151286262,Hermosa Beach,2.5833333333333335,0.6854666666666667,1.0862555555555555,14,14,"MIST,MIST,CLEAR,CLEAR,MIST,CLEAR","Offshore,Offshore,Cross-shore,Onshore,Onshore,Onshore",6
5842041f4e65fad6a7708906,2024_03_08,33.90129336911256,-118.42184,El Porto,2.5833333333333335,0.7498111111111111,1.2948277777777777,14,14,"CLEAR,MIST,MOSTLY_CLEAR,CLEAR,MIST,CLEAR","Offshore,Offshore,Cross-shore,Onshore,Onshore,Onshore",6
5842041f4e65fad6a7708907,2024_03_08,33.87963506431794,-118.41102,Manhattan Beach Pier,2.555,0.7502277777777777,1.1750444444444443,14,14,"CLEAR,MIST,MOSTLY_CLEAR,CLEAR,MIST,CLEAR","Offshore,Offshore,Cross-shore,Onshore,Onshore,Onshore",6
5842041f4e65fad6a7708914,2024_03_08,34.038053387863464,-118.5532,Sunset Point,1.8333333333333333,0.105,0.41333333333333333,15,15,"CLEAR,CLEAR,CLEAR,CLEAR,MIST,CLEAR","Cross-shore,Onshore,Onshore,Onshore,Cross-shore,Onshore",6
5842041f4e65fad6a7708920,2024_03_08,33.80930828074364,-118.3933198342649,Haggerty's,1.6666666666666667,0.14300000000000002,0.326,15,15,"CLEAR,CLEAR,CLEAR,MOSTLY_CLOUDY,MIST,CLEAR","Offshore,Offshore,Offshore,Cross-shore,Cross-shore,Onshore",6
5842041f4e65fad6a7708921,2024_03_08,33.85044519861206,-118.40048,Redondo Breakwater,2.5,0.6016666666666667,0.9066666666666666,15,15,"MIST,MIST,CLEAR,CLEAR,MIST,CLEAR","Offshore,Offshore,Cross-shore,Onshore,Onshore,Onshore",6
5842041f4e65fad6a7708927,2024_03_08,33.70877301002487,-118.2840112858389,Cabrillo Beach,1.5,0.01,0.30166666666666664,15,15,"MOSTLY_CLOUDY,MOSTLY_CLOUDY,MIST,MOSTLY_CLOUDY,MOSTLY_CLOUDY,CLEAR","Cross-shore,Onshore,Onshore,Onshore,Onshore,Cross-shore",6
5842041f4e65fad6a770892c,2024_03_08,33.77209986806257,-118.4268428476672,Lunada Bay,1.1666666666666667,0.5383333333333333,0.8416666666666667,15,15,"CLEAR,CLEAR,MIST,MIST,MIST,CLEAR","Cross-shore,Cross-shore,Cross-shore,Onshore,Onshore,Onshore",6
5842041f4e65fad6a770892d,2024_03_08,33.79294656286144,-118.4070316699825,PV Cove,2.5,0.6348583333333333,0.889885,15,15,"CLEAR,CLEAR,CLEAR,MOSTLY_CLOUDY,MIST,CLEAR","Offshore,Offshore,Offshore,Cross-shore,Cross-shore,Onshore",6
5842041f4e65fad6a7708930,2024_03_08,34.03944902292561,-118.57539,Chart House,1.8333333333333333,0.025,0.3283333333333333,15,15,"CLEAR,CLEAR,CLEAR,CLEAR,MOSTLY_CLEAR,CLEAR","Onshore,Onshore,Onshore,Onshore,Cross-shore,Cross-shore",6
5842041f4e65fad6a7708936,2024_03_08,34.0016731994772,-118.80456,Point Dume,1,-0.01375,0.28637222222222225,15,15,"CLEAR,CLEAR,MIST,MIST,MIST,CLEAR","Onshore,Onshore,Onshore,Onshore,Onshore,Cross-shore",6
5842041f4e65fad6a7708937,2024_03_08,34.02587527588963,-118.7554939066114,Latigo Point,1.8333333333333333,0.023333333333333334,0.33,15,15,"CLEAR,CLEAR,MIST,MIST,MIST,CLEAR","Cross-shore,Onshore,Onshore,Onshore,Onshore,Cross-shore",6
5842041f4e65fad6a770893f,2024_03_08,34.043762,-118.93294,Leo Carrillo,2.138333333333333,0.4848277777777778,0.7968944444444443,15,15,"CLEAR,CLEAR,MIST,MIST,BRIEF_SHOWERS,MIST","Offshore,Onshore,Onshore,Onshore,Onshore,Cross-shore",6
5842041f4e65fad6a7708941,2024_03_08,36.69388179265737,-121.81289,Marina State Beach,3.6666666666666665,1.145,1.39,13,13,"CLEAR,CLEAR,CLEAR,CLEAR,CLEAR,CLEAR","Offshore,Offshore,Offshore,Offshore,Cross-shore,Onshore",6
5842041f4e65fad6a7708944,2024_03_08,34.34145077331085,-119.416999352654,Stanley's,2,0.14500000000000002,0.4533333333333333,14,14,"CLEAR,CLEAR,CLEAR,CLEAR,CLEAR,CLEAR","Offshore,Offshore,Onshore,Onshore,Onshore,Onshore",6
5842041f4e65fad6a7708945,2024_03_08,34.35113017313915,-119.426921498899,Oil Piers,2,0.08,0.38666666666666666,14,14,"CLEAR,CLEAR,CLEAR,CLEAR,CLEAR,CLEAR","Offshore,Cross-shore,Onshore,Onshore,Onshore,Onshore",6
5842041f4e65fad6a770894c,2024_03_08,34.17876333306018,-119.2399483564372,Oxnard,2.6666666666666665,0.3983333333333333,0.7033333333333334,14,14,"CLEAR,CLEAR,CLEAR,CLEAR,CLEAR,CLEAR","Offshore,Offshore,Offshore,Cross-shore,Onshore,Onshore",6
5842041f4e65fad6a7708957,2024_03_08,34.31720331100517,-119.3882324751725,Pitas Point,2,0.14,0.445,14,14,"CLEAR,CLEAR,CLEAR,CLEAR,CLEAR,CLEAR","Cross-shore,Onshore,Onshore,Cross-shore,Offshore,Onshore",6
5842041f4e65fad6a7708959,2024_03_08,34.27851754384724,-119.316202617226,Emma Wood,1.6666666666666667,0.13,0.435,14,14,"CLEAR,CLEAR,CLEAR,CLEAR,CLEAR,CLEAR","Offshore,Offshore,Onshore,Cross-shore,Onshore,Onshore",6
5842041f4e65fad6a770895a,2024_03_08,34.35513640390276,-119.4400589884255,Mussel Shoals (aka Little Rincon),2,0.12333333333333334,0.43,14,14,"CLEAR,CLEAR,CLEAR,CLEAR,CLEAR,CLEAR","Offshore,Onshore,Onshore,Onshore,Onshore,Onshore",6
5842041f4e65fad6a770895e,2024_03_08,34.28991757054902,-119.3366646794652,Summer Beach,1.6666666666666667,0.05666666666666667,0.3616666666666667,14,14,"CLEAR,CLEAR,CLEAR,CLEAR,CLEAR,CLEAR","Offshore,Offshore,Onshore,Offshore,Onshore,Onshore",6
5842041f4e65fad6a770895f,2024_03_08,34.30897456105926,-119.3582501170116,Solimar,2,0.075,0.37666666666666665,14,14,"CLEAR,CLEAR,CLEAR,CLEAR,CLEAR,CLEAR","Cross-shore,Onshore,Onshore,Onshore,Cross-shore,Cross-shore",6
5842041f4e65fad6a7708960,2024_03_08,34.39836265281686,-119.70213,Leadbetter Point,1,0,0.2,14,14,"CLEAR,CLEAR,CLEAR,CLEAR,CLEAR,CLEAR","Offshore,Cross-shore,Onshore,Cross-shore,Cross-shore,Offshore",6
5842041f4e65fad6a7708961,2024_03_08,34.46052293893899,-120.07328,Refugio,1,0,0.235,14,14,"CLEAR,CLEAR,CLEAR,CLEAR,CLEAR,CLEAR","Onshore,Onshore,Onshore,Onshore,Onshore,Cross-shore",6
5842041f4e65fad6a7708962,2024_03_08,34.40754276777778,-119.87639,Devereux,2,0.11666666666666667,0.42,14,14,"CLEAR,CLEAR,CLEAR,CLEAR,CLEAR,CLEAR","Cross-shore,Onshore,Onshore,Onshore,Cross-shore,Cross-shore",6
5842041f4e65fad6a7708963,2024_03_08,34.27479983305182,-119.3133222656776,Ventura Overhead,1.6666666666666667,0.14166666666666666,0.445,14,14,"CLEAR,CLEAR,CLEAR,CLEAR,CLEAR,CLEAR","Offshore,Offshore,Onshore,Offshore,Onshore,Onshore",6
5842041f4e65fad6a7708964,2024_03_08,34.41023236011655,-119.88261,Sands,1.8333333333333333,0.18,0.485,14,14,"CLEAR,CLEAR,CLEAR,CLEAR,CLEAR,CLEAR","Offshore,Cross-shore,Onshore,Onshore,Onshore,Onshore",6
5842041f4e65fad6a7708966,2024_03_08,34.40450193869233,-119.68752,Sandspit,0.3333333333333333,0,0.125,14,14,"CLEAR,CLEAR,CLEAR,CLEAR,CLEAR,CLEAR","Offshore,Cross-shore,Onshore,Cross-shore,Cross-shore,Offshore",6
5842041f4e65fad6a7708967,2024_03_08,34.41549098334453,-119.6375149840203,Hammond's,1,0,0.18166666666666667,14,14,"CLEAR,CLEAR,CLEAR,CLEAR,CLEAR,CLEAR","Offshore,Onshore,Onshore,Onshore,Onshore,Onshore",6
5842041f4e65fad6a7708968,2024_03_08,34.45759322742309,-120.0220251867315,El Capitan,1.6666666666666667,0.01,0.31,14,14,"CLEAR,CLEAR,CLEAR,CLEAR,CLEAR,CLEAR","Onshore,Onshore,Onshore,Onshore,Onshore,Cross-shore",6
5842041f4e65fad6a770896c,2024_03_08,34.405117655616,-119.84317,Campus Point,1.1666666666666667,0.0016666666666666668,0.28833333333333333,14,14,"CLEAR,CLEAR,CLEAR,CLEAR,CLEAR,CLEAR","Cross-shore,Onshore,Onshore,Cross-shore,Cross-shore,Cross-shore",6
5842041f4e65fad6a770896e,2024_03_08,34.38935162233354,-119.51955,Carpinteria State Beach,1.6666666666666667,0.026666666666666665,0.3283333333333333,14,14,"CLEAR,CLEAR,CLEAR,CLEAR,CLEAR,CLEAR","Offshore,Onshore,Onshore,Onshore,Onshore,Onshore",6
5842041f4e65fad6a770896f,2024_03_08,37.48296565175612,-122.4549300127824,Half Moon Bay,2.8333333333333335,0.6433333333333333,0.95,13,13,"CLEAR,CLEAR,CLEAR,CLEAR,CLEAR,CLEAR","Offshore,Offshore,Offshore,Offshore,Offshore,Onshore",6
5842041f4e65fad6a7708970,2024_03_08,37.499,-122.471,Princeton Jetty,2.8333333333333335,0.5033333333333333,0.8083333333333333,13,13,"CLEAR,CLEAR,CLEAR,CLEAR,CLEAR,CLEAR","Offshore,Offshore,Offshore,Offshore,Offshore,Cross-shore",6
5842041f4e65fad6a7708972,2024_03_08,37.35699547365155,-122.4069534707252,Tunitas Creek,3,1.2983333333333333,1.5333333333333334,13,13,"CLEAR,CLEAR,CLEAR,CLEAR,CLEAR,MIST","Offshore,Offshore,Offshore,Onshore,Onshore,Cross-shore",6
5842041f4e65fad6a7708974,2024_03_08,37.54735589428842,-122.5161090212687,Montara,2.8333333333333335,0.9783333333333333,1.205,13,13,"CLEAR,CLEAR,CLEAR,CLEAR,CLEAR,MIST","Offshore,Offshore,Offshore,Offshore,Cross-shore,Onshore",6
5842041f4e65fad6a7708975,2024_03_08,34.3869373724559,-119.5142334209018,Tarpits,1.6666666666666667,0.02,0.325,14,14,"CLEAR,CLEAR,CLEAR,CLEAR,CLEAR,CLEAR","Cross-shore,Onshore,Onshore,Cross-shore,Cross-shore,Cross-shore",6
5842041f4e65fad6a7708976,2024_03_08,37.59881852720143,-122.50463,Pacifica / Linda Mar,2.445,0.49149444444444446,0.7973111111111112,14,14,"CLEAR,CLEAR,CLEAR,CLEAR,CLEAR,MIST","Offshore,Offshore,Offshore,Offshore,Cross-shore,Onshore",6
5842041f4e65fad6a7708978,2024_03_08,37.59883098461164,-122.5143843582282,Pedro Point,2.5,0.9683333333333334,1.21,13,13,"CLEAR,CLEAR,CLEAR,CLEAR,CLEAR,CLEAR","Offshore,Offshore,Offshore,Offshore,Onshore,Onshore",6
5842041f4e65fad6a7708979,2024_03_08,37.61081996647663,-122.4973287570634,Rockaway,2.8333333333333335,0.9316666666666666,1.1766666666666667,13,13,"CLEAR,CLEAR,CLEAR,CLEAR,CLEAR,MIST","Offshore,Offshore,Offshore,Offshore,Offshore,Onshore",6
5842041f4e65fad6a770897a,2024_03_08,37.809987384424446,-122.4751353263855,Fort Point,2.8333333333333335,0.5416666666666666,0.8433333333333334,13,13,"CLEAR,CLEAR,CLEAR,CLEAR,CLEAR,CLEAR","Cross-shore,Cross-shore,Cross-shore,Cross-shore,Offshore,Cross-shore",6
5842041f4e65fad6a770897c,2024_03_08,37.63422542967464,-122.4951,Sharp Park,2.8333333333333335,1.0266666666666666,1.27,13,13,"CLEAR,CLEAR,CLEAR,CLEAR,CLEAR,CLEAR","Offshore,Offshore,Offshore,Offshore,Cross-shore,Onshore",6
5842041f4e65fad6a770897d,2024_03_08,37.27313605072472,-122.4127387912554,Pescadero,2.8333333333333335,1.2333333333333334,1.4766666666666666,13,13,"CLEAR,CLEAR,CLEAR,CLEAR,CLEAR,MIST","Offshore,Offshore,Cross-shore,Onshore,Onshore,Onshore",6
5842041f4e65fad6a770897e,2024_03_08,37.18140279972666,-122.3926685899327,Pigeon Point,3.1666666666666665,1.1933333333333334,1.4183333333333334,13,13,"CLEAR,CLEAR,CLEAR,CLEAR,CLEAR,BRIEF_SHOWERS","Offshore,Offshore,Onshore,Onshore,Onshore,Offshore",6
5842041f4e65fad6a770897f,2024_03_08,37.11578956919415,-122.314699271291,Ano Nuevo,3,0.6566666666666667,0.9633333333333334,13,13,"CLEAR,CLEAR,CLEAR,CLEAR,CLEAR,MIST","Cross-shore,Onshore,Onshore,Onshore,Onshore,Offshore",6
5842041f4e65fad6a7708980,2024_03_08,37.09520872681598,-122.2805474707768,Waddell Creek,2.8333333333333335,0.9283333333333333,1.1316666666666666,13,13,"CLEAR,CLEAR,CLEAR,CLEAR,CLEAR,CLEAR","Cross-shore,Onshore,Onshore,Onshore,Onshore,Cross-shore",6
5842041f4e65fad6a7708981,2024_03_08,36.96512852130351,-122.1252825495626,Four Mile,2.6666666666666665,0.7233333333333334,1.0033333333333334,13,13,"CLEAR,CLEAR,CLEAR,CLEAR,CLEAR,CLEAR","Cross-shore,Onshore,Onshore,Onshore,Onshore,Offshore",6
5842041f4e65fad6a7708982,2024_03_08,37.04122807048655,-122.2333684729756,Scott Creek,3,0.9866666666666667,1.2466666666666666,13,13,"CLEAR,CLEAR,CLEAR,CLEAR,CLEAR,CLEAR","Onshore,Onshore,Onshore,Onshore,Onshore,Cross-shore",6
5842041f4e65fad6a7708983,2024_03_08,37.02350229387179,-122.21908,Davenport,3,0.995,1.205,13,13,"CLEAR,CLEAR,CLEAR,CLEAR,CLEAR,CLEAR","Onshore,Onshore,Onshore,Onshore,Onshore,Cross-shore",6
5842041f4e65fad6a7708986,2024_03_08,36.94905295955728,-122.0611823912244,Natural Bridges,2.6666666666666665,0.8633333333333333,1.095,13,13,"CLEAR,CLEAR,CLEAR,CLEAR,CLEAR,CLEAR","Offshore,Cross-shore,Cross-shore,Onshore,Onshore,Cross-shore",6
5842041f4e65fad6a7708987,2024_03_08,36.95154854910425,-122.0420693940968,Mitchell's Cove,2.5,0.2966666666666667,0.6066666666666667,13,13,"CLEAR,CLEAR,CLEAR,CLEAR,CLEAR,CLEAR","Cross-shore,Onshore,Onshore,Onshore,Onshore,Cross-shore",6
5842041f4e65fad6a770898a,2024_03_08,36.9572312370203,-121.98177,26th Ave,3,0.5133333333333333,0.8133333333333334,13,13,"CLEAR,CLEAR,CLEAR,CLEAR,CLEAR,CLEAR","Offshore,Cross-shore,Cross-shore,Onshore,Onshore,Onshore",6
5842041f4e65fad6a770898e,2024_03_08,36.91899972819882,-121.85536,Manresa,2.8333333333333335,0.7766666666666666,1.0483333333333333,13,13,"CLEAR,CLEAR,CLEAR,CLEAR,CLEAR,CLEAR","Offshore,Offshore,Offshore,Cross-shore,Onshore,Onshore",6
5842041f4e65fad6a7708990,2024_03_08,34.45747731928454,-120.34242,The Ranch,2,0.135,0.43833333333333335,14,14,"CLEAR,CLEAR,CLEAR,CLEAR,CLEAR,CLEAR","Offshore,Onshore,Onshore,Onshore,Onshore,Onshore",6
5842041f4e65fad6a7708991,2024_03_08,34.50875036590315,-120.50348,Jalama,2.1666666666666665,0.5616666666666666,0.8683333333333334,14,14,"CLEAR,CLEAR,CLEAR,CLEAR,CLEAR,CLEAR","Offshore,Cross-shore,Onshore,Onshore,Onshore,Onshore",6
5842041f4e65fad6a7708996,2024_03_08,34.68700870220497,-120.6111611019887,Surf Beach,3,1.7333333333333334,2.0466666666666664,14,14,"CLEAR,CLEAR,CLEAR,CLEAR,CLEAR,MIST","Cross-shore,Cross-shore,Onshore,Onshore,Onshore,Onshore",6
5842041f4e65fad6a770899c,2024_03_08,35.5730538161116,-121.1143362345574,Moonstone,3,0.9916666666666667,1.185,14,14,"CLEAR,CLEAR,CLEAR,CLEAR,CLEAR,CLEAR","Offshore,Onshore,Onshore,Onshore,Onshore,Onshore",6
5842041f4e65fad6a770899d,2024_03_08,35.61533716776573,-121.1502053073914,Pico Creek,2.8333333333333335,0.9333333333333333,1.155,14,14,"CLEAR,CLEAR,CLEAR,CLEAR,CLEAR,CLEAR","Offshore,Onshore,Onshore,Onshore,Onshore,Onshore",6
5842041f4e65fad6a770899e,2024_03_08,35.56829031927379,-121.1120653023953,Santa Rosa Creek,3.1666666666666665,0.9916666666666667,1.185,14,14,"CLEAR,CLEAR,CLEAR,CLEAR,CLEAR,CLEAR","Offshore,Offshore,Onshore,Onshore,Onshore,Onshore",6
5842041f4e65fad6a77089a2,2024_03_08,35.44820114936284,-120.90715,"Cayucos Pier, Southside ",2,0.3933333333333333,0.7,14,14,"CLEAR,CLEAR,CLEAR,CLEAR,CLEAR,CLEAR","Offshore,Offshore,Offshore,Offshore,Offshore,Cross-shore",6
5842041f4e65fad6a77089a4,2024_03_08,35.30143372628852,-120.877819239902,Cable Landing,3.3333333333333335,1.8483333333333334,2.125,14,14,"CLEAR,CLEAR,CLEAR,CLEAR,CLEAR,CLEAR","Offshore,Offshore,Offshore,Offshore,Onshore,Onshore",6
5842041f4e65fad6a77089a9,2024_03_08,35.61269103500222,-121.1480725356606,San Simeon,2.5,0.5191666666666667,0.714,14,14,"CLEAR,CLEAR,CLEAR,CLEAR,CLEAR,CLEAR","Offshore,Onshore,Onshore,Onshore,Onshore,Onshore",6
5842041f4e65fad6a77089ab,2024_03_08,35.1775325966252,-120.7341125142258,Avila Beach,1,0,0.16333333333333333,14,14,"CLEAR,CLEAR,CLEAR,CLEAR,CLEAR,CLEAR","Offshore,Offshore,Offshore,Offshore,Offshore,Cross-shore",6
5842041f4e65fad6a77089ac,2024_03_08,35.13877877884115,-120.64535,Pismo Beach Pier,2.388333333333333,0.6915777777777777,1.170561111111111,14,14,"CLEAR,CLEAR,CLEAR,CLEAR,CLEAR,CLEAR","Cross-shore,Cross-shore,Cross-shore,Cross-shore,Cross-shore,Cross-shore",6
5842041f4e65fad6a77089ad,2024_03_08,46.8907710233147,-124.12964,Westport/Olympic Peninsula,3,1.08,1.321875,8,8,"NIGHT_CLEAR,NIGHT_MOSTLY_CLOUDY,NIGHT_OVERCAST,NIGHT_OVERCAST,NIGHT_CLEAR,NIGHT_CLOUDY,NIGHT_CLOUDY,NIGHT_DRIZZLE,LIGHT_SHOWERS_POSSIBLE,OVERCAST,OVERCAST,OVERCAST,OVERCAST,CLEAR,CLEAR,CLEAR","Cross-shore,Cross-shore,Offshore,Offshore,Offshore,Offshore,Offshore,Offshore,Offshore,Offshore,Offshore,Offshore,Offshore,Cross-shore,Onshore,Onshore",16
5842041f4e65fad6a77089ae,2024_03_08,46.35185177248545,-124.06747,Long Beach Peninsula,3.5,1.61125,1.860625,9,9,"NIGHT_CLEAR,NIGHT_MOSTLY_CLEAR,NIGHT_MOSTLY_CLOUDY,NIGHT_CLEAR,NIGHT_CLEAR,NIGHT_CLEAR,NIGHT_CLOUDY,NIGHT_CLEAR,CLEAR,CLOUDY,CLEAR,CLEAR,CLEAR,CLEAR,CLEAR,CLEAR","Offshore,Offshore,Offshore,Offshore,Offshore,Offshore,Offshore,Offshore,Offshore,Offshore,Offshore,Offshore,Offshore,Cross-shore,Cross-shore,Cross-shore",16
5842041f4e65fad6a77089af,2024_03_08,47.90649175554033,-124.6370864743483,La Push,0.9375,1.370625,1.62125,8,8,"NIGHT_CLOUDY,NIGHT_OVERCAST,NIGHT_OVERCAST,NIGHT_OVERCAST,NIGHT_DRIZZLE,NIGHT_DRIZZLE,NIGHT_LIGHT_RAIN,NIGHT_LIGHT_RAIN,LIGHT_RAIN,CLOUDY,CLOUDY,OVERCAST,OVERCAST,OVERCAST,CLOUDY,OVERCAST","Cross-shore,Cross-shore,Cross-shore,Cross-shore,Cross-shore,Cross-shore,Cross-shore,Cross-shore,Cross-shore,Cross-shore,Cross-shore,Cross-shore,Cross-shore,Cross-shore,Onshore,Onshore",16
5842041f4e65fad6a77089b0,2024_03_08,42.04368239985442,-124.26828,Brookings Jetty,3,0.6693083333333334,1.045795,11,11,"CLEAR,CLEAR,CLEAR,CLEAR,CLEAR,CLEAR","Offshore,Offshore,Onshore,Onshore,Onshore,Onshore",6
5842041f4e65fad6a77089b1,2024_03_08,42.74071837900346,-124.4983727491047,Port Orford,2.1666666666666665,0.615,0.9183333333333333,11,11,"CLEAR,CLEAR,CLEAR,CLEAR,CLEAR,CLEAR","Onshore,Onshore,Onshore,Onshore,Onshore,Onshore",6
5842041f4e65fad6a77089b2,2024_03_08,44.01532689312291,-124.13865,Florence South Jetty,3.1666666666666665,1.34,1.6133333333333333,11,11,"CLEAR,CLEAR,CLEAR,CLEAR,CLEAR,CLEAR","Offshore,Offshore,Offshore,Cross-shore,Onshore,Onshore",6
5842041f4e65fad6a77089b3,2024_03_08,42.41812540774362,-124.42945,Gold Beach South Jetty,2.8333333333333335,1.0266666666666666,1.2783333333333333,11,11,"CLEAR,CLEAR,CLEAR,CLEAR,CLEAR,CLEAR","Onshore,Onshore,Onshore,Onshore,Onshore,Onshore",6
5842041f4e65fad6a77089b4,2024_03_08,44.95857310226525,-124.0219017690976,Lincoln City,3.5,1.2533333333333334,1.5583333333333333,10,10,"CLEAR,CLEAR,CLEAR,CLEAR,CLEAR,CLEAR","Offshore,Offshore,Offshore,Cross-shore,Cross-shore,Onshore",6
5842041f4e65fad6a77089b5,2024_03_08,44.63792761362982,-124.0657,Newport,3.5,1.4216666666666666,1.6616666666666666,10,10,"CLEAR,CLEAR,CLEAR,CLEAR,CLEAR,CLEAR","Offshore,Offshore,Offshore,Cross-shore,Onshore,Onshore",6
5842041f4e65fad6a77089b6,2024_03_08,45.61468496266301,-123.94643,Rockaway Beach,3.875,1.618125,1.858125,9,9,"NIGHT_CLEAR,NIGHT_CLEAR,NIGHT_CLEAR,NIGHT_CLEAR,NIGHT_CLEAR,NIGHT_CLEAR,NIGHT_CLEAR,NIGHT_CLEAR,CLEAR,CLEAR,CLEAR,CLEAR,CLEAR,CLEAR,CLEAR,CLEAR","Offshore,Offshore,Offshore,Offshore,Offshore,Offshore,Offshore,Offshore,Offshore,Offshore,Offshore,Offshore,Cross-shore,Cross-shore,Onshore,Onshore",16
5842041f4e65fad6a77089b7,2024_03_08,45.20252914186085,-123.96975,Pacific City,3.3125,1.193125,1.4825000000000002,10,10,"NIGHT_CLEAR,NIGHT_CLEAR,NIGHT_CLEAR,NIGHT_CLEAR,NIGHT_CLEAR,NIGHT_CLEAR,NIGHT_CLEAR,NIGHT_CLEAR,CLEAR,CLEAR,CLEAR,CLEAR,CLEAR,CLEAR,CLEAR,CLEAR","Offshore,Offshore,Offshore,Offshore,Offshore,Offshore,Offshore,Offshore,Offshore,Offshore,Offshore,Offshore,Cross-shore,Cross-shore,Cross-shore,Onshore",16
5842041f4e65fad6a77089b8,2024_03_08,45.88179930310263,-123.96681,Cannon Beach,3,1.4725,1.73625,9,9,"NIGHT_CLEAR,NIGHT_CLEAR,NIGHT_CLEAR,NIGHT_CLEAR,NIGHT_CLEAR,NIGHT_CLEAR,NIGHT_CLEAR,NIGHT_CLEAR,CLEAR,CLEAR,CLEAR,CLEAR,CLEAR,CLEAR,CLEAR,CLEAR","Offshore,Offshore,Offshore,Offshore,Offshore,Offshore,Offshore,Offshore,Offshore,Offshore,Cross-shore,Cross-shore,Onshore,Onshore,Onshore,Onshore",16
5842041f4e65fad6a77089ba,2024_03_08,40.02528754746774,-124.06372,Shelter Cove,2,0.328175,0.5127700000000001,12,12,"CLEAR,CLEAR,CLEAR,CLEAR,CLEAR,CLEAR","Cross-shore,Onshore,Onshore,Onshore,Onshore,Onshore",6
5842041f4e65fad6a77089bb,2024_03_08,40.76816197136951,-124.24248,Humboldt Harbor Entrance,3,1.3833333333333333,1.645,11,11,"CLEAR,CLEAR,CLEAR,CLEAR,CLEAR,CLEAR","Cross-shore,Cross-shore,Onshore,Onshore,Onshore,Onshore",6
5842041f4e65fad6a77089bc,2024_03_08,40.76684246920174,-124.23107,North Jetty,3,1.9333333333333333,2.2266666666666666,11,11,"CLEAR,CLEAR,CLEAR,CLEAR,CLEAR,CLEAR","Offshore,Onshore,Onshore,Onshore,Onshore,Onshore",6
5842041f4e65fad6a77089bd,2024_03_08,41.02731183893966,-124.1149972888982,Westhaven,3.3333333333333335,2.0766666666666667,2.381666666666667,11,11,"CLEAR,CLEAR,CLEAR,CLEAR,CLEAR,MIST","Offshore,Cross-shore,Onshore,Onshore,Onshore,Onshore",6
5842041f4e65fad6a77089be,2024_03_08,41.13016238153297,-124.16466,Sue-meg,3.3333333333333335,1.4283333333333332,1.7149999999999999,11,11,"CLEAR,CLEAR,CLEAR,CLEAR,CLEAR,CLEAR","Offshore,Cross-shore,Cross-shore,Cross-shore,Cross-shore,Cross-shore",6
5842041f4e65fad6a77089bf,2024_03_08,37.8289474958188,-122.5376795097543,Fort Cronkite/Rodeo Beach,2.8333333333333335,0.765,1.0283333333333333,13,13,"CLEAR,CLEAR,CLEAR,CLEAR,CLEAR,CLEAR","Offshore,Offshore,Cross-shore,Offshore,Onshore,Cross-shore",6
5842041f4e65fad6a77089c0,2024_03_08,41.74415759876137,-124.17717,South Beach CA,2.8333333333333335,0.43333333333333335,0.7383333333333333,11,11,"CLEAR,CLEAR,CLEAR,CLEAR,CLEAR,CLEAR","Cross-shore,Cross-shore,Onshore,Onshore,Cross-shore,Onshore",6
5842041f4e65fad6a77089c1,2024_03_08,37.89801283969752,-122.64519,Stinson Beach,2,0.195,0.49666666666666665,13,13,"CLEAR,CLEAR,CLEAR,CLEAR,CLEAR,CLEAR","Cross-shore,Offshore,Offshore,Cross-shore,Cross-shore,Offshore",6
5842041f4e65fad6a77089c2,2024_03_08,37.90514516176495,-122.68151,Bolinas,2,0.25881333333333334,0.4043966666666667,13,13,"CLEAR,CLEAR,CLEAR,CLEAR,CLEAR,CLEAR","Cross-shore,Offshore,Offshore,Offshore,Offshore,Offshore",6
5842041f4e65fad6a77089c3,2024_03_08,38.04892513158693,-122.9892494965416,Point Reyes (north),3,1.2983333333333333,1.5566666666666666,13,13,"CLEAR,CLEAR,CLEAR,CLEAR,CLEAR,MOSTLY_CLEAR","Cross-shore,Onshore,Onshore,Onshore,Onshore,Onshore",6
5842041f4e65fad6a77089c6,2024_03_08,38.31088736605785,-123.0496777333731,Doran Beach,1,0,0.29833333333333334,13,13,"CLEAR,CLEAR,CLEAR,CLEAR,CLEAR,CLEAR","Cross-shore,Onshore,Onshore,Cross-shore,Cross-shore,Cross-shore",6
5842041f4e65fad6a77089c7,2024_03_08,38.45077228660809,-123.13008,Russian Rivermouth,2.8333333333333335,0.8666666666666667,1.0933333333333333,13,13,"CLEAR,CLEAR,CLEAR,CLEAR,CLEAR,CLEAR","Onshore,Onshore,Onshore,Onshore,Onshore,Onshore",6
5842041f4e65fad6a77089c8,2024_03_08,38.35329968518107,-123.06906,Salmon Creek,3,1.0116666666666667,1.26,13,13,"CLEAR,CLEAR,CLEAR,CLEAR,CLEAR,CLEAR","Offshore,Cross-shore,Onshore,Onshore,Onshore,Onshore",6
5842041f4e65fad6a77089c9,2024_03_08,38.6845180197959,-123.4322714291198,Black Point Beach,3,0.37833333333333335,0.6833333333333333,13,13,"CLEAR,CLEAR,CLEAR,CLEAR,CLEAR,CLEAR","Offshore,Offshore,Cross-shore,Cross-shore,Onshore,Onshore",6
5842041f4e65fad6a77089ca,2024_03_08,43.251076,-70.59144,Ogunquit,2.270625,1.3098666666666667,1.6559791666666668,4,3,"NIGHT_CLEAR,NIGHT_CLEAR,NIGHT_CLEAR,NIGHT_CLEAR,NIGHT_CLEAR,CLEAR,CLEAR,CLEAR,CLEAR,CLEAR,CLEAR,CLEAR,CLEAR,CLEAR,CLEAR,CLEAR","Cross-shore,Cross-shore,Cross-shore,Cross-shore,Cross-shore,Cross-shore,Cross-shore,Cross-shore,Cross-shore,Cross-shore,Cross-shore,Cross-shore,Onshore,Onshore,Onshore,Onshore",16
5842041f4e65fad6a77089cb,2024_03_08,41.362631366305415,-71.48006772942608,Point Judith,0.876875,0.5334958333333334,0.9394145833333333,6,4,"NIGHT_CLEAR,NIGHT_CLEAR,NIGHT_CLEAR,NIGHT_CLEAR,NIGHT_CLEAR,CLEAR,CLEAR,CLEAR,CLEAR,CLEAR,CLEAR,CLEAR,CLEAR,CLEAR,CLEAR,CLEAR","Onshore,Onshore,Onshore,Onshore,Onshore,Onshore,Cross-shore,Cross-shore,Cross-shore,Onshore,Onshore,Onshore,Onshore,Onshore,Onshore,Onshore",16
5842041f4e65fad6a77089cd,2024_03_08,41.422678090954726,-71.45413,Monahan's - Narragansett,0.8125,0.4395775,0.68684,5.3125,5.3125,"NIGHT_CLEAR,NIGHT_CLEAR,NIGHT_CLEAR,NIGHT_CLEAR,NIGHT_CLEAR,CLEAR,CLEAR,CLEAR,CLEAR,CLEAR,CLEAR,CLEAR,CLEAR,CLEAR,CLEAR,CLEAR","Cross-shore,Cross-shore,Cross-shore,Cross-shore,Cross-shore,Cross-shore,Cross-shore,Cross-shore,Cross-shore,Cross-shore,Cross-shore,Cross-shore,Cross-shore,Cross-shore,Cross-shore,Cross-shore",16
5842041f4e65fad6a77089ce,2024_03_08,41.469,-71.293,Ruggles - Newport,2.3125,0.57887,0.904484375,5.3125,5.3125,"NIGHT_CLEAR,NIGHT_CLEAR,NIGHT_CLEAR,NIGHT_CLEAR,NIGHT_CLEAR,CLEAR,CLEAR,CLEAR,CLEAR,CLEAR,CLEAR,CLEAR,CLEAR,CLEAR,CLEAR,CLEAR","Offshore,Offshore,Offshore,Offshore,Offshore,Offshore,Offshore,Offshore,Offshore,Offshore,Offshore,Offshore,Offshore,Offshore,Offshore,Offshore",16
5842041f4e65fad6a77089cf,2024_03_08,43.175394,-70.606351,Short Sands Beach,2,1.19125,1.495,5,5,"NIGHT_CLEAR,NIGHT_CLEAR,NIGHT_CLEAR,NIGHT_CLEAR,NIGHT_CLEAR,CLEAR,CLEAR,CLEAR,CLEAR,CLEAR,CLEAR,CLEAR,CLEAR,CLEAR,CLEAR,CLEAR","Cross-shore,Cross-shore,Cross-shore,Cross-shore,Cross-shore,Cross-shore,Cross-shore,Cross-shore,Cross-shore,Cross-shore,Cross-shore,Onshore,Onshore,Onshore,Onshore,Onshore",16
5842041f4e65fad6a77089d0,2024_03_08,41.487408,-71.29017,First Beach,1.75,0.331875,0.635625,5,5,"NIGHT_CLEAR,NIGHT_CLEAR,NIGHT_CLEAR,NIGHT_CLEAR,NIGHT_CLEAR,CLEAR,CLEAR,CLEAR,CLEAR,CLEAR,CLEAR,CLEAR,CLEAR,CLEAR,CLEAR,CLEAR","Offshore,Offshore,Offshore,Offshore,Offshore,Offshore,Offshore,Offshore,Offshore,Offshore,Offshore,Offshore,Offshore,Offshore,Offshore,Offshore",16
5842041f4e65fad6a77089d1,2024_03_08,42.27916830233153,-70.86498,Nantasket Beach,1.145625,1.1640854166666668,1.5332895833333333,4,3,"NIGHT_CLEAR,NIGHT_CLEAR,NIGHT_CLEAR,NIGHT_CLEAR,NIGHT_CLEAR,CLEAR,CLEAR,CLEAR,CLEAR,CLEAR,CLEAR,CLEAR,CLEAR,CLEAR,CLEAR,CLEAR","Onshore,Onshore,Onshore,Onshore,Onshore,Onshore,Onshore,Onshore,Onshore,Onshore,Onshore,Onshore,Onshore,Onshore,Onshore,Onshore",16
5842041f4e65fad6a77089d2,2024_03_08,41.817,-69.935,Cape Cod,0,2.28875,2.548125,5,5,"NIGHT_CLEAR,NIGHT_CLEAR,NIGHT_CLEAR,NIGHT_CLEAR,NIGHT_CLEAR,CLEAR,CLEAR,CLEAR,CLEAR,CLEAR,CLEAR,CLEAR,CLEAR,CLEAR,CLEAR,CLEAR","Cross-shore,Cross-shore,Cross-shore,Cross-shore,Cross-shore,Cross-shore,Cross-shore,Cross-shore,Cross-shore,Cross-shore,Cross-shore,Cross-shore,Cross-shore,Cross-shore,Cross-shore,Cross-shore",16
5842041f4e65fad6a77089d3,2024_03_08,42.22055448975661,-70.70634873403819,Egypt Beach,0.5625,1.568125,1.8543749999999999,4,4,"NIGHT_CLEAR,NIGHT_CLEAR,NIGHT_CLEAR,NIGHT_CLEAR,NIGHT_CLEAR,CLEAR,CLEAR,CLEAR,CLEAR,CLEAR,CLEAR,CLEAR,CLEAR,CLEAR,CLEAR,CLEAR","Onshore,Onshore,Onshore,Onshore,Onshore,Onshore,Onshore,Onshore,Cross-shore,Cross-shore,Onshore,Onshore,Onshore,Onshore,Onshore,Onshore",16
5842041f4e65fad6a77089d4,2024_03_08,41.48739647744607,-71.25723,Second Beach,1.71875,0.33351078125,0.5954250520833333,6,4,"NIGHT_CLEAR,NIGHT_CLEAR,NIGHT_CLEAR,NIGHT_CLEAR,NIGHT_CLEAR,CLEAR,CLEAR,CLEAR,CLEAR,CLEAR,CLEAR,CLEAR,CLEAR,CLEAR,CLEAR,CLEAR","Offshore,Offshore,Offshore,Offshore,Offshore,Offshore,Offshore,Offshore,Offshore,Offshore,Offshore,Offshore,Offshore,Offshore,Offshore,Offshore",16
5842041f4e65fad6a77089d5,2024_03_08,42.964,-70.769,Fox Hill,2.208125,0.8904916666666667,1.1808750000000001,4,3,"NIGHT_CLEAR,NIGHT_CLEAR,NIGHT_CLEAR,NIGHT_CLEAR,NIGHT_CLEAR,CLEAR,CLEAR,CLEAR,CLEAR,CLEAR,CLEAR,CLEAR,CLEAR,CLEAR,CLEAR,CLEAR","Offshore,Offshore,Offshore,Offshore,Offshore,Offshore,Offshore,Offshore,Offshore,Offshore,Cross-shore,Cross-shore,Onshore,Onshore,Onshore,Onshore",16
5842041f4e65fad6a77089d6,2024_03_08,42.991359,-70.75149,Straws Point,2.739375,1.17398125,1.47446875,4,3,"NIGHT_CLEAR,NIGHT_CLEAR,NIGHT_CLEAR,NIGHT_CLEAR,NIGHT_CLEAR,CLEAR,CLEAR,CLEAR,CLEAR,CLEAR,CLEAR,CLEAR,CLEAR,CLEAR,CLEAR,CLEAR","Offshore,Offshore,Offshore,Offshore,Offshore,Offshore,Offshore,Offshore,Offshore,Offshore,Offshore,Cross-shore,Cross-shore,Cross-shore,Onshore,Onshore",16
5842041f4e65fad6a77089d7,2024_03_08,42.946,-70.786,Plaice Cove,1.926875,0.8909604166666667,1.18071875,4,3,"NIGHT_CLEAR,NIGHT_CLEAR,NIGHT_CLEAR,NIGHT_CLEAR,NIGHT_CLEAR,CLEAR,CLEAR,CLEAR,CLEAR,CLEAR,CLEAR,CLEAR,CLEAR,CLEAR,CLEAR,CLEAR","Cross-shore,Cross-shore,Cross-shore,Cross-shore,Cross-shore,Cross-shore,Cross-shore,Cross-shore,Cross-shore,Cross-shore,Cross-shore,Onshore,Onshore,Onshore,Onshore,Onshore",16
5842041f4e65fad6a77089d9,2024_03_08,42.911574,-70.80831,The Main Beach,2.260625,1.0069422916666666,1.4515065625,4,3,"NIGHT_CLEAR,NIGHT_CLEAR,NIGHT_CLEAR,NIGHT_CLEAR,NIGHT_CLEAR,CLEAR,CLEAR,CLEAR,CLEAR,CLEAR,CLEAR,CLEAR,CLEAR,CLEAR,CLEAR,CLEAR","Offshore,Offshore,Offshore,Offshore,Offshore,Offshore,Offshore,Offshore,Offshore,Offshore,Offshore,Cross-shore,Cross-shore,Cross-shore,Cross-shore,Cross-shore",16
5842041f4e65fad6a77089da,2024_03_08,42.97583846220203,-70.764,Sawyer's Beach,2.551875,0.9804916666666667,1.2467604166666666,4,3,"NIGHT_CLEAR,NIGHT_CLEAR,NIGHT_CLEAR,NIGHT_CLEAR,NIGHT_CLEAR,CLEAR,CLEAR,CLEAR,CLEAR,CLEAR,CLEAR,CLEAR,CLEAR,CLEAR,CLEAR,CLEAR","Cross-shore,Offshore,Offshore,Offshore,Cross-shore,Cross-shore,Cross-shore,Cross-shore,Cross-shore,Offshore,Cross-shore,Cross-shore,Onshore,Onshore,Onshore,Onshore",16
5842041f4e65fad6a77089db,2024_03_08,42.97,-70.77,Rye on the Rocks / 5-0's,2.010625,0.9931615625000001,1.35690921875,4,3,"NIGHT_CLEAR,NIGHT_CLEAR,NIGHT_CLEAR,NIGHT_CLEAR,NIGHT_CLEAR,CLEAR,CLEAR,CLEAR,CLEAR,CLEAR,CLEAR,CLEAR,CLEAR,CLEAR,CLEAR,CLEAR","Offshore,Offshore,Offshore,Offshore,Offshore,Offshore,Offshore,Offshore,Offshore,Offshore,Offshore,Cross-shore,Cross-shore,Onshore,Onshore,Onshore",16
5842041f4e65fad6a77089dc,2024_03_08,43.55902946610303,-70.27795,Higgins Beach,2.875,0.5514958333333334,0.9033208333333332,4,3,"NIGHT_CLEAR,NIGHT_CLEAR,NIGHT_CLEAR,NIGHT_CLEAR,NIGHT_CLEAR,CLEAR,CLEAR,CLEAR,CLEAR,CLEAR,CLEAR,CLEAR,CLEAR,CLEAR,CLEAR,CLEAR","Offshore,Offshore,Offshore,Offshore,Offshore,Offshore,Offshore,Offshore,Offshore,Offshore,Offshore,Offshore,Offshore,Offshore,Offshore,Cross-shore",16
5842041f4e65fad6a77089dd,2024_03_08,43.302676,-70.5652,Wells Beach,2.239375,0.9441375,1.265875,4,3,"NIGHT_CLEAR,NIGHT_CLEAR,NIGHT_CLEAR,NIGHT_CLEAR,NIGHT_CLEAR,CLEAR,CLEAR,CLEAR,CLEAR,CLEAR,CLEAR,CLEAR,CLEAR,CLEAR,CLEAR,CLEAR","Cross-shore,Cross-shore,Cross-shore,Cross-shore,Cross-shore,Cross-shore,Cross-shore,Cross-shore,Cross-shore,Cross-shore,Cross-shore,Cross-shore,Onshore,Onshore,Onshore,Onshore",16
5842041f4e65fad6a77089de,2024_03_08,43.545359,-70.30479,Scarborough Beach State Park,2.5,0.9056361979166667,1.2870638541666666,4,3,"NIGHT_CLEAR,NIGHT_CLEAR,NIGHT_CLEAR,NIGHT_CLEAR,NIGHT_CLEAR,CLEAR,CLEAR,CLEAR,CLEAR,CLEAR,CLEAR,CLEAR,CLEAR,CLEAR,CLEAR,CLEAR","Offshore,Offshore,Offshore,Offshore,Offshore,Offshore,Offshore,Offshore,Offshore,Offshore,Offshore,Offshore,Offshore,Cross-shore,Cross-shore,Cross-shore",16
5842041f4e65fad6a77089df,2024_03_08,43.514481,-70.372146,Old Orchard Beach,2.741875,0.6603041666666667,1.0139854166666666,4,3,"NIGHT_CLEAR,NIGHT_CLEAR,NIGHT_CLEAR,NIGHT_CLEAR,NIGHT_CLEAR,CLEAR,CLEAR,CLEAR,CLEAR,CLEAR,CLEAR,CLEAR,CLEAR,CLEAR,CLEAR,CLEAR","Offshore,Offshore,Offshore,Offshore,Offshore,Offshore,Offshore,Offshore,Offshore,Offshore,Offshore,Offshore,Cross-shore,Cross-shore,Cross-shore,Onshore",16
5842041f4e65fad6a77089e0,2024_03_08,43.34711,-70.48165,Gooch's Beach,3.229375,0.6270166666666667,1.0177479166666665,4,3,"NIGHT_CLEAR,NIGHT_CLEAR,NIGHT_CLEAR,NIGHT_CLEAR,NIGHT_CLEAR,CLEAR,CLEAR,CLEAR,CLEAR,CLEAR,CLEAR,CLEAR,CLEAR,CLEAR,CLEAR,CLEAR","Offshore,Offshore,Offshore,Offshore,Offshore,Offshore,Offshore,Offshore,Offshore,Offshore,Offshore,Offshore,Offshore,Offshore,Cross-shore,Cross-shore",16
5842041f4e65fad6a77089e2,2024_03_08,40.58433,-73.62953,Lido Beach,2.8875,0.6938729166666667,1.08065,7,6,"NIGHT_CLEAR,NIGHT_CLEAR,NIGHT_CLEAR,NIGHT_CLEAR,NIGHT_CLEAR,CLEAR,CLEAR,CLEAR,CLEAR,CLEAR,CLEAR,CLEAR,CLEAR,CLEAR,CLEAR,CLEAR","Offshore,Offshore,Offshore,Offshore,Offshore,Offshore,Offshore,Offshore,Offshore,Offshore,Offshore,Onshore,Onshore,Onshore,Onshore,Onshore",16
5842041f4e65fad6a77089e3,2024_03_08,43.163135,-70.61689,Long Sands Beach,2.7,0.7117513333333333,1.0703422916666667,4,3,"NIGHT_CLEAR,NIGHT_CLEAR,NIGHT_CLEAR,NIGHT_CLEAR,NIGHT_CLEAR,CLEAR,CLEAR,CLEAR,CLEAR,CLEAR,CLEAR,CLEAR,CLEAR,CLEAR,CLEAR,CLEAR","Offshore,Offshore,Offshore,Offshore,Offshore,Offshore,Offshore,Offshore,Offshore,Offshore,Offshore,Offshore,Cross-shore,Cross-shore,Cross-shore,Cross-shore",16
5842041f4e65fad6a77089e4,2024_03_08,40.61695351251805,-73.39376,Gilgo Beach,2.760625,0.6509416666666666,0.9970541666666667,5,4,"NIGHT_CLEAR,NIGHT_CLEAR,NIGHT_CLEAR,NIGHT_CLEAR,NIGHT_CLEAR,CLEAR,CLEAR,CLEAR,CLEAR,CLEAR,CLEAR,CLEAR,CLEAR,CLEAR,CLEAR,CLEAR","Offshore,Offshore,Offshore,Offshore,Offshore,Offshore,Offshore,Offshore,Offshore,Offshore,Offshore,Offshore,Offshore,Offshore,Onshore,Onshore",16
5842041f4e65fad6a77089e5,2024_03_08,40.62530081928036,-73.23827,Robert Moses,2.3125,0.51875,0.825,5.625,5.625,"NIGHT_CLEAR,NIGHT_CLEAR,NIGHT_CLEAR,NIGHT_CLEAR,NIGHT_CLEAR,CLEAR,CLEAR,CLEAR,CLEAR,CLEAR,CLEAR,CLEAR,CLEAR,CLEAR,CLEAR,CLEAR","Offshore,Offshore,Offshore,Offshore,Offshore,Offshore,Offshore,Offshore,Offshore,Offshore,Offshore,Offshore,Offshore,Offshore,Onshore,Onshore",16
5842041f4e65fad6a77089e6,2024_03_08,40.64313317632791,-73.15727,Fire Island,2.375,0.52625,0.833125,5.625,5.625,"NIGHT_CLEAR,NIGHT_CLEAR,NIGHT_CLEAR,NIGHT_CLEAR,NIGHT_CLEAR,CLEAR,CLEAR,CLEAR,CLEAR,CLEAR,CLEAR,CLEAR,CLEAR,CLEAR,CLEAR,CLEAR","Offshore,Offshore,Offshore,Offshore,Offshore,Offshore,Offshore,Offshore,Offshore,Offshore,Offshore,Offshore,Offshore,Offshore,Onshore,Onshore",16
5842041f4e65fad6a77089e8,2024_03_08,40.76653118828782,-72.74579619372713,Cupsogue,3.1875,0.946875,1.201875,5.625,5.625,"NIGHT_CLEAR,NIGHT_CLEAR,NIGHT_CLEAR,NIGHT_CLEAR,NIGHT_CLEAR,CLEAR,CLEAR,CLEAR,CLEAR,CLEAR,CLEAR,CLEAR,CLEAR,CLEAR,CLEAR,CLEAR","Offshore,Offshore,Offshore,Offshore,Offshore,Offshore,Offshore,Offshore,Offshore,Offshore,Offshore,Offshore,Offshore,Offshore,Cross-shore,Onshore",16
5842041f4e65fad6a77089e9,2024_03_08,42.9376373334092,-70.79141,The Wall ,1.8587500000000001,1.1801542708333335,1.7221527604166667,4,3,"NIGHT_CLEAR,NIGHT_CLEAR,NIGHT_CLEAR,NIGHT_CLEAR,NIGHT_CLEAR,CLEAR,CLEAR,CLEAR,CLEAR,CLEAR,CLEAR,CLEAR,CLEAR,CLEAR,CLEAR,CLEAR","Cross-shore,Cross-shore,Cross-shore,Cross-shore,Cross-shore,Cross-shore,Cross-shore,Cross-shore,Cross-shore,Cross-shore,Cross-shore,Onshore,Onshore,Onshore,Onshore,Onshore",16
5842041f4e65fad6a77089ea,2024_03_08,40.887088,-72.33856,Flys,2.875,0.84625,1.10125,5.625,5.625,"NIGHT_CLEAR,NIGHT_CLEAR,NIGHT_CLEAR,NIGHT_CLEAR,NIGHT_CLEAR,CLEAR,CLEAR,CLEAR,CLEAR,CLEAR,CLEAR,CLEAR,CLEAR,CLEAR,CLEAR,CLEAR","Offshore,Offshore,Offshore,Offshore,Offshore,Offshore,Offshore,Offshore,Offshore,Offshore,Offshore,Offshore,Offshore,Offshore,Cross-shore,Cross-shore",16
5842041f4e65fad6a77089eb,2024_03_08,41.0389266436591,-71.91068529316958,Trailer Park,2.865,0.8404955625,1.1725517604166666,5,4,"NIGHT_CLEAR,NIGHT_CLEAR,NIGHT_CLEAR,NIGHT_CLEAR,NIGHT_CLEAR,CLEAR,CLEAR,CLEAR,CLEAR,CLEAR,CLEAR,CLEAR,CLEAR,CLEAR,CLEAR,CLEAR","Offshore,Offshore,Offshore,Offshore,Offshore,Offshore,Offshore,Offshore,Offshore,Offshore,Offshore,Offshore,Offshore,Offshore,Cross-shore,Cross-shore",16
5842041f4e65fad6a77089ec,2024_03_08,41.039505402729105,-71.9142,Ditch Plains,2.75,0.70355875,1.09931,5.3125,5.3125,"NIGHT_CLEAR,NIGHT_CLEAR,NIGHT_CLEAR,NIGHT_CLEAR,NIGHT_CLEAR,CLEAR,CLEAR,CLEAR,CLEAR,CLEAR,CLEAR,CLEAR,CLEAR,CLEAR,CLEAR,CLEAR","Offshore,Offshore,Offshore,Offshore,Offshore,Offshore,Offshore,Offshore,Offshore,Offshore,Offshore,Cross-shore,Cross-shore,Cross-shore,Cross-shore,Cross-shore",16
5842041f4e65fad6a77089ee,2024_03_08,40.57633275206492,-73.56895305108567,"West End, Jones Beach",2.6875,0.6216,1.01108125,7,6,"NIGHT_CLEAR,NIGHT_CLEAR,NIGHT_CLEAR,NIGHT_CLEAR,NIGHT_CLEAR,CLEAR,CLEAR,CLEAR,CLEAR,CLEAR,CLEAR,CLEAR,CLEAR,CLEAR,CLEAR,CLEAR","Offshore,Offshore,Offshore,Offshore,Offshore,Offshore,Offshore,Offshore,Offshore,Offshore,Offshore,Offshore,Offshore,Offshore,Onshore,Onshore",16
5842041f4e65fad6a77089f1,2024_03_08,41.038286691230795,-71.91991567611694,Poles,2.865,0.7954601875,1.1412465729166668,5,4,"NIGHT_CLEAR,NIGHT_CLEAR,NIGHT_CLEAR,NIGHT_CLEAR,NIGHT_CLEAR,CLEAR,CLEAR,CLEAR,CLEAR,CLEAR,CLEAR,CLEAR,CLEAR,CLEAR,CLEAR,CLEAR","Offshore,Offshore,Offshore,Offshore,Offshore,Offshore,Offshore,Offshore,Offshore,Offshore,Offshore,Offshore,Offshore,Offshore,Offshore,Cross-shore",16
5842041f4e65fad6a77089f3,2024_03_08,40.84077769766295,-72.47989493724765,The Bowl,2.9375,0.83875,1.093125,5.625,5.625,"NIGHT_CLEAR,NIGHT_CLEAR,NIGHT_CLEAR,NIGHT_CLEAR,NIGHT_CLEAR,CLEAR,CLEAR,CLEAR,CLEAR,CLEAR,CLEAR,CLEAR,CLEAR,CLEAR,CLEAR,CLEAR","Offshore,Offshore,Offshore,Offshore,Offshore,Offshore,Offshore,Offshore,Offshore,Offshore,Offshore,Offshore,Offshore,Offshore,Cross-shore,Cross-shore",16
5842041f4e65fad6a77089f4,2024_03_08,40.94235535243154,-72.19286,Main Beach,2.354375,0.7463916666666667,1.06786875,13,12,"NIGHT_CLEAR,NIGHT_CLEAR,NIGHT_CLEAR,NIGHT_CLEAR,NIGHT_CLEAR,CLEAR,CLEAR,CLEAR,CLEAR,CLEAR,CLEAR,CLEAR,CLEAR,CLEAR,CLEAR,CLEAR","Offshore,Offshore,Offshore,Offshore,Offshore,Offshore,Offshore,Offshore,Offshore,Offshore,Offshore,Offshore,Offshore,Offshore,Offshore,Cross-shore",16
5842041f4e65fad6a77089f5,2024_03_08,40.58270702399518,-73.67251552079799,Laurelton Blvd.,2.6875,0.64645834375,0.9398933229166667,7,6,"NIGHT_CLEAR,NIGHT_CLEAR,NIGHT_CLEAR,NIGHT_CLEAR,NIGHT_MIST,CLEAR,MIST,CLEAR,CLEAR,CLEAR,CLEAR,CLEAR,CLEAR,CLEAR,CLEAR,CLEAR","Offshore,Offshore,Offshore,Offshore,Offshore,Offshore,Offshore,Offshore,Offshore,Offshore,Offshore,Onshore,Onshore,Onshore,Onshore,Onshore",16
5842041f4e65fad6a77089f6,2024_03_08,41.033752854071416,-71.93695522488403,Terrace,2.873125,0.7451270833333333,1.0895479166666666,5,4,"NIGHT_CLEAR,NIGHT_CLEAR,NIGHT_CLEAR,NIGHT_CLEAR,NIGHT_CLEAR,CLEAR,CLEAR,CLEAR,CLEAR,CLEAR,CLEAR,CLEAR,CLEAR,CLEAR,CLEAR,CLEAR","Offshore,Offshore,Offshore,Offshore,Offshore,Offshore,Offshore,Offshore,Offshore,Offshore,Offshore,Offshore,Offshore,Offshore,Cross-shore,Cross-shore",16
5842041f4e65fad6a77089f7,2024_03_08,40.83372943645748,-72.50426173210144,K Road,3.1875,1.011875,1.2550000000000001,5.625,5.625,"NIGHT_CLEAR,NIGHT_CLEAR,NIGHT_CLEAR,NIGHT_CLEAR,NIGHT_CLEAR,CLEAR,CLEAR,CLEAR,CLEAR,CLEAR,CLEAR,CLEAR,CLEAR,CLEAR,CLEAR,CLEAR","Offshore,Offshore,Offshore,Offshore,Offshore,Offshore,Offshore,Offshore,Offshore,Offshore,Offshore,Offshore,Offshore,Offshore,Cross-shore,Onshore",16
5842041f4e65fad6a77089f8,2024_03_08,40.58456099581507,-73.80730032920837,84th Street,3.0875,0.8675854166666667,1.1673395833333333,7,6,"NIGHT_CLEAR,NIGHT_CLEAR,NIGHT_CLEAR,NIGHT_CLEAR,NIGHT_CLEAR,CLEAR,MIST,CLEAR,CLEAR,CLEAR,CLEAR,CLEAR,CLEAR,CLEAR,CLEAR,CLEAR","Offshore,Offshore,Offshore,Offshore,Offshore,Offshore,Offshore,Offshore,Offshore,Offshore,Offshore,Offshore,Offshore,Cross-shore,Onshore,Onshore",16
5842041f4e65fad6a77089fa,2024_03_08,40.1319,-74.02788,Sea Girt,2.27,0.9842,1.3476541666666666,7,6,"NIGHT_CLEAR,NIGHT_CLEAR,NIGHT_CLEAR,NIGHT_CLEAR,NIGHT_CLEAR,CLEAR,CLEAR,CLEAR,CLEAR,CLEAR,CLEAR,CLEAR,CLEAR,CLEAR,CLEAR,CLEAR","Cross-shore,Cross-shore,Cross-shore,Cross-shore,Cross-shore,Cross-shore,Onshore,Onshore,Onshore,Onshore,Onshore,Onshore,Onshore,Onshore,Onshore,Onshore",16
5842041f4e65fad6a77089fb,2024_03_08,40.54698301868125,-73.9268,Breezy Point,2.875,0.576875,0.88125,6.3125,6.3125,"NIGHT_CLEAR,NIGHT_CLEAR,NIGHT_CLEAR,NIGHT_MIST,NIGHT_CLEAR,CLEAR,CLEAR,CLEAR,CLEAR,CLEAR,CLEAR,CLEAR,CLEAR,CLEAR,CLEAR,CLEAR","Offshore,Offshore,Offshore,Offshore,Offshore,Offshore,Offshore,Offshore,Offshore,Offshore,Offshore,Offshore,Offshore,Offshore,Onshore,Onshore",16
5842041f4e65fad6a77089fc,2024_03_08,40.152504,-74.021383,Spring Lake,2.218125,0.9511270833333333,1.2797666666666667,7,6,"NIGHT_CLEAR,NIGHT_CLEAR,NIGHT_CLEAR,NIGHT_CLEAR,NIGHT_CLEAR,CLEAR,CLEAR,CLEAR,CLEAR,CLEAR,CLEAR,CLEAR,CLEAR,CLEAR,CLEAR,CLEAR","Cross-shore,Cross-shore,Cross-shore,Cross-shore,Cross-shore,Cross-shore,Onshore,Onshore,Onshore,Onshore,Onshore,Onshore,Onshore,Onshore,Onshore,Onshore",16
5842041f4e65fad6a77089fd,2024_03_08,40.591277,-73.770792,30th - 39th Streets,2.6875,0.56394375,0.8720875,7,6,"NIGHT_CLEAR,NIGHT_CLEAR,NIGHT_CLEAR,NIGHT_MIST,NIGHT_CLEAR,CLEAR,CLEAR,CLEAR,CLEAR,CLEAR,CLEAR,CLEAR,CLEAR,CLEAR,CLEAR,CLEAR","Offshore,Offshore,Offshore,Offshore,Offshore,Offshore,Offshore,Offshore,Offshore,Offshore,Offshore,Offshore,Offshore,Offshore,Onshore,Onshore",16
5842041f4e65fad6a77089fe,2024_03_08,40.18834955871439,-74.00860982500222,Avon,2.208125,0.9888354166666666,1.3236729166666668,7,6,"NIGHT_CLEAR,NIGHT_CLEAR,NIGHT_CLEAR,NIGHT_CLEAR,NIGHT_CLEAR,CLEAR,CLEAR,CLEAR,CLEAR,CLEAR,CLEAR,CLEAR,CLEAR,CLEAR,CLEAR,CLEAR","Cross-shore,Cross-shore,Cross-shore,Cross-shore,Cross-shore,Cross-shore,Onshore,Onshore,Onshore,Onshore,Onshore,Onshore,Onshore,Onshore,Cross-shore,Onshore",16
5842041f4e65fad6a77089ff,2024_03_08,40.1974229100932,-74.00650533798255,Bradley Beach,2.145625,0.9470125,1.2684125,7,6,"NIGHT_CLEAR,NIGHT_CLEAR,NIGHT_CLEAR,NIGHT_CLEAR,NIGHT_CLEAR,CLEAR,CLEAR,CLEAR,CLEAR,CLEAR,CLEAR,CLEAR,CLEAR,CLEAR,CLEAR,CLEAR","Cross-shore,Onshore,Cross-shore,Cross-shore,Cross-shore,Cross-shore,Onshore,Onshore,Onshore,Onshore,Onshore,Onshore,Onshore,Cross-shore,Cross-shore,Cross-shore",16
5842041f4e65fad6a7708a01,2024_03_08,40.17202,-74.01503,"16th Ave., Belmar",1.59375,0.9384708333333334,1.2580479166666667,7,6,"NIGHT_CLEAR,NIGHT_CLEAR,NIGHT_CLEAR,NIGHT_CLEAR,NIGHT_CLEAR,CLEAR,CLEAR,CLEAR,CLEAR,CLEAR,CLEAR,CLEAR,CLEAR,CLEAR,CLEAR,CLEAR","Cross-shore,Onshore,Cross-shore,Cross-shore,Cross-shore,Cross-shore,Onshore,Onshore,Onshore,Onshore,Onshore,Onshore,Onshore,Cross-shore,Cross-shore,Cross-shore",16
5842041f4e65fad6a7708a02,2024_03_08,40.217443,-73.99982,Asbury Park,2.155625,0.9486270833333333,1.25919375,7,6,"NIGHT_CLEAR,NIGHT_CLEAR,NIGHT_CLEAR,NIGHT_CLEAR,NIGHT_CLEAR,CLEAR,CLEAR,CLEAR,CLEAR,CLEAR,CLEAR,CLEAR,CLEAR,CLEAR,CLEAR,CLEAR","Cross-shore,Cross-shore,Cross-shore,Cross-shore,Cross-shore,Cross-shore,Onshore,Onshore,Onshore,Onshore,Onshore,Onshore,Onshore,Onshore,Cross-shore,Onshore",16
5842041f4e65fad6a7708a03,2024_03_08,40.229841,-73.996782,Loch Arbour and Deal,2.3125,0.95060625,1.2753916666666667,7,6,"NIGHT_CLEAR,NIGHT_CLEAR,NIGHT_CLEAR,NIGHT_CLEAR,NIGHT_CLEAR,CLEAR,CLEAR,CLEAR,CLEAR,CLEAR,CLEAR,CLEAR,CLEAR,CLEAR,CLEAR,CLEAR","Cross-shore,Cross-shore,Offshore,Offshore,Offshore,Cross-shore,Cross-shore,Cross-shore,Cross-shore,Cross-shore,Cross-shore,Cross-shore,Cross-shore,Cross-shore,Onshore,Onshore",16
5842041f4e65fad6a7708a05,2024_03_08,40.41754,-73.97935,Sandy Hook,1.875,0.32125,0.625,6.3125,6.3125,"NIGHT_CLEAR,NIGHT_CLEAR,NIGHT_CLEAR,NIGHT_CLEAR,NIGHT_CLEAR,CLEAR,CLEAR,CLEAR,CLEAR,CLEAR,CLEAR,CLEAR,CLEAR,CLEAR,CLEAR,CLEAR","Cross-shore,Cross-shore,Cross-shore,Offshore,Offshore,Cross-shore,Cross-shore,Cross-shore,Cross-shore,Cross-shore,Cross-shore,Onshore,Cross-shore,Offshore,Onshore,Onshore",16
5842041f4e65fad6a7708a06,2024_03_08,39.36353,-74.40873,Crystals,2.073125,0.8314371875,1.3536917708333334,7.5,6,"NIGHT_CLEAR,NIGHT_CLEAR,NIGHT_CLEAR,NIGHT_CLEAR,NIGHT_CLEAR,CLEAR,CLEAR,CLEAR,CLEAR,CLEAR,CLEAR,CLEAR,CLEAR,CLEAR,CLEAR,CLEAR","Offshore,Offshore,Offshore,Offshore,Offshore,Offshore,Offshore,Offshore,Offshore,Cross-shore,Cross-shore,Cross-shore,Cross-shore,Cross-shore,Cross-shore,Cross-shore",16
5842041f4e65fad6a7708a07,2024_03_08,39.31443,-74.51863,32nd Street,1.6825,0.8522565104166666,1.2086173958333333,7.5,6,"NIGHT_CLEAR,NIGHT_CLEAR,NIGHT_CLEAR,NIGHT_CLEAR,NIGHT_CLEAR,CLEAR,CLEAR,CLEAR,CLEAR,CLEAR,CLEAR,CLEAR,CLEAR,CLEAR,CLEAR,CLEAR","Offshore,Offshore,Offshore,Offshore,Offshore,Offshore,Offshore,Cross-shore,Cross-shore,Cross-shore,Cross-shore,Cross-shore,Cross-shore,Cross-shore,Cross-shore,Cross-shore",16
5842041f4e65fad6a7708a08,2024_03_08,39.327688,-74.49524,Margate Pier Northside,1.6825,0.8520321354166667,1.2082667708333334,7.5,6,"NIGHT_CLEAR,NIGHT_CLEAR,NIGHT_CLEAR,NIGHT_CLEAR,NIGHT_CLEAR,CLEAR,CLEAR,CLEAR,CLEAR,CLEAR,CLEAR,CLEAR,CLEAR,CLEAR,CLEAR,CLEAR","Offshore,Offshore,Offshore,Offshore,Offshore,Offshore,Offshore,Cross-shore,Cross-shore,Cross-shore,Cross-shore,Cross-shore,Cross-shore,Cross-shore,Cross-shore,Cross-shore",16
5842041f4e65fad6a7708a09,2024_03_08,39.336276,-74.47782,Ventnor Pier,2,0.8395945833333333,1.3664357291666667,7.5,6,"NIGHT_CLEAR,NIGHT_CLEAR,NIGHT_CLEAR,NIGHT_CLEAR,NIGHT_CLEAR,CLEAR,CLEAR,CLEAR,CLEAR,CLEAR,CLEAR,CLEAR,CLEAR,CLEAR,CLEAR,CLEAR","Offshore,Offshore,Offshore,Offshore,Offshore,Offshore,Offshore,Offshore,Offshore,Cross-shore,Cross-shore,Cross-shore,Cross-shore,Cross-shore,Cross-shore,Cross-shore",16
5842041f4e65fad6a7708a0a,2024_03_08,39.35929751441085,-74.41683,States Avenue,2.09375,0.8320217708333333,1.3546042708333335,7.3125,6,"NIGHT_CLEAR,NIGHT_CLEAR,NIGHT_CLEAR,NIGHT_CLEAR,NIGHT_CLEAR,CLEAR,CLEAR,CLEAR,CLEAR,CLEAR,CLEAR,CLEAR,CLEAR,CLEAR,CLEAR,CLEAR","Offshore,Offshore,Offshore,Offshore,Offshore,Offshore,Offshore,Offshore,Offshore,Cross-shore,Cross-shore,Cross-shore,Cross-shore,Cross-shore,Cross-shore,Cross-shore",16
5842041f4e65fad6a7708a0b,2024_03_08,39.37274173278517,-74.40454,Brigantine Jetty,2.145625,0.8059009375,1.3137917187500001,7.5,6,"NIGHT_CLEAR,NIGHT_CLEAR,NIGHT_CLEAR,NIGHT_CLEAR,NIGHT_CLEAR,CLEAR,CLEAR,CLEAR,CLEAR,CLEAR,CLEAR,CLEAR,CLEAR,CLEAR,CLEAR,CLEAR","Offshore,Offshore,Offshore,Offshore,Offshore,Offshore,Offshore,Offshore,Offshore,Offshore,Offshore,Offshore,Offshore,Offshore,Cross-shore,Cross-shore",16
5842041f4e65fad6a7708a0c,2024_03_08,39.356505,-74.42263,South Carolina Avenue,2.145625,0.8055890625,1.31330546875,7.5,6,"NIGHT_CLEAR,NIGHT_CLEAR,NIGHT_CLEAR,NIGHT_CLEAR,NIGHT_CLEAR,CLEAR,CLEAR,CLEAR,CLEAR,CLEAR,CLEAR,CLEAR,CLEAR,CLEAR,CLEAR,CLEAR","Offshore,Offshore,Offshore,Offshore,Offshore,Offshore,Offshore,Offshore,Offshore,Offshore,Offshore,Offshore,Offshore,Offshore,Cross-shore,Cross-shore",16
5842041f4e65fad6a7708a0d,2024_03_08,39.413485,-74.35476,14th Street North,2.114375,0.8992916666666667,1.3783854166666667,7.5,6,"NIGHT_CLEAR,NIGHT_CLEAR,NIGHT_CLEAR,NIGHT_CLEAR,NIGHT_CLEAR,CLEAR,CLEAR,CLEAR,CLEAR,CLEAR,CLEAR,CLEAR,CLEAR,CLEAR,CLEAR,CLEAR","Offshore,Offshore,Offshore,Offshore,Offshore,Offshore,Offshore,Cross-shore,Cross-shore,Cross-shore,Cross-shore,Cross-shore,Cross-shore,Cross-shore,Cross-shore,Cross-shore",16
5842041f4e65fad6a7708a0e,2024_03_08,39.531319,-74.263252,The Wooden Jetty,1.609375,0.9321405208333333,1.3738794791666666,7.5,6,"NIGHT_CLEAR,NIGHT_CLEAR,NIGHT_CLEAR,NIGHT_CLEAR,NIGHT_CLEAR,CLEAR,CLEAR,CLEAR,CLEAR,CLEAR,CLEAR,CLEAR,CLEAR,CLEAR,CLEAR,CLEAR","Offshore,Offshore,Offshore,Offshore,Offshore,Offshore,Offshore,Cross-shore,Offshore,Offshore,Cross-shore,Cross-shore,Cross-shore,Cross-shore,Cross-shore,Cross-shore",16
5842041f4e65fad6a7708a0f,2024_03_08,39.552472,-74.24344,Holyoke,1.645625,0.8544699479166666,1.3867016145833333,7.5,6,"NIGHT_CLEAR,NIGHT_CLEAR,NIGHT_CLEAR,NIGHT_CLEAR,NIGHT_CLEAR,CLEAR,CLEAR,CLEAR,CLEAR,CLEAR,CLEAR,CLEAR,CLEAR,CLEAR,CLEAR,CLEAR","Offshore,Offshore,Offshore,Offshore,Offshore,Offshore,Offshore,Cross-shore,Cross-shore,Cross-shore,Cross-shore,Cross-shore,Cross-shore,Cross-shore,Cross-shore,Cross-shore",16
5842041f4e65fad6a7708a10,2024_03_08,39.692364,-74.14068,Hudson Ave.,1.625,1.1365416666666668,1.4339375,7.5,6,"NIGHT_CLEAR,NIGHT_CLEAR,NIGHT_CLEAR,NIGHT_CLEAR,NIGHT_CLEAR,CLEAR,CLEAR,CLEAR,CLEAR,CLEAR,CLEAR,CLEAR,CLEAR,CLEAR,CLEAR,CLEAR","Offshore,Offshore,Offshore,Offshore,Offshore,Offshore,Offshore,Offshore,Offshore,Offshore,Offshore,Offshore,Offshore,Cross-shore,Cross-shore,Cross-shore",16
5842041f4e65fad6a7708a11,2024_03_08,39.79614,-74.09248,Island Beach State Park,1.9275,1.2164333333333333,1.4969479166666666,7,6,"NIGHT_CLEAR,NIGHT_CLEAR,NIGHT_CLEAR,NIGHT_CLEAR,NIGHT_CLEAR,CLEAR,CLEAR,CLEAR,CLEAR,CLEAR,CLEAR,CLEAR,CLEAR,CLEAR,CLEAR,CLEAR","Cross-shore,Cross-shore,Cross-shore,Offshore,Offshore,Offshore,Cross-shore,Cross-shore,Cross-shore,Cross-shore,Cross-shore,Cross-shore,Cross-shore,Cross-shore,Onshore,Onshore",16
5842041f4e65fad6a7708a12,2024_03_08,39.91813588078152,-74.07527,Seaside Park,1.875,1.11450625,1.42465625,7,6,"NIGHT_CLEAR,NIGHT_CLEAR,NIGHT_CLEAR,NIGHT_CLEAR,NIGHT_CLEAR,CLEAR,CLEAR,CLEAR,CLEAR,CLEAR,CLEAR,CLEAR,CLEAR,CLEAR,CLEAR,CLEAR","Cross-shore,Cross-shore,Cross-shore,Offshore,Offshore,Offshore,Cross-shore,Cross-shore,Cross-shore,Cross-shore,Cross-shore,Cross-shore,Cross-shore,Cross-shore,Onshore,Onshore",16
5842041f4e65fad6a7708a14,2024_03_08,39.946638,-74.06884,Seaside Heights,2.25,1.0465437499999999,1.5214270833333334,7,6,"NIGHT_CLEAR,NIGHT_CLEAR,NIGHT_CLEAR,NIGHT_CLEAR,NIGHT_CLEAR,CLEAR,CLEAR,CLEAR,CLEAR,CLEAR,CLEAR,CLEAR,CLEAR,CLEAR,CLEAR,CLEAR","Cross-shore,Cross-shore,Offshore,Offshore,Offshore,Offshore,Cross-shore,Cross-shore,Cross-shore,Cross-shore,Cross-shore,Cross-shore,Cross-shore,Cross-shore,Onshore,Onshore",16
5842041f4e65fad6a7708a15,2024_03_08,39.95745637606704,-74.06736,Ortley Beach,2.166875,0.9642520833333333,1.4838979166666666,7,6,"NIGHT_CLEAR,NIGHT_CLEAR,NIGHT_CLEAR,NIGHT_CLEAR,NIGHT_CLEAR,CLEAR,CLEAR,CLEAR,CLEAR,CLEAR,CLEAR,CLEAR,CLEAR,CLEAR,CLEAR,CLEAR","Cross-shore,Cross-shore,Offshore,Offshore,Offshore,Offshore,Cross-shore,Cross-shore,Cross-shore,Cross-shore,Cross-shore,Cross-shore,Cross-shore,Cross-shore,Onshore,Onshore",16
5842041f4e65fad6a7708a16,2024_03_08,39.98313468342945,-74.06265685577506,Lavallette,2.166875,0.9592,1.5158770833333333,7,6,"NIGHT_CLEAR,NIGHT_CLEAR,NIGHT_CLEAR,NIGHT_CLEAR,NIGHT_CLEAR,CLEAR,CLEAR,CLEAR,CLEAR,CLEAR,CLEAR,CLEAR,CLEAR,CLEAR,CLEAR,CLEAR","Cross-shore,Cross-shore,Cross-shore,Offshore,Offshore,Offshore,Cross-shore,Cross-shore,Cross-shore,Cross-shore,Cross-shore,Cross-shore,Cross-shore,Cross-shore,Onshore,Onshore",16
5842041f4e65fad6a7708a17,2024_03_08,40.0699319967757,-74.04144910856634,Bay Head,2.21875,0.95685625,1.5128041666666667,7,6,"NIGHT_CLEAR,NIGHT_CLEAR,NIGHT_CLEAR,NIGHT_CLEAR,NIGHT_CLEAR,CLEAR,CLEAR,CLEAR,CLEAR,CLEAR,CLEAR,CLEAR,CLEAR,CLEAR,CLEAR,CLEAR","Cross-shore,Cross-shore,Offshore,Offshore,Offshore,Cross-shore,Cross-shore,Cross-shore,Cross-shore,Cross-shore,Cross-shore,Cross-shore,Cross-shore,Cross-shore,Onshore,Onshore",16
5842041f4e65fad6a7708a18,2024_03_08,40.094041,-74.034859,Jenkinson's,2.448125,0.9560229166666667,1.52785625,7,6,"NIGHT_CLEAR,NIGHT_CLEAR,NIGHT_CLEAR,NIGHT_CLEAR,NIGHT_CLEAR,CLEAR,CLEAR,CLEAR,CLEAR,CLEAR,CLEAR,CLEAR,CLEAR,CLEAR,CLEAR,CLEAR","Offshore,Offshore,Offshore,Offshore,Offshore,Offshore,Cross-shore,Cross-shore,Cross-shore,Cross-shore,Cross-shore,Cross-shore,Cross-shore,Cross-shore,Onshore,Onshore",16
5842041f4e65fad6a7708a1a,2024_03_08,38.148058,-75.17704,Assateague,1.1875,1.0137375,1.3669604166666667,8,7,"NIGHT_CLEAR,NIGHT_CLEAR,NIGHT_CLEAR,NIGHT_CLEAR,NIGHT_CLEAR,CLEAR,CLEAR,CLEAR,CLEAR,CLEAR,CLEAR,CLEAR,MOSTLY_CLEAR,CLEAR,CLEAR,CLEAR","Cross-shore,Cross-shore,Cross-shore,Cross-shore,Cross-shore,Cross-shore,Cross-shore,Cross-shore,Cross-shore,Cross-shore,Cross-shore,Cross-shore,Cross-shore,Cross-shore,Onshore,Onshore",16
5842041f4e65fad6a7708a1b,2024_03_08,38.33889038664497,-75.08017670566352,North End to Ocean City Inlet,1.291875,1.0106125,1.3811791666666666,8,7,"NIGHT_CLEAR,NIGHT_CLEAR,NIGHT_CLEAR,NIGHT_CLEAR,NIGHT_CLEAR,CLEAR,CLEAR,CLEAR,CLEAR,CLEAR,CLEAR,CLEAR,MOSTLY_CLEAR,CLEAR,CLEAR,CLEAR","Onshore,Onshore,Onshore,Onshore,Onshore,Onshore,Onshore,Onshore,Onshore,Onshore,Onshore,Onshore,Onshore,Onshore,Onshore,Onshore",16
5842041f4e65fad6a7708a1c,2024_03_08,38.603993,-75.06271,Indian River Inlet,1.125,0.8768227083333333,1.339079375,8,7,"NIGHT_CLEAR,NIGHT_CLEAR,NIGHT_CLEAR,NIGHT_CLEAR,NIGHT_CLEAR,CLEAR,CLEAR,CLEAR,CLEAR,CLEAR,CLEAR,CLEAR,CLEAR,CLEAR,CLEAR,CLEAR","Cross-shore,Cross-shore,Cross-shore,Cross-shore,Cross-shore,Cross-shore,Cross-shore,Cross-shore,Onshore,Onshore,Onshore,Onshore,Onshore,Onshore,Onshore,Onshore",16
5842041f4e65fad6a7708a1d,2024_03_08,38.460477,-75.052069,Fenwick Island,1.145625,0.8162895833333333,1.20373125,8,7,"NIGHT_CLEAR,NIGHT_CLEAR,NIGHT_CLEAR,NIGHT_CLEAR,NIGHT_CLEAR,CLEAR,CLEAR,CLEAR,CLEAR,CLEAR,MOSTLY_CLEAR,MOSTLY_CLOUDY,MOSTLY_CLOUDY,CLEAR,CLEAR,CLEAR","Onshore,Onshore,Onshore,Onshore,Onshore,Onshore,Onshore,Onshore,Onshore,Onshore,Onshore,Onshore,Onshore,Onshore,Onshore,Onshore",16
5842041f4e65fad6a7708a1e,2024_03_08,38.538767,-75.05619,Bethany Beach,1.125,0.8681226041666666,1.32548390625,8,7,"NIGHT_CLEAR,NIGHT_CLEAR,NIGHT_CLEAR,NIGHT_CLEAR,NIGHT_CLEAR,CLEAR,CLEAR,CLEAR,CLEAR,CLEAR,CLEAR,CLEAR,CLEAR,CLEAR,CLEAR,CLEAR","Cross-shore,Cross-shore,Cross-shore,Cross-shore,Cross-shore,Cross-shore,Cross-shore,Cross-shore,Onshore,Onshore,Onshore,Onshore,Onshore,Onshore,Onshore,Onshore",16
5842041f4e65fad6a7708a1f,2024_03_08,38.697657,-75.075951,Dewey Beach,1.520625,0.90905,1.2562833333333332,8,7,"NIGHT_CLEAR,NIGHT_CLEAR,NIGHT_CLEAR,NIGHT_CLEAR,NIGHT_CLEAR,CLEAR,CLEAR,CLEAR,CLEAR,CLEAR,CLEAR,CLEAR,CLEAR,CLEAR,CLEAR,CLEAR","Onshore,Onshore,Onshore,Onshore,Onshore,Onshore,Onshore,Onshore,Onshore,Onshore,Onshore,Onshore,Onshore,Onshore,Onshore,Onshore",16
5842041f4e65fad6a7708a20,2024_03_08,38.75034741676525,-75.08194,Gordons Pond,1.645625,0.78657921875,1.1980761979166668,8,7,"NIGHT_CLEAR,NIGHT_CLEAR,NIGHT_CLEAR,NIGHT_CLEAR,NIGHT_CLEAR,CLEAR,CLEAR,CLEAR,CLEAR,CLEAR,CLEAR,CLEAR,CLEAR,CLEAR,CLEAR,CLEAR","Cross-shore,Cross-shore,Cross-shore,Cross-shore,Cross-shore,Cross-shore,Cross-shore,Cross-shore,Onshore,Onshore,Onshore,Onshore,Onshore,Onshore,Onshore,Onshore",16
5842041f4e65fad6a7708a21,2024_03_08,38.767837,-75.082841,Naval Jetties,1.395625,0.9162895833333333,1.2719083333333332,8,7,"NIGHT_CLEAR,NIGHT_CLEAR,NIGHT_CLEAR,NIGHT_CLEAR,NIGHT_CLEAR,CLEAR,CLEAR,CLEAR,CLEAR,CLEAR,CLEAR,CLEAR,CLEAR,CLEAR,CLEAR,CLEAR","Onshore,Onshore,Onshore,Onshore,Onshore,Onshore,Onshore,Onshore,Onshore,Onshore,Onshore,Onshore,Onshore,Onshore,Onshore,Onshore",16
5842041f4e65fad6a7708a22,2024_03_08,36.81735875786576,-75.96624,Camp Pendleton,0.989375,0.5561125,0.8622770833333334,9,8,"NIGHT_CLEAR,NIGHT_CLEAR,NIGHT_CLEAR,NIGHT_MIST,NIGHT_MIST,MIST,CLEAR,CLEAR,CLEAR,MIST,MIST,MOSTLY_CLOUDY,MOSTLY_CLOUDY,MOSTLY_CLOUDY,MIST,MIST","Cross-shore,Onshore,Onshore,Onshore,Onshore,Onshore,Onshore,Onshore,Onshore,Onshore,Onshore,Onshore,Onshore,Onshore,Onshore,Onshore",16
5842041f4e65fad6a7708a23,2024_03_08,36.9102212316428,-75.98732471466064,North End,1.1,0.31619791666666663,0.61955,9,8,"NIGHT_CLEAR,NIGHT_CLEAR,NIGHT_CLEAR,NIGHT_CLEAR,NIGHT_CLEAR,CLEAR,CLEAR,CLEAR,CLEAR,MOSTLY_CLEAR,MOSTLY_CLEAR,MOSTLY_CLEAR,MOSTLY_CLOUDY,MOSTLY_CLOUDY,BRIEF_SHOWERS,MIST","Onshore,Onshore,Onshore,Onshore,Onshore,Onshore,Onshore,Onshore,Onshore,Onshore,Onshore,Onshore,Onshore,Onshore,Onshore,Onshore",16
5842041f4e65fad6a7708a24,2024_03_08,36.737117517621314,-75.93923719853362,Sandbridge Beach,1.395625,0.6369750000000001,0.9410875,9,8,"NIGHT_CLEAR,NIGHT_CLEAR,NIGHT_CLEAR,NIGHT_MIST,NIGHT_MIST,MIST,CLEAR,CLEAR,CLEAR,MOSTLY_CLOUDY,MOSTLY_CLOUDY,MOSTLY_CLOUDY,MOSTLY_CLOUDY,MOSTLY_CLOUDY,MIST,OVERCAST","Cross-shore,Onshore,Onshore,Onshore,Onshore,Onshore,Onshore,Onshore,Onshore,Onshore,Onshore,Onshore,Onshore,Onshore,Onshore,Onshore",16
5842041f4e65fad6a7708a26,2024_03_08,36.818257440557794,-75.96666,Croatan to Pendleton,0.975,0.43460208333333333,0.7399333333333333,9,8,"NIGHT_CLEAR,NIGHT_CLEAR,NIGHT_CLEAR,NIGHT_MIST,NIGHT_MIST,MIST,CLEAR,CLEAR,CLEAR,MIST,MIST,MOSTLY_CLOUDY,MOSTLY_CLOUDY,MOSTLY_CLOUDY,MIST,MIST","Cross-shore,Onshore,Onshore,Onshore,Onshore,Onshore,Onshore,Onshore,Onshore,Onshore,Onshore,Onshore,Onshore,Onshore,Onshore,Onshore",16
5842041f4e65fad6a7708a27,2024_03_08,36.84318777204769,-75.9719,South End,1.16625,0.4973625,0.80206875,9,8,"NIGHT_CLEAR,NIGHT_CLEAR,NIGHT_CLEAR,NIGHT_MIST,NIGHT_MIST,CLEAR,CLEAR,CLEAR,CLEAR,MOSTLY_CLOUDY,MOSTLY_CLEAR,MOSTLY_CLOUDY,MOSTLY_CLOUDY,MOSTLY_CLOUDY,MIST,MIST","Onshore,Onshore,Onshore,Onshore,Onshore,Onshore,Onshore,Onshore,Onshore,Onshore,Onshore,Onshore,Onshore,Onshore,Onshore,Onshore",16
5842041f4e65fad6a7708a28,2024_03_08,37.08612627584661,-75.976121638199,Fishermans Island,1.1875,0.2185,0.34075,9,9,"NIGHT_CLEAR,NIGHT_CLEAR,NIGHT_CLOUDY,NIGHT_CLEAR,NIGHT_CLEAR,CLEAR,CLEAR,CLEAR,CLEAR,CLEAR,CLEAR,CLEAR,CLEAR,CLEAR,MOSTLY_CLOUDY,CLOUDY","Cross-shore,Cross-shore,Cross-shore,Cross-shore,Cross-shore,Cross-shore,Cross-shore,Cross-shore,Cross-shore,Cross-shore,Cross-shore,Cross-shore,Cross-shore,Cross-shore,Cross-shore,Cross-shore",16
5842041f4e65fad6a7708a38,2024_03_08,35.254619418229026,-75.52074,Cape Hatteras Lighthouse,0.675,0.9881916145833334,1.4334413333333333,12.5,11.5,"NIGHT_CLEAR,NIGHT_CLEAR,NIGHT_CLEAR,NIGHT_MIST,NIGHT_MIST,MIST,MIST,BRIEF_SHOWERS,DRIZZLE,MOSTLY_CLOUDY,CLOUDY,CLOUDY,CLOUDY,MIST,MIST,CLOUDY","Cross-shore,Cross-shore,Cross-shore,Cross-shore,Cross-shore,Cross-shore,Cross-shore,Cross-shore,Cross-shore,Cross-shore,Cross-shore,Cross-shore,Cross-shore,Cross-shore,Cross-shore,Cross-shore",16
5842041f4e65fad6a7708a3a,2024_03_08,35.54572934093336,-75.46477,Waves and Salvo,1.03125,0.963075,1.3610708333333332,11.5,10.5,"NIGHT_CLEAR,NIGHT_CLOUDY,NIGHT_CLEAR,NIGHT_MIST,NIGHT_MIST,MIST,MIST,MIST,MIST,MOSTLY_CLOUDY,DRIZZLE,MIST,MIST,CLOUDY,CLOUDY,MIST","Cross-shore,Cross-shore,Cross-shore,Cross-shore,Cross-shore,Cross-shore,Cross-shore,Cross-shore,Cross-shore,Cross-shore,Cross-shore,Cross-shore,Cross-shore,Cross-shore,Cross-shore,Cross-shore",16
5842041f4e65fad6a7708a3b,2024_03_08,35.22565892751075,-75.63606,Frisco,2.365,0.679925,1.03515,13.5,12.5,"NIGHT_CLEAR,NIGHT_CLEAR,NIGHT_MOSTLY_CLOUDY,NIGHT_CLOUDY,NIGHT_CLOUDY,CLOUDY,MIST,MIST,MIST,CLEAR,MOSTLY_CLOUDY,CLOUDY,MIST,MIST,MIST,MIST","Offshore,Offshore,Offshore,Offshore,Offshore,Offshore,Offshore,Offshore,Offshore,Offshore,Offshore,Offshore,Offshore,Offshore,Offshore,Offshore",16
5842041f4e65fad6a7708a3c,2024_03_08,35.13086,-75.90591,Ocracoke,1.5,0.6744675,1.053854375,12.6875,12.6875,"NIGHT_CLEAR,NIGHT_CLEAR,NIGHT_BRIEF_SHOWERS,NIGHT_MIST,NIGHT_MIST,MIST,MIST,MIST,MIST,CLEAR,CLEAR,MOSTLY_CLOUDY,CLEAR,MIST,MIST,DRIZZLE","Offshore,Offshore,Offshore,Offshore,Cross-shore,Offshore,Offshore,Offshore,Offshore,Offshore,Offshore,Offshore,Offshore,Offshore,Offshore,Cross-shore",16
5842041f4e65fad6a7708a3d,2024_03_08,35.34721340158342,-75.50084,Avon Pier,0.6125,0.97428625,1.5724658333333332,12.5,11.5,"NIGHT_CLEAR,NIGHT_CLEAR,NIGHT_CLEAR,NIGHT_OVERCAST,NIGHT_OVERCAST,OVERCAST,MIST,MIST,DRIZZLE,CLEAR,CLOUDY,OVERCAST,OVERCAST,OVERCAST,OVERCAST,OVERCAST","Cross-shore,Cross-shore,Cross-shore,Cross-shore,Cross-shore,Cross-shore,Cross-shore,Cross-shore,Cross-shore,Cross-shore,Cross-shore,Cross-shore,Cross-shore,Cross-shore,Cross-shore,Cross-shore",16
5842041f4e65fad6a7708a3f,2024_03_08,35.71680821253768,-75.49243,Pea Island,1.0625,0.904375,1.21,10,10,"NIGHT_FOG,NIGHT_CLOUDY,NIGHT_CLEAR,NIGHT_OVERCAST,NIGHT_OVERCAST,OVERCAST,MIST,MIST,OVERCAST,CLEAR,MOSTLY_CLOUDY,MOSTLY_CLOUDY,MOSTLY_CLOUDY,CLOUDY,OVERCAST,OVERCAST","Cross-shore,Cross-shore,Onshore,Onshore,Onshore,Onshore,Onshore,Onshore,Onshore,Onshore,Onshore,Onshore,Onshore,Onshore,Onshore,Onshore",16
5842041f4e65fad6a7708a40,2024_03_08,35.97427620657821,-75.62984,Nags Head Pier,1.1125,0.9356479166666667,1.2450479166666666,10,8.5,"NIGHT_OVERCAST,NIGHT_CLEAR,NIGHT_CLEAR,NIGHT_OVERCAST,NIGHT_OVERCAST,OVERCAST,MIST,OVERCAST,OVERCAST,CLEAR,CLEAR,MOSTLY_CLOUDY,MOSTLY_CLOUDY,MOSTLY_CLOUDY,OVERCAST,OVERCAST","Onshore,Onshore,Onshore,Onshore,Onshore,Onshore,Onshore,Onshore,Onshore,Onshore,Onshore,Onshore,Onshore,Onshore,Onshore,Onshore",16
5842041f4e65fad6a7708a41,2024_03_08,36.0439998039079,-75.67288,Avalon Pier,1.40625,0.9576583333333333,1.2684229166666667,10,8.5,"NIGHT_CLEAR,NIGHT_CLEAR,NIGHT_CLOUDY,NIGHT_OVERCAST,NIGHT_OVERCAST,OVERCAST,OVERCAST,OVERCAST,OVERCAST,CLEAR,CLEAR,CLEAR,CLEAR,CLEAR,CLOUDY,OVERCAST","Onshore,Onshore,Onshore,Onshore,Onshore,Onshore,Onshore,Onshore,Onshore,Onshore,Onshore,Onshore,Onshore,Onshore,Onshore,Onshore",16
5842041f4e65fad6a7708a42,2024_03_08,36.03043116489792,-75.66413,First Street,1.40625,0.9438770833333333,1.2924958333333334,10,8.5,"NIGHT_CLEAR,NIGHT_CLEAR,NIGHT_CLOUDY,NIGHT_OVERCAST,NIGHT_OVERCAST,OVERCAST,OVERCAST,OVERCAST,OVERCAST,CLEAR,CLEAR,CLEAR,CLEAR,CLEAR,CLOUDY,OVERCAST","Cross-shore,Cross-shore,Onshore,Onshore,Onshore,Onshore,Cross-shore,Onshore,Onshore,Onshore,Onshore,Onshore,Onshore,Onshore,Onshore,Onshore",16
5842041f4e65fad6a7708a43,2024_03_08,36.06829910590498,-75.6899,Old Station/Laundromats,1.40625,0.9210958333333333,1.2321729166666666,10,8.5,"NIGHT_CLOUDY,NIGHT_CLEAR,NIGHT_CLEAR,NIGHT_OVERCAST,NIGHT_OVERCAST,OVERCAST,MIST,MIST,CLOUDY,CLEAR,CLEAR,CLEAR,CLEAR,MOSTLY_CLOUDY,MIST,MIST","Cross-shore,Cross-shore,Onshore,Onshore,Onshore,Onshore,Cross-shore,Onshore,Onshore,Onshore,Onshore,Onshore,Onshore,Onshore,Onshore,Onshore",16
5842041f4e65fad6a7708a44,2024_03_08,36.10126676607491,-75.71107462163894,Kitty Hawk Pier,1.40625,0.888825,1.2609854166666667,10,8.5,"NIGHT_OVERCAST,NIGHT_CLEAR,NIGHT_CLOUDY,NIGHT_OVERCAST,NIGHT_OVERCAST,OVERCAST,MIST,MIST,CLOUDY,CLEAR,CLEAR,CLEAR,CLEAR,CLEAR,MOSTLY_CLOUDY,CLOUDY","Cross-shore,Cross-shore,Onshore,Onshore,Onshore,Onshore,Cross-shore,Onshore,Onshore,Onshore,Onshore,Onshore,Onshore,Onshore,Onshore,Onshore",16
5842041f4e65fad6a7708a45,2024_03_08,36.18220630068973,-75.75013580649097,Duck Pier,1.135625,0.61783125,0.96323125,9.5,8.5,"NIGHT_CLOUDY,NIGHT_CLEAR,NIGHT_CLEAR,NIGHT_CLOUDY,NIGHT_MIST,MIST,MIST,MIST,MIST,MIST,MIST,MOSTLY_CLOUDY,MIST,MOSTLY_CLOUDY,MIST,MIST","Cross-shore,Cross-shore,Onshore,Onshore,Onshore,Onshore,Cross-shore,Onshore,Onshore,Onshore,Onshore,Onshore,Onshore,Onshore,Onshore,Onshore",16
5842041f4e65fad6a7708a46,2024_03_08,36.37660668125033,-75.82409701687456,Corolla,1.0625,0.6179354166666666,0.9651062499999999,9.5,8.5,"NIGHT_CLEAR,NIGHT_CLEAR,NIGHT_CLEAR,NIGHT_CLOUDY,NIGHT_MIST,MIST,MIST,MIST,MIST,MIST,MIST,CLEAR,CLEAR,MOSTLY_CLOUDY,CLEAR,CLOUDY","Cross-shore,Cross-shore,Onshore,Onshore,Onshore,Onshore,Cross-shore,Onshore,Onshore,Onshore,Onshore,Onshore,Onshore,Onshore,Onshore,Onshore",16
5842041f4e65fad6a7708a47,2024_03_08,33.90373404124834,-78.08241431707907,Oak Island,1.25,0.25,0.555,13.3125,13.3125,"NIGHT_CLEAR,NIGHT_CLEAR,NIGHT_CLEAR,NIGHT_CLEAR,NIGHT_CLEAR,CLEAR,MOSTLY_CLOUDY,CLEAR,CLEAR,CLEAR,CLEAR,CLEAR,CLEAR,CLEAR,CLEAR,CLEAR","Offshore,Offshore,Offshore,Offshore,Offshore,Offshore,Offshore,Offshore,Offshore,Offshore,Offshore,Offshore,Offshore,Offshore,Offshore,Offshore",16
5842041f4e65fad6a7708a48,2024_03_08,33.91108837766468,-78.29653,South Brunswick Beaches,1.375,0.2774125,0.433454375,14,14,"NIGHT_MIST,NIGHT_MOSTLY_CLOUDY,NIGHT_CLEAR,NIGHT_MIST,NIGHT_CLEAR,CLEAR,CLEAR,CLEAR,CLEAR,CLEAR,CLEAR,CLEAR,CLEAR,CLEAR,CLEAR,CLEAR","Offshore,Cross-shore,Offshore,Offshore,Offshore,Offshore,Offshore,Cross-shore,Cross-shore,Offshore,Offshore,Cross-shore,Offshore,Cross-shore,Offshore,Offshore",16
5842041f4e65fad6a7708a49,2024_03_08,34.05683595651973,-77.88128,Carolina Beach Pier,0.989375,0.6068020833333333,0.9139791666666667,14,13,"NIGHT_CLEAR,NIGHT_CLEAR,NIGHT_CLEAR,NIGHT_CLEAR,NIGHT_CLEAR,CLEAR,CLEAR,CLEAR,CLEAR,CLEAR,CLEAR,CLEAR,CLEAR,CLEAR,CLEAR,CLEAR","Onshore,Onshore,Onshore,Onshore,Onshore,Onshore,Onshore,Onshore,Onshore,Onshore,Onshore,Onshore,Onshore,Onshore,Onshore,Onshore",16
5842041f4e65fad6a7708a4a,2024_03_08,33.96841191816696,-77.9180242565498,Fort Fisher,1.03125,0.6432395833333333,0.948125,14,13,"NIGHT_CLEAR,NIGHT_CLEAR,NIGHT_CLEAR,NIGHT_CLEAR,NIGHT_CLEAR,CLEAR,CLEAR,CLEAR,CLEAR,CLEAR,CLEAR,CLEAR,CLEAR,CLEAR,CLEAR,MOSTLY_CLEAR","Onshore,Onshore,Onshore,Onshore,Onshore,Onshore,Onshore,Onshore,Onshore,Onshore,Onshore,Onshore,Onshore,Onshore,Onshore,Onshore",16
5842041f4e65fad6a7708a4b,2024_03_08,34.46776662988774,-77.47083191635772,Topsail Beach,1.25,0.43347291666666665,0.77955,14,13,"NIGHT_CLEAR,NIGHT_CLEAR,NIGHT_CLEAR,NIGHT_MIST,NIGHT_MIST,CLEAR,CLEAR,CLEAR,CLEAR,CLEAR,CLEAR,CLEAR,CLEAR,CLEAR,CLEAR,CLEAR","Offshore,Offshore,Cross-shore,Cross-shore,Cross-shore,Cross-shore,Cross-shore,Cross-shore,Cross-shore,Cross-shore,Cross-shore,Cross-shore,Cross-shore,Cross-shore,Cross-shore,Cross-shore",16
5842041f4e65fad6a7708a4c,2024_03_08,34.69270354752445,-76.82854854446575,Iron Steamer,1.23125,0.18534458333333337,0.49014458333333333,14,13,"NIGHT_CLEAR,NIGHT_CLEAR,NIGHT_CLEAR,NIGHT_CLEAR,NIGHT_CLEAR,CLEAR,CLEAR,CLEAR,CLEAR,CLEAR,CLEAR,CLEAR,CLEAR,CLEAR,CLEAR,CLEAR","Offshore,Offshore,Offshore,Offshore,Offshore,Offshore,Offshore,Offshore,Offshore,Offshore,Offshore,Offshore,Offshore,Offshore,Offshore,Offshore",16
5842041f4e65fad6a7708a4f,2024_03_08,30.85132684893727,-81.42283496231143,Cumberland Island,1.5625,0.4325,0.7375,16.6875,16.6875,"NIGHT_MIST,NIGHT_MIST,NIGHT_MIST,NIGHT_MIST,NIGHT_MIST,MIST,MIST,MIST,MIST,MOSTLY_CLOUDY,MIST,MIST,CLOUDY,OVERCAST,MIST,MIST","Cross-shore,Cross-shore,Onshore,Onshore,Onshore,Cross-shore,Cross-shore,Cross-shore,Cross-shore,Onshore,Cross-shore,Cross-shore,Cross-shore,Cross-shore,Cross-shore,Cross-shore",16
5842041f4e65fad6a7708a50,2024_03_08,34.686741128540874,-76.47516712138378,Cape Lookout National Seashore,0.5625,0.69125,0.995625,12,12,"NIGHT_CLEAR,NIGHT_CLEAR,NIGHT_CLEAR,NIGHT_CLEAR,NIGHT_CLEAR,MOSTLY_CLEAR,CLEAR,MOSTLY_CLEAR,CLEAR,CLEAR,CLEAR,CLEAR,CLEAR,CLEAR,CLEAR,CLEAR","Cross-shore,Cross-shore,Cross-shore,Cross-shore,Cross-shore,Cross-shore,Cross-shore,Cross-shore,Cross-shore,Cross-shore,Cross-shore,Cross-shore,Cross-shore,Cross-shore,Cross-shore,Cross-shore",16
