_id,date,lat,lon,name,daily_mean_swell_rating,daily_mean_wave_height_min,daily_mean_wave_height_max,daily_mean_water_temperature_max,daily_mean_water_temperature_min,weather_per_timestamp,wind_per_timestamp,n_samples_per_day
5842041f4e65fad6a77087f9,2024_03_18,37.741668,-122.51038,South Ocean Beach,2,1.5324703703703704,1.8824222222222222,14,14,"NIGHT_BRIEF_SHOWERS,NIGHT_MIST,NIGHT_MIST,NIGHT_MIST,NIGHT_MIST,NIGHT_MIST,NIGHT_MIST,NIGHT_MIST,MIST","Onshore,Onshore,Onshore,Onshore,Onshore,Onshore,Onshore,Onshore,Cross-shore",9
5842041f4e65fad6a7708801,2024_03_18,37.49142,-122.50428,Maverick's,NA,1.3533333333333335,1.6266666666666667,13,13,"NIGHT_MOSTLY_CLOUDY,NIGHT_MOSTLY_CLOUDY,NIGHT_MIST,NIGHT_MIST,NIGHT_BRIEF_SHOWERS,NIGHT_MIST,NIGHT_MIST,NIGHT_MIST,MIST","Onshore,Onshore,Cross-shore,Cross-shore,Cross-shore,Cross-shore,Offshore,Offshore,Offshore",9
5842041f4e65fad6a7708804,2024_03_18,44.997,-124.018,Roads End,2.6666666666666665,1.1333333333333333,1.39,11,11,"NIGHT_MIST,NIGHT_MIST,NIGHT_BRIEF_SHOWERS_POSSIBLE,NIGHT_MIST,NIGHT_BRIEF_SHOWERS_POSSIBLE,NIGHT_MIST,NIGHT_MIST,NIGHT_MIST,MIST","Cross-shore,Cross-shore,Cross-shore,Cross-shore,Cross-shore,Cross-shore,Cross-shore,Cross-shore,Cross-shore",9
5842041f4e65fad6a7708805,2024_03_18,36.95188851423011,-122.02522,Steamer Lane,3.111111111111111,1.0278185185185185,1.3711037037037037,14,14,"NIGHT_MOSTLY_CLOUDY,NIGHT_MOSTLY_CLOUDY,NIGHT_MIST,NIGHT_MIST,NIGHT_MOSTLY_CLEAR,NIGHT_CLEAR,NIGHT_MIST,NIGHT_BRIEF_SHOWERS,MIST","Offshore,Offshore,Offshore,Offshore,Offshore,Cross-shore,Offshore,Offshore,Offshore",9
5842041f4e65fad6a7708806,2024_03_18,36.95918781542251,-122.02489,Cowells,1.2222222222222223,0.007266666666666664,0.2714666666666667,14,14,"NIGHT_MOSTLY_CLOUDY,NIGHT_MOSTLY_CLOUDY,NIGHT_MIST,NIGHT_MIST,NIGHT_MOSTLY_CLEAR,NIGHT_CLEAR,NIGHT_MIST,NIGHT_BRIEF_SHOWERS,MIST","Offshore,Offshore,Offshore,Offshore,Offshore,Cross-shore,Cross-shore,Cross-shore,Cross-shore",9
5842041f4e65fad6a7708807,2024_03_18,36.95468082526536,-121.97234,Pleasure Point,3.111111111111111,1.0383296296296296,1.3494370370370372,14,14,"NIGHT_MOSTLY_CLOUDY,NIGHT_MOSTLY_CLOUDY,NIGHT_MIST,NIGHT_MOSTLY_CLOUDY,NIGHT_MOSTLY_CLEAR,NIGHT_MOSTLY_CLEAR,NIGHT_MOSTLY_CLEAR,NIGHT_MOSTLY_CLEAR,MOSTLY_CLEAR","Onshore,Offshore,Offshore,Offshore,Offshore,Onshore,Onshore,Onshore,Onshore",9
5842041f4e65fad6a770880a,2024_03_18,35.37815414378748,-120.86589,Morro Bay,3.7777777777777777,1.1084925925925926,1.3937333333333333,14,14,"NIGHT_MOSTLY_CLEAR,NIGHT_CLEAR,NIGHT_CLEAR,NIGHT_CLEAR,NIGHT_CLEAR,NIGHT_CLEAR,NIGHT_CLEAR,NIGHT_CLEAR,CLEAR","Offshore,Offshore,Offshore,Offshore,Offshore,Offshore,Onshore,Offshore,Onshore",9
5842041f4e65fad6a770880b,2024_03_18,36.95782765000708,-121.9672887511276,Jack's,2.6666666666666665,0.46592222222222224,0.7744851851851853,14,14,"NIGHT_MOSTLY_CLOUDY,NIGHT_MOSTLY_CLOUDY,NIGHT_MIST,NIGHT_MOSTLY_CLOUDY,NIGHT_MOSTLY_CLEAR,NIGHT_MOSTLY_CLEAR,NIGHT_MOSTLY_CLEAR,NIGHT_MOSTLY_CLEAR,MOSTLY_CLEAR","Onshore,Offshore,Offshore,Offshore,Offshore,Onshore,Onshore,Onshore,Onshore",9
5842041f4e65fad6a770880d,2024_03_18,34.29982939936656,-119.3489016603669,Gold Coast Beachbreaks,2,0.1388888888888889,0.4411111111111111,15,15,"NIGHT_CLEAR,NIGHT_CLEAR,NIGHT_CLEAR,NIGHT_CLEAR,NIGHT_CLEAR,NIGHT_CLEAR,NIGHT_CLEAR,NIGHT_CLEAR,CLEAR","Cross-shore,Cross-shore,Cross-shore,Cross-shore,Cross-shore,Cross-shore,Cross-shore,Cross-shore,Cross-shore",9
5842041f4e65fad6a7708811,2024_03_18,34.245076,-119.26799,Ventura Harbor,3,0.7765432407407408,1.067535,14,14,"NIGHT_MIST,NIGHT_CLEAR,NIGHT_CLEAR,NIGHT_CLEAR,NIGHT_CLEAR,NIGHT_CLEAR,NIGHT_CLEAR,NIGHT_CLEAR,CLEAR","Onshore,Offshore,Cross-shore,Offshore,Offshore,Cross-shore,Cross-shore,Offshore,Offshore",9
5842041f4e65fad6a7708813,2024_03_18,34.051,-118.964,County Line,3,0.46865555555555555,0.7770111111111111,15,15,"NIGHT_CLEAR,NIGHT_MIST,NIGHT_CLEAR,NIGHT_CLEAR,NIGHT_CLEAR,NIGHT_CLEAR,NIGHT_CLEAR,NIGHT_CLEAR,CLEAR","Offshore,Cross-shore,Offshore,Offshore,Offshore,Offshore,Cross-shore,Offshore,Offshore",9
5842041f4e65fad6a7708814,2024_03_18,34.37256264378892,-119.47797,Rincon,2,0.18555555555555556,0.49222222222222223,15,15,"NIGHT_CLEAR,NIGHT_CLEAR,NIGHT_CLEAR,NIGHT_CLEAR,NIGHT_CLEAR,NIGHT_CLEAR,NIGHT_CLEAR,NIGHT_CLEAR,CLEAR","Cross-shore,Cross-shore,Offshore,Cross-shore,Onshore,Onshore,Onshore,Offshore,Offshore",9
5842041f4e65fad6a7708817,2024_03_18,34.03096101876324,-118.68109,Malibu Third Point,2.3333333333333335,0.27111111111111114,0.5788888888888889,15,15,"NIGHT_MOSTLY_CLEAR,NIGHT_BRIEF_SHOWERS,NIGHT_MIST,NIGHT_MOSTLY_CLEAR,NIGHT_MOSTLY_CLEAR,NIGHT_MOSTLY_CLEAR,NIGHT_MIST,CLEAR,CLEAR","Onshore,Onshore,Cross-shore,Cross-shore,Offshore,Offshore,Offshore,Offshore,Offshore",9
5842041f4e65fad6a7708819,2024_03_18,33.984079047970035,-118.47381591796875,Venice Beach,2.7777777777777777,0.3997222222222222,0.7030111111111111,14,14,"NIGHT_MOSTLY_CLOUDY,NIGHT_MOSTLY_CLOUDY,NIGHT_MOSTLY_CLOUDY,NIGHT_MIST,NIGHT_MIST,NIGHT_CLEAR,NIGHT_CLEAR,MIST,CLEAR","Onshore,Cross-shore,Offshore,Offshore,Offshore,Offshore,Offshore,Offshore,Offshore",9
5842041f4e65fad6a770881e,2024_03_18,34.037508438646746,-118.58339846155594,Topanga Beach,2,0.24354074074074075,0.5452296296296296,15,15,"NIGHT_MOSTLY_CLOUDY,NIGHT_MIST,NIGHT_MIST,NIGHT_MIST,NIGHT_MIST,NIGHT_MIST,NIGHT_MIST,CLEAR,CLEAR","Offshore,Offshore,Cross-shore,Cross-shore,Cross-shore,Cross-shore,Cross-shore,Cross-shore,Cross-shore",9
5842041f4e65fad6a7708820,2024_03_18,33.73954373690184,-118.11414,Seal Beach Jetty,2,0.2011111111111111,0.5033333333333333,15,15,"NIGHT_MOSTLY_CLOUDY,NIGHT_MOSTLY_CLOUDY,NIGHT_CLEAR,NIGHT_CLEAR,NIGHT_MOSTLY_CLOUDY,NIGHT_OVERCAST,NIGHT_OVERCAST,MIST,OVERCAST","Offshore,Offshore,Offshore,Offshore,Offshore,Offshore,Offshore,Offshore,Offshore",9
5842041f4e65fad6a7708822,2024_03_18,33.72309983348433,-118.08078,Anderson Street,2,0.1288888888888889,0.43444444444444447,15,15,"NIGHT_MIST,NIGHT_MOSTLY_CLOUDY,NIGHT_CLEAR,NIGHT_CLEAR,NIGHT_MOSTLY_CLOUDY,NIGHT_OVERCAST,NIGHT_OVERCAST,OVERCAST,OVERCAST","Offshore,Offshore,Offshore,Offshore,Offshore,Offshore,Offshore,Offshore,Offshore",9
5842041f4e65fad6a7708827,2024_03_18,33.65574085629463,-118.00397,Huntington Beach Pier Northside,3,0.5952333333333333,0.9320888888888889,14,14,"NIGHT_MIST,NIGHT_MOSTLY_CLOUDY,NIGHT_MOSTLY_CLOUDY,NIGHT_MOSTLY_CLOUDY,NIGHT_OVERCAST,NIGHT_OVERCAST,NIGHT_OVERCAST,OVERCAST,OVERCAST","Offshore,Offshore,Offshore,Offshore,Offshore,Offshore,Offshore,Cross-shore,Offshore",9
5842041f4e65fad6a7708828,2024_03_18,34.272041739333,-119.29976,C St.,2.888888888888889,0.4157148148148148,0.7242777777777778,14,14,"NIGHT_MIST,NIGHT_MIST,NIGHT_CLEAR,NIGHT_CLEAR,NIGHT_CLEAR,NIGHT_CLEAR,NIGHT_CLEAR,NIGHT_CLEAR,CLEAR","Offshore,Offshore,Offshore,Offshore,Offshore,Offshore,Offshore,Offshore,Offshore",9
5842041f4e65fad6a770882a,2024_03_18,33.61555743705257,-117.93676,Newport Lower Jetties,2,0.25606666666666666,0.5593555555555556,14,14,"NIGHT_MIST,NIGHT_MOSTLY_CLOUDY,NIGHT_MIST,NIGHT_MOSTLY_CLOUDY,NIGHT_OVERCAST,NIGHT_OVERCAST,NIGHT_OVERCAST,MIST,MIST","Offshore,Offshore,Offshore,Offshore,Offshore,Offshore,Offshore,Offshore,Offshore",9
5842041f4e65fad6a770882b,2024_03_18,33.5930302087,-117.88199,The Wedge,1.7777777777777777,0.45698675925925925,0.8592270370370371,14,14,"NIGHT_MIST,NIGHT_MOSTLY_CLOUDY,NIGHT_MOSTLY_CLOUDY,NIGHT_MOSTLY_CLOUDY,NIGHT_DRIZZLE,NIGHT_OVERCAST,NIGHT_OVERCAST,MIST,MIST","Offshore,Offshore,Offshore,Offshore,Offshore,Offshore,Offshore,Offshore,Offshore",9
5842041f4e65fad6a770882c,2024_03_18,33.60577342582,-117.9315376281,Newport Beach Pier,2,0.1637074074074074,0.47245925925925925,14,14,"NIGHT_MIST,NIGHT_MOSTLY_CLOUDY,NIGHT_MOSTLY_CLOUDY,NIGHT_MOSTLY_CLOUDY,NIGHT_OVERCAST,NIGHT_OVERCAST,NIGHT_OVERCAST,MIST,MIST","Onshore,Onshore,Onshore,Onshore,Onshore,Cross-shore,Offshore,Offshore,Offshore",9
5842041f4e65fad6a770882e,2024_03_18,33.475793399792984,-117.72291,Salt Creek,3,0.5362,0.8605851851851851,15,15,"NIGHT_MOSTLY_CLOUDY,NIGHT_MOSTLY_CLOUDY,NIGHT_MOSTLY_CLOUDY,NIGHT_MOSTLY_CLOUDY,NIGHT_MOSTLY_CLOUDY,NIGHT_MOSTLY_CLOUDY,NIGHT_MOSTLY_CLOUDY,MIST,MIST","Cross-shore,Offshore,Offshore,Offshore,Cross-shore,Cross-shore,Offshore,Offshore,Offshore",9
5842041f4e65fad6a7708830,2024_03_18,33.41800974113613,-117.61952,T-Street,3,0.5020333333333333,0.8262111111111111,16,16,"NIGHT_MOSTLY_CLOUDY,NIGHT_MOSTLY_CLOUDY,NIGHT_MOSTLY_CLOUDY,NIGHT_MOSTLY_CLOUDY,NIGHT_MOSTLY_CLOUDY,NIGHT_MIST,NIGHT_MIST,MIST,MOSTLY_CLOUDY","Onshore,Offshore,Offshore,Onshore,Cross-shore,Offshore,Offshore,Offshore,Offshore",9
5842041f4e65fad6a7708832,2024_03_18,33.202391008646,-117.39475,Oceanside Harbor,3,0.6251592592592592,0.9300888888888889,16,16,"NIGHT_CLEAR,NIGHT_CLEAR,NIGHT_CLEAR,NIGHT_CLEAR,NIGHT_CLEAR,NIGHT_CLEAR,NIGHT_MOSTLY_CLOUDY,MIST,CLEAR","Offshore,Offshore,Offshore,Offshore,Offshore,Offshore,Offshore,Offshore,Offshore",9
5842041f4e65fad6a7708835,2024_03_18,33.19477795952803,-117.38667,Oceanside Pier,3,0.5290259259259259,0.8534111111111111,16,16,"NIGHT_CLEAR,NIGHT_MIST,NIGHT_CLEAR,NIGHT_MIST,NIGHT_MIST,NIGHT_MIST,NIGHT_MIST,MIST,CLEAR","Offshore,Offshore,Offshore,Offshore,Offshore,Offshore,Offshore,Offshore,Offshore",9
5842041f4e65fad6a7708837,2024_03_18,33.14948100706,-117.35029,Tamarack,2.6666666666666665,0.3155555555555556,0.6222222222222222,15,15,"NIGHT_CLEAR,NIGHT_CLEAR,NIGHT_CLEAR,NIGHT_CLEAR,NIGHT_CLEAR,NIGHT_MIST,NIGHT_MIST,MIST,MIST","Offshore,Cross-shore,Offshore,Offshore,Offshore,Offshore,Offshore,Offshore,Offshore",9
5842041f4e65fad6a7708839,2024_03_18,32.865777159358856,-117.25614295356122,Scripps,3,0.5846962962962963,0.8919407407407408,16,16,"NIGHT_CLEAR,NIGHT_MOSTLY_CLOUDY,NIGHT_CLEAR,NIGHT_CLEAR,NIGHT_MOSTLY_CLOUDY,NIGHT_MIST,NIGHT_MIST,MIST,MIST","Offshore,Onshore,Onshore,Onshore,Onshore,Onshore,Cross-shore,Cross-shore,Cross-shore",9
5842041f4e65fad6a770883a,2024_03_18,32.813094,-117.27381,Birdrock,3,0.9044444444444445,1.1,16,16,"NIGHT_MOSTLY_CLOUDY,NIGHT_MOSTLY_CLOUDY,NIGHT_MOSTLY_CLOUDY,NIGHT_MOSTLY_CLOUDY,NIGHT_MOSTLY_CLOUDY,NIGHT_MOSTLY_CLOUDY,NIGHT_MOSTLY_CLOUDY,MOSTLY_CLOUDY,MOSTLY_CLOUDY","Cross-shore,Cross-shore,Offshore,Offshore,Offshore,Offshore,Offshore,Offshore,Offshore",9
5842041f4e65fad6a770883b,2024_03_18,32.877231,-117.25303,Blacks,3,1.0107148148148148,1.2694518518518518,16,16,"NIGHT_CLEAR,NIGHT_MOSTLY_CLOUDY,NIGHT_CLEAR,NIGHT_CLEAR,NIGHT_MOSTLY_CLOUDY,NIGHT_MIST,NIGHT_MIST,MIST,MIST","Onshore,Offshore,Onshore,Cross-shore,Cross-shore,Cross-shore,Offshore,Offshore,Offshore",9
5842041f4e65fad6a770883c,2024_03_18,32.82978974229765,-117.28161740727381,Windansea,3,0.9775666666666667,1.182588888888889,15,15,"NIGHT_MOSTLY_CLOUDY,NIGHT_MOSTLY_CLOUDY,NIGHT_MOSTLY_CLOUDY,NIGHT_MOSTLY_CLOUDY,NIGHT_MOSTLY_CLOUDY,NIGHT_MOSTLY_CLOUDY,NIGHT_MIST,MIST,MIST","Offshore,Onshore,Cross-shore,Cross-shore,Cross-shore,Cross-shore,Cross-shore,Offshore,Offshore",9
5842041f4e65fad6a770883d,2024_03_18,32.838278,-117.28396,Horseshoe,3,0.98,1.171111111111111,16,16,"NIGHT_MOSTLY_CLOUDY,NIGHT_MOSTLY_CLOUDY,NIGHT_MOSTLY_CLOUDY,NIGHT_MOSTLY_CLOUDY,NIGHT_MOSTLY_CLOUDY,NIGHT_MOSTLY_CLOUDY,NIGHT_MIST,MIST,MIST","Offshore,Offshore,Offshore,Offshore,Offshore,Offshore,Offshore,Offshore,Offshore",9
5842041f4e65fad6a770883f,2024_03_18,32.75034717673179,-117.25337,Ocean Beach,3,1.0321037037037037,1.2506666666666666,15,15,"NIGHT_CLEAR,NIGHT_MOSTLY_CLOUDY,NIGHT_CLEAR,NIGHT_CLEAR,NIGHT_MOSTLY_CLOUDY,NIGHT_MOSTLY_CLOUDY,NIGHT_MIST,MIST,MIST","Offshore,Onshore,Cross-shore,Cross-shore,Cross-shore,Cross-shore,Cross-shore,Offshore,Offshore",9
5842041f4e65fad6a7708840,2024_03_18,32.73693,-117.25718,Sunset Cliffs,3,0.92,1.1011111111111112,15,15,"NIGHT_MOSTLY_CLOUDY,NIGHT_MOSTLY_CLOUDY,NIGHT_MOSTLY_CLOUDY,NIGHT_MOSTLY_CLOUDY,NIGHT_MOSTLY_CLOUDY,NIGHT_MIST,NIGHT_MIST,MIST,MOSTLY_CLOUDY","Offshore,Onshore,Cross-shore,Cross-shore,Cross-shore,Cross-shore,Cross-shore,Offshore,Offshore",9
5842041f4e65fad6a7708841,2024_03_18,32.796582258728826,-117.25779,Pacific Beach,3,0.9342555555555556,1.153988888888889,15,15,"NIGHT_CLEAR,NIGHT_MOSTLY_CLOUDY,NIGHT_CLEAR,NIGHT_CLEAR,NIGHT_CLEAR,NIGHT_MOSTLY_CLOUDY,NIGHT_MIST,MIST,MIST","Cross-shore,Offshore,Offshore,Offshore,Offshore,Offshore,Offshore,Offshore,Offshore",9
5842041f4e65fad6a7708842,2024_03_18,32.776636,-117.25514,Mission Beach,3,0.9399962962962963,1.163062962962963,15,15,"NIGHT_CLEAR,NIGHT_MOSTLY_CLOUDY,NIGHT_CLEAR,NIGHT_CLEAR,NIGHT_CLEAR,NIGHT_MOSTLY_CLOUDY,NIGHT_MIST,MIST,MIST","Offshore,Offshore,Offshore,Offshore,Offshore,Offshore,Offshore,Offshore,Offshore",9
5842041f4e65fad6a7708844,2024_03_18,32.577195519016,-117.13475,Imperial Beach Pier,3,0.9688888888888889,1.1588888888888889,15,15,"NIGHT_MOSTLY_CLOUDY,NIGHT_MOSTLY_CLOUDY,NIGHT_MOSTLY_CLEAR,NIGHT_MOSTLY_CLOUDY,NIGHT_MOSTLY_CLOUDY,NIGHT_MOSTLY_CLOUDY,NIGHT_MOSTLY_CLOUDY,CLEAR,CLEAR","Offshore,Onshore,Cross-shore,Cross-shore,Cross-shore,Cross-shore,Offshore,Offshore,Offshore",9
5842041f4e65fad6a770884a,2024_03_18,42.88678181061,-70.80843,Seabrook,1.3333333333333333,0.3297288888888889,0.5818733333333334,4.111111111111111,3.111111111111111,"NIGHT_CLEAR,NIGHT_CLEAR,NIGHT_CLEAR,NIGHT_CLEAR,CLEAR,CLEAR,CLEAR,CLEAR,CLEAR","Offshore,Offshore,Offshore,Offshore,Offshore,Offshore,Offshore,Offshore,Offshore",9
5842041f4e65fad6a770884e,2024_03_18,41.434181432898335,-71.45312118111178,Narragansett,2.8333333333333335,0.6129333333333333,0.9163444444444444,6,4.111111111111111,"NIGHT_MOSTLY_CLOUDY,NIGHT_CLOUDY,NIGHT_OVERCAST,NIGHT_CLEAR,MOSTLY_CLOUDY,CLEAR,CLOUDY,MOSTLY_CLOUDY,CLEAR","Cross-shore,Cross-shore,Cross-shore,Offshore,Offshore,Offshore,Offshore,Offshore,Offshore",9
5842041f4e65fad6a7708850,2024_03_18,40.582703230722,-73.65247,Lincoln Blvd,1.491111111111111,0.3965888888888889,0.7014814814814815,7.111111111111111,6.111111111111111,"NIGHT_CLEAR,NIGHT_CLEAR,NIGHT_CLOUDY,NIGHT_CLOUDY,MOSTLY_CLOUDY,CLEAR,CLEAR,CLEAR,CLEAR","Offshore,Offshore,Onshore,Onshore,Onshore,Onshore,Onshore,Onshore,Onshore",9
5842041f4e65fad6a7708852,2024_03_18,40.58342841721757,-73.81182,Rockaways,1.8977777777777778,0.40057037037037035,0.7047222222222222,7.111111111111111,6.111111111111111,"NIGHT_CLEAR,NIGHT_CLEAR,NIGHT_CLOUDY,NIGHT_OVERCAST,NIGHT_CLEAR,CLEAR,CLEAR,CLEAR,CLEAR","Offshore,Offshore,Offshore,Offshore,Offshore,Offshore,Offshore,Offshore,Cross-shore",9
5842041f4e65fad6a7708853,2024_03_18,40.330474,-73.9734,Monmouth Beach,1.5555555555555556,0.2163888888888889,0.5231111111111111,7.222222222222222,6.111111111111111,"NIGHT_MOSTLY_CLOUDY,NIGHT_CLEAR,NIGHT_CLEAR,NIGHT_CLOUDY,NIGHT_MOSTLY_CLOUDY,CLEAR,CLEAR,CLEAR,CLEAR","Offshore,Offshore,Offshore,Offshore,Offshore,Offshore,Offshore,Offshore,Offshore",9
5842041f4e65fad6a7708856,2024_03_18,40.113,-74.028,Manasquan Inlet,1.8977777777777778,0.29735555555555554,0.5987296296296296,7.222222222222222,6.111111111111111,"NIGHT_MOSTLY_CLOUDY,NIGHT_MOSTLY_CLEAR,NIGHT_MOSTLY_CLEAR,NIGHT_CLOUDY,NIGHT_MOSTLY_CLOUDY,MOSTLY_CLEAR,CLEAR,CLEAR,CLEAR","Cross-shore,Offshore,Offshore,Offshore,Offshore,Offshore,Offshore,Offshore,Offshore",9
5842041f4e65fad6a7708857,2024_03_18,39.941519877445664,-74.06829,Casino Pier,1.8977777777777778,0.2944851851851852,0.5989148148148148,7.222222222222222,6.111111111111111,"NIGHT_CLEAR,NIGHT_CLEAR,NIGHT_MOSTLY_CLEAR,NIGHT_MOSTLY_CLOUDY,NIGHT_CLOUDY,MOSTLY_CLOUDY,CLEAR,CLEAR,CLEAR","Offshore,Offshore,Offshore,Offshore,Offshore,Offshore,Offshore,Offshore,Offshore",9
5842041f4e65fad6a7708858,2024_03_18,39.28223089949212,-74.55766,North End OC,0.8711111111111111,0.01600740740740742,0.32349259259259255,8.11111111111111,6.111111111111111,"NIGHT_CLEAR,NIGHT_CLEAR,NIGHT_CLEAR,NIGHT_CLEAR,NIGHT_MOSTLY_CLOUDY,MOSTLY_CLOUDY,CLEAR,CLEAR,CLEAR","Offshore,Offshore,Offshore,Offshore,Offshore,Offshore,Offshore,Offshore,Offshore",9
5842041f4e65fad6a770885b,2024_03_18,39.65080599934257,-74.17146,Ship Bottom,1.8977777777777778,0.29402222222222224,0.597062962962963,8.11111111111111,6.111111111111111,"NIGHT_CLEAR,NIGHT_CLEAR,NIGHT_CLEAR,NIGHT_CLEAR,NIGHT_CLEAR,MOSTLY_CLOUDY,CLEAR,CLEAR,CLEAR","Offshore,Cross-shore,Offshore,Offshore,Offshore,Offshore,Offshore,Offshore,Offshore",9
5842041f4e65fad6a7708863,2024_03_18,36.034151543144,-75.66791,Third Street,1.2222222222222223,0.3133888888888889,0.6165,9.222222222222221,8.11111111111111,"NIGHT_OVERCAST,NIGHT_DRIZZLE,NIGHT_MOSTLY_CLEAR,NIGHT_CLEAR,NIGHT_CLEAR,CLEAR,MOSTLY_CLOUDY,MOSTLY_CLOUDY,MOSTLY_CLOUDY","Onshore,Onshore,Cross-shore,Cross-shore,Cross-shore,Onshore,Onshore,Onshore,Cross-shore",9
5842041f4e65fad6a7708867,2024_03_18,35.605833221351425,-75.46303,S-Turns,0.8333333333333334,0.38754444444444447,0.6914777777777779,10.222222222222221,9.222222222222221,"NIGHT_CLEAR,NIGHT_DRIZZLE,NIGHT_MOSTLY_CLOUDY,NIGHT_CLEAR,NIGHT_CLEAR,CLEAR,MOSTLY_CLEAR,CLEAR,CLEAR","Offshore,Offshore,Offshore,Cross-shore,Cross-shore,Cross-shore,Cross-shore,Cross-shore,Cross-shore",9
5842041f4e65fad6a770886d,2024_03_18,38.338461,-75.08117,Ocean City Boardwalk,1.3888888888888888,0.13255555555555557,0.44004074074074073,8.11111111111111,7.111111111111111,"NIGHT_CLEAR,NIGHT_MOSTLY_CLOUDY,NIGHT_OVERCAST,NIGHT_MOSTLY_CLOUDY,NIGHT_MOSTLY_CLOUDY,MOSTLY_CLEAR,CLEAR,CLEAR,CLEAR","Cross-shore,Cross-shore,Cross-shore,Cross-shore,Cross-shore,Cross-shore,Offshore,Offshore,Offshore",9
5842041f4e65fad6a770886f,2024_03_18,29.844757212379562,-81.26136,A St.,2,0.035555555555555556,0.34,18,18,"NIGHT_CLEAR,NIGHT_CLEAR,NIGHT_CLEAR,NIGHT_CLOUDY,NIGHT_CLEAR,BRIEF_SHOWERS,MIST,MIST,MOSTLY_CLEAR","Offshore,Offshore,Offshore,Offshore,Offshore,Offshore,Offshore,Cross-shore,Cross-shore",9
5842041f4e65fad6a7708871,2024_03_18,29.069417851135093,-80.90824,New Smyrna Beach,1.6111111111111112,0.11165555555555556,0.41781111111111113,19.11111111111111,18.11111111111111,"NIGHT_CLEAR,NIGHT_CLEAR,NIGHT_CLEAR,NIGHT_CLEAR,NIGHT_CLEAR,MOSTLY_CLOUDY,MIST,MOSTLY_CLOUDY,MIST","Offshore,Offshore,Offshore,Offshore,Offshore,Offshore,Offshore,Offshore,Offshore",9
5842041f4e65fad6a7708872,2024_03_18,28.367707417566,-80.60171,Cocoa Beach Pier,0.6388888888888888,-8.333333333333333e-4,0.24930370370370372,23,21.11111111111111,"NIGHT_CLEAR,NIGHT_CLEAR,NIGHT_CLEAR,NIGHT_CLEAR,NIGHT_CLEAR,CLEAR,CLEAR,MOSTLY_CLOUDY,MOSTLY_CLOUDY","Offshore,Offshore,Offshore,Offshore,Offshore,Offshore,Offshore,Offshore,Offshore",9
5842041f4e65fad6a7708873,2024_03_18,28.091782738658846,-80.56479,Indialantic,1.1666666666666667,0.02972222222222222,0.27155555555555555,23,21.11111111111111,"NIGHT_CLEAR,NIGHT_CLEAR,NIGHT_CLEAR,NIGHT_CLEAR,NIGHT_CLEAR,CLEAR,CLEAR,CLEAR,CLEAR","Offshore,Offshore,Offshore,Offshore,Offshore,Offshore,Offshore,Offshore,Offshore",9
5842041f4e65fad6a7708876,2024_03_18,27.25392904143517,-80.19455,Jensen Beach,1.1666666666666667,0.028888888888888888,0.26987777777777777,23.11111111111111,22.11111111111111,"NIGHT_CLEAR,NIGHT_CLEAR,NIGHT_CLEAR,NIGHT_CLEAR,NIGHT_CLEAR,CLEAR,CLEAR,CLEAR,CLEAR","Offshore,Offshore,Offshore,Offshore,Offshore,Cross-shore,Cross-shore,Offshore,Offshore",9
5842041f4e65fad6a7708879,2024_03_18,26.76346795333825,-80.0360655784607,Reef Road,1.1666666666666667,0.04777777777777777,0.28682222222222226,24.11111111111111,23.11111111111111,"NIGHT_MIST,NIGHT_MIST,NIGHT_CLEAR,NIGHT_CLEAR,NIGHT_CLEAR,BRIEF_SHOWERS_POSSIBLE,CLEAR,CLEAR,CLEAR","Offshore,Offshore,Offshore,Cross-shore,Cross-shore,Cross-shore,Cross-shore,Cross-shore,Cross-shore",9
5842041f4e65fad6a770887c,2024_03_18,26.336499228484,-80.06956100463,Boca Raton Inlet,0.6111111111111112,0,0.2772777777777778,25,23.11111111111111,"NIGHT_CLEAR,NIGHT_MOSTLY_CLEAR,NIGHT_CLEAR,NIGHT_CLEAR,NIGHT_CLEAR,CLEAR,CLEAR,CLEAR,CLEAR","Cross-shore,Cross-shore,Cross-shore,Cross-shore,Cross-shore,Cross-shore,Cross-shore,Cross-shore,Cross-shore",9
5842041f4e65fad6a770887d,2024_03_18,26.31719311695038,-80.07452525176168,Deerfield Beach Pier,0,0.052450555555555556,0.1978902777777778,25,23.11111111111111,"NIGHT_CLEAR,NIGHT_MOSTLY_CLEAR,NIGHT_MIST,NIGHT_CLEAR,NIGHT_CLEAR,CLEAR,CLEAR,CLEAR,CLEAR","Cross-shore,Cross-shore,Cross-shore,Cross-shore,Cross-shore,Cross-shore,Cross-shore,Cross-shore,Cross-shore",9
5842041f4e65fad6a7708881,2024_03_18,30.20276320866628,-85.85626528676136,"Spyglass Dr., Panama City",0,0,0.14393333333333333,18.444444444444443,18,"NIGHT_CLEAR,NIGHT_FOG,NIGHT_MOSTLY_CLOUDY,NIGHT_MOSTLY_CLOUDY,NIGHT_CLEAR,CLEAR,MOSTLY_CLOUDY,CLEAR,MOSTLY_CLOUDY","Offshore,Offshore,Offshore,Offshore,Offshore,Offshore,Offshore,Offshore,Offshore",9
5842041f4e65fad6a7708884,2024_03_18,33.39000832738053,-117.59852,Cottons,3,0.5239074074074074,0.828837037037037,16,16,"NIGHT_MIST,NIGHT_MOSTLY_CLOUDY,NIGHT_CLEAR,NIGHT_MOSTLY_CLOUDY,NIGHT_MIST,NIGHT_MIST,NIGHT_MIST,MIST,CLEAR","Offshore,Offshore,Cross-shore,Cross-shore,Cross-shore,Cross-shore,Cross-shore,Offshore,Cross-shore",9
5842041f4e65fad6a7708885,2024_03_18,33.359416282661,-117.54167901405711,Trails,3,0.34888888888888886,0.6511111111111111,15,15,"NIGHT_MOSTLY_CLOUDY,NIGHT_MOSTLY_CLOUDY,NIGHT_MIST,NIGHT_MIST,NIGHT_MIST,NIGHT_MIST,NIGHT_MIST,MIST,CLEAR","Offshore,Offshore,Offshore,Offshore,Offshore,Offshore,Offshore,Offshore,Offshore",9
5842041f4e65fad6a7708886,2024_03_18,33.38042605929805,-117.58332,Middles,3,0.4698111111111111,0.7916740740740741,16,16,"NIGHT_MIST,NIGHT_MOSTLY_CLOUDY,NIGHT_CLEAR,NIGHT_MOSTLY_CLOUDY,NIGHT_MIST,NIGHT_MIST,NIGHT_MIST,MIST,CLEAR","Offshore,Offshore,Offshore,Offshore,Offshore,Offshore,Offshore,Offshore,Offshore",9
5842041f4e65fad6a7708887,2024_03_18,33.38445596302903,-117.59445,Upper Trestles,3,0.6315,0.9364296296296296,16,16,"NIGHT_MIST,NIGHT_MOSTLY_CLOUDY,NIGHT_CLEAR,NIGHT_MOSTLY_CLOUDY,NIGHT_MIST,NIGHT_MIST,NIGHT_MIST,MIST,CLEAR","Offshore,Offshore,Offshore,Offshore,Offshore,Offshore,Offshore,Offshore,Offshore",9
5842041f4e65fad6a7708889,2024_03_18,28.944414,-95.28883,Surfside,0.6666666666666666,0.4008566666666667,0.6263388888888889,19,19,"NIGHT_OVERCAST,NIGHT_LIGHT_RAIN,NIGHT_MOSTLY_CLOUDY,NIGHT_MOSTLY_CLOUDY,NIGHT_MOSTLY_CLOUDY,NIGHT_MOSTLY_CLOUDY,MOSTLY_CLOUDY,CLEAR,CLEAR","Offshore,Offshore,Offshore,Cross-shore,Cross-shore,Cross-shore,Cross-shore,Cross-shore,Cross-shore",9
5842041f4e65fad6a770888a,2024_03_18,33.38143999849023,-117.58843,Lower Trestles,3,0.696962962962963,1.0210481481481481,16,16,"NIGHT_MIST,NIGHT_MOSTLY_CLOUDY,NIGHT_CLEAR,NIGHT_MOSTLY_CLOUDY,NIGHT_MIST,NIGHT_MIST,NIGHT_MIST,MIST,CLEAR","Offshore,Offshore,Offshore,Offshore,Offshore,Offshore,Offshore,Offshore,Offshore",9
5842041f4e65fad6a770888b,2024_03_18,33.379622288757,-117.57894,Church,3,0.544162962962963,0.8650074074074074,16,16,"NIGHT_MIST,NIGHT_MOSTLY_CLOUDY,NIGHT_CLEAR,NIGHT_MOSTLY_CLOUDY,NIGHT_MIST,NIGHT_MIST,NIGHT_MIST,MIST,CLEAR","Offshore,Offshore,Cross-shore,Cross-shore,Cross-shore,Cross-shore,Offshore,Offshore,Offshore",9
5842041f4e65fad6a770888d,2024_03_18,21.679,-158.042,Sunset Beach,3,3.0244444444444443,3.6133333333333333,26,25,"NIGHT_MOSTLY_CLOUDY,NIGHT_MOSTLY_CLEAR,NIGHT_MOSTLY_CLEAR,NIGHT_CLEAR,NIGHT_MOSTLY_CLEAR,NIGHT_MOSTLY_CLEAR,NIGHT_MOSTLY_CLEAR,NIGHT_BRIEF_SHOWERS,NIGHT_MOSTLY_CLOUDY","Offshore,Offshore,Offshore,Offshore,Offshore,Offshore,Offshore,Offshore,Offshore",9
5842041f4e65fad6a770888e,2024_03_18,21.670550036401,-158.0482,Rocky Point,3,2.8755555555555556,3.4355555555555557,26,25,"NIGHT_CLEAR,NIGHT_CLEAR,NIGHT_MOSTLY_CLEAR,NIGHT_MOSTLY_CLEAR,NIGHT_CLEAR,NIGHT_MOSTLY_CLEAR,NIGHT_MOSTLY_CLEAR,NIGHT_CLEAR,NIGHT_MOSTLY_CLEAR","Cross-shore,Cross-shore,Offshore,Offshore,Offshore,Cross-shore,Offshore,Cross-shore,Cross-shore",9
5842041f4e65fad6a770888f,2024_03_18,21.668,-158.05,Chambers,3,2.77,3.3111111111111113,24,24,"NIGHT_CLEAR,NIGHT_CLEAR,NIGHT_MOSTLY_CLEAR,NIGHT_MOSTLY_CLEAR,NIGHT_CLEAR,NIGHT_MOSTLY_CLEAR,NIGHT_MOSTLY_CLEAR,NIGHT_CLEAR,NIGHT_MOSTLY_CLEAR","Cross-shore,Cross-shore,Offshore,Offshore,Cross-shore,Offshore,Offshore,Cross-shore,Offshore",9
5842041f4e65fad6a7708890,2024_03_18,21.66522,-158.0526,Pipeline,3.888888888888889,2.33,2.785555555555556,26,25,"NIGHT_CLEAR,NIGHT_CLEAR,NIGHT_MOSTLY_CLEAR,NIGHT_MOSTLY_CLEAR,NIGHT_CLEAR,NIGHT_MOSTLY_CLEAR,NIGHT_MOSTLY_CLEAR,NIGHT_CLEAR,NIGHT_MOSTLY_CLEAR","Cross-shore,Cross-shore,Cross-shore,Offshore,Offshore,Cross-shore,Offshore,Cross-shore,Cross-shore",9
5842041f4e65fad6a7708891,2024_03_18,21.665,-158.054,Backdoor,3,2.33,2.785555555555556,26,25,"NIGHT_CLEAR,NIGHT_CLEAR,NIGHT_MOSTLY_CLEAR,NIGHT_MOSTLY_CLEAR,NIGHT_CLEAR,NIGHT_MOSTLY_CLEAR,NIGHT_MOSTLY_CLEAR,NIGHT_CLEAR,NIGHT_MOSTLY_CLEAR","Cross-shore,Cross-shore,Cross-shore,Offshore,Cross-shore,Cross-shore,Offshore,Cross-shore,Cross-shore",9
5842041f4e65fad6a7708892,2024_03_18,21.662,-158.057,Rockpile,3,2.942222222222222,3.5166666666666666,24,24,"NIGHT_CLEAR,NIGHT_CLEAR,NIGHT_MOSTLY_CLEAR,NIGHT_MOSTLY_CLEAR,NIGHT_CLEAR,NIGHT_MOSTLY_CLEAR,NIGHT_MOSTLY_CLEAR,NIGHT_CLEAR,NIGHT_MOSTLY_CLEAR","Cross-shore,Cross-shore,Offshore,Cross-shore,Cross-shore,Cross-shore,Offshore,Cross-shore,Cross-shore",9
5842041f4e65fad6a7708893,2024_03_18,21.65870453806827,-158.06058,Log Cabins,3,2.3133333333333335,2.7655555555555558,24,24,"NIGHT_CLEAR,NIGHT_CLEAR,NIGHT_MOSTLY_CLEAR,NIGHT_MOSTLY_CLEAR,NIGHT_CLEAR,NIGHT_MOSTLY_CLEAR,NIGHT_MOSTLY_CLEAR,NIGHT_CLEAR,NIGHT_MOSTLY_CLEAR","Cross-shore,Cross-shore,Offshore,Offshore,Cross-shore,Cross-shore,Offshore,Cross-shore,Cross-shore",9
5842041f4e65fad6a7708894,2024_03_18,21.66203493640557,-158.05495,Off-The-Wall,3,3.017777777777778,3.6055555555555556,24,24,"NIGHT_CLEAR,NIGHT_CLEAR,NIGHT_MOSTLY_CLEAR,NIGHT_MOSTLY_CLEAR,NIGHT_CLEAR,NIGHT_MOSTLY_CLEAR,NIGHT_MOSTLY_CLEAR,NIGHT_CLEAR,NIGHT_MOSTLY_CLEAR","Cross-shore,Cross-shore,Offshore,Offshore,Offshore,Cross-shore,Offshore,Cross-shore,Cross-shore",9
5842041f4e65fad6a7708895,2024_03_18,21.643,-158.067,Waimea Bay,NA,2.8744444444444444,3.4355555555555557,26,25,"NIGHT_CLEAR,NIGHT_CLEAR,NIGHT_BRIEF_SHOWERS,NIGHT_MOSTLY_CLEAR,NIGHT_CLEAR,NIGHT_MOSTLY_CLEAR,NIGHT_MOSTLY_CLEAR,NIGHT_CLEAR,NIGHT_MOSTLY_CLEAR","Offshore,Offshore,Offshore,Offshore,Offshore,Offshore,Offshore,Offshore,Offshore",9
5842041f4e65fad6a7708896,2024_03_18,21.622,-158.087,Hultin's,3,2.658888888888889,3.178888888888889,26,25,"NIGHT_MOSTLY_CLEAR,NIGHT_CLEAR,NIGHT_CLEAR,NIGHT_CLEAR,NIGHT_CLEAR,NIGHT_CLEAR,NIGHT_MOSTLY_CLEAR,NIGHT_CLEAR,NIGHT_MOSTLY_CLEAR","Offshore,Offshore,Offshore,Offshore,Offshore,Offshore,Offshore,Offshore,Offshore",9
5842041f4e65fad6a7708897,2024_03_18,21.623,-158.085,Jocko's,3,2.236666666666667,2.671111111111111,24,24,"NIGHT_MOSTLY_CLEAR,NIGHT_CLEAR,NIGHT_BRIEF_SHOWERS_POSSIBLE,NIGHT_CLEAR,NIGHT_CLEAR,NIGHT_CLEAR,NIGHT_MOSTLY_CLEAR,NIGHT_CLEAR,NIGHT_MOSTLY_CLEAR","Onshore,Onshore,Onshore,Onshore,Onshore,Onshore,Onshore,Onshore,Onshore",9
5842041f4e65fad6a7708898,2024_03_18,21.62,-158.088,Laniakea,3,2.1655555555555557,2.586666666666667,26,25,"NIGHT_MOSTLY_CLEAR,NIGHT_CLEAR,NIGHT_CLEAR,NIGHT_CLEAR,NIGHT_CLEAR,NIGHT_CLEAR,NIGHT_MOSTLY_CLEAR,NIGHT_CLEAR,NIGHT_MOSTLY_CLEAR","Cross-shore,Cross-shore,Cross-shore,Cross-shore,Cross-shore,Cross-shore,Cross-shore,Cross-shore,Cross-shore",9
5842041f4e65fad6a7708899,2024_03_18,21.625,-158.083,Chun's,3,2.256666666666667,2.6977777777777776,24,24,"NIGHT_MOSTLY_CLEAR,NIGHT_CLEAR,NIGHT_CLEAR,NIGHT_CLEAR,NIGHT_CLEAR,NIGHT_CLEAR,NIGHT_MOSTLY_CLEAR,NIGHT_CLEAR,NIGHT_MOSTLY_CLEAR","Offshore,Offshore,Offshore,Offshore,Offshore,Offshore,Offshore,Offshore,Offshore",9
5842041f4e65fad6a770889c,2024_03_18,21.286357895152136,-157.8515,South Shore - Ala Moana Park,3,0.7855555555555556,1.0466666666666666,24,24,"NIGHT_CLEAR,NIGHT_CLEAR,NIGHT_CLEAR,NIGHT_CLEAR,NIGHT_CLEAR,NIGHT_CLEAR,NIGHT_CLEAR,NIGHT_CLEAR,NIGHT_CLEAR","Offshore,Offshore,Offshore,Offshore,Offshore,Offshore,Offshore,Offshore,Offshore",9
5842041f4e65fad6a770889d,2024_03_18,19.606,-155.978,Banyans,3.2222222222222223,1.0377777777777777,1.2755555555555556,26,25,"NIGHT_MOSTLY_CLEAR,NIGHT_MOSTLY_CLOUDY,NIGHT_CLEAR,NIGHT_CLEAR,NIGHT_FOG,NIGHT_BRIEF_SHOWERS,NIGHT_FOG,NIGHT_MOSTLY_CLEAR,NIGHT_CLEAR","Onshore,Onshore,Cross-shore,Onshore,Onshore,Onshore,Cross-shore,Offshore,Offshore",9
5842041f4e65fad6a770889e,2024_03_18,20.029,-155.831,Kawaihae,2,0.4444,0.6780088888888889,24,24,"NIGHT_CLEAR,NIGHT_CLEAR,NIGHT_CLEAR,NIGHT_CLEAR,NIGHT_CLEAR,NIGHT_CLEAR,NIGHT_CLEAR,NIGHT_CLEAR,NIGHT_CLEAR","Offshore,Offshore,Offshore,Offshore,Offshore,Cross-shore,Onshore,Offshore,Offshore",9
5842041f4e65fad6a770889f,2024_03_18,33.07541383424675,-117.3105,Grandview,3,0.44555555555555554,0.7477777777777778,16,16,"NIGHT_MOSTLY_CLOUDY,NIGHT_MOSTLY_CLOUDY,NIGHT_CLEAR,NIGHT_CLEAR,NIGHT_CLEAR,NIGHT_CLEAR,NIGHT_CLEAR,MIST,MIST","Cross-shore,Cross-shore,Cross-shore,Cross-shore,Offshore,Cross-shore,Offshore,Offshore,Cross-shore",9
5842041f4e65fad6a77088a0,2024_03_18,33.065267421296596,-117.30577,Beacons,3,0.4288888888888889,0.7355555555555555,16,16,"NIGHT_MOSTLY_CLOUDY,NIGHT_MOSTLY_CLOUDY,NIGHT_MOSTLY_CLOUDY,NIGHT_CLEAR,NIGHT_CLEAR,NIGHT_CLEAR,NIGHT_CLEAR,MIST,MIST","Cross-shore,Onshore,Onshore,Cross-shore,Cross-shore,Cross-shore,Offshore,Offshore,Offshore",9
5842041f4e65fad6a77088a2,2024_03_18,21.252,-157.805,Diamond Head,3,0.8669988888888889,1.1864222222222223,26,25,"NIGHT_MOSTLY_CLEAR,NIGHT_MOSTLY_CLEAR,NIGHT_CLEAR,NIGHT_CLEAR,NIGHT_CLEAR,NIGHT_CLEAR,NIGHT_CLEAR,NIGHT_CLEAR,NIGHT_MOSTLY_CLOUDY","Offshore,Offshore,Offshore,Offshore,Offshore,Offshore,Offshore,Offshore,Offshore",9
5842041f4e65fad6a77088a3,2024_03_18,33.04694255008896,-117.29966,Moonlight State Beach,3,0.4577777777777778,0.7622222222222222,16,16,"NIGHT_CLEAR,NIGHT_MOSTLY_CLOUDY,NIGHT_CLEAR,NIGHT_CLEAR,NIGHT_CLEAR,NIGHT_MOSTLY_CLOUDY,NIGHT_CLEAR,CLEAR,CLEAR","Cross-shore,Offshore,Offshore,Offshore,Offshore,Offshore,Offshore,Offshore,Offshore",9
5842041f4e65fad6a77088a5,2024_03_18,33.08685865930869,-117.31532,Ponto,3,0.6088888888888889,0.9155555555555556,16,16,"NIGHT_MOSTLY_CLOUDY,NIGHT_MOSTLY_CLOUDY,NIGHT_CLEAR,NIGHT_CLEAR,NIGHT_CLEAR,NIGHT_CLEAR,NIGHT_CLEAR,MIST,MIST","Offshore,Offshore,Offshore,Offshore,Offshore,Cross-shore,Offshore,Offshore,Offshore",9
5842041f4e65fad6a77088a6,2024_03_18,33.130343587871906,-117.33667796442558,Terra Mar Point,2.888888888888889,0.3628222222222222,0.6666407407407408,16,16,"NIGHT_CLEAR,NIGHT_CLEAR,NIGHT_CLEAR,NIGHT_CLEAR,NIGHT_CLEAR,NIGHT_CLEAR,NIGHT_MIST,MIST,CLEAR","Cross-shore,Cross-shore,Offshore,Offshore,Offshore,Offshore,Offshore,Offshore,Offshore",9
5842041f4e65fad6a77088af,2024_03_18,32.95916304183685,-117.26963,Del Mar,3,0.67,0.9755555555555555,16,16,"NIGHT_CLEAR,NIGHT_MOSTLY_CLOUDY,NIGHT_CLEAR,NIGHT_CLEAR,NIGHT_MOSTLY_CLOUDY,NIGHT_MOSTLY_CLOUDY,NIGHT_MIST,MOSTLY_CLOUDY,MOSTLY_CLOUDY","Onshore,Onshore,Onshore,Onshore,Onshore,Onshore,Cross-shore,Offshore,Offshore",9
5842041f4e65fad6a77088b0,2024_03_18,32.97527261243354,-117.2721061331305,Del Mar Rivermouth,3,0.6411111111111111,0.9477777777777778,16,16,"NIGHT_CLEAR,NIGHT_MOSTLY_CLOUDY,NIGHT_CLEAR,NIGHT_CLEAR,NIGHT_MOSTLY_CLOUDY,NIGHT_MOSTLY_CLOUDY,NIGHT_MIST,MOSTLY_CLOUDY,CLEAR","Onshore,Cross-shore,Onshore,Offshore,Offshore,Offshore,Cross-shore,Offshore,Offshore",9
5842041f4e65fad6a77088b1,2024_03_18,33.01352178146273,-117.28219,Cardiff Reef,3,0.6840481481481482,0.9900888888888889,16,16,"NIGHT_CLEAR,NIGHT_MOSTLY_CLOUDY,NIGHT_CLEAR,NIGHT_CLEAR,NIGHT_MOSTLY_CLOUDY,NIGHT_MIST,NIGHT_MIST,CLEAR,CLEAR","Offshore,Cross-shore,Cross-shore,Cross-shore,Cross-shore,Cross-shore,Offshore,Offshore,Offshore",9
5842041f4e65fad6a77088b3,2024_03_18,33.00211185876003,-117.2811,Seaside Reef,3,0.6798814814814815,0.9849037037037037,16,16,"NIGHT_MOSTLY_CLOUDY,NIGHT_MOSTLY_CLOUDY,NIGHT_CLEAR,NIGHT_CLEAR,NIGHT_MOSTLY_CLOUDY,NIGHT_MOSTLY_CLOUDY,NIGHT_MIST,CLEAR,CLEAR","Offshore,Offshore,Offshore,Cross-shore,Cross-shore,Cross-shore,Offshore,Offshore,Offshore",9
5842041f4e65fad6a77088b4,2024_03_18,33.0341859796287,-117.29552,Swami's,3,0.6575444444444445,0.9809111111111111,16,16,"NIGHT_CLEAR,NIGHT_MOSTLY_CLOUDY,NIGHT_MOSTLY_CLOUDY,NIGHT_CLEAR,NIGHT_MOSTLY_CLOUDY,NIGHT_MIST,NIGHT_MIST,CLEAR,CLEAR","Cross-shore,Offshore,Offshore,Offshore,Offshore,Offshore,Offshore,Offshore,Offshore",9
5842041f4e65fad6a77088b7,2024_03_18,33.04569760260221,-117.2994,D Street,3,0.5577777777777778,0.8633333333333333,16,16,"NIGHT_CLEAR,NIGHT_MOSTLY_CLOUDY,NIGHT_CLEAR,NIGHT_CLEAR,NIGHT_CLEAR,NIGHT_MOSTLY_CLOUDY,NIGHT_CLEAR,CLEAR,CLEAR","Cross-shore,Offshore,Offshore,Offshore,Offshore,Offshore,Offshore,Offshore,Offshore",9
5842041f4e65fad6a77088b8,2024_03_18,33.02090944350196,-117.28535,San Elijo State Beach,3,0.40124814814814813,0.7073814814814815,16,16,"NIGHT_CLEAR,NIGHT_MOSTLY_CLOUDY,NIGHT_CLEAR,NIGHT_CLEAR,NIGHT_MOSTLY_CLOUDY,NIGHT_MIST,NIGHT_MIST,CLEAR,CLEAR","Offshore,Cross-shore,Cross-shore,Cross-shore,Cross-shore,Cross-shore,Offshore,Offshore,Offshore",9
5842041f4e65fad6a77088c2,2024_03_18,32.80662846492798,-117.2688764333725,PB Point,3,0.6544444444444445,0.9611111111111111,15,15,"NIGHT_MOSTLY_CLOUDY,NIGHT_MOSTLY_CLOUDY,NIGHT_MOSTLY_CLOUDY,NIGHT_MOSTLY_CLOUDY,NIGHT_MOSTLY_CLOUDY,NIGHT_MOSTLY_CLOUDY,NIGHT_MOSTLY_CLOUDY,MOSTLY_CLOUDY,MOSTLY_CLOUDY","Cross-shore,Offshore,Offshore,Offshore,Cross-shore,Cross-shore,Offshore,Cross-shore,Cross-shore",9
5842041f4e65fad6a77088c4,2024_03_18,32.8060476681448,-117.26479,Old Man's at Tourmaline,3,0.5122222222222222,0.82,15,15,"NIGHT_MOSTLY_CLOUDY,NIGHT_MOSTLY_CLOUDY,NIGHT_MOSTLY_CLOUDY,NIGHT_MOSTLY_CLOUDY,NIGHT_MOSTLY_CLOUDY,NIGHT_MOSTLY_CLOUDY,NIGHT_MOSTLY_CLOUDY,MOSTLY_CLOUDY,MOSTLY_CLOUDY","Cross-shore,Cross-shore,Cross-shore,Offshore,Offshore,Cross-shore,Offshore,Cross-shore,Cross-shore",9
5842041f4e65fad6a77088cb,2024_03_18,32.557056711256,-117.1327445020322,Tijuana Slough,2.7777777777777777,0.3844444444444445,0.6888888888888889,15,15,"NIGHT_MOSTLY_CLOUDY,NIGHT_MOSTLY_CLOUDY,NIGHT_CLEAR,NIGHT_CLEAR,NIGHT_MOSTLY_CLOUDY,NIGHT_MOSTLY_CLOUDY,NIGHT_MOSTLY_CLOUDY,CLEAR,CLEAR","Offshore,Cross-shore,Offshore,Offshore,Offshore,Offshore,Offshore,Offshore,Offshore",9
5842041f4e65fad6a77088cc,2024_03_18,32.863,-117.257,La Jolla Shores,3,0.5377777777777778,0.8388888888888889,16,16,"NIGHT_CLEAR,NIGHT_MOSTLY_CLOUDY,NIGHT_CLEAR,NIGHT_CLEAR,NIGHT_MOSTLY_CLOUDY,NIGHT_MIST,NIGHT_MIST,MIST,MIST","Offshore,Onshore,Onshore,Onshore,Onshore,Onshore,Cross-shore,Cross-shore,Cross-shore",9
5842041f4e65fad6a77088ce,2024_03_18,32.67443657790586,-117.17421316238693,Coronado Beach,3,0.4311111111111111,0.7388888888888889,15,15,"NIGHT_MOSTLY_CLOUDY,NIGHT_MOSTLY_CLOUDY,NIGHT_CLEAR,NIGHT_CLEAR,NIGHT_CLEAR,NIGHT_MOSTLY_CLOUDY,NIGHT_MOSTLY_CLOUDY,CLEAR,CLEAR","Onshore,Onshore,Offshore,Offshore,Offshore,Offshore,Offshore,Offshore,Offshore",9
5842041f4e65fad6a77088cf,2024_03_18,33.40484417640326,-117.60749,San Clemente State Beach,3,0.3377777777777778,0.6411111111111111,15,15,"NIGHT_MOSTLY_CLOUDY,NIGHT_MOSTLY_CLOUDY,NIGHT_MOSTLY_CLEAR,NIGHT_MOSTLY_CLOUDY,NIGHT_MIST,NIGHT_MIST,NIGHT_MIST,CLEAR,CLEAR","Onshore,Offshore,Cross-shore,Cross-shore,Cross-shore,Offshore,Offshore,Offshore,Offshore",9
5842041f4e65fad6a77088d5,2024_03_18,33.4663042002114,-117.7168352817103,Strands,3,0.5085148148148149,0.8341037037037037,15,15,"NIGHT_MOSTLY_CLOUDY,NIGHT_MOSTLY_CLOUDY,NIGHT_MOSTLY_CLOUDY,NIGHT_MOSTLY_CLOUDY,NIGHT_MOSTLY_CLOUDY,NIGHT_MOSTLY_CLOUDY,NIGHT_MOSTLY_CLOUDY,MIST,MIST","Onshore,Offshore,Offshore,Offshore,Cross-shore,Cross-shore,Offshore,Offshore,Offshore",9
5842041f4e65fad6a77088d7,2024_03_18,33.4609858001748,-117.68535,Doheny State Beach,2,0.0806,0.3867333333333333,16,16,"NIGHT_MOSTLY_CLOUDY,NIGHT_MOSTLY_CLOUDY,NIGHT_MOSTLY_CLOUDY,NIGHT_MOSTLY_CLOUDY,NIGHT_MOSTLY_CLOUDY,NIGHT_MIST,NIGHT_MIST,MIST,MIST","Offshore,Offshore,Offshore,Offshore,Offshore,Offshore,Offshore,Offshore,Offshore",9
5842041f4e65fad6a77088dc,2024_03_18,33.50894790083017,-117.75243,Aliso Creek,2.4444444444444446,0.3,0.6044444444444445,15,15,"NIGHT_MOSTLY_CLOUDY,NIGHT_CLOUDY,NIGHT_MOSTLY_CLOUDY,NIGHT_MOSTLY_CLOUDY,NIGHT_MOSTLY_CLOUDY,NIGHT_OVERCAST,NIGHT_MIST,MIST,MIST","Cross-shore,Offshore,Offshore,Cross-shore,Cross-shore,Offshore,Offshore,Offshore,Offshore",9
5842041f4e65fad6a77088dd,2024_03_18,33.5326591767067,-117.77764,Brooks Street,2,0.16777777777777778,0.4711111111111111,15,15,"NIGHT_MOSTLY_CLOUDY,NIGHT_CLOUDY,NIGHT_CLEAR,NIGHT_MOSTLY_CLOUDY,NIGHT_CLOUDY,NIGHT_MIST,NIGHT_MIST,CLOUDY,CLEAR","Onshore,Offshore,Offshore,Offshore,Offshore,Offshore,Offshore,Offshore,Offshore",9
5842041f4e65fad6a77088de,2024_03_18,33.53561225884637,-117.7799,Thalia Street,2,0.22111111111111112,0.53,15,15,"NIGHT_MOSTLY_CLOUDY,NIGHT_CLOUDY,NIGHT_CLEAR,NIGHT_MOSTLY_CLOUDY,NIGHT_CLOUDY,NIGHT_MIST,NIGHT_MIST,CLOUDY,CLEAR","Onshore,Offshore,Offshore,Offshore,Offshore,Offshore,Offshore,Offshore,Offshore",9
5842041f4e65fad6a77088e3,2024_03_18,33.54268310353641,-117.7916,Rockpile,2.7777777777777777,0.3433333333333333,0.6477777777777778,15,15,"NIGHT_MOSTLY_CLOUDY,NIGHT_CLOUDY,NIGHT_CLEAR,NIGHT_MOSTLY_CLOUDY,NIGHT_CLOUDY,NIGHT_MIST,NIGHT_MIST,CLOUDY,CLEAR","Onshore,Offshore,Offshore,Offshore,Offshore,Offshore,Offshore,Offshore,Offshore",9
5842041f4e65fad6a77088e4,2024_03_18,33.7368459504689,-118.10342,"Seal Beach Pier, Southside",2,0.04888888888888889,0.35333333333333333,15,15,"NIGHT_MOSTLY_CLOUDY,NIGHT_MIST,NIGHT_CLEAR,NIGHT_CLEAR,NIGHT_MOSTLY_CLOUDY,NIGHT_CLOUDY,NIGHT_OVERCAST,OVERCAST,OVERCAST","Offshore,Offshore,Cross-shore,Offshore,Offshore,Offshore,Offshore,Offshore,Offshore",9
5842041f4e65fad6a77088e5,2024_03_18,33.73933701820233,-118.117,Ray Bay,2,0.10555555555555556,0.4122222222222222,15,15,"NIGHT_MOSTLY_CLOUDY,NIGHT_MOSTLY_CLOUDY,NIGHT_CLEAR,NIGHT_CLEAR,NIGHT_MOSTLY_CLOUDY,NIGHT_OVERCAST,NIGHT_OVERCAST,MIST,OVERCAST","Offshore,Offshore,Offshore,Offshore,Offshore,Offshore,Offshore,Offshore,Offshore",9
5842041f4e65fad6a77088e7,2024_03_18,33.728733,-118.08982,Surfside,2,0.1988888888888889,0.5033333333333333,15,15,"NIGHT_MIST,NIGHT_MOSTLY_CLOUDY,NIGHT_CLEAR,NIGHT_CLEAR,NIGHT_MOSTLY_CLOUDY,NIGHT_OVERCAST,NIGHT_OVERCAST,OVERCAST,OVERCAST","Offshore,Offshore,Cross-shore,Offshore,Offshore,Offshore,Offshore,Offshore,Offshore",9
5842041f4e65fad6a77088e8,2024_03_18,33.68760321488161,-118.04236,Bolsa Chica State Beach,2.758888888888889,0.4909296296296296,0.7968333333333334,14,14,"NIGHT_MIST,NIGHT_CLEAR,NIGHT_CLEAR,NIGHT_MOSTLY_CLOUDY,NIGHT_MIST,NIGHT_OVERCAST,NIGHT_OVERCAST,OVERCAST,OVERCAST","Onshore,Onshore,Onshore,Onshore,Onshore,Onshore,Offshore,Offshore,Offshore",9
5842041f4e65fad6a77088ea,2024_03_18,33.66704400178788,-118.0192,North HB Streets,2.9811111111111113,0.5310222222222223,0.8671592592592593,14,14,"NIGHT_MIST,NIGHT_MOSTLY_CLOUDY,NIGHT_MOSTLY_CLOUDY,NIGHT_MOSTLY_CLOUDY,NIGHT_MIST,NIGHT_OVERCAST,NIGHT_OVERCAST,OVERCAST,OVERCAST","Onshore,Onshore,Onshore,Onshore,Onshore,Onshore,Offshore,Offshore,Offshore",9
5842041f4e65fad6a77088ed,2024_03_18,33.65475101379567,-118.00291,Huntington Beach Pier Southside,3,0.6098666666666667,0.9134555555555556,14,14,"NIGHT_MIST,NIGHT_MOSTLY_CLOUDY,NIGHT_MOSTLY_CLOUDY,NIGHT_MOSTLY_CLOUDY,NIGHT_OVERCAST,NIGHT_OVERCAST,NIGHT_OVERCAST,OVERCAST,OVERCAST","Cross-shore,Offshore,Offshore,Cross-shore,Offshore,Offshore,Cross-shore,Cross-shore,Offshore",9
5842041f4e65fad6a77088ee,2024_03_18,33.62778647706099,-117.95939,River Jetties,2.9811111111111113,0.48977037037037036,0.8276444444444444,14,14,"NIGHT_MIST,NIGHT_MOSTLY_CLOUDY,NIGHT_MIST,NIGHT_MOSTLY_CLOUDY,NIGHT_OVERCAST,NIGHT_OVERCAST,NIGHT_OVERCAST,MIST,MIST","Cross-shore,Cross-shore,Offshore,Offshore,Offshore,Offshore,Offshore,Offshore,Offshore",9
5842041f4e65fad6a77088f2,2024_03_18,33.605165797643664,-117.92500376701355,Newport Point,3,0.4888888888888889,0.7922222222222223,15,15,"NIGHT_MIST,NIGHT_MOSTLY_CLOUDY,NIGHT_MOSTLY_CLOUDY,NIGHT_MOSTLY_CLOUDY,NIGHT_OVERCAST,NIGHT_OVERCAST,NIGHT_OVERCAST,MIST,MIST","Onshore,Onshore,Onshore,Onshore,Onshore,Onshore,Offshore,Offshore,Offshore",9
5842041f4e65fad6a77088f3,2024_03_18,33.58982984726977,-117.87713,Corona del Mar,1,0.16779555555555556,0.2621811111111111,15,15,"NIGHT_MOSTLY_CLOUDY,NIGHT_MOSTLY_CLOUDY,NIGHT_MOSTLY_CLOUDY,NIGHT_MOSTLY_CLOUDY,NIGHT_OVERCAST,NIGHT_OVERCAST,NIGHT_OVERCAST,MIST,MIST","Cross-shore,Offshore,Offshore,Offshore,Offshore,Offshore,Offshore,Offshore,Offshore",9
5842041f4e65fad6a77088f7,2024_03_18,34.00750300824362,-118.4971783496269,Santa Monica Pier,2,0.24000000000000002,0.5422222222222222,15,15,"NIGHT_MOSTLY_CLOUDY,NIGHT_MOSTLY_CLOUDY,NIGHT_MIST,NIGHT_MIST,NIGHT_MIST,NIGHT_MIST,NIGHT_MIST,MIST,CLEAR","Onshore,Offshore,Offshore,Offshore,Offshore,Offshore,Offshore,Offshore,Offshore",9
5842041f4e65fad6a77088ff,2024_03_18,33.94070283102945,-118.44321,Dockweiler Beach,2.6855555555555557,0.6425797222222223,0.8599944444444445,14,14,"NIGHT_MOSTLY_CLOUDY,NIGHT_OVERCAST,NIGHT_CLEAR,NIGHT_MIST,NIGHT_CLEAR,NIGHT_CLEAR,NIGHT_CLEAR,CLEAR,CLEAR","Onshore,Offshore,Offshore,Offshore,Offshore,Offshore,Offshore,Offshore,Offshore",9
5842041f4e65fad6a7708900,2024_03_18,33.9231846937237,-118.4341465777908,Shitpipe,2.0922222222222224,0.3048148148148148,0.611437037037037,14,14,"NIGHT_MOSTLY_CLOUDY,NIGHT_OVERCAST,NIGHT_CLEAR,NIGHT_CLEAR,NIGHT_CLEAR,NIGHT_CLEAR,NIGHT_CLEAR,CLEAR,CLEAR","Onshore,Offshore,Offshore,Offshore,Offshore,Offshore,Offshore,Offshore,Offshore",9
5842041f4e65fad6a7708902,2024_03_18,33.9108528052242,-118.4279133138721,Hammerland,2.9811111111111113,0.4336592592592593,0.7380592592592593,14,14,"NIGHT_MOSTLY_CLOUDY,NIGHT_OVERCAST,NIGHT_CLEAR,NIGHT_CLEAR,NIGHT_CLEAR,NIGHT_CLEAR,NIGHT_CLEAR,CLEAR,CLEAR","Onshore,Offshore,Offshore,Offshore,Offshore,Offshore,Offshore,Offshore,Offshore",9
5842041f4e65fad6a7708904,2024_03_18,33.87201368173932,-118.4075151286262,Hermosa Beach,2.5555555555555554,0.31296296296296294,0.6194925925925926,14,14,"NIGHT_BRIEF_SHOWERS,NIGHT_MOSTLY_CLOUDY,NIGHT_CLEAR,NIGHT_CLEAR,NIGHT_CLEAR,NIGHT_CLEAR,NIGHT_CLEAR,CLEAR,CLEAR","Onshore,Offshore,Offshore,Offshore,Offshore,Offshore,Offshore,Offshore,Offshore",9
5842041f4e65fad6a7708906,2024_03_18,33.90129336911256,-118.42184,El Porto,2.9811111111111113,0.6289370370370371,0.933337037037037,14,14,"NIGHT_MOSTLY_CLOUDY,NIGHT_MOSTLY_CLOUDY,NIGHT_CLEAR,NIGHT_CLEAR,NIGHT_CLEAR,NIGHT_CLEAR,NIGHT_CLEAR,CLEAR,CLEAR","Onshore,Offshore,Offshore,Offshore,Offshore,Offshore,Offshore,Offshore,Offshore",9
5842041f4e65fad6a7708907,2024_03_18,33.87963506431794,-118.41102,Manhattan Beach Pier,2.7777777777777777,0.4688888888888889,0.7756037037037037,14,14,"NIGHT_MOSTLY_CLOUDY,NIGHT_MOSTLY_CLOUDY,NIGHT_CLOUDY,NIGHT_CLEAR,NIGHT_CLEAR,NIGHT_CLEAR,NIGHT_CLEAR,CLEAR,CLEAR","Onshore,Offshore,Offshore,Offshore,Offshore,Offshore,Offshore,Offshore,Offshore",9
5842041f4e65fad6a7708914,2024_03_18,34.038053387863464,-118.5532,Sunset Point,2,0.09777777777777778,0.40444444444444444,15,15,"NIGHT_CLEAR,NIGHT_MIST,NIGHT_CLEAR,NIGHT_CLEAR,NIGHT_CLEAR,NIGHT_CLEAR,NIGHT_CLEAR,CLEAR,CLEAR","Cross-shore,Cross-shore,Cross-shore,Cross-shore,Cross-shore,Offshore,Cross-shore,Offshore,Onshore",9
5842041f4e65fad6a7708920,2024_03_18,33.80930828074364,-118.3933198342649,Haggerty's,1,0.05333333333333333,0.23533333333333334,16,16,"NIGHT_MOSTLY_CLOUDY,NIGHT_MOSTLY_CLOUDY,NIGHT_CLEAR,NIGHT_CLEAR,NIGHT_CLEAR,NIGHT_CLEAR,NIGHT_CLEAR,CLEAR,CLEAR","Cross-shore,Offshore,Offshore,Cross-shore,Offshore,Offshore,Cross-shore,Offshore,Offshore",9
5842041f4e65fad6a7708921,2024_03_18,33.85044519861206,-118.40048,Redondo Breakwater,2,0.38666666666666666,0.6911111111111111,16,16,"NIGHT_BRIEF_SHOWERS,NIGHT_MOSTLY_CLOUDY,NIGHT_CLEAR,NIGHT_CLEAR,NIGHT_CLEAR,NIGHT_CLEAR,NIGHT_CLEAR,CLEAR,CLEAR","Onshore,Offshore,Offshore,Offshore,Offshore,Offshore,Offshore,Offshore,Offshore",9
5842041f4e65fad6a7708927,2024_03_18,33.70877301002487,-118.2840112858389,Cabrillo Beach,1,0,0.2577777777777778,15,15,"NIGHT_CLEAR,NIGHT_CLEAR,NIGHT_CLEAR,NIGHT_MOSTLY_CLEAR,NIGHT_MOSTLY_CLOUDY,NIGHT_MOSTLY_CLOUDY,NIGHT_OVERCAST,MIST,OVERCAST","Cross-shore,Offshore,Onshore,Offshore,Cross-shore,Cross-shore,Offshore,Offshore,Offshore",9
5842041f4e65fad6a770892c,2024_03_18,33.77209986806257,-118.4268428476672,Lunada Bay,2,0.36777777777777776,0.6722222222222223,15,15,"NIGHT_BRIEF_SHOWERS,NIGHT_MOSTLY_CLOUDY,NIGHT_CLEAR,NIGHT_CLEAR,NIGHT_CLEAR,NIGHT_CLEAR,NIGHT_CLEAR,CLEAR,CLEAR","Onshore,Cross-shore,Cross-shore,Cross-shore,Cross-shore,Cross-shore,Offshore,Offshore,Offshore",9
5842041f4e65fad6a770892d,2024_03_18,33.79294656286144,-118.4070316699825,PV Cove,2,0.4985677777777778,0.7517455555555556,16,16,"NIGHT_MOSTLY_CLOUDY,NIGHT_MOSTLY_CLOUDY,NIGHT_CLEAR,NIGHT_CLEAR,NIGHT_CLEAR,NIGHT_CLEAR,NIGHT_CLEAR,CLEAR,CLEAR","Cross-shore,Offshore,Offshore,Cross-shore,Offshore,Offshore,Offshore,Offshore,Offshore",9
5842041f4e65fad6a7708930,2024_03_18,34.03944902292561,-118.57539,Chart House,1,0.015555555555555555,0.2977777777777778,15,15,"NIGHT_MOSTLY_CLOUDY,NIGHT_MOSTLY_CLOUDY,NIGHT_MIST,NIGHT_MIST,NIGHT_MIST,NIGHT_MOSTLY_CLEAR,NIGHT_CLEAR,CLEAR,CLEAR","Offshore,Cross-shore,Cross-shore,Cross-shore,Cross-shore,Offshore,Offshore,Offshore,Offshore",9
5842041f4e65fad6a7708936,2024_03_18,34.0016731994772,-118.80456,Point Dume,2,0.17076296296296298,0.4734703703703704,15,15,"NIGHT_MIST,NIGHT_MIST,NIGHT_MIST,NIGHT_MIST,NIGHT_MIST,NIGHT_MIST,NIGHT_MIST,MIST,CLEAR","Onshore,Cross-shore,Cross-shore,Cross-shore,Cross-shore,Onshore,Onshore,Cross-shore,Onshore",9
5842041f4e65fad6a7708937,2024_03_18,34.02587527588963,-118.7554939066114,Latigo Point,2,0.22222222222222224,0.5255555555555556,14,14,"NIGHT_CLEAR,NIGHT_BRIEF_SHOWERS_POSSIBLE,NIGHT_BRIEF_SHOWERS_POSSIBLE,NIGHT_CLEAR,NIGHT_CLEAR,NIGHT_CLEAR,NIGHT_CLEAR,CLEAR,CLEAR","Onshore,Onshore,Onshore,Cross-shore,Cross-shore,Cross-shore,Offshore,Offshore,Offshore",9
5842041f4e65fad6a770893f,2024_03_18,34.043762,-118.93294,Leo Carrillo,2.888888888888889,0.42754444444444445,0.7346962962962963,15,15,"NIGHT_CLEAR,NIGHT_MIST,NIGHT_CLEAR,NIGHT_MIST,NIGHT_CLEAR,NIGHT_CLEAR,NIGHT_CLEAR,NIGHT_CLEAR,CLEAR","Offshore,Offshore,Offshore,Offshore,Offshore,Offshore,Offshore,Offshore,Offshore",9
5842041f4e65fad6a7708941,2024_03_18,36.69388179265737,-121.81289,Marina State Beach,3,1.0333333333333334,1.337777777777778,14,14,"NIGHT_CLEAR,NIGHT_CLEAR,NIGHT_CLEAR,NIGHT_CLEAR,NIGHT_CLEAR,NIGHT_CLEAR,NIGHT_MOSTLY_CLOUDY,NIGHT_MOSTLY_CLOUDY,MOSTLY_CLOUDY","Onshore,Cross-shore,Offshore,Offshore,Offshore,Cross-shore,Onshore,Offshore,Offshore",9
5842041f4e65fad6a7708944,2024_03_18,34.34145077331085,-119.416999352654,Stanley's,2,0.11777777777777777,0.4211111111111111,15,15,"NIGHT_CLEAR,NIGHT_CLEAR,NIGHT_CLEAR,NIGHT_CLEAR,NIGHT_CLEAR,NIGHT_CLEAR,NIGHT_CLEAR,NIGHT_CLEAR,CLEAR","Offshore,Offshore,Offshore,Offshore,Offshore,Offshore,Cross-shore,Offshore,Offshore",9
5842041f4e65fad6a7708945,2024_03_18,34.35113017313915,-119.426921498899,Oil Piers,2,0.1488888888888889,0.4522222222222222,15,15,"NIGHT_CLEAR,NIGHT_CLEAR,NIGHT_CLEAR,NIGHT_CLEAR,NIGHT_CLEAR,NIGHT_CLEAR,NIGHT_CLEAR,NIGHT_CLEAR,CLEAR","Offshore,Offshore,Offshore,Offshore,Offshore,Offshore,Offshore,Offshore,Offshore",9
5842041f4e65fad6a770894c,2024_03_18,34.17876333306018,-119.2399483564372,Oxnard,3,0.49222222222222223,0.7955555555555556,15,15,"NIGHT_CLEAR,NIGHT_CLEAR,NIGHT_CLEAR,NIGHT_MIST,NIGHT_MIST,NIGHT_MIST,NIGHT_CLEAR,NIGHT_MIST,CLEAR","Offshore,Offshore,Offshore,Offshore,Offshore,Offshore,Offshore,Offshore,Offshore",9
5842041f4e65fad6a7708957,2024_03_18,34.31720331100517,-119.3882324751725,Pitas Point,2,0.15444444444444444,0.4588888888888889,15,15,"NIGHT_MIST,NIGHT_CLEAR,NIGHT_CLEAR,NIGHT_CLEAR,NIGHT_CLEAR,NIGHT_CLEAR,NIGHT_CLEAR,NIGHT_CLEAR,CLEAR","Offshore,Offshore,Offshore,Offshore,Offshore,Offshore,Offshore,Cross-shore,Offshore",9
5842041f4e65fad6a7708959,2024_03_18,34.27851754384724,-119.316202617226,Emma Wood,2,0.14,0.44222222222222224,15,15,"NIGHT_MIST,NIGHT_MIST,NIGHT_CLEAR,NIGHT_CLEAR,NIGHT_CLEAR,NIGHT_CLEAR,NIGHT_CLEAR,NIGHT_CLEAR,CLEAR","Offshore,Offshore,Offshore,Offshore,Offshore,Offshore,Offshore,Offshore,Offshore",9
5842041f4e65fad6a770895a,2024_03_18,34.35513640390276,-119.4400589884255,Mussel Shoals (aka Little Rincon),2,0.17222222222222222,0.47888888888888886,15,15,"NIGHT_CLEAR,NIGHT_CLEAR,NIGHT_CLEAR,NIGHT_CLEAR,NIGHT_CLEAR,NIGHT_CLEAR,NIGHT_CLEAR,NIGHT_CLEAR,CLEAR","Offshore,Offshore,Offshore,Cross-shore,Cross-shore,Cross-shore,Onshore,Offshore,Offshore",9
5842041f4e65fad6a770895e,2024_03_18,34.28991757054902,-119.3366646794652,Summer Beach,2,0.11777777777777777,0.4211111111111111,15,15,"NIGHT_MIST,NIGHT_MIST,NIGHT_CLEAR,NIGHT_CLEAR,NIGHT_CLEAR,NIGHT_CLEAR,NIGHT_CLEAR,NIGHT_CLEAR,CLEAR","Offshore,Offshore,Offshore,Offshore,Offshore,Offshore,Offshore,Offshore,Offshore",9
5842041f4e65fad6a770895f,2024_03_18,34.30897456105926,-119.3582501170116,Solimar,2,0.11,0.41444444444444445,15,15,"NIGHT_MIST,NIGHT_CLEAR,NIGHT_CLEAR,NIGHT_CLEAR,NIGHT_CLEAR,NIGHT_CLEAR,NIGHT_CLEAR,NIGHT_CLEAR,CLEAR","Offshore,Cross-shore,Offshore,Cross-shore,Offshore,Offshore,Offshore,Offshore,Offshore",9
5842041f4e65fad6a7708960,2024_03_18,34.39836265281686,-119.70213,Leadbetter Point,1,0,0.19111111111111112,14,14,"NIGHT_MIST,NIGHT_MIST,NIGHT_MIST,NIGHT_CLEAR,NIGHT_CLEAR,NIGHT_CLEAR,NIGHT_CLEAR,NIGHT_CLEAR,CLEAR","Offshore,Cross-shore,Cross-shore,Cross-shore,Cross-shore,Offshore,Offshore,Offshore,Offshore",9
5842041f4e65fad6a7708961,2024_03_18,34.46052293893899,-120.07328,Refugio,1.2222222222222223,0.0022222222222222222,0.2911111111111111,13,13,"NIGHT_CLEAR,NIGHT_CLEAR,NIGHT_CLEAR,NIGHT_CLEAR,NIGHT_CLEAR,NIGHT_CLEAR,NIGHT_CLEAR,NIGHT_CLEAR,CLEAR","Cross-shore,Offshore,Offshore,Offshore,Onshore,Onshore,Onshore,Onshore,Onshore",9
5842041f4e65fad6a7708962,2024_03_18,34.40754276777778,-119.87639,Devereux,2,0.15,0.4533333333333333,14,14,"NIGHT_MIST,NIGHT_CLEAR,NIGHT_CLEAR,NIGHT_CLEAR,NIGHT_CLEAR,NIGHT_CLEAR,NIGHT_CLEAR,NIGHT_CLEAR,CLEAR","Onshore,Onshore,Cross-shore,Cross-shore,Cross-shore,Onshore,Cross-shore,Cross-shore,Cross-shore",9
5842041f4e65fad6a7708963,2024_03_18,34.27479983305182,-119.3133222656776,Ventura Overhead,2,0.16111111111111112,0.4688888888888889,15,15,"NIGHT_MIST,NIGHT_MIST,NIGHT_CLEAR,NIGHT_CLEAR,NIGHT_CLEAR,NIGHT_CLEAR,NIGHT_CLEAR,NIGHT_CLEAR,CLEAR","Offshore,Offshore,Offshore,Offshore,Offshore,Offshore,Offshore,Offshore,Offshore",9
5842041f4e65fad6a7708964,2024_03_18,34.41023236011655,-119.88261,Sands,2,0.1488888888888889,0.45555555555555555,14,14,"NIGHT_MIST,NIGHT_CLEAR,NIGHT_CLEAR,NIGHT_CLEAR,NIGHT_CLEAR,NIGHT_CLEAR,NIGHT_CLEAR,NIGHT_CLEAR,CLEAR","Cross-shore,Offshore,Offshore,Offshore,Offshore,Offshore,Offshore,Offshore,Offshore",9
5842041f4e65fad6a7708966,2024_03_18,34.40450193869233,-119.68752,Sandspit,0.8888888888888888,0,0.13222222222222224,14,14,"NIGHT_MIST,NIGHT_MIST,NIGHT_CLEAR,NIGHT_CLEAR,NIGHT_CLEAR,NIGHT_CLEAR,NIGHT_CLEAR,NIGHT_CLEAR,CLEAR","Offshore,Offshore,Cross-shore,Cross-shore,Cross-shore,Offshore,Offshore,Offshore,Offshore",9
5842041f4e65fad6a7708967,2024_03_18,34.41549098334453,-119.6375149840203,Hammond's,1,0,0.16444444444444445,14,14,"NIGHT_MIST,NIGHT_CLEAR,NIGHT_CLEAR,NIGHT_CLEAR,NIGHT_CLEAR,NIGHT_CLEAR,NIGHT_CLEAR,NIGHT_CLEAR,CLEAR","Cross-shore,Cross-shore,Offshore,Offshore,Cross-shore,Cross-shore,Cross-shore,Offshore,Offshore",9
5842041f4e65fad6a7708968,2024_03_18,34.45759322742309,-120.0220251867315,El Capitan,1.6666666666666667,0.016666666666666666,0.3188888888888889,13,13,"NIGHT_CLEAR,NIGHT_CLEAR,NIGHT_CLEAR,NIGHT_CLEAR,NIGHT_CLEAR,NIGHT_CLEAR,NIGHT_CLEAR,NIGHT_CLEAR,CLEAR","Onshore,Cross-shore,Offshore,Offshore,Onshore,Onshore,Onshore,Cross-shore,Cross-shore",9
5842041f4e65fad6a770896c,2024_03_18,34.405117655616,-119.84317,Campus Point,1,0,0.24333333333333335,14,14,"NIGHT_CLEAR,NIGHT_CLEAR,NIGHT_CLEAR,NIGHT_CLEAR,NIGHT_CLEAR,NIGHT_CLEAR,NIGHT_CLEAR,NIGHT_CLEAR,CLEAR","Onshore,Onshore,Offshore,Offshore,Cross-shore,Onshore,Onshore,Cross-shore,Cross-shore",9
5842041f4e65fad6a770896e,2024_03_18,34.38935162233354,-119.51955,Carpinteria State Beach,2,0.07555555555555556,0.3788888888888889,15,15,"NIGHT_CLEAR,NIGHT_CLEAR,NIGHT_CLEAR,NIGHT_CLEAR,NIGHT_CLEAR,NIGHT_CLEAR,NIGHT_CLEAR,NIGHT_CLEAR,CLEAR","Offshore,Offshore,Offshore,Offshore,Offshore,Offshore,Offshore,Offshore,Offshore",9
5842041f4e65fad6a770896f,2024_03_18,37.48296565175612,-122.4549300127824,Half Moon Bay,3,0.6788888888888889,0.9833333333333333,14,14,"NIGHT_MOSTLY_CLOUDY,NIGHT_MOSTLY_CLOUDY,NIGHT_MIST,NIGHT_MIST,NIGHT_MIST,NIGHT_MIST,NIGHT_MIST,NIGHT_MOSTLY_CLOUDY,MIST","Onshore,Onshore,Onshore,Onshore,Onshore,Onshore,Onshore,Cross-shore,Offshore",9
5842041f4e65fad6a7708970,2024_03_18,37.499,-122.471,Princeton Jetty,3,0.9433333333333334,1.1277777777777778,14,14,"NIGHT_MOSTLY_CLOUDY,NIGHT_MOSTLY_CLOUDY,NIGHT_MIST,NIGHT_MIST,NIGHT_MIST,NIGHT_MIST,NIGHT_MIST,NIGHT_MOSTLY_CLOUDY,MIST","Onshore,Onshore,Onshore,Onshore,Onshore,Onshore,Cross-shore,Cross-shore,Offshore",9
5842041f4e65fad6a7708972,2024_03_18,37.35699547365155,-122.4069534707252,Tunitas Creek,3,1.3966666666666667,1.6788888888888889,14,14,"NIGHT_MOSTLY_CLOUDY,NIGHT_MOSTLY_CLOUDY,NIGHT_MIST,NIGHT_MIST,NIGHT_MIST,NIGHT_MIST,NIGHT_MIST,NIGHT_MIST,MIST","Cross-shore,Cross-shore,Cross-shore,Cross-shore,Cross-shore,Cross-shore,Cross-shore,Cross-shore,Offshore",9
5842041f4e65fad6a7708974,2024_03_18,37.54735589428842,-122.5161090212687,Montara,3,1.0255555555555556,1.2755555555555556,14,14,"NIGHT_BRIEF_SHOWERS,NIGHT_BRIEF_SHOWERS,NIGHT_BRIEF_SHOWERS,NIGHT_BRIEF_SHOWERS,NIGHT_BRIEF_SHOWERS,NIGHT_BRIEF_SHOWERS,NIGHT_BRIEF_SHOWERS,NIGHT_BRIEF_SHOWERS,MOSTLY_CLOUDY","Cross-shore,Cross-shore,Onshore,Onshore,Onshore,Onshore,Onshore,Onshore,Onshore",9
5842041f4e65fad6a7708975,2024_03_18,34.3869373724559,-119.5142334209018,Tarpits,2,0.05333333333333334,0.3566666666666667,15,15,"NIGHT_CLEAR,NIGHT_CLEAR,NIGHT_CLEAR,NIGHT_CLEAR,NIGHT_CLEAR,NIGHT_CLEAR,NIGHT_CLEAR,NIGHT_CLEAR,CLEAR","Cross-shore,Offshore,Cross-shore,Cross-shore,Cross-shore,Cross-shore,Offshore,Offshore,Offshore",9
5842041f4e65fad6a7708976,2024_03_18,37.59881852720143,-122.50463,Pacifica / Linda Mar,2,0.36997407407407407,0.6737925925925926,14,14,"NIGHT_BRIEF_SHOWERS,NIGHT_BRIEF_SHOWERS,NIGHT_BRIEF_SHOWERS,NIGHT_BRIEF_SHOWERS,NIGHT_BRIEF_SHOWERS,NIGHT_BRIEF_SHOWERS,NIGHT_BRIEF_SHOWERS,NIGHT_BRIEF_SHOWERS,MIST","Onshore,Onshore,Onshore,Onshore,Onshore,Onshore,Onshore,Onshore,Onshore",9
5842041f4e65fad6a7708978,2024_03_18,37.59883098461164,-122.5143843582282,Pedro Point,2.111111111111111,1.027777777777778,1.267777777777778,14,14,"NIGHT_MIST,NIGHT_BRIEF_SHOWERS,NIGHT_MIST,NIGHT_MIST,NIGHT_MIST,NIGHT_MIST,NIGHT_MIST,NIGHT_MIST,MOSTLY_CLOUDY","Cross-shore,Cross-shore,Cross-shore,Onshore,Onshore,Onshore,Onshore,Onshore,Onshore",9
5842041f4e65fad6a7708979,2024_03_18,37.61081996647663,-122.4973287570634,Rockaway,2.111111111111111,1.0055555555555555,1.29,14,14,"NIGHT_BRIEF_SHOWERS,NIGHT_BRIEF_SHOWERS,NIGHT_BRIEF_SHOWERS,NIGHT_BRIEF_SHOWERS,NIGHT_BRIEF_SHOWERS,NIGHT_BRIEF_SHOWERS,NIGHT_BRIEF_SHOWERS,NIGHT_BRIEF_SHOWERS,MIST","Onshore,Onshore,Onshore,Onshore,Onshore,Onshore,Onshore,Onshore,Onshore",9
5842041f4e65fad6a770897a,2024_03_18,37.809987384424446,-122.4751353263855,Fort Point,1.4444444444444444,0.518888888888889,0.8244444444444444,14,14,"NIGHT_BRIEF_SHOWERS,NIGHT_MIST,NIGHT_MIST,NIGHT_BRIEF_SHOWERS,NIGHT_BRIEF_SHOWERS,NIGHT_MIST,NIGHT_BRIEF_SHOWERS,NIGHT_BRIEF_SHOWERS,BRIEF_SHOWERS","Cross-shore,Onshore,Cross-shore,Cross-shore,Cross-shore,Cross-shore,Cross-shore,Cross-shore,Cross-shore",9
5842041f4e65fad6a770897c,2024_03_18,37.63422542967464,-122.4951,Sharp Park,2.111111111111111,1.1377777777777778,1.3844444444444444,14,14,"NIGHT_BRIEF_SHOWERS,NIGHT_BRIEF_SHOWERS,NIGHT_BRIEF_SHOWERS,NIGHT_BRIEF_SHOWERS,NIGHT_BRIEF_SHOWERS,NIGHT_BRIEF_SHOWERS,NIGHT_BRIEF_SHOWERS,NIGHT_BRIEF_SHOWERS,MIST","Onshore,Onshore,Onshore,Onshore,Onshore,Onshore,Onshore,Onshore,Onshore",9
5842041f4e65fad6a770897d,2024_03_18,37.27313605072472,-122.4127387912554,Pescadero,3,1.26,1.5055555555555555,14,14,"NIGHT_MIST,NIGHT_MIST,NIGHT_MOSTLY_CLOUDY,NIGHT_BRIEF_SHOWERS,NIGHT_BRIEF_SHOWERS,NIGHT_BRIEF_SHOWERS,NIGHT_BRIEF_SHOWERS,NIGHT_MIST,MIST","Cross-shore,Onshore,Onshore,Cross-shore,Cross-shore,Cross-shore,Cross-shore,Cross-shore,Cross-shore",9
5842041f4e65fad6a770897e,2024_03_18,37.18140279972666,-122.3926685899327,Pigeon Point,4,1.3633333333333335,1.6355555555555554,14,14,"NIGHT_BRIEF_SHOWERS,NIGHT_BRIEF_SHOWERS,NIGHT_MIST,NIGHT_BRIEF_SHOWERS,NIGHT_BRIEF_SHOWERS,NIGHT_BRIEF_SHOWERS,NIGHT_MIST,NIGHT_MIST,MIST","Offshore,Offshore,Offshore,Offshore,Offshore,Offshore,Offshore,Offshore,Offshore",9
5842041f4e65fad6a770897f,2024_03_18,37.11578956919415,-122.314699271291,Ano Nuevo,4,1.0455555555555556,1.3377777777777777,13,13,"NIGHT_CLEAR,NIGHT_CLEAR,NIGHT_CLEAR,NIGHT_CLEAR,NIGHT_CLEAR,NIGHT_CLEAR,NIGHT_CLEAR,NIGHT_CLEAR,CLEAR","Offshore,Offshore,Offshore,Offshore,Offshore,Offshore,Offshore,Offshore,Offshore",9
5842041f4e65fad6a7708980,2024_03_18,37.09520872681598,-122.2805474707768,Waddell Creek,3,1.192222222222222,1.4233333333333333,13,13,"NIGHT_CLEAR,NIGHT_CLEAR,NIGHT_CLEAR,NIGHT_CLEAR,NIGHT_CLEAR,NIGHT_CLEAR,NIGHT_CLEAR,NIGHT_CLEAR,CLEAR","Onshore,Onshore,Cross-shore,Cross-shore,Cross-shore,Offshore,Offshore,Offshore,Cross-shore",9
5842041f4e65fad6a7708981,2024_03_18,36.96512852130351,-122.1252825495626,Four Mile,4,1.2166666666666666,1.4544444444444444,13,13,"NIGHT_MOSTLY_CLOUDY,NIGHT_MOSTLY_CLOUDY,NIGHT_MOSTLY_CLOUDY,NIGHT_MIST,NIGHT_MIST,NIGHT_MIST,NIGHT_CLEAR,NIGHT_CLEAR,CLEAR","Onshore,Cross-shore,Offshore,Offshore,Offshore,Offshore,Offshore,Cross-shore,Cross-shore",9
5842041f4e65fad6a7708982,2024_03_18,37.04122807048655,-122.2333684729756,Scott Creek,3,1.1122222222222222,1.3744444444444446,13,13,"NIGHT_CLEAR,NIGHT_CLEAR,NIGHT_CLEAR,NIGHT_CLEAR,NIGHT_CLEAR,NIGHT_CLEAR,NIGHT_CLEAR,NIGHT_CLEAR,CLEAR","Onshore,Onshore,Cross-shore,Cross-shore,Cross-shore,Cross-shore,Offshore,Offshore,Cross-shore",9
5842041f4e65fad6a7708983,2024_03_18,37.02350229387179,-122.21908,Davenport,4,1.3511111111111112,1.6233333333333333,13,13,"NIGHT_CLEAR,NIGHT_CLEAR,NIGHT_CLEAR,NIGHT_CLEAR,NIGHT_CLEAR,NIGHT_CLEAR,NIGHT_CLEAR,NIGHT_CLEAR,CLEAR","Onshore,Cross-shore,Cross-shore,Cross-shore,Cross-shore,Cross-shore,Cross-shore,Offshore,Cross-shore",9
5842041f4e65fad6a7708986,2024_03_18,36.94905295955728,-122.0611823912244,Natural Bridges,3,1.03,1.3366666666666667,14,14,"NIGHT_CLEAR,NIGHT_CLEAR,NIGHT_MIST,NIGHT_MIST,NIGHT_CLEAR,NIGHT_CLEAR,NIGHT_CLEAR,NIGHT_CLEAR,MIST","Offshore,Offshore,Cross-shore,Cross-shore,Cross-shore,Offshore,Offshore,Offshore,Offshore",9
5842041f4e65fad6a7708987,2024_03_18,36.95154854910425,-122.0420693940968,Mitchell's Cove,3,0.9688888888888889,1.1577777777777778,14,14,"NIGHT_MOSTLY_CLOUDY,NIGHT_MOSTLY_CLOUDY,NIGHT_MIST,NIGHT_MIST,NIGHT_MOSTLY_CLEAR,NIGHT_CLEAR,NIGHT_MIST,NIGHT_BRIEF_SHOWERS,MIST","Cross-shore,Offshore,Offshore,Offshore,Offshore,Offshore,Cross-shore,Cross-shore,Cross-shore",9
5842041f4e65fad6a770898a,2024_03_18,36.9572312370203,-121.98177,26th Ave,3.5555555555555554,1.211111111111111,1.448888888888889,14,14,"NIGHT_MOSTLY_CLOUDY,NIGHT_MOSTLY_CLOUDY,NIGHT_MIST,NIGHT_MOSTLY_CLOUDY,NIGHT_MOSTLY_CLEAR,NIGHT_MOSTLY_CLEAR,NIGHT_BRIEF_SHOWERS,NIGHT_MOSTLY_CLEAR,MOSTLY_CLEAR","Offshore,Cross-shore,Cross-shore,Onshore,Onshore,Offshore,Offshore,Offshore,Offshore",9
5842041f4e65fad6a770898e,2024_03_18,36.91899972819882,-121.85536,Manresa,3,1.01,1.2922222222222222,14,14,"NIGHT_MIST,NIGHT_MOSTLY_CLOUDY,NIGHT_MIST,NIGHT_MOSTLY_CLOUDY,NIGHT_MIST,NIGHT_MOSTLY_CLOUDY,NIGHT_MOSTLY_CLEAR,NIGHT_MOSTLY_CLOUDY,MIST","Offshore,Offshore,Offshore,Cross-shore,Cross-shore,Onshore,Cross-shore,Offshore,Offshore",9
5842041f4e65fad6a7708990,2024_03_18,34.45747731928454,-120.34242,The Ranch,2.111111111111111,0.30333333333333334,0.6088888888888889,13,13,"NIGHT_CLEAR,NIGHT_CLEAR,NIGHT_CLEAR,NIGHT_CLEAR,NIGHT_CLEAR,NIGHT_CLEAR,NIGHT_CLEAR,NIGHT_CLEAR,CLEAR","Offshore,Offshore,Offshore,Offshore,Offshore,Offshore,Offshore,Cross-shore,Cross-shore",9
5842041f4e65fad6a7708991,2024_03_18,34.50875036590315,-120.50348,Jalama,3,0.8122222222222222,1.0633333333333332,13,13,"NIGHT_CLEAR,NIGHT_CLEAR,NIGHT_CLEAR,NIGHT_CLEAR,NIGHT_CLEAR,NIGHT_CLEAR,NIGHT_CLEAR,NIGHT_CLEAR,CLEAR","Offshore,Offshore,Offshore,Offshore,Offshore,Offshore,Offshore,Offshore,Onshore",9
5842041f4e65fad6a7708996,2024_03_18,34.68700870220497,-120.6111611019887,Surf Beach,3,1.6344444444444446,1.9544444444444444,13,13,"NIGHT_MIST,NIGHT_MIST,NIGHT_CLEAR,NIGHT_CLEAR,NIGHT_MOSTLY_CLOUDY,NIGHT_MOSTLY_CLOUDY,NIGHT_MOSTLY_CLOUDY,NIGHT_MOSTLY_CLOUDY,MOSTLY_CLOUDY","Cross-shore,Cross-shore,Cross-shore,Cross-shore,Cross-shore,Cross-shore,Cross-shore,Offshore,Offshore",9
5842041f4e65fad6a770899c,2024_03_18,35.5730538161116,-121.1143362345574,Moonstone,3.7777777777777777,1.2355555555555555,1.4777777777777779,13,13,"NIGHT_CLEAR,NIGHT_CLEAR,NIGHT_CLEAR,NIGHT_CLEAR,NIGHT_CLEAR,NIGHT_CLEAR,NIGHT_MIST,NIGHT_MIST,CLEAR","Onshore,Cross-shore,Offshore,Offshore,Offshore,Offshore,Offshore,Offshore,Offshore",9
5842041f4e65fad6a770899d,2024_03_18,35.61533716776573,-121.1502053073914,Pico Creek,3,0.8977777777777778,1.1055555555555556,13,13,"NIGHT_CLEAR,NIGHT_CLEAR,NIGHT_CLEAR,NIGHT_CLEAR,NIGHT_CLEAR,NIGHT_CLEAR,NIGHT_CLEAR,NIGHT_CLEAR,CLEAR","Offshore,Offshore,Cross-shore,Offshore,Offshore,Offshore,Offshore,Offshore,Offshore",9
5842041f4e65fad6a770899e,2024_03_18,35.56829031927379,-121.1120653023953,Santa Rosa Creek,3.7777777777777777,1.2355555555555555,1.4777777777777779,13,13,"NIGHT_CLEAR,NIGHT_CLEAR,NIGHT_CLEAR,NIGHT_CLEAR,NIGHT_CLEAR,NIGHT_CLEAR,NIGHT_CLEAR,NIGHT_CLEAR,CLEAR","Onshore,Onshore,Offshore,Offshore,Offshore,Offshore,Offshore,Offshore,Offshore",9
5842041f4e65fad6a77089a2,2024_03_18,35.44820114936284,-120.90715,"Cayucos Pier, Southside ",2.5555555555555554,0.45444444444444443,0.7566666666666667,13,13,"NIGHT_CLEAR,NIGHT_CLEAR,NIGHT_CLEAR,NIGHT_CLEAR,NIGHT_CLEAR,NIGHT_CLEAR,NIGHT_CLEAR,NIGHT_CLEAR,CLEAR","Offshore,Offshore,Offshore,Offshore,Offshore,Offshore,Offshore,Offshore,Offshore",9
5842041f4e65fad6a77089a4,2024_03_18,35.30143372628852,-120.877819239902,Cable Landing,3.7777777777777777,1.6177777777777778,1.931111111111111,13,13,"NIGHT_CLEAR,NIGHT_CLEAR,NIGHT_CLEAR,NIGHT_CLEAR,NIGHT_CLEAR,NIGHT_CLEAR,NIGHT_CLEAR,NIGHT_CLEAR,CLEAR","Onshore,Onshore,Offshore,Offshore,Offshore,Offshore,Offshore,Offshore,Offshore",9
5842041f4e65fad6a77089a9,2024_03_18,35.61269103500222,-121.1480725356606,San Simeon,3,0.647888888888889,0.7855555555555556,13,13,"NIGHT_MIST,NIGHT_MIST,NIGHT_CLEAR,NIGHT_CLEAR,NIGHT_CLEAR,NIGHT_CLEAR,NIGHT_CLEAR,NIGHT_CLEAR,CLEAR","Offshore,Offshore,Offshore,Offshore,Offshore,Offshore,Offshore,Offshore,Offshore",9
5842041f4e65fad6a77089ab,2024_03_18,35.1775325966252,-120.7341125142258,Avila Beach,2,0.051111111111111114,0.35555555555555557,13,13,"NIGHT_CLEAR,NIGHT_CLEAR,NIGHT_CLEAR,NIGHT_CLEAR,NIGHT_CLEAR,NIGHT_CLEAR,NIGHT_CLEAR,NIGHT_CLEAR,CLEAR","Offshore,Offshore,Offshore,Offshore,Offshore,Offshore,Offshore,Offshore,Offshore",9
5842041f4e65fad6a77089ac,2024_03_18,35.13877877884115,-120.64535,Pismo Beach Pier,2.888888888888889,0.9712000000000001,1.2021592592592591,14,14,"NIGHT_CLEAR,NIGHT_CLEAR,NIGHT_MIST,NIGHT_MIST,NIGHT_MIST,NIGHT_CLEAR,NIGHT_CLEAR,NIGHT_CLEAR,CLEAR","Cross-shore,Offshore,Cross-shore,Cross-shore,Cross-shore,Cross-shore,Cross-shore,Cross-shore,Cross-shore",9
5842041f4e65fad6a77089ad,2024_03_18,46.8907710233147,-124.12964,Westport/Olympic Peninsula,3,1.01,1.2822222222222222,9,9,"NIGHT_CLEAR,NIGHT_MIST,NIGHT_MIST,NIGHT_MIST,NIGHT_MIST,NIGHT_MIST,NIGHT_MIST,NIGHT_MIST,MIST","Cross-shore,Cross-shore,Cross-shore,Cross-shore,Cross-shore,Cross-shore,Offshore,Offshore,Offshore",9
5842041f4e65fad6a77089ae,2024_03_18,46.35185177248545,-124.06747,Long Beach Peninsula,3,1.481111111111111,1.7766666666666666,9,9,"NIGHT_MIST,NIGHT_MIST,NIGHT_CLEAR,NIGHT_MIST,NIGHT_MIST,NIGHT_MIST,NIGHT_MIST,NIGHT_MIST,MIST","Cross-shore,Cross-shore,Cross-shore,Cross-shore,Cross-shore,Cross-shore,Cross-shore,Cross-shore,Cross-shore",9
5842041f4e65fad6a77089af,2024_03_18,47.90649175554033,-124.6370864743483,La Push,3.888888888888889,1.258888888888889,1.5055555555555555,9,9,"NIGHT_MIST,NIGHT_MIST,NIGHT_MIST,NIGHT_MIST,NIGHT_MIST,NIGHT_MIST,NIGHT_MIST,NIGHT_MIST,MIST","Offshore,Offshore,Offshore,Offshore,Offshore,Offshore,Offshore,Offshore,Offshore",9
5842041f4e65fad6a77089b0,2024_03_18,42.04368239985442,-124.26828,Brookings Jetty,3,0.7927255555555556,1.2386322222222224,11,11,"NIGHT_BRIEF_SHOWERS,NIGHT_MOSTLY_CLOUDY,NIGHT_BRIEF_SHOWERS,NIGHT_MIST,NIGHT_MIST,NIGHT_MIST,NIGHT_MIST,NIGHT_MOSTLY_CLOUDY,MOSTLY_CLOUDY","Onshore,Onshore,Cross-shore,Cross-shore,Cross-shore,Offshore,Offshore,Offshore,Onshore",9
5842041f4e65fad6a77089b1,2024_03_18,42.74071837900346,-124.4983727491047,Port Orford,3,0.9566666666666667,1.16,11,11,"NIGHT_CLEAR,NIGHT_CLEAR,NIGHT_CLEAR,NIGHT_CLEAR,NIGHT_CLEAR,NIGHT_CLEAR,NIGHT_CLEAR,NIGHT_CLEAR,CLEAR","Offshore,Offshore,Offshore,Offshore,Offshore,Offshore,Offshore,Offshore,Offshore",9
5842041f4e65fad6a77089b2,2024_03_18,44.01532689312291,-124.13865,Florence South Jetty,3,1.471111111111111,1.7633333333333334,11,11,"NIGHT_CLEAR,NIGHT_CLEAR,NIGHT_CLEAR,NIGHT_CLEAR,NIGHT_CLEAR,NIGHT_CLEAR,NIGHT_CLEAR,NIGHT_CLEAR,CLEAR","Cross-shore,Cross-shore,Cross-shore,Cross-shore,Cross-shore,Cross-shore,Cross-shore,Offshore,Cross-shore",9
5842041f4e65fad6a77089b3,2024_03_18,42.41812540774362,-124.42945,Gold Beach South Jetty,3.4444444444444446,1.4344444444444444,1.7233333333333334,11,11,"NIGHT_CLEAR,NIGHT_CLEAR,NIGHT_CLEAR,NIGHT_CLEAR,NIGHT_CLEAR,NIGHT_MIST,NIGHT_MIST,NIGHT_MIST,MIST","Offshore,Offshore,Offshore,Offshore,Cross-shore,Onshore,Onshore,Onshore,Onshore",9
5842041f4e65fad6a77089b4,2024_03_18,44.95857310226525,-124.0219017690976,Lincoln City,3,1.3477777777777777,1.6177777777777778,11,11,"NIGHT_CLEAR,NIGHT_MIST,NIGHT_CLEAR,NIGHT_CLEAR,NIGHT_MIST,NIGHT_BRIEF_SHOWERS_POSSIBLE,NIGHT_BRIEF_SHOWERS_POSSIBLE,NIGHT_BRIEF_SHOWERS_POSSIBLE,MIST","Cross-shore,Cross-shore,Cross-shore,Cross-shore,Cross-shore,Cross-shore,Cross-shore,Cross-shore,Cross-shore",9
5842041f4e65fad6a77089b5,2024_03_18,44.63792761362982,-124.0657,Newport,3,1.5222222222222221,1.8244444444444443,11,11,"NIGHT_MIST,NIGHT_MIST,NIGHT_CLEAR,NIGHT_MIST,NIGHT_MIST,NIGHT_MIST,NIGHT_MIST,NIGHT_MIST,MIST","Cross-shore,Cross-shore,Cross-shore,Cross-shore,Cross-shore,Cross-shore,Cross-shore,Offshore,Offshore",9
5842041f4e65fad6a77089b6,2024_03_18,45.61468496266301,-123.94643,Rockaway Beach,3.2222222222222223,1.3966666666666667,1.6755555555555555,10,10,"NIGHT_MIST,NIGHT_MIST,NIGHT_MIST,NIGHT_MIST,NIGHT_MIST,NIGHT_MIST,NIGHT_MIST,NIGHT_CLEAR,MIST","Cross-shore,Cross-shore,Cross-shore,Cross-shore,Cross-shore,Cross-shore,Cross-shore,Cross-shore,Cross-shore",9
5842041f4e65fad6a77089b7,2024_03_18,45.20252914186085,-123.96975,Pacific City,4,1.2966666666666666,1.5577777777777777,10,10,"NIGHT_CLEAR,NIGHT_CLEAR,NIGHT_CLEAR,NIGHT_CLEAR,NIGHT_MIST,NIGHT_MIST,NIGHT_MIST,NIGHT_MIST,MIST","Offshore,Offshore,Offshore,Offshore,Offshore,Offshore,Offshore,Offshore,Offshore",9
5842041f4e65fad6a77089b8,2024_03_18,45.88179930310263,-123.96681,Cannon Beach,4,1.3888888888888888,1.6655555555555555,9,9,"NIGHT_CLEAR,NIGHT_CLEAR,NIGHT_MIST,NIGHT_MIST,NIGHT_MIST,NIGHT_MIST,NIGHT_CLEAR,NIGHT_CLEAR,CLEAR","Offshore,Offshore,Offshore,Offshore,Offshore,Offshore,Offshore,Offshore,Offshore",9
5842041f4e65fad6a77089ba,2024_03_18,40.02528754746774,-124.06372,Shelter Cove,3,0.4688911111111111,0.7326433333333333,11,11,"NIGHT_CLEAR,NIGHT_CLEAR,NIGHT_CLEAR,NIGHT_CLEAR,NIGHT_CLEAR,NIGHT_CLEAR,NIGHT_CLEAR,NIGHT_CLEAR,CLEAR","Cross-shore,Cross-shore,Cross-shore,Onshore,Onshore,Onshore,Onshore,Cross-shore,Cross-shore",9
5842041f4e65fad6a77089bb,2024_03_18,40.76816197136951,-124.24248,Humboldt Harbor Entrance,3,1.6222222222222222,1.94,12,12,"NIGHT_MIST,NIGHT_MIST,NIGHT_MIST,NIGHT_MIST,NIGHT_MIST,NIGHT_MIST,NIGHT_OVERCAST,NIGHT_CLOUDY,CLOUDY","Cross-shore,Cross-shore,Cross-shore,Cross-shore,Cross-shore,Offshore,Offshore,Offshore,Cross-shore",9
5842041f4e65fad6a77089bc,2024_03_18,40.76684246920174,-124.23107,North Jetty,3.3333333333333335,1.7366666666666666,2.0766666666666667,12,12,"NIGHT_MIST,NIGHT_MIST,NIGHT_MIST,NIGHT_MIST,NIGHT_MIST,NIGHT_CLOUDY,NIGHT_CLOUDY,NIGHT_MOSTLY_CLOUDY,MOSTLY_CLOUDY","Cross-shore,Cross-shore,Cross-shore,Cross-shore,Cross-shore,Cross-shore,Offshore,Offshore,Cross-shore",9
5842041f4e65fad6a77089bd,2024_03_18,41.02731183893966,-124.1149972888982,Westhaven,3,2.1277777777777778,2.5466666666666664,11,11,"NIGHT_MOSTLY_CLOUDY,NIGHT_MOSTLY_CLOUDY,NIGHT_MOSTLY_CLOUDY,NIGHT_MOSTLY_CLOUDY,NIGHT_MOSTLY_CLOUDY,NIGHT_MOSTLY_CLOUDY,NIGHT_MOSTLY_CLOUDY,NIGHT_MOSTLY_CLOUDY,MOSTLY_CLOUDY","Onshore,Cross-shore,Onshore,Onshore,Onshore,Cross-shore,Cross-shore,Onshore,Onshore",9
5842041f4e65fad6a77089be,2024_03_18,41.13016238153297,-124.16466,Sue-meg,3.6666666666666665,1.34,1.6022222222222222,11,11,"NIGHT_BRIEF_SHOWERS,NIGHT_BRIEF_SHOWERS,NIGHT_MOSTLY_CLOUDY,NIGHT_MOSTLY_CLOUDY,NIGHT_MOSTLY_CLOUDY,NIGHT_MOSTLY_CLOUDY,NIGHT_MOSTLY_CLOUDY,NIGHT_MOSTLY_CLOUDY,MOSTLY_CLOUDY","Onshore,Onshore,Onshore,Onshore,Onshore,Cross-shore,Cross-shore,Cross-shore,Cross-shore",9
5842041f4e65fad6a77089bf,2024_03_18,37.8289474958188,-122.5376795097543,Fort Cronkite/Rodeo Beach,2.6666666666666665,1.3744444444444446,1.67,14,14,"NIGHT_MIST,NIGHT_MIST,NIGHT_MIST,NIGHT_MIST,NIGHT_MIST,NIGHT_MIST,NIGHT_MIST,NIGHT_MIST,MOSTLY_CLOUDY","Onshore,Onshore,Onshore,Onshore,Onshore,Onshore,Cross-shore,Cross-shore,Onshore",9
5842041f4e65fad6a77089c0,2024_03_18,41.74415759876137,-124.17717,South Beach CA,3,0.9188888888888889,1.098888888888889,11,11,"NIGHT_MIST,NIGHT_MOSTLY_CLOUDY,NIGHT_MIST,NIGHT_MOSTLY_CLOUDY,NIGHT_MOSTLY_CLOUDY,NIGHT_MOSTLY_CLOUDY,NIGHT_MOSTLY_CLOUDY,NIGHT_MOSTLY_CLOUDY,MOSTLY_CLOUDY","Onshore,Onshore,Onshore,Onshore,Onshore,Onshore,Onshore,Onshore,Onshore",9
5842041f4e65fad6a77089c1,2024_03_18,37.89801283969752,-122.64519,Stinson Beach,2.6666666666666665,0.3011111111111111,0.6066666666666667,14,14,"NIGHT_CLEAR,NIGHT_CLEAR,NIGHT_CLEAR,NIGHT_CLEAR,NIGHT_CLEAR,NIGHT_CLEAR,NIGHT_CLEAR,NIGHT_CLEAR,CLEAR","Cross-shore,Onshore,Onshore,Cross-shore,Cross-shore,Onshore,Onshore,Onshore,Onshore",9
5842041f4e65fad6a77089c2,2024_03_18,37.90514516176495,-122.68151,Bolinas,3,0.5490088888888889,0.8578277777777777,14,14,"NIGHT_MOSTLY_CLOUDY,NIGHT_MOSTLY_CLOUDY,NIGHT_CLEAR,NIGHT_MOSTLY_CLOUDY,NIGHT_MOSTLY_CLOUDY,NIGHT_MOSTLY_CLOUDY,NIGHT_MOSTLY_CLOUDY,NIGHT_CLEAR,CLEAR","Onshore,Onshore,Offshore,Cross-shore,Onshore,Onshore,Onshore,Onshore,Cross-shore",9
5842041f4e65fad6a77089c3,2024_03_18,38.04892513158693,-122.9892494965416,Point Reyes (north),2.2222222222222223,1.6344444444444444,1.9555555555555555,13,13,"NIGHT_MIST,NIGHT_MIST,NIGHT_MIST,NIGHT_MIST,NIGHT_MIST,NIGHT_MIST,NIGHT_MIST,NIGHT_MIST,OVERCAST","Onshore,Onshore,Onshore,Onshore,Onshore,Onshore,Onshore,Onshore,Onshore",9
5842041f4e65fad6a77089c6,2024_03_18,38.31088736605785,-123.0496777333731,Doran Beach,2,0.26555555555555554,0.5688888888888889,13,13,"NIGHT_MOSTLY_CLOUDY,NIGHT_MOSTLY_CLOUDY,NIGHT_MIST,NIGHT_MIST,NIGHT_MIST,NIGHT_MIST,NIGHT_OVERCAST,NIGHT_OVERCAST,MIST","Onshore,Onshore,Onshore,Offshore,Offshore,Offshore,Offshore,Onshore,Onshore",9
5842041f4e65fad6a77089c7,2024_03_18,38.45077228660809,-123.13008,Russian Rivermouth,3.2222222222222223,1.2666666666666666,1.5122222222222221,13,13,"NIGHT_CLEAR,NIGHT_CLEAR,NIGHT_CLEAR,NIGHT_CLEAR,NIGHT_CLEAR,NIGHT_MOSTLY_CLOUDY,NIGHT_MOSTLY_CLOUDY,NIGHT_MIST,CLEAR","Offshore,Offshore,Onshore,Cross-shore,Onshore,Onshore,Offshore,Offshore,Offshore",9
5842041f4e65fad6a77089c8,2024_03_18,38.35329968518107,-123.06906,Salmon Creek,2.7777777777777777,1.2155555555555555,1.4555555555555555,13,13,"NIGHT_CLEAR,NIGHT_CLEAR,NIGHT_MOSTLY_CLOUDY,NIGHT_MIST,NIGHT_MIST,NIGHT_MIST,NIGHT_MIST,NIGHT_OVERCAST,MIST","Cross-shore,Cross-shore,Onshore,Onshore,Onshore,Onshore,Onshore,Offshore,Offshore",9
5842041f4e65fad6a77089c9,2024_03_18,38.6845180197959,-123.4322714291198,Black Point Beach,3.6666666666666665,1.011111111111111,1.301111111111111,12,12,"NIGHT_CLEAR,NIGHT_CLEAR,NIGHT_CLEAR,NIGHT_CLEAR,NIGHT_CLEAR,NIGHT_CLEAR,NIGHT_CLEAR,NIGHT_CLEAR,CLEAR","Onshore,Offshore,Cross-shore,Onshore,Offshore,Offshore,Offshore,Offshore,Offshore",9
5842041f4e65fad6a77089ca,2024_03_18,43.251076,-70.59144,Ogunquit,1.2222222222222223,0.33295555555555556,0.6392444444444445,4.111111111111111,3.111111111111111,"NIGHT_CLEAR,NIGHT_CLEAR,NIGHT_CLEAR,NIGHT_CLEAR,CLEAR,CLEAR,CLEAR,CLEAR,CLEAR","Offshore,Offshore,Offshore,Offshore,Offshore,Offshore,Offshore,Offshore,Offshore",9
5842041f4e65fad6a77089cb,2024_03_18,41.362631366305415,-71.48006772942608,Point Judith,3,0.6215444444444445,1.0056666666666667,6,4.111111111111111,"NIGHT_CLEAR,NIGHT_MOSTLY_CLOUDY,NIGHT_MOSTLY_CLOUDY,NIGHT_CLOUDY,CLOUDY,CLEAR,OVERCAST,MOSTLY_CLOUDY,CLEAR","Offshore,Offshore,Offshore,Offshore,Offshore,Offshore,Offshore,Offshore,Offshore",9
5842041f4e65fad6a77089cd,2024_03_18,41.422678090954726,-71.45413,Monahan's - Narragansett,2,0.29551444444444447,0.46174333333333334,5,5,"NIGHT_MOSTLY_CLOUDY,NIGHT_MOSTLY_CLOUDY,NIGHT_OVERCAST,NIGHT_MOSTLY_CLOUDY,CLOUDY,CLEAR,OVERCAST,MOSTLY_CLOUDY,CLEAR","Offshore,Offshore,Offshore,Offshore,Offshore,Offshore,Offshore,Offshore,Offshore",9
5842041f4e65fad6a77089ce,2024_03_18,41.469,-71.293,Ruggles - Newport,3,0.7291911111111111,1.1393588888888888,5,5,"NIGHT_CLEAR,NIGHT_CLOUDY,NIGHT_OVERCAST,NIGHT_MOSTLY_CLOUDY,CLEAR,CLEAR,OVERCAST,CLEAR,MOSTLY_CLOUDY","Onshore,Onshore,Cross-shore,Cross-shore,Offshore,Cross-shore,Cross-shore,Offshore,Cross-shore",9
5842041f4e65fad6a77089cf,2024_03_18,43.175394,-70.606351,Short Sands Beach,2.111111111111111,0.3477777777777778,0.6511111111111111,5,5,"NIGHT_CLEAR,NIGHT_CLEAR,NIGHT_CLEAR,NIGHT_CLEAR,CLEAR,CLEAR,CLEAR,CLEAR,CLEAR","Offshore,Offshore,Offshore,Offshore,Offshore,Offshore,Offshore,Offshore,Offshore",9
5842041f4e65fad6a77089d0,2024_03_18,41.487408,-71.29017,First Beach,2.4444444444444446,0.37777777777777777,0.6855555555555556,5,5,"NIGHT_CLEAR,NIGHT_OVERCAST,NIGHT_CLEAR,NIGHT_MOSTLY_CLOUDY,CLEAR,MOSTLY_CLOUDY,OVERCAST,MOSTLY_CLOUDY,MOSTLY_CLOUDY","Onshore,Onshore,Cross-shore,Offshore,Offshore,Cross-shore,Offshore,Offshore,Offshore",9
5842041f4e65fad6a77089d1,2024_03_18,42.27916830233153,-70.86498,Nantasket Beach,1.2222222222222223,0.08166666666666667,0.3862888888888889,4.222222222222222,3.111111111111111,"NIGHT_CLEAR,NIGHT_MOSTLY_CLOUDY,NIGHT_CLEAR,NIGHT_CLEAR,CLEAR,CLEAR,MOSTLY_CLOUDY,CLEAR,CLEAR","Offshore,Offshore,Offshore,Offshore,Offshore,Offshore,Offshore,Offshore,Offshore",9
5842041f4e65fad6a77089d2,2024_03_18,41.817,-69.935,Cape Cod,2,0.17444444444444446,0.47777777777777775,5,5,"NIGHT_CLEAR,NIGHT_MOSTLY_CLOUDY,NIGHT_OVERCAST,NIGHT_CLOUDY,OVERCAST,OVERCAST,MOSTLY_CLOUDY,OVERCAST,CLEAR","Offshore,Offshore,Offshore,Offshore,Offshore,Offshore,Offshore,Offshore,Offshore",9
5842041f4e65fad6a77089d3,2024_03_18,42.22055448975661,-70.70634873403819,Egypt Beach,1.3333333333333333,0.18555555555555556,0.49333333333333335,5,5,"NIGHT_CLEAR,NIGHT_MOSTLY_CLOUDY,NIGHT_CLEAR,NIGHT_CLEAR,CLEAR,CLEAR,MOSTLY_CLOUDY,CLEAR,CLEAR","Offshore,Offshore,Offshore,Offshore,Offshore,Offshore,Offshore,Offshore,Offshore",9
5842041f4e65fad6a77089d4,2024_03_18,41.48739647744607,-71.25723,Second Beach,2.4444444444444446,0.5433605555555555,0.9093258333333333,6,4.111111111111111,"NIGHT_CLEAR,NIGHT_CLOUDY,NIGHT_CLOUDY,NIGHT_MOSTLY_CLOUDY,CLEAR,MOSTLY_CLOUDY,OVERCAST,CLEAR,MOSTLY_CLOUDY","Onshore,Onshore,Cross-shore,Cross-shore,Cross-shore,Cross-shore,Cross-shore,Cross-shore,Cross-shore",9
5842041f4e65fad6a77089d5,2024_03_18,42.964,-70.769,Fox Hill,1.4444444444444444,0.24128888888888891,0.5442444444444444,4.111111111111111,3.111111111111111,"NIGHT_CLEAR,NIGHT_CLEAR,NIGHT_MOSTLY_CLOUDY,NIGHT_CLEAR,CLEAR,CLEAR,CLEAR,CLEAR,CLEAR","Offshore,Offshore,Offshore,Offshore,Offshore,Offshore,Offshore,Offshore,Offshore",9
5842041f4e65fad6a77089d6,2024_03_18,42.991359,-70.75149,Straws Point,1,0.2285111111111111,0.5325777777777778,4.111111111111111,3.111111111111111,"NIGHT_CLEAR,NIGHT_CLEAR,NIGHT_CLEAR,NIGHT_CLEAR,CLEAR,CLEAR,CLEAR,CLEAR,CLEAR","Offshore,Offshore,Offshore,Offshore,Offshore,Offshore,Offshore,Offshore,Offshore",9
5842041f4e65fad6a77089d7,2024_03_18,42.946,-70.786,Plaice Cove,1.2222222222222223,0.2401777777777778,0.5442444444444444,4.111111111111111,3.111111111111111,"NIGHT_CLEAR,NIGHT_CLEAR,NIGHT_CLEAR,NIGHT_CLEAR,CLEAR,CLEAR,CLEAR,CLEAR,CLEAR","Offshore,Offshore,Offshore,Offshore,Offshore,Offshore,Offshore,Offshore,Offshore",9
5842041f4e65fad6a77089d9,2024_03_18,42.911574,-70.80831,The Main Beach,0.6444444444444444,0.040536444444444444,0.3395624444444445,4.222222222222222,3.111111111111111,"NIGHT_CLEAR,NIGHT_CLEAR,NIGHT_CLEAR,NIGHT_CLEAR,CLEAR,CLEAR,CLEAR,CLEAR,CLEAR","Cross-shore,Cross-shore,Cross-shore,Cross-shore,Cross-shore,Cross-shore,Cross-shore,Cross-shore,Cross-shore",9
5842041f4e65fad6a77089da,2024_03_18,42.97583846220203,-70.764,Sawyer's Beach,1.4444444444444444,0.2174,0.5253555555555556,4.111111111111111,3.111111111111111,"NIGHT_CLEAR,NIGHT_CLEAR,NIGHT_MOSTLY_CLEAR,NIGHT_CLEAR,CLEAR,CLEAR,CLEAR,CLEAR,CLEAR","Offshore,Offshore,Offshore,Offshore,Offshore,Offshore,Offshore,Offshore,Offshore",9
5842041f4e65fad6a77089db,2024_03_18,42.97,-70.77,Rye on the Rocks / 5-0's,0.6444444444444444,0.04648311111111112,0.3511121111111111,4.222222222222222,3.111111111111111,"NIGHT_CLEAR,NIGHT_CLEAR,NIGHT_MOSTLY_CLEAR,NIGHT_CLEAR,CLEAR,CLEAR,CLEAR,CLEAR,CLEAR","Offshore,Offshore,Offshore,Offshore,Offshore,Offshore,Offshore,Offshore,Offshore",9
5842041f4e65fad6a77089dc,2024_03_18,43.55902946610303,-70.27795,Higgins Beach,1.3888888888888888,0.2805288888888889,0.5849955555555556,4.111111111111111,3.111111111111111,"NIGHT_CLEAR,NIGHT_CLEAR,NIGHT_CLEAR,NIGHT_CLEAR,CLEAR,MOSTLY_CLEAR,CLEAR,CLEAR,CLEAR","Cross-shore,Cross-shore,Cross-shore,Cross-shore,Cross-shore,Cross-shore,Cross-shore,Cross-shore,Cross-shore",9
5842041f4e65fad6a77089dd,2024_03_18,43.302676,-70.5652,Wells Beach,1.2222222222222223,0.2801777777777778,0.5853555555555555,4.111111111111111,3.111111111111111,"NIGHT_CLEAR,NIGHT_CLEAR,NIGHT_CLEAR,NIGHT_CLEAR,CLEAR,CLEAR,CLEAR,CLEAR,CLEAR","Offshore,Offshore,Offshore,Offshore,Offshore,Offshore,Offshore,Offshore,Offshore",9
5842041f4e65fad6a77089de,2024_03_18,43.545359,-70.30479,Scarborough Beach State Park,1.4444444444444444,0.38751,0.67216,4.111111111111111,3.111111111111111,"NIGHT_CLEAR,NIGHT_CLEAR,NIGHT_CLEAR,NIGHT_CLEAR,CLEAR,CLEAR,CLEAR,CLEAR,CLEAR","Cross-shore,Offshore,Offshore,Offshore,Offshore,Offshore,Offshore,Offshore,Offshore",9
5842041f4e65fad6a77089df,2024_03_18,43.514481,-70.372146,Old Orchard Beach,1.94,0.29745252525252525,0.6096585858585859,4.111111111111111,3.111111111111111,"NIGHT_CLEAR,NIGHT_CLEAR,NIGHT_CLEAR,NIGHT_CLEAR,CLEAR,CLEAR,CLEAR,CLEAR,CLEAR","Offshore,Offshore,Offshore,Offshore,Offshore,Offshore,Offshore,Offshore,Offshore",9
5842041f4e65fad6a77089e0,2024_03_18,43.34711,-70.48165,Gooch's Beach,1,0.2896222222222222,0.5914666666666667,4.111111111111111,3.111111111111111,"NIGHT_CLEAR,NIGHT_CLEAR,NIGHT_CLEAR,NIGHT_CLEAR,CLEAR,CLEAR,CLEAR,CLEAR,CLEAR","Cross-shore,Cross-shore,Cross-shore,Cross-shore,Cross-shore,Cross-shore,Cross-shore,Cross-shore,Cross-shore",9
5842041f4e65fad6a77089e2,2024_03_18,40.58433,-73.62953,Lido Beach,1.4166666666666667,0.39844074074074076,0.7018518518518518,7.111111111111111,6.111111111111111,"NIGHT_MOSTLY_CLEAR,NIGHT_CLEAR,NIGHT_CLOUDY,NIGHT_CLOUDY,CLOUDY,CLEAR,CLEAR,CLEAR,CLEAR","Offshore,Offshore,Onshore,Onshore,Onshore,Cross-shore,Onshore,Onshore,Onshore",9
5842041f4e65fad6a77089e3,2024_03_18,43.163135,-70.61689,Long Sands Beach,1.9211111111111112,0.29983414141414144,0.6111696464646464,4.111111111111111,3.111111111111111,"NIGHT_CLEAR,NIGHT_CLEAR,NIGHT_CLEAR,NIGHT_CLEAR,CLEAR,CLEAR,CLEAR,CLEAR,CLEAR","Cross-shore,Cross-shore,Cross-shore,Cross-shore,Cross-shore,Cross-shore,Cross-shore,Cross-shore,Cross-shore",9
5842041f4e65fad6a77089e4,2024_03_18,40.61695351251805,-73.39376,Gilgo Beach,2.296666666666667,0.6276666666666666,0.9310555555555555,5.333333333333333,4.333333333333333,"NIGHT_CLEAR,NIGHT_CLEAR,NIGHT_OVERCAST,NIGHT_CLEAR,CLOUDY,CLEAR,CLEAR,CLEAR,CLEAR","Offshore,Offshore,Offshore,Offshore,Cross-shore,Cross-shore,Offshore,Offshore,Cross-shore",9
5842041f4e65fad6a77089e5,2024_03_18,40.62530081928036,-73.23827,Robert Moses,1.4444444444444444,0.2966666666666667,0.6022222222222222,7,7,"NIGHT_CLEAR,NIGHT_MOSTLY_CLEAR,NIGHT_OVERCAST,NIGHT_MOSTLY_CLOUDY,CLOUDY,MOSTLY_CLOUDY,CLEAR,CLEAR,CLEAR","Offshore,Offshore,Offshore,Offshore,Offshore,Offshore,Offshore,Offshore,Offshore",9
5842041f4e65fad6a77089e6,2024_03_18,40.64313317632791,-73.15727,Fire Island,1.5555555555555556,0.29444444444444445,0.6011111111111112,7,7,"NIGHT_CLEAR,NIGHT_CLEAR,NIGHT_MOSTLY_CLEAR,NIGHT_MOSTLY_CLOUDY,OVERCAST,MOSTLY_CLOUDY,CLEAR,CLEAR,CLEAR","Offshore,Offshore,Offshore,Offshore,Offshore,Offshore,Offshore,Offshore,Offshore",9
5842041f4e65fad6a77089e8,2024_03_18,40.76653118828782,-72.74579619372713,Cupsogue,2.5555555555555554,0.7388888888888889,1.0444444444444445,7,7,"NIGHT_CLEAR,NIGHT_CLEAR,NIGHT_CLOUDY,NIGHT_OVERCAST,CLOUDY,CLOUDY,MOSTLY_CLOUDY,CLEAR,CLEAR","Offshore,Offshore,Offshore,Offshore,Offshore,Offshore,Offshore,Offshore,Offshore",9
5842041f4e65fad6a77089e9,2024_03_18,42.9376373334092,-70.79141,The Wall ,0.6444444444444444,0.05311711111111113,0.35922255555555554,4.222222222222222,3.111111111111111,"NIGHT_CLEAR,NIGHT_CLEAR,NIGHT_CLEAR,NIGHT_CLEAR,CLEAR,CLEAR,CLEAR,CLEAR,CLEAR","Offshore,Offshore,Offshore,Offshore,Offshore,Offshore,Offshore,Offshore,Offshore",9
5842041f4e65fad6a77089ea,2024_03_18,40.887088,-72.33856,Flys,1.8888888888888888,0.6333333333333333,0.9355555555555556,7,7,"NIGHT_MOSTLY_CLOUDY,NIGHT_CLEAR,NIGHT_MOSTLY_CLOUDY,NIGHT_CLOUDY,OVERCAST,OVERCAST,CLOUDY,CLEAR,CLEAR","Cross-shore,Cross-shore,Offshore,Cross-shore,Cross-shore,Cross-shore,Offshore,Offshore,Offshore",9
5842041f4e65fad6a77089eb,2024_03_18,41.0389266436591,-71.91068529316958,Trailer Park,2.3144444444444443,0.737702962962963,1.0623460185185185,5.333333333333333,4.333333333333333,"NIGHT_MOSTLY_CLOUDY,NIGHT_MOSTLY_CLOUDY,NIGHT_MOSTLY_CLEAR,NIGHT_OVERCAST,OVERCAST,OVERCAST,CLOUDY,CLEAR,CLEAR","Onshore,Onshore,Cross-shore,Cross-shore,Cross-shore,Cross-shore,Cross-shore,Offshore,Offshore",9
5842041f4e65fad6a77089ec,2024_03_18,41.039505402729105,-71.9142,Ditch Plains,2.5555555555555554,0.6494933333333334,1.014831111111111,6,6,"NIGHT_MOSTLY_CLOUDY,NIGHT_MOSTLY_CLOUDY,NIGHT_MOSTLY_CLOUDY,NIGHT_OVERCAST,OVERCAST,OVERCAST,CLOUDY,MOSTLY_CLOUDY,CLEAR","Onshore,Cross-shore,Offshore,Offshore,Cross-shore,Offshore,Offshore,Offshore,Offshore",9
5842041f4e65fad6a77089ee,2024_03_18,40.57633275206492,-73.56895305108567,"West End, Jones Beach",1.8333333333333333,0.507888888888889,0.8143333333333334,7.111111111111111,6.111111111111111,"NIGHT_MOSTLY_CLEAR,NIGHT_CLEAR,NIGHT_OVERCAST,NIGHT_CLOUDY,CLOUDY,CLEAR,CLEAR,CLEAR,CLEAR","Offshore,Cross-shore,Cross-shore,Cross-shore,Cross-shore,Cross-shore,Cross-shore,Cross-shore,Cross-shore",9
5842041f4e65fad6a77089f1,2024_03_18,41.038286691230795,-71.91991567611694,Poles,2.37,0.7375350925925925,1.063970462962963,5.333333333333333,4.333333333333333,"NIGHT_MOSTLY_CLOUDY,NIGHT_MOSTLY_CLOUDY,NIGHT_MOSTLY_CLOUDY,NIGHT_OVERCAST,OVERCAST,OVERCAST,CLOUDY,CLEAR,CLEAR","Onshore,Onshore,Cross-shore,Cross-shore,Cross-shore,Cross-shore,Cross-shore,Offshore,Offshore",9
5842041f4e65fad6a77089f3,2024_03_18,40.84077769766295,-72.47989493724765,The Bowl,2.2222222222222223,0.6288888888888889,0.9311111111111111,7,7,"NIGHT_CLEAR,NIGHT_CLEAR,NIGHT_MOSTLY_CLOUDY,NIGHT_OVERCAST,OVERCAST,OVERCAST,OVERCAST,CLEAR,CLEAR","Cross-shore,Offshore,Offshore,Offshore,Cross-shore,Cross-shore,Offshore,Offshore,Offshore",9
5842041f4e65fad6a77089f4,2024_03_18,40.94235535243154,-72.19286,Main Beach,1.8888888888888888,0.6212222222222222,0.9276666666666666,13.11111111111111,12.11111111111111,"NIGHT_CLEAR,NIGHT_CLEAR,NIGHT_MOSTLY_CLOUDY,NIGHT_OVERCAST,CLOUDY,OVERCAST,CLOUDY,MOSTLY_CLOUDY,CLEAR","Onshore,Cross-shore,Cross-shore,Cross-shore,Cross-shore,Cross-shore,Cross-shore,Cross-shore,Cross-shore",9
5842041f4e65fad6a77089f5,2024_03_18,40.58270702399518,-73.67251552079799,Laurelton Blvd.,1.491111111111111,0.3992422222222223,0.7038897222222222,7.111111111111111,6.111111111111111,"NIGHT_CLEAR,NIGHT_CLEAR,NIGHT_CLEAR,NIGHT_CLOUDY,MOSTLY_CLOUDY,CLEAR,CLEAR,CLEAR,CLEAR","Offshore,Offshore,Offshore,Onshore,Onshore,Onshore,Onshore,Onshore,Onshore",9
5842041f4e65fad6a77089f6,2024_03_18,41.033752854071416,-71.93695522488403,Terrace,2.3333333333333335,0.7424333333333334,1.069511111111111,5.333333333333333,4.333333333333333,"NIGHT_MOSTLY_CLOUDY,NIGHT_MOSTLY_CLOUDY,NIGHT_MOSTLY_CLOUDY,NIGHT_OVERCAST,OVERCAST,OVERCAST,OVERCAST,MOSTLY_CLOUDY,CLEAR","Onshore,Cross-shore,Cross-shore,Cross-shore,Cross-shore,Cross-shore,Cross-shore,Offshore,Cross-shore",9
5842041f4e65fad6a77089f7,2024_03_18,40.83372943645748,-72.50426173210144,K Road,2.3333333333333335,0.6844444444444444,0.99,7,7,"NIGHT_MOSTLY_CLOUDY,NIGHT_CLEAR,NIGHT_CLOUDY,NIGHT_CLOUDY,OVERCAST,CLOUDY,CLOUDY,CLEAR,CLEAR","Cross-shore,Offshore,Offshore,Offshore,Offshore,Offshore,Offshore,Offshore,Offshore",9
5842041f4e65fad6a77089f8,2024_03_18,40.58456099581507,-73.80730032920837,84th Street,1.8977777777777778,0.3988111111111111,0.707037037037037,7.111111111111111,6.111111111111111,"NIGHT_CLEAR,NIGHT_CLEAR,NIGHT_CLOUDY,NIGHT_OVERCAST,NIGHT_CLEAR,CLEAR,CLEAR,CLEAR,CLEAR","Offshore,Cross-shore,Offshore,Offshore,Offshore,Offshore,Offshore,Offshore,Cross-shore",9
5842041f4e65fad6a77089fa,2024_03_18,40.1319,-74.02788,Sea Girt,1.6666666666666667,0.26172222222222224,0.5670555555555555,7.222222222222222,6.111111111111111,"NIGHT_MOSTLY_CLOUDY,NIGHT_CLEAR,NIGHT_MOSTLY_CLOUDY,NIGHT_CLOUDY,NIGHT_MOSTLY_CLOUDY,CLEAR,CLEAR,CLEAR,CLEAR","Cross-shore,Offshore,Offshore,Offshore,Offshore,Offshore,Offshore,Offshore,Offshore",9
5842041f4e65fad6a77089fb,2024_03_18,40.54698301868125,-73.9268,Breezy Point,1.1111111111111112,0.21222222222222223,0.5155555555555555,7,7,"NIGHT_CLEAR,NIGHT_MOSTLY_CLEAR,NIGHT_OVERCAST,NIGHT_CLOUDY,NIGHT_CLEAR,CLEAR,CLEAR,CLEAR,CLEAR","Offshore,Cross-shore,Offshore,Offshore,Offshore,Offshore,Offshore,Cross-shore,Cross-shore",9
5842041f4e65fad6a77089fc,2024_03_18,40.152504,-74.021383,Spring Lake,1.8522222222222222,0.2558888888888889,0.5634444444444445,7.222222222222222,6.111111111111111,"NIGHT_MOSTLY_CLOUDY,NIGHT_MOSTLY_CLEAR,NIGHT_MOSTLY_CLOUDY,NIGHT_CLOUDY,NIGHT_MOSTLY_CLOUDY,CLEAR,CLEAR,CLEAR,CLEAR","Cross-shore,Offshore,Offshore,Offshore,Offshore,Offshore,Offshore,Offshore,Offshore",9
5842041f4e65fad6a77089fd,2024_03_18,40.591277,-73.770792,30th - 39th Streets,1.4444444444444444,0.39483333333333337,0.7035,7.111111111111111,6.111111111111111,"NIGHT_CLEAR,NIGHT_CLEAR,NIGHT_CLOUDY,NIGHT_CLOUDY,NIGHT_CLEAR,CLEAR,CLEAR,CLEAR,CLEAR","Offshore,Cross-shore,Offshore,Cross-shore,Cross-shore,Offshore,Offshore,Cross-shore,Cross-shore",9
5842041f4e65fad6a77089fe,2024_03_18,40.18834955871439,-74.00860982500222,Avon,1.6666666666666667,0.24894444444444447,0.5553888888888889,7.222222222222222,6.111111111111111,"NIGHT_MOSTLY_CLOUDY,NIGHT_CLEAR,NIGHT_MOSTLY_CLOUDY,NIGHT_CLOUDY,NIGHT_MOSTLY_CLOUDY,CLEAR,CLEAR,CLEAR,CLEAR","Cross-shore,Offshore,Offshore,Offshore,Offshore,Offshore,Offshore,Offshore,Offshore",9
5842041f4e65fad6a77089ff,2024_03_18,40.1974229100932,-74.00650533798255,Bradley Beach,1.8522222222222222,0.26505555555555554,0.5684444444444445,7.222222222222222,6.111111111111111,"NIGHT_MOSTLY_CLOUDY,NIGHT_CLEAR,NIGHT_MOSTLY_CLOUDY,NIGHT_CLOUDY,NIGHT_MOSTLY_CLOUDY,CLEAR,CLEAR,CLEAR,CLEAR","Offshore,Offshore,Offshore,Offshore,Offshore,Offshore,Offshore,Offshore,Offshore",9
5842041f4e65fad6a7708a01,2024_03_18,40.17202,-74.01503,"16th Ave., Belmar",1.8055555555555556,0.03997777777777779,0.34246296296296297,7.222222222222222,6.111111111111111,"NIGHT_MOSTLY_CLOUDY,NIGHT_CLEAR,NIGHT_MOSTLY_CLOUDY,NIGHT_CLOUDY,NIGHT_MOSTLY_CLOUDY,CLEAR,CLEAR,CLEAR,CLEAR","Offshore,Offshore,Offshore,Offshore,Offshore,Offshore,Offshore,Offshore,Offshore",9
5842041f4e65fad6a7708a02,2024_03_18,40.217443,-73.99982,Asbury Park,1.8522222222222222,0.2708888888888889,0.5762222222222222,7.222222222222222,6.111111111111111,"NIGHT_MOSTLY_CLOUDY,NIGHT_CLEAR,NIGHT_MOSTLY_CLOUDY,NIGHT_CLOUDY,NIGHT_MOSTLY_CLOUDY,CLEAR,CLEAR,CLEAR,CLEAR","Offshore,Offshore,Offshore,Offshore,Offshore,Offshore,Offshore,Offshore,Offshore",9
5842041f4e65fad6a7708a03,2024_03_18,40.229841,-73.996782,Loch Arbour and Deal,1.8333333333333333,0.2556111111111111,0.5578888888888889,7.222222222222222,6.111111111111111,"NIGHT_MOSTLY_CLOUDY,NIGHT_MOSTLY_CLEAR,NIGHT_MOSTLY_CLOUDY,NIGHT_CLOUDY,NIGHT_MOSTLY_CLOUDY,CLEAR,CLEAR,CLEAR,CLEAR","Offshore,Offshore,Offshore,Offshore,Offshore,Offshore,Offshore,Offshore,Offshore",9
5842041f4e65fad6a7708a05,2024_03_18,40.41754,-73.97935,Sandy Hook,1,0.02666666666666667,0.3288888888888889,7,7,"NIGHT_CLEAR,NIGHT_MOSTLY_CLEAR,NIGHT_CLEAR,NIGHT_CLOUDY,NIGHT_CLEAR,CLEAR,CLEAR,CLEAR,CLEAR","Offshore,Offshore,Offshore,Offshore,Offshore,Offshore,Offshore,Offshore,Offshore",9
5842041f4e65fad6a7708a06,2024_03_18,39.36353,-74.40873,Crystals,1.8888888888888888,0.4377511111111111,0.6839855555555555,8,6.111111111111111,"NIGHT_CLEAR,NIGHT_CLEAR,NIGHT_CLEAR,NIGHT_CLEAR,NIGHT_CLEAR,CLEAR,MOSTLY_CLEAR,CLEAR,CLEAR","Offshore,Offshore,Offshore,Offshore,Offshore,Offshore,Offshore,Offshore,Offshore",9
5842041f4e65fad6a7708a07,2024_03_18,39.31443,-74.51863,32nd Street,0.7411111111111112,0.021419629629629615,0.3287435185185185,8.11111111111111,6.111111111111111,"NIGHT_CLEAR,NIGHT_CLEAR,NIGHT_CLEAR,NIGHT_CLEAR,NIGHT_CLEAR,CLEAR,MOSTLY_CLEAR,CLEAR,CLEAR","Offshore,Offshore,Offshore,Offshore,Offshore,Offshore,Offshore,Offshore,Offshore",9
5842041f4e65fad6a7708a08,2024_03_18,39.327688,-74.49524,Margate Pier Northside,0.7411111111111112,0.021419629629629615,0.3287435185185185,8.11111111111111,6.111111111111111,"NIGHT_CLEAR,NIGHT_CLEAR,NIGHT_CLEAR,NIGHT_CLEAR,NIGHT_CLEAR,CLEAR,MOSTLY_CLEAR,CLEAR,CLEAR","Offshore,Offshore,Offshore,Offshore,Offshore,Offshore,Offshore,Offshore,Offshore",9
5842041f4e65fad6a7708a09,2024_03_18,39.336276,-74.47782,Ventnor Pier,1.7777777777777777,0.41901777777777777,0.6547155555555555,8,6.111111111111111,"NIGHT_CLEAR,NIGHT_CLEAR,NIGHT_CLEAR,NIGHT_CLEAR,NIGHT_CLEAR,CLEAR,MOSTLY_CLEAR,CLEAR,CLEAR","Offshore,Offshore,Offshore,Offshore,Offshore,Offshore,Offshore,Offshore,Offshore",9
5842041f4e65fad6a7708a0a,2024_03_18,39.35929751441085,-74.41683,States Avenue,1.8888888888888888,0.4383011111111111,0.6848444444444445,8,6.111111111111111,"NIGHT_CLEAR,NIGHT_CLEAR,NIGHT_CLEAR,NIGHT_CLEAR,NIGHT_CLEAR,MOSTLY_CLOUDY,MOSTLY_CLEAR,CLEAR,CLEAR","Offshore,Offshore,Offshore,Offshore,Offshore,Offshore,Offshore,Offshore,Offshore",9
5842041f4e65fad6a7708a0b,2024_03_18,39.37274173278517,-74.40454,Brigantine Jetty,2,0.46753222222222224,0.73052,8,6.111111111111111,"NIGHT_CLEAR,NIGHT_CLEAR,NIGHT_CLEAR,NIGHT_CLEAR,NIGHT_CLEAR,CLEAR,MOSTLY_CLEAR,CLEAR,CLEAR","Offshore,Offshore,Offshore,Offshore,Offshore,Offshore,Offshore,Offshore,Offshore",9
5842041f4e65fad6a7708a0c,2024_03_18,39.356505,-74.42263,South Carolina Avenue,2,0.46753222222222224,0.73052,8,6.111111111111111,"NIGHT_CLEAR,NIGHT_CLEAR,NIGHT_MOSTLY_CLEAR,NIGHT_CLEAR,NIGHT_CLEAR,MOSTLY_CLOUDY,MOSTLY_CLEAR,CLEAR,CLEAR","Offshore,Offshore,Offshore,Offshore,Offshore,Offshore,Offshore,Offshore,Offshore",9
5842041f4e65fad6a7708a0d,2024_03_18,39.413485,-74.35476,14th Street North,2,0.08,0.38555555555555554,8,6.111111111111111,"NIGHT_CLEAR,NIGHT_CLEAR,NIGHT_CLEAR,NIGHT_CLEAR,NIGHT_MOSTLY_CLEAR,MOSTLY_CLOUDY,MOSTLY_CLEAR,CLEAR,CLEAR","Offshore,Offshore,Offshore,Offshore,Offshore,Offshore,Offshore,Offshore,Offshore",9
5842041f4e65fad6a7708a0e,2024_03_18,39.531319,-74.263252,The Wooden Jetty,1.8055555555555556,0.2921061111111111,0.596837037037037,8.11111111111111,6.111111111111111,"NIGHT_CLEAR,NIGHT_CLEAR,NIGHT_CLEAR,NIGHT_CLEAR,NIGHT_CLEAR,CLEAR,CLEAR,CLEAR,CLEAR","Offshore,Offshore,Offshore,Offshore,Offshore,Offshore,Offshore,Offshore,Offshore",9
5842041f4e65fad6a7708a0f,2024_03_18,39.552472,-74.24344,Holyoke,1.8788888888888888,0.2966262037037037,0.6047662037037038,8.11111111111111,6.111111111111111,"NIGHT_CLEAR,NIGHT_CLEAR,NIGHT_CLEAR,NIGHT_CLEAR,NIGHT_CLEAR,CLEAR,CLEAR,CLEAR,CLEAR","Offshore,Offshore,Offshore,Offshore,Offshore,Offshore,Offshore,Offshore,Offshore",9
5842041f4e65fad6a7708a10,2024_03_18,39.692364,-74.14068,Hudson Ave.,1.8422222222222222,0.3235851851851852,0.6303296296296297,8.11111111111111,6.111111111111111,"NIGHT_CLEAR,NIGHT_CLEAR,NIGHT_CLEAR,NIGHT_CLEAR,NIGHT_CLEAR,MOSTLY_CLOUDY,CLEAR,CLEAR,CLEAR","Offshore,Offshore,Offshore,Offshore,Offshore,Offshore,Offshore,Offshore,Offshore",9
5842041f4e65fad6a7708a11,2024_03_18,39.79614,-74.09248,Island Beach State Park,1.5,0.28144444444444444,0.5856666666666667,7.222222222222222,6.111111111111111,"NIGHT_CLEAR,NIGHT_CLEAR,NIGHT_CLEAR,NIGHT_CLEAR,NIGHT_CLEAR,OVERCAST,CLEAR,CLEAR,CLEAR","Offshore,Offshore,Offshore,Offshore,Offshore,Offshore,Offshore,Offshore,Offshore",9
5842041f4e65fad6a7708a12,2024_03_18,39.91813588078152,-74.07527,Seaside Park,1.3888888888888888,0.2431111111111111,0.5506666666666666,7.222222222222222,6.111111111111111,"NIGHT_MOSTLY_CLEAR,NIGHT_CLEAR,NIGHT_MOSTLY_CLEAR,NIGHT_MOSTLY_CLOUDY,NIGHT_CLOUDY,CLOUDY,CLEAR,CLEAR,CLEAR","Cross-shore,Cross-shore,Offshore,Offshore,Offshore,Offshore,Offshore,Offshore,Offshore",9
5842041f4e65fad6a7708a14,2024_03_18,39.946638,-74.06884,Seaside Heights,1.5,0.2606111111111111,0.5670555555555555,7.222222222222222,6.111111111111111,"NIGHT_CLEAR,NIGHT_CLEAR,NIGHT_MOSTLY_CLEAR,NIGHT_MOSTLY_CLOUDY,NIGHT_CLOUDY,MOSTLY_CLOUDY,CLEAR,CLEAR,CLEAR","Offshore,Offshore,Offshore,Offshore,Offshore,Offshore,Offshore,Offshore,Offshore",9
5842041f4e65fad6a7708a15,2024_03_18,39.95745637606704,-74.06736,Ortley Beach,1.5,0.2406111111111111,0.5428888888888889,7.222222222222222,6.111111111111111,"NIGHT_CLEAR,NIGHT_CLEAR,NIGHT_MOSTLY_CLEAR,NIGHT_MOSTLY_CLOUDY,NIGHT_CLOUDY,MOSTLY_CLOUDY,CLEAR,CLEAR,CLEAR","Offshore,Offshore,Offshore,Offshore,Offshore,Offshore,Offshore,Offshore,Offshore",9
5842041f4e65fad6a7708a16,2024_03_18,39.98313468342945,-74.06265685577506,Lavallette,1.5,0.257,0.5634444444444445,7.222222222222222,6.111111111111111,"NIGHT_CLEAR,NIGHT_MOSTLY_CLOUDY,NIGHT_MOSTLY_CLEAR,NIGHT_MOSTLY_CLOUDY,NIGHT_CLOUDY,MOSTLY_CLOUDY,CLEAR,CLEAR,CLEAR","Offshore,Offshore,Offshore,Offshore,Offshore,Offshore,Offshore,Offshore,Offshore",9
5842041f4e65fad6a7708a17,2024_03_18,40.0699319967757,-74.04144910856634,Bay Head,1.5,0.26033333333333336,0.5626111111111112,7.222222222222222,6.111111111111111,"NIGHT_MOSTLY_CLOUDY,NIGHT_MOSTLY_CLEAR,NIGHT_MOSTLY_CLEAR,NIGHT_CLOUDY,NIGHT_CLOUDY,MOSTLY_CLOUDY,CLEAR,CLEAR,CLEAR","Offshore,Offshore,Offshore,Offshore,Offshore,Offshore,Offshore,Offshore,Offshore",9
5842041f4e65fad6a7708a18,2024_03_18,40.094041,-74.034859,Jenkinson's,1.6666666666666667,0.25227777777777777,0.5598333333333334,7.222222222222222,6.111111111111111,"NIGHT_MOSTLY_CLOUDY,NIGHT_MOSTLY_CLEAR,NIGHT_MOSTLY_CLEAR,NIGHT_CLOUDY,NIGHT_MOSTLY_CLOUDY,MOSTLY_CLEAR,CLEAR,CLEAR,CLEAR","Cross-shore,Offshore,Offshore,Offshore,Offshore,Offshore,Offshore,Offshore,Offshore",9
5842041f4e65fad6a7708a1a,2024_03_18,38.148058,-75.17704,Assateague,1.9444444444444444,0.31533333333333335,0.6206666666666667,8,7,"NIGHT_MOSTLY_CLOUDY,NIGHT_CLEAR,NIGHT_MOSTLY_CLOUDY,NIGHT_CLEAR,NIGHT_MOSTLY_CLOUDY,MOSTLY_CLEAR,CLEAR,CLEAR,CLEAR","Offshore,Offshore,Offshore,Offshore,Offshore,Offshore,Offshore,Offshore,Offshore",9
5842041f4e65fad6a7708a1b,2024_03_18,38.33889038664497,-75.08017670566352,North End to Ocean City Inlet,1.3888888888888888,0.3397777777777778,0.6420555555555556,8,7,"NIGHT_CLEAR,NIGHT_MOSTLY_CLOUDY,NIGHT_OVERCAST,NIGHT_MOSTLY_CLOUDY,NIGHT_MOSTLY_CLOUDY,MOSTLY_CLEAR,CLEAR,CLEAR,CLEAR","Cross-shore,Cross-shore,Cross-shore,Cross-shore,Onshore,Cross-shore,Cross-shore,Cross-shore,Offshore",9
5842041f4e65fad6a7708a1c,2024_03_18,38.603993,-75.06271,Indian River Inlet,1.3888888888888888,0.2654913888888889,0.47039333333333333,8,7,"NIGHT_MOSTLY_CLEAR,NIGHT_CLEAR,NIGHT_CLOUDY,NIGHT_CLEAR,NIGHT_CLEAR,CLEAR,CLEAR,CLEAR,CLEAR","Offshore,Offshore,Offshore,Offshore,Offshore,Offshore,Offshore,Offshore,Offshore",9
5842041f4e65fad6a7708a1d,2024_03_18,38.460477,-75.052069,Fenwick Island,1.3888888888888888,0.19894444444444445,0.5001111111111112,8,7,"NIGHT_MOSTLY_CLOUDY,NIGHT_CLEAR,NIGHT_MOSTLY_CLOUDY,NIGHT_OVERCAST,NIGHT_MOSTLY_CLEAR,CLEAR,CLEAR,CLEAR,CLEAR","Cross-shore,Cross-shore,Cross-shore,Cross-shore,Cross-shore,Cross-shore,Cross-shore,Cross-shore,Offshore",9
5842041f4e65fad6a7708a1e,2024_03_18,38.538767,-75.05619,Bethany Beach,1.3888888888888888,0.25709805555555554,0.4572777777777778,8,7,"NIGHT_CLEAR,NIGHT_MOSTLY_CLOUDY,NIGHT_OVERCAST,NIGHT_MOSTLY_CLOUDY,NIGHT_CLEAR,CLEAR,CLEAR,CLEAR,CLEAR","Offshore,Offshore,Offshore,Offshore,Offshore,Offshore,Offshore,Offshore,Offshore",9
5842041f4e65fad6a7708a1f,2024_03_18,38.697657,-75.075951,Dewey Beach,1.3888888888888888,0.22422222222222224,0.5265,8,7,"NIGHT_MOSTLY_CLEAR,NIGHT_CLEAR,NIGHT_OVERCAST,NIGHT_CLEAR,NIGHT_CLEAR,CLEAR,CLEAR,CLEAR,CLEAR","Cross-shore,Cross-shore,Cross-shore,Cross-shore,Cross-shore,Cross-shore,Cross-shore,Cross-shore,Offshore",9
5842041f4e65fad6a7708a20,2024_03_18,38.75034741676525,-75.08194,Gordons Pond,1.1666666666666667,0.24394583333333333,0.4367255555555556,8,7,"NIGHT_CLEAR,NIGHT_CLEAR,NIGHT_OVERCAST,NIGHT_CLEAR,NIGHT_CLEAR,CLEAR,CLEAR,CLEAR,CLEAR","Offshore,Offshore,Offshore,Offshore,Offshore,Offshore,Offshore,Offshore,Offshore",9
5842041f4e65fad6a7708a21,2024_03_18,38.767837,-75.082841,Naval Jetties,0.8333333333333334,0.2247777777777778,0.5259444444444444,8,7,"NIGHT_CLEAR,NIGHT_CLEAR,NIGHT_OVERCAST,NIGHT_CLEAR,NIGHT_CLEAR,CLEAR,CLEAR,CLEAR,CLEAR","Cross-shore,Cross-shore,Cross-shore,Cross-shore,Cross-shore,Cross-shore,Cross-shore,Cross-shore,Cross-shore",9
5842041f4e65fad6a7708a22,2024_03_18,36.81735875786576,-75.96624,Camp Pendleton,0,0.001666666666666668,0.30813333333333337,9.222222222222221,8.11111111111111,"NIGHT_MOSTLY_CLEAR,NIGHT_MOSTLY_CLOUDY,NIGHT_OVERCAST,NIGHT_CLEAR,NIGHT_MOSTLY_CLOUDY,MOSTLY_CLOUDY,OVERCAST,OVERCAST,CLEAR","Cross-shore,Cross-shore,Cross-shore,Cross-shore,Cross-shore,Cross-shore,Cross-shore,Cross-shore,Cross-shore",9
5842041f4e65fad6a7708a23,2024_03_18,36.9102212316428,-75.98732471466064,North End,0,0.0013888888888888911,0.30711481481481484,9.222222222222221,8.11111111111111,"NIGHT_CLEAR,NIGHT_MOSTLY_CLOUDY,NIGHT_OVERCAST,NIGHT_MOSTLY_CLOUDY,NIGHT_OVERCAST,MOSTLY_CLOUDY,MOSTLY_CLOUDY,MOSTLY_CLOUDY,CLEAR","Cross-shore,Cross-shore,Cross-shore,Cross-shore,Cross-shore,Cross-shore,Cross-shore,Cross-shore,Cross-shore",9
5842041f4e65fad6a7708a24,2024_03_18,36.737117517621314,-75.93923719853362,Sandbridge Beach,0.2777777777777778,0.06972222222222223,0.37364444444444445,9.222222222222221,8.11111111111111,"NIGHT_MOSTLY_CLEAR,NIGHT_MOSTLY_CLOUDY,NIGHT_OVERCAST,NIGHT_CLEAR,NIGHT_CLEAR,MOSTLY_CLOUDY,OVERCAST,OVERCAST,CLEAR","Cross-shore,Cross-shore,Cross-shore,Cross-shore,Cross-shore,Cross-shore,Cross-shore,Cross-shore,Cross-shore",9
5842041f4e65fad6a7708a26,2024_03_18,36.818257440557794,-75.96666,Croatan to Pendleton,0,0.0016666666666666674,0.3049851851851852,9.222222222222221,8.11111111111111,"NIGHT_MOSTLY_CLEAR,NIGHT_MOSTLY_CLOUDY,NIGHT_OVERCAST,NIGHT_CLEAR,NIGHT_MOSTLY_CLOUDY,MOSTLY_CLOUDY,OVERCAST,OVERCAST,CLEAR","Cross-shore,Cross-shore,Cross-shore,Cross-shore,Cross-shore,Cross-shore,Cross-shore,Cross-shore,Cross-shore",9
5842041f4e65fad6a7708a27,2024_03_18,36.84318777204769,-75.9719,South End,0.2777777777777778,0.05333333333333334,0.36031111111111114,9.222222222222221,8.11111111111111,"NIGHT_CLEAR,NIGHT_MOSTLY_CLOUDY,NIGHT_OVERCAST,NIGHT_CLEAR,NIGHT_MOSTLY_CLOUDY,OVERCAST,MOSTLY_CLOUDY,CLOUDY,CLEAR","Cross-shore,Cross-shore,Cross-shore,Cross-shore,Cross-shore,Cross-shore,Cross-shore,Cross-shore,Cross-shore",9
5842041f4e65fad6a7708a28,2024_03_18,37.08612627584661,-75.976121638199,Fishermans Island,0,0.0022222222222222222,0.11777777777777777,10,10,"NIGHT_MOSTLY_CLOUDY,NIGHT_CLOUDY,NIGHT_CLOUDY,NIGHT_CLOUDY,NIGHT_OVERCAST,MOSTLY_CLOUDY,MOSTLY_CLOUDY,CLEAR,CLEAR","Offshore,Offshore,Offshore,Offshore,Offshore,Offshore,Offshore,Offshore,Offshore",9
5842041f4e65fad6a7708a38,2024_03_18,35.254619418229026,-75.52074,Cape Hatteras Lighthouse,1.5077777777777779,0.47149351851851856,0.7714548148148148,11.222222222222221,9.222222222222221,"NIGHT_DRIZZLE,NIGHT_CLOUDY,NIGHT_OVERCAST,NIGHT_MOSTLY_CLOUDY,NIGHT_CLEAR,CLEAR,CLEAR,CLEAR,CLEAR","Cross-shore,Offshore,Offshore,Offshore,Cross-shore,Offshore,Offshore,Cross-shore,Cross-shore",9
