_id,date,lat,lon,name,daily_mean_swell_rating,daily_mean_wave_height_min,daily_mean_wave_height_max,daily_mean_water_temperature_max,daily_mean_water_temperature_min,weather_per_timestamp,wind_per_timestamp,n_samples_per_day
5842041f4e65fad6a77087f9,2024_07_29,37.741668,-122.51038,South Ocean Beach,1.121212121212121,0.5957890909090909,0.9699090909090909,13,13,"MIST,NIGHT_MIST,NIGHT_MIST,NIGHT_MIST,NIGHT_MIST,NIGHT_MIST,NIGHT_MIST,NIGHT_CLOUDY,MIST,MIST,MIST","Onshore,Onshore,Onshore,Onshore,Onshore,Onshore,Onshore,Onshore,Onshore,Onshore,Onshore",11
5842041f4e65fad6a7708801,2024_07_29,37.49142,-122.50428,Maverick's,NA,0.6727272727272727,0.9772727272727273,18.09090909090909,18.09090909090909,"MOSTLY_CLEAR,NIGHT_BRIEF_SHOWERS,NIGHT_BRIEF_SHOWERS,NIGHT_BRIEF_SHOWERS,NIGHT_MIST,NIGHT_BRIEF_SHOWERS,NIGHT_MIST,NIGHT_MIST,BRIEF_SHOWERS,BRIEF_SHOWERS,MIST","Cross-shore,Cross-shore,Cross-shore,Cross-shore,Cross-shore,Cross-shore,Cross-shore,Cross-shore,Cross-shore,Cross-shore,Cross-shore",11
5842041f4e65fad6a7708804,2024_07_29,44.997,-124.018,Roads End,1.8181818181818181,0.4827272727272727,0.7881818181818182,13,13,"MIST,NIGHT_MIST,NIGHT_MIST,NIGHT_MIST,NIGHT_MIST,NIGHT_MIST,NIGHT_MIST,MIST,DRIZZLE,DRIZZLE,MIST","Onshore,Cross-shore,Cross-shore,Cross-shore,Cross-shore,Cross-shore,Cross-shore,Cross-shore,Cross-shore,Cross-shore,Cross-shore",11
5842041f4e65fad6a7708805,2024_07_29,36.95188851423011,-122.02522,Steamer Lane,2.1818181818181817,0.5477790909090909,0.8531745454545454,14,14,"MOSTLY_CLEAR,NIGHT_CLEAR,NIGHT_MOSTLY_CLEAR,NIGHT_MOSTLY_CLEAR,NIGHT_MOSTLY_CLOUDY,NIGHT_MOSTLY_CLEAR,NIGHT_MOSTLY_CLOUDY,NIGHT_MOSTLY_CLOUDY,CLEAR,CLEAR,CLEAR","Cross-shore,Cross-shore,Onshore,Onshore,Onshore,Cross-shore,Cross-shore,Cross-shore,Onshore,Cross-shore,Offshore",11
5842041f4e65fad6a7708806,2024_07_29,36.95918781542251,-122.02489,Cowells,0.9242424242424242,0,0.2178809090909091,14,14,"MOSTLY_CLEAR,NIGHT_CLEAR,NIGHT_MOSTLY_CLEAR,NIGHT_MOSTLY_CLEAR,NIGHT_MOSTLY_CLOUDY,NIGHT_MOSTLY_CLEAR,NIGHT_MOSTLY_CLOUDY,NIGHT_MOSTLY_CLOUDY,CLEAR,CLEAR,CLEAR","Offshore,Onshore,Onshore,Onshore,Offshore,Cross-shore,Offshore,Offshore,Onshore,Offshore,Offshore",11
5842041f4e65fad6a7708807,2024_07_29,36.95468082526536,-121.97234,Pleasure Point,2.9393939393939394,0.515819090909091,0.8909772727272727,14,14,"CLEAR,NIGHT_MOSTLY_CLEAR,NIGHT_MOSTLY_CLEAR,NIGHT_MOSTLY_CLEAR,NIGHT_MOSTLY_CLOUDY,NIGHT_MOSTLY_CLEAR,NIGHT_MOSTLY_CLOUDY,NIGHT_MOSTLY_CLEAR,MOSTLY_CLEAR,CLEAR,CLEAR","Onshore,Onshore,Onshore,Onshore,Onshore,Onshore,Onshore,Offshore,Onshore,Onshore,Onshore",11
5842041f4e65fad6a770880a,2024_07_29,35.37815414378748,-120.86589,Morro Bay,2.5,0.5032936363636363,0.8074963636363637,13,13,"CLEAR,NIGHT_MIST,NIGHT_MIST,NIGHT_MIST,NIGHT_MIST,NIGHT_MOSTLY_CLOUDY,NIGHT_MOSTLY_CLOUDY,NIGHT_MOSTLY_CLOUDY,CLEAR,CLEAR,CLEAR","Onshore,Onshore,Onshore,Onshore,Onshore,Onshore,Onshore,Cross-shore,Onshore,Onshore,Onshore",11
5842041f4e65fad6a770880b,2024_07_29,36.95782765000708,-121.96729,Jack's,2.393939393939394,0.37933272727272727,0.6828927272727272,14,14,"CLEAR,NIGHT_MOSTLY_CLEAR,NIGHT_MOSTLY_CLEAR,NIGHT_MOSTLY_CLEAR,NIGHT_MOSTLY_CLOUDY,NIGHT_MOSTLY_CLEAR,NIGHT_MOSTLY_CLOUDY,NIGHT_MOSTLY_CLEAR,MOSTLY_CLEAR,CLEAR,CLEAR","Cross-shore,Onshore,Onshore,Onshore,Cross-shore,Onshore,Onshore,Cross-shore,Onshore,Onshore,Onshore",11
5842041f4e65fad6a770880d,2024_07_29,34.29982939936656,-119.3489016603669,Gold Coast Beachbreaks,2,0.25,0.5545454545454546,18.727272727272727,18.727272727272727,"CLEAR,NIGHT_CLEAR,NIGHT_CLEAR,NIGHT_CLEAR,NIGHT_MIST,NIGHT_CLEAR,NIGHT_CLEAR,NIGHT_CLEAR,CLEAR,CLEAR,CLEAR","Onshore,Offshore,Offshore,Offshore,Offshore,Offshore,Offshore,Offshore,Onshore,Onshore,Onshore",11
5842041f4e65fad6a7708811,2024_07_29,34.245076,-119.26799,Ventura Harbor,2.6363636363636362,0.6382763636363636,0.9717336363636363,18,18,"CLEAR,NIGHT_CLEAR,NIGHT_CLEAR,NIGHT_CLEAR,NIGHT_CLEAR,NIGHT_CLEAR,NIGHT_CLEAR,NIGHT_CLEAR,CLEAR,CLEAR,CLEAR","Onshore,Cross-shore,Offshore,Offshore,Cross-shore,Offshore,Cross-shore,Cross-shore,Onshore,Onshore,Onshore",11
5842041f4e65fad6a7708813,2024_07_29,34.051,-118.964,County Line,2.8333333333333335,0.5982809090909091,0.9420354545454546,18,18,"CLEAR,NIGHT_MIST,NIGHT_MIST,NIGHT_MIST,NIGHT_MOSTLY_CLOUDY,NIGHT_MIST,NIGHT_MIST,NIGHT_MIST,BRIEF_SHOWERS,MOSTLY_CLOUDY,MOSTLY_CLEAR","Onshore,Cross-shore,Cross-shore,Offshore,Offshore,Offshore,Offshore,Offshore,Onshore,Onshore,Onshore",11
5842041f4e65fad6a7708814,2024_07_29,34.37256264378892,-119.47797,Rincon,2,0.15454545454545454,0.4590909090909091,18.363636363636363,18.363636363636363,"MIST,NIGHT_MIST,NIGHT_MIST,NIGHT_MIST,NIGHT_MIST,NIGHT_CLEAR,NIGHT_CLEAR,NIGHT_CLEAR,BRIEF_SHOWERS,MIST,MIST","Cross-shore,Onshore,Onshore,Onshore,Onshore,Onshore,Onshore,Onshore,Onshore,Cross-shore,Cross-shore",11
5842041f4e65fad6a7708817,2024_07_29,34.03096101876324,-118.68109,Malibu Third Point,2.6363636363636362,0.42363636363636364,0.7290909090909091,20.363636363636363,20.363636363636363,"MOSTLY_CLEAR,NIGHT_BRIEF_SHOWERS,NIGHT_MIST,NIGHT_MIST,NIGHT_MIST,NIGHT_MOSTLY_CLEAR,NIGHT_MIST,NIGHT_MOSTLY_CLOUDY,MOSTLY_CLEAR,MOSTLY_CLEAR,MOSTLY_CLEAR","Cross-shore,Onshore,Onshore,Onshore,Onshore,Onshore,Onshore,Onshore,Cross-shore,Cross-shore,Cross-shore",11
5842041f4e65fad6a7708819,2024_07_29,33.984079047970035,-118.47382,Venice Beach,2.3636363636363638,0.5980736363636363,0.9434972727272728,19,19,"SHOWERS,NIGHT_MOSTLY_CLOUDY,NIGHT_MOSTLY_CLOUDY,NIGHT_MOSTLY_CLOUDY,NIGHT_MOSTLY_CLOUDY,NIGHT_MOSTLY_CLOUDY,NIGHT_MOSTLY_CLOUDY,NIGHT_MOSTLY_CLOUDY,SHOWERS,BRIEF_SHOWERS,MIST","Onshore,Onshore,Onshore,Onshore,Onshore,Onshore,Onshore,Onshore,Onshore,Onshore,Onshore",11
5842041f4e65fad6a770881e,2024_07_29,34.037508438646746,-118.5834,Topanga Beach,3,0.6495609090909091,0.96756,19.90909090909091,19.90909090909091,"BRIEF_SHOWERS,NIGHT_MIST,NIGHT_CLEAR,NIGHT_MIST,NIGHT_MOSTLY_CLEAR,NIGHT_CLEAR,NIGHT_MOSTLY_CLEAR,NIGHT_MOSTLY_CLEAR,CLEAR,CLEAR,CLEAR","Onshore,Cross-shore,Offshore,Cross-shore,Offshore,Offshore,Offshore,Onshore,Onshore,Onshore,Onshore",11
5842041f4e65fad6a7708820,2024_07_29,33.73954373690184,-118.11414,Seal Beach Jetty,2.6363636363636362,0.43454545454545457,0.7372727272727273,20,20,"CLEAR,NIGHT_MIST,NIGHT_BRIEF_SHOWERS,NIGHT_MOSTLY_CLOUDY,NIGHT_MOSTLY_CLOUDY,NIGHT_MOSTLY_CLOUDY,NIGHT_MOSTLY_CLOUDY,NIGHT_MOSTLY_CLOUDY,SHOWERS,MOSTLY_CLEAR,MOSTLY_CLEAR","Onshore,Onshore,Onshore,Onshore,Onshore,Offshore,Offshore,Cross-shore,Onshore,Onshore,Onshore",11
5842041f4e65fad6a7708822,2024_07_29,33.72309983348433,-118.08078,Anderson Street,1.7272727272727273,0.3096154545454545,0.6176345454545454,17,17,"CLEAR,NIGHT_MOSTLY_CLEAR,NIGHT_MOSTLY_CLOUDY,NIGHT_MOSTLY_CLOUDY,NIGHT_MOSTLY_CLOUDY,NIGHT_MOSTLY_CLOUDY,NIGHT_MOSTLY_CLOUDY,NIGHT_MOSTLY_CLOUDY,CLEAR,CLEAR,CLEAR","Onshore,Onshore,Onshore,Onshore,Onshore,Offshore,Offshore,Cross-shore,Onshore,Onshore,Onshore",11
5842041f4e65fad6a7708827,2024_07_29,33.65574085629463,-118.00397,Huntington Beach Pier Northside,2.409090909090909,0.8679463636363637,1.1828818181818181,17,17,"CLEAR,NIGHT_MOSTLY_CLOUDY,NIGHT_MOSTLY_CLOUDY,NIGHT_MOSTLY_CLOUDY,NIGHT_MOSTLY_CLOUDY,NIGHT_OVERCAST,NIGHT_OVERCAST,NIGHT_OVERCAST,CLEAR,CLEAR,CLEAR","Onshore,Cross-shore,Cross-shore,Onshore,Cross-shore,Offshore,Offshore,Onshore,Onshore,Onshore,Onshore",11
5842041f4e65fad6a7708828,2024_07_29,34.272041739333,-119.29976,C St.,2.5454545454545454,0.4703918181818182,0.7872281818181818,18,18,"MIST,NIGHT_CLEAR,NIGHT_CLEAR,NIGHT_MIST,NIGHT_CLEAR,NIGHT_CLEAR,NIGHT_CLEAR,NIGHT_CLEAR,MIST,MIST,MIST","Onshore,Onshore,Offshore,Cross-shore,Offshore,Offshore,Offshore,Offshore,Cross-shore,Cross-shore,Cross-shore",11
5842041f4e65fad6a770882a,2024_07_29,33.61555743705257,-117.93676,Newport Lower Jetties,2.5454545454545454,0.5157836363636363,0.8204372727272727,18,18,"CLEAR,NIGHT_MOSTLY_CLOUDY,NIGHT_MOSTLY_CLOUDY,NIGHT_MOSTLY_CLOUDY,NIGHT_MOSTLY_CLOUDY,NIGHT_MOSTLY_CLOUDY,NIGHT_OVERCAST,NIGHT_OVERCAST,BRIEF_SHOWERS,BRIEF_SHOWERS,MOSTLY_CLEAR","Onshore,Cross-shore,Cross-shore,Cross-shore,Cross-shore,Offshore,Offshore,Offshore,Onshore,Onshore,Onshore",11
5842041f4e65fad6a770882b,2024_07_29,33.5930302087,-117.88199,The Wedge,2.878787878787879,1.217411818181818,1.5202272727272728,18,18,"CLEAR,NIGHT_MOSTLY_CLOUDY,NIGHT_MOSTLY_CLOUDY,NIGHT_BRIEF_SHOWERS,NIGHT_MOSTLY_CLOUDY,NIGHT_MOSTLY_CLOUDY,NIGHT_MOSTLY_CLOUDY,NIGHT_MOSTLY_CLOUDY,CLEAR,CLEAR,CLEAR","Onshore,Cross-shore,Offshore,Offshore,Offshore,Offshore,Offshore,Offshore,Onshore,Onshore,Onshore",11
5842041f4e65fad6a770882e,2024_07_29,33.475793399792984,-117.72291,Salt Creek,2.6818181818181817,0.6225027272727273,0.9688818181818182,19,19,"MIST,NIGHT_BRIEF_SHOWERS,NIGHT_MOSTLY_CLOUDY,NIGHT_MOSTLY_CLOUDY,NIGHT_MOSTLY_CLOUDY,NIGHT_MOSTLY_CLOUDY,NIGHT_MIST,NIGHT_MOSTLY_CLOUDY,MIST,BRIEF_SHOWERS,MIST","Onshore,Onshore,Onshore,Onshore,Onshore,Onshore,Cross-shore,Cross-shore,Onshore,Onshore,Onshore",11
5842041f4e65fad6a7708830,2024_07_29,33.41800974113613,-117.61952,T-Street,2.6818181818181817,0.7988118181818182,1.1047145454545455,19,19,"MIST,NIGHT_MOSTLY_CLOUDY,NIGHT_MOSTLY_CLOUDY,NIGHT_MOSTLY_CLOUDY,NIGHT_MOSTLY_CLOUDY,NIGHT_MOSTLY_CLOUDY,NIGHT_MIST,NIGHT_MOSTLY_CLOUDY,MIST,BRIEF_SHOWERS,MIST","Onshore,Onshore,Onshore,Onshore,Cross-shore,Cross-shore,Cross-shore,Offshore,Onshore,Onshore,Onshore",11
5842041f4e65fad6a7708832,2024_07_29,33.202391008646,-117.39475,Oceanside Harbor,2.6818181818181817,0.7384945454545455,1.0847754545454544,21,21,"MIST,NIGHT_MIST,NIGHT_MOSTLY_CLOUDY,NIGHT_MOSTLY_CLOUDY,NIGHT_MOSTLY_CLOUDY,NIGHT_MOSTLY_CLOUDY,NIGHT_MIST,MIST,MOSTLY_CLOUDY,MIST,MIST","Onshore,Cross-shore,Cross-shore,Offshore,Offshore,Cross-shore,Cross-shore,Cross-shore,Onshore,Onshore,Onshore",11
5842041f4e65fad6a7708835,2024_07_29,33.19477795952803,-117.38667,Oceanside Pier,2.757575757575758,0.8709254545454546,1.2266299999999999,21,21,"CLEAR,NIGHT_MOSTLY_CLOUDY,NIGHT_MOSTLY_CLOUDY,NIGHT_MOSTLY_CLOUDY,NIGHT_MOSTLY_CLOUDY,NIGHT_MOSTLY_CLOUDY,NIGHT_MOSTLY_CLOUDY,OVERCAST,MOSTLY_CLEAR,BRIEF_SHOWERS,MOSTLY_CLEAR","Onshore,Cross-shore,Cross-shore,Offshore,Offshore,Cross-shore,Cross-shore,Cross-shore,Onshore,Onshore,Onshore",11
5842041f4e65fad6a7708837,2024_07_29,33.14948100706,-117.35029,Tamarack,2.6363636363636362,0.6613018181818182,1.01654,23,23,"MIST,NIGHT_BRIEF_SHOWERS,NIGHT_MIST,NIGHT_MOSTLY_CLOUDY,NIGHT_MOSTLY_CLOUDY,NIGHT_MOSTLY_CLOUDY,NIGHT_MIST,MIST,MIST,BRIEF_SHOWERS,MIST","Onshore,Cross-shore,Offshore,Offshore,Offshore,Offshore,Offshore,Cross-shore,Onshore,Onshore,Onshore",11
5842041f4e65fad6a7708839,2024_07_29,32.865777159358856,-117.25614,Scripps,2.0454545454545454,0.5375690909090909,0.8409309090909091,20,20,"MIST,NIGHT_MIST,NIGHT_MIST,NIGHT_MIST,NIGHT_MIST,NIGHT_MOSTLY_CLOUDY,NIGHT_MIST,BRIEF_SHOWERS,BRIEF_SHOWERS,MIST,MIST","Onshore,Onshore,Onshore,Onshore,Onshore,Onshore,Onshore,Onshore,Onshore,Onshore,Onshore",11
5842041f4e65fad6a770883a,2024_07_29,32.813094,-117.27381,Birdrock,2.6363636363636362,0.5254545454545455,0.8290909090909091,23,23,"CLEAR,NIGHT_DRIZZLE,NIGHT_OVERCAST,NIGHT_OVERCAST,NIGHT_OVERCAST,NIGHT_MOSTLY_CLOUDY,NIGHT_MOSTLY_CLOUDY,NIGHT_MOSTLY_CLOUDY,CLEAR,CLEAR,CLEAR","Cross-shore,Cross-shore,Offshore,Offshore,Offshore,Offshore,Offshore,Offshore,Cross-shore,Cross-shore,Cross-shore",11
5842041f4e65fad6a770883b,2024_07_29,32.877231,-117.25303,Blacks,2.727272727272727,0.7644581818181818,1.0684945454545456,20,20,"MIST,NIGHT_MIST,NIGHT_MIST,NIGHT_MIST,NIGHT_MIST,NIGHT_MOSTLY_CLOUDY,NIGHT_MIST,BRIEF_SHOWERS,BRIEF_SHOWERS,MIST,MIST","Onshore,Onshore,Onshore,Onshore,Onshore,Onshore,Onshore,Onshore,Onshore,Onshore,Onshore",11
5842041f4e65fad6a770883c,2024_07_29,32.82978974229765,-117.28162,Windansea,2.1515151515151514,0.7761245454545455,1.0800854545454546,20,20,"MOSTLY_CLOUDY,NIGHT_OVERCAST,NIGHT_OVERCAST,NIGHT_OVERCAST,NIGHT_OVERCAST,NIGHT_MOSTLY_CLOUDY,NIGHT_MOSTLY_CLOUDY,NIGHT_MOSTLY_CLOUDY,MOSTLY_CLOUDY,MOSTLY_CLOUDY,CLEAR","Onshore,Onshore,Onshore,Cross-shore,Cross-shore,Cross-shore,Cross-shore,Cross-shore,Onshore,Onshore,Onshore",11
5842041f4e65fad6a770883d,2024_07_29,32.838278,-117.28396,Horseshoe,2.272727272727273,0.7081818181818182,1.0127272727272727,23,23,"MOSTLY_CLOUDY,NIGHT_OVERCAST,NIGHT_OVERCAST,NIGHT_OVERCAST,NIGHT_OVERCAST,NIGHT_MOSTLY_CLOUDY,NIGHT_MOSTLY_CLOUDY,NIGHT_MOSTLY_CLOUDY,MOSTLY_CLOUDY,MOSTLY_CLOUDY,CLEAR","Onshore,Onshore,Onshore,Cross-shore,Cross-shore,Cross-shore,Cross-shore,Cross-shore,Onshore,Onshore,Onshore",11
5842041f4e65fad6a770883f,2024_07_29,32.75034717673179,-117.25337,Ocean Beach,2.5,0.5427072727272727,0.8464809090909091,20,20,"CLEAR,NIGHT_MIST,NIGHT_MIST,NIGHT_MIST,NIGHT_MIST,NIGHT_CLOUDY,NIGHT_CLEAR,NIGHT_MOSTLY_CLOUDY,BRIEF_SHOWERS,MIST,MIST","Onshore,Onshore,Onshore,Onshore,Cross-shore,Cross-shore,Cross-shore,Onshore,Onshore,Onshore,Onshore",11
5842041f4e65fad6a7708840,2024_07_29,32.73693,-117.25718,Sunset Cliffs,2,0.42382545454545456,0.72726,22,22,"BRIEF_SHOWERS,NIGHT_MIST,NIGHT_MIST,NIGHT_MIST,NIGHT_MIST,NIGHT_OVERCAST,NIGHT_OVERCAST,NIGHT_MOSTLY_CLOUDY,BRIEF_SHOWERS,MOSTLY_CLOUDY,MOSTLY_CLEAR","Onshore,Onshore,Onshore,Onshore,Cross-shore,Cross-shore,Cross-shore,Onshore,Onshore,Onshore,Onshore",11
5842041f4e65fad6a7708841,2024_07_29,32.796582258728826,-117.25779,Pacific Beach,2.590909090909091,0.7417118181818182,1.0466345454545454,20,20,"CLEAR,NIGHT_DRIZZLE,NIGHT_DRIZZLE,NIGHT_MIST,NIGHT_MIST,NIGHT_CLEAR,NIGHT_CLEAR,NIGHT_CLEAR,MIST,CLEAR,CLEAR","Cross-shore,Cross-shore,Offshore,Offshore,Offshore,Offshore,Offshore,Offshore,Cross-shore,Cross-shore,Cross-shore",11
5842041f4e65fad6a7708842,2024_07_29,32.776636,-117.25514,Mission Beach,2.590909090909091,0.64133,0.9879154545454546,20,20,"CLEAR,NIGHT_DRIZZLE,NIGHT_DRIZZLE,NIGHT_MIST,NIGHT_MIST,NIGHT_CLEAR,NIGHT_CLEAR,NIGHT_CLEAR,MIST,CLEAR,CLEAR","Onshore,Cross-shore,Offshore,Offshore,Offshore,Offshore,Offshore,Cross-shore,Onshore,Onshore,Onshore",11
5842041f4e65fad6a7708844,2024_07_29,32.577195519016,-117.13475,Imperial Beach Pier,2,0.6927272727272727,0.9990909090909091,21.636363636363637,21.636363636363637,"CLEAR,NIGHT_MIST,NIGHT_MIST,NIGHT_MIST,NIGHT_MIST,NIGHT_MIST,NIGHT_MIST,NIGHT_MIST,MIST,CLEAR,CLEAR","Onshore,Onshore,Onshore,Onshore,Onshore,Onshore,Onshore,Onshore,Onshore,Onshore,Onshore",11
5842041f4e65fad6a770884a,2024_07_29,42.88678181061,-70.80843,Seabrook,1.6818181818181819,0.3668818181818182,0.7149727272727273,18,16,"MIST,NIGHT_MOSTLY_CLOUDY,NIGHT_MOSTLY_CLOUDY,NIGHT_MOSTLY_CLOUDY,LIGHT_RAIN,OVERCAST,DRIZZLE,OVERCAST,BRIEF_SHOWERS,MIST,MOSTLY_CLOUDY","Onshore,Cross-shore,Cross-shore,Cross-shore,Cross-shore,Cross-shore,Cross-shore,Cross-shore,Cross-shore,Cross-shore,Cross-shore",11
5842041f4e65fad6a770884e,2024_07_29,41.434181432898335,-71.45312,Narragansett,1.378787878787879,0.11906181818181819,0.4244927272727273,23,20,"OVERCAST,NIGHT_OVERCAST,NIGHT_OVERCAST,NIGHT_OVERCAST,OVERCAST,OVERCAST,MIST,BRIEF_SHOWERS,CLEAR,MOSTLY_CLOUDY,MOSTLY_CLOUDY","Onshore,Offshore,Offshore,Cross-shore,Cross-shore,Offshore,Cross-shore,Cross-shore,Onshore,Onshore,Onshore",11
5842041f4e65fad6a7708850,2024_07_29,40.582703230722,-73.65247,Lincoln Blvd,1.6666666666666667,0.3883090909090909,0.6957363636363636,23,20,"CLEAR,NIGHT_RAIN,NIGHT_RAIN,NIGHT_LIGHT_RAIN,OVERCAST,MOSTLY_CLOUDY,MOSTLY_CLEAR,MOSTLY_CLOUDY,MOSTLY_CLEAR,MIST,MIST","Cross-shore,Onshore,Onshore,Onshore,Onshore,Onshore,Onshore,Onshore,Onshore,Onshore,Onshore",11
5842041f4e65fad6a7708852,2024_07_29,40.58342841721757,-73.81182,Rockaways,1.6666666666666667,0.4669781818181818,0.7690518181818182,23,20,"CLEAR,NIGHT_OVERCAST,NIGHT_MOSTLY_CLOUDY,NIGHT_HEAVY_RAIN,OVERCAST,CLEAR,MOSTLY_CLEAR,MOSTLY_CLOUDY,CLEAR,CLEAR,CLEAR","Onshore,Onshore,Onshore,Onshore,Onshore,Onshore,Onshore,Onshore,Onshore,Onshore,Onshore",11
5842041f4e65fad6a7708853,2024_07_29,40.330474,-73.9734,Monmouth Beach,1.0606060606060606,0.20230272727272727,0.4792390909090909,22.545454545454547,21,"CLEAR,NIGHT_MOSTLY_CLOUDY,NIGHT_CLEAR,NIGHT_OVERCAST,MOSTLY_CLOUDY,MOSTLY_CLOUDY,SHOWERS,MOSTLY_CLEAR,CLEAR,CLEAR,CLEAR","Onshore,Onshore,Onshore,Cross-shore,Cross-shore,Offshore,Offshore,Cross-shore,Offshore,Cross-shore,Cross-shore",11
5842041f4e65fad6a7708856,2024_07_29,40.113,-74.028,Manasquan Inlet,1.8424242424242423,0.34074272727272725,0.6645463636363637,22.545454545454547,21,"CLEAR,NIGHT_MOSTLY_CLOUDY,NIGHT_OVERCAST,NIGHT_OVERCAST,OVERCAST,MOSTLY_CLEAR,CLEAR,MOSTLY_CLOUDY,MOSTLY_CLEAR,MOSTLY_CLEAR,CLEAR","Onshore,Cross-shore,Cross-shore,Cross-shore,Cross-shore,Offshore,Offshore,Offshore,Offshore,Cross-shore,Cross-shore",11
5842041f4e65fad6a7708857,2024_07_29,39.941519877445664,-74.06829,Casino Pier,2.2181818181818183,0.4538518181818182,0.8011645454545454,22.545454545454547,21,"OVERCAST,NIGHT_OVERCAST,NIGHT_OVERCAST,NIGHT_OVERCAST,OVERCAST,CLEAR,OVERCAST,MOSTLY_CLOUDY,CLEAR,CLEAR,CLEAR","Onshore,Cross-shore,Cross-shore,Cross-shore,Cross-shore,Cross-shore,Cross-shore,Cross-shore,Cross-shore,Cross-shore,Cross-shore",11
5842041f4e65fad6a7708858,2024_07_29,39.28223089949212,-74.55766,North End OC,1.6515151515151516,0.33234545454545456,0.6381454545454546,23.272727272727273,22,"CLEAR,NIGHT_CLEAR,NIGHT_MOSTLY_CLOUDY,NIGHT_CLEAR,MOSTLY_CLOUDY,CLEAR,MOSTLY_CLEAR,CLEAR,MIST,MIST,MOSTLY_CLEAR","Onshore,Cross-shore,Cross-shore,Cross-shore,Cross-shore,Cross-shore,Onshore,Cross-shore,Onshore,Onshore,Onshore",11
5842041f4e65fad6a770885b,2024_07_29,39.65080599934257,-74.17146,Ship Bottom,2.1151515151515152,0.5935836363636363,0.9324354545454545,23.272727272727273,22,"CLOUDY,NIGHT_MIST,NIGHT_MIST,NIGHT_OVERCAST,OVERCAST,CLEAR,CLEAR,CLEAR,SHOWERS,MOSTLY_CLEAR,CLEAR","Offshore,Offshore,Offshore,Offshore,Offshore,Offshore,Offshore,Offshore,Offshore,Offshore,Cross-shore",11
5842041f4e65fad6a7708863,2024_07_29,36.034151543144,-75.66791,Third Street,2.378787878787879,0.5150936363636364,0.8182090909090909,24,22,"CLEAR,NIGHT_CLEAR,NIGHT_CLEAR,NIGHT_CLEAR,NIGHT_CLEAR,CLEAR,CLEAR,CLEAR,CLEAR,CLEAR,CLEAR","Onshore,Offshore,Offshore,Offshore,Offshore,Offshore,Offshore,Offshore,Offshore,Offshore,Offshore",11
5842041f4e65fad6a7708867,2024_07_29,35.605833221351425,-75.46303,S-Turns,2.624242424242424,0.6050118181818182,0.9486990909090909,24.272727272727273,22,"CLEAR,NIGHT_CLEAR,NIGHT_CLEAR,NIGHT_CLEAR,NIGHT_CLEAR,CLEAR,CLEAR,CLEAR,CLEAR,CLEAR,CLEAR","Onshore,Cross-shore,Cross-shore,Offshore,Cross-shore,Cross-shore,Cross-shore,Cross-shore,Cross-shore,Cross-shore,Cross-shore",11
5842041f4e65fad6a770886d,2024_07_29,38.338461,-75.08117,Ocean City Boardwalk,1.6515151515151514,0.28701454545454547,0.59291,22,20.181818181818183,"CLEAR,NIGHT_CLEAR,NIGHT_CLEAR,NIGHT_MOSTLY_CLOUDY,MOSTLY_CLEAR,CLEAR,CLEAR,MOSTLY_CLEAR,CLEAR,CLEAR,CLEAR","Offshore,Offshore,Offshore,Offshore,Offshore,Offshore,Offshore,Cross-shore,Cross-shore,Cross-shore,Cross-shore",11
5842041f4e65fad6a770886f,2024_07_29,29.844757212379562,-81.26136,A St.,1.9090909090909092,0.4036363636363636,0.7081818181818181,27,27,"MOSTLY_CLOUDY,NIGHT_CLEAR,NIGHT_CLEAR,NIGHT_CLEAR,NIGHT_CLEAR,CLEAR,CLEAR,CLEAR,CLEAR,CLEAR,CLEAR","Onshore,Onshore,Onshore,Onshore,Onshore,Onshore,Onshore,Onshore,Onshore,Onshore,Onshore",11
5842041f4e65fad6a7708871,2024_07_29,29.069417851135093,-80.90824,New Smyrna Beach,1.806060606060606,0.6138518181818182,0.952960909090909,29,27,"CLOUDY,NIGHT_CLOUDY,NIGHT_CLEAR,NIGHT_CLEAR,NIGHT_CLEAR,MOSTLY_CLOUDY,CLEAR,MOSTLY_CLOUDY,CLEAR,CLEAR,CLEAR","Onshore,Onshore,Onshore,Onshore,Onshore,Onshore,Onshore,Onshore,Onshore,Onshore,Onshore",11
5842041f4e65fad6a7708872,2024_07_29,28.367707417566,-80.60171,Cocoa Beach Pier,1.3181818181818181,0.21918181818181817,0.5201890909090909,29,28,"MOSTLY_CLOUDY,NIGHT_FOG,NIGHT_CLEAR,NIGHT_CLEAR,NIGHT_CLEAR,CLEAR,CLEAR,MOSTLY_CLOUDY,CLEAR,CLEAR,CLEAR","Onshore,Onshore,Cross-shore,Onshore,Onshore,Onshore,Onshore,Onshore,Onshore,Onshore,Onshore",11
5842041f4e65fad6a7708873,2024_07_29,28.091782738658846,-80.56479,Indialantic,1.0454545454545454,0.11310636363636363,0.38592454545454546,29,28,"LIGHT_RAIN,NIGHT_CLEAR,NIGHT_CLEAR,NIGHT_CLEAR,NIGHT_MOSTLY_CLOUDY,BRIEF_SHOWERS,FOG,MOSTLY_CLOUDY,CLEAR,CLEAR,CLEAR","Onshore,Offshore,Offshore,Offshore,Cross-shore,Onshore,Onshore,Onshore,Onshore,Onshore,Onshore",11
5842041f4e65fad6a7708876,2024_07_29,27.25392904143517,-80.19455,Jensen Beach,1.1363636363636362,0.15654545454545454,0.42989363636363637,30,29,"SHOWERS,NIGHT_CLEAR,NIGHT_CLEAR,NIGHT_CLEAR,NIGHT_CLEAR,MOSTLY_CLOUDY,CLOUDY,CLOUDY,CLEAR,CLEAR,CLEAR","Onshore,Onshore,Offshore,Offshore,Cross-shore,Offshore,Offshore,Offshore,Onshore,Onshore,Onshore",11
5842041f4e65fad6a7708879,2024_07_29,26.76346795333825,-80.03607,Reef Road,1.3333333333333333,0.07886363636363636,0.40092181818181816,31,29,"MOSTLY_CLOUDY,NIGHT_CLEAR,NIGHT_CLEAR,NIGHT_CLEAR,NIGHT_CLEAR,CLEAR,CLEAR,CLEAR,MOSTLY_CLEAR,SHOWERS,MOSTLY_CLOUDY","Onshore,Cross-shore,Offshore,Offshore,Offshore,Offshore,Offshore,Offshore,Onshore,Onshore,Onshore",11
5842041f4e65fad6a770887c,2024_07_29,26.336499228484,-80.06956100463,Boca Raton Inlet,0.5909090909090909,0,0.2722090909090909,31,29,"MOSTLY_CLOUDY,NIGHT_CLEAR,NIGHT_CLEAR,NIGHT_CLEAR,NIGHT_CLEAR,CLEAR,CLEAR,CLEAR,CLEAR,CLEAR,HEAVY_SHOWERS","Onshore,Offshore,Offshore,Offshore,Offshore,Offshore,Offshore,Offshore,Onshore,Onshore,Onshore",11
5842041f4e65fad6a770887d,2024_07_29,26.31719311695038,-80.07453,Deerfield Beach Pier,0.4393939393939394,0.03254,0.17288272727272727,31,29,"CLEAR,NIGHT_CLEAR,NIGHT_CLEAR,NIGHT_CLEAR,NIGHT_CLEAR,CLEAR,CLEAR,CLEAR,CLEAR,CLEAR,HEAVY_SHOWERS","Onshore,Offshore,Offshore,Offshore,Offshore,Offshore,Offshore,Offshore,Onshore,Onshore,Onshore",11
5842041f4e65fad6a7708881,2024_07_29,30.20276320866628,-85.85626528676136,"Spyglass Dr., Panama City",-0.015151515151515159,0,0.19990454545454545,31,29,"CLEAR,NIGHT_CLEAR,NIGHT_CLEAR,NIGHT_CLEAR,NIGHT_CLEAR,CLEAR,CLEAR,CLEAR,CLEAR,CLEAR,CLEAR","Onshore,Cross-shore,Onshore,Cross-shore,Cross-shore,Cross-shore,Cross-shore,Cross-shore,Offshore,Onshore,Onshore",11
5842041f4e65fad6a7708884,2024_07_29,33.39000832738053,-117.59852,Cottons,2.9242424242424243,0.9598363636363636,1.2081154545454544,19,19,"CLEAR,NIGHT_MOSTLY_CLOUDY,NIGHT_MOSTLY_CLOUDY,NIGHT_MOSTLY_CLOUDY,NIGHT_MOSTLY_CLOUDY,NIGHT_MOSTLY_CLOUDY,NIGHT_MIST,NIGHT_MOSTLY_CLOUDY,BRIEF_SHOWERS,BRIEF_SHOWERS,MOSTLY_CLEAR","Onshore,Offshore,Offshore,Cross-shore,Offshore,Offshore,Offshore,Cross-shore,Onshore,Onshore,Onshore",11
5842041f4e65fad6a7708885,2024_07_29,33.359416282661,-117.54168,Trails,2.6363636363636362,0.5527272727272727,0.8590909090909091,23,23,"CLEAR,NIGHT_CLEAR,NIGHT_MOSTLY_CLOUDY,NIGHT_MOSTLY_CLOUDY,NIGHT_MOSTLY_CLOUDY,NIGHT_MOSTLY_CLOUDY,NIGHT_MIST,NIGHT_MOSTLY_CLOUDY,CLEAR,CLEAR,CLEAR","Onshore,Offshore,Offshore,Offshore,Offshore,Offshore,Offshore,Offshore,Onshore,Onshore,Onshore",11
5842041f4e65fad6a7708886,2024_07_29,33.38042605929805,-117.58332,Middles,3,0.8636363636363636,1.1036363636363637,19,19,"CLEAR,NIGHT_MOSTLY_CLOUDY,NIGHT_MOSTLY_CLOUDY,NIGHT_MOSTLY_CLOUDY,NIGHT_MOSTLY_CLOUDY,NIGHT_MOSTLY_CLOUDY,NIGHT_MIST,NIGHT_MOSTLY_CLOUDY,BRIEF_SHOWERS,BRIEF_SHOWERS,MOSTLY_CLEAR","Onshore,Offshore,Offshore,Offshore,Offshore,Offshore,Offshore,Offshore,Onshore,Onshore,Onshore",11
5842041f4e65fad6a7708887,2024_07_29,33.38445596302903,-117.59445,Upper Trestles,2.9242424242424243,0.73817,1.083871818181818,19,19,"CLEAR,NIGHT_MOSTLY_CLOUDY,NIGHT_MOSTLY_CLOUDY,NIGHT_MOSTLY_CLOUDY,NIGHT_MOSTLY_CLOUDY,NIGHT_MOSTLY_CLOUDY,NIGHT_MIST,NIGHT_MOSTLY_CLOUDY,BRIEF_SHOWERS,BRIEF_SHOWERS,MOSTLY_CLEAR","Onshore,Offshore,Offshore,Offshore,Offshore,Offshore,Offshore,Offshore,Onshore,Onshore,Onshore",11
5842041f4e65fad6a7708889,2024_07_29,28.944414,-95.28883,Surfside,1.0909090909090908,0.3262209090909091,0.6832581818181819,28,28,"CLEAR,NIGHT_CLEAR,NIGHT_CLEAR,NIGHT_MOSTLY_CLOUDY,NIGHT_CLEAR,NIGHT_MOSTLY_CLOUDY,CLEAR,CLEAR,MOSTLY_CLOUDY,CLEAR,CLEAR","Onshore,Onshore,Onshore,Onshore,Onshore,Onshore,Onshore,Onshore,Onshore,Onshore,Onshore",11
5842041f4e65fad6a770888a,2024_07_29,33.38143999849023,-117.58843,Lower Trestles,3.272727272727273,1.1376036363636364,1.6082036363636363,19,19,"CLEAR,NIGHT_MOSTLY_CLOUDY,NIGHT_MOSTLY_CLOUDY,NIGHT_MOSTLY_CLOUDY,NIGHT_MOSTLY_CLOUDY,NIGHT_MOSTLY_CLOUDY,NIGHT_MIST,NIGHT_MOSTLY_CLOUDY,BRIEF_SHOWERS,BRIEF_SHOWERS,MOSTLY_CLEAR","Onshore,Offshore,Offshore,Offshore,Offshore,Offshore,Offshore,Offshore,Onshore,Onshore,Onshore",11
5842041f4e65fad6a770888b,2024_07_29,33.379622288757,-117.57894,Church,2.9242424242424243,0.8716336363636363,1.1220063636363637,19,19,"CLEAR,NIGHT_MOSTLY_CLOUDY,NIGHT_MOSTLY_CLOUDY,NIGHT_MOSTLY_CLOUDY,NIGHT_MOSTLY_CLOUDY,NIGHT_MOSTLY_CLOUDY,NIGHT_MIST,NIGHT_MOSTLY_CLOUDY,BRIEF_SHOWERS,BRIEF_SHOWERS,MOSTLY_CLEAR","Onshore,Offshore,Offshore,Offshore,Offshore,Offshore,Offshore,Cross-shore,Onshore,Onshore,Onshore",11
5842041f4e65fad6a770888d,2024_07_29,21.679,-158.042,Sunset Beach,1.9090909090909092,0.23448363636363637,0.5339327272727272,26,25,"CLEAR,NIGHT_MOSTLY_CLEAR,NIGHT_CLEAR,NIGHT_MOSTLY_CLEAR,NIGHT_MOSTLY_CLEAR,NIGHT_MOSTLY_CLEAR,NIGHT_CLEAR,NIGHT_CLEAR,CLEAR,CLEAR,CLEAR","Cross-shore,Cross-shore,Cross-shore,Cross-shore,Cross-shore,Cross-shore,Offshore,Offshore,Cross-shore,Cross-shore,Offshore",11
5842041f4e65fad6a770888e,2024_07_29,21.670550036401,-158.0482,Rocky Point,2.8181818181818183,0.5327918181818182,0.8757745454545455,26,25,"CLEAR,NIGHT_CLEAR,NIGHT_CLEAR,NIGHT_CLEAR,NIGHT_CLEAR,NIGHT_CLEAR,NIGHT_CLEAR,NIGHT_CLEAR,CLEAR,CLEAR,CLEAR","Cross-shore,Cross-shore,Cross-shore,Cross-shore,Cross-shore,Cross-shore,Cross-shore,Offshore,Cross-shore,Cross-shore,Cross-shore",11
5842041f4e65fad6a770888f,2024_07_29,21.668,-158.05,Chambers,2.4545454545454546,0.5137172727272727,0.8443845454545454,26,26,"CLEAR,NIGHT_CLEAR,NIGHT_CLEAR,NIGHT_CLEAR,NIGHT_CLEAR,NIGHT_CLEAR,NIGHT_CLEAR,NIGHT_CLEAR,CLEAR,CLEAR,CLEAR","Onshore,Offshore,Cross-shore,Cross-shore,Cross-shore,Cross-shore,Cross-shore,Offshore,Cross-shore,Cross-shore,Cross-shore",11
5842041f4e65fad6a7708890,2024_07_29,21.66522,-158.0526,Pipeline,1,0.07734636363636363,0.35290272727272726,26,25,"CLEAR,NIGHT_CLEAR,NIGHT_CLEAR,NIGHT_CLEAR,NIGHT_CLEAR,NIGHT_CLEAR,NIGHT_CLEAR,NIGHT_CLEAR,CLEAR,CLEAR,CLEAR","Cross-shore,Cross-shore,Cross-shore,Cross-shore,Cross-shore,Cross-shore,Cross-shore,Offshore,Cross-shore,Cross-shore,Cross-shore",11
5842041f4e65fad6a7708891,2024_07_29,21.665,-158.054,Backdoor,1.7272727272727273,0.07734636363636363,0.35290272727272726,26,25,"CLEAR,NIGHT_CLEAR,NIGHT_CLEAR,NIGHT_CLEAR,NIGHT_CLEAR,NIGHT_CLEAR,NIGHT_CLEAR,NIGHT_CLEAR,CLEAR,CLEAR,CLEAR","Cross-shore,Cross-shore,Cross-shore,Cross-shore,Cross-shore,Cross-shore,Cross-shore,Offshore,Cross-shore,Cross-shore,Cross-shore",11
5842041f4e65fad6a7708892,2024_07_29,21.662,-158.057,Rockpile,3,0.32636363636363636,0.6327272727272727,26,26,"CLEAR,NIGHT_CLEAR,NIGHT_CLEAR,NIGHT_CLEAR,NIGHT_CLEAR,NIGHT_CLEAR,NIGHT_CLEAR,NIGHT_CLEAR,CLEAR,CLEAR,CLEAR","Cross-shore,Offshore,Cross-shore,Cross-shore,Cross-shore,Cross-shore,Cross-shore,Offshore,Cross-shore,Cross-shore,Cross-shore",11
5842041f4e65fad6a7708893,2024_07_29,21.65870453806827,-158.06058,Log Cabins,2.4545454545454546,0.6976645454545455,1.0025854545454544,26,26,"CLEAR,NIGHT_CLEAR,NIGHT_CLEAR,NIGHT_CLEAR,NIGHT_CLEAR,NIGHT_CLEAR,NIGHT_CLEAR,NIGHT_CLEAR,CLEAR,CLEAR,CLEAR","Cross-shore,Cross-shore,Cross-shore,Cross-shore,Cross-shore,Cross-shore,Cross-shore,Offshore,Cross-shore,Cross-shore,Cross-shore",11
5842041f4e65fad6a7708894,2024_07_29,21.66203493640557,-158.05495,Off-The-Wall,2,0.23533909090909091,0.5410018181818181,26,26,"CLEAR,NIGHT_CLEAR,NIGHT_CLEAR,NIGHT_CLEAR,NIGHT_CLEAR,NIGHT_CLEAR,NIGHT_CLEAR,NIGHT_CLEAR,CLEAR,CLEAR,CLEAR","Cross-shore,Cross-shore,Cross-shore,Cross-shore,Cross-shore,Cross-shore,Cross-shore,Offshore,Cross-shore,Cross-shore,Cross-shore",11
5842041f4e65fad6a7708895,2024_07_29,21.643,-158.067,Waimea Bay,NA,0.06606090909090909,0.33296636363636367,26,25,"CLEAR,NIGHT_CLEAR,NIGHT_CLEAR,NIGHT_CLEAR,NIGHT_CLEAR,NIGHT_CLEAR,NIGHT_CLEAR,NIGHT_CLEAR,CLEAR,CLEAR,CLEAR","Cross-shore,Offshore,Offshore,Offshore,Offshore,Offshore,Offshore,Offshore,Offshore,Offshore,Cross-shore",11
5842041f4e65fad6a7708896,2024_07_29,21.622,-158.087,Hultin's,1.0151515151515151,0.20050636363636365,0.5165663636363637,26,25,"CLEAR,NIGHT_CLEAR,NIGHT_CLEAR,NIGHT_CLEAR,NIGHT_MOSTLY_CLEAR,NIGHT_CLEAR,NIGHT_CLEAR,NIGHT_CLEAR,CLEAR,CLEAR,CLEAR","Offshore,Offshore,Offshore,Offshore,Offshore,Offshore,Offshore,Offshore,Offshore,Offshore,Offshore",11
5842041f4e65fad6a7708897,2024_07_29,21.623,-158.085,Jocko's,2,0.07636363636363637,0.38181818181818183,26,26,"CLEAR,NIGHT_CLEAR,NIGHT_CLEAR,NIGHT_CLEAR,NIGHT_MOSTLY_CLEAR,NIGHT_CLEAR,NIGHT_CLEAR,NIGHT_CLEAR,CLEAR,CLEAR,CLEAR","Onshore,Cross-shore,Cross-shore,Cross-shore,Cross-shore,Cross-shore,Onshore,Onshore,Cross-shore,Cross-shore,Cross-shore",11
5842041f4e65fad6a7708898,2024_07_29,21.62,-158.088,Laniakea,1.9090909090909092,0.5392399999999999,0.84054,26,25,"CLEAR,NIGHT_CLEAR,NIGHT_CLEAR,NIGHT_CLEAR,NIGHT_MOSTLY_CLEAR,NIGHT_CLEAR,NIGHT_CLEAR,NIGHT_CLEAR,CLEAR,CLEAR,CLEAR","Cross-shore,Offshore,Offshore,Offshore,Offshore,Offshore,Cross-shore,Cross-shore,Offshore,Offshore,Offshore",11
5842041f4e65fad6a7708899,2024_07_29,21.625,-158.083,Chun's,1.9090909090909092,0.33090909090909093,0.6345454545454545,26,26,"CLEAR,NIGHT_CLEAR,NIGHT_CLEAR,NIGHT_CLEAR,NIGHT_MOSTLY_CLEAR,NIGHT_CLEAR,NIGHT_CLEAR,NIGHT_CLEAR,CLEAR,CLEAR,CLEAR","Offshore,Offshore,Offshore,Offshore,Offshore,Offshore,Offshore,Offshore,Offshore,Offshore,Offshore",11
5842041f4e65fad6a770889c,2024_07_29,21.286357895152136,-157.8515,South Shore - Ala Moana Park,2,0.4890909090909091,0.7936363636363637,26,26,"CLEAR,NIGHT_CLEAR,NIGHT_CLEAR,NIGHT_CLEAR,NIGHT_CLEAR,NIGHT_CLEAR,NIGHT_CLEAR,NIGHT_CLEAR,CLEAR,CLEAR,CLEAR","Offshore,Offshore,Offshore,Offshore,Offshore,Offshore,Offshore,Offshore,Offshore,Offshore,Offshore",11
5842041f4e65fad6a770889d,2024_07_29,19.606,-155.978,Banyans,2.090909090909091,0.3410845454545455,0.6475481818181819,26,25,"CLEAR,NIGHT_CLEAR,NIGHT_CLEAR,NIGHT_CLEAR,NIGHT_CLEAR,NIGHT_CLEAR,NIGHT_MOSTLY_CLEAR,NIGHT_CLEAR,CLEAR,CLEAR,CLEAR","Onshore,Cross-shore,Cross-shore,Cross-shore,Cross-shore,Onshore,Cross-shore,Offshore,Onshore,Onshore,Onshore",11
5842041f4e65fad6a770889e,2024_07_29,20.029,-155.831,Kawaihae,2,0.4444,0.5994054545454546,27,27,"CLEAR,NIGHT_CLEAR,NIGHT_CLEAR,NIGHT_CLEAR,NIGHT_CLEAR,NIGHT_CLEAR,NIGHT_CLEAR,NIGHT_CLEAR,CLEAR,CLEAR,CLEAR","Onshore,Cross-shore,Offshore,Offshore,Offshore,Offshore,Offshore,Offshore,Onshore,Onshore,Onshore",11
5842041f4e65fad6a770889f,2024_07_29,33.07541383424675,-117.3105,Grandview,2.3636363636363638,0.6072981818181818,0.9278581818181818,23,23,"MIST,NIGHT_CLEAR,NIGHT_CLEAR,NIGHT_MIST,NIGHT_MOSTLY_CLOUDY,NIGHT_MOSTLY_CLOUDY,NIGHT_BRIEF_SHOWERS,DRIZZLE,MIST,MIST,MIST","Onshore,Cross-shore,Onshore,Onshore,Onshore,Onshore,Onshore,Onshore,Onshore,Onshore,Onshore",11
5842041f4e65fad6a77088a0,2024_07_29,33.065267421296596,-117.30577,Beacons,2.6363636363636362,0.604,0.94825,23,23,"MIST,NIGHT_CLEAR,NIGHT_CLEAR,NIGHT_MIST,NIGHT_MOSTLY_CLOUDY,NIGHT_MOSTLY_CLOUDY,NIGHT_BRIEF_SHOWERS,DRIZZLE,MIST,MIST,MIST","Onshore,Cross-shore,Onshore,Onshore,Onshore,Onshore,Onshore,Onshore,Onshore,Onshore,Onshore",11
5842041f4e65fad6a77088a2,2024_07_29,21.252,-157.805,Diamond Head,2.8181818181818183,0.6958072727272727,1.0550827272727272,26,25,"CLEAR,NIGHT_CLEAR,NIGHT_CLEAR,NIGHT_MOSTLY_CLOUDY,NIGHT_MOSTLY_CLOUDY,NIGHT_CLEAR,NIGHT_CLEAR,NIGHT_CLEAR,CLEAR,CLEAR,CLEAR","Cross-shore,Cross-shore,Cross-shore,Cross-shore,Cross-shore,Cross-shore,Offshore,Offshore,Cross-shore,Cross-shore,Cross-shore",11
5842041f4e65fad6a77088a3,2024_07_29,33.04694255008896,-117.29966,Moonlight State Beach,2.6363636363636362,0.5854545454545454,0.8918181818181818,23,23,"CLEAR,NIGHT_MIST,NIGHT_MIST,NIGHT_MIST,NIGHT_MIST,NIGHT_MOSTLY_CLOUDY,NIGHT_BRIEF_SHOWERS,MIST,BRIEF_SHOWERS,MIST,MIST","Onshore,Onshore,Cross-shore,Cross-shore,Cross-shore,Cross-shore,Cross-shore,Onshore,Onshore,Onshore,Onshore",11
5842041f4e65fad6a77088a5,2024_07_29,33.08685865930869,-117.31532,Ponto,2.4545454545454546,0.5761981818181818,0.8785881818181818,23,23,"MIST,NIGHT_CLEAR,NIGHT_CLEAR,NIGHT_MIST,NIGHT_MOSTLY_CLOUDY,NIGHT_MOSTLY_CLOUDY,NIGHT_BRIEF_SHOWERS,DRIZZLE,MIST,MIST,MIST","Onshore,Cross-shore,Onshore,Cross-shore,Cross-shore,Onshore,Cross-shore,Cross-shore,Onshore,Onshore,Onshore",11
5842041f4e65fad6a77088a6,2024_07_29,33.130343587871906,-117.33668,Terra Mar Point,2.6818181818181817,0.5834663636363636,0.8988818181818182,21,21,"CLEAR,NIGHT_CLEAR,NIGHT_MOSTLY_CLOUDY,NIGHT_MOSTLY_CLOUDY,NIGHT_MOSTLY_CLOUDY,NIGHT_MOSTLY_CLOUDY,NIGHT_BRIEF_SHOWERS,OVERCAST,CLEAR,CLEAR,CLEAR","Onshore,Cross-shore,Offshore,Offshore,Offshore,Offshore,Offshore,Cross-shore,Onshore,Onshore,Onshore",11
5842041f4e65fad6a77088af,2024_07_29,32.95916304183685,-117.26963,Del Mar,2,0.5660254545454545,0.8709481818181818,23,23,"MIST,NIGHT_MIST,NIGHT_MIST,NIGHT_MIST,NIGHT_MIST,NIGHT_MIST,NIGHT_MIST,BRIEF_SHOWERS,MIST,MIST,CLEAR","Onshore,Onshore,Cross-shore,Cross-shore,Cross-shore,Cross-shore,Cross-shore,Cross-shore,Onshore,Onshore,Onshore",11
5842041f4e65fad6a77088b0,2024_07_29,32.97527261243354,-117.2721061331305,Del Mar Rivermouth,2.272727272727273,0.5954545454545455,0.9009090909090909,23,23,"MIST,NIGHT_MIST,NIGHT_MIST,NIGHT_MIST,NIGHT_MIST,NIGHT_MIST,NIGHT_BRIEF_SHOWERS,BRIEF_SHOWERS,MOSTLY_CLOUDY,CLEAR,CLEAR","Onshore,Cross-shore,Cross-shore,Cross-shore,Cross-shore,Cross-shore,Cross-shore,Cross-shore,Onshore,Onshore,Onshore",11
5842041f4e65fad6a77088b1,2024_07_29,33.01352178146273,-117.28219,Cardiff Reef,2.484848484848485,0.6482236363636363,0.9553354545454545,20,20,"MOSTLY_CLOUDY,NIGHT_MIST,NIGHT_MIST,NIGHT_MIST,NIGHT_MIST,NIGHT_MIST,NIGHT_BRIEF_SHOWERS,MIST,MOSTLY_CLOUDY,MIST,CLEAR","Onshore,Cross-shore,Cross-shore,Offshore,Offshore,Offshore,Offshore,Offshore,Onshore,Onshore,Onshore",11
5842041f4e65fad6a77088b3,2024_07_29,33.00211185876003,-117.2811,Seaside Reef,2,0.6036363636363636,0.9045454545454545,23,23,"CLEAR,NIGHT_MIST,NIGHT_MIST,NIGHT_MIST,NIGHT_MIST,NIGHT_BRIEF_SHOWERS,NIGHT_BRIEF_SHOWERS,BRIEF_SHOWERS,MOSTLY_CLOUDY,CLEAR,CLEAR","Onshore,Cross-shore,Cross-shore,Cross-shore,Cross-shore,Cross-shore,Cross-shore,Cross-shore,Onshore,Onshore,Onshore",11
5842041f4e65fad6a77088b4,2024_07_29,33.0341859796287,-117.29552,Swami's,2.409090909090909,0.544070909090909,0.8520345454545455,20,20,"MOSTLY_CLOUDY,NIGHT_MIST,NIGHT_MIST,NIGHT_MIST,NIGHT_MIST,NIGHT_MIST,NIGHT_BRIEF_SHOWERS,MIST,MOSTLY_CLOUDY,MIST,CLEAR","Onshore,Onshore,Cross-shore,Cross-shore,Cross-shore,Cross-shore,Offshore,Onshore,Onshore,Onshore,Onshore",11
5842041f4e65fad6a77088b7,2024_07_29,33.04569760260221,-117.2994,D Street,2.6363636363636362,0.6327018181818181,0.9748636363636364,23,23,"CLEAR,NIGHT_MIST,NIGHT_MIST,NIGHT_MIST,NIGHT_MIST,NIGHT_MOSTLY_CLOUDY,NIGHT_BRIEF_SHOWERS,MIST,BRIEF_SHOWERS,MIST,MIST","Onshore,Onshore,Cross-shore,Cross-shore,Cross-shore,Cross-shore,Offshore,Onshore,Onshore,Onshore,Onshore",11
5842041f4e65fad6a77088b8,2024_07_29,33.02090944350196,-117.28535,San Elijo State Beach,2.0303030303030303,0.32517,0.62953,20,20,"MOSTLY_CLOUDY,NIGHT_MIST,NIGHT_MIST,NIGHT_MIST,NIGHT_MIST,NIGHT_MIST,NIGHT_BRIEF_SHOWERS,MIST,MOSTLY_CLOUDY,MIST,CLEAR","Onshore,Cross-shore,Cross-shore,Offshore,Offshore,Offshore,Offshore,Offshore,Onshore,Onshore,Onshore",11
5842041f4e65fad6a77088c2,2024_07_29,32.80662846492798,-117.26888,PB Point,2.6363636363636362,0.5681818181818182,0.8745454545454545,22.363636363636363,22.363636363636363,"CLEAR,NIGHT_DRIZZLE,NIGHT_OVERCAST,NIGHT_OVERCAST,NIGHT_OVERCAST,NIGHT_MOSTLY_CLOUDY,NIGHT_MOSTLY_CLOUDY,NIGHT_MOSTLY_CLOUDY,CLEAR,CLEAR,CLEAR","Cross-shore,Offshore,Offshore,Offshore,Offshore,Offshore,Offshore,Offshore,Cross-shore,Cross-shore,Cross-shore",11
5842041f4e65fad6a77088c4,2024_07_29,32.8060476681448,-117.26479,Old Man's at Tourmaline,2.6363636363636362,0.3511936363636364,0.6569454545454545,22.363636363636363,22.363636363636363,"CLEAR,NIGHT_DRIZZLE,NIGHT_OVERCAST,NIGHT_OVERCAST,NIGHT_OVERCAST,NIGHT_MOSTLY_CLOUDY,NIGHT_MOSTLY_CLOUDY,NIGHT_MOSTLY_CLOUDY,CLEAR,CLEAR,CLEAR","Cross-shore,Offshore,Offshore,Offshore,Offshore,Offshore,Offshore,Offshore,Cross-shore,Cross-shore,Cross-shore",11
5842041f4e65fad6a77088cb,2024_07_29,32.557056711256,-117.1327445020322,Tijuana Slough,1.6363636363636365,0.5581818181818182,0.8618181818181818,21,21,"CLEAR,NIGHT_DRIZZLE,NIGHT_DRIZZLE,NIGHT_DRIZZLE,NIGHT_MIST,NIGHT_DRIZZLE,NIGHT_MIST,NIGHT_DRIZZLE,MIST,MIST,MIST","Onshore,Cross-shore,Cross-shore,Cross-shore,Cross-shore,Onshore,Cross-shore,Cross-shore,Onshore,Onshore,Onshore",11
5842041f4e65fad6a77088cc,2024_07_29,32.863,-117.257,La Jolla Shores,2,0.4727272727272727,0.78,23,23,"MIST,NIGHT_MIST,NIGHT_MIST,NIGHT_MIST,NIGHT_MIST,NIGHT_MOSTLY_CLOUDY,NIGHT_MIST,BRIEF_SHOWERS,BRIEF_SHOWERS,MIST,MIST","Onshore,Onshore,Onshore,Onshore,Onshore,Onshore,Onshore,Onshore,Onshore,Onshore,Onshore",11
5842041f4e65fad6a77088ce,2024_07_29,32.67443657790586,-117.17421,Coronado Beach,1.6363636363636365,0.2554545454545455,0.56,22,22,"CLEAR,NIGHT_MIST,NIGHT_MIST,NIGHT_DRIZZLE,NIGHT_MIST,NIGHT_MIST,NIGHT_CLOUDY,CLOUDY,CLEAR,CLEAR,CLEAR","Cross-shore,Offshore,Offshore,Offshore,Offshore,Cross-shore,Offshore,Offshore,Cross-shore,Cross-shore,Cross-shore",11
5842041f4e65fad6a77088cf,2024_07_29,33.40484417640326,-117.60749,San Clemente State Beach,2.6363636363636362,0.4636363636363636,0.7681818181818182,22.363636363636363,22.363636363636363,"CLEAR,NIGHT_MOSTLY_CLOUDY,NIGHT_MOSTLY_CLOUDY,NIGHT_MOSTLY_CLOUDY,NIGHT_MOSTLY_CLOUDY,NIGHT_MOSTLY_CLOUDY,NIGHT_MIST,NIGHT_MOSTLY_CLOUDY,CLEAR,CLEAR,CLEAR","Onshore,Cross-shore,Onshore,Offshore,Offshore,Cross-shore,Cross-shore,Offshore,Onshore,Onshore,Onshore",11
5842041f4e65fad6a77088d5,2024_07_29,33.4663042002114,-117.7168352817103,Strands,2.6818181818181817,0.6651172727272727,1.0143536363636363,19,19,"MIST,NIGHT_BRIEF_SHOWERS,NIGHT_MOSTLY_CLOUDY,NIGHT_MOSTLY_CLOUDY,NIGHT_MOSTLY_CLOUDY,NIGHT_MOSTLY_CLOUDY,NIGHT_MIST,NIGHT_MOSTLY_CLOUDY,MIST,BRIEF_SHOWERS,MIST","Onshore,Onshore,Onshore,Onshore,Onshore,Cross-shore,Cross-shore,Cross-shore,Onshore,Onshore,Onshore",11
5842041f4e65fad6a77088d7,2024_07_29,33.4609858001748,-117.68535,Doheny State Beach,2.621212121212121,0.43850272727272727,0.7836654545454546,19,19,"CLEAR,NIGHT_MOSTLY_CLOUDY,NIGHT_MOSTLY_CLOUDY,NIGHT_MOSTLY_CLOUDY,NIGHT_MOSTLY_CLOUDY,NIGHT_MOSTLY_CLOUDY,NIGHT_MOSTLY_CLOUDY,NIGHT_MOSTLY_CLOUDY,CLEAR,CLEAR,CLEAR","Onshore,Onshore,Onshore,Onshore,Onshore,Cross-shore,Offshore,Offshore,Onshore,Onshore,Onshore",11
5842041f4e65fad6a77088dc,2024_07_29,33.50894790083017,-117.75243,Aliso Creek,2.6363636363636362,0.6454545454545455,0.95,22,22,"MIST,NIGHT_MOSTLY_CLOUDY,NIGHT_MOSTLY_CLOUDY,NIGHT_MOSTLY_CLOUDY,NIGHT_MOSTLY_CLOUDY,NIGHT_MOSTLY_CLOUDY,NIGHT_MIST,NIGHT_MOSTLY_CLOUDY,BRIEF_SHOWERS,BRIEF_SHOWERS,MIST","Onshore,Onshore,Onshore,Cross-shore,Cross-shore,Cross-shore,Cross-shore,Cross-shore,Onshore,Onshore,Onshore",11
5842041f4e65fad6a77088dd,2024_07_29,33.5326591767067,-117.77764,Brooks Street,2.3636363636363638,0.4481818181818182,0.7518181818181818,21.636363636363637,21.636363636363637,"MIST,NIGHT_MIST,NIGHT_MOSTLY_CLOUDY,NIGHT_MOSTLY_CLOUDY,NIGHT_MOSTLY_CLOUDY,NIGHT_MOSTLY_CLOUDY,NIGHT_MIST,NIGHT_MOSTLY_CLOUDY,MIST,MIST,MIST","Onshore,Onshore,Cross-shore,Cross-shore,Offshore,Cross-shore,Cross-shore,Offshore,Onshore,Onshore,Onshore",11
5842041f4e65fad6a77088de,2024_07_29,33.53561225884637,-117.7799,Thalia Street,2.6363636363636362,0.40545454545454546,0.7118181818181818,21.636363636363637,21.636363636363637,"MIST,NIGHT_MIST,NIGHT_MOSTLY_CLOUDY,NIGHT_MOSTLY_CLOUDY,NIGHT_MOSTLY_CLOUDY,NIGHT_MOSTLY_CLOUDY,NIGHT_MIST,NIGHT_MOSTLY_CLOUDY,MIST,MIST,MIST","Onshore,Onshore,Cross-shore,Cross-shore,Offshore,Cross-shore,Cross-shore,Offshore,Onshore,Onshore,Onshore",11
5842041f4e65fad6a77088e3,2024_07_29,33.54268310353641,-117.7916,Rockpile,2.6363636363636362,0.4481818181818182,0.7518181818181818,21.636363636363637,21.636363636363637,"MIST,NIGHT_MIST,NIGHT_MOSTLY_CLOUDY,NIGHT_MOSTLY_CLOUDY,NIGHT_MOSTLY_CLOUDY,NIGHT_MOSTLY_CLOUDY,NIGHT_MIST,NIGHT_MOSTLY_CLOUDY,MIST,MIST,MIST","Onshore,Cross-shore,Cross-shore,Cross-shore,Offshore,Cross-shore,Offshore,Offshore,Onshore,Onshore,Onshore",11
5842041f4e65fad6a77088e4,2024_07_29,33.7368459504689,-118.10342,"Seal Beach Pier, Southside",1.7272727272727273,0.2972727272727273,0.6054545454545455,20,20,"MIST,NIGHT_BRIEF_SHOWERS,NIGHT_MIST,NIGHT_MIST,NIGHT_MIST,NIGHT_MIST,NIGHT_MOSTLY_CLOUDY,NIGHT_MOSTLY_CLOUDY,MIST,MIST,MIST","Onshore,Onshore,Onshore,Onshore,Onshore,Offshore,Offshore,Cross-shore,Onshore,Onshore,Onshore",11
5842041f4e65fad6a77088e5,2024_07_29,33.73933701820233,-118.117,Ray Bay,2.3636363636363638,0.4781818181818182,0.7845454545454545,20,20,"CLEAR,NIGHT_MIST,NIGHT_BRIEF_SHOWERS,NIGHT_MOSTLY_CLOUDY,NIGHT_MOSTLY_CLOUDY,NIGHT_MOSTLY_CLOUDY,NIGHT_MOSTLY_CLOUDY,NIGHT_MOSTLY_CLOUDY,SHOWERS,MOSTLY_CLEAR,MOSTLY_CLEAR","Onshore,Onshore,Onshore,Onshore,Onshore,Offshore,Offshore,Cross-shore,Onshore,Onshore,Onshore",11
5842041f4e65fad6a77088e7,2024_07_29,33.728733,-118.08982,Surfside,1.6363636363636365,0.04454545454545455,0.3518181818181818,20,20,"CLEAR,NIGHT_MOSTLY_CLEAR,NIGHT_MOSTLY_CLOUDY,NIGHT_MOSTLY_CLOUDY,NIGHT_MOSTLY_CLOUDY,NIGHT_MOSTLY_CLOUDY,NIGHT_MOSTLY_CLOUDY,NIGHT_MOSTLY_CLOUDY,CLEAR,CLEAR,CLEAR","Onshore,Onshore,Onshore,Onshore,Onshore,Offshore,Offshore,Cross-shore,Onshore,Onshore,Onshore",11
5842041f4e65fad6a77088e8,2024_07_29,33.68760321488161,-118.04236,Bolsa Chica State Beach,2.4545454545454546,0.5710045454545455,0.8722954545454545,17,17,"CLEAR,NIGHT_MOSTLY_CLOUDY,NIGHT_MOSTLY_CLOUDY,NIGHT_MOSTLY_CLOUDY,NIGHT_MOSTLY_CLOUDY,NIGHT_OVERCAST,NIGHT_CLOUDY,NIGHT_OVERCAST,CLEAR,CLEAR,CLEAR","Onshore,Offshore,Offshore,Offshore,Offshore,Offshore,Offshore,Offshore,Onshore,Onshore,Onshore",11
5842041f4e65fad6a77088ea,2024_07_29,33.66704400178788,-118.0192,North HB Streets,2.1515151515151514,0.7592381818181818,1.1031536363636363,17,17,"CLEAR,NIGHT_MOSTLY_CLOUDY,NIGHT_MOSTLY_CLOUDY,NIGHT_MOSTLY_CLOUDY,NIGHT_MOSTLY_CLOUDY,NIGHT_OVERCAST,NIGHT_OVERCAST,NIGHT_OVERCAST,CLEAR,CLEAR,CLEAR","Onshore,Cross-shore,Cross-shore,Cross-shore,Cross-shore,Offshore,Offshore,Onshore,Onshore,Onshore,Onshore",11
5842041f4e65fad6a77088ed,2024_07_29,33.65475101379567,-118.00291,Huntington Beach Pier Southside,2.227272727272727,0.8364418181818182,1.11792,17,17,"CLEAR,NIGHT_MOSTLY_CLOUDY,NIGHT_MOSTLY_CLOUDY,NIGHT_MOSTLY_CLOUDY,NIGHT_MOSTLY_CLOUDY,NIGHT_OVERCAST,NIGHT_OVERCAST,NIGHT_OVERCAST,CLEAR,CLEAR,CLEAR","Onshore,Onshore,Onshore,Onshore,Cross-shore,Cross-shore,Offshore,Onshore,Onshore,Onshore,Onshore",11
5842041f4e65fad6a77088ee,2024_07_29,33.62778647706099,-117.95939,River Jetties,2.5454545454545454,0.78421,1.1211063636363636,18,18,"CLEAR,NIGHT_MOSTLY_CLOUDY,NIGHT_MOSTLY_CLOUDY,NIGHT_MOSTLY_CLOUDY,NIGHT_MOSTLY_CLOUDY,NIGHT_MOSTLY_CLOUDY,NIGHT_OVERCAST,NIGHT_OVERCAST,BRIEF_SHOWERS,BRIEF_SHOWERS,MOSTLY_CLEAR","Onshore,Onshore,Onshore,Cross-shore,Cross-shore,Offshore,Offshore,Cross-shore,Onshore,Onshore,Onshore",11
5842041f4e65fad6a77088f2,2024_07_29,33.605165797643664,-117.925,Newport Point,2.5454545454545454,0.49454545454545457,0.8018181818181818,21.636363636363637,21.636363636363637,"BRIEF_SHOWERS,NIGHT_MIST,NIGHT_MIST,NIGHT_MOSTLY_CLOUDY,NIGHT_MOSTLY_CLOUDY,NIGHT_MIST,NIGHT_MIST,NIGHT_CLOUDY,BRIEF_SHOWERS,MIST,MIST","Onshore,Onshore,Onshore,Onshore,Onshore,Onshore,Cross-shore,Cross-shore,Onshore,Onshore,Onshore",11
5842041f4e65fad6a77088f3,2024_07_29,33.58982984726977,-117.87713,Corona del Mar,2.727272727272727,0.5345454545454545,0.84,21.636363636363637,21.636363636363637,"MIST,NIGHT_MIST,NIGHT_BRIEF_SHOWERS,NIGHT_MOSTLY_CLOUDY,NIGHT_MOSTLY_CLOUDY,NIGHT_MOSTLY_CLOUDY,NIGHT_MIST,NIGHT_MOSTLY_CLOUDY,BRIEF_SHOWERS,BRIEF_SHOWERS,MIST","Onshore,Onshore,Offshore,Offshore,Offshore,Offshore,Cross-shore,Offshore,Onshore,Onshore,Onshore",11
5842041f4e65fad6a77088f7,2024_07_29,34.00750300824362,-118.4971783496269,Santa Monica Pier,2.6363636363636362,0.45636363636363636,0.7609090909090909,19.363636363636363,19.363636363636363,"CLEAR,NIGHT_MOSTLY_CLOUDY,NIGHT_MOSTLY_CLOUDY,NIGHT_MOSTLY_CLOUDY,NIGHT_MOSTLY_CLOUDY,NIGHT_MOSTLY_CLEAR,NIGHT_MOSTLY_CLOUDY,NIGHT_MOSTLY_CLOUDY,CLEAR,CLEAR,CLEAR","Onshore,Onshore,Onshore,Onshore,Onshore,Onshore,Onshore,Onshore,Onshore,Onshore,Onshore",11
5842041f4e65fad6a77088ff,2024_07_29,33.94070283102945,-118.44321,Dockweiler Beach,2.1666666666666665,0.5965818181818182,0.9021454545454546,19,19,"SHOWERS,NIGHT_MOSTLY_CLOUDY,NIGHT_MOSTLY_CLOUDY,NIGHT_MOSTLY_CLOUDY,NIGHT_MOSTLY_CLOUDY,NIGHT_MOSTLY_CLOUDY,NIGHT_MOSTLY_CLOUDY,NIGHT_MOSTLY_CLOUDY,MIST,MIST,MIST","Onshore,Onshore,Onshore,Onshore,Onshore,Onshore,Onshore,Onshore,Onshore,Onshore,Onshore",11
5842041f4e65fad6a7708900,2024_07_29,33.9231846937237,-118.4341465777908,Shitpipe,2.257575757575758,0.6590818181818182,0.9647218181818181,19,19,"BRIEF_SHOWERS,NIGHT_MOSTLY_CLOUDY,NIGHT_MOSTLY_CLOUDY,NIGHT_MOSTLY_CLOUDY,NIGHT_MOSTLY_CLOUDY,NIGHT_MIST,NIGHT_MOSTLY_CLOUDY,NIGHT_MOSTLY_CLOUDY,MIST,MIST,MIST","Onshore,Onshore,Onshore,Onshore,Onshore,Onshore,Onshore,Onshore,Onshore,Onshore,Onshore",11
5842041f4e65fad6a7708902,2024_07_29,33.9108528052242,-118.4279133138721,Hammerland,2.0757575757575757,0.6590818181818182,0.9647218181818181,19.90909090909091,19.90909090909091,"BRIEF_SHOWERS,NIGHT_MOSTLY_CLOUDY,NIGHT_MOSTLY_CLOUDY,NIGHT_MOSTLY_CLOUDY,NIGHT_MOSTLY_CLOUDY,NIGHT_MIST,NIGHT_MOSTLY_CLOUDY,NIGHT_MOSTLY_CLOUDY,MIST,MIST,MIST","Onshore,Onshore,Onshore,Onshore,Onshore,Onshore,Onshore,Onshore,Onshore,Onshore,Onshore",11
5842041f4e65fad6a7708904,2024_07_29,33.87201368173932,-118.40752,Hermosa Beach,2.272727272727273,0.40943363636363633,0.7135990909090909,20.818181818181817,20.818181818181817,"MIST,NIGHT_MOSTLY_CLOUDY,NIGHT_MIST,NIGHT_MIST,NIGHT_MOSTLY_CLOUDY,NIGHT_MOSTLY_CLOUDY,NIGHT_MOSTLY_CLOUDY,NIGHT_MOSTLY_CLOUDY,MIST,BRIEF_SHOWERS,MIST","Onshore,Onshore,Onshore,Onshore,Onshore,Onshore,Onshore,Onshore,Onshore,Onshore,Onshore",11
5842041f4e65fad6a7708906,2024_07_29,33.90129336911256,-118.42184,El Porto,2.621212121212121,0.6619218181818182,1.0200463636363637,19.90909090909091,19.90909090909091,"MIST,NIGHT_MOSTLY_CLOUDY,NIGHT_MIST,NIGHT_MOSTLY_CLOUDY,NIGHT_MOSTLY_CLOUDY,NIGHT_MIST,NIGHT_MOSTLY_CLOUDY,NIGHT_MOSTLY_CLOUDY,MIST,MIST,MIST","Onshore,Onshore,Onshore,Onshore,Onshore,Onshore,Onshore,Onshore,Onshore,Onshore,Onshore",11
5842041f4e65fad6a7708907,2024_07_29,33.87963506431794,-118.41102,Manhattan Beach Pier,2.5454545454545454,0.7480854545454545,1.080989090909091,20.818181818181817,20.818181818181817,"MIST,NIGHT_MOSTLY_CLOUDY,NIGHT_MIST,NIGHT_MOSTLY_CLOUDY,NIGHT_MOSTLY_CLOUDY,NIGHT_MIST,NIGHT_MOSTLY_CLOUDY,NIGHT_MOSTLY_CLOUDY,MIST,MIST,MIST","Onshore,Onshore,Onshore,Onshore,Onshore,Onshore,Onshore,Onshore,Onshore,Onshore,Onshore",11
5842041f4e65fad6a7708914,2024_07_29,34.038053387863464,-118.5532,Sunset Point,2,0.2581818181818182,0.5654545454545454,19.363636363636363,19.363636363636363,"MIST,NIGHT_MOSTLY_CLOUDY,NIGHT_MOSTLY_CLOUDY,NIGHT_MOSTLY_CLOUDY,NIGHT_MOSTLY_CLOUDY,NIGHT_MOSTLY_CLOUDY,NIGHT_MOSTLY_CLOUDY,NIGHT_MOSTLY_CLOUDY,MIST,MIST,MIST","Onshore,Cross-shore,Cross-shore,Offshore,Cross-shore,Cross-shore,Cross-shore,Onshore,Cross-shore,Cross-shore,Cross-shore",11
5842041f4e65fad6a7708920,2024_07_29,33.80282,-118.39989,Haggerty's,1.7272727272727273,0.296,0.5389090909090909,19.363636363636363,19.363636363636363,"SHOWERS,NIGHT_CLEAR,NIGHT_MIST,NIGHT_MIST,NIGHT_MOSTLY_CLOUDY,NIGHT_MOSTLY_CLOUDY,NIGHT_MOSTLY_CLOUDY,NIGHT_MOSTLY_CLOUDY,MIST,MIST,MIST","Onshore,Onshore,Onshore,Onshore,Onshore,Cross-shore,Onshore,Cross-shore,Onshore,Onshore,Onshore",11
5842041f4e65fad6a7708921,2024_07_29,33.85044519861206,-118.40048,Redondo Breakwater,2.5454545454545454,0.48858,0.7959536363636364,20,20,"MIST,NIGHT_MOSTLY_CLOUDY,NIGHT_MIST,NIGHT_MIST,NIGHT_MOSTLY_CLOUDY,NIGHT_MOSTLY_CLOUDY,NIGHT_MOSTLY_CLOUDY,NIGHT_MOSTLY_CLOUDY,MIST,BRIEF_SHOWERS,MIST","Onshore,Onshore,Onshore,Onshore,Onshore,Onshore,Onshore,Onshore,Onshore,Onshore,Onshore",11
5842041f4e65fad6a7708927,2024_07_29,33.70877301002487,-118.2840112858389,Cabrillo Beach,1.9090909090909092,0.32727272727272727,0.6336363636363637,20,20,"CLEAR,NIGHT_CLEAR,NIGHT_CLEAR,NIGHT_CLEAR,NIGHT_CLEAR,NIGHT_CLEAR,NIGHT_CLEAR,NIGHT_CLEAR,CLEAR,CLEAR,CLEAR","Cross-shore,Cross-shore,Cross-shore,Onshore,Cross-shore,Cross-shore,Onshore,Onshore,Cross-shore,Cross-shore,Cross-shore",11
5842041f4e65fad6a770892c,2024_07_29,33.77209986806257,-118.4268428476672,Lunada Bay,1.1818181818181819,0.4081818181818182,0.7145454545454546,19.363636363636363,19.363636363636363,"MIST,NIGHT_MOSTLY_CLOUDY,NIGHT_MOSTLY_CLOUDY,NIGHT_MOSTLY_CLOUDY,NIGHT_MOSTLY_CLOUDY,NIGHT_MOSTLY_CLOUDY,NIGHT_MOSTLY_CLOUDY,NIGHT_MOSTLY_CLOUDY,MIST,MIST,MIST","Onshore,Onshore,Onshore,Onshore,Cross-shore,Cross-shore,Offshore,Offshore,Onshore,Onshore,Onshore",11
5842041f4e65fad6a770892d,2024_07_29,33.79294656286144,-118.40703,PV Cove,2,0.37,0.6736363636363637,19.363636363636363,19.363636363636363,"SHOWERS,NIGHT_CLEAR,NIGHT_MIST,NIGHT_MIST,NIGHT_MOSTLY_CLOUDY,NIGHT_MOSTLY_CLOUDY,NIGHT_MOSTLY_CLOUDY,NIGHT_MOSTLY_CLOUDY,MIST,MIST,MIST","Onshore,Cross-shore,Onshore,Onshore,Onshore,Onshore,Onshore,Onshore,Onshore,Onshore,Onshore",11
5842041f4e65fad6a7708930,2024_07_29,34.03944902292561,-118.57539,Chart House,0.9090909090909091,0,0.1918181818181818,19.727272727272727,19.727272727272727,"CLEAR,NIGHT_MOSTLY_CLEAR,NIGHT_MOSTLY_CLEAR,NIGHT_MIST,NIGHT_MOSTLY_CLEAR,NIGHT_CLEAR,NIGHT_CLEAR,NIGHT_CLEAR,CLEAR,CLEAR,CLEAR","Cross-shore,Onshore,Cross-shore,Onshore,Cross-shore,Cross-shore,Cross-shore,Onshore,Cross-shore,Cross-shore,Cross-shore",11
5842041f4e65fad6a7708936,2024_07_29,34.0016731994772,-118.80456,Point Dume,2.272727272727273,0.3998736363636364,0.7068554545454545,19,19,"CLEAR,NIGHT_CLEAR,NIGHT_MIST,NIGHT_MIST,NIGHT_MIST,NIGHT_MIST,NIGHT_MIST,NIGHT_MIST,BRIEF_SHOWERS,MIST,MIST","Cross-shore,Cross-shore,Cross-shore,Cross-shore,Cross-shore,Cross-shore,Cross-shore,Cross-shore,Cross-shore,Cross-shore,Cross-shore",11
5842041f4e65fad6a7708937,2024_07_29,34.02587527588963,-118.7554939066114,Latigo Point,2.6363636363636362,0.4354545454545454,0.7418181818181818,20.363636363636363,20.363636363636363,"CLEAR,NIGHT_MIST,NIGHT_MIST,NIGHT_MIST,NIGHT_MIST,NIGHT_MIST,NIGHT_MIST,NIGHT_MIST,MIST,MIST,MIST","Onshore,Cross-shore,Offshore,Cross-shore,Offshore,Offshore,Offshore,Offshore,Onshore,Onshore,Onshore",11
5842041f4e65fad6a770893f,2024_07_29,34.043762,-118.93294,Leo Carrillo,2.6363636363636362,0.6404781818181818,0.9824909090909091,18,18,"CLEAR,NIGHT_MIST,NIGHT_MOSTLY_CLOUDY,NIGHT_MIST,NIGHT_MOSTLY_CLOUDY,NIGHT_MIST,NIGHT_MIST,NIGHT_MIST,BRIEF_SHOWERS,MIST,MIST","Cross-shore,Offshore,Offshore,Offshore,Offshore,Offshore,Offshore,Offshore,Cross-shore,Cross-shore,Cross-shore",11
5842041f4e65fad6a7708941,2024_07_29,36.69388179265737,-121.81289,Marina State Beach,1.7272727272727273,0.5227272727272727,0.8281818181818181,16.363636363636363,16.363636363636363,"MOSTLY_CLEAR,NIGHT_MOSTLY_CLOUDY,NIGHT_MIST,NIGHT_MIST,NIGHT_MIST,NIGHT_MIST,NIGHT_MIST,NIGHT_MIST,MOSTLY_CLEAR,SHOWERS,MOSTLY_CLEAR","Onshore,Onshore,Onshore,Onshore,Onshore,Onshore,Onshore,Onshore,Onshore,Onshore,Onshore",11
5842041f4e65fad6a7708944,2024_07_29,34.34145077331085,-119.416999352654,Stanley's,1.7272727272727273,0.10545454545454545,0.4118181818181818,18.727272727272727,18.727272727272727,"CLEAR,NIGHT_CLEAR,NIGHT_CLEAR,NIGHT_CLEAR,NIGHT_CLEAR,NIGHT_CLEAR,NIGHT_MIST,NIGHT_CLEAR,CLEAR,CLEAR,CLEAR","Onshore,Offshore,Offshore,Offshore,Offshore,Offshore,Offshore,Offshore,Onshore,Onshore,Onshore",11
5842041f4e65fad6a7708945,2024_07_29,34.35113017313915,-119.426921498899,Oil Piers,2,0.10545454545454545,0.4118181818181818,18.727272727272727,18.727272727272727,"CLEAR,NIGHT_CLEAR,NIGHT_CLEAR,NIGHT_CLEAR,NIGHT_CLEAR,NIGHT_CLEAR,NIGHT_MIST,NIGHT_CLEAR,CLEAR,CLEAR,CLEAR","Onshore,Offshore,Offshore,Offshore,Offshore,Offshore,Offshore,Offshore,Onshore,Onshore,Onshore",11
5842041f4e65fad6a770894c,2024_07_29,34.17876333306018,-119.23995,Oxnard,2.1818181818181817,0.5636363636363636,0.8672727272727273,19.727272727272727,19.727272727272727,"CLEAR,NIGHT_CLEAR,NIGHT_MIST,NIGHT_CLEAR,NIGHT_MOSTLY_CLEAR,NIGHT_CLEAR,NIGHT_CLEAR,NIGHT_CLEAR,CLEAR,CLEAR,CLEAR","Onshore,Onshore,Onshore,Onshore,Onshore,Onshore,Cross-shore,Offshore,Onshore,Onshore,Onshore",11
5842041f4e65fad6a7708957,2024_07_29,34.31720331100517,-119.3882324751725,Pitas Point,2.1818181818181817,0.27090909090909093,0.5763636363636364,18.727272727272727,18.727272727272727,"MIST,NIGHT_MIST,NIGHT_MIST,NIGHT_MIST,NIGHT_MIST,NIGHT_CLEAR,NIGHT_CLEAR,NIGHT_CLEAR,MIST,MIST,MIST","Onshore,Offshore,Offshore,Offshore,Offshore,Offshore,Offshore,Offshore,Onshore,Onshore,Onshore",11
5842041f4e65fad6a7708959,2024_07_29,34.27851754384724,-119.3162,Emma Wood,2,0.33272727272727276,0.6372727272727272,18.727272727272727,18.727272727272727,"MIST,NIGHT_MIST,NIGHT_MIST,NIGHT_MIST,NIGHT_CLEAR,NIGHT_CLEAR,NIGHT_CLEAR,NIGHT_CLEAR,MIST,MIST,MIST","Onshore,Onshore,Offshore,Onshore,Offshore,Cross-shore,Offshore,Offshore,Onshore,Onshore,Onshore",11
5842041f4e65fad6a770895a,2024_07_29,34.35513640390276,-119.4400589884255,Mussel Shoals (aka Little Rincon),2,0.13181818181818183,0.4354545454545455,18.727272727272727,18.727272727272727,"MIST,NIGHT_MIST,NIGHT_MIST,NIGHT_MIST,NIGHT_MIST,NIGHT_CLEAR,NIGHT_MIST,NIGHT_MIST,MIST,MIST,MIST","Onshore,Offshore,Offshore,Offshore,Offshore,Offshore,Offshore,Offshore,Onshore,Onshore,Onshore",11
5842041f4e65fad6a770895e,2024_07_29,34.28991757054902,-119.3366646794652,Summer Beach,1.6363636363636365,0.25,0.5545454545454546,18.727272727272727,18.727272727272727,"MIST,NIGHT_MIST,NIGHT_MIST,NIGHT_MIST,NIGHT_CLEAR,NIGHT_CLEAR,NIGHT_CLEAR,NIGHT_CLEAR,MIST,MIST,MIST","Onshore,Onshore,Cross-shore,Onshore,Offshore,Cross-shore,Cross-shore,Offshore,Onshore,Onshore,Onshore",11
5842041f4e65fad6a770895f,2024_07_29,34.30897456105926,-119.3582501170116,Solimar,1.9090909090909092,0.25,0.5545454545454546,18.727272727272727,18.727272727272727,"MIST,NIGHT_MIST,NIGHT_MIST,NIGHT_MIST,NIGHT_MIST,NIGHT_CLEAR,NIGHT_CLEAR,NIGHT_CLEAR,MIST,MIST,MIST","Onshore,Offshore,Offshore,Offshore,Offshore,Offshore,Offshore,Offshore,Onshore,Onshore,Onshore",11
5842041f4e65fad6a7708960,2024_07_29,34.39836265281686,-119.70213,Leadbetter Point,1,0,0.16818181818181818,17.727272727272727,17.727272727272727,"CLEAR,NIGHT_CLEAR,NIGHT_CLEAR,NIGHT_CLEAR,NIGHT_CLEAR,NIGHT_CLEAR,NIGHT_MIST,NIGHT_MIST,CLEAR,CLEAR,CLEAR","Cross-shore,Offshore,Offshore,Offshore,Offshore,Offshore,Offshore,Offshore,Onshore,Cross-shore,Cross-shore",11
5842041f4e65fad6a7708961,2024_07_29,34.46052293893899,-120.07328,Refugio,2,0.03909090909090909,0.34454545454545454,16.363636363636363,16.363636363636363,"CLEAR,NIGHT_CLEAR,NIGHT_CLEAR,NIGHT_CLEAR,NIGHT_CLEAR,NIGHT_CLEAR,NIGHT_CLEAR,NIGHT_CLEAR,CLEAR,CLEAR,CLEAR","Cross-shore,Offshore,Offshore,Onshore,Onshore,Cross-shore,Cross-shore,Onshore,Cross-shore,Onshore,Cross-shore",11
5842041f4e65fad6a7708962,2024_07_29,34.40754276777778,-119.87639,Devereux,1.4545454545454546,0.028181818181818183,0.32545454545454544,17.363636363636363,17.363636363636363,"MIST,NIGHT_CLEAR,NIGHT_CLEAR,NIGHT_CLEAR,NIGHT_CLEAR,NIGHT_CLEAR,NIGHT_CLEAR,NIGHT_CLEAR,BRIEF_SHOWERS_POSSIBLE,BRIEF_SHOWERS_POSSIBLE,MIST","Cross-shore,Cross-shore,Cross-shore,Cross-shore,Cross-shore,Onshore,Cross-shore,Onshore,Cross-shore,Cross-shore,Cross-shore",11
5842041f4e65fad6a7708963,2024_07_29,34.27479983305182,-119.3133222656776,Ventura Overhead,2.090909090909091,0.33272727272727276,0.6372727272727272,19.363636363636363,19.363636363636363,"MIST,NIGHT_CLEAR,NIGHT_CLEAR,NIGHT_MIST,NIGHT_CLEAR,NIGHT_CLEAR,NIGHT_CLEAR,NIGHT_CLEAR,MIST,MIST,MIST","Onshore,Offshore,Offshore,Onshore,Offshore,Cross-shore,Offshore,Offshore,Onshore,Onshore,Onshore",11
5842041f4e65fad6a7708964,2024_07_29,34.41023236011655,-119.88261,Sands,1.3636363636363635,0.02090909090909091,0.31181818181818183,17.363636363636363,17.363636363636363,"MIST,NIGHT_CLEAR,NIGHT_CLEAR,NIGHT_CLEAR,NIGHT_CLEAR,NIGHT_CLEAR,NIGHT_CLEAR,NIGHT_CLEAR,BRIEF_SHOWERS_POSSIBLE,BRIEF_SHOWERS_POSSIBLE,MIST","Onshore,Offshore,Offshore,Offshore,Offshore,Offshore,Offshore,Offshore,Onshore,Onshore,Onshore",11
5842041f4e65fad6a7708966,2024_07_29,34.40450193869233,-119.68752,Sandspit,0.9090909090909091,0,0.16818181818181818,17.727272727272727,17.727272727272727,"CLEAR,NIGHT_CLEAR,NIGHT_CLEAR,NIGHT_CLEAR,NIGHT_CLEAR,NIGHT_CLEAR,NIGHT_CLEAR,NIGHT_CLEAR,CLEAR,CLEAR,CLEAR","Cross-shore,Offshore,Offshore,Offshore,Offshore,Offshore,Offshore,Offshore,Onshore,Cross-shore,Cross-shore",11
5842041f4e65fad6a7708967,2024_07_29,34.41549098334453,-119.6375149840203,Hammond's,1.5454545454545454,0.03272727272727273,0.33,17.727272727272727,17.727272727272727,"CLEAR,NIGHT_CLEAR,NIGHT_CLEAR,NIGHT_CLEAR,NIGHT_CLEAR,NIGHT_MOSTLY_CLEAR,NIGHT_MOSTLY_CLEAR,NIGHT_CLEAR,CLEAR,CLEAR,CLEAR","Cross-shore,Cross-shore,Cross-shore,Cross-shore,Cross-shore,Cross-shore,Cross-shore,Cross-shore,Onshore,Cross-shore,Cross-shore",11
5842041f4e65fad6a7708968,2024_07_29,34.45759322742309,-120.02203,El Capitan,2,0.03909090909090909,0.34454545454545454,16.363636363636363,16.363636363636363,"CLEAR,NIGHT_CLEAR,NIGHT_CLEAR,NIGHT_CLEAR,NIGHT_CLEAR,NIGHT_CLEAR,NIGHT_CLEAR,NIGHT_CLEAR,CLEAR,CLEAR,CLEAR","Cross-shore,Cross-shore,Cross-shore,Cross-shore,Offshore,Offshore,Onshore,Cross-shore,Cross-shore,Cross-shore,Cross-shore",11
5842041f4e65fad6a770896c,2024_07_29,34.405117655616,-119.84317,Campus Point,1.4545454545454546,0.02090909090909091,0.31181818181818183,17.363636363636363,17.363636363636363,"CLEAR,NIGHT_CLEAR,NIGHT_CLEAR,NIGHT_CLEAR,NIGHT_CLEAR,NIGHT_CLEAR,NIGHT_CLEAR,NIGHT_CLEAR,CLEAR,CLEAR,CLEAR","Cross-shore,Cross-shore,Cross-shore,Cross-shore,Cross-shore,Onshore,Onshore,Cross-shore,Onshore,Cross-shore,Cross-shore",11
5842041f4e65fad6a770896e,2024_07_29,34.38935162233354,-119.51955,Carpinteria State Beach,2,0.09909090909090909,0.4036363636363636,18.363636363636363,18.363636363636363,"MIST,NIGHT_MIST,NIGHT_MIST,NIGHT_MIST,NIGHT_MIST,NIGHT_CLEAR,NIGHT_MIST,NIGHT_MIST,BRIEF_SHOWERS_POSSIBLE,BRIEF_SHOWERS_POSSIBLE,MIST","Onshore,Offshore,Offshore,Offshore,Offshore,Offshore,Offshore,Offshore,Onshore,Onshore,Onshore",11
5842041f4e65fad6a770896f,2024_07_29,37.48296565175612,-122.45493,Half Moon Bay,2,0.5127272727272727,0.8190909090909091,18.09090909090909,18.09090909090909,"BRIEF_SHOWERS,NIGHT_BRIEF_SHOWERS,NIGHT_BRIEF_SHOWERS,NIGHT_BRIEF_SHOWERS,NIGHT_BRIEF_SHOWERS,NIGHT_BRIEF_SHOWERS,NIGHT_BRIEF_SHOWERS,NIGHT_BRIEF_SHOWERS,BRIEF_SHOWERS,BRIEF_SHOWERS,MIST","Onshore,Onshore,Onshore,Onshore,Onshore,Onshore,Onshore,Onshore,Onshore,Onshore,Onshore",11
5842041f4e65fad6a7708970,2024_07_29,37.499,-122.471,Princeton Jetty,1.6363636363636365,0.33272727272727276,0.6372727272727272,18.09090909090909,18.09090909090909,"BRIEF_SHOWERS,NIGHT_BRIEF_SHOWERS,NIGHT_BRIEF_SHOWERS,NIGHT_BRIEF_SHOWERS,NIGHT_BRIEF_SHOWERS,NIGHT_BRIEF_SHOWERS,NIGHT_BRIEF_SHOWERS,NIGHT_BRIEF_SHOWERS,BRIEF_SHOWERS,MIST,MOSTLY_CLOUDY","Onshore,Onshore,Onshore,Onshore,Onshore,Onshore,Onshore,Onshore,Onshore,Cross-shore,Cross-shore",11
5842041f4e65fad6a7708972,2024_07_29,37.35699547365155,-122.4069534707252,Tunitas Creek,2.727272727272727,0.7854545454545455,1.0645454545454545,18.09090909090909,18.09090909090909,"MIST,NIGHT_BRIEF_SHOWERS,NIGHT_BRIEF_SHOWERS,NIGHT_MIST,NIGHT_BRIEF_SHOWERS,NIGHT_MIST,NIGHT_MIST,NIGHT_MIST,MIST,MIST,MIST","Onshore,Onshore,Onshore,Onshore,Onshore,Onshore,Onshore,Onshore,Cross-shore,Cross-shore,Cross-shore",11
5842041f4e65fad6a7708974,2024_07_29,37.54735589428842,-122.51611,Montara,2,0.6918181818181818,0.9990909090909091,18.09090909090909,18.09090909090909,"MIST,NIGHT_BRIEF_SHOWERS,NIGHT_BRIEF_SHOWERS,NIGHT_LIGHT_RAIN,NIGHT_LIGHT_RAIN,NIGHT_LIGHT_RAIN,NIGHT_LIGHT_RAIN,NIGHT_LIGHT_RAIN,BRIEF_SHOWERS,MIST,MIST","Onshore,Onshore,Onshore,Onshore,Onshore,Onshore,Onshore,Onshore,Onshore,Onshore,Onshore",11
5842041f4e65fad6a7708975,2024_07_29,34.3869373724559,-119.5142334209018,Tarpits,2,0.11,0.41454545454545455,18.363636363636363,18.363636363636363,"CLEAR,NIGHT_MIST,NIGHT_CLEAR,NIGHT_MIST,NIGHT_MIST,NIGHT_CLEAR,NIGHT_CLEAR,NIGHT_CLEAR,CLEAR,CLEAR,CLEAR","Onshore,Cross-shore,Offshore,Offshore,Offshore,Offshore,Offshore,Offshore,Onshore,Onshore,Cross-shore",11
5842041f4e65fad6a7708976,2024_07_29,37.59881852720143,-122.50463,Linda Mar,1.2424242424242424,0.3516981818181818,0.6585263636363636,12,12,"MOSTLY_CLEAR,NIGHT_BRIEF_SHOWERS,NIGHT_BRIEF_SHOWERS,NIGHT_BRIEF_SHOWERS,NIGHT_SHOWERS,NIGHT_BRIEF_SHOWERS,NIGHT_BRIEF_SHOWERS,NIGHT_LIGHT_RAIN,BRIEF_SHOWERS,MIST,MIST","Onshore,Onshore,Onshore,Onshore,Onshore,Onshore,Onshore,Onshore,Onshore,Onshore,Onshore",11
5842041f4e65fad6a7708978,2024_07_29,37.59883098461164,-122.5143843582282,Pedro Point,2,0.6318181818181818,0.9390909090909091,18.09090909090909,18.09090909090909,"CLEAR,NIGHT_MIST,NIGHT_MIST,NIGHT_MIST,NIGHT_MIST,NIGHT_MIST,NIGHT_MIST,NIGHT_MIST,MIST,MIST,MOSTLY_CLOUDY","Onshore,Onshore,Onshore,Onshore,Cross-shore,Onshore,Onshore,Onshore,Onshore,Onshore,Onshore",11
5842041f4e65fad6a7708979,2024_07_29,37.61081996647663,-122.49733,Rockaway,2.727272727272727,0.6254545454545455,0.93,18.09090909090909,18.09090909090909,"MOSTLY_CLEAR,NIGHT_BRIEF_SHOWERS,NIGHT_BRIEF_SHOWERS,NIGHT_BRIEF_SHOWERS,NIGHT_SHOWERS,NIGHT_BRIEF_SHOWERS,NIGHT_BRIEF_SHOWERS,NIGHT_LIGHT_RAIN,BRIEF_SHOWERS,MIST,MIST","Cross-shore,Cross-shore,Onshore,Cross-shore,Cross-shore,Onshore,Cross-shore,Cross-shore,Cross-shore,Onshore,Onshore",11
5842041f4e65fad6a770897a,2024_07_29,37.809987384424446,-122.47514,Fort Point,1.0909090909090908,0.40636363636363637,0.7118181818181818,18.727272727272727,18.727272727272727,"MIST,NIGHT_MIST,NIGHT_MIST,NIGHT_MIST,NIGHT_MIST,NIGHT_MIST,NIGHT_BRIEF_SHOWERS,NIGHT_BRIEF_SHOWERS,MIST,MIST,MIST","Cross-shore,Cross-shore,Cross-shore,Onshore,Onshore,Cross-shore,Onshore,Onshore,Cross-shore,Cross-shore,Cross-shore",11
5842041f4e65fad6a770897c,2024_07_29,37.63422542967464,-122.4951,Sharp Park,2.909090909090909,0.71,0.9918181818181818,18.09090909090909,18.09090909090909,"MIST,NIGHT_MIST,NIGHT_BRIEF_SHOWERS,NIGHT_BRIEF_SHOWERS,NIGHT_BRIEF_SHOWERS,NIGHT_MIST,NIGHT_MIST,NIGHT_DRIZZLE,MIST,MIST,MIST","Onshore,Onshore,Onshore,Onshore,Onshore,Onshore,Onshore,Onshore,Onshore,Onshore,Onshore",11
5842041f4e65fad6a770897d,2024_07_29,37.27313605072472,-122.4127387912554,Pescadero,2.090909090909091,0.7972727272727272,1.03,17.727272727272727,17.727272727272727,"MOSTLY_CLOUDY,NIGHT_MOSTLY_CLOUDY,NIGHT_OVERCAST,NIGHT_CLOUDY,NIGHT_MIST,NIGHT_MIST,NIGHT_MIST,NIGHT_MIST,MIST,MIST,MIST","Onshore,Onshore,Onshore,Onshore,Onshore,Onshore,Onshore,Onshore,Onshore,Onshore,Cross-shore",11
5842041f4e65fad6a770897e,2024_07_29,37.18140279972666,-122.3926685899327,Pigeon Point,3,0.9209090909090909,1.1372727272727272,17.09090909090909,17.09090909090909,"MIST,NIGHT_MOSTLY_CLOUDY,NIGHT_MOSTLY_CLOUDY,NIGHT_MIST,NIGHT_MIST,NIGHT_MIST,NIGHT_MIST,NIGHT_BRIEF_SHOWERS,BRIEF_SHOWERS,MIST,MIST","Cross-shore,Offshore,Offshore,Offshore,Offshore,Offshore,Offshore,Offshore,Offshore,Offshore,Offshore",11
5842041f4e65fad6a770897f,2024_07_29,37.11578956919415,-122.314699271291,Ano Nuevo,2.6363636363636362,0.4754545454545454,0.7818181818181819,17.09090909090909,17.09090909090909,"MIST,NIGHT_BRIEF_SHOWERS,NIGHT_BRIEF_SHOWERS,NIGHT_BRIEF_SHOWERS,NIGHT_BRIEF_SHOWERS,NIGHT_MIST,NIGHT_BRIEF_SHOWERS,NIGHT_BRIEF_SHOWERS,MIST,MIST,CLEAR","Offshore,Offshore,Offshore,Offshore,Offshore,Offshore,Offshore,Offshore,Offshore,Offshore,Offshore",11
5842041f4e65fad6a7708980,2024_07_29,37.09520872681598,-122.2805474707768,Waddell Creek,2.4545454545454546,0.8481818181818181,1.0981818181818181,17.09090909090909,17.09090909090909,"MIST,NIGHT_CLEAR,NIGHT_CLEAR,NIGHT_CLEAR,NIGHT_MOSTLY_CLOUDY,NIGHT_MOSTLY_CLOUDY,NIGHT_MOSTLY_CLOUDY,NIGHT_MOSTLY_CLOUDY,CLEAR,CLEAR,CLEAR","Onshore,Offshore,Offshore,Offshore,Offshore,Offshore,Offshore,Cross-shore,Cross-shore,Cross-shore,Cross-shore",11
5842041f4e65fad6a7708981,2024_07_29,36.96512852130351,-122.1252825495626,Four Mile,2.3636363636363638,0.34909090909090906,0.6545454545454545,16.727272727272727,16.727272727272727,"MIST,NIGHT_CLEAR,NIGHT_CLEAR,NIGHT_CLEAR,NIGHT_CLEAR,NIGHT_MIST,NIGHT_MIST,NIGHT_MIST,CLEAR,CLEAR,CLEAR","Cross-shore,Cross-shore,Cross-shore,Offshore,Offshore,Offshore,Offshore,Cross-shore,Onshore,Cross-shore,Cross-shore",11
5842041f4e65fad6a7708982,2024_07_29,37.04122807048655,-122.23337,Scott Creek,2.272727272727273,0.7881818181818182,1.049090909090909,16.727272727272727,16.727272727272727,"MIST,NIGHT_CLEAR,NIGHT_CLEAR,NIGHT_CLEAR,NIGHT_MOSTLY_CLOUDY,NIGHT_MOSTLY_CLOUDY,NIGHT_MOSTLY_CLOUDY,NIGHT_MOSTLY_CLOUDY,CLEAR,CLEAR,CLEAR","Onshore,Offshore,Onshore,Offshore,Offshore,Offshore,Offshore,Cross-shore,Cross-shore,Cross-shore,Cross-shore",11
5842041f4e65fad6a7708983,2024_07_29,37.02350229387179,-122.21908,Davenport,2.727272727272727,1.0254545454545454,1.2627272727272727,16.727272727272727,16.727272727272727,"MIST,NIGHT_CLEAR,NIGHT_CLEAR,NIGHT_MIST,NIGHT_BRIEF_SHOWERS,NIGHT_MIST,NIGHT_MOSTLY_CLOUDY,NIGHT_MOSTLY_CLOUDY,MIST,MIST,MIST","Cross-shore,Offshore,Onshore,Offshore,Offshore,Offshore,Offshore,Cross-shore,Cross-shore,Cross-shore,Cross-shore",11
5842041f4e65fad6a7708986,2024_07_29,36.94905295955728,-122.06118,Natural Bridges,2.909090909090909,0.9472727272727273,1.1781818181818182,16.727272727272727,16.727272727272727,"MOSTLY_CLEAR,NIGHT_CLEAR,NIGHT_CLEAR,NIGHT_MOSTLY_CLOUDY,NIGHT_MOSTLY_CLOUDY,NIGHT_MOSTLY_CLOUDY,NIGHT_MOSTLY_CLOUDY,NIGHT_MOSTLY_CLOUDY,CLEAR,CLEAR,CLEAR","Onshore,Onshore,Onshore,Onshore,Onshore,Offshore,Offshore,Offshore,Onshore,Onshore,Onshore",11
5842041f4e65fad6a7708987,2024_07_29,36.95154854910425,-122.04207,Mitchell's Cove,2.909090909090909,0.45181818181818184,0.7572727272727273,16.727272727272727,16.727272727272727,"MOSTLY_CLEAR,NIGHT_CLEAR,NIGHT_MOSTLY_CLEAR,NIGHT_MOSTLY_CLEAR,NIGHT_MOSTLY_CLOUDY,NIGHT_MOSTLY_CLEAR,NIGHT_MOSTLY_CLOUDY,NIGHT_MOSTLY_CLOUDY,CLEAR,CLEAR,CLEAR","Onshore,Cross-shore,Cross-shore,Onshore,Onshore,Cross-shore,Cross-shore,Onshore,Onshore,Onshore,Onshore",11
5842041f4e65fad6a770898a,2024_07_29,36.9572312370203,-121.98177,26th Ave,2.5454545454545454,0.7709090909090909,1.030909090909091,16.727272727272727,16.727272727272727,"CLEAR,NIGHT_MOSTLY_CLEAR,NIGHT_BRIEF_SHOWERS,NIGHT_MOSTLY_CLEAR,NIGHT_MOSTLY_CLOUDY,NIGHT_MOSTLY_CLOUDY,NIGHT_MOSTLY_CLOUDY,NIGHT_MOSTLY_CLOUDY,CLEAR,CLEAR,CLEAR","Onshore,Cross-shore,Cross-shore,Cross-shore,Onshore,Offshore,Offshore,Onshore,Onshore,Onshore,Onshore",11
5842041f4e65fad6a770898e,2024_07_29,36.91899972819882,-121.85536,Manresa,2.5454545454545454,0.32636363636363636,0.6318181818181818,16.727272727272727,16.727272727272727,"MIST,NIGHT_MOSTLY_CLOUDY,NIGHT_CLEAR,NIGHT_MOSTLY_CLOUDY,NIGHT_MOSTLY_CLOUDY,NIGHT_MIST,NIGHT_MIST,NIGHT_MOSTLY_CLOUDY,MIST,MIST,MIST","Onshore,Offshore,Offshore,Cross-shore,Onshore,Onshore,Onshore,Onshore,Onshore,Onshore,Onshore",11
5842041f4e65fad6a7708990,2024_07_29,34.45747731928454,-120.34242,The Ranch,2.6363636363636362,0.3181818181818182,0.6245454545454545,15.363636363636363,15.363636363636363,"CLEAR,NIGHT_CLEAR,NIGHT_CLEAR,NIGHT_CLEAR,NIGHT_CLEAR,NIGHT_CLEAR,NIGHT_CLEAR,NIGHT_CLEAR,CLEAR,CLEAR,CLEAR","Offshore,Offshore,Offshore,Offshore,Offshore,Offshore,Offshore,Offshore,Onshore,Onshore,Onshore",11
5842041f4e65fad6a7708991,2024_07_29,34.50875036590315,-120.50348,Jalama,1.8181818181818181,0.4818181818181818,0.7854545454545454,15.363636363636363,15.363636363636363,"CLEAR,NIGHT_CLEAR,NIGHT_CLEAR,NIGHT_CLEAR,NIGHT_CLEAR,NIGHT_CLEAR,NIGHT_CLEAR,NIGHT_CLEAR,CLEAR,CLEAR,CLEAR","Cross-shore,Offshore,Offshore,Offshore,Offshore,Offshore,Offshore,Offshore,Onshore,Onshore,Cross-shore",11
5842041f4e65fad6a7708996,2024_07_29,34.68700870220497,-120.6111611019887,Surf Beach,1.6363636363636365,0.7281818181818182,1.030909090909091,15.363636363636363,15.363636363636363,"MOSTLY_CLOUDY,NIGHT_CLOUDY,NIGHT_OVERCAST,NIGHT_MIST,NIGHT_MIST,NIGHT_MIST,NIGHT_MIST,NIGHT_MIST,MIST,MOSTLY_CLEAR,MIST","Onshore,Onshore,Onshore,Onshore,Onshore,Onshore,Onshore,Onshore,Onshore,Onshore,Onshore",11
5842041f4e65fad6a770899c,2024_07_29,35.5730538161116,-121.1143362345574,Moonstone,2.5454545454545454,0.5,0.8045454545454546,15.363636363636363,15.363636363636363,"MIST,NIGHT_MOSTLY_CLOUDY,NIGHT_MOSTLY_CLOUDY,NIGHT_MOSTLY_CLOUDY,NIGHT_MOSTLY_CLOUDY,NIGHT_MOSTLY_CLOUDY,NIGHT_MOSTLY_CLOUDY,NIGHT_MOSTLY_CLOUDY,MIST,MIST,MIST","Onshore,Cross-shore,Onshore,Offshore,Onshore,Offshore,Cross-shore,Cross-shore,Onshore,Onshore,Onshore",11
5842041f4e65fad6a770899d,2024_07_29,35.61533716776573,-121.1502053073914,Pico Creek,2.5454545454545454,0.6281818181818182,0.9345454545454546,15.363636363636363,15.363636363636363,"MIST,NIGHT_MOSTLY_CLOUDY,NIGHT_MOSTLY_CLOUDY,NIGHT_MOSTLY_CLOUDY,NIGHT_MOSTLY_CLOUDY,NIGHT_MOSTLY_CLOUDY,NIGHT_MOSTLY_CLOUDY,NIGHT_MOSTLY_CLOUDY,CLEAR,CLEAR,CLEAR","Onshore,Offshore,Cross-shore,Onshore,Onshore,Onshore,Onshore,Onshore,Onshore,Onshore,Onshore",11
5842041f4e65fad6a770899e,2024_07_29,35.56829031927379,-121.11207,Santa Rosa Creek,2.1818181818181817,0.5,0.8045454545454546,15.363636363636363,15.363636363636363,"MIST,NIGHT_MOSTLY_CLOUDY,NIGHT_MOSTLY_CLOUDY,NIGHT_MOSTLY_CLOUDY,NIGHT_MOSTLY_CLOUDY,NIGHT_MOSTLY_CLOUDY,NIGHT_MOSTLY_CLOUDY,NIGHT_MOSTLY_CLOUDY,MIST,MIST,MIST","Onshore,Onshore,Onshore,Cross-shore,Onshore,Offshore,Cross-shore,Cross-shore,Onshore,Onshore,Onshore",11
5842041f4e65fad6a77089a2,2024_07_29,35.44820114936284,-120.90715,"Cayucos Pier, Southside",1.7272727272727273,0.19545454545454546,0.49818181818181817,15.363636363636363,15.363636363636363,"CLEAR,NIGHT_MIST,NIGHT_MIST,NIGHT_MIST,NIGHT_MOSTLY_CLOUDY,NIGHT_MOSTLY_CLOUDY,NIGHT_MOSTLY_CLOUDY,NIGHT_MOSTLY_CLOUDY,CLEAR,CLEAR,CLEAR","Onshore,Onshore,Onshore,Onshore,Cross-shore,Cross-shore,Offshore,Offshore,Onshore,Onshore,Onshore",11
5842041f4e65fad6a77089a4,2024_07_29,35.30143372628852,-120.877819239902,Cable Landing,2.272727272727273,0.6809090909090909,0.9854545454545455,15.363636363636363,15.363636363636363,"MIST,NIGHT_MIST,NIGHT_MIST,NIGHT_MIST,NIGHT_MIST,NIGHT_MIST,NIGHT_MOSTLY_CLOUDY,NIGHT_MOSTLY_CLOUDY,MIST,MIST,MIST","Onshore,Onshore,Onshore,Onshore,Onshore,Onshore,Onshore,Onshore,Onshore,Onshore,Onshore",11
5842041f4e65fad6a77089a9,2024_07_29,35.61269103500222,-121.14807,San Simeon,2.5454545454545454,0.46709090909090906,0.6809090909090909,15.363636363636363,15.363636363636363,"CLEAR,NIGHT_MIST,NIGHT_MOSTLY_CLOUDY,NIGHT_MOSTLY_CLOUDY,NIGHT_MOSTLY_CLOUDY,NIGHT_MOSTLY_CLOUDY,NIGHT_MOSTLY_CLOUDY,NIGHT_MOSTLY_CLOUDY,CLEAR,CLEAR,CLEAR","Onshore,Cross-shore,Cross-shore,Cross-shore,Onshore,Cross-shore,Offshore,Offshore,Onshore,Onshore,Onshore",11
5842041f4e65fad6a77089ab,2024_07_29,35.1775325966252,-120.73411,Avila Beach,1.7272727272727273,0.09636363636363636,0.4009090909090909,15.363636363636363,15.363636363636363,"CLEAR,NIGHT_CLEAR,NIGHT_CLEAR,NIGHT_CLEAR,NIGHT_CLEAR,NIGHT_CLEAR,NIGHT_CLEAR,NIGHT_CLEAR,MOSTLY_CLEAR,CLEAR,CLEAR","Onshore,Onshore,Onshore,Cross-shore,Onshore,Cross-shore,Cross-shore,Cross-shore,Onshore,Onshore,Onshore",11
5842041f4e65fad6a77089ac,2024_07_29,35.13877877884115,-120.64535,Pismo Beach Pier,2.409090909090909,0.37008454545454544,0.67630636363636365,13,13,"CLEAR,NIGHT_CLEAR,NIGHT_MOSTLY_CLOUDY,NIGHT_MOSTLY_CLOUDY,NIGHT_MOSTLY_CLOUDY,NIGHT_CLEAR,NIGHT_CLEAR,NIGHT_MOSTLY_CLEAR,MOSTLY_CLEAR,MOSTLY_CLEAR,MOSTLY_CLEAR","Onshore,Cross-shore,Offshore,Onshore,Cross-shore,Cross-shore,Onshore,Onshore,Onshore,Onshore,Onshore",11
5842041f4e65fad6a77089ad,2024_07_29,46.8907710233147,-124.12964,Westport/Olympic Peninsula,2,0.3609090909090909,0.6654545454545454,14,14,"MIST,NIGHT_FOG,NIGHT_FOG,NIGHT_MIST,NIGHT_FOG,NIGHT_FOG,NIGHT_FOG,OVERCAST,LIGHT_RAIN,MIST,RAIN","Onshore,Onshore,Onshore,Cross-shore,Cross-shore,Onshore,Onshore,Onshore,Onshore,Onshore,Onshore",11
5842041f4e65fad6a77089ae,2024_07_29,46.35185177248545,-124.06747,Long Beach Peninsula,1.3636363636363635,0.44363636363636366,0.7472727272727272,15,15,"MOSTLY_CLEAR,NIGHT_MIST,NIGHT_MIST,NIGHT_MIST,NIGHT_BRIEF_SHOWERS,NIGHT_MIST,NIGHT_MIST,MIST,DRIZZLE,DRIZZLE,MIST","Cross-shore,Cross-shore,Cross-shore,Cross-shore,Cross-shore,Cross-shore,Cross-shore,Cross-shore,Cross-shore,Cross-shore,Cross-shore",11
5842041f4e65fad6a77089af,2024_07_29,47.90649175554033,-124.63709,La Push,1.8181818181818181,0.3463636363636364,0.6527272727272727,13,13,"MIST,NIGHT_DRIZZLE,NIGHT_DRIZZLE,NIGHT_MIST,NIGHT_LIGHT_RAIN,NIGHT_LIGHT_RAIN,NIGHT_RAIN,LIGHT_RAIN,DRIZZLE,LIGHT_RAIN,MIST","Onshore,Cross-shore,Cross-shore,Cross-shore,Cross-shore,Cross-shore,Cross-shore,Cross-shore,Cross-shore,Onshore,Onshore",11
5842041f4e65fad6a77089b0,2024_07_29,42.04368239985442,-124.26828,Brookings Jetty,1.9090909090909092,0.36854000000000003,0.5758436363636363,11,11,"MIST,NIGHT_MOSTLY_CLOUDY,NIGHT_MOSTLY_CLOUDY,NIGHT_MOSTLY_CLOUDY,NIGHT_MOSTLY_CLOUDY,NIGHT_MOSTLY_CLOUDY,NIGHT_MOSTLY_CLOUDY,NIGHT_MOSTLY_CLEAR,MIST,MIST,MIST","Cross-shore,Cross-shore,Cross-shore,Cross-shore,Offshore,Cross-shore,Cross-shore,Onshore,Onshore,Onshore,Onshore",11
5842041f4e65fad6a77089b1,2024_07_29,42.74071837900346,-124.4983727491047,Port Orford,2,0.3054545454545455,0.6118181818181818,10,10,"CLEAR,NIGHT_CLEAR,NIGHT_CLEAR,NIGHT_CLEAR,NIGHT_CLEAR,NIGHT_MOSTLY_CLOUDY,NIGHT_MOSTLY_CLEAR,NIGHT_MOSTLY_CLOUDY,MIST,MIST,MIST","Offshore,Offshore,Offshore,Cross-shore,Cross-shore,Offshore,Onshore,Onshore,Onshore,Onshore,Onshore",11
5842041f4e65fad6a77089b2,2024_07_29,44.01532689312291,-124.13865,Florence South Jetty,2.6363636363636362,0.42454545454545456,0.73,11.363636363636363,11.363636363636363,"BRIEF_SHOWERS,NIGHT_MIST,NIGHT_MIST,NIGHT_MIST,NIGHT_MIST,NIGHT_MIST,NIGHT_MIST,NIGHT_MIST,MIST,LIGHT_RAIN,MIST","Onshore,Cross-shore,Cross-shore,Cross-shore,Cross-shore,Cross-shore,Onshore,Onshore,Cross-shore,Onshore,Cross-shore",11
5842041f4e65fad6a77089b3,2024_07_29,42.41812540774362,-124.42945,Gold Beach South Jetty,2.727272727272727,0.5145454545454545,0.8209090909090909,9.636363636363637,9.636363636363637,"MIST,NIGHT_CLEAR,NIGHT_CLEAR,NIGHT_CLEAR,NIGHT_CLEAR,NIGHT_MOSTLY_CLOUDY,NIGHT_MOSTLY_CLEAR,NIGHT_MOSTLY_CLOUDY,MIST,MIST,MIST","Offshore,Offshore,Offshore,Cross-shore,Onshore,Offshore,Onshore,Onshore,Onshore,Onshore,Onshore",11
5842041f4e65fad6a77089b4,2024_07_29,44.95857310226525,-124.0219,Lincoln City,1.7272727272727273,0.4018181818181818,0.7063636363636364,13,13,"MIST,NIGHT_MIST,NIGHT_MIST,NIGHT_MOSTLY_CLOUDY,NIGHT_CLEAR,NIGHT_BRIEF_SHOWERS,NIGHT_BRIEF_SHOWERS,BRIEF_SHOWERS,LIGHT_RAIN,MIST,MIST","Onshore,Cross-shore,Cross-shore,Cross-shore,Cross-shore,Cross-shore,Cross-shore,Cross-shore,Cross-shore,Cross-shore,Cross-shore",11
5842041f4e65fad6a77089b5,2024_07_29,44.63792761362982,-124.0657,Newport,1.9090909090909092,0.4445454545454546,0.7481818181818182,12,12,"MIST,NIGHT_MIST,NIGHT_MIST,NIGHT_MIST,NIGHT_MIST,NIGHT_MIST,NIGHT_MIST,MIST,MIST,DRIZZLE,MIST","Onshore,Cross-shore,Cross-shore,Cross-shore,Cross-shore,Cross-shore,Cross-shore,Cross-shore,Onshore,Cross-shore,Onshore",11
5842041f4e65fad6a77089b6,2024_07_29,45.61468496266301,-123.94643,Rockaway Beach,1.7272727272727273,0.4118181818181818,0.7181818181818183,14.636363636363637,14.636363636363637,"MOSTLY_CLOUDY,NIGHT_BRIEF_SHOWERS,NIGHT_MOSTLY_CLOUDY,NIGHT_CLEAR,NIGHT_BRIEF_SHOWERS,NIGHT_MIST,NIGHT_MIST,MIST,LIGHT_RAIN,LIGHT_RAIN,MIST","Onshore,Cross-shore,Cross-shore,Cross-shore,Cross-shore,Cross-shore,Cross-shore,Cross-shore,Cross-shore,Cross-shore,Cross-shore",11
5842041f4e65fad6a77089b7,2024_07_29,45.20252914186085,-123.96975,Pacific City,2,0.3245454545454545,0.63,13.636363636363637,13.636363636363637,"MOSTLY_CLOUDY,NIGHT_FOG,NIGHT_FOG,NIGHT_FOG,NIGHT_FOG,NIGHT_FOG,NIGHT_FOG,FOG,LIGHT_RAIN,DRIZZLE,MIST","Onshore,Onshore,Cross-shore,Onshore,Onshore,Onshore,Cross-shore,Cross-shore,Onshore,Onshore,Onshore",11
5842041f4e65fad6a77089b8,2024_07_29,45.88179930310263,-123.96681,Cannon Beach,1.7272727272727273,0.42,0.7245454545454546,15,15,"MOSTLY_CLOUDY,NIGHT_FOG,NIGHT_MOSTLY_CLOUDY,NIGHT_FOG,NIGHT_FOG,NIGHT_FOG,NIGHT_FOG,FOG,RAIN,LIGHT_RAIN,RAIN","Onshore,Onshore,Cross-shore,Cross-shore,Onshore,Onshore,Onshore,Onshore,Onshore,Onshore,Onshore",11
5842041f4e65fad6a77089ba,2024_07_29,40.02528754746774,-124.06372,Shelter Cove,2.5454545454545454,0.3819527272727273,0.5968027272727273,13,13,"MIST,NIGHT_CLEAR,NIGHT_CLEAR,NIGHT_CLEAR,NIGHT_CLEAR,NIGHT_CLEAR,NIGHT_CLEAR,NIGHT_CLEAR,MIST,MIST,MIST","Cross-shore,Offshore,Offshore,Offshore,Offshore,Offshore,Offshore,Cross-shore,Onshore,Cross-shore,Cross-shore",11
5842041f4e65fad6a77089bb,2024_07_29,40.76816197136951,-124.24248,Humboldt Harbor Entrance,2.727272727272727,0.5336363636363637,0.8381818181818181,13.363636363636363,13.363636363636363,"MIST,NIGHT_MIST,NIGHT_BRIEF_SHOWERS,NIGHT_BRIEF_SHOWERS,NIGHT_BRIEF_SHOWERS,NIGHT_MIST,NIGHT_MIST,NIGHT_MIST,CLEAR,CLEAR,CLEAR","Onshore,Onshore,Offshore,Offshore,Offshore,Offshore,Offshore,Offshore,Onshore,Onshore,Onshore",11
5842041f4e65fad6a77089bc,2024_07_29,40.76684246920174,-124.23107,North Jetty,3,0.5972727272727273,0.9018181818181819,13.363636363636363,13.363636363636363,"MIST,NIGHT_MIST,NIGHT_MIST,NIGHT_MIST,NIGHT_MIST,NIGHT_MIST,NIGHT_MIST,NIGHT_MIST,CLEAR,CLEAR,CLEAR","Onshore,Onshore,Offshore,Onshore,Offshore,Offshore,Offshore,Offshore,Onshore,Onshore,Onshore",11
5842041f4e65fad6a77089be,2024_07_29,41.13016238153297,-124.16466,Sue-meg,2.4545454545454546,0.47454545454545455,0.7790909090909091,13.363636363636363,13.363636363636363,"MIST,NIGHT_MIST,NIGHT_MIST,NIGHT_MIST,NIGHT_BRIEF_SHOWERS,NIGHT_MIST,NIGHT_MIST,NIGHT_MIST,CLEAR,CLEAR,MIST","Onshore,Cross-shore,Cross-shore,Cross-shore,Cross-shore,Cross-shore,Cross-shore,Cross-shore,Onshore,Onshore,Onshore",11
5842041f4e65fad6a77089bf,2024_07_29,37.8289474958188,-122.53768,Fort Cronkite/Rodeo Beach,1,0.44727272727272727,0.7527272727272727,17.727272727272727,17.727272727272727,"MIST,NIGHT_MIST,NIGHT_MIST,NIGHT_MIST,NIGHT_MOSTLY_CLOUDY,NIGHT_MIST,NIGHT_MIST,NIGHT_MIST,MIST,MIST,MIST","Cross-shore,Cross-shore,Cross-shore,Cross-shore,Onshore,Cross-shore,Cross-shore,Cross-shore,Cross-shore,Cross-shore,Cross-shore",11
5842041f4e65fad6a77089c0,2024_07_29,41.74415759876137,-124.17717,South Beach CA,2.4545454545454546,0.32,0.6254545454545455,12,12,"CLEAR,NIGHT_CLEAR,NIGHT_MOSTLY_CLOUDY,NIGHT_MOSTLY_CLOUDY,NIGHT_MOSTLY_CLOUDY,NIGHT_MOSTLY_CLOUDY,NIGHT_MOSTLY_CLOUDY,NIGHT_CLEAR,CLEAR,CLEAR,CLEAR","Offshore,Onshore,Cross-shore,Onshore,Onshore,Cross-shore,Cross-shore,Onshore,Cross-shore,Cross-shore,Cross-shore",11
5842041f4e65fad6a77089c1,2024_07_29,37.89801283969752,-122.64519,Stinson Beach,1.8181818181818181,0.20545454545454547,0.5118181818181818,17.363636363636363,17.363636363636363,"CLEAR,NIGHT_CLEAR,NIGHT_CLEAR,NIGHT_CLEAR,NIGHT_CLEAR,NIGHT_CLEAR,NIGHT_CLEAR,NIGHT_CLEAR,CLEAR,CLEAR,CLEAR","Cross-shore,Offshore,Offshore,Offshore,Offshore,Offshore,Offshore,Offshore,Offshore,Offshore,Offshore",11
5842041f4e65fad6a77089c2,2024_07_29,37.90514516176495,-122.68151,Bolinas,2.727272727272727,0.60443,0.9444218181818181,16.727272727272727,16.727272727272727,"MOSTLY_CLEAR,NIGHT_BRIEF_SHOWERS,NIGHT_MIST,NIGHT_MIST,NIGHT_MIST,NIGHT_BRIEF_SHOWERS,NIGHT_BRIEF_SHOWERS,NIGHT_BRIEF_SHOWERS,CLEAR,CLEAR,CLEAR","Cross-shore,Offshore,Cross-shore,Offshore,Cross-shore,Offshore,Offshore,Offshore,Offshore,Offshore,Offshore",11
5842041f4e65fad6a77089c3,2024_07_29,38.04892513158693,-122.98925,Point Reyes (north),1.8181818181818181,0.8154545454545454,1.0872727272727274,14.363636363636363,14.363636363636363,"MIST,NIGHT_MIST,NIGHT_MIST,NIGHT_MIST,NIGHT_MIST,NIGHT_MIST,NIGHT_MIST,NIGHT_MIST,MIST,MIST,MIST","Onshore,Onshore,Onshore,Onshore,Onshore,Onshore,Onshore,Onshore,Onshore,Onshore,Onshore",11
5842041f4e65fad6a77089c6,2024_07_29,38.31088736605785,-123.0496777333731,Doran Beach,1.6363636363636365,0.07454545454545455,0.38,14,14,"BRIEF_SHOWERS,NIGHT_MIST,NIGHT_MIST,NIGHT_MIST,NIGHT_MIST,NIGHT_MIST,NIGHT_MIST,NIGHT_MIST,BRIEF_SHOWERS,BRIEF_SHOWERS,MOSTLY_CLOUDY","Offshore,Offshore,Offshore,Offshore,Offshore,Offshore,Offshore,Offshore,Offshore,Offshore,Offshore",11
5842041f4e65fad6a77089c7,2024_07_29,38.45077228660809,-123.13008,Russian Rivermouth,2.727272727272727,0.6718181818181818,0.9636363636363636,13.363636363636363,13.363636363636363,"CLEAR,NIGHT_CLEAR,NIGHT_CLEAR,NIGHT_CLEAR,NIGHT_CLEAR,NIGHT_CLEAR,NIGHT_CLEAR,NIGHT_CLEAR,CLEAR,CLEAR,CLEAR","Onshore,Onshore,Cross-shore,Cross-shore,Offshore,Cross-shore,Onshore,Offshore,Onshore,Onshore,Onshore",11
5842041f4e65fad6a77089c8,2024_07_29,38.35329968518107,-123.06906,Salmon Creek,2.3636363636363638,0.7745454545454545,1.0463636363636364,14,14,"MIST,NIGHT_MIST,NIGHT_MIST,NIGHT_MIST,NIGHT_MIST,NIGHT_MIST,NIGHT_MIST,NIGHT_MIST,MIST,MIST,MIST","Onshore,Onshore,Onshore,Onshore,Offshore,Cross-shore,Onshore,Onshore,Onshore,Onshore,Onshore",11
5842041f4e65fad6a77089c9,2024_07_29,38.6845180197959,-123.4322714291198,Black Point Beach,2.5454545454545454,0.4990909090909091,0.8036363636363636,13,13,"MIST,NIGHT_MIST,NIGHT_MIST,NIGHT_MIST,NIGHT_MIST,NIGHT_MIST,NIGHT_MIST,NIGHT_CLEAR,MIST,MIST,MIST","Onshore,Onshore,Onshore,Onshore,Onshore,Onshore,Onshore,Onshore,Onshore,Onshore,Onshore",11
5842041f4e65fad6a77089ca,2024_07_29,43.251076,-70.59144,Ogunquit,1.8333333333333333,0.45471181818181816,0.7918909090909091,18,16,"CLEAR,NIGHT_MOSTLY_CLOUDY,NIGHT_DRIZZLE,NIGHT_OVERCAST,OVERCAST,OVERCAST,OVERCAST,DRIZZLE,RAIN,BRIEF_SHOWERS,MIST","Onshore,Cross-shore,Cross-shore,Cross-shore,Cross-shore,Cross-shore,Cross-shore,Cross-shore,Cross-shore,Cross-shore,Cross-shore",11
5842041f4e65fad6a77089cb,2024_07_29,41.362631366305415,-71.48007,Point Judith,1.696969696969697,0.3506981818181818,0.6352127272727273,23,20,"CLEAR,NIGHT_OVERCAST,NIGHT_OVERCAST,NIGHT_CLOUDY,OVERCAST,OVERCAST,BRIEF_SHOWERS,MOSTLY_CLOUDY,MOSTLY_CLEAR,MOSTLY_CLOUDY,MOSTLY_CLEAR","Onshore,Offshore,Offshore,Offshore,Offshore,Onshore,Cross-shore,Cross-shore,Offshore,Offshore,Offshore",11
5842041f4e65fad6a77089cd,2024_07_29,41.422678090954726,-71.45413,Monahan's - Narragansett,1.6363636363636365,0.38994454545454543,0.6092881818181818,22.363636363636363,22.363636363636363,"OVERCAST,NIGHT_OVERCAST,NIGHT_OVERCAST,NIGHT_OVERCAST,OVERCAST,OVERCAST,MIST,BRIEF_SHOWERS,CLEAR,LIGHT_SHOWERS_POSSIBLE,CLEAR","Cross-shore,Offshore,Offshore,Offshore,Offshore,Offshore,Offshore,Offshore,Cross-shore,Cross-shore,Cross-shore",11
5842041f4e65fad6a77089ce,2024_07_29,41.469,-71.293,Ruggles - Newport,1.3636363636363635,0.4477145454545455,0.6995527272727273,22.363636363636363,22.363636363636363,"OVERCAST,NIGHT_OVERCAST,NIGHT_OVERCAST,NIGHT_OVERCAST,OVERCAST,OVERCAST,OVERCAST,MIST,CLEAR,MOSTLY_CLOUDY,MOSTLY_CLOUDY","Onshore,Offshore,Offshore,Cross-shore,Cross-shore,Offshore,Cross-shore,Onshore,Onshore,Onshore,Onshore",11
5842041f4e65fad6a77089cf,2024_07_29,43.175394,-70.606351,Short Sands Beach,1.6363636363636365,0.6018181818181818,0.9081818181818182,18.636363636363637,18.636363636363637,"CLEAR,NIGHT_MOSTLY_CLOUDY,NIGHT_MOSTLY_CLOUDY,NIGHT_OVERCAST,OVERCAST,OVERCAST,OVERCAST,DRIZZLE,HEAVY_RAIN,MOSTLY_CLOUDY,MOSTLY_CLEAR","Onshore,Cross-shore,Cross-shore,Cross-shore,Cross-shore,Cross-shore,Cross-shore,Cross-shore,Offshore,Offshore,Cross-shore",11
5842041f4e65fad6a77089d0,2024_07_29,41.487408,-71.29017,First Beach,1.5454545454545454,0.24909090909090909,0.5518181818181818,22.363636363636363,22.363636363636363,"OVERCAST,NIGHT_OVERCAST,NIGHT_OVERCAST,NIGHT_MOSTLY_CLOUDY,OVERCAST,OVERCAST,OVERCAST,MIST,MOSTLY_CLEAR,MOSTLY_CLOUDY,MOSTLY_CLOUDY","Onshore,Offshore,Offshore,Offshore,Cross-shore,Offshore,Cross-shore,Cross-shore,Onshore,Onshore,Onshore",11
5842041f4e65fad6a77089d1,2024_07_29,42.27916830233153,-70.86498,Nantasket Beach,1.090909090909091,0.16605454545454545,0.40886636363636364,19,17,"MIST,NIGHT_MOSTLY_CLOUDY,NIGHT_MOSTLY_CLOUDY,NIGHT_DRIZZLE,DRIZZLE,DRIZZLE,LIGHT_RAIN,OVERCAST,MOSTLY_CLEAR,MOSTLY_CLOUDY,MOSTLY_CLEAR","Onshore,Onshore,Onshore,Onshore,Cross-shore,Onshore,Cross-shore,Cross-shore,Offshore,Offshore,Offshore",11
5842041f4e65fad6a77089d2,2024_07_29,41.817,-69.935,Cape Cod,1.4545454545454546,0.58,0.8836363636363637,20,20,"HEAVY_RAIN,NIGHT_DRIZZLE,NIGHT_MIST,NIGHT_MIST,DRIZZLE,MIST,MIST,MOSTLY_CLOUDY,CLEAR,MOSTLY_CLEAR,MOSTLY_CLOUDY","Onshore,Onshore,Cross-shore,Offshore,Offshore,Offshore,Offshore,Offshore,Cross-shore,Cross-shore,Cross-shore",11
5842041f4e65fad6a77089d3,2024_07_29,42.22055448975661,-70.70634873403819,Egypt Beach,0.6363636363636364,0.15454545454545454,0.39,20,20,"CLOUDY,NIGHT_OVERCAST,NIGHT_DRIZZLE,NIGHT_DRIZZLE,OVERCAST,OVERCAST,OVERCAST,DRIZZLE,CLEAR,MOSTLY_CLOUDY,MIST","Onshore,Cross-shore,Cross-shore,Cross-shore,Cross-shore,Cross-shore,Cross-shore,Offshore,Offshore,Cross-shore,Cross-shore",11
5842041f4e65fad6a77089d4,2024_07_29,41.48739647744607,-71.25723,Second Beach,1,0.2604254545454545,0.5398318181818181,23,20,"OVERCAST,NIGHT_OVERCAST,NIGHT_OVERCAST,NIGHT_MOSTLY_CLOUDY,OVERCAST,OVERCAST,CLOUDY,BRIEF_SHOWERS,MOSTLY_CLEAR,MOSTLY_CLOUDY,CLEAR","Onshore,Offshore,Cross-shore,Cross-shore,Onshore,Cross-shore,Cross-shore,Onshore,Onshore,Onshore,Onshore",11
5842041f4e65fad6a77089d5,2024_07_29,42.964,-70.769,Fox Hill,1.7424242424242424,0.39153,0.7342390909090909,18,16,"CLEAR,NIGHT_MOSTLY_CLOUDY,NIGHT_SHOWERS,NIGHT_MOSTLY_CLOUDY,OVERCAST,OVERCAST,LIGHT_RAIN,MIST,MIST,MIST,MIST","Onshore,Offshore,Offshore,Offshore,Offshore,Offshore,Offshore,Offshore,Cross-shore,Cross-shore,Cross-shore",11
5842041f4e65fad6a77089d6,2024_07_29,42.991359,-70.75149,Straws Point,2.0454545454545454,0.39115181818181816,0.7324209090909091,18,16,"CLEAR,NIGHT_MOSTLY_CLOUDY,NIGHT_BRIEF_SHOWERS,NIGHT_MOSTLY_CLOUDY,OVERCAST,OVERCAST,OVERCAST,OVERCAST,BRIEF_SHOWERS,MOSTLY_CLEAR,MIST","Onshore,Offshore,Offshore,Offshore,Offshore,Offshore,Offshore,Offshore,Cross-shore,Cross-shore,Onshore",11
5842041f4e65fad6a77089d7,2024_07_29,42.946,-70.786,Plaice Cove,1.6818181818181819,0.39153,0.7342390909090909,18,16,"CLEAR,NIGHT_MOSTLY_CLOUDY,NIGHT_MOSTLY_CLOUDY,NIGHT_MOSTLY_CLOUDY,OVERCAST,OVERCAST,OVERCAST,MIST,MIST,MIST,MOSTLY_CLOUDY","Onshore,Cross-shore,Cross-shore,Cross-shore,Cross-shore,Cross-shore,Cross-shore,Cross-shore,Cross-shore,Cross-shore,Cross-shore",11
5842041f4e65fad6a77089d9,2024_07_29,42.911574,-70.80831,The Main Beach,1.7393939393939393,0.3758218181818182,0.7000781818181818,18,16,"MIST,NIGHT_MOSTLY_CLOUDY,NIGHT_BRIEF_SHOWERS,NIGHT_OVERCAST,OVERCAST,CLOUDY,OVERCAST,OVERCAST,SHOWERS,MIST,MOSTLY_CLOUDY","Cross-shore,Offshore,Offshore,Offshore,Offshore,Offshore,Offshore,Offshore,Onshore,Onshore,Onshore",11
5842041f4e65fad6a77089da,2024_07_29,42.97583846220203,-70.764,Sawyer's Beach,1.6818181818181819,0.4059245454545454,0.74727,18,16,"CLEAR,NIGHT_MOSTLY_CLOUDY,NIGHT_SHOWERS,NIGHT_MOSTLY_CLOUDY,OVERCAST,OVERCAST,LIGHT_RAIN,MIST,MIST,MIST,MIST","Onshore,Cross-shore,Offshore,Cross-shore,Cross-shore,Cross-shore,Cross-shore,Offshore,Cross-shore,Cross-shore,Cross-shore",11
5842041f4e65fad6a77089db,2024_07_29,42.97,-70.77,Rye on the Rocks / 5-0's,1.8,0.4806563636363636,0.77637,18,16,"CLEAR,NIGHT_MOSTLY_CLOUDY,NIGHT_SHOWERS,NIGHT_MOSTLY_CLOUDY,OVERCAST,OVERCAST,LIGHT_RAIN,MIST,MIST,MIST,MIST","Onshore,Offshore,Offshore,Offshore,Offshore,Offshore,Offshore,Offshore,Cross-shore,Cross-shore,Onshore",11
5842041f4e65fad6a77089dc,2024_07_29,43.55902946610303,-70.27795,Higgins Beach,2.893939393939394,0.40401909090909094,0.7691436363636364,18,16,"CLEAR,NIGHT_BRIEF_SHOWERS,NIGHT_OVERCAST,NIGHT_DRIZZLE,OVERCAST,RAIN,OVERCAST,MIST,MIST,MIST,MIST","Onshore,Offshore,Offshore,Offshore,Offshore,Offshore,Offshore,Cross-shore,Offshore,Offshore,Onshore",11
5842041f4e65fad6a77089dd,2024_07_29,43.302676,-70.5652,Wells Beach,1.696969696969697,0.4430454545454546,0.7815881818181818,18,16,"MIST,NIGHT_MOSTLY_CLOUDY,NIGHT_LIGHT_RAIN,NIGHT_OVERCAST,OVERCAST,OVERCAST,OVERCAST,DRIZZLE,RAIN,BRIEF_SHOWERS,MIST","Onshore,Cross-shore,Cross-shore,Cross-shore,Cross-shore,Cross-shore,Cross-shore,Cross-shore,Cross-shore,Cross-shore,Cross-shore",11
5842041f4e65fad6a77089de,2024_07_29,43.545359,-70.30479,Scarborough Beach State Park,1.4090909090909092,0.4351027272727273,0.8215672727272727,18,16,"MIST,NIGHT_SHOWERS,NIGHT_LIGHT_RAIN,NIGHT_OVERCAST,OVERCAST,OVERCAST,OVERCAST,OVERCAST,DRIZZLE,MIST,MIST","Onshore,Offshore,Offshore,Offshore,Offshore,Offshore,Cross-shore,Cross-shore,Offshore,Offshore,Onshore",11
5842041f4e65fad6a77089df,2024_07_29,43.514481,-70.37215,Old Orchard Beach,2.6363636363636362,0.37346090909090907,0.71313,18,16,"MIST,NIGHT_BRIEF_SHOWERS,NIGHT_OVERCAST,NIGHT_LIGHT_RAIN,DRIZZLE,OVERCAST,OVERCAST,MIST,MIST,MIST,MIST","Onshore,Offshore,Offshore,Offshore,Offshore,Offshore,Cross-shore,Cross-shore,Offshore,Cross-shore,Cross-shore",11
5842041f4e65fad6a77089e0,2024_07_29,43.34711,-70.48165,Gooch's Beach,1.7272727272727273,0.36293909090909093,0.7046636363636364,18,16,"CLEAR,NIGHT_MOSTLY_CLOUDY,NIGHT_MOSTLY_CLOUDY,NIGHT_OVERCAST,OVERCAST,DRIZZLE,DRIZZLE,DRIZZLE,RAIN,MIST,MIST","Cross-shore,Offshore,Offshore,Offshore,Offshore,Offshore,Offshore,Offshore,Cross-shore,Onshore,Onshore",11
5842041f4e65fad6a77089e2,2024_07_29,40.58433,-73.62953,Lido Beach,1.5757575757575757,0.3427818181818182,0.6651618181818182,23,20,"CLOUDY,NIGHT_LIGHT_RAIN,NIGHT_DRIZZLE,NIGHT_OVERCAST,CLOUDY,MOSTLY_CLEAR,MOSTLY_CLOUDY,MOSTLY_CLOUDY,CLEAR,MOSTLY_CLEAR,CLEAR","Onshore,Onshore,Onshore,Onshore,Onshore,Onshore,Onshore,Cross-shore,Onshore,Onshore,Onshore",11
5842041f4e65fad6a77089e3,2024_07_29,43.163135,-70.61689,Long Sands Beach,2.506060606060606,0.49393454545454546,0.8070481818181818,18,16,"MIST,NIGHT_MOSTLY_CLOUDY,NIGHT_BRIEF_SHOWERS,NIGHT_OVERCAST,OVERCAST,OVERCAST,OVERCAST,DRIZZLE,BRIEF_SHOWERS,MIST,CLEAR","Cross-shore,Offshore,Offshore,Offshore,Offshore,Offshore,Offshore,Offshore,Cross-shore,Onshore,Onshore",11
5842041f4e65fad6a77089e4,2024_07_29,40.61695351251805,-73.39376,Gilgo Beach,1.1363636363636365,0.36416363636363636,0.6694336363636364,23,19.727272727272727,"OVERCAST,NIGHT_HEAVY_RAIN,NIGHT_RAIN,NIGHT_RAIN,HEAVY_RAIN,MOSTLY_CLEAR,CLEAR,MOSTLY_CLOUDY,CLEAR,MOSTLY_CLEAR,CLEAR","Onshore,Onshore,Onshore,Onshore,Onshore,Onshore,Onshore,Onshore,Onshore,Onshore,Onshore",11
5842041f4e65fad6a77089e5,2024_07_29,40.62530081928036,-73.23827,Robert Moses,1,0.24454545454545454,0.5490909090909091,23,23,"CLEAR,NIGHT_RAIN,NIGHT_HEAVY_RAIN,NIGHT_OVERCAST,LIGHT_RAIN,MOSTLY_CLEAR,MOSTLY_CLOUDY,SHOWERS,CLEAR,LIGHT_SHOWERS_POSSIBLE,CLEAR","Onshore,Onshore,Onshore,Onshore,Onshore,Onshore,Onshore,Onshore,Onshore,Onshore,Onshore",11
5842041f4e65fad6a77089e6,2024_07_29,40.64313317632791,-73.15727,Fire Island,1,0.23636363636363636,0.5436363636363637,23,23,"CLEAR,NIGHT_HEAVY_RAIN,NIGHT_DRIZZLE,NIGHT_OVERCAST,LIGHT_RAIN,CLEAR,MOSTLY_CLOUDY,MOSTLY_CLEAR,CLEAR,CLEAR,MOSTLY_CLEAR","Onshore,Onshore,Onshore,Onshore,Onshore,Onshore,Onshore,Onshore,Onshore,Onshore,Onshore",11
5842041f4e65fad6a77089e8,2024_07_29,40.76653118828782,-72.7458,Cupsogue,1.0909090909090908,0.49363636363636365,0.7945454545454546,23.636363636363637,23.636363636363637,"CLEAR,NIGHT_BRIEF_SHOWERS,NIGHT_RAIN,NIGHT_BRIEF_SHOWERS,SHOWERS,MOSTLY_CLOUDY,MOSTLY_CLOUDY,BRIEF_SHOWERS,CLEAR,CLEAR,CLEAR","Onshore,Onshore,Onshore,Onshore,Onshore,Onshore,Onshore,Onshore,Onshore,Onshore,Onshore",11
5842041f4e65fad6a77089e9,2024_07_29,42.9376373334092,-70.79141,The Wall,1.8606060606060606,0.3437181818181818,0.6499172727272727,18,16,"MIST,NIGHT_MOSTLY_CLOUDY,NIGHT_BRIEF_SHOWERS,NIGHT_OVERCAST,OVERCAST,CLOUDY,OVERCAST,OVERCAST,SHOWERS,MIST,MOSTLY_CLOUDY","Onshore,Cross-shore,Cross-shore,Cross-shore,Cross-shore,Cross-shore,Cross-shore,Cross-shore,Offshore,Offshore,Cross-shore",11
5842041f4e65fad6a77089ea,2024_07_29,40.887088,-72.33856,Flys,1.0909090909090908,0.4481818181818182,0.7509090909090909,23,23,"CLEAR,NIGHT_RAIN,NIGHT_LIGHT_RAIN,NIGHT_DRIZZLE,RAIN,BRIEF_SHOWERS,MOSTLY_CLOUDY,MOSTLY_CLEAR,CLEAR,CLEAR,CLEAR","Cross-shore,Onshore,Onshore,Onshore,Onshore,Onshore,Onshore,Onshore,Onshore,Onshore,Onshore",11
5842041f4e65fad6a77089eb,2024_07_29,41.0389266436591,-71.91068529316958,Trailer Park,1.593939393939394,0.5251136363636364,0.9194963636363637,23,19.727272727272727,"BRIEF_SHOWERS_POSSIBLE,NIGHT_OVERCAST,NIGHT_LIGHT_RAIN,NIGHT_DRIZZLE,OVERCAST,BRIEF_SHOWERS,MOSTLY_CLOUDY,BRIEF_SHOWERS,MOSTLY_CLOUDY,MOSTLY_CLEAR,CLEAR","Onshore,Cross-shore,Cross-shore,Cross-shore,Cross-shore,Cross-shore,Cross-shore,Cross-shore,Onshore,Onshore,Onshore",11
5842041f4e65fad6a77089ec,2024_07_29,41.039505402729105,-71.9142,Ditch Plains,1,0.38242818181818183,0.7261054545454545,23,23,"BRIEF_SHOWERS_POSSIBLE,NIGHT_OVERCAST,NIGHT_OVERCAST,NIGHT_LIGHT_RAIN,LIGHT_RAIN,MOSTLY_CLOUDY,MOSTLY_CLOUDY,MOSTLY_CLOUDY,MOSTLY_CLOUDY,MOSTLY_CLEAR,CLEAR","Onshore,Cross-shore,Cross-shore,Cross-shore,Cross-shore,Cross-shore,Cross-shore,Cross-shore,Onshore,Onshore,Onshore",11
5842041f4e65fad6a77089ee,2024_07_29,40.57633275206492,-73.56895305108567,"West End, Jones Beach",1.0909090909090908,0.3780363636363636,0.7160363636363637,23,20,"CLEAR,NIGHT_RAIN,NIGHT_DRIZZLE,NIGHT_LIGHT_RAIN,DRIZZLE,MOSTLY_CLEAR,MOSTLY_CLOUDY,MOSTLY_CLOUDY,CLEAR,MOSTLY_CLEAR,CLEAR","Cross-shore,Onshore,Onshore,Onshore,Onshore,Onshore,Onshore,Onshore,Onshore,Onshore,Onshore",11
5842041f4e65fad6a77089f1,2024_07_29,41.038286691230795,-71.91991567611694,Poles,1.593939393939394,0.5276354545454546,0.926490909090909,23,19.727272727272727,"BRIEF_SHOWERS_POSSIBLE,NIGHT_OVERCAST,NIGHT_LIGHT_RAIN,NIGHT_DRIZZLE,OVERCAST,BRIEF_SHOWERS,MOSTLY_CLOUDY,BRIEF_SHOWERS,MOSTLY_CLOUDY,MOSTLY_CLEAR,CLEAR","Onshore,Cross-shore,Cross-shore,Cross-shore,Cross-shore,Cross-shore,Cross-shore,Cross-shore,Onshore,Onshore,Onshore",11
5842041f4e65fad6a77089f3,2024_07_29,40.84077769766295,-72.47989493724765,The Bowl,1.0909090909090908,0.46090909090909093,0.7636363636363637,23.636363636363637,23.636363636363637,"CLEAR,NIGHT_LIGHT_RAIN,NIGHT_OVERCAST,NIGHT_DRIZZLE,LIGHT_RAIN,BRIEF_SHOWERS,MOSTLY_CLOUDY,CLEAR,CLEAR,CLEAR,CLEAR","Onshore,Onshore,Onshore,Onshore,Onshore,Onshore,Onshore,Onshore,Onshore,Onshore,Onshore",11
5842041f4e65fad6a77089f4,2024_07_29,40.94235535243154,-72.19286,Main Beach,1.0909090909090908,0.5458427272727273,0.8840063636363636,22,19.727272727272727,"CLOUDY,NIGHT_RAIN,NIGHT_DRIZZLE,NIGHT_OVERCAST,OVERCAST,MOSTLY_CLOUDY,MOSTLY_CLOUDY,BRIEF_SHOWERS,CLEAR,CLEAR,CLEAR","Cross-shore,Onshore,Onshore,Onshore,Onshore,Onshore,Onshore,Onshore,Onshore,Onshore,Onshore",11
5842041f4e65fad6a77089f5,2024_07_29,40.58270702399518,-73.67251552079799,Laurelton Blvd.,1.6515151515151516,0.3927918181818182,0.6894345454545454,23,20,"CLEAR,NIGHT_RAIN,NIGHT_RAIN,NIGHT_LIGHT_RAIN,OVERCAST,MOSTLY_CLOUDY,MOSTLY_CLEAR,MOSTLY_CLOUDY,MOSTLY_CLEAR,MIST,MIST","Cross-shore,Onshore,Onshore,Onshore,Onshore,Onshore,Onshore,Onshore,Onshore,Onshore,Onshore",11
5842041f4e65fad6a77089f6,2024_07_29,41.033752854071416,-71.93696,Terrace,1.396969696969697,0.6312645454545455,1.05162,23,19.727272727272727,"BRIEF_SHOWERS_POSSIBLE,NIGHT_OVERCAST,NIGHT_OVERCAST,NIGHT_OVERCAST,DRIZZLE,BRIEF_SHOWERS,MOSTLY_CLOUDY,BRIEF_SHOWERS,MOSTLY_CLOUDY,MOSTLY_CLEAR,CLEAR","Onshore,Cross-shore,Cross-shore,Cross-shore,Cross-shore,Cross-shore,Cross-shore,Cross-shore,Onshore,Onshore,Onshore",11
5842041f4e65fad6a77089f7,2024_07_29,40.83372943645748,-72.50426173210144,K Road,1.0909090909090908,0.5381818181818182,0.8409090909090909,23.636363636363637,23.636363636363637,"CLEAR,NIGHT_OVERCAST,NIGHT_RAIN,NIGHT_LIGHT_RAIN,LIGHT_RAIN,MOSTLY_CLOUDY,MOSTLY_CLOUDY,MOSTLY_CLEAR,BRIEF_SHOWERS_POSSIBLE,CLEAR,CLEAR","Onshore,Onshore,Onshore,Onshore,Onshore,Onshore,Onshore,Onshore,Onshore,Onshore,Onshore",11
5842041f4e65fad6a77089f8,2024_07_29,40.58456099581507,-73.80730032920837,84th Street,1.6666666666666667,0.3763727272727273,0.6806727272727273,23,20,"CLEAR,NIGHT_OVERCAST,NIGHT_MOSTLY_CLOUDY,NIGHT_HEAVY_RAIN,OVERCAST,CLEAR,MOSTLY_CLEAR,MOSTLY_CLOUDY,CLEAR,CLEAR,CLEAR","Onshore,Onshore,Onshore,Onshore,Onshore,Onshore,Onshore,Onshore,Onshore,Onshore,Onshore",11
5842041f4e65fad6a77089fa,2024_07_29,40.1319,-74.02788,Sea Girt,1.606060606060606,0.2736209090909091,0.6126181818181818,22.545454545454547,21,"CLEAR,NIGHT_MOSTLY_CLOUDY,NIGHT_OVERCAST,NIGHT_OVERCAST,OVERCAST,MOSTLY_CLEAR,CLEAR,MOSTLY_CLOUDY,MOSTLY_CLEAR,CLEAR,CLEAR","Onshore,Offshore,Onshore,Onshore,Cross-shore,Cross-shore,Offshore,Offshore,Cross-shore,Onshore,Cross-shore",11
5842041f4e65fad6a77089fb,2024_07_29,40.54698301868125,-73.9268,Breezy Point,1.1818181818181819,0.22,0.5236363636363637,23.363636363636363,23.363636363636363,"CLEAR,NIGHT_MOSTLY_CLOUDY,NIGHT_MOSTLY_CLOUDY,NIGHT_MOSTLY_CLOUDY,OVERCAST,MOSTLY_CLOUDY,MOSTLY_CLEAR,BRIEF_SHOWERS,MIST,MIST,CLEAR","Onshore,Onshore,Onshore,Onshore,Onshore,Onshore,Cross-shore,Onshore,Onshore,Onshore,Onshore",11
5842041f4e65fad6a77089fc,2024_07_29,40.152504,-74.02138,Spring Lake,1.5757575757575757,0.2701363636363636,0.6087545454545454,22.545454545454547,21,"CLEAR,NIGHT_MOSTLY_CLOUDY,NIGHT_OVERCAST,NIGHT_OVERCAST,OVERCAST,MOSTLY_CLEAR,MOSTLY_CLOUDY,MOSTLY_CLOUDY,MOSTLY_CLEAR,CLEAR,CLEAR","Onshore,Onshore,Onshore,Onshore,Cross-shore,Cross-shore,Offshore,Offshore,Cross-shore,Onshore,Cross-shore",11
5842041f4e65fad6a77089fd,2024_07_29,40.591277,-73.770792,30th - 39th Streets,1.2272727272727273,0.3372790909090909,0.6420609090909091,23,20,"CLEAR,NIGHT_SHOWERS,NIGHT_SHOWERS,NIGHT_RAIN,OVERCAST,MOSTLY_CLOUDY,MOSTLY_CLEAR,MOSTLY_CLOUDY,CLEAR,CLEAR,MOSTLY_CLEAR","Onshore,Onshore,Onshore,Onshore,Onshore,Onshore,Onshore,Onshore,Onshore,Onshore,Onshore",11
5842041f4e65fad6a77089fe,2024_07_29,40.18834955871439,-74.00860982500222,Avon,1.5757575757575757,0.2629390909090909,0.6019363636363636,22.545454545454547,21,"CLEAR,NIGHT_MOSTLY_CLOUDY,NIGHT_DRIZZLE,NIGHT_OVERCAST,MOSTLY_CLOUDY,LIGHT_SHOWERS_POSSIBLE,MOSTLY_CLOUDY,MOSTLY_CLOUDY,CLEAR,MOSTLY_CLEAR,CLEAR","Onshore,Onshore,Onshore,Cross-shore,Cross-shore,Cross-shore,Offshore,Offshore,Cross-shore,Onshore,Cross-shore",11
5842041f4e65fad6a77089ff,2024_07_29,40.1974229100932,-74.00650533798255,Bradley Beach,1.606060606060606,0.25945454545454544,0.5984518181818181,22.545454545454547,21,"CLEAR,NIGHT_MOSTLY_CLOUDY,NIGHT_DRIZZLE,NIGHT_OVERCAST,MOSTLY_CLOUDY,LIGHT_SHOWERS_POSSIBLE,MOSTLY_CLOUDY,MOSTLY_CLOUDY,CLEAR,MOSTLY_CLEAR,CLEAR","Onshore,Onshore,Onshore,Cross-shore,Cross-shore,Cross-shore,Offshore,Offshore,Cross-shore,Onshore,Cross-shore",11
5842041f4e65fad6a7708a01,2024_07_29,40.17202,-74.01503,"16th Ave., Belmar",1.6606060606060606,0.37076454545454546,0.7191736363636364,22.545454545454547,21,"CLEAR,NIGHT_MOSTLY_CLOUDY,NIGHT_DRIZZLE,NIGHT_OVERCAST,MOSTLY_CLOUDY,LIGHT_SHOWERS_POSSIBLE,MOSTLY_CLOUDY,MOSTLY_CLOUDY,CLEAR,MOSTLY_CLEAR,CLEAR","Onshore,Onshore,Onshore,Cross-shore,Cross-shore,Cross-shore,Offshore,Offshore,Cross-shore,Onshore,Cross-shore",11
5842041f4e65fad6a7708a02,2024_07_29,40.217443,-73.99982,Asbury Park,1.5757575757575757,0.27240909090909093,0.6082245454545454,22.545454545454547,21,"CLEAR,NIGHT_MOSTLY_CLOUDY,NIGHT_OVERCAST,NIGHT_RAIN,MOSTLY_CLOUDY,CLEAR,MOSTLY_CLOUDY,MOSTLY_CLOUDY,CLEAR,MOSTLY_CLEAR,CLEAR","Onshore,Onshore,Onshore,Cross-shore,Cross-shore,Cross-shore,Offshore,Offshore,Cross-shore,Onshore,Cross-shore",11
5842041f4e65fad6a7708a03,2024_07_29,40.229841,-73.99678,Loch Arbour and Deal,1.4090909090909092,0.2682427272727273,0.6099663636363637,22.545454545454547,21,"CLEAR,NIGHT_MOSTLY_CLOUDY,NIGHT_OVERCAST,NIGHT_BRIEF_SHOWERS_POSSIBLE,MOSTLY_CLOUDY,MOSTLY_CLOUDY,MOSTLY_CLOUDY,MOSTLY_CLOUDY,MOSTLY_CLEAR,MOSTLY_CLEAR,CLEAR","Onshore,Onshore,Onshore,Onshore,Cross-shore,Cross-shore,Cross-shore,Cross-shore,Cross-shore,Onshore,Cross-shore",11
5842041f4e65fad6a7708a05,2024_07_29,40.41754,-73.97935,Sandy Hook,1.3636363636363635,0.12545454545454546,0.4263636363636364,24,24,"CLEAR,NIGHT_OVERCAST,NIGHT_OVERCAST,NIGHT_MOSTLY_CLOUDY,OVERCAST,MOSTLY_CLOUDY,MOSTLY_CLEAR,CLEAR,CLEAR,MOSTLY_CLEAR,CLEAR","Onshore,Onshore,Onshore,Onshore,Cross-shore,Offshore,Offshore,Offshore,Cross-shore,Onshore,Onshore",11
5842041f4e65fad6a7708a06,2024_07_29,39.36353,-74.40873,Crystals,1.5,0.35741636363636364,0.6499627272727273,23.272727272727273,22,"CLEAR,NIGHT_MIST,NIGHT_CLEAR,NIGHT_MOSTLY_CLOUDY,CLEAR,CLEAR,MOSTLY_CLOUDY,CLEAR,HEAVY_SHOWERS,MIST,MIST","Onshore,Onshore,Cross-shore,Cross-shore,Cross-shore,Cross-shore,Onshore,Onshore,Onshore,Onshore,Onshore",11
