_id,date,lat,lon,name,daily_mean_swell_rating,daily_mean_wave_height_min,daily_mean_wave_height_max,daily_mean_water_temperature_max,daily_mean_water_temperature_min,weather_per_timestamp,wind_per_timestamp,n_samples_per_day
5842041f4e65fad6a77087f9,2024_04_30,37.741668,-122.51038,South Ocean Beach,1.1111111111111112,1.4572888888888889,1.8145333333333333,14,14,"NIGHT_CLEAR,NIGHT_CLEAR,NIGHT_CLEAR,NIGHT_CLEAR,NIGHT_CLEAR,NIGHT_CLEAR,NIGHT_CLEAR,NIGHT_CLEAR,CLEAR","Onshore,Onshore,Onshore,Onshore,Onshore,Onshore,Onshore,Onshore,Onshore",9
5842041f4e65fad6a7708801,2024_04_30,37.49142,-122.50428,Maverick's,NA,1.7995370370370372,2.161162962962963,13,13,"NIGHT_CLEAR,NIGHT_CLEAR,NIGHT_CLEAR,NIGHT_CLEAR,NIGHT_CLEAR,NIGHT_CLEAR,NIGHT_CLEAR,NIGHT_CLEAR,CLEAR","Offshore,Offshore,Offshore,Offshore,Offshore,Offshore,Offshore,Offshore,Offshore",9
5842041f4e65fad6a7708804,2024_04_30,44.997,-124.018,Roads End,1.6666666666666667,2.311111111111111,2.5655555555555556,11,11,"NIGHT_MOSTLY_CLOUDY,NIGHT_MOSTLY_CLOUDY,NIGHT_BRIEF_SHOWERS,NIGHT_MOSTLY_CLOUDY,NIGHT_BRIEF_SHOWERS,NIGHT_CLOUDY,NIGHT_SHOWERS,NIGHT_MOSTLY_CLOUDY,HEAVY_SHOWERS","Cross-shore,Onshore,Onshore,Onshore,Cross-shore,Onshore,Onshore,Onshore,Onshore",9
5842041f4e65fad6a7708805,2024_04_30,36.95188851423011,-122.02522,Steamer Lane,3,0.7479037037037037,1.0708481481481482,14,14,"NIGHT_CLEAR,NIGHT_CLEAR,NIGHT_CLEAR,NIGHT_CLEAR,NIGHT_CLEAR,NIGHT_CLEAR,NIGHT_CLEAR,NIGHT_CLEAR,CLEAR","Offshore,Offshore,Offshore,Offshore,Offshore,Offshore,Offshore,Offshore,Offshore",9
5842041f4e65fad6a7708806,2024_04_30,36.95918781542251,-122.02489,Cowells,1,0,0.2157,14,14,"NIGHT_CLEAR,NIGHT_CLEAR,NIGHT_CLEAR,NIGHT_CLEAR,NIGHT_CLEAR,NIGHT_CLEAR,NIGHT_CLEAR,NIGHT_CLEAR,CLEAR","Offshore,Cross-shore,Cross-shore,Offshore,Cross-shore,Cross-shore,Offshore,Cross-shore,Cross-shore",9
5842041f4e65fad6a7708807,2024_04_30,36.95468082526536,-121.97234,Pleasure Point,3,0.7045,1.0345,14,14,"NIGHT_CLEAR,NIGHT_CLEAR,NIGHT_CLEAR,NIGHT_CLEAR,NIGHT_CLEAR,NIGHT_CLEAR,NIGHT_MOSTLY_CLEAR,NIGHT_MOSTLY_CLEAR,MOSTLY_CLEAR","Offshore,Offshore,Offshore,Onshore,Offshore,Onshore,Onshore,Offshore,Cross-shore",9
5842041f4e65fad6a770880a,2024_04_30,35.37815414378748,-120.86589,Morro Bay,3.5555555555555554,1.6610222222222222,1.9419851851851853,12,12,"NIGHT_CLEAR,NIGHT_CLEAR,NIGHT_CLEAR,NIGHT_CLEAR,NIGHT_CLEAR,NIGHT_CLEAR,NIGHT_CLEAR,NIGHT_CLEAR,CLEAR","Offshore,Offshore,Cross-shore,Offshore,Offshore,Offshore,Offshore,Cross-shore,Offshore",9
5842041f4e65fad6a770880b,2024_04_30,36.95782765000708,-121.96729,Jack's,1.8888888888888888,0.15018518518518517,0.4537148148148148,14,14,"NIGHT_CLEAR,NIGHT_CLEAR,NIGHT_CLEAR,NIGHT_CLEAR,NIGHT_CLEAR,NIGHT_CLEAR,NIGHT_MOSTLY_CLEAR,NIGHT_MOSTLY_CLEAR,MOSTLY_CLEAR","Offshore,Offshore,Cross-shore,Onshore,Onshore,Onshore,Onshore,Onshore,Cross-shore",9
5842041f4e65fad6a770880d,2024_04_30,34.29982939936656,-119.3489016603669,Gold Coast Beachbreaks,3,0.3933333333333333,0.6966666666666667,14,14,"NIGHT_CLEAR,NIGHT_CLEAR,NIGHT_CLEAR,NIGHT_CLEAR,NIGHT_CLEAR,NIGHT_CLEAR,NIGHT_CLEAR,NIGHT_CLEAR,CLEAR","Offshore,Cross-shore,Cross-shore,Cross-shore,Cross-shore,Cross-shore,Cross-shore,Cross-shore,Cross-shore",9
5842041f4e65fad6a7708811,2024_04_30,34.245076,-119.26799,Ventura Harbor,3,0.9818759259259259,1.278258148148148,14,14,"NIGHT_CLEAR,NIGHT_CLEAR,NIGHT_CLEAR,NIGHT_CLEAR,NIGHT_CLEAR,NIGHT_CLEAR,NIGHT_CLEAR,NIGHT_CLEAR,CLEAR","Offshore,Offshore,Offshore,Offshore,Offshore,Offshore,Offshore,Offshore,Cross-shore",9
5842041f4e65fad6a7708813,2024_04_30,34.051,-118.964,County Line,3,0.6858666666666666,0.9899111111111111,14,14,"NIGHT_CLEAR,NIGHT_CLEAR,NIGHT_CLEAR,NIGHT_CLEAR,NIGHT_CLEAR,NIGHT_CLEAR,NIGHT_CLEAR,NIGHT_CLEAR,CLEAR","Offshore,Offshore,Offshore,Cross-shore,Offshore,Offshore,Offshore,Offshore,Offshore",9
5842041f4e65fad6a7708814,2024_04_30,34.37256264378892,-119.47797,Rincon,3,0.5055555555555555,0.8099999999999999,14,14,"NIGHT_CLEAR,NIGHT_CLEAR,NIGHT_CLEAR,NIGHT_CLEAR,NIGHT_CLEAR,NIGHT_CLEAR,NIGHT_CLEAR,NIGHT_CLEAR,CLEAR","Offshore,Offshore,Offshore,Offshore,Offshore,Offshore,Onshore,Onshore,Onshore",9
5842041f4e65fad6a7708817,2024_04_30,34.03096101876324,-118.68109,Malibu Third Point,2,0.23777777777777778,0.5433333333333333,15.333333333333334,15.333333333333334,"NIGHT_CLEAR,NIGHT_CLEAR,NIGHT_CLEAR,NIGHT_CLEAR,NIGHT_CLEAR,NIGHT_CLEAR,NIGHT_MOSTLY_CLEAR,NIGHT_BRIEF_SHOWERS,MOSTLY_CLEAR","Cross-shore,Cross-shore,Cross-shore,Cross-shore,Cross-shore,Cross-shore,Onshore,Onshore,Cross-shore",9
5842041f4e65fad6a7708819,2024_04_30,33.984079047970035,-118.47382,Venice Beach,3,0.9340148148148149,1.1154666666666666,14,14,"NIGHT_BRIEF_SHOWERS,NIGHT_BRIEF_SHOWERS,NIGHT_BRIEF_SHOWERS,NIGHT_MIST,NIGHT_MOSTLY_CLEAR,NIGHT_CLEAR,NIGHT_CLEAR,NIGHT_MIST,MIST","Cross-shore,Cross-shore,Offshore,Cross-shore,Cross-shore,Cross-shore,Cross-shore,Cross-shore,Offshore",9
5842041f4e65fad6a770881e,2024_04_30,34.037508438646746,-118.5834,Topanga Beach,3,0.41831111111111113,0.7242074074074074,14,14,"NIGHT_CLEAR,NIGHT_CLEAR,NIGHT_CLEAR,NIGHT_CLEAR,NIGHT_CLEAR,NIGHT_CLEAR,NIGHT_CLEAR,NIGHT_CLEAR,CLEAR","Cross-shore,Offshore,Cross-shore,Offshore,Cross-shore,Offshore,Cross-shore,Cross-shore,Offshore",9
5842041f4e65fad6a7708820,2024_04_30,33.73954373690184,-118.11414,Seal Beach Jetty,2,0.28444444444444444,0.5877777777777777,15.333333333333334,15.333333333333334,"NIGHT_CLEAR,NIGHT_MOSTLY_CLOUDY,NIGHT_MOSTLY_CLOUDY,NIGHT_MOSTLY_CLOUDY,NIGHT_MOSTLY_CLOUDY,NIGHT_MIST,NIGHT_MIST,NIGHT_MIST,OVERCAST","Onshore,Onshore,Onshore,Cross-shore,Cross-shore,Cross-shore,Cross-shore,Cross-shore,Offshore",9
5842041f4e65fad6a7708822,2024_04_30,33.72309983348433,-118.08078,Anderson Street,2.296666666666667,0.5140148148148148,0.8349925925925926,14,14,"NIGHT_CLEAR,NIGHT_BRIEF_SHOWERS,NIGHT_MOSTLY_CLOUDY,NIGHT_MOSTLY_CLOUDY,NIGHT_MOSTLY_CLOUDY,NIGHT_MIST,NIGHT_MIST,NIGHT_MIST,OVERCAST","Onshore,Onshore,Onshore,Onshore,Cross-shore,Cross-shore,Cross-shore,Cross-shore,Offshore",9
5842041f4e65fad6a7708827,2024_04_30,33.65574085629463,-118.00397,Huntington Beach Pier Northside,2.8333333333333335,1.0937999999999999,1.3692222222222223,14,14,"NIGHT_MOSTLY_CLEAR,NIGHT_MOSTLY_CLOUDY,NIGHT_MOSTLY_CLOUDY,NIGHT_MOSTLY_CLOUDY,NIGHT_MOSTLY_CLOUDY,NIGHT_MIST,NIGHT_MIST,NIGHT_MIST,OVERCAST","Onshore,Cross-shore,Cross-shore,Cross-shore,Cross-shore,Cross-shore,Cross-shore,Cross-shore,Cross-shore",9
5842041f4e65fad6a7708828,2024_04_30,34.272041739333,-119.29976,C St.,3,0.7616148148148149,1.0234370370370371,14,14,"NIGHT_CLEAR,NIGHT_CLEAR,NIGHT_CLEAR,NIGHT_CLEAR,NIGHT_CLEAR,NIGHT_CLEAR,NIGHT_CLEAR,NIGHT_CLEAR,CLEAR","Onshore,Cross-shore,Offshore,Cross-shore,Offshore,Offshore,Cross-shore,Cross-shore,Offshore",9
5842041f4e65fad6a770882a,2024_04_30,33.61555743705257,-117.93676,Newport Lower Jetties,2.8333333333333335,0.582162962962963,0.9436,16,16,"NIGHT_MOSTLY_CLOUDY,NIGHT_CLEAR,NIGHT_CLEAR,NIGHT_MIST,NIGHT_MIST,NIGHT_MIST,NIGHT_MIST,NIGHT_MIST,MIST","Onshore,Cross-shore,Cross-shore,Cross-shore,Cross-shore,Cross-shore,Cross-shore,Cross-shore,Offshore",9
5842041f4e65fad6a770882b,2024_04_30,33.5930302087,-117.88199,The Wedge,1.5922222222222222,0.49752287037037035,0.9360559259259259,16,16,"NIGHT_CLEAR,NIGHT_CLEAR,NIGHT_MIST,NIGHT_MOSTLY_CLOUDY,NIGHT_MIST,NIGHT_BRIEF_SHOWERS,NIGHT_MIST,NIGHT_MIST,MIST","Offshore,Cross-shore,Cross-shore,Cross-shore,Onshore,Cross-shore,Cross-shore,Cross-shore,Offshore",9
5842041f4e65fad6a770882e,2024_04_30,33.475793399792984,-117.72291,Salt Creek,3,0.8405888888888889,1.1424888888888889,16,16,"NIGHT_BRIEF_SHOWERS,NIGHT_MIST,NIGHT_BRIEF_SHOWERS,NIGHT_DRIZZLE,NIGHT_MIST,NIGHT_MIST,NIGHT_MIST,NIGHT_MIST,MIST","Cross-shore,Cross-shore,Cross-shore,Cross-shore,Cross-shore,Cross-shore,Cross-shore,Offshore,Offshore",9
5842041f4e65fad6a7708830,2024_04_30,33.41800974113613,-117.61952,T-Street,2.8333333333333335,0.7200333333333333,0.9985222222222222,17,17,"NIGHT_MIST,NIGHT_MIST,NIGHT_MIST,NIGHT_MIST,NIGHT_MIST,NIGHT_MIST,NIGHT_MIST,NIGHT_MIST,MIST","Onshore,Onshore,Onshore,Onshore,Onshore,Onshore,Cross-shore,Cross-shore,Cross-shore",9
5842041f4e65fad6a7708832,2024_04_30,33.202391008646,-117.39475,Oceanside Harbor,2.9444444444444446,0.6535296296296296,1.0127444444444444,16,16,"NIGHT_MOSTLY_CLOUDY,NIGHT_MIST,NIGHT_MIST,NIGHT_DRIZZLE,NIGHT_MIST,NIGHT_MIST,NIGHT_MIST,NIGHT_MIST,OVERCAST","Cross-shore,Onshore,Onshore,Onshore,Onshore,Onshore,Onshore,Onshore,Cross-shore",9
5842041f4e65fad6a7708835,2024_04_30,33.19477795952803,-117.38667,Oceanside Pier,2.9444444444444446,0.6236222222222222,0.9697,16,16,"NIGHT_CLEAR,NIGHT_CLEAR,NIGHT_CLEAR,NIGHT_MOSTLY_CLOUDY,NIGHT_MIST,NIGHT_MIST,NIGHT_MIST,NIGHT_OVERCAST,OVERCAST","Onshore,Onshore,Onshore,Onshore,Onshore,Onshore,Onshore,Onshore,Onshore",9
5842041f4e65fad6a7708837,2024_04_30,33.14948100706,-117.35029,Tamarack,3,0.43,0.7366666666666667,16.333333333333332,16.333333333333332,"NIGHT_MOSTLY_CLOUDY,NIGHT_MIST,NIGHT_MIST,NIGHT_MIST,NIGHT_MIST,NIGHT_MIST,NIGHT_MIST,NIGHT_MIST,OVERCAST","Onshore,Offshore,Offshore,Offshore,Offshore,Offshore,Offshore,Offshore,Offshore",9
5842041f4e65fad6a7708839,2024_04_30,32.865777159358856,-117.25614,Scripps,3,0.9002888888888889,1.185988888888889,16,16,"NIGHT_MOSTLY_CLOUDY,NIGHT_MIST,NIGHT_MIST,NIGHT_MIST,NIGHT_MIST,NIGHT_MIST,NIGHT_MIST,NIGHT_MIST,MIST","Cross-shore,Cross-shore,Cross-shore,Cross-shore,Cross-shore,Cross-shore,Cross-shore,Cross-shore,Offshore",9
5842041f4e65fad6a770883a,2024_04_30,32.813094,-117.27381,Birdrock,3,0.8733333333333333,1.1111111111111112,17,17,"NIGHT_MOSTLY_CLOUDY,NIGHT_MOSTLY_CLOUDY,NIGHT_DRIZZLE,NIGHT_DRIZZLE,NIGHT_DRIZZLE,NIGHT_MIST,NIGHT_MIST,NIGHT_DRIZZLE,DRIZZLE","Onshore,Cross-shore,Cross-shore,Cross-shore,Cross-shore,Cross-shore,Cross-shore,Cross-shore,Onshore",9
5842041f4e65fad6a770883b,2024_04_30,32.877231,-117.25303,Blacks,3,1.105637037037037,1.366811111111111,16,16,"NIGHT_MOSTLY_CLOUDY,NIGHT_MIST,NIGHT_MIST,NIGHT_MIST,NIGHT_MIST,NIGHT_MIST,NIGHT_MIST,NIGHT_MIST,MIST","Onshore,Onshore,Onshore,Onshore,Onshore,Cross-shore,Onshore,Onshore,Cross-shore",9
5842041f4e65fad6a770883c,2024_04_30,32.82978974229765,-117.28162,Windansea,3,1.0596185185185185,1.3386037037037037,16,16,"NIGHT_CLEAR,NIGHT_MIST,NIGHT_OVERCAST,NIGHT_OVERCAST,NIGHT_MIST,NIGHT_MIST,NIGHT_MIST,NIGHT_MIST,OVERCAST","Onshore,Onshore,Cross-shore,Cross-shore,Cross-shore,Cross-shore,Cross-shore,Cross-shore,Cross-shore",9
5842041f4e65fad6a770883d,2024_04_30,32.838278,-117.28396,Horseshoe,3,1.0766666666666667,1.3455555555555556,17,17,"NIGHT_CLEAR,NIGHT_MIST,NIGHT_OVERCAST,NIGHT_OVERCAST,NIGHT_MIST,NIGHT_MIST,NIGHT_MIST,NIGHT_MIST,OVERCAST","Onshore,Onshore,Onshore,Cross-shore,Cross-shore,Cross-shore,Cross-shore,Cross-shore,Cross-shore",9
5842041f4e65fad6a770883f,2024_04_30,32.75034717673179,-117.25337,Ocean Beach,3,1.0641555555555555,1.3307925925925925,16,16,"NIGHT_MOSTLY_CLOUDY,NIGHT_MIST,NIGHT_MIST,NIGHT_MIST,NIGHT_MIST,NIGHT_MIST,NIGHT_MIST,NIGHT_MIST,DRIZZLE","Onshore,Cross-shore,Offshore,Offshore,Offshore,Offshore,Offshore,Offshore,Offshore",9
5842041f4e65fad6a7708840,2024_04_30,32.73693,-117.25718,Sunset Cliffs,2.6666666666666665,0.8433333333333334,1.1077777777777778,17,17,"NIGHT_CLEAR,NIGHT_MIST,NIGHT_MIST,NIGHT_MIST,NIGHT_MIST,NIGHT_MIST,NIGHT_MIST,NIGHT_MIST,MIST","Onshore,Cross-shore,Offshore,Offshore,Offshore,Offshore,Offshore,Offshore,Offshore",9
5842041f4e65fad6a7708841,2024_04_30,32.796582258728826,-117.25779,Pacific Beach,3,0.9324185185185185,1.1959296296296296,16,16,"NIGHT_MOSTLY_CLOUDY,NIGHT_MIST,NIGHT_MIST,NIGHT_MIST,NIGHT_MIST,NIGHT_DRIZZLE,NIGHT_MIST,NIGHT_MIST,DRIZZLE","Onshore,Cross-shore,Cross-shore,Cross-shore,Cross-shore,Cross-shore,Cross-shore,Cross-shore,Onshore",9
5842041f4e65fad6a7708842,2024_04_30,32.776636,-117.25514,Mission Beach,3,0.9381592592592592,1.208337037037037,16,16,"NIGHT_MOSTLY_CLOUDY,NIGHT_MIST,NIGHT_MIST,NIGHT_MIST,NIGHT_MIST,NIGHT_DRIZZLE,NIGHT_MIST,NIGHT_MIST,DRIZZLE","Onshore,Cross-shore,Offshore,Offshore,Offshore,Cross-shore,Offshore,Offshore,Onshore",9
5842041f4e65fad6a7708844,2024_04_30,32.577195519016,-117.13475,Imperial Beach Pier,3,1.0633333333333332,1.2877777777777777,15.333333333333334,15.333333333333334,"NIGHT_MOSTLY_CLOUDY,NIGHT_MOSTLY_CLOUDY,NIGHT_MOSTLY_CLOUDY,NIGHT_MIST,NIGHT_MIST,NIGHT_MIST,NIGHT_MIST,NIGHT_MIST,MIST","Onshore,Onshore,Onshore,Onshore,Onshore,Onshore,Onshore,Onshore,Onshore",9
5842041f4e65fad6a770884a,2024_04_30,42.88678181061,-70.80843,Seabrook,1.1111111111111112,0.3684072222222222,0.6274933333333333,8,7,"NIGHT_MOSTLY_CLOUDY,NIGHT_CLEAR,NIGHT_CLEAR,NIGHT_MOSTLY_CLOUDY,MOSTLY_CLOUDY,CLOUDY,OVERCAST,MOSTLY_CLOUDY,OVERCAST","Onshore,Onshore,Onshore,Onshore,Onshore,Onshore,Onshore,Onshore,Cross-shore",9
5842041f4e65fad6a770884e,2024_04_30,41.434181432898335,-71.45312,Narragansett,1.8333333333333333,0.18131111111111112,0.48262222222222223,10,9,"NIGHT_OVERCAST,NIGHT_FOG,NIGHT_LIGHT_RAIN_AND_FOG,NIGHT_FOG,OVERCAST,CLEAR,MOSTLY_CLOUDY,MOSTLY_CLEAR,CLEAR","Onshore,Onshore,Offshore,Cross-shore,Cross-shore,Cross-shore,Cross-shore,Onshore,Onshore",9
5842041f4e65fad6a7708850,2024_04_30,40.582703230722,-73.65247,Lincoln Blvd,1.4444444444444444,0.39478592592592593,0.6967822222222223,10,8,"NIGHT_MIST,NIGHT_MIST,NIGHT_MIST,NIGHT_MIST,MIST,DRIZZLE,DRIZZLE,MIST,MIST","Cross-shore,Cross-shore,Cross-shore,Cross-shore,Cross-shore,Cross-shore,Cross-shore,Cross-shore,Cross-shore",9
5842041f4e65fad6a7708852,2024_04_30,40.58342841721757,-73.81182,Rockaways,1.3333333333333333,0.44170740740740744,0.814062962962963,10,8,"NIGHT_MIST,NIGHT_MIST,NIGHT_MIST,NIGHT_MIST,MIST,MIST,MIST,OVERCAST,OVERCAST","Cross-shore,Cross-shore,Cross-shore,Cross-shore,Cross-shore,Cross-shore,Cross-shore,Cross-shore,Cross-shore",9
5842041f4e65fad6a7708853,2024_04_30,40.330474,-73.9734,Monmouth Beach,1.3333333333333333,0.2740888888888889,0.5804,10,9,"NIGHT_MIST,NIGHT_MIST,NIGHT_MIST,NIGHT_MIST,DRIZZLE,MIST,MIST,MIST,MIST","Onshore,Onshore,Onshore,Onshore,Onshore,Onshore,Onshore,Onshore,Onshore",9
5842041f4e65fad6a7708856,2024_04_30,40.113,-74.028,Manasquan Inlet,1.9444444444444444,0.5819,0.9516296296296296,10,9,"NIGHT_BRIEF_SHOWERS,NIGHT_OVERCAST,NIGHT_OVERCAST,NIGHT_OVERCAST,MIST,MIST,OVERCAST,OVERCAST,MOSTLY_CLOUDY","Onshore,Onshore,Onshore,Onshore,Onshore,Onshore,Onshore,Onshore,Onshore",9
5842041f4e65fad6a7708857,2024_04_30,39.941519877445664,-74.06829,Casino Pier,2.311111111111111,0.7224592592592594,1.0913777777777778,10,9,"NIGHT_MIST,NIGHT_MIST,NIGHT_MIST,NIGHT_MIST,MIST,MIST,MIST,MIST,MIST","Onshore,Onshore,Onshore,Onshore,Onshore,Onshore,Onshore,Onshore,Onshore",9
5842041f4e65fad6a7708858,2024_04_30,39.28223089949212,-74.55766,North End OC,1.9622222222222223,0.48706666666666665,0.791711111111111,10,9,"NIGHT_CLEAR,NIGHT_CLEAR,NIGHT_MIST,NIGHT_MIST,MIST,MIST,MIST,MIST,MIST","Cross-shore,Onshore,Onshore,Cross-shore,Onshore,Onshore,Onshore,Onshore,Onshore",9
5842041f4e65fad6a770885b,2024_04_30,39.65080599934257,-74.17146,Ship Bottom,2.6666666666666665,0.8746674074074074,1.1972503703703705,10,9,"NIGHT_MIST,NIGHT_MIST,NIGHT_MIST,NIGHT_MIST,MIST,MIST,MIST,MIST,MIST","Onshore,Onshore,Onshore,Onshore,Onshore,Onshore,Onshore,Offshore,Cross-shore",9
5842041f4e65fad6a7708863,2024_04_30,36.034151543144,-75.66791,Third Street,2.6666666666666665,0.6076222222222223,0.9122666666666667,13,11,"NIGHT_CLEAR,NIGHT_CLEAR,NIGHT_CLEAR,NIGHT_CLEAR,NIGHT_CLEAR,CLEAR,CLEAR,CLEAR,CLEAR","Offshore,Offshore,Offshore,Offshore,Offshore,Offshore,Offshore,Offshore,Offshore",9
5842041f4e65fad6a7708867,2024_04_30,35.605833221351425,-75.46303,S-Turns,2.7777777777777777,0.7047733333333334,1.1214422222222222,15,14,"NIGHT_CLEAR,NIGHT_CLEAR,NIGHT_CLEAR,NIGHT_CLEAR,NIGHT_CLEAR,CLEAR,CLEAR,CLEAR,CLEAR","Offshore,Offshore,Offshore,Offshore,Offshore,Offshore,Offshore,Offshore,Offshore",9
5842041f4e65fad6a770886d,2024_04_30,38.338461,-75.08117,Ocean City Boardwalk,2.111111111111111,0.4998444444444444,0.8665333333333334,12,11,"NIGHT_CLEAR,NIGHT_CLEAR,NIGHT_CLEAR,NIGHT_CLEAR,NIGHT_CLEAR,CLEAR,CLEAR,CLEAR,CLEAR","Offshore,Offshore,Offshore,Offshore,Offshore,Offshore,Offshore,Offshore,Offshore",9
5842041f4e65fad6a770886f,2024_04_30,29.844757212379562,-81.26136,A St.,1.7777777777777777,0.7077777777777777,1.0144444444444445,22,22,"NIGHT_MOSTLY_CLEAR,NIGHT_MOSTLY_CLEAR,NIGHT_MOSTLY_CLOUDY,NIGHT_MOSTLY_CLOUDY,NIGHT_CLEAR,CLEAR,CLEAR,CLEAR,CLEAR","Onshore,Onshore,Cross-shore,Cross-shore,Cross-shore,Cross-shore,Cross-shore,Cross-shore,Cross-shore",9
5842041f4e65fad6a7708871,2024_04_30,29.069417851135093,-80.90824,New Smyrna Beach,2.147777777777778,0.9171777777777778,1.3098851851851852,23,21,"NIGHT_MOSTLY_CLOUDY,NIGHT_MOSTLY_CLOUDY,NIGHT_MOSTLY_CLOUDY,NIGHT_MOSTLY_CLEAR,NIGHT_CLEAR,MOSTLY_CLEAR,CLEAR,CLEAR,MOSTLY_CLEAR","Cross-shore,Cross-shore,Cross-shore,Cross-shore,Cross-shore,Cross-shore,Cross-shore,Cross-shore,Cross-shore",9
5842041f4e65fad6a7708872,2024_04_30,28.367707417566,-80.60171,Cocoa Beach Pier,2,0.7164851851851852,1.1295481481481482,23,22,"NIGHT_OVERCAST,NIGHT_MOSTLY_CLEAR,NIGHT_CLEAR,NIGHT_CLEAR,NIGHT_MOSTLY_CLEAR,MOSTLY_CLOUDY,MOSTLY_CLOUDY,MOSTLY_CLEAR,MOSTLY_CLOUDY","Onshore,Onshore,Onshore,Onshore,Onshore,Onshore,Onshore,Onshore,Onshore",9
5842041f4e65fad6a7708873,2024_04_30,28.091782738658846,-80.56479,Indialantic,1.4444444444444444,0.7991518518518519,1.101862962962963,23,22,"NIGHT_CLEAR,NIGHT_CLEAR,NIGHT_CLEAR,NIGHT_MOSTLY_CLEAR,NIGHT_CLEAR,MOSTLY_CLOUDY,MOSTLY_CLOUDY,CLEAR,MOSTLY_CLOUDY","Onshore,Onshore,Onshore,Onshore,Onshore,Onshore,Onshore,Onshore,Onshore",9
5842041f4e65fad6a7708876,2024_04_30,27.25392904143517,-80.19455,Jensen Beach,1.6477777777777778,0.8626148148148148,1.1809,24,22,"NIGHT_MOSTLY_CLEAR,NIGHT_MOSTLY_CLEAR,NIGHT_SHOWERS,NIGHT_MOSTLY_CLOUDY,NIGHT_MOSTLY_CLOUDY,CLEAR,SHOWERS,BRIEF_SHOWERS,MOSTLY_CLOUDY","Cross-shore,Onshore,Onshore,Onshore,Offshore,Onshore,Onshore,Cross-shore,Cross-shore",9
5842041f4e65fad6a7708879,2024_04_30,26.76346795333825,-80.03607,Reef Road,1.5555555555555556,0.7212785185185185,1.0237637037037037,25,24,"NIGHT_HEAVY_SHOWERS,NIGHT_MOSTLY_CLOUDY,NIGHT_MOSTLY_CLOUDY,NIGHT_BRIEF_SHOWERS,NIGHT_SHOWERS,BRIEF_SHOWERS,MOSTLY_CLOUDY,CLEAR,BRIEF_SHOWERS","Onshore,Onshore,Onshore,Onshore,Onshore,Onshore,Onshore,Onshore,Onshore",9
5842041f4e65fad6a770887c,2024_04_30,26.336499228484,-80.06956100463,Boca Raton Inlet,1,0.46132222222222224,0.7649,25,24,"NIGHT_MOSTLY_CLEAR,NIGHT_MOSTLY_CLOUDY,NIGHT_MOSTLY_CLOUDY,NIGHT_LIGHT_SHOWERS_POSSIBLE,NIGHT_SHOWERS,CLEAR,MOSTLY_CLOUDY,MOSTLY_CLOUDY,MOSTLY_CLOUDY","Onshore,Onshore,Onshore,Onshore,Onshore,Onshore,Onshore,Onshore,Onshore",9
5842041f4e65fad6a770887d,2024_04_30,26.31719311695038,-80.07453,Deerfield Beach Pier,1.3333333333333333,0.3988037037037037,0.7025851851851852,26,24,"NIGHT_CLEAR,NIGHT_MOSTLY_CLOUDY,NIGHT_MOSTLY_CLOUDY,NIGHT_MOSTLY_CLOUDY,NIGHT_MOSTLY_CLEAR,MOSTLY_CLOUDY,MOSTLY_CLOUDY,MOSTLY_CLOUDY,BRIEF_SHOWERS","Onshore,Onshore,Onshore,Onshore,Onshore,Onshore,Onshore,Onshore,Onshore",9
5842041f4e65fad6a7708881,2024_04_30,30.20276320866628,-85.85626528676136,"Spyglass Dr., Panama City",2.24,0.6296,0.9566074074074074,23,21,"NIGHT_CLEAR,NIGHT_CLEAR,NIGHT_CLEAR,NIGHT_MOSTLY_CLOUDY,NIGHT_CLEAR,MOSTLY_CLEAR,CLEAR,CLEAR,CLEAR","Cross-shore,Cross-shore,Cross-shore,Offshore,Offshore,Offshore,Cross-shore,Cross-shore,Onshore",9
5842041f4e65fad6a7708884,2024_04_30,33.39000832738053,-117.59852,Cottons,3.0555555555555554,0.8113296296296296,1.1110074074074074,17,17,"NIGHT_MIST,NIGHT_MIST,NIGHT_BRIEF_SHOWERS,NIGHT_MIST,NIGHT_MIST,NIGHT_MOSTLY_CLOUDY,NIGHT_OVERCAST,NIGHT_MIST,MIST","Offshore,Offshore,Offshore,Offshore,Offshore,Onshore,Cross-shore,Cross-shore,Cross-shore",9
5842041f4e65fad6a7708885,2024_04_30,33.359416282661,-117.54168,Trails,2.7777777777777777,0.5533333333333333,0.86,16,16,"NIGHT_MIST,NIGHT_MIST,NIGHT_MIST,NIGHT_MIST,NIGHT_MIST,NIGHT_CLEAR,NIGHT_OVERCAST,NIGHT_MIST,MIST","Cross-shore,Offshore,Cross-shore,Cross-shore,Cross-shore,Offshore,Offshore,Offshore,Cross-shore",9
5842041f4e65fad6a7708886,2024_04_30,33.38042605929805,-117.58332,Middles,3,0.5152407407407408,0.8755666666666667,17,17,"NIGHT_MIST,NIGHT_MIST,NIGHT_BRIEF_SHOWERS,NIGHT_MIST,NIGHT_MIST,NIGHT_MOSTLY_CLOUDY,NIGHT_OVERCAST,NIGHT_MIST,MIST","Offshore,Offshore,Offshore,Offshore,Offshore,Cross-shore,Offshore,Offshore,Cross-shore",9
5842041f4e65fad6a7708887,2024_04_30,33.38445596302903,-117.59445,Upper Trestles,2.9444444444444446,0.8133666666666667,1.1092481481481482,17,17,"NIGHT_MIST,NIGHT_MIST,NIGHT_BRIEF_SHOWERS,NIGHT_MIST,NIGHT_MIST,NIGHT_MOSTLY_CLOUDY,NIGHT_OVERCAST,NIGHT_MIST,MIST","Offshore,Offshore,Offshore,Offshore,Offshore,Offshore,Offshore,Offshore,Offshore",9
5842041f4e65fad6a7708889,2024_04_30,28.944414,-95.28883,Surfside,1.7777777777777777,0.9604177777777778,1.5006522222222223,23.666666666666668,23.666666666666668,"NIGHT_CLEAR,NIGHT_CLEAR,NIGHT_CLEAR,NIGHT_MOSTLY_CLOUDY,NIGHT_CLOUDY,NIGHT_CLEAR,CLOUDY,MIST,OVERCAST","Onshore,Onshore,Onshore,Cross-shore,Cross-shore,Cross-shore,Cross-shore,Onshore,Onshore",9
5842041f4e65fad6a770888a,2024_04_30,33.38143999849023,-117.58843,Lower Trestles,3,0.8671555555555556,1.1835,17,17,"NIGHT_MIST,NIGHT_MIST,NIGHT_BRIEF_SHOWERS,NIGHT_MIST,NIGHT_MIST,NIGHT_MOSTLY_CLOUDY,NIGHT_OVERCAST,NIGHT_MIST,MIST","Offshore,Offshore,Offshore,Offshore,Offshore,Offshore,Offshore,Offshore,Offshore",9
5842041f4e65fad6a770888b,2024_04_30,33.379622288757,-117.57894,Church,3,0.7490370370370371,1.079825925925926,17,17,"NIGHT_MIST,NIGHT_MIST,NIGHT_BRIEF_SHOWERS,NIGHT_MIST,NIGHT_MIST,NIGHT_MOSTLY_CLOUDY,NIGHT_OVERCAST,NIGHT_MIST,MIST","Cross-shore,Offshore,Offshore,Offshore,Offshore,Cross-shore,Offshore,Cross-shore,Cross-shore",9
5842041f4e65fad6a770888d,2024_04_30,21.679,-158.042,Sunset Beach,3,0.5222222222222223,0.8244444444444444,26,25,"NIGHT_MOSTLY_CLEAR,NIGHT_BRIEF_SHOWERS,NIGHT_LIGHT_SHOWERS_POSSIBLE,NIGHT_MOSTLY_CLOUDY,NIGHT_MOSTLY_CLEAR,NIGHT_CLEAR,NIGHT_MOSTLY_CLEAR,NIGHT_MOSTLY_CLEAR,NIGHT_BRIEF_SHOWERS","Offshore,Offshore,Offshore,Offshore,Offshore,Offshore,Offshore,Offshore,Offshore",9
5842041f4e65fad6a770888e,2024_04_30,21.670550036401,-158.0482,Rocky Point,3,0.49333333333333335,0.7988888888888889,26,25,"NIGHT_FOG,NIGHT_BRIEF_SHOWERS,NIGHT_MOSTLY_CLOUDY,NIGHT_MOSTLY_CLOUDY,NIGHT_CLEAR,NIGHT_CLEAR,NIGHT_SHOWERS,NIGHT_MOSTLY_CLOUDY,NIGHT_BRIEF_SHOWERS","Offshore,Offshore,Offshore,Cross-shore,Cross-shore,Cross-shore,Offshore,Offshore,Offshore",9
5842041f4e65fad6a770888f,2024_04_30,21.668,-158.05,Chambers,3,0.45,0.7544444444444445,25,25,"NIGHT_FOG,NIGHT_BRIEF_SHOWERS,NIGHT_MOSTLY_CLOUDY,NIGHT_MOSTLY_CLOUDY,NIGHT_CLEAR,NIGHT_CLEAR,NIGHT_SHOWERS,NIGHT_MOSTLY_CLOUDY,NIGHT_BRIEF_SHOWERS","Offshore,Offshore,Offshore,Offshore,Offshore,Cross-shore,Offshore,Offshore,Offshore",9
5842041f4e65fad6a7708890,2024_04_30,21.66522,-158.0526,Pipeline,1,0.32,0.6277777777777778,26,25,"NIGHT_FOG,NIGHT_BRIEF_SHOWERS,NIGHT_MOSTLY_CLOUDY,NIGHT_MOSTLY_CLOUDY,NIGHT_CLEAR,NIGHT_CLEAR,NIGHT_SHOWERS,NIGHT_MOSTLY_CLOUDY,NIGHT_BRIEF_SHOWERS","Offshore,Offshore,Offshore,Offshore,Cross-shore,Cross-shore,Offshore,Offshore,Offshore",9
5842041f4e65fad6a7708891,2024_04_30,21.665,-158.054,Backdoor,2.5555555555555554,0.32,0.6277777777777778,26,25,"NIGHT_FOG,NIGHT_BRIEF_SHOWERS,NIGHT_MOSTLY_CLOUDY,NIGHT_MOSTLY_CLOUDY,NIGHT_CLEAR,NIGHT_CLEAR,NIGHT_SHOWERS,NIGHT_MOSTLY_CLOUDY,NIGHT_BRIEF_SHOWERS","Offshore,Offshore,Offshore,Cross-shore,Cross-shore,Cross-shore,Offshore,Offshore,Offshore",9
5842041f4e65fad6a7708892,2024_04_30,21.662,-158.057,Rockpile,3,0.48444444444444446,0.7877777777777778,25,25,"NIGHT_FOG,NIGHT_BRIEF_SHOWERS,NIGHT_MOSTLY_CLOUDY,NIGHT_MOSTLY_CLOUDY,NIGHT_CLEAR,NIGHT_CLEAR,NIGHT_SHOWERS,NIGHT_MOSTLY_CLOUDY,NIGHT_BRIEF_SHOWERS","Offshore,Offshore,Offshore,Cross-shore,Cross-shore,Cross-shore,Offshore,Offshore,Offshore",9
5842041f4e65fad6a7708893,2024_04_30,21.65870453806827,-158.06058,Log Cabins,2,0.3522222222222222,0.6588888888888889,25,25,"NIGHT_FOG,NIGHT_BRIEF_SHOWERS,NIGHT_MOSTLY_CLOUDY,NIGHT_MOSTLY_CLOUDY,NIGHT_CLEAR,NIGHT_CLEAR,NIGHT_SHOWERS,NIGHT_MOSTLY_CLOUDY,NIGHT_BRIEF_SHOWERS","Offshore,Offshore,Offshore,Cross-shore,Cross-shore,Cross-shore,Offshore,Offshore,Offshore",9
5842041f4e65fad6a7708894,2024_04_30,21.66203493640557,-158.05495,Off-The-Wall,3,0.4677777777777778,0.7722222222222223,25,25,"NIGHT_FOG,NIGHT_BRIEF_SHOWERS,NIGHT_MOSTLY_CLOUDY,NIGHT_MOSTLY_CLOUDY,NIGHT_CLEAR,NIGHT_CLEAR,NIGHT_SHOWERS,NIGHT_MOSTLY_CLOUDY,NIGHT_BRIEF_SHOWERS","Offshore,Offshore,Offshore,Cross-shore,Offshore,Cross-shore,Offshore,Offshore,Offshore",9
5842041f4e65fad6a7708895,2024_04_30,21.643,-158.067,Waimea Bay,NA,0.5055555555555555,0.8111111111111111,26,25,"NIGHT_FOG,NIGHT_BRIEF_SHOWERS,NIGHT_MOSTLY_CLOUDY,NIGHT_MOSTLY_CLOUDY,NIGHT_CLEAR,NIGHT_CLEAR,NIGHT_SHOWERS,NIGHT_MOSTLY_CLOUDY,NIGHT_BRIEF_SHOWERS","Offshore,Offshore,Offshore,Cross-shore,Offshore,Offshore,Offshore,Offshore,Offshore",9
5842041f4e65fad6a7708896,2024_04_30,21.622,-158.087,Hultin's,2.5555555555555554,0.4488888888888889,0.7544444444444445,26,25,"NIGHT_CLEAR,NIGHT_MOSTLY_CLOUDY,NIGHT_BRIEF_SHOWERS,NIGHT_MOSTLY_CLOUDY,NIGHT_MOSTLY_CLEAR,NIGHT_CLEAR,NIGHT_CLEAR,NIGHT_CLEAR,NIGHT_MOSTLY_CLEAR","Offshore,Offshore,Offshore,Offshore,Offshore,Offshore,Offshore,Offshore,Offshore",9
5842041f4e65fad6a7708897,2024_04_30,21.623,-158.085,Jocko's,2.111111111111111,0.36444444444444446,0.6722222222222223,25,25,"NIGHT_CLEAR,NIGHT_MOSTLY_CLOUDY,NIGHT_BRIEF_SHOWERS,NIGHT_MOSTLY_CLOUDY,NIGHT_MOSTLY_CLEAR,NIGHT_CLEAR,NIGHT_CLEAR,NIGHT_CLEAR,NIGHT_MOSTLY_CLEAR","Onshore,Cross-shore,Cross-shore,Cross-shore,Cross-shore,Cross-shore,Onshore,Onshore,Cross-shore",9
5842041f4e65fad6a7708898,2024_04_30,21.62,-158.088,Laniakea,3,0.45555555555555555,0.7611111111111111,26,25,"NIGHT_CLEAR,NIGHT_MOSTLY_CLOUDY,NIGHT_BRIEF_SHOWERS,NIGHT_MOSTLY_CLOUDY,NIGHT_MOSTLY_CLEAR,NIGHT_CLEAR,NIGHT_CLEAR,NIGHT_CLEAR,NIGHT_MOSTLY_CLEAR","Cross-shore,Offshore,Offshore,Offshore,Offshore,Offshore,Cross-shore,Cross-shore,Cross-shore",9
5842041f4e65fad6a7708899,2024_04_30,21.625,-158.083,Chun's,2,0.4477777777777778,0.7511111111111111,25,25,"NIGHT_CLEAR,NIGHT_MOSTLY_CLOUDY,NIGHT_BRIEF_SHOWERS,NIGHT_MOSTLY_CLOUDY,NIGHT_MOSTLY_CLEAR,NIGHT_CLEAR,NIGHT_CLEAR,NIGHT_CLEAR,NIGHT_MOSTLY_CLEAR","Cross-shore,Offshore,Offshore,Offshore,Offshore,Offshore,Offshore,Offshore,Offshore",9
5842041f4e65fad6a770889c,2024_04_30,21.286357895152136,-157.8515,South Shore - Ala Moana Park,3,0.6911111111111111,0.9966666666666667,24.333333333333332,24.333333333333332,"NIGHT_CLEAR,NIGHT_BRIEF_SHOWERS,NIGHT_CLEAR,NIGHT_MOSTLY_CLOUDY,NIGHT_BRIEF_SHOWERS,NIGHT_MOSTLY_CLOUDY,NIGHT_BRIEF_SHOWERS,NIGHT_BRIEF_SHOWERS,NIGHT_MOSTLY_CLOUDY","Offshore,Offshore,Offshore,Offshore,Offshore,Offshore,Offshore,Cross-shore,Offshore",9
5842041f4e65fad6a770889d,2024_04_30,19.606,-155.978,Banyans,3,0.49444444444444446,0.8011111111111111,26,25,"NIGHT_CLEAR,NIGHT_CLEAR,NIGHT_CLEAR,NIGHT_CLEAR,NIGHT_CLEAR,NIGHT_CLEAR,NIGHT_MIST,NIGHT_MIST,NIGHT_CLEAR","Onshore,Onshore,Onshore,Onshore,Cross-shore,Offshore,Cross-shore,Cross-shore,Cross-shore",9
5842041f4e65fad6a770889e,2024_04_30,20.029,-155.831,Kawaihae,2,0.4444,0.6480955555555555,25,25,"NIGHT_CLEAR,NIGHT_CLEAR,NIGHT_MOSTLY_CLOUDY,NIGHT_MOSTLY_CLOUDY,NIGHT_MOSTLY_CLOUDY,NIGHT_CLEAR,NIGHT_MIST,NIGHT_MIST,NIGHT_CLEAR","Onshore,Onshore,Onshore,Onshore,Onshore,Cross-shore,Onshore,Cross-shore,Cross-shore",9
5842041f4e65fad6a770889f,2024_04_30,33.07541383424675,-117.3105,Grandview,3,0.8588888888888889,1.0966666666666667,17,17,"NIGHT_CLEAR,NIGHT_MIST,NIGHT_MIST,NIGHT_MIST,NIGHT_MIST,NIGHT_MIST,NIGHT_DRIZZLE,NIGHT_MIST,MIST","Onshore,Onshore,Onshore,Onshore,Onshore,Onshore,Onshore,Onshore,Onshore",9
5842041f4e65fad6a77088a0,2024_04_30,33.065267421296596,-117.30577,Beacons,3,0.8233333333333334,1.0744444444444445,17,17,"NIGHT_CLEAR,NIGHT_MIST,NIGHT_MIST,NIGHT_MIST,NIGHT_MIST,NIGHT_MIST,NIGHT_DRIZZLE,NIGHT_MIST,MIST","Onshore,Onshore,Onshore,Onshore,Onshore,Onshore,Onshore,Onshore,Onshore",9
5842041f4e65fad6a77088a2,2024_04_30,21.252,-157.805,Diamond Head,3,0.9264533333333334,1.247041111111111,26,25,"NIGHT_CLEAR,NIGHT_MOSTLY_CLEAR,NIGHT_MOSTLY_CLOUDY,NIGHT_MOSTLY_CLOUDY,NIGHT_BRIEF_SHOWERS,NIGHT_MOSTLY_CLOUDY,NIGHT_FOG,NIGHT_MOSTLY_CLOUDY,NIGHT_CLEAR","Cross-shore,Cross-shore,Cross-shore,Cross-shore,Cross-shore,Cross-shore,Onshore,Onshore,Offshore",9
5842041f4e65fad6a77088a3,2024_04_30,33.04694255008896,-117.29966,Moonlight State Beach,3,0.8233333333333334,1.0755555555555556,17,17,"NIGHT_CLEAR,NIGHT_MIST,NIGHT_MIST,NIGHT_MIST,NIGHT_MIST,NIGHT_BRIEF_SHOWERS,NIGHT_MIST,NIGHT_MIST,MIST","Onshore,Onshore,Onshore,Onshore,Onshore,Onshore,Onshore,Onshore,Onshore",9
5842041f4e65fad6a77088a5,2024_04_30,33.08685865930869,-117.31532,Ponto,3,0.9744444444444444,1.1877777777777778,16.333333333333332,16.333333333333332,"NIGHT_CLEAR,NIGHT_MIST,NIGHT_MIST,NIGHT_MIST,NIGHT_MIST,NIGHT_MIST,NIGHT_DRIZZLE,NIGHT_MIST,MIST","Cross-shore,Offshore,Offshore,Offshore,Offshore,Offshore,Offshore,Offshore,Offshore",9
5842041f4e65fad6a77088a6,2024_04_30,33.130343587871906,-117.33668,Terra Mar Point,2.9444444444444446,0.6027888888888889,0.9642259259259259,16,16,"NIGHT_CLEAR,NIGHT_MOSTLY_CLOUDY,NIGHT_MIST,NIGHT_MIST,NIGHT_MIST,NIGHT_OVERCAST,NIGHT_OVERCAST,NIGHT_MIST,OVERCAST","Onshore,Offshore,Offshore,Offshore,Offshore,Cross-shore,Offshore,Offshore,Offshore",9
5842041f4e65fad6a77088af,2024_04_30,32.95916304183685,-117.26963,Del Mar,3,0.8133333333333334,1.0922222222222222,17,17,"NIGHT_CLEAR,NIGHT_MIST,NIGHT_BRIEF_SHOWERS,NIGHT_MIST,NIGHT_MIST,NIGHT_MIST,NIGHT_MIST,NIGHT_MIST,MIST","Cross-shore,Cross-shore,Offshore,Offshore,Offshore,Offshore,Offshore,Offshore,Offshore",9
5842041f4e65fad6a77088b0,2024_04_30,32.97527261243354,-117.2721061331305,Del Mar Rivermouth,3.111111111111111,1.0711111111111111,1.2666666666666666,17,17,"NIGHT_MOSTLY_CLOUDY,NIGHT_MIST,NIGHT_MIST,NIGHT_MIST,NIGHT_MIST,NIGHT_MIST,NIGHT_MIST,NIGHT_MIST,MIST","Cross-shore,Cross-shore,Offshore,Offshore,Offshore,Offshore,Offshore,Offshore,Offshore",9
5842041f4e65fad6a77088b1,2024_04_30,33.01352178146273,-117.28219,Cardiff Reef,3.2222222222222223,1.0295407407407406,1.2862592592592592,16,16,"NIGHT_CLEAR,NIGHT_MIST,NIGHT_MIST,NIGHT_MIST,NIGHT_MIST,NIGHT_MIST,NIGHT_MIST,NIGHT_MIST,MIST","Offshore,Offshore,Offshore,Offshore,Offshore,Cross-shore,Offshore,Offshore,Offshore",9
5842041f4e65fad6a77088b3,2024_04_30,33.00211185876003,-117.2811,Seaside Reef,2.8333333333333335,0.9845407407407407,1.2341407407407408,18,17,"NIGHT_MOSTLY_CLOUDY,NIGHT_MOSTLY_CLOUDY,NIGHT_MIST,NIGHT_MIST,NIGHT_MIST,NIGHT_MIST,NIGHT_MIST,NIGHT_MIST,MIST","Cross-shore,Onshore,Onshore,Onshore,Onshore,Onshore,Onshore,Onshore,Onshore",9
5842041f4e65fad6a77088b4,2024_04_30,33.0341859796287,-117.29552,Swami's,3,0.9485222222222223,1.1898814814814815,16,16,"NIGHT_CLEAR,NIGHT_MIST,NIGHT_MIST,NIGHT_MIST,NIGHT_MIST,NIGHT_MIST,NIGHT_MIST,NIGHT_MIST,MIST","Onshore,Onshore,Onshore,Onshore,Onshore,Onshore,Onshore,Onshore,Cross-shore",9
5842041f4e65fad6a77088b7,2024_04_30,33.04569760260221,-117.2994,D Street,3,0.9622222222222222,1.1922222222222223,17,17,"NIGHT_CLEAR,NIGHT_MIST,NIGHT_MIST,NIGHT_MIST,NIGHT_MIST,NIGHT_BRIEF_SHOWERS,NIGHT_MIST,NIGHT_MIST,MIST","Onshore,Onshore,Onshore,Onshore,Onshore,Onshore,Onshore,Onshore,Cross-shore",9
5842041f4e65fad6a77088b8,2024_04_30,33.02090944350196,-117.28535,San Elijo State Beach,3,0.7418555555555556,1.0634814814814815,16,16,"NIGHT_CLEAR,NIGHT_MIST,NIGHT_MIST,NIGHT_MIST,NIGHT_MIST,NIGHT_MIST,NIGHT_MIST,NIGHT_MIST,MIST","Offshore,Offshore,Offshore,Offshore,Offshore,Cross-shore,Offshore,Offshore,Offshore",9
5842041f4e65fad6a77088c2,2024_04_30,32.80662846492798,-117.26888,PB Point,3.3333333333333335,1.0244444444444445,1.2277777777777776,17,17,"NIGHT_MOSTLY_CLOUDY,NIGHT_MOSTLY_CLOUDY,NIGHT_DRIZZLE,NIGHT_DRIZZLE,NIGHT_DRIZZLE,NIGHT_MIST,NIGHT_MIST,NIGHT_DRIZZLE,DRIZZLE","Onshore,Onshore,Cross-shore,Onshore,Onshore,Onshore,Cross-shore,Cross-shore,Onshore",9
5842041f4e65fad6a77088c4,2024_04_30,32.8060476681448,-117.26479,Old Man's at Tourmaline,3,0.6844444444444444,0.9933333333333333,17,17,"NIGHT_MOSTLY_CLOUDY,NIGHT_MOSTLY_CLOUDY,NIGHT_DRIZZLE,NIGHT_DRIZZLE,NIGHT_DRIZZLE,NIGHT_MIST,NIGHT_MIST,NIGHT_DRIZZLE,DRIZZLE","Onshore,Onshore,Cross-shore,Cross-shore,Onshore,Onshore,Cross-shore,Cross-shore,Onshore",9
5842041f4e65fad6a77088cb,2024_04_30,32.557056711256,-117.1327445020322,Tijuana Slough,2.5555555555555554,0.7233333333333334,0.9988888888888889,15.333333333333334,15.333333333333334,"NIGHT_MOSTLY_CLOUDY,NIGHT_MOSTLY_CLOUDY,NIGHT_MIST,NIGHT_MIST,NIGHT_MIST,NIGHT_MOSTLY_CLOUDY,NIGHT_MIST,NIGHT_MIST,BRIEF_SHOWERS","Onshore,Onshore,Onshore,Onshore,Onshore,Onshore,Onshore,Onshore,Onshore",9
5842041f4e65fad6a77088cc,2024_04_30,32.863,-117.257,La Jolla Shores,3,0.7955555555555556,1.0555555555555556,17,17,"NIGHT_MOSTLY_CLOUDY,NIGHT_MIST,NIGHT_MIST,NIGHT_MIST,NIGHT_MIST,NIGHT_MIST,NIGHT_MIST,NIGHT_MIST,MIST","Cross-shore,Cross-shore,Cross-shore,Cross-shore,Cross-shore,Cross-shore,Cross-shore,Cross-shore,Offshore",9
5842041f4e65fad6a77088ce,2024_04_30,32.67443657790586,-117.17421,Coronado Beach,2.4444444444444446,0.45111111111111113,0.7555555555555555,16,16,"NIGHT_MOSTLY_CLOUDY,NIGHT_MOSTLY_CLOUDY,NIGHT_CLOUDY,NIGHT_OVERCAST,NIGHT_MIST,NIGHT_MIST,NIGHT_MIST,NIGHT_MIST,MIST","Onshore,Onshore,Onshore,Onshore,Onshore,Onshore,Onshore,Onshore,Onshore",9
5842041f4e65fad6a77088cf,2024_04_30,33.40484417640326,-117.60749,San Clemente State Beach,3,0.61,0.9144444444444444,16,16,"NIGHT_MIST,NIGHT_MIST,NIGHT_MIST,NIGHT_MIST,NIGHT_MIST,NIGHT_MOSTLY_CLOUDY,NIGHT_OVERCAST,NIGHT_MIST,MIST","Onshore,Onshore,Onshore,Onshore,Onshore,Onshore,Cross-shore,Cross-shore,Cross-shore",9
5842041f4e65fad6a77088d5,2024_04_30,33.4663042002114,-117.7168352817103,Strands,3,0.870125925925926,1.1537851851851852,16,16,"NIGHT_BRIEF_SHOWERS,NIGHT_MIST,NIGHT_BRIEF_SHOWERS,NIGHT_DRIZZLE,NIGHT_MIST,NIGHT_MIST,NIGHT_MIST,NIGHT_MIST,MIST","Cross-shore,Cross-shore,Cross-shore,Cross-shore,Cross-shore,Cross-shore,Cross-shore,Cross-shore,Cross-shore",9
5842041f4e65fad6a77088d7,2024_04_30,33.4609858001748,-117.68535,Doheny State Beach,2.0366666666666666,0.22006296296296296,0.5252185185185185,17,17,"NIGHT_MOSTLY_CLOUDY,NIGHT_MOSTLY_CLOUDY,NIGHT_MOSTLY_CLOUDY,NIGHT_MIST,NIGHT_MIST,NIGHT_MIST,NIGHT_MIST,NIGHT_MIST,OVERCAST","Onshore,Onshore,Onshore,Onshore,Onshore,Onshore,Cross-shore,Cross-shore,Cross-shore",9
5842041f4e65fad6a77088dc,2024_04_30,33.50894790083017,-117.75243,Aliso Creek,3,0.5011111111111112,0.8055555555555556,15.333333333333334,15.333333333333334,"NIGHT_MIST,NIGHT_MIST,NIGHT_MIST,NIGHT_BRIEF_SHOWERS,NIGHT_BRIEF_SHOWERS,NIGHT_MIST,NIGHT_MIST,NIGHT_MIST,MIST","Onshore,Cross-shore,Onshore,Cross-shore,Cross-shore,Cross-shore,Cross-shore,Cross-shore,Cross-shore",9
5842041f4e65fad6a77088dd,2024_04_30,33.5326591767067,-117.77764,Brooks Street,2,0.3566666666666667,0.6622222222222223,15.333333333333334,15.333333333333334,"NIGHT_MIST,NIGHT_MIST,NIGHT_MIST,NIGHT_MIST,NIGHT_MIST,NIGHT_MIST,NIGHT_MIST,NIGHT_MIST,MIST","Cross-shore,Onshore,Onshore,Onshore,Onshore,Onshore,Cross-shore,Cross-shore,Cross-shore",9
5842041f4e65fad6a77088de,2024_04_30,33.53561225884637,-117.7799,Thalia Street,2.3333333333333335,0.39999999999999997,0.7055555555555556,15.333333333333334,15.333333333333334,"NIGHT_MIST,NIGHT_MIST,NIGHT_MIST,NIGHT_MIST,NIGHT_MIST,NIGHT_MIST,NIGHT_MIST,NIGHT_MIST,MIST","Onshore,Onshore,Onshore,Onshore,Onshore,Onshore,Cross-shore,Cross-shore,Cross-shore",9
5842041f4e65fad6a77088e3,2024_04_30,33.54268310353641,-117.7916,Rockpile,2.6666666666666665,0.3688888888888889,0.6744444444444444,15.333333333333334,15.333333333333334,"NIGHT_MIST,NIGHT_MIST,NIGHT_MIST,NIGHT_MIST,NIGHT_MIST,NIGHT_MIST,NIGHT_MIST,NIGHT_MIST,MIST","Onshore,Onshore,Onshore,Onshore,Onshore,Onshore,Onshore,Cross-shore,Cross-shore",9
5842041f4e65fad6a77088e4,2024_04_30,33.7368459504689,-118.10342,"Seal Beach Pier, Southside",2,0.16333333333333333,0.47,15.333333333333334,15.333333333333334,"NIGHT_BRIEF_SHOWERS,NIGHT_BRIEF_SHOWERS,NIGHT_MIST,NIGHT_MIST,NIGHT_MIST,NIGHT_MIST,NIGHT_MIST,NIGHT_MIST,OVERCAST","Onshore,Onshore,Onshore,Onshore,Cross-shore,Cross-shore,Cross-shore,Cross-shore,Offshore",9
5842041f4e65fad6a77088e5,2024_04_30,33.73933701820233,-118.117,Ray Bay,2,0.10444444444444445,0.41,15.333333333333334,15.333333333333334,"NIGHT_CLEAR,NIGHT_MOSTLY_CLOUDY,NIGHT_MOSTLY_CLOUDY,NIGHT_MOSTLY_CLOUDY,NIGHT_MOSTLY_CLOUDY,NIGHT_MIST,NIGHT_MIST,NIGHT_MIST,OVERCAST","Onshore,Onshore,Cross-shore,Onshore,Cross-shore,Cross-shore,Cross-shore,Cross-shore,Offshore",9
5842041f4e65fad6a77088e7,2024_04_30,33.728733,-118.08982,Surfside,2,0.26222222222222225,0.5688888888888889,15.333333333333334,15.333333333333334,"NIGHT_CLEAR,NIGHT_BRIEF_SHOWERS,NIGHT_MOSTLY_CLOUDY,NIGHT_MOSTLY_CLOUDY,NIGHT_MOSTLY_CLOUDY,NIGHT_MIST,NIGHT_MIST,NIGHT_MIST,OVERCAST","Onshore,Onshore,Onshore,Onshore,Cross-shore,Cross-shore,Cross-shore,Cross-shore,Offshore",9
5842041f4e65fad6a77088e8,2024_04_30,33.68760321488161,-118.04236,Bolsa Chica State Beach,2.8144444444444443,0.8143851851851852,1.0609185185185186,14,14,"NIGHT_MOSTLY_CLEAR,NIGHT_MOSTLY_CLOUDY,NIGHT_MOSTLY_CLOUDY,NIGHT_MOSTLY_CLOUDY,NIGHT_MOSTLY_CLOUDY,NIGHT_MIST,NIGHT_MIST,NIGHT_MIST,OVERCAST","Onshore,Onshore,Onshore,Onshore,Onshore,Cross-shore,Cross-shore,Cross-shore,Offshore",9
5842041f4e65fad6a77088ea,2024_04_30,33.66704400178788,-118.0192,North HB Streets,2.8144444444444443,0.9060518518518519,1.2219333333333333,14,14,"NIGHT_MOSTLY_CLEAR,NIGHT_MOSTLY_CLOUDY,NIGHT_MOSTLY_CLOUDY,NIGHT_MOSTLY_CLOUDY,NIGHT_MOSTLY_CLOUDY,NIGHT_MIST,NIGHT_MIST,NIGHT_MIST,OVERCAST","Onshore,Cross-shore,Cross-shore,Cross-shore,Cross-shore,Cross-shore,Cross-shore,Cross-shore,Cross-shore",9
5842041f4e65fad6a77088ed,2024_04_30,33.65475101379567,-118.00291,Huntington Beach Pier Southside,2.8333333333333335,0.9832444444444445,1.2850666666666668,14,14,"NIGHT_MOSTLY_CLEAR,NIGHT_MOSTLY_CLOUDY,NIGHT_MOSTLY_CLOUDY,NIGHT_MOSTLY_CLOUDY,NIGHT_MOSTLY_CLOUDY,NIGHT_MIST,NIGHT_MIST,NIGHT_MIST,OVERCAST","Cross-shore,Cross-shore,Cross-shore,Cross-shore,Cross-shore,Cross-shore,Cross-shore,Offshore,Offshore",9
5842041f4e65fad6a77088ee,2024_04_30,33.62778647706099,-117.95939,River Jetties,2.388888888888889,0.7990999999999999,1.1173925925925925,16,16,"NIGHT_MOSTLY_CLOUDY,NIGHT_CLEAR,NIGHT_CLEAR,NIGHT_MIST,NIGHT_MIST,NIGHT_MIST,NIGHT_MIST,NIGHT_MIST,MIST","Cross-shore,Cross-shore,Cross-shore,Cross-shore,Cross-shore,Cross-shore,Cross-shore,Cross-shore,Cross-shore",9
5842041f4e65fad6a77088f2,2024_04_30,33.605165797643664,-117.925,Newport Point,2,0.35333333333333333,0.658888888888889,15.333333333333334,15.333333333333334,"NIGHT_MIST,NIGHT_BRIEF_SHOWERS,NIGHT_BRIEF_SHOWERS,NIGHT_BRIEF_SHOWERS,NIGHT_MIST,NIGHT_MIST,NIGHT_MIST,NIGHT_MIST,MIST","Onshore,Onshore,Onshore,Onshore,Onshore,Onshore,Onshore,Cross-shore,Cross-shore",9
5842041f4e65fad6a77088f3,2024_04_30,33.58982984726977,-117.87713,Corona del Mar,1,0.15555666666666668,0.2430577777777778,15.333333333333334,15.333333333333334,"NIGHT_BRIEF_SHOWERS,NIGHT_BRIEF_SHOWERS,NIGHT_BRIEF_SHOWERS,NIGHT_BRIEF_SHOWERS,NIGHT_BRIEF_SHOWERS,NIGHT_MIST,NIGHT_MIST,NIGHT_DRIZZLE,MIST","Offshore,Cross-shore,Cross-shore,Cross-shore,Cross-shore,Offshore,Cross-shore,Offshore,Offshore",9
5842041f4e65fad6a77088f7,2024_04_30,34.00750300824362,-118.4971783496269,Santa Monica Pier,2.7777777777777777,0.3622222222222222,0.6644444444444445,15.333333333333334,15.333333333333334,"NIGHT_CLEAR,NIGHT_MIST,NIGHT_MOSTLY_CLEAR,NIGHT_MOSTLY_CLEAR,NIGHT_MOSTLY_CLEAR,NIGHT_MOSTLY_CLEAR,NIGHT_MOSTLY_CLEAR,NIGHT_MIST,CLEAR","Onshore,Onshore,Onshore,Onshore,Onshore,Onshore,Cross-shore,Offshore,Offshore",9
5842041f4e65fad6a77088ff,2024_04_30,33.94070283102945,-118.44321,Dockweiler Beach,2.888888888888889,0.9266118518518519,1.15791,14,14,"NIGHT_BRIEF_SHOWERS,NIGHT_BRIEF_SHOWERS,NIGHT_MOSTLY_CLEAR,NIGHT_MOSTLY_CLEAR,NIGHT_MOSTLY_CLEAR,NIGHT_CLEAR,NIGHT_MIST,NIGHT_MIST,MIST","Onshore,Onshore,Onshore,Cross-shore,Cross-shore,Cross-shore,Offshore,Offshore,Offshore",9
5842041f4e65fad6a7708900,2024_04_30,33.9231846937237,-118.4341465777908,Shitpipe,2.888888888888889,0.6840148148148149,1.012488888888889,14,14,"NIGHT_BRIEF_SHOWERS,NIGHT_MIST,NIGHT_MOSTLY_CLEAR,NIGHT_MOSTLY_CLEAR,NIGHT_MIST,NIGHT_CLEAR,NIGHT_CLEAR,NIGHT_CLEAR,MIST","Onshore,Onshore,Cross-shore,Offshore,Offshore,Cross-shore,Offshore,Offshore,Offshore",9
5842041f4e65fad6a7708902,2024_04_30,33.9108528052242,-118.4279133138721,Hammerland,2.888888888888889,0.7177185185185185,1.031748148148148,14,14,"NIGHT_BRIEF_SHOWERS,NIGHT_MIST,NIGHT_MOSTLY_CLEAR,NIGHT_MOSTLY_CLEAR,NIGHT_MIST,NIGHT_CLEAR,NIGHT_CLEAR,NIGHT_CLEAR,MIST","Onshore,Onshore,Cross-shore,Offshore,Offshore,Cross-shore,Offshore,Offshore,Offshore",9
5842041f4e65fad6a7708904,2024_04_30,33.87201368173932,-118.40752,Hermosa Beach,2.888888888888889,0.7662666666666667,1.024,14,14,"NIGHT_BRIEF_SHOWERS,NIGHT_MIST,NIGHT_MIST,NIGHT_CLEAR,NIGHT_CLEAR,NIGHT_CLEAR,NIGHT_CLEAR,NIGHT_CLEAR,CLEAR","Onshore,Cross-shore,Offshore,Offshore,Offshore,Offshore,Offshore,Offshore,Offshore",9
5842041f4e65fad6a7708906,2024_04_30,33.90129336911256,-118.42184,El Porto,2.888888888888889,1.1447555555555555,1.377674074074074,14,14,"NIGHT_BRIEF_SHOWERS,NIGHT_MIST,NIGHT_MOSTLY_CLOUDY,NIGHT_CLEAR,NIGHT_CLEAR,NIGHT_CLEAR,NIGHT_MIST,NIGHT_MIST,MIST","Onshore,Onshore,Offshore,Offshore,Offshore,Offshore,Offshore,Offshore,Offshore",9
5842041f4e65fad6a7708907,2024_04_30,33.87963506431794,-118.41102,Manhattan Beach Pier,2.888888888888889,1.0654962962962964,1.318785185185185,14,14,"NIGHT_BRIEF_SHOWERS,NIGHT_MIST,NIGHT_MOSTLY_CLOUDY,NIGHT_CLEAR,NIGHT_CLEAR,NIGHT_CLEAR,NIGHT_MIST,NIGHT_MIST,MIST","Onshore,Onshore,Offshore,Offshore,Offshore,Offshore,Offshore,Offshore,Offshore",9
5842041f4e65fad6a7708914,2024_04_30,34.038053387863464,-118.5532,Sunset Point,2,0.2511111111111111,0.5566666666666666,15.333333333333334,15.333333333333334,"NIGHT_CLEAR,NIGHT_CLEAR,NIGHT_BRIEF_SHOWERS_POSSIBLE,NIGHT_CLEAR,NIGHT_CLEAR,NIGHT_CLEAR,NIGHT_BRIEF_SHOWERS,NIGHT_MOSTLY_CLOUDY,MIST","Cross-shore,Cross-shore,Cross-shore,Offshore,Offshore,Cross-shore,Cross-shore,Cross-shore,Offshore",9
5842041f4e65fad6a7708920,2024_04_30,33.80282,-118.39989,Haggerty's,2,0.306,0.48933333333333334,15,15,"NIGHT_MIST,NIGHT_CLEAR,NIGHT_CLEAR,NIGHT_CLEAR,NIGHT_CLEAR,NIGHT_CLEAR,NIGHT_CLEAR,NIGHT_CLEAR,CLEAR","Onshore,Cross-shore,Offshore,Onshore,Onshore,Onshore,Onshore,Onshore,Onshore",9
5842041f4e65fad6a7708921,2024_04_30,33.85044519861206,-118.40048,Redondo Breakwater,3,0.9577777777777777,1.1622222222222223,15,15,"NIGHT_BRIEF_SHOWERS,NIGHT_MIST,NIGHT_MIST,NIGHT_CLEAR,NIGHT_CLEAR,NIGHT_CLEAR,NIGHT_CLEAR,NIGHT_CLEAR,CLEAR","Onshore,Cross-shore,Offshore,Offshore,Offshore,Offshore,Offshore,Offshore,Offshore",9
5842041f4e65fad6a7708927,2024_04_30,33.70877301002487,-118.2840112858389,Cabrillo Beach,2,0.1411111111111111,0.44555555555555554,15,15,"NIGHT_CLEAR,NIGHT_BRIEF_SHOWERS,NIGHT_BRIEF_SHOWERS,NIGHT_MIST,NIGHT_MIST,NIGHT_MIST,NIGHT_MIST,NIGHT_BRIEF_SHOWERS,MIST","Onshore,Onshore,Onshore,Onshore,Onshore,Onshore,Onshore,Onshore,Offshore",9
5842041f4e65fad6a770892c,2024_04_30,33.77209986806257,-118.4268428476672,Lunada Bay,2,1.0166666666666666,1.2566666666666666,15,15,"NIGHT_MIST,NIGHT_MIST,NIGHT_CLEAR,NIGHT_CLEAR,NIGHT_CLEAR,NIGHT_CLEAR,NIGHT_CLEAR,NIGHT_CLEAR,CLEAR","Onshore,Cross-shore,Offshore,Cross-shore,Cross-shore,Cross-shore,Cross-shore,Offshore,Offshore",9
5842041f4e65fad6a770892d,2024_04_30,33.79294656286144,-118.40703,PV Cove,3,0.8459933333333334,1.09732,15,15,"NIGHT_MIST,NIGHT_CLEAR,NIGHT_CLEAR,NIGHT_CLEAR,NIGHT_CLEAR,NIGHT_CLEAR,NIGHT_CLEAR,NIGHT_CLEAR,CLEAR","Cross-shore,Offshore,Offshore,Offshore,Offshore,Offshore,Offshore,Offshore,Offshore",9
5842041f4e65fad6a7708930,2024_04_30,34.03944902292561,-118.57539,Chart House,1.8888888888888888,0.035555555555555556,0.3411111111111111,15.333333333333334,15.333333333333334,"NIGHT_CLEAR,NIGHT_CLEAR,NIGHT_CLEAR,NIGHT_CLEAR,NIGHT_CLEAR,NIGHT_CLEAR,NIGHT_CLEAR,NIGHT_CLEAR,CLEAR","Cross-shore,Cross-shore,Cross-shore,Cross-shore,Cross-shore,Cross-shore,Cross-shore,Onshore,Cross-shore",9
5842041f4e65fad6a7708936,2024_04_30,34.0016731994772,-118.80456,Point Dume,2,0.1524,0.4582962962962963,14,14,"NIGHT_MIST,NIGHT_MIST,NIGHT_MIST,NIGHT_MIST,NIGHT_MIST,NIGHT_MIST,NIGHT_MIST,NIGHT_MIST,MIST","Onshore,Onshore,Onshore,Onshore,Onshore,Onshore,Onshore,Onshore,Onshore",9
5842041f4e65fad6a7708937,2024_04_30,34.02587527588963,-118.7554939066114,Latigo Point,2,0.12555555555555556,0.43,15.333333333333334,15.333333333333334,"NIGHT_CLEAR,NIGHT_CLEAR,NIGHT_CLEAR,NIGHT_CLEAR,NIGHT_CLEAR,NIGHT_MIST,NIGHT_MIST,NIGHT_MOSTLY_CLEAR,MOSTLY_CLEAR","Offshore,Offshore,Offshore,Cross-shore,Cross-shore,Cross-shore,Cross-shore,Offshore,Offshore",9
5842041f4e65fad6a770893f,2024_04_30,34.043762,-118.93294,Leo Carrillo,2.5555555555555554,0.41253333333333336,0.7184296296296296,14,14,"NIGHT_CLEAR,NIGHT_CLEAR,NIGHT_CLEAR,NIGHT_CLEAR,NIGHT_CLEAR,NIGHT_CLEAR,NIGHT_CLEAR,NIGHT_CLEAR,CLEAR","Offshore,Offshore,Offshore,Offshore,Offshore,Offshore,Offshore,Offshore,Offshore",9
5842041f4e65fad6a7708941,2024_04_30,36.69388179265737,-121.81289,Marina State Beach,2.7777777777777777,1.8955555555555554,2.2022222222222223,13.666666666666666,13.666666666666666,"NIGHT_CLEAR,NIGHT_CLEAR,NIGHT_CLEAR,NIGHT_CLEAR,NIGHT_CLEAR,NIGHT_CLEAR,NIGHT_MIST,NIGHT_MOSTLY_CLEAR,MIST","Onshore,Onshore,Onshore,Onshore,Onshore,Onshore,Onshore,Onshore,Onshore",9
5842041f4e65fad6a7708944,2024_04_30,34.34145077331085,-119.416999352654,Stanley's,2.5555555555555554,0.4411111111111111,0.7477777777777778,14,14,"NIGHT_CLEAR,NIGHT_CLEAR,NIGHT_CLEAR,NIGHT_CLEAR,NIGHT_CLEAR,NIGHT_CLEAR,NIGHT_CLEAR,NIGHT_CLEAR,CLEAR","Offshore,Offshore,Offshore,Offshore,Offshore,Offshore,Offshore,Offshore,Offshore",9
5842041f4e65fad6a7708945,2024_04_30,34.35113017313915,-119.426921498899,Oil Piers,3,0.35333333333333333,0.6566666666666666,14,14,"NIGHT_CLEAR,NIGHT_CLEAR,NIGHT_CLEAR,NIGHT_CLEAR,NIGHT_CLEAR,NIGHT_CLEAR,NIGHT_CLEAR,NIGHT_CLEAR,CLEAR","Cross-shore,Offshore,Offshore,Offshore,Offshore,Offshore,Offshore,Offshore,Offshore",9
5842041f4e65fad6a770894c,2024_04_30,34.17876333306018,-119.23995,Oxnard,3,0.9411111111111111,1.1022222222222222,14.333333333333334,14.333333333333334,"NIGHT_CLEAR,NIGHT_MIST,NIGHT_CLEAR,NIGHT_CLEAR,NIGHT_CLEAR,NIGHT_CLEAR,NIGHT_CLEAR,NIGHT_CLEAR,CLEAR","Onshore,Onshore,Onshore,Onshore,Cross-shore,Offshore,Offshore,Offshore,Offshore",9
5842041f4e65fad6a7708957,2024_04_30,34.31720331100517,-119.3882324751725,Pitas Point,3,0.4411111111111111,0.7477777777777778,14,14,"NIGHT_CLEAR,NIGHT_CLEAR,NIGHT_CLEAR,NIGHT_CLEAR,NIGHT_CLEAR,NIGHT_CLEAR,NIGHT_CLEAR,NIGHT_CLEAR,CLEAR","Offshore,Offshore,Offshore,Offshore,Offshore,Offshore,Offshore,Offshore,Offshore",9
5842041f4e65fad6a7708959,2024_04_30,34.27851754384724,-119.3162,Emma Wood,3,0.42333333333333334,0.7277777777777777,14,14,"NIGHT_CLEAR,NIGHT_CLEAR,NIGHT_CLEAR,NIGHT_CLEAR,NIGHT_CLEAR,NIGHT_CLEAR,NIGHT_CLEAR,NIGHT_CLEAR,CLEAR","Cross-shore,Offshore,Offshore,Offshore,Offshore,Offshore,Cross-shore,Offshore,Offshore",9
5842041f4e65fad6a770895a,2024_04_30,34.35513640390276,-119.4400589884255,Mussel Shoals (aka Little Rincon),3,0.4411111111111111,0.7455555555555555,14,14,"NIGHT_CLEAR,NIGHT_CLEAR,NIGHT_CLEAR,NIGHT_CLEAR,NIGHT_CLEAR,NIGHT_CLEAR,NIGHT_CLEAR,NIGHT_CLEAR,CLEAR","Cross-shore,Offshore,Offshore,Offshore,Offshore,Offshore,Onshore,Offshore,Offshore",9
5842041f4e65fad6a770895e,2024_04_30,34.28991757054902,-119.3366646794652,Summer Beach,2.5555555555555554,0.3088888888888889,0.611111111111111,14,14,"NIGHT_CLEAR,NIGHT_CLEAR,NIGHT_CLEAR,NIGHT_CLEAR,NIGHT_CLEAR,NIGHT_CLEAR,NIGHT_CLEAR,NIGHT_CLEAR,CLEAR","Onshore,Offshore,Offshore,Offshore,Offshore,Offshore,Offshore,Offshore,Offshore",9
5842041f4e65fad6a770895f,2024_04_30,34.30897456105926,-119.3582501170116,Solimar,2.6666666666666665,0.31555555555555553,0.6211111111111111,14,14,"NIGHT_CLEAR,NIGHT_CLEAR,NIGHT_CLEAR,NIGHT_CLEAR,NIGHT_CLEAR,NIGHT_CLEAR,NIGHT_CLEAR,NIGHT_CLEAR,CLEAR","Offshore,Offshore,Offshore,Offshore,Offshore,Offshore,Offshore,Offshore,Offshore",9
5842041f4e65fad6a7708960,2024_04_30,34.39836265281686,-119.70213,Leadbetter Point,2,0.021111111111111112,0.32666666666666666,13.333333333333334,13.333333333333334,"NIGHT_CLEAR,NIGHT_CLEAR,NIGHT_CLEAR,NIGHT_CLEAR,NIGHT_CLEAR,NIGHT_CLEAR,NIGHT_CLEAR,NIGHT_CLEAR,CLEAR","Offshore,Offshore,Offshore,Offshore,Offshore,Offshore,Offshore,Onshore,Cross-shore",9
5842041f4e65fad6a7708961,2024_04_30,34.46052293893899,-120.07328,Refugio,1.2222222222222223,0.043333333333333335,0.3466666666666667,13.333333333333334,13.333333333333334,"NIGHT_CLEAR,NIGHT_CLEAR,NIGHT_CLEAR,NIGHT_CLEAR,NIGHT_CLEAR,NIGHT_CLEAR,NIGHT_CLEAR,NIGHT_CLEAR,CLEAR","Offshore,Offshore,Offshore,Offshore,Offshore,Offshore,Offshore,Offshore,Cross-shore",9
5842041f4e65fad6a7708962,2024_04_30,34.40754276777778,-119.87639,Devereux,3,0.3422222222222222,0.6455555555555555,13.333333333333334,13.333333333333334,"NIGHT_CLEAR,NIGHT_CLEAR,NIGHT_CLEAR,NIGHT_CLEAR,NIGHT_CLEAR,NIGHT_CLEAR,NIGHT_CLEAR,NIGHT_CLEAR,CLEAR","Offshore,Offshore,Offshore,Offshore,Offshore,Offshore,Offshore,Offshore,Cross-shore",9
5842041f4e65fad6a7708963,2024_04_30,34.27479983305182,-119.3133222656776,Ventura Overhead,3,0.44333333333333336,0.7477777777777778,14,14,"NIGHT_CLEAR,NIGHT_CLEAR,NIGHT_CLEAR,NIGHT_CLEAR,NIGHT_CLEAR,NIGHT_CLEAR,NIGHT_CLEAR,NIGHT_CLEAR,CLEAR","Onshore,Offshore,Offshore,Offshore,Offshore,Offshore,Offshore,Offshore,Offshore",9
5842041f4e65fad6a7708964,2024_04_30,34.41023236011655,-119.88261,Sands,2.6666666666666665,0.4222222222222222,0.7255555555555555,13.333333333333334,13.333333333333334,"NIGHT_CLEAR,NIGHT_CLEAR,NIGHT_CLEAR,NIGHT_CLEAR,NIGHT_CLEAR,NIGHT_CLEAR,NIGHT_CLEAR,NIGHT_CLEAR,CLEAR","Cross-shore,Offshore,Offshore,Offshore,Offshore,Offshore,Offshore,Offshore,Offshore",9
5842041f4e65fad6a7708966,2024_04_30,34.40450193869233,-119.68752,Sandspit,1,0,0.20777777777777778,13.333333333333334,13.333333333333334,"NIGHT_CLEAR,NIGHT_CLEAR,NIGHT_CLEAR,NIGHT_CLEAR,NIGHT_CLEAR,NIGHT_CLEAR,NIGHT_CLEAR,NIGHT_CLEAR,CLEAR","Offshore,Offshore,Offshore,Offshore,Offshore,Offshore,Offshore,Cross-shore,Cross-shore",9
5842041f4e65fad6a7708967,2024_04_30,34.41549098334453,-119.6375149840203,Hammond's,1.8888888888888888,0.035555555555555556,0.3411111111111111,13.333333333333334,13.333333333333334,"NIGHT_CLEAR,NIGHT_CLEAR,NIGHT_CLEAR,NIGHT_CLEAR,NIGHT_CLEAR,NIGHT_CLEAR,NIGHT_CLEAR,NIGHT_CLEAR,CLEAR","Cross-shore,Offshore,Cross-shore,Cross-shore,Cross-shore,Cross-shore,Cross-shore,Cross-shore,Cross-shore",9
5842041f4e65fad6a7708968,2024_04_30,34.45759322742309,-120.02203,El Capitan,2,0.14555555555555555,0.45111111111111113,13.333333333333334,13.333333333333334,"NIGHT_CLEAR,NIGHT_CLEAR,NIGHT_CLEAR,NIGHT_CLEAR,NIGHT_CLEAR,NIGHT_CLEAR,NIGHT_CLEAR,NIGHT_CLEAR,CLEAR","Cross-shore,Cross-shore,Cross-shore,Cross-shore,Offshore,Offshore,Offshore,Cross-shore,Cross-shore",9
5842041f4e65fad6a770896c,2024_04_30,34.405117655616,-119.84317,Campus Point,2,0.15888888888888889,0.4622222222222222,13.333333333333334,13.333333333333334,"NIGHT_CLEAR,NIGHT_CLEAR,NIGHT_CLEAR,NIGHT_CLEAR,NIGHT_CLEAR,NIGHT_CLEAR,NIGHT_CLEAR,NIGHT_CLEAR,CLEAR","Offshore,Offshore,Cross-shore,Cross-shore,Cross-shore,Cross-shore,Offshore,Cross-shore,Cross-shore",9
5842041f4e65fad6a770896e,2024_04_30,34.38935162233354,-119.51955,Carpinteria State Beach,2,0.24666666666666667,0.5488888888888889,14,14,"NIGHT_MIST,NIGHT_CLEAR,NIGHT_CLEAR,NIGHT_CLEAR,NIGHT_CLEAR,NIGHT_CLEAR,NIGHT_CLEAR,NIGHT_CLEAR,CLEAR","Offshore,Offshore,Offshore,Offshore,Offshore,Offshore,Cross-shore,Offshore,Offshore",9
5842041f4e65fad6a770896f,2024_04_30,37.48296565175612,-122.45493,Half Moon Bay,2.7777777777777777,1.6077777777777778,1.9133333333333333,15,15,"NIGHT_CLEAR,NIGHT_CLEAR,NIGHT_CLEAR,NIGHT_CLEAR,NIGHT_CLEAR,NIGHT_CLEAR,NIGHT_CLEAR,NIGHT_CLEAR,CLEAR","Cross-shore,Cross-shore,Cross-shore,Cross-shore,Cross-shore,Cross-shore,Cross-shore,Cross-shore,Cross-shore",9
5842041f4e65fad6a7708970,2024_04_30,37.499,-122.471,Princeton Jetty,2.888888888888889,1.1666666666666667,1.4044444444444444,15,15,"NIGHT_CLEAR,NIGHT_CLEAR,NIGHT_CLEAR,NIGHT_SHOWERS,NIGHT_CLEAR,NIGHT_CLEAR,NIGHT_CLEAR,NIGHT_CLEAR,CLEAR","Cross-shore,Offshore,Offshore,Offshore,Offshore,Offshore,Offshore,Offshore,Offshore",9
5842041f4e65fad6a7708972,2024_04_30,37.35699547365155,-122.4069534707252,Tunitas Creek,2,2.7744444444444443,3.078888888888889,15,15,"NIGHT_CLEAR,NIGHT_CLEAR,NIGHT_CLEAR,NIGHT_CLEAR,NIGHT_CLEAR,NIGHT_CLEAR,NIGHT_CLEAR,NIGHT_CLEAR,CLEAR","Cross-shore,Cross-shore,Cross-shore,Cross-shore,Cross-shore,Cross-shore,Cross-shore,Cross-shore,Cross-shore",9
5842041f4e65fad6a7708974,2024_04_30,37.54735589428842,-122.51611,Montara,1,2.5100000000000002,2.8155555555555556,14,14,"NIGHT_CLEAR,NIGHT_CLEAR,NIGHT_CLEAR,NIGHT_CLEAR,NIGHT_CLEAR,NIGHT_CLEAR,NIGHT_CLEAR,NIGHT_CLEAR,CLEAR","Onshore,Onshore,Onshore,Onshore,Onshore,Onshore,Onshore,Onshore,Onshore",9
5842041f4e65fad6a7708975,2024_04_30,34.3869373724559,-119.5142334209018,Tarpits,2,0.24333333333333335,0.5466666666666666,14,14,"NIGHT_CLEAR,NIGHT_CLEAR,NIGHT_CLEAR,NIGHT_CLEAR,NIGHT_CLEAR,NIGHT_CLEAR,NIGHT_CLEAR,NIGHT_CLEAR,CLEAR","Cross-shore,Offshore,Cross-shore,Offshore,Cross-shore,Cross-shore,Offshore,Onshore,Cross-shore",9
5842041f4e65fad6a7708976,2024_04_30,37.59881852720143,-122.50463,Linda Mar,1.4444444444444444,0.7075333333333333,1.0389851851851852,14,14,"NIGHT_CLEAR,NIGHT_CLEAR,NIGHT_CLEAR,NIGHT_CLEAR,NIGHT_CLEAR,NIGHT_CLEAR,NIGHT_CLEAR,NIGHT_CLEAR,CLEAR","Onshore,Onshore,Onshore,Onshore,Onshore,Onshore,Onshore,Onshore,Onshore",9
5842041f4e65fad6a7708978,2024_04_30,37.59883098461164,-122.5143843582282,Pedro Point,1.8888888888888888,2.581111111111111,2.888888888888889,14.666666666666666,14.666666666666666,"NIGHT_CLEAR,NIGHT_CLEAR,NIGHT_CLEAR,NIGHT_CLEAR,NIGHT_CLEAR,NIGHT_CLEAR,NIGHT_CLEAR,NIGHT_CLEAR,CLEAR","Onshore,Onshore,Onshore,Onshore,Onshore,Onshore,Onshore,Onshore,Onshore",9
5842041f4e65fad6a7708979,2024_04_30,37.61081996647663,-122.49733,Rockaway,2.2222222222222223,2.4811111111111113,2.783333333333333,15,15,"NIGHT_CLEAR,NIGHT_CLEAR,NIGHT_CLEAR,NIGHT_CLEAR,NIGHT_CLEAR,NIGHT_CLEAR,NIGHT_CLEAR,NIGHT_CLEAR,CLEAR","Onshore,Onshore,Onshore,Onshore,Onshore,Onshore,Onshore,Onshore,Onshore",9
5842041f4e65fad6a770897a,2024_04_30,37.809987384424446,-122.47514,Fort Point,3.888888888888889,1.3444444444444446,1.6488888888888888,15,15,"NIGHT_CLEAR,NIGHT_CLEAR,NIGHT_CLEAR,NIGHT_CLEAR,NIGHT_CLEAR,NIGHT_CLEAR,NIGHT_CLEAR,NIGHT_CLEAR,CLEAR","Offshore,Offshore,Cross-shore,Offshore,Offshore,Onshore,Onshore,Cross-shore,Onshore",9
5842041f4e65fad6a770897c,2024_04_30,37.63422542967464,-122.4951,Sharp Park,2,2.551111111111111,2.8555555555555556,15,15,"NIGHT_CLEAR,NIGHT_CLEAR,NIGHT_CLEAR,NIGHT_CLEAR,NIGHT_CLEAR,NIGHT_CLEAR,NIGHT_CLEAR,NIGHT_CLEAR,CLEAR","Onshore,Cross-shore,Onshore,Onshore,Onshore,Onshore,Onshore,Onshore,Cross-shore",9
5842041f4e65fad6a770897d,2024_04_30,37.27313605072472,-122.4127387912554,Pescadero,0.2222222222222222,2.7577777777777777,3.0633333333333335,14,14,"NIGHT_CLEAR,NIGHT_CLEAR,NIGHT_CLEAR,NIGHT_CLEAR,NIGHT_CLEAR,NIGHT_CLEAR,NIGHT_CLEAR,NIGHT_CLEAR,CLEAR","Onshore,Cross-shore,Cross-shore,Cross-shore,Cross-shore,Cross-shore,Cross-shore,Cross-shore,Cross-shore",9
5842041f4e65fad6a770897e,2024_04_30,37.18140279972666,-122.3926685899327,Pigeon Point,3,2.4788888888888887,2.7855555555555553,14,14,"NIGHT_CLEAR,NIGHT_CLEAR,NIGHT_MOSTLY_CLEAR,NIGHT_CLEAR,NIGHT_CLEAR,NIGHT_CLEAR,NIGHT_CLEAR,NIGHT_CLEAR,CLEAR","Offshore,Offshore,Offshore,Offshore,Offshore,Offshore,Offshore,Offshore,Offshore",9
5842041f4e65fad6a770897f,2024_04_30,37.11578956919415,-122.314699271291,Ano Nuevo,3.5555555555555554,1.5733333333333333,1.788888888888889,14,14,"NIGHT_CLEAR,NIGHT_CLEAR,NIGHT_CLEAR,NIGHT_MOSTLY_CLEAR,NIGHT_MOSTLY_CLEAR,NIGHT_MOSTLY_CLEAR,NIGHT_CLEAR,NIGHT_CLEAR,CLEAR","Offshore,Offshore,Offshore,Offshore,Offshore,Offshore,Offshore,Offshore,Offshore",9
5842041f4e65fad6a7708980,2024_04_30,37.09520872681598,-122.2805474707768,Waddell Creek,3,1.8633333333333333,2.1644444444444444,14,14,"NIGHT_CLEAR,NIGHT_CLEAR,NIGHT_CLEAR,NIGHT_CLEAR,NIGHT_CLEAR,NIGHT_MOSTLY_CLEAR,NIGHT_MOSTLY_CLEAR,NIGHT_CLEAR,CLEAR","Offshore,Offshore,Offshore,Offshore,Offshore,Offshore,Offshore,Offshore,Offshore",9
5842041f4e65fad6a7708981,2024_04_30,36.96512852130351,-122.1252825495626,Four Mile,4,1.2244444444444444,1.518888888888889,13,13,"NIGHT_CLEAR,NIGHT_CLEAR,NIGHT_CLEAR,NIGHT_CLEAR,NIGHT_CLEAR,NIGHT_CLEAR,NIGHT_CLEAR,NIGHT_CLEAR,CLEAR","Cross-shore,Offshore,Offshore,Offshore,Offshore,Offshore,Offshore,Offshore,Offshore",9
5842041f4e65fad6a7708982,2024_04_30,37.04122807048655,-122.23337,Scott Creek,2.888888888888889,2.0366666666666666,2.3377777777777777,13.666666666666666,13.666666666666666,"NIGHT_CLEAR,NIGHT_CLEAR,NIGHT_CLEAR,NIGHT_CLEAR,NIGHT_CLEAR,NIGHT_CLEAR,NIGHT_CLEAR,NIGHT_CLEAR,CLEAR","Cross-shore,Cross-shore,Cross-shore,Offshore,Offshore,Offshore,Offshore,Offshore,Offshore",9
5842041f4e65fad6a7708983,2024_04_30,37.02350229387179,-122.21908,Davenport,3.4444444444444446,1.6344444444444444,1.9466666666666665,13.666666666666666,13.666666666666666,"NIGHT_CLEAR,NIGHT_CLEAR,NIGHT_CLEAR,NIGHT_CLEAR,NIGHT_CLEAR,NIGHT_CLEAR,NIGHT_CLEAR,NIGHT_CLEAR,CLEAR","Cross-shore,Cross-shore,Cross-shore,Offshore,Offshore,Offshore,Offshore,Offshore,Offshore",9
5842041f4e65fad6a7708986,2024_04_30,36.94905295955728,-122.06118,Natural Bridges,3.888888888888889,1.59,1.8433333333333333,13,13,"NIGHT_CLEAR,NIGHT_CLEAR,NIGHT_CLEAR,NIGHT_CLEAR,NIGHT_CLEAR,NIGHT_CLEAR,NIGHT_CLEAR,NIGHT_CLEAR,CLEAR","Offshore,Offshore,Cross-shore,Offshore,Offshore,Cross-shore,Cross-shore,Cross-shore,Cross-shore",9
5842041f4e65fad6a7708987,2024_04_30,36.95154854910425,-122.04207,Mitchell's Cove,3,0.6166666666666667,0.9222222222222223,13.333333333333334,13.333333333333334,"NIGHT_CLEAR,NIGHT_CLEAR,NIGHT_CLEAR,NIGHT_CLEAR,NIGHT_CLEAR,NIGHT_CLEAR,NIGHT_CLEAR,NIGHT_CLEAR,CLEAR","Cross-shore,Offshore,Offshore,Offshore,Offshore,Offshore,Onshore,Onshore,Offshore",9
5842041f4e65fad6a770898a,2024_04_30,36.9572312370203,-121.98177,26th Ave,3,1.017777777777778,1.267777777777778,14,14,"NIGHT_CLEAR,NIGHT_CLEAR,NIGHT_CLEAR,NIGHT_CLEAR,NIGHT_CLEAR,NIGHT_CLEAR,NIGHT_CLEAR,NIGHT_CLEAR,CLEAR","Cross-shore,Cross-shore,Cross-shore,Offshore,Offshore,Cross-shore,Offshore,Offshore,Cross-shore",9
5842041f4e65fad6a770898e,2024_04_30,36.91899972819882,-121.85536,Manresa,3.4444444444444446,1.3800000000000001,1.6555555555555554,14,14,"NIGHT_CLEAR,NIGHT_CLEAR,NIGHT_CLEAR,NIGHT_CLEAR,NIGHT_CLEAR,NIGHT_CLEAR,NIGHT_CLEAR,NIGHT_CLEAR,CLEAR","Onshore,Onshore,Cross-shore,Offshore,Offshore,Offshore,Offshore,Offshore,Offshore",9
5842041f4e65fad6a7708990,2024_04_30,34.45747731928454,-120.34242,The Ranch,2,0.36777777777777776,0.6722222222222222,12.666666666666666,12.666666666666666,"NIGHT_CLEAR,NIGHT_CLEAR,NIGHT_CLEAR,NIGHT_CLEAR,NIGHT_CLEAR,NIGHT_CLEAR,NIGHT_CLEAR,NIGHT_CLEAR,CLEAR","Offshore,Offshore,Offshore,Offshore,Offshore,Cross-shore,Onshore,Cross-shore,Cross-shore",9
5842041f4e65fad6a7708991,2024_04_30,34.50875036590315,-120.50348,Jalama,1.2222222222222223,1.0066666666666666,1.2144444444444444,12.666666666666666,12.666666666666666,"NIGHT_CLEAR,NIGHT_CLEAR,NIGHT_CLEAR,NIGHT_CLEAR,NIGHT_CLEAR,NIGHT_CLEAR,NIGHT_CLEAR,NIGHT_CLEAR,CLEAR","Offshore,Offshore,Offshore,Offshore,Offshore,Offshore,Offshore,Offshore,Offshore",9
5842041f4e65fad6a7708996,2024_04_30,34.68700870220497,-120.6111611019887,Surf Beach,1,3.118888888888889,3.3966666666666665,12.666666666666666,12.666666666666666,"NIGHT_CLEAR,NIGHT_CLEAR,NIGHT_CLEAR,NIGHT_CLEAR,NIGHT_CLEAR,NIGHT_CLEAR,NIGHT_CLEAR,NIGHT_CLEAR,CLEAR","Onshore,Onshore,Onshore,Onshore,Onshore,Onshore,Onshore,Onshore,Onshore",9
5842041f4e65fad6a770899c,2024_04_30,35.5730538161116,-121.1143362345574,Moonstone,3,1.5877777777777777,1.8133333333333332,12,12,"NIGHT_CLEAR,NIGHT_CLEAR,NIGHT_CLEAR,NIGHT_CLEAR,NIGHT_CLEAR,NIGHT_CLEAR,NIGHT_CLEAR,NIGHT_CLEAR,CLEAR","Cross-shore,Cross-shore,Cross-shore,Cross-shore,Cross-shore,Offshore,Offshore,Offshore,Offshore",9
5842041f4e65fad6a770899d,2024_04_30,35.61533716776573,-121.1502053073914,Pico Creek,3.111111111111111,1.7066666666666668,2.011111111111111,13,13,"NIGHT_CLEAR,NIGHT_CLEAR,NIGHT_CLEAR,NIGHT_CLEAR,NIGHT_CLEAR,NIGHT_CLEAR,NIGHT_CLEAR,NIGHT_CLEAR,CLEAR","Cross-shore,Offshore,Cross-shore,Offshore,Offshore,Offshore,Offshore,Offshore,Offshore",9
5842041f4e65fad6a770899e,2024_04_30,35.56829031927379,-121.11207,Santa Rosa Creek,3,1.5877777777777777,1.8133333333333332,12,12,"NIGHT_CLEAR,NIGHT_CLEAR,NIGHT_CLEAR,NIGHT_CLEAR,NIGHT_CLEAR,NIGHT_CLEAR,NIGHT_CLEAR,NIGHT_CLEAR,CLEAR","Cross-shore,Cross-shore,Cross-shore,Cross-shore,Cross-shore,Cross-shore,Cross-shore,Cross-shore,Onshore",9
5842041f4e65fad6a77089a2,2024_04_30,35.44820114936284,-120.90715,"Cayucos Pier, Southside ",3,0.7144444444444444,1.001111111111111,12,12,"NIGHT_CLEAR,NIGHT_CLEAR,NIGHT_CLEAR,NIGHT_CLEAR,NIGHT_CLEAR,NIGHT_CLEAR,NIGHT_CLEAR,NIGHT_CLEAR,CLEAR","Offshore,Offshore,Offshore,Offshore,Offshore,Offshore,Offshore,Offshore,Offshore",9
5842041f4e65fad6a77089a4,2024_04_30,35.30143372628852,-120.877819239902,Cable Landing,2.4444444444444446,3.6577777777777776,3.9033333333333333,12,12,"NIGHT_CLEAR,NIGHT_CLEAR,NIGHT_CLEAR,NIGHT_CLEAR,NIGHT_CLEAR,NIGHT_CLEAR,NIGHT_CLEAR,NIGHT_CLEAR,CLEAR","Onshore,Onshore,Onshore,Onshore,Onshore,Cross-shore,Offshore,Offshore,Offshore",9
5842041f4e65fad6a77089a9,2024_04_30,35.61269103500222,-121.14807,San Simeon,3,1.0406666666666666,1.2327777777777778,13,13,"NIGHT_CLEAR,NIGHT_CLEAR,NIGHT_CLEAR,NIGHT_CLEAR,NIGHT_CLEAR,NIGHT_CLEAR,NIGHT_CLEAR,NIGHT_CLEAR,CLEAR","Offshore,Offshore,Offshore,Offshore,Offshore,Offshore,Offshore,Offshore,Offshore",9
5842041f4e65fad6a77089ab,2024_04_30,35.1775325966252,-120.73411,Avila Beach,1,0,0.24555555555555555,13,13,"NIGHT_CLEAR,NIGHT_CLEAR,NIGHT_CLEAR,NIGHT_CLEAR,NIGHT_CLEAR,NIGHT_CLEAR,NIGHT_CLEAR,NIGHT_CLEAR,CLEAR","Onshore,Offshore,Offshore,Onshore,Cross-shore,Cross-shore,Offshore,Offshore,Cross-shore",9
5842041f4e65fad6a77089ac,2024_04_30,35.13877877884115,-120.64535,Pismo Beach Pier,2.7777777777777777,1.2715851851851852,1.5220148148148147,12,12,"NIGHT_CLEAR,NIGHT_CLEAR,NIGHT_CLEAR,NIGHT_CLEAR,NIGHT_CLEAR,NIGHT_CLEAR,NIGHT_CLEAR,NIGHT_CLEAR,CLEAR","Cross-shore,Cross-shore,Cross-shore,Offshore,Cross-shore,Onshore,Cross-shore,Offshore,Cross-shore",9
5842041f4e65fad6a77089ad,2024_04_30,46.8907710233147,-124.12964,Westport/Olympic Peninsula,2.4444444444444446,1.7233333333333334,2.0277777777777777,11,11,"NIGHT_MOSTLY_CLOUDY,NIGHT_HEAVY_RAIN,NIGHT_CLEAR,NIGHT_CLEAR,NIGHT_MOSTLY_CLOUDY,NIGHT_BRIEF_SHOWERS,NIGHT_MOSTLY_CLOUDY,NIGHT_HEAVY_SHOWERS,BRIEF_SHOWERS","Onshore,Onshore,Onshore,Onshore,Onshore,Onshore,Cross-shore,Cross-shore,Offshore",9
5842041f4e65fad6a77089ae,2024_04_30,46.35185177248545,-124.06747,Long Beach Peninsula,1.2222222222222223,2.4055555555555554,2.657777777777778,11,11,"NIGHT_MOSTLY_CLOUDY,NIGHT_MOSTLY_CLOUDY,NIGHT_MOSTLY_CLOUDY,NIGHT_CLEAR,NIGHT_MOSTLY_CLOUDY,NIGHT_CLEAR,NIGHT_CLEAR,NIGHT_CLEAR,CLEAR","Onshore,Cross-shore,Onshore,Onshore,Onshore,Onshore,Onshore,Onshore,Onshore",9
5842041f4e65fad6a77089af,2024_04_30,47.90649175554033,-124.63709,La Push,3.2222222222222223,2.0944444444444446,2.3577777777777778,10,10,"NIGHT_CLEAR,NIGHT_BRIEF_SHOWERS,NIGHT_BRIEF_SHOWERS,NIGHT_CLEAR,NIGHT_MOSTLY_CLOUDY,NIGHT_CLEAR,NIGHT_CLEAR,NIGHT_CLEAR,MOSTLY_CLEAR","Offshore,Offshore,Onshore,Offshore,Offshore,Offshore,Offshore,Offshore,Offshore",9
5842041f4e65fad6a77089b0,2024_04_30,42.04368239985442,-124.26828,Brookings Jetty,3,0.7958422222222222,1.2435033333333334,10.333333333333334,10.333333333333334,"NIGHT_CLEAR,NIGHT_CLEAR,NIGHT_CLEAR,NIGHT_CLEAR,NIGHT_MOSTLY_CLEAR,NIGHT_MOSTLY_CLEAR,NIGHT_CLEAR,NIGHT_CLEAR,CLEAR","Offshore,Offshore,Offshore,Offshore,Offshore,Offshore,Offshore,Offshore,Offshore",9
5842041f4e65fad6a77089b1,2024_04_30,42.74071837900346,-124.4983727491047,Port Orford,3,1.0677777777777777,1.3522222222222222,10.333333333333334,10.333333333333334,"NIGHT_MOSTLY_CLEAR,NIGHT_MOSTLY_CLOUDY,NIGHT_MOSTLY_CLOUDY,NIGHT_MOSTLY_CLOUDY,NIGHT_MOSTLY_CLOUDY,NIGHT_MOSTLY_CLEAR,NIGHT_MOSTLY_CLOUDY,NIGHT_CLEAR,MOSTLY_CLOUDY","Offshore,Cross-shore,Cross-shore,Cross-shore,Cross-shore,Offshore,Offshore,Cross-shore,Offshore",9
5842041f4e65fad6a77089b2,2024_04_30,44.01532689312291,-124.13865,Florence South Jetty,1.7777777777777777,2.316666666666667,2.591111111111111,10,10,"NIGHT_MOSTLY_CLOUDY,NIGHT_CLEAR,NIGHT_BRIEF_SHOWERS,NIGHT_CLEAR,NIGHT_MOSTLY_CLOUDY,NIGHT_SHOWERS,NIGHT_CLEAR,NIGHT_MOSTLY_CLOUDY,MOSTLY_CLOUDY","Onshore,Onshore,Onshore,Onshore,Onshore,Onshore,Onshore,Onshore,Onshore",9
5842041f4e65fad6a77089b3,2024_04_30,42.41812540774362,-124.42945,Gold Beach South Jetty,3.2222222222222223,1.7066666666666668,1.9655555555555555,10.333333333333334,10.333333333333334,"NIGHT_MOSTLY_CLEAR,NIGHT_SHOWERS,NIGHT_CLEAR,NIGHT_BRIEF_SHOWERS,NIGHT_MOSTLY_CLOUDY,NIGHT_BRIEF_SHOWERS,NIGHT_CLEAR,NIGHT_FOG,BRIEF_SHOWERS","Offshore,Offshore,Offshore,Cross-shore,Cross-shore,Offshore,Offshore,Offshore,Offshore",9
5842041f4e65fad6a77089b4,2024_04_30,44.95857310226525,-124.0219,Lincoln City,1.5555555555555556,2.307777777777778,2.5388888888888888,11,11,"NIGHT_MOSTLY_CLOUDY,NIGHT_MOSTLY_CLOUDY,NIGHT_MOSTLY_CLOUDY,NIGHT_BRIEF_SHOWERS,NIGHT_MOSTLY_CLOUDY,NIGHT_OVERCAST,NIGHT_LIGHT_RAIN,NIGHT_BRIEF_SHOWERS,MOSTLY_CLOUDY","Onshore,Onshore,Onshore,Onshore,Onshore,Onshore,Onshore,Onshore,Onshore",9
5842041f4e65fad6a77089b5,2024_04_30,44.63792761362982,-124.0657,Newport,1.7777777777777777,2.5155555555555553,2.7688888888888887,11,11,"NIGHT_OVERCAST,NIGHT_BRIEF_SHOWERS,NIGHT_MOSTLY_CLOUDY,NIGHT_MOSTLY_CLOUDY,NIGHT_MOSTLY_CLOUDY,NIGHT_MOSTLY_CLOUDY,NIGHT_BRIEF_SHOWERS,NIGHT_MOSTLY_CLOUDY,BRIEF_SHOWERS","Onshore,Onshore,Onshore,Onshore,Onshore,Onshore,Onshore,Onshore,Onshore",9
5842041f4e65fad6a77089b6,2024_04_30,45.61468496266301,-123.94643,Rockaway Beach,1.6666666666666667,2.402222222222222,2.658888888888889,11,11,"NIGHT_BRIEF_SHOWERS,NIGHT_SHOWERS,NIGHT_MOSTLY_CLOUDY,NIGHT_CLEAR,NIGHT_MOSTLY_CLOUDY,NIGHT_SHOWERS,NIGHT_CLEAR,NIGHT_BRIEF_SHOWERS,BRIEF_SHOWERS","Onshore,Cross-shore,Onshore,Onshore,Onshore,Onshore,Onshore,Onshore,Onshore",9
5842041f4e65fad6a77089b7,2024_04_30,45.20252914186085,-123.96975,Pacific City,1.6666666666666667,2.0344444444444445,2.2644444444444445,11,11,"NIGHT_MOSTLY_CLOUDY,NIGHT_BRIEF_SHOWERS,NIGHT_HEAVY_SHOWERS,NIGHT_MOSTLY_CLOUDY,NIGHT_MOSTLY_CLOUDY,NIGHT_MOSTLY_CLOUDY,NIGHT_MOSTLY_CLOUDY,NIGHT_MOSTLY_CLOUDY,MOSTLY_CLOUDY","Onshore,Onshore,Onshore,Onshore,Onshore,Onshore,Onshore,Onshore,Onshore",9
5842041f4e65fad6a77089b8,2024_04_30,45.88179930310263,-123.96681,Cannon Beach,1.5555555555555556,2.361111111111111,2.602222222222222,11,11,"NIGHT_MOSTLY_CLOUDY,NIGHT_SHOWERS,NIGHT_SHOWERS,NIGHT_MOSTLY_CLOUDY,NIGHT_MOSTLY_CLOUDY,NIGHT_MOSTLY_CLOUDY,NIGHT_HEAVY_SHOWERS,NIGHT_MOSTLY_CLOUDY,BRIEF_SHOWERS","Onshore,Onshore,Onshore,Onshore,Onshore,Onshore,Onshore,Onshore,Onshore",9
5842041f4e65fad6a77089ba,2024_04_30,40.02528754746774,-124.06372,Shelter Cove,2,0.3657577777777778,0.5714933333333333,10.666666666666666,10.666666666666666,"NIGHT_CLEAR,NIGHT_CLEAR,NIGHT_CLEAR,NIGHT_CLEAR,NIGHT_CLEAR,NIGHT_CLEAR,NIGHT_CLEAR,NIGHT_CLEAR,CLEAR","Offshore,Offshore,Offshore,Offshore,Offshore,Offshore,Offshore,Offshore,Offshore",9
5842041f4e65fad6a77089bb,2024_04_30,40.76816197136951,-124.24248,Humboldt Harbor Entrance,2.5555555555555554,1.9977777777777779,2.2533333333333334,11,11,"NIGHT_MOSTLY_CLEAR,NIGHT_CLEAR,NIGHT_MOSTLY_CLOUDY,NIGHT_CLOUDY,NIGHT_CLOUDY,NIGHT_MOSTLY_CLOUDY,NIGHT_CLEAR,NIGHT_MOSTLY_CLOUDY,MOSTLY_CLOUDY","Cross-shore,Cross-shore,Cross-shore,Offshore,Offshore,Offshore,Offshore,Cross-shore,Offshore",9
5842041f4e65fad6a77089bc,2024_04_30,40.76684246920174,-124.23107,North Jetty,2.6666666666666665,2.571111111111111,2.8333333333333335,11,11,"NIGHT_MOSTLY_CLEAR,NIGHT_CLEAR,NIGHT_BRIEF_SHOWERS,NIGHT_MOSTLY_CLOUDY,NIGHT_CLOUDY,NIGHT_MOSTLY_CLOUDY,NIGHT_MOSTLY_CLOUDY,NIGHT_MOSTLY_CLOUDY,MOSTLY_CLOUDY","Cross-shore,Cross-shore,Cross-shore,Offshore,Cross-shore,Offshore,Offshore,Cross-shore,Offshore",9
5842041f4e65fad6a77089bd,2024_04_30,41.02731183893966,-124.1149972888982,Westhaven,3,2.648888888888889,2.8955555555555557,11.333333333333334,11.333333333333334,"NIGHT_MOSTLY_CLEAR,NIGHT_CLEAR,NIGHT_MOSTLY_CLOUDY,NIGHT_MOSTLY_CLOUDY,NIGHT_MOSTLY_CLOUDY,NIGHT_CLEAR,NIGHT_MOSTLY_CLOUDY,NIGHT_FOG,CLEAR","Cross-shore,Cross-shore,Cross-shore,Cross-shore,Cross-shore,Cross-shore,Cross-shore,Offshore,Offshore",9
5842041f4e65fad6a77089be,2024_04_30,41.13016238153297,-124.16466,Sue-meg,2,2.098888888888889,2.3722222222222222,11.333333333333334,11.333333333333334,"NIGHT_MOSTLY_CLOUDY,NIGHT_MOSTLY_CLOUDY,NIGHT_MOSTLY_CLOUDY,NIGHT_MOSTLY_CLOUDY,NIGHT_MOSTLY_CLOUDY,NIGHT_MOSTLY_CLOUDY,NIGHT_BRIEF_SHOWERS,NIGHT_MOSTLY_CLOUDY,MOSTLY_CLOUDY","Cross-shore,Cross-shore,Cross-shore,Cross-shore,Cross-shore,Cross-shore,Onshore,Cross-shore,Cross-shore",9
5842041f4e65fad6a77089bf,2024_04_30,37.8289474958188,-122.53768,Fort Cronkite/Rodeo Beach,3.2222222222222223,1.5655555555555556,1.72,14,14,"NIGHT_CLEAR,NIGHT_CLEAR,NIGHT_CLEAR,NIGHT_CLEAR,NIGHT_CLEAR,NIGHT_CLEAR,NIGHT_CLEAR,NIGHT_CLEAR,CLEAR","Offshore,Offshore,Offshore,Offshore,Offshore,Offshore,Offshore,Offshore,Offshore",9
5842041f4e65fad6a77089c0,2024_04_30,41.74415759876137,-124.17717,South Beach CA,3,0.9277777777777778,1.0944444444444446,11,11,"NIGHT_CLEAR,NIGHT_CLEAR,NIGHT_CLEAR,NIGHT_CLEAR,NIGHT_CLEAR,NIGHT_BRIEF_SHOWERS,NIGHT_MOSTLY_CLEAR,NIGHT_MOSTLY_CLEAR,MOSTLY_CLOUDY","Offshore,Offshore,Offshore,Offshore,Offshore,Offshore,Offshore,Offshore,Offshore",9
5842041f4e65fad6a77089c1,2024_04_30,37.89801283969752,-122.64519,Stinson Beach,3,0.6044444444444445,0.9077777777777778,14,14,"NIGHT_CLEAR,NIGHT_CLEAR,NIGHT_CLEAR,NIGHT_CLEAR,NIGHT_CLEAR,NIGHT_CLEAR,NIGHT_CLEAR,NIGHT_CLEAR,CLEAR","Offshore,Offshore,Offshore,Cross-shore,Offshore,Cross-shore,Offshore,Cross-shore,Cross-shore",9
5842041f4e65fad6a77089c2,2024_04_30,37.90514516176495,-122.68151,Bolinas,2.888888888888889,0.42571333333333333,0.6651766666666666,14,14,"NIGHT_CLEAR,NIGHT_CLEAR,NIGHT_CLEAR,NIGHT_CLEAR,NIGHT_CLEAR,NIGHT_CLEAR,NIGHT_CLEAR,NIGHT_CLEAR,CLEAR","Offshore,Cross-shore,Cross-shore,Cross-shore,Cross-shore,Cross-shore,Cross-shore,Onshore,Cross-shore",9
5842041f4e65fad6a77089c3,2024_04_30,38.04892513158693,-122.98925,Point Reyes (north),0,3.0922222222222224,3.3966666666666665,12.666666666666666,12.666666666666666,"NIGHT_CLEAR,NIGHT_CLEAR,NIGHT_CLEAR,NIGHT_CLEAR,NIGHT_CLEAR,NIGHT_CLEAR,NIGHT_CLEAR,NIGHT_CLEAR,CLEAR","Onshore,Onshore,Onshore,Onshore,Onshore,Onshore,Onshore,Onshore,Onshore",9
5842041f4e65fad6a77089c6,2024_04_30,38.31088736605785,-123.0496777333731,Doran Beach,1.5555555555555556,0.042222222222222223,0.34444444444444444,12,12,"NIGHT_CLEAR,NIGHT_CLEAR,NIGHT_CLEAR,NIGHT_CLEAR,NIGHT_CLEAR,NIGHT_CLEAR,NIGHT_CLEAR,NIGHT_CLEAR,CLEAR","Offshore,Offshore,Offshore,Offshore,Offshore,Offshore,Offshore,Offshore,Offshore",9
5842041f4e65fad6a77089c7,2024_04_30,38.45077228660809,-123.13008,Russian Rivermouth,2.7777777777777777,1.6588888888888889,1.9644444444444444,11,11,"NIGHT_CLEAR,NIGHT_CLEAR,NIGHT_CLEAR,NIGHT_CLEAR,NIGHT_CLEAR,NIGHT_CLEAR,NIGHT_CLEAR,NIGHT_CLEAR,CLEAR","Cross-shore,Cross-shore,Cross-shore,Cross-shore,Cross-shore,Cross-shore,Cross-shore,Cross-shore,Cross-shore",9
5842041f4e65fad6a77089c8,2024_04_30,38.35329968518107,-123.06906,Salmon Creek,1.6666666666666667,2.36,2.667777777777778,12,12,"NIGHT_CLEAR,NIGHT_CLEAR,NIGHT_CLEAR,NIGHT_CLEAR,NIGHT_CLEAR,NIGHT_CLEAR,NIGHT_CLEAR,NIGHT_CLEAR,CLEAR","Onshore,Onshore,Onshore,Onshore,Onshore,Onshore,Onshore,Onshore,Onshore",9
5842041f4e65fad6a77089c9,2024_04_30,38.6845180197959,-123.4322714291198,Black Point Beach,1,0.6733333333333333,0.9777777777777777,11,11,"NIGHT_CLEAR,NIGHT_CLEAR,NIGHT_CLEAR,NIGHT_CLEAR,NIGHT_CLEAR,NIGHT_CLEAR,NIGHT_CLEAR,NIGHT_CLEAR,CLEAR","Onshore,Onshore,Onshore,Onshore,Onshore,Onshore,Onshore,Onshore,Onshore",9
5842041f4e65fad6a77089ca,2024_04_30,43.251076,-70.59144,Ogunquit,1.2033333333333334,0.2902,0.5948444444444445,8,7,"NIGHT_MOSTLY_CLOUDY,NIGHT_MOSTLY_CLOUDY,NIGHT_CLEAR,NIGHT_CLEAR,MOSTLY_CLOUDY,OVERCAST,CLEAR,BRIEF_SHOWERS,CLOUDY","Cross-shore,Onshore,Onshore,Onshore,Onshore,Onshore,Onshore,Onshore,Onshore",9
5842041f4e65fad6a77089cb,2024_04_30,41.362631366305415,-71.48007,Point Judith,0.7777777777777778,0.1990888888888889,0.5026222222222222,10,9,"NIGHT_LIGHT_RAIN,NIGHT_LIGHT_RAIN,NIGHT_LIGHT_RAIN,NIGHT_DRIZZLE,MIST,MOSTLY_CLOUDY,MOSTLY_CLOUDY,CLEAR,CLEAR","Onshore,Onshore,Onshore,Onshore,Onshore,Onshore,Onshore,Onshore,Onshore",9
5842041f4e65fad6a77089cd,2024_04_30,41.422678090954726,-71.45413,Monahan's - Narragansett,1.4444444444444444,0.19789888888888887,0.3092155555555556,9,9,"NIGHT_OVERCAST,NIGHT_LIGHT_RAIN,NIGHT_DRIZZLE,NIGHT_DRIZZLE,MIST,MOSTLY_CLOUDY,CLEAR,MIST,CLEAR","Offshore,Onshore,Cross-shore,Cross-shore,Onshore,Onshore,Onshore,Onshore,Onshore",9
5842041f4e65fad6a77089ce,2024_04_30,41.469,-71.293,Ruggles - Newport,1.8888888888888888,0.28179,0.4402977777777778,9,9,"NIGHT_OVERCAST,NIGHT_RAIN,NIGHT_DRIZZLE,NIGHT_OVERCAST,CLOUDY,MOSTLY_CLOUDY,MOSTLY_CLEAR,MOSTLY_CLEAR,CLEAR","Onshore,Offshore,Offshore,Cross-shore,Offshore,Offshore,Cross-shore,Cross-shore,Cross-shore",9
5842041f4e65fad6a77089cf,2024_04_30,43.175394,-70.606351,Short Sands Beach,1,0.24555555555555555,0.5477777777777778,6.333333333333333,6.333333333333333,"NIGHT_MOSTLY_CLOUDY,NIGHT_MOSTLY_CLOUDY,NIGHT_MOSTLY_CLEAR,NIGHT_CLEAR,MOSTLY_CLOUDY,OVERCAST,OVERCAST,MOSTLY_CLOUDY,CLOUDY","Onshore,Onshore,Onshore,Onshore,Onshore,Onshore,Onshore,Onshore,Onshore",9
5842041f4e65fad6a77089d0,2024_04_30,41.487408,-71.29017,First Beach,1,0,0.21222222222222223,9,9,"NIGHT_OVERCAST,NIGHT_LIGHT_RAIN_AND_FOG,NIGHT_MIST,NIGHT_OVERCAST,OVERCAST,MOSTLY_CLOUDY,MOSTLY_CLEAR,MOSTLY_CLEAR,CLEAR","Onshore,Cross-shore,Offshore,Cross-shore,Offshore,Offshore,Cross-shore,Cross-shore,Cross-shore",9
5842041f4e65fad6a77089d1,2024_04_30,42.27916830233153,-70.86498,Nantasket Beach,1.1111111111111112,0.33353333333333335,0.6365111111111111,8,7,"NIGHT_MOSTLY_CLOUDY,NIGHT_MOSTLY_CLOUDY,NIGHT_CLEAR,NIGHT_CLOUDY,CLOUDY,DRIZZLE,MIST,MOSTLY_CLOUDY,OVERCAST","Cross-shore,Onshore,Onshore,Onshore,Onshore,Onshore,Onshore,Onshore,Onshore",9
5842041f4e65fad6a77089d2,2024_04_30,41.817,-69.935,Cape Cod,1.3333333333333333,0.25222222222222224,0.5577777777777778,8,8,"NIGHT_CLEAR,NIGHT_CLEAR,NIGHT_MOSTLY_CLOUDY,NIGHT_CLOUDY,MOSTLY_CLOUDY,MOSTLY_CLOUDY,MOSTLY_CLEAR,MOSTLY_CLOUDY,MOSTLY_CLEAR","Offshore,Cross-shore,Cross-shore,Onshore,Onshore,Onshore,Onshore,Onshore,Onshore",9
5842041f4e65fad6a77089d3,2024_04_30,42.22055448975661,-70.70634873403819,Egypt Beach,1.5555555555555556,0.3844444444444444,0.6866666666666666,7.333333333333333,7.333333333333333,"NIGHT_CLEAR,NIGHT_MOSTLY_CLOUDY,NIGHT_CLEAR,NIGHT_CLOUDY,OVERCAST,RAIN,MOSTLY_CLOUDY,MOSTLY_CLOUDY,CLOUDY","Cross-shore,Onshore,Onshore,Onshore,Onshore,Onshore,Onshore,Onshore,Onshore",9
5842041f4e65fad6a77089d4,2024_04_30,41.48739647744607,-71.25723,Second Beach,0.9077777777777778,0.11178,0.2931838888888889,10,9,"NIGHT_OVERCAST,NIGHT_LIGHT_RAIN,NIGHT_OVERCAST,NIGHT_OVERCAST,OVERCAST,MOSTLY_CLOUDY,MOSTLY_CLEAR,MOSTLY_CLEAR,CLEAR","Onshore,Cross-shore,Cross-shore,Cross-shore,Offshore,Offshore,Offshore,Cross-shore,Cross-shore",9
5842041f4e65fad6a77089d5,2024_04_30,42.964,-70.769,Fox Hill,1.1111111111111112,0.19353333333333333,0.5020666666666667,8,7,"NIGHT_MOSTLY_CLOUDY,NIGHT_CLEAR,NIGHT_CLEAR,NIGHT_MOSTLY_CLOUDY,MOSTLY_CLOUDY,CLEAR,OVERCAST,MOSTLY_CLOUDY,DRIZZLE","Onshore,Onshore,Onshore,Onshore,Onshore,Onshore,Onshore,Onshore,Cross-shore",9
5842041f4e65fad6a77089d6,2024_04_30,42.991359,-70.75149,Straws Point,1.1111111111111112,0.19186666666666669,0.4965111111111111,8,7,"NIGHT_BRIEF_SHOWERS,NIGHT_CLEAR,NIGHT_CLEAR,NIGHT_MOSTLY_CLOUDY,CLEAR,OVERCAST,OVERCAST,MOSTLY_CLOUDY,DRIZZLE","Onshore,Cross-shore,Cross-shore,Cross-shore,Cross-shore,Cross-shore,Cross-shore,Cross-shore,Cross-shore",9
5842041f4e65fad6a77089d7,2024_04_30,42.946,-70.786,Plaice Cove,1.1111111111111112,0.19353333333333333,0.5020666666666667,8,7,"NIGHT_MOSTLY_CLOUDY,NIGHT_CLEAR,NIGHT_CLEAR,NIGHT_MOSTLY_CLOUDY,MOSTLY_CLOUDY,CLOUDY,OVERCAST,MOSTLY_CLOUDY,DRIZZLE","Onshore,Onshore,Onshore,Onshore,Onshore,Onshore,Onshore,Onshore,Onshore",9
5842041f4e65fad6a77089d9,2024_04_30,42.911574,-70.80831,The Main Beach,1.1111111111111112,0.34351601851851854,0.5847222222222223,8,7,"NIGHT_MOSTLY_CLOUDY,NIGHT_CLEAR,NIGHT_CLEAR,NIGHT_MOSTLY_CLOUDY,MOSTLY_CLOUDY,CLEAR,CLOUDY,MOSTLY_CLOUDY,OVERCAST","Onshore,Cross-shore,Cross-shore,Cross-shore,Cross-shore,Cross-shore,Cross-shore,Cross-shore,Offshore",9
5842041f4e65fad6a77089da,2024_04_30,42.97583846220203,-70.764,Sawyer's Beach,1,0.1340888888888889,0.4342888888888889,8,7,"NIGHT_MOSTLY_CLOUDY,NIGHT_CLEAR,NIGHT_CLEAR,NIGHT_MOSTLY_CLOUDY,MOSTLY_CLOUDY,CLEAR,OVERCAST,MOSTLY_CLOUDY,DRIZZLE","Onshore,Onshore,Onshore,Onshore,Onshore,Onshore,Onshore,Onshore,Onshore",9
5842041f4e65fad6a77089db,2024_04_30,42.97,-70.77,Rye on the Rocks / 5-0's,1.1111111111111112,0.272207962962963,0.5438971296296297,8,7,"NIGHT_MOSTLY_CLOUDY,NIGHT_CLEAR,NIGHT_CLEAR,NIGHT_MOSTLY_CLOUDY,MOSTLY_CLOUDY,CLEAR,OVERCAST,MOSTLY_CLOUDY,DRIZZLE","Onshore,Onshore,Onshore,Onshore,Onshore,Cross-shore,Cross-shore,Onshore,Cross-shore",9
5842041f4e65fad6a77089dc,2024_04_30,43.55902946610303,-70.27795,Higgins Beach,1.6666666666666667,0.11964444444444446,0.40595555555555557,8,7,"NIGHT_MOSTLY_CLEAR,NIGHT_MOSTLY_CLOUDY,NIGHT_CLEAR,NIGHT_CLEAR,CLEAR,OVERCAST,OVERCAST,MOSTLY_CLOUDY,MOSTLY_CLOUDY","Offshore,Offshore,Offshore,Offshore,Offshore,Cross-shore,Cross-shore,Cross-shore,Cross-shore",9
5842041f4e65fad6a77089dd,2024_04_30,43.302676,-70.5652,Wells Beach,1.2222222222222223,0.1552,0.4587333333333333,8,7,"NIGHT_MOSTLY_CLOUDY,NIGHT_MOSTLY_CLOUDY,NIGHT_CLEAR,NIGHT_CLEAR,MOSTLY_CLOUDY,CLEAR,OVERCAST,MOSTLY_CLOUDY,OVERCAST","Onshore,Onshore,Onshore,Onshore,Onshore,Onshore,Onshore,Onshore,Onshore",9
5842041f4e65fad6a77089de,2024_04_30,43.545359,-70.30479,Scarborough Beach State Park,1,0.2785661111111111,0.4871138888888889,8,7,"NIGHT_MOSTLY_CLEAR,NIGHT_MOSTLY_CLOUDY,NIGHT_CLEAR,NIGHT_CLOUDY,CLEAR,CLOUDY,OVERCAST,MOSTLY_CLOUDY,MOSTLY_CLOUDY","Cross-shore,Cross-shore,Cross-shore,Cross-shore,Cross-shore,Cross-shore,Cross-shore,Cross-shore,Cross-shore",9
5842041f4e65fad6a77089df,2024_04_30,43.514481,-70.37215,Old Orchard Beach,1.5555555555555556,0.11853333333333334,0.3881777777777778,8,7,"NIGHT_CLEAR,NIGHT_MOSTLY_CLOUDY,NIGHT_CLEAR,NIGHT_CLEAR,CLEAR,CLEAR,CLOUDY,MOSTLY_CLOUDY,MOSTLY_CLOUDY","Cross-shore,Cross-shore,Cross-shore,Cross-shore,Cross-shore,Cross-shore,Cross-shore,Cross-shore,Onshore",9
5842041f4e65fad6a77089e0,2024_04_30,43.34711,-70.48165,Gooch's Beach,1.1111111111111112,0.014444444444444446,0.32075555555555557,8,7,"NIGHT_CLEAR,NIGHT_MOSTLY_CLOUDY,NIGHT_CLEAR,NIGHT_CLEAR,MOSTLY_CLOUDY,CLOUDY,CLOUDY,MOSTLY_CLOUDY,CLEAR","Offshore,Offshore,Offshore,Offshore,Offshore,Cross-shore,Offshore,Offshore,Cross-shore",9
5842041f4e65fad6a77089e2,2024_04_30,40.58433,-73.62953,Lido Beach,1.7777777777777777,0.4398370370370371,0.7944096296296297,10,8,"NIGHT_MIST,NIGHT_MIST,NIGHT_MIST,NIGHT_MIST,MIST,DRIZZLE,MIST,MIST,MIST","Onshore,Onshore,Onshore,Onshore,Onshore,Onshore,Onshore,Onshore,Onshore",9
5842041f4e65fad6a77089e3,2024_04_30,43.163135,-70.61689,Long Sands Beach,1.4255555555555557,0.30393166666666666,0.52675,8,7,"NIGHT_MOSTLY_CLOUDY,NIGHT_MOSTLY_CLOUDY,NIGHT_MOSTLY_CLEAR,NIGHT_MOSTLY_CLEAR,CLEAR,CLOUDY,OVERCAST,MOSTLY_CLOUDY,CLOUDY","Cross-shore,Cross-shore,Cross-shore,Cross-shore,Cross-shore,Cross-shore,Cross-shore,Cross-shore,Cross-shore",9
5842041f4e65fad6a77089e4,2024_04_30,40.61695351251805,-73.39376,Gilgo Beach,1,0.16444444444444445,0.4666666666666667,10,8,"NIGHT_MIST,NIGHT_MIST,NIGHT_MIST,NIGHT_MIST,MIST,MIST,MIST,MIST,MIST","Cross-shore,Cross-shore,Cross-shore,Cross-shore,Cross-shore,Cross-shore,Cross-shore,Cross-shore,Cross-shore",9
5842041f4e65fad6a77089e5,2024_04_30,40.62530081928036,-73.23827,Robert Moses,1,0.15333333333333335,0.4588888888888889,10,10,"NIGHT_MIST,NIGHT_MIST,NIGHT_MIST,NIGHT_MIST,MIST,MIST,MIST,MIST,MIST","Cross-shore,Cross-shore,Cross-shore,Cross-shore,Cross-shore,Cross-shore,Cross-shore,Cross-shore,Cross-shore",9
5842041f4e65fad6a77089e6,2024_04_30,40.64313317632791,-73.15727,Fire Island,1,0.16,0.46444444444444444,9.666666666666666,9.666666666666666,"NIGHT_MIST,NIGHT_MIST,NIGHT_OVERCAST,NIGHT_MIST,MIST,MIST,MIST,MIST,MIST","Cross-shore,Cross-shore,Cross-shore,Cross-shore,Cross-shore,Cross-shore,Cross-shore,Cross-shore,Cross-shore",9
5842041f4e65fad6a77089e8,2024_04_30,40.76653118828782,-72.7458,Cupsogue,1,0.3433333333333333,0.6477777777777778,9,9,"NIGHT_MIST,NIGHT_MOSTLY_CLOUDY,NIGHT_MOSTLY_CLOUDY,NIGHT_CLEAR,CLEAR,MOSTLY_CLOUDY,MOSTLY_CLOUDY,OVERCAST,OVERCAST","Cross-shore,Cross-shore,Cross-shore,Cross-shore,Cross-shore,Cross-shore,Cross-shore,Cross-shore,Cross-shore",9
5842041f4e65fad6a77089e9,2024_04_30,42.9376373334092,-70.79141,The Wall ,1.2222222222222223,0.3733366666666667,0.6313188888888889,8,7,"NIGHT_MOSTLY_CLOUDY,NIGHT_CLEAR,NIGHT_CLEAR,NIGHT_MOSTLY_CLOUDY,MOSTLY_CLOUDY,CLEAR,CLOUDY,MOSTLY_CLOUDY,OVERCAST","Onshore,Onshore,Onshore,Onshore,Onshore,Onshore,Onshore,Onshore,Onshore",9
5842041f4e65fad6a77089ea,2024_04_30,40.887088,-72.33856,Flys,1.3333333333333333,0.33111111111111113,0.6355555555555555,9,9,"NIGHT_BRIEF_SHOWERS,NIGHT_MOSTLY_CLOUDY,NIGHT_CLEAR,NIGHT_MOSTLY_CLOUDY,CLEAR,MOSTLY_CLOUDY,MOSTLY_CLOUDY,MOSTLY_CLEAR,MOSTLY_CLOUDY","Cross-shore,Cross-shore,Cross-shore,Cross-shore,Cross-shore,Cross-shore,Cross-shore,Cross-shore,Cross-shore",9
5842041f4e65fad6a77089eb,2024_04_30,41.0389266436591,-71.91068529316958,Trailer Park,1.5555555555555556,0.5788224074074074,0.8502101851851852,10,8,"NIGHT_MOSTLY_CLOUDY,NIGHT_MOSTLY_CLOUDY,NIGHT_MOSTLY_CLOUDY,NIGHT_CLEAR,OVERCAST,MOSTLY_CLOUDY,MOSTLY_CLOUDY,MOSTLY_CLEAR,MOSTLY_CLOUDY","Offshore,Cross-shore,Cross-shore,Cross-shore,Cross-shore,Cross-shore,Cross-shore,Cross-shore,Cross-shore",9
5842041f4e65fad6a77089ec,2024_04_30,41.039505402729105,-71.9142,Ditch Plains,1.1111111111111112,0.35380222222222224,0.5528166666666666,8,8,"NIGHT_MOSTLY_CLOUDY,NIGHT_MOSTLY_CLOUDY,NIGHT_MOSTLY_CLOUDY,NIGHT_BRIEF_SHOWERS_POSSIBLE,MIST,MIST,MOSTLY_CLOUDY,MOSTLY_CLEAR,CLEAR","Cross-shore,Cross-shore,Cross-shore,Cross-shore,Cross-shore,Cross-shore,Cross-shore,Cross-shore,Onshore",9
5842041f4e65fad6a77089ee,2024_04_30,40.57633275206492,-73.56895305108567,"West End, Jones Beach",1.3333333333333333,0.3659555555555556,0.7348666666666667,10,8,"NIGHT_MIST,NIGHT_MIST,NIGHT_MIST,NIGHT_MIST,MIST,MIST,MIST,MIST,MIST","Cross-shore,Cross-shore,Cross-shore,Cross-shore,Offshore,Cross-shore,Cross-shore,Cross-shore,Cross-shore",9
5842041f4e65fad6a77089f1,2024_04_30,41.038286691230795,-71.91991567611694,Poles,1.5555555555555556,0.5048900000000001,0.788393425925926,10,8,"NIGHT_MOSTLY_CLOUDY,NIGHT_MOSTLY_CLOUDY,NIGHT_MOSTLY_CLOUDY,NIGHT_CLEAR,OVERCAST,MOSTLY_CLOUDY,MOSTLY_CLOUDY,MOSTLY_CLEAR,MOSTLY_CLOUDY","Cross-shore,Cross-shore,Cross-shore,Cross-shore,Cross-shore,Cross-shore,Cross-shore,Cross-shore,Cross-shore",9
5842041f4e65fad6a77089f3,2024_04_30,40.84077769766295,-72.47989493724765,The Bowl,1.1111111111111112,0.31666666666666665,0.62,9,9,"NIGHT_MIST,NIGHT_CLEAR,NIGHT_CLEAR,NIGHT_CLEAR,CLEAR,CLEAR,MOSTLY_CLEAR,MOSTLY_CLOUDY,LIGHT_RAIN","Cross-shore,Cross-shore,Cross-shore,Cross-shore,Cross-shore,Cross-shore,Cross-shore,Cross-shore,Cross-shore",9
5842041f4e65fad6a77089f4,2024_04_30,40.94235535243154,-72.19286,Main Beach,1.5555555555555556,0.3111111111111111,0.6144444444444445,16,14,"NIGHT_MOSTLY_CLOUDY,NIGHT_MOSTLY_CLOUDY,NIGHT_MOSTLY_CLEAR,NIGHT_MOSTLY_CLOUDY,MOSTLY_CLEAR,CLOUDY,CLEAR,MOSTLY_CLEAR,MOSTLY_CLEAR","Offshore,Cross-shore,Offshore,Offshore,Cross-shore,Cross-shore,Cross-shore,Cross-shore,Cross-shore",9
5842041f4e65fad6a77089f5,2024_04_30,40.58270702399518,-73.67251552079799,Laurelton Blvd.,1.5555555555555556,0.4190224259259259,0.7080395,10,8,"NIGHT_MIST,NIGHT_MIST,NIGHT_MIST,NIGHT_MIST,MIST,DRIZZLE,DRIZZLE,MIST,MIST","Cross-shore,Cross-shore,Cross-shore,Cross-shore,Cross-shore,Cross-shore,Cross-shore,Cross-shore,Cross-shore",9
5842041f4e65fad6a77089f6,2024_04_30,41.033752854071416,-71.93696,Terrace,1.5555555555555556,0.42159259259259263,0.727111111111111,10,8,"NIGHT_MOSTLY_CLOUDY,NIGHT_MOSTLY_CLOUDY,NIGHT_MOSTLY_CLOUDY,NIGHT_CLEAR,OVERCAST,MOSTLY_CLOUDY,CLEAR,CLEAR,CLEAR","Cross-shore,Cross-shore,Cross-shore,Cross-shore,Cross-shore,Cross-shore,Cross-shore,Cross-shore,Cross-shore",9
5842041f4e65fad6a77089f7,2024_04_30,40.83372943645748,-72.50426173210144,K Road,1.1111111111111112,0.3511111111111111,0.6555555555555556,9,9,"NIGHT_MIST,NIGHT_CLEAR,NIGHT_MOSTLY_CLOUDY,NIGHT_CLEAR,CLEAR,CLEAR,MOSTLY_CLEAR,MOSTLY_CLOUDY,OVERCAST","Cross-shore,Cross-shore,Cross-shore,Cross-shore,Cross-shore,Cross-shore,Cross-shore,Cross-shore,Cross-shore",9
5842041f4e65fad6a77089f8,2024_04_30,40.58456099581507,-73.80730032920837,84th Street,1.3777777777777778,0.4224481481481482,0.7939148148148147,10,8,"NIGHT_MIST,NIGHT_MIST,NIGHT_MIST,NIGHT_MIST,MIST,MIST,MIST,OVERCAST,OVERCAST","Cross-shore,Cross-shore,Cross-shore,Cross-shore,Cross-shore,Cross-shore,Cross-shore,Cross-shore,Cross-shore",9
5842041f4e65fad6a77089fa,2024_04_30,40.1319,-74.02788,Sea Girt,1.9255555555555555,0.3781777777777778,0.7448666666666667,10,9,"NIGHT_MOSTLY_CLOUDY,NIGHT_MIST,NIGHT_OVERCAST,NIGHT_MIST,OVERCAST,MIST,OVERCAST,OVERCAST,MOSTLY_CLOUDY","Onshore,Onshore,Onshore,Onshore,Cross-shore,Onshore,Onshore,Onshore,Cross-shore",9
5842041f4e65fad6a77089fb,2024_04_30,40.54698301868125,-73.9268,Breezy Point,1,0.12222222222222222,0.4255555555555555,10.333333333333334,10.333333333333334,"NIGHT_MIST,NIGHT_CLOUDY,NIGHT_MIST,NIGHT_DRIZZLE,MIST,DRIZZLE,MIST,MIST,MIST","Cross-shore,Cross-shore,Cross-shore,Cross-shore,Cross-shore,Cross-shore,Cross-shore,Cross-shore,Cross-shore",9
5842041f4e65fad6a77089fc,2024_04_30,40.152504,-74.02138,Spring Lake,1.8333333333333333,0.39484444444444444,0.6983777777777778,10,9,"NIGHT_BRIEF_SHOWERS,NIGHT_OVERCAST,NIGHT_DRIZZLE,NIGHT_OVERCAST,MIST,MIST,OVERCAST,OVERCAST,MOSTLY_CLOUDY","Onshore,Onshore,Onshore,Onshore,Onshore,Onshore,Onshore,Onshore,Onshore",9
5842041f4e65fad6a77089fd,2024_04_30,40.591277,-73.770792,30th - 39th Streets,1.4255555555555555,0.3015111111111111,0.6632,10,8,"NIGHT_OVERCAST,NIGHT_OVERCAST,NIGHT_OVERCAST,NIGHT_OVERCAST,OVERCAST,DRIZZLE,OVERCAST,OVERCAST,OVERCAST","Cross-shore,Cross-shore,Cross-shore,Cross-shore,Cross-shore,Cross-shore,Cross-shore,Cross-shore,Cross-shore",9
5842041f4e65fad6a77089fe,2024_04_30,40.18834955871439,-74.00860982500222,Avon,1.8333333333333333,0.42317777777777776,0.7244888888888888,10,9,"NIGHT_BRIEF_SHOWERS,NIGHT_OVERCAST,NIGHT_OVERCAST,NIGHT_OVERCAST,MIST,MIST,OVERCAST,OVERCAST,MOSTLY_CLOUDY","Onshore,Onshore,Onshore,Onshore,Onshore,Onshore,Onshore,Onshore,Onshore",9
5842041f4e65fad6a77089ff,2024_04_30,40.1974229100932,-74.00650533798255,Bradley Beach,1.8333333333333333,0.41484444444444446,0.7189333333333333,10,9,"NIGHT_BRIEF_SHOWERS,NIGHT_OVERCAST,NIGHT_OVERCAST,NIGHT_OVERCAST,MIST,MIST,OVERCAST,OVERCAST,MOSTLY_CLOUDY","Onshore,Onshore,Onshore,Onshore,Onshore,Onshore,Onshore,Onshore,Onshore",9
5842041f4e65fad6a7708a01,2024_04_30,40.17202,-74.01503,"16th Ave., Belmar",1.9555555555555555,0.5839740740740741,0.8868592592592592,10,9,"NIGHT_BRIEF_SHOWERS,NIGHT_OVERCAST,NIGHT_OVERCAST,NIGHT_OVERCAST,MIST,MIST,OVERCAST,OVERCAST,MOSTLY_CLOUDY","Onshore,Onshore,Onshore,Onshore,Onshore,Onshore,Onshore,Onshore,Onshore",9
5842041f4e65fad6a7708a02,2024_04_30,40.217443,-73.99982,Asbury Park,1.8888888888888888,0.38151111111111113,0.6850444444444445,10,9,"NIGHT_BRIEF_SHOWERS,NIGHT_OVERCAST,NIGHT_OVERCAST,NIGHT_OVERCAST,MIST,MIST,OVERCAST,OVERCAST,MOSTLY_CLOUDY","Onshore,Onshore,Onshore,Onshore,Onshore,Onshore,Onshore,Onshore,Onshore",9
5842041f4e65fad6a7708a03,2024_04_30,40.229841,-73.99678,Loch Arbour and Deal,1.3333333333333333,0.35373333333333334,0.6589333333333334,10,9,"NIGHT_BRIEF_SHOWERS,NIGHT_OVERCAST,NIGHT_OVERCAST,NIGHT_MIST,MIST,MIST,OVERCAST,OVERCAST,MOSTLY_CLOUDY","Onshore,Onshore,Onshore,Onshore,Onshore,Onshore,Onshore,Onshore,Onshore",9
5842041f4e65fad6a7708a05,2024_04_30,40.41754,-73.97935,Sandy Hook,1,0,0.23444444444444446,10.333333333333334,10.333333333333334,"NIGHT_OVERCAST,NIGHT_DRIZZLE,NIGHT_MIST,NIGHT_MIST,MIST,MIST,MIST,MIST,MIST","Onshore,Onshore,Onshore,Onshore,Onshore,Onshore,Onshore,Onshore,Onshore",9
5842041f4e65fad6a7708a06,2024_04_30,39.36353,-74.40873,Crystals,1.8888888888888888,0.5142183333333333,0.78865,10,9,"NIGHT_CLEAR,NIGHT_CLEAR,NIGHT_MIST,NIGHT_CLEAR,MIST,MIST,MIST,MIST,MIST","Onshore,Onshore,Onshore,Onshore,Onshore,Onshore,Onshore,Onshore,Onshore",9
5842041f4e65fad6a7708a07,2024_04_30,39.31443,-74.51863,32nd Street,1.8888888888888888,0.5173533333333333,0.7935472222222222,10,9,"NIGHT_MIST,NIGHT_MIST,NIGHT_MIST,NIGHT_MIST,MIST,MIST,MIST,MIST,MIST","Onshore,Onshore,Onshore,Onshore,Onshore,Onshore,Onshore,Onshore,Onshore",9
5842041f4e65fad6a7708a08,2024_04_30,39.327688,-74.49524,Margate Pier Northside,1.8888888888888888,0.5173533333333333,0.7935472222222222,10,9,"NIGHT_MIST,NIGHT_MIST,NIGHT_MIST,NIGHT_MIST,MIST,MIST,MIST,MIST,MIST","Onshore,Onshore,Onshore,Onshore,Onshore,Onshore,Onshore,Onshore,Onshore",9
5842041f4e65fad6a7708a09,2024_04_30,39.336276,-74.47782,Ventnor Pier,1.8888888888888888,0.5060555555555556,0.7758983333333334,10,9,"NIGHT_MIST,NIGHT_MIST,NIGHT_MIST,NIGHT_MIST,MIST,MIST,MIST,MIST,MIST","Onshore,Onshore,Onshore,Cross-shore,Onshore,Onshore,Onshore,Onshore,Onshore",9
5842041f4e65fad6a7708a0a,2024_04_30,39.35929751441085,-74.41683,States Avenue,1.8888888888888888,0.5142183333333333,0.78865,10,9,"NIGHT_CLEAR,NIGHT_CLEAR,NIGHT_MIST,NIGHT_MIST,MIST,MIST,MIST,MIST,MIST","Onshore,Onshore,Onshore,Onshore,Onshore,Onshore,Onshore,Onshore,Onshore",9
5842041f4e65fad6a7708a0b,2024_04_30,39.37274173278517,-74.40454,Brigantine Jetty,1.8888888888888888,0.45298,0.6929661111111111,10,9,"NIGHT_CLEAR,NIGHT_CLEAR,NIGHT_MIST,NIGHT_CLEAR,MIST,MIST,MIST,MIST,MIST","Onshore,Cross-shore,Cross-shore,Cross-shore,Onshore,Onshore,Onshore,Onshore,Onshore",9
5842041f4e65fad6a7708a0c,2024_04_30,39.356505,-74.42263,South Carolina Avenue,1.8888888888888888,0.45298,0.6929661111111111,10,9,"NIGHT_CLEAR,NIGHT_CLEAR,NIGHT_MIST,NIGHT_MIST,MIST,MIST,MIST,MIST,MIST","Onshore,Cross-shore,Cross-shore,Cross-shore,Onshore,Onshore,Onshore,Onshore,Onshore",9
5842041f4e65fad6a7708a0d,2024_04_30,39.413485,-74.35476,14th Street North,1.8888888888888888,0.4209555555555556,0.7261555555555556,10,9,"NIGHT_CLEAR,NIGHT_CLEAR,NIGHT_CLEAR,NIGHT_MIST,MIST,CLEAR,CLEAR,CLEAR,CLEAR","Cross-shore,Onshore,Onshore,Onshore,Onshore,Onshore,Onshore,Onshore,Onshore",9
5842041f4e65fad6a7708a0e,2024_04_30,39.531319,-74.263252,The Wooden Jetty,2.6666666666666665,0.8751347037037037,1.2001605555555555,10,9,"NIGHT_MIST,NIGHT_MIST,NIGHT_MIST,NIGHT_CLEAR,MIST,MIST,MIST,MIST,MIST","Onshore,Onshore,Onshore,Onshore,Onshore,Onshore,Onshore,Onshore,Onshore",9
5842041f4e65fad6a7708a0f,2024_04_30,39.552472,-74.24344,Holyoke,2.533333333333333,0.8577655925925926,1.173882962962963,10,9,"NIGHT_MIST,NIGHT_MIST,NIGHT_MIST,NIGHT_CLEAR,MIST,MIST,MIST,MIST,MIST","Onshore,Onshore,Onshore,Onshore,Onshore,Onshore,Onshore,Onshore,Cross-shore",9
5842041f4e65fad6a7708a10,2024_04_30,39.692364,-74.14068,Hudson Ave.,2.6666666666666665,0.878797037037037,1.2037874074074075,10,9,"NIGHT_MIST,NIGHT_MIST,NIGHT_MIST,NIGHT_MIST,MIST,MIST,MIST,MIST,MIST","Onshore,Onshore,Onshore,Onshore,Onshore,Onshore,Onshore,Onshore,Onshore",9
5842041f4e65fad6a7708a11,2024_04_30,39.79614,-74.09248,Island Beach State Park,2,0.5761555555555555,0.8813555555555556,10,9,"NIGHT_MIST,NIGHT_MIST,NIGHT_MIST,NIGHT_MIST,MIST,MIST,MIST,MIST,MIST","Onshore,Onshore,Onshore,Onshore,Onshore,Onshore,Cross-shore,Cross-shore,Cross-shore",9
5842041f4e65fad6a7708a12,2024_04_30,39.91813588078152,-74.07527,Seaside Park,1.8888888888888888,0.5217111111111111,0.8302444444444445,10,9,"NIGHT_MIST,NIGHT_MIST,NIGHT_MIST,NIGHT_MIST,MIST,MIST,MIST,MIST,MIST","Onshore,Onshore,Onshore,Onshore,Onshore,Onshore,Onshore,Onshore,Onshore",9
5842041f4e65fad6a7708a14,2024_04_30,39.946638,-74.06884,Seaside Heights,1.8888888888888888,0.4742888888888889,0.7778222222222222,10,9,"NIGHT_MIST,NIGHT_MIST,NIGHT_MIST,NIGHT_MIST,MIST,MIST,MIST,MIST,MIST","Onshore,Onshore,Onshore,Onshore,Onshore,Onshore,Onshore,Onshore,Onshore",9
5842041f4e65fad6a7708a15,2024_04_30,39.95745637606704,-74.06736,Ortley Beach,1.3333333333333333,0.3931777777777778,0.7587555555555555,10,9,"NIGHT_MIST,NIGHT_MIST,NIGHT_MIST,NIGHT_MIST,MIST,MIST,MIST,MIST,MIST","Onshore,Onshore,Onshore,Onshore,Onshore,Onshore,Onshore,Onshore,Onshore",9
5842041f4e65fad6a7708a16,2024_04_30,39.98313468342945,-74.06265685577506,Lavallette,1.4444444444444444,0.4042888888888889,0.7720888888888888,10,9,"NIGHT_MIST,NIGHT_MIST,NIGHT_MIST,NIGHT_MIST,MIST,MIST,MIST,MIST,MIST","Onshore,Onshore,Onshore,Onshore,Onshore,Onshore,Onshore,Onshore,Onshore",9
5842041f4e65fad6a7708a17,2024_04_30,40.0699319967757,-74.04145,Bay Head,1.4444444444444444,0.41373333333333334,0.7782,10,9,"NIGHT_MOSTLY_CLOUDY,NIGHT_MIST,NIGHT_MIST,NIGHT_MIST,DRIZZLE,MIST,MIST,MIST,MIST","Onshore,Onshore,Onshore,Onshore,Onshore,Onshore,Onshore,Onshore,Onshore",9
5842041f4e65fad6a7708a18,2024_04_30,40.094041,-74.034859,Jenkinson's,1.7777777777777777,0.3831777777777778,0.7487555555555556,10,9,"NIGHT_BRIEF_SHOWERS,NIGHT_OVERCAST,NIGHT_OVERCAST,NIGHT_OVERCAST,MIST,MIST,OVERCAST,OVERCAST,MOSTLY_CLOUDY","Onshore,Onshore,Onshore,Onshore,Cross-shore,Onshore,Onshore,Onshore,Cross-shore",9
5842041f4e65fad6a7708a1a,2024_04_30,38.148058,-75.17704,Assateague,1.3333333333333333,0.5465111111111111,0.9104222222222222,11,9,"NIGHT_MIST,NIGHT_CLEAR,NIGHT_CLEAR,NIGHT_CLEAR,NIGHT_CLEAR,CLEAR,CLEAR,CLEAR,MIST","Cross-shore,Cross-shore,Cross-shore,Cross-shore,Cross-shore,Cross-shore,Cross-shore,Cross-shore,Cross-shore",9
5842041f4e65fad6a7708a1b,2024_04_30,38.33889038664497,-75.08017670566352,North End to Ocean City Inlet,2.111111111111111,0.5798444444444445,0.9443111111111111,11,9,"NIGHT_CLEAR,NIGHT_CLEAR,NIGHT_CLEAR,NIGHT_CLEAR,NIGHT_CLEAR,CLEAR,CLEAR,CLEAR,CLEAR","Offshore,Offshore,Offshore,Offshore,Offshore,Offshore,Offshore,Offshore,Offshore",9
5842041f4e65fad6a7708a1c,2024_04_30,38.603993,-75.06271,Indian River Inlet,1.7966666666666666,0.5303794444444444,0.8731722222222222,11,9,"NIGHT_CLEAR,NIGHT_CLEAR,NIGHT_CLEAR,NIGHT_CLEAR,NIGHT_CLEAR,CLEAR,CLEAR,CLEAR,CLEAR","Cross-shore,Cross-shore,Cross-shore,Cross-shore,Cross-shore,Cross-shore,Cross-shore,Cross-shore,Cross-shore",9
5842041f4e65fad6a7708a1d,2024_04_30,38.460477,-75.052069,Fenwick Island,1.8333333333333333,0.3809555555555556,0.7487555555555555,11,9,"NIGHT_CLEAR,NIGHT_CLEAR,NIGHT_CLEAR,NIGHT_CLEAR,NIGHT_CLEAR,CLEAR,CLEAR,CLEAR,CLEAR","Offshore,Offshore,Offshore,Offshore,Offshore,Offshore,Offshore,Offshore,Offshore",9
5842041f4e65fad6a7708a1e,2024_04_30,38.538767,-75.05619,Bethany Beach,1.8333333333333333,0.5299322222222222,0.8724694444444444,11,9,"NIGHT_CLEAR,NIGHT_CLEAR,NIGHT_CLEAR,NIGHT_CLEAR,NIGHT_CLEAR,CLEAR,CLEAR,CLEAR,CLEAR","Cross-shore,Offshore,Offshore,Offshore,Offshore,Cross-shore,Cross-shore,Cross-shore,Cross-shore",9
5842041f4e65fad6a7708a1f,2024_04_30,38.697657,-75.075951,Dewey Beach,2,0.40928888888888887,0.7748666666666666,11,9,"NIGHT_CLEAR,NIGHT_CLEAR,NIGHT_CLEAR,NIGHT_CLEAR,NIGHT_CLEAR,CLEAR,CLEAR,CLEAR,CLEAR","Offshore,Offshore,Offshore,Offshore,Offshore,Offshore,Offshore,Offshore,Offshore",9
5842041f4e65fad6a7708a20,2024_04_30,38.75034741676525,-75.08194,Gordons Pond,1.7777777777777777,0.4457188888888889,0.7408861111111111,11,9,"NIGHT_CLEAR,NIGHT_CLEAR,NIGHT_CLEAR,NIGHT_CLEAR,NIGHT_CLEAR,CLEAR,CLEAR,CLEAR,CLEAR","Cross-shore,Cross-shore,Cross-shore,Cross-shore,Cross-shore,Cross-shore,Cross-shore,Cross-shore,Cross-shore",9
5842041f4e65fad6a7708a21,2024_04_30,38.767837,-75.082841,Naval Jetties,2.111111111111111,0.3804,0.7448666666666667,11,9,"NIGHT_CLEAR,NIGHT_CLEAR,NIGHT_CLEAR,NIGHT_CLEAR,NIGHT_CLEAR,CLEAR,CLEAR,CLEAR,CLEAR","Offshore,Offshore,Offshore,Offshore,Offshore,Offshore,Offshore,Offshore,Offshore",9
5842041f4e65fad6a7708a22,2024_04_30,36.81735875786576,-75.96624,Camp Pendleton,1.518888888888889,0.2735185185185185,0.5744444444444444,13,11,"NIGHT_CLEAR,NIGHT_CLEAR,NIGHT_CLEAR,NIGHT_CLEAR,NIGHT_CLEAR,CLEAR,CLEAR,CLEAR,CLEAR","Cross-shore,Offshore,Offshore,Offshore,Offshore,Offshore,Offshore,Offshore,Offshore",9
5842041f4e65fad6a7708a23,2024_04_30,36.9102212316428,-75.98732471466064,North End,1.5,0.09129629629629629,0.39444444444444443,13,11,"NIGHT_CLEAR,NIGHT_CLEAR,NIGHT_CLEAR,NIGHT_CLEAR,NIGHT_CLEAR,CLEAR,CLEAR,CLEAR,CLEAR","Offshore,Offshore,Offshore,Offshore,Offshore,Offshore,Offshore,Offshore,Offshore",9
5842041f4e65fad6a7708a24,2024_04_30,36.737117517621314,-75.93924,Sandbridge Beach,1.8888888888888888,0.4290740740740741,0.7335185185185185,13,11,"NIGHT_CLEAR,NIGHT_CLEAR,NIGHT_CLEAR,NIGHT_CLEAR,NIGHT_CLEAR,CLEAR,CLEAR,CLEAR,CLEAR","Offshore,Offshore,Offshore,Offshore,Offshore,Offshore,Offshore,Offshore,Offshore",9
5842041f4e65fad6a7708a26,2024_04_30,36.818257440557794,-75.96666,Croatan to Pendleton,1.0744444444444445,0.11148148148148147,0.4135185185185185,13,11,"NIGHT_CLEAR,NIGHT_CLEAR,NIGHT_CLEAR,NIGHT_CLEAR,NIGHT_CLEAR,CLEAR,CLEAR,CLEAR,CLEAR","Cross-shore,Offshore,Offshore,Offshore,Offshore,Offshore,Offshore,Offshore,Offshore",9
5842041f4e65fad6a7708a27,2024_04_30,36.84318777204769,-75.9719,South End,1.0744444444444445,0.11166666666666666,0.4137037037037037,13,11,"NIGHT_CLEAR,NIGHT_CLEAR,NIGHT_CLEAR,NIGHT_CLEAR,NIGHT_CLEAR,CLEAR,CLEAR,CLEAR,CLEAR","Cross-shore,Offshore,Offshore,Offshore,Offshore,Offshore,Offshore,Offshore,Offshore",9
5842041f4e65fad6a7708a28,2024_04_30,37.08612627584661,-75.976121638199,Fishermans Island,0.4444444444444444,0.02666666666666667,0.14888888888888888,13,13,"NIGHT_MOSTLY_CLEAR,NIGHT_CLEAR,NIGHT_CLEAR,NIGHT_CLEAR,NIGHT_CLEAR,CLEAR,CLEAR,CLEAR,CLEAR","Onshore,Cross-shore,Cross-shore,Cross-shore,Cross-shore,Cross-shore,Cross-shore,Cross-shore,Cross-shore",9
5842041f4e65fad6a7708a38,2024_04_30,35.254619418229026,-75.52074,Cape Hatteras Lighthouse,2.111111111111111,0.7094858417508417,1.0378987205387205,16,14,"NIGHT_CLEAR,NIGHT_CLEAR,NIGHT_CLEAR,NIGHT_CLEAR,NIGHT_CLEAR,CLEAR,CLEAR,CLEAR,CLEAR","Cross-shore,Cross-shore,Offshore,Offshore,Offshore,Offshore,Offshore,Offshore,Offshore",9
5842041f4e65fad6a7708a3a,2024_04_30,35.54572934093336,-75.46477,Waves and Salvo,2.0188888888888887,0.7381777777777778,1.0770888888888888,15,13,"NIGHT_CLEAR,NIGHT_CLEAR,NIGHT_CLEAR,NIGHT_CLEAR,NIGHT_CLEAR,CLEAR,CLEAR,CLEAR,CLEAR","Cross-shore,Offshore,Offshore,Offshore,Offshore,Offshore,Offshore,Offshore,Cross-shore",9
5842041f4e65fad6a7708a3b,2024_04_30,35.22565892751075,-75.63606,Frisco,1,0.1511111111111111,0.41986666666666667,18,17,"NIGHT_CLEAR,NIGHT_CLEAR,NIGHT_CLEAR,NIGHT_CLEAR,NIGHT_CLEAR,CLEAR,CLEAR,CLEAR,CLEAR","Onshore,Onshore,Onshore,Onshore,Onshore,Onshore,Onshore,Onshore,Onshore",9
5842041f4e65fad6a7708a3c,2024_04_30,35.13086,-75.90591,Ocracoke,1,0.26571222222222224,0.4151755555555556,17,17,"NIGHT_CLEAR,NIGHT_CLEAR,NIGHT_CLEAR,NIGHT_CLEAR,NIGHT_CLEAR,CLEAR,CLEAR,CLEAR,CLEAR","Cross-shore,Cross-shore,Cross-shore,Cross-shore,Cross-shore,Cross-shore,Cross-shore,Cross-shore,Cross-shore",9
5842041f4e65fad6a7708a3d,2024_04_30,35.34721340158342,-75.50084,Avon Pier,2.6666666666666665,0.8317444444444445,1.2300555555555555,16,13,"NIGHT_CLEAR,NIGHT_CLEAR,NIGHT_CLEAR,NIGHT_CLEAR,NIGHT_CLEAR,CLEAR,CLEAR,CLEAR,CLEAR","Cross-shore,Offshore,Offshore,Offshore,Offshore,Offshore,Offshore,Offshore,Offshore",9
5842041f4e65fad6a7708a3f,2024_04_30,35.71680821253768,-75.49243,Pea Island,2.888888888888889,0.8344444444444444,1.0266666666666666,13,13,"NIGHT_CLEAR,NIGHT_CLEAR,NIGHT_CLEAR,NIGHT_CLEAR,NIGHT_CLEAR,CLEAR,CLEAR,CLEAR,CLEAR","Offshore,Offshore,Offshore,Offshore,Offshore,Offshore,Offshore,Offshore,Offshore",9
5842041f4e65fad6a7708a40,2024_04_30,35.97427620657821,-75.62984,Nags Head Pier,2.3333333333333335,0.6983962962962963,1.0345348148148148,14,11,"NIGHT_CLEAR,NIGHT_CLEAR,NIGHT_CLEAR,NIGHT_CLEAR,NIGHT_CLEAR,CLEAR,CLEAR,CLEAR,CLEAR","Offshore,Offshore,Offshore,Offshore,Offshore,Offshore,Offshore,Offshore,Offshore",9
