_id,date,lat,lon,name,daily_mean_swell_rating,daily_mean_wave_height_min,daily_mean_wave_height_max,daily_mean_water_temperature_max,daily_mean_water_temperature_min,weather_per_timestamp,wind_per_timestamp,n_samples_per_day
5842041f4e65fad6a77087f9,2024_02_29,37.741668,-122.51038,South Ocean Beach,1.4,0.9069,1.17122,14,14,"NIGHT_MOSTLY_CLOUDY,NIGHT_MOSTLY_CLOUDY,NIGHT_BRIEF_SHOWERS,NIGHT_OVERCAST,NIGHT_OVERCAST,NIGHT_MOSTLY_CLOUDY,NIGHT_BRIEF_SHOWERS,NIGHT_MOSTLY_CLOUDY,NIGHT_MOSTLY_CLOUDY,CLOUDY","Onshore,Onshore,Cross-shore,Onshore,Cross-shore,Cross-shore,Cross-shore,Cross-shore,Cross-shore,Cross-shore",10
5842041f4e65fad6a7708801,2024_02_29,37.49142,-122.50428,Maverick's,NA,1.078,1.317,13,13,"NIGHT_BRIEF_SHOWERS,NIGHT_BRIEF_SHOWERS,NIGHT_BRIEF_SHOWERS,NIGHT_BRIEF_SHOWERS,NIGHT_BRIEF_SHOWERS,NIGHT_MIST,NIGHT_BRIEF_SHOWERS,NIGHT_MIST,NIGHT_MIST,MOSTLY_CLOUDY","Cross-shore,Onshore,Onshore,Onshore,Onshore,Onshore,Onshore,Onshore,Onshore,Onshore",10
5842041f4e65fad6a7708804,2024_02_29,44.997,-124.018,Roads End,0.8,3.061,3.621,11,11,"NIGHT_LIGHT_RAIN,NIGHT_HEAVY_RAIN,NIGHT_RAIN,NIGHT_LIGHT_RAIN,NIGHT_RAIN,NIGHT_BRIEF_SHOWERS_POSSIBLE,NIGHT_LIGHT_RAIN,NIGHT_LIGHT_RAIN,NIGHT_LIGHT_SHOWERS_POSSIBLE,LIGHT_SHOWERS_POSSIBLE","Cross-shore,Onshore,Onshore,Onshore,Onshore,Cross-shore,Cross-shore,Cross-shore,Onshore,Cross-shore",10
5842041f4e65fad6a7708805,2024_02_29,36.95188851423011,-122.02522,Steamer Lane,2.2,0.50918,0.84738,14,14,"NIGHT_CLEAR,NIGHT_MOSTLY_CLOUDY,NIGHT_MOSTLY_CLOUDY,NIGHT_MIST,NIGHT_FOG,NIGHT_FOG,NIGHT_BRIEF_SHOWERS,NIGHT_LIGHT_RAIN_AND_FOG,NIGHT_OVERCAST,MOSTLY_CLOUDY","Offshore,Cross-shore,Offshore,Offshore,Offshore,Offshore,Offshore,Offshore,Offshore,Cross-shore",10
5842041f4e65fad6a7708806,2024_02_29,36.95918781542251,-122.02489,Cowells,1,0,0.16486,14,14,"NIGHT_CLEAR,NIGHT_MOSTLY_CLOUDY,NIGHT_MOSTLY_CLOUDY,NIGHT_MIST,NIGHT_FOG,NIGHT_FOG,NIGHT_BRIEF_SHOWERS,NIGHT_LIGHT_RAIN_AND_FOG,NIGHT_OVERCAST,MOSTLY_CLOUDY","Offshore,Cross-shore,Offshore,Offshore,Offshore,Offshore,Offshore,Offshore,Cross-shore,Cross-shore",10
5842041f4e65fad6a7708807,2024_02_29,36.95468082526536,-121.97234,Pleasure Point,2.9,0.54168,0.85251999999999994,14,14,"NIGHT_BRIEF_SHOWERS,NIGHT_MOSTLY_CLOUDY,NIGHT_MOSTLY_CLOUDY,NIGHT_MOSTLY_CLOUDY,NIGHT_MOSTLY_CLOUDY,NIGHT_FOG,NIGHT_FOG,NIGHT_FOG,NIGHT_BRIEF_SHOWERS,FOG","Onshore,Onshore,Onshore,Offshore,Onshore,Cross-shore,Onshore,Onshore,Onshore,Cross-shore",10
5842041f4e65fad6a770880a,2024_02_29,35.37815414378748,-120.86589,Morro Bay,2.9,0.70968,1.04126,12,12,"NIGHT_MIST,NIGHT_MIST,NIGHT_MIST,NIGHT_MIST,NIGHT_MIST,NIGHT_FOG,NIGHT_FOG,NIGHT_DRIZZLE,NIGHT_BRIEF_SHOWERS,FOG","Offshore,Offshore,Offshore,Offshore,Offshore,Offshore,Offshore,Offshore,Offshore,Offshore",10
5842041f4e65fad6a770880b,2024_02_29,36.95782765000708,-121.9672887511276,Jack's,1.9,0.2005,0.5057200000000001,14,14,"NIGHT_BRIEF_SHOWERS,NIGHT_MOSTLY_CLOUDY,NIGHT_MOSTLY_CLOUDY,NIGHT_MOSTLY_CLOUDY,NIGHT_MOSTLY_CLOUDY,NIGHT_FOG,NIGHT_FOG,NIGHT_FOG,NIGHT_BRIEF_SHOWERS,FOG","Onshore,Onshore,Onshore,Offshore,Cross-shore,Cross-shore,Cross-shore,Cross-shore,Cross-shore,Cross-shore",10
5842041f4e65fad6a770880d,2024_02_29,34.29982939936656,-119.3489016603669,Gold Coast Beachbreaks,2,0.127,0.431,15,15,"NIGHT_MOSTLY_CLOUDY,NIGHT_DRIZZLE,NIGHT_MIST,NIGHT_MIST,NIGHT_FOG,NIGHT_FOG,NIGHT_FOG,NIGHT_FOG,NIGHT_FOG,FOG","Cross-shore,Cross-shore,Offshore,Cross-shore,Offshore,Offshore,Offshore,Offshore,Offshore,Cross-shore",10
5842041f4e65fad6a7708811,2024_02_29,34.245076,-119.26799,Ventura Harbor,2.1,0.601071,0.8743065,14,14,"NIGHT_OVERCAST,NIGHT_OVERCAST,NIGHT_OVERCAST,NIGHT_MIST,NIGHT_FOG,NIGHT_FOG,NIGHT_FOG,NIGHT_LIGHT_RAIN_AND_FOG,NIGHT_FOG,FOG","Cross-shore,Offshore,Offshore,Offshore,Offshore,Offshore,Offshore,Offshore,Cross-shore,Offshore",10
5842041f4e65fad6a7708813,2024_02_29,34.051,-118.964,County Line,2.7,0.38594,0.70128,15,15,"NIGHT_CLEAR,NIGHT_BRIEF_SHOWERS,NIGHT_BRIEF_SHOWERS,NIGHT_BRIEF_SHOWERS,NIGHT_FOG,NIGHT_LIGHT_RAIN_AND_FOG,NIGHT_LIGHT_RAIN_AND_FOG,NIGHT_FOG,NIGHT_LIGHT_RAIN_AND_FOG,LIGHT_RAIN","Offshore,Offshore,Offshore,Offshore,Offshore,Offshore,Offshore,Offshore,Offshore,Cross-shore",10
5842041f4e65fad6a7708814,2024_02_29,34.37256264378892,-119.47797,Rincon,1,0,0.293,15,15,"NIGHT_MIST,NIGHT_MIST,NIGHT_MIST,NIGHT_MIST,NIGHT_MOSTLY_CLOUDY,NIGHT_MIST,NIGHT_MIST,NIGHT_BRIEF_SHOWERS,NIGHT_MIST,MIST","Cross-shore,Onshore,Onshore,Onshore,Onshore,Onshore,Onshore,Onshore,Cross-shore,Cross-shore",10
5842041f4e65fad6a7708817,2024_02_29,34.03096101876324,-118.68109,Malibu Third Point,3,0.386,0.692,15,15,"NIGHT_BRIEF_SHOWERS,NIGHT_LIGHT_RAIN,NIGHT_LIGHT_RAIN,NIGHT_LIGHT_RAIN,NIGHT_FOG,NIGHT_LIGHT_RAIN_AND_FOG,NIGHT_RAIN_AND_FOG,NIGHT_LIGHT_RAIN_AND_FOG,NIGHT_LIGHT_RAIN_AND_FOG,LIGHT_RAIN_AND_FOG","Onshore,Onshore,Onshore,Onshore,Onshore,Onshore,Onshore,Onshore,Onshore,Onshore",10
5842041f4e65fad6a7708819,2024_02_29,33.984079047970035,-118.47381591796875,Venice Beach,2.4,0.35244,0.66528,14,14,"NIGHT_MIST,NIGHT_MIST,NIGHT_MIST,NIGHT_OVERCAST,NIGHT_DRIZZLE,NIGHT_LIGHT_RAIN,NIGHT_DRIZZLE,NIGHT_MIST,NIGHT_MIST,FOG","Onshore,Onshore,Onshore,Onshore,Onshore,Onshore,Onshore,Onshore,Onshore,Cross-shore",10
5842041f4e65fad6a770881e,2024_02_29,34.037508438646746,-118.58339846155594,Topanga Beach,2.2,0.24846,0.5623,15,15,"NIGHT_BRIEF_SHOWERS,NIGHT_LIGHT_RAIN,NIGHT_LIGHT_RAIN,NIGHT_LIGHT_RAIN,NIGHT_FOG,NIGHT_FOG,NIGHT_LIGHT_RAIN_AND_FOG,NIGHT_LIGHT_RAIN_AND_FOG,NIGHT_LIGHT_RAIN_AND_FOG,FOG","Cross-shore,Offshore,Cross-shore,Cross-shore,Onshore,Onshore,Onshore,Onshore,Cross-shore,Offshore",10
5842041f4e65fad6a7708820,2024_02_29,33.73954373690184,-118.11414,Seal Beach Jetty,1.9,0.189,0.493,15,15,"NIGHT_OVERCAST,NIGHT_MIST,NIGHT_MIST,NIGHT_DRIZZLE,NIGHT_FOG,NIGHT_FOG,NIGHT_FOG,NIGHT_FOG,NIGHT_FOG,FOG","Onshore,Onshore,Onshore,Onshore,Onshore,Onshore,Onshore,Onshore,Onshore,Onshore",10
5842041f4e65fad6a7708822,2024_02_29,33.72309983348433,-118.08078,Anderson Street,1,0,0.274,15,15,"NIGHT_MIST,NIGHT_MIST,NIGHT_DRIZZLE,NIGHT_MIST,NIGHT_FOG,NIGHT_FOG,NIGHT_FOG,NIGHT_FOG,NIGHT_FOG,FOG","Onshore,Onshore,Onshore,Onshore,Onshore,Onshore,Onshore,Onshore,Onshore,Onshore",10
5842041f4e65fad6a7708827,2024_02_29,33.65574085629463,-118.00397,Huntington Beach Pier Northside,2.6,0.5089933333333333,0.82828,14,14,"NIGHT_MIST,NIGHT_MIST,NIGHT_MIST,NIGHT_MIST,NIGHT_FOG,NIGHT_FOG,NIGHT_FOG,NIGHT_FOG,NIGHT_FOG,FOG","Onshore,Onshore,Onshore,Cross-shore,Cross-shore,Onshore,Onshore,Onshore,Onshore,Onshore",10
5842041f4e65fad6a7708828,2024_02_29,34.272041739333,-119.2997646331,C St.,2.1,0.27146000000000003,0.57668,14,14,"NIGHT_MOSTLY_CLOUDY,NIGHT_OVERCAST,NIGHT_MIST,NIGHT_MIST,NIGHT_MIST,NIGHT_MIST,NIGHT_MIST,NIGHT_MIST,NIGHT_MIST,MIST","Offshore,Offshore,Offshore,Offshore,Offshore,Offshore,Offshore,Offshore,Offshore,Offshore",10
5842041f4e65fad6a770882a,2024_02_29,33.61555743705257,-117.93676,Newport Lower Jetties,1.9,0.2980933333333333,0.59914,15,15,"NIGHT_MIST,NIGHT_MIST,NIGHT_MIST,NIGHT_MIST,NIGHT_FOG,NIGHT_FOG,NIGHT_FOG,NIGHT_FOG,NIGHT_FOG,FOG","Onshore,Onshore,Onshore,Cross-shore,Cross-shore,Onshore,Onshore,Onshore,Onshore,Cross-shore",10
5842041f4e65fad6a770882b,2024_02_29,33.5930302087,-117.88199,The Wedge,2.6,0.692333,1.122844,15,15,"NIGHT_MIST,NIGHT_MIST,NIGHT_MIST,NIGHT_MIST,NIGHT_FOG,NIGHT_FOG,NIGHT_FOG,NIGHT_FOG,NIGHT_FOG,FOG","Offshore,Offshore,Onshore,Onshore,Offshore,Onshore,Onshore,Onshore,Onshore,Offshore",10
5842041f4e65fad6a770882c,2024_02_29,33.60577342582,-117.9315376281,Newport Beach Pier,1.4,0.06221333333333334,0.3670933333333333,15,15,"NIGHT_MIST,NIGHT_MIST,NIGHT_DRIZZLE,NIGHT_MIST,NIGHT_MIST,NIGHT_MIST,NIGHT_MIST,NIGHT_FOG,NIGHT_MIST,BRIEF_SHOWERS","Onshore,Onshore,Onshore,Onshore,Onshore,Onshore,Onshore,Onshore,Onshore,Onshore",10
5842041f4e65fad6a770882e,2024_02_29,33.475793399792984,-117.72291,Salt Creek,3,0.45759333333333335,0.77534,14,14,"NIGHT_MIST,NIGHT_MIST,NIGHT_MIST,NIGHT_MIST,NIGHT_MIST,NIGHT_DRIZZLE,NIGHT_DRIZZLE,NIGHT_MIST,NIGHT_MIST,MIST","Onshore,Onshore,Onshore,Onshore,Onshore,Onshore,Onshore,Cross-shore,Cross-shore,Cross-shore",10
5842041f4e65fad6a7708830,2024_02_29,33.41800974113613,-117.61952,T-Street,3,0.41876,0.73734,14,14,"NIGHT_MIST,NIGHT_MIST,NIGHT_MIST,NIGHT_MIST,NIGHT_MIST,NIGHT_MIST,NIGHT_MIST,NIGHT_MIST,NIGHT_MIST,MIST","Onshore,Onshore,Onshore,Onshore,Onshore,Onshore,Onshore,Onshore,Onshore,Onshore",10
5842041f4e65fad6a7708832,2024_02_29,33.202391008646,-117.39475,Oceanside Harbor,3,0.52574,0.85187,16,16,"NIGHT_MIST,NIGHT_MIST,NIGHT_MIST,NIGHT_OVERCAST,NIGHT_MIST,NIGHT_MIST,NIGHT_MIST,NIGHT_MIST,NIGHT_FOG,FOG","Onshore,Onshore,Onshore,Onshore,Onshore,Onshore,Onshore,Onshore,Onshore,Cross-shore",10
5842041f4e65fad6a7708835,2024_02_29,33.19477795952803,-117.38667,Oceanside Pier,3,0.49226,0.80933,16,16,"NIGHT_MIST,NIGHT_OVERCAST,NIGHT_OVERCAST,NIGHT_OVERCAST,NIGHT_FOG,NIGHT_FOG,NIGHT_FOG,NIGHT_FOG,NIGHT_FOG,FOG","Onshore,Onshore,Onshore,Onshore,Onshore,Onshore,Onshore,Onshore,Onshore,Onshore",10
5842041f4e65fad6a7708837,2024_02_29,33.14948100706,-117.35029,Tamarack,2.8,0.475,0.777,15,15,"NIGHT_MIST,NIGHT_CLOUDY,NIGHT_MIST,NIGHT_MIST,NIGHT_MIST,NIGHT_DRIZZLE,NIGHT_MIST,NIGHT_MIST,NIGHT_FOG,MOSTLY_CLOUDY","Onshore,Onshore,Onshore,Onshore,Onshore,Onshore,Onshore,Onshore,Onshore,Onshore",10
5842041f4e65fad6a7708839,2024_02_29,32.865777159358856,-117.25614295356122,Scripps,2.6,0.56641,0.88829,15,15,"NIGHT_OVERCAST,NIGHT_MIST,NIGHT_MIST,NIGHT_MIST,NIGHT_FOG,NIGHT_MIST,NIGHT_MIST,NIGHT_MIST,NIGHT_MOSTLY_CLOUDY,MIST","Cross-shore,Onshore,Onshore,Cross-shore,Cross-shore,Cross-shore,Cross-shore,Cross-shore,Offshore,Offshore",10
5842041f4e65fad6a770883a,2024_02_29,32.813094,-117.27381,Birdrock,3,0.5660000000000001,0.872,15,15,"NIGHT_DRIZZLE,NIGHT_DRIZZLE,NIGHT_MIST,NIGHT_DRIZZLE,NIGHT_FOG,NIGHT_FOG,NIGHT_FOG,NIGHT_FOG,NIGHT_MOSTLY_CLOUDY,MIST","Onshore,Onshore,Cross-shore,Onshore,Cross-shore,Cross-shore,Offshore,Offshore,Offshore,Onshore",10
5842041f4e65fad6a770883b,2024_02_29,32.877231,-117.25303,Blacks,2.6,0.76924,1.10661,15,15,"NIGHT_OVERCAST,NIGHT_MIST,NIGHT_MIST,NIGHT_MIST,NIGHT_FOG,NIGHT_MIST,NIGHT_MIST,NIGHT_MIST,NIGHT_MOSTLY_CLOUDY,MIST","Onshore,Onshore,Onshore,Onshore,Onshore,Onshore,Onshore,Onshore,Cross-shore,Cross-shore",10
5842041f4e65fad6a770883c,2024_02_29,32.82978974229765,-117.28161740727381,Windansea,2.7,0.68699,1.01112,15,15,"NIGHT_OVERCAST,NIGHT_MIST,NIGHT_MIST,NIGHT_MIST,NIGHT_FOG,NIGHT_FOG,NIGHT_FOG,NIGHT_MIST,NIGHT_FOG,FOG","Onshore,Onshore,Onshore,Onshore,Onshore,Onshore,Onshore,Cross-shore,Cross-shore,Cross-shore",10
5842041f4e65fad6a770883d,2024_02_29,32.838278,-117.28396,Horseshoe,3,0.627,0.9319999999999999,15,15,"NIGHT_OVERCAST,NIGHT_MIST,NIGHT_MIST,NIGHT_MIST,NIGHT_FOG,NIGHT_FOG,NIGHT_FOG,NIGHT_MIST,NIGHT_FOG,FOG","Onshore,Cross-shore,Offshore,Onshore,Onshore,Offshore,Offshore,Offshore,Offshore,Onshore",10
5842041f4e65fad6a770883f,2024_02_29,32.75034717673179,-117.25337,Ocean Beach,2.5,0.6381600000000001,0.99153,15,15,"NIGHT_MIST,NIGHT_MIST,NIGHT_MIST,NIGHT_MIST,NIGHT_FOG,NIGHT_MIST,NIGHT_FOG,NIGHT_FOG,NIGHT_MIST,MIST","Onshore,Onshore,Onshore,Onshore,Onshore,Onshore,Onshore,Cross-shore,Cross-shore,Cross-shore",10
5842041f4e65fad6a7708840,2024_02_29,32.73693,-117.25718,Sunset Cliffs,2,0.51,0.8140000000000001,15,15,"NIGHT_MIST,NIGHT_DRIZZLE,NIGHT_MIST,NIGHT_MIST,NIGHT_FOG,NIGHT_FOG,NIGHT_FOG,NIGHT_FOG,NIGHT_MOSTLY_CLOUDY,FOG","Onshore,Onshore,Onshore,Onshore,Onshore,Onshore,Onshore,Cross-shore,Cross-shore,Cross-shore",10
5842041f4e65fad6a7708841,2024_02_29,32.796582258728826,-117.25779,Pacific Beach,2.9,0.66876,0.98883,15,15,"NIGHT_MIST,NIGHT_MIST,NIGHT_MIST,NIGHT_MIST,NIGHT_MIST,NIGHT_MIST,NIGHT_MIST,NIGHT_FOG,NIGHT_MIST,FOG","Cross-shore,Onshore,Cross-shore,Onshore,Cross-shore,Cross-shore,Offshore,Offshore,Offshore,Onshore",10
5842041f4e65fad6a7708842,2024_02_29,32.776636,-117.25514,Mission Beach,2.9,0.66851,0.98658,15,15,"NIGHT_MIST,NIGHT_MIST,NIGHT_MIST,NIGHT_MIST,NIGHT_MIST,NIGHT_MIST,NIGHT_MIST,NIGHT_FOG,NIGHT_MIST,FOG","Onshore,Onshore,Offshore,Onshore,Offshore,Offshore,Offshore,Offshore,Offshore,Onshore",10
5842041f4e65fad6a7708844,2024_02_29,32.577195519016,-117.13475,Imperial Beach Pier,2.5,0.627,0.932,15.6,15.6,"NIGHT_MOSTLY_CLOUDY,NIGHT_CLEAR,NIGHT_CLEAR,NIGHT_CLOUDY,NIGHT_MIST,NIGHT_OVERCAST,NIGHT_FOG,NIGHT_FOG,NIGHT_MOSTLY_CLOUDY,MOSTLY_CLOUDY","Cross-shore,Cross-shore,Onshore,Onshore,Onshore,Onshore,Onshore,Onshore,Onshore,Cross-shore",10
5842041f4e65fad6a770884a,2024_02_29,42.88678181061,-70.80843,Seabrook,2.517,0.7216535,1.1142465,4,3,"NIGHT_OVERCAST,NIGHT_OVERCAST,NIGHT_CLEAR,NIGHT_CLEAR,NIGHT_CLEAR,NIGHT_CLEAR,CLEAR,CLEAR,CLEAR,CLEAR","Offshore,Offshore,Offshore,Offshore,Offshore,Offshore,Offshore,Offshore,Offshore,Offshore",10
5842041f4e65fad6a770884e,2024_02_29,41.434181432898335,-71.45312118111178,Narragansett,2.633,0.81393,1.20719,6,4,"NIGHT_CLEAR,NIGHT_CLEAR,NIGHT_CLEAR,NIGHT_CLEAR,NIGHT_CLEAR,NIGHT_CLEAR,CLEAR,CLEAR,CLEAR,CLEAR","Offshore,Offshore,Offshore,Offshore,Offshore,Offshore,Offshore,Offshore,Offshore,Offshore",10
5842041f4e65fad6a7708850,2024_02_29,40.582703230722,-73.65247,Lincoln Blvd,1.616,0.9376239999999999,1.399802,5,4,"NIGHT_CLEAR,NIGHT_CLEAR,NIGHT_CLEAR,NIGHT_CLEAR,NIGHT_CLEAR,NIGHT_CLEAR,CLEAR,CLEAR,CLEAR,CLEAR","Onshore,Cross-shore,Onshore,Cross-shore,Onshore,Onshore,Onshore,Onshore,Onshore,Onshore",10
5842041f4e65fad6a7708852,2024_02_29,40.58342841721757,-73.81182,Rockaways,2.166,0.86283,1.3621753333333333,5,4,"NIGHT_CLEAR,NIGHT_CLEAR,NIGHT_CLEAR,NIGHT_CLEAR,NIGHT_CLEAR,NIGHT_CLEAR,CLEAR,CLEAR,CLEAR,CLEAR","Offshore,Offshore,Offshore,Offshore,Offshore,Cross-shore,Cross-shore,Offshore,Cross-shore,Offshore",10
5842041f4e65fad6a7708853,2024_02_29,40.330474,-73.9734,Monmouth Beach,2.4,0.9196366666666667,1.1979966666666666,7,6,"NIGHT_CLEAR,NIGHT_CLEAR,NIGHT_CLEAR,NIGHT_CLEAR,NIGHT_CLEAR,NIGHT_CLEAR,CLEAR,CLEAR,CLEAR,CLEAR","Offshore,Offshore,Offshore,Offshore,Offshore,Offshore,Offshore,Offshore,Offshore,Offshore",10
5842041f4e65fad6a7708856,2024_02_29,40.113,-74.028,Manasquan Inlet,3.283,0.8670966666666666,1.3697666666666666,7,6,"NIGHT_CLEAR,NIGHT_CLEAR,NIGHT_CLEAR,NIGHT_CLEAR,NIGHT_CLEAR,NIGHT_CLEAR,CLEAR,CLEAR,CLEAR,CLEAR","Offshore,Offshore,Offshore,Offshore,Offshore,Offshore,Offshore,Offshore,Offshore,Offshore",10
5842041f4e65fad6a7708857,2024_02_29,39.941519877445664,-74.06829,Casino Pier,2.733,1.0059233333333333,1.5096766666666666,7,6,"NIGHT_CLEAR,NIGHT_CLEAR,NIGHT_CLEAR,NIGHT_CLEAR,NIGHT_CLEAR,NIGHT_CLEAR,CLEAR,CLEAR,CLEAR,CLEAR","Offshore,Offshore,Offshore,Offshore,Offshore,Offshore,Offshore,Offshore,Offshore,Offshore",10
5842041f4e65fad6a7708858,2024_02_29,39.28223089949212,-74.55766,North End OC,2.95,0.71726,1.08279,7,6,"NIGHT_CLEAR,NIGHT_CLEAR,NIGHT_CLEAR,NIGHT_CLEAR,NIGHT_CLEAR,NIGHT_CLEAR,CLEAR,CLEAR,CLEAR,CLEAR","Offshore,Offshore,Offshore,Offshore,Offshore,Offshore,Offshore,Offshore,Offshore,Offshore",10
5842041f4e65fad6a770885b,2024_02_29,39.65080599934257,-74.17146,Ship Bottom,2.683,1.0161066666666667,1.3472333333333335,7,6,"NIGHT_CLEAR,NIGHT_CLEAR,NIGHT_CLEAR,NIGHT_CLEAR,NIGHT_CLEAR,NIGHT_CLEAR,CLEAR,CLEAR,CLEAR,CLEAR","Offshore,Offshore,Offshore,Offshore,Offshore,Offshore,Offshore,Offshore,Offshore,Offshore",10
5842041f4e65fad6a7708863,2024_02_29,36.034151543144,-75.66791,Third Street,1.1,0.48043,0.7835666666666667,9,6,"NIGHT_LIGHT_RAIN,NIGHT_OVERCAST,NIGHT_CLEAR,NIGHT_CLEAR,NIGHT_CLEAR,NIGHT_CLEAR,CLEAR,CLEAR,CLEAR,CLEAR","Cross-shore,Cross-shore,Cross-shore,Cross-shore,Cross-shore,Cross-shore,Cross-shore,Cross-shore,Cross-shore,Onshore",10
5842041f4e65fad6a7708867,2024_02_29,35.605833221351425,-75.46303,S-Turns,0.65,0.7134400000000001,1.05521,11,9,"NIGHT_OVERCAST,NIGHT_DRIZZLE,NIGHT_OVERCAST,NIGHT_CLEAR,NIGHT_CLEAR,NIGHT_CLEAR,CLEAR,CLEAR,CLEAR,CLEAR","Offshore,Offshore,Cross-shore,Offshore,Cross-shore,Cross-shore,Cross-shore,Cross-shore,Cross-shore,Cross-shore",10
5842041f4e65fad6a770886d,2024_02_29,38.338461,-75.08117,Ocean City Boardwalk,2,0.7253033333333333,1.0552033333333333,7,6,"NIGHT_CLEAR,NIGHT_CLEAR,NIGHT_CLEAR,NIGHT_CLEAR,NIGHT_CLEAR,NIGHT_CLEAR,CLEAR,CLEAR,CLEAR,CLEAR","Offshore,Offshore,Offshore,Offshore,Offshore,Offshore,Offshore,Offshore,Offshore,Offshore",10
5842041f4e65fad6a770886f,2024_02_29,29.844757212379562,-81.26136,A St.,1.4,0.25,0.556,16,16,"NIGHT_CLEAR,NIGHT_MOSTLY_CLOUDY,NIGHT_CLEAR,NIGHT_MOSTLY_CLOUDY,NIGHT_OVERCAST,NIGHT_CLOUDY,OVERCAST,MOSTLY_CLOUDY,OVERCAST,OVERCAST","Offshore,Offshore,Offshore,Cross-shore,Cross-shore,Cross-shore,Cross-shore,Cross-shore,Cross-shore,Cross-shore",10
5842041f4e65fad6a7708871,2024_02_29,29.069417851135093,-80.90824,New Smyrna Beach,1.7,0.36468,0.67036,18,17,"NIGHT_CLEAR,NIGHT_CLEAR,NIGHT_CLEAR,NIGHT_CLEAR,NIGHT_CLEAR,NIGHT_MOSTLY_CLOUDY,LIGHT_RAIN_AND_FOG,DRIZZLE,DRIZZLE,OVERCAST","Offshore,Offshore,Offshore,Offshore,Offshore,Offshore,Cross-shore,Cross-shore,Cross-shore,Cross-shore",10
5842041f4e65fad6a7708872,2024_02_29,28.367707417566,-80.60171,Cocoa Beach Pier,1.4,0.14200000000000002,0.44772,19,18,"NIGHT_CLEAR,NIGHT_CLEAR,NIGHT_CLEAR,NIGHT_OVERCAST,NIGHT_CLEAR,NIGHT_CLEAR,CLEAR,MIST,MIST,OVERCAST","Offshore,Offshore,Offshore,Offshore,Cross-shore,Cross-shore,Offshore,Offshore,Offshore,Offshore",10
5842041f4e65fad6a7708873,2024_02_29,28.091782738658846,-80.56479,Indialantic,1.4,0.12466666666666666,0.4303033333333333,19,18,"NIGHT_CLEAR,NIGHT_CLEAR,NIGHT_CLEAR,NIGHT_CLEAR,NIGHT_MOSTLY_CLEAR,NIGHT_CLEAR,CLEAR,CLEAR,CLEAR,CLEAR","Offshore,Offshore,Offshore,Offshore,Offshore,Offshore,Offshore,Cross-shore,Cross-shore,Cross-shore",10
5842041f4e65fad6a7708876,2024_02_29,27.25392904143517,-80.19455,Jensen Beach,1.3,0.058499999999999996,0.30884,23,20,"NIGHT_CLEAR,NIGHT_CLEAR,NIGHT_CLEAR,NIGHT_CLEAR,NIGHT_CLEAR,NIGHT_CLEAR,CLEAR,CLEAR,CLEAR,CLEAR","Offshore,Offshore,Offshore,Offshore,Cross-shore,Onshore,Onshore,Onshore,Onshore,Offshore",10
5842041f4e65fad6a7708879,2024_02_29,26.76346795333825,-80.0360655784607,Reef Road,1.3,0.0915,0.34234000000000003,24,23,"NIGHT_OVERCAST,NIGHT_MOSTLY_CLOUDY,NIGHT_OVERCAST,NIGHT_MOSTLY_CLOUDY,NIGHT_CLEAR,NIGHT_CLEAR,CLEAR,CLEAR,CLEAR,CLEAR","Cross-shore,Offshore,Offshore,Offshore,Offshore,Cross-shore,Onshore,Onshore,Onshore,Onshore",10
5842041f4e65fad6a770887c,2024_02_29,26.336499228484,-80.06956100463,Boca Raton Inlet,0.7,0.001,0.29418,25,23,"NIGHT_CLEAR,NIGHT_CLEAR,NIGHT_CLEAR,NIGHT_CLEAR,NIGHT_CLEAR,NIGHT_OVERCAST,MOSTLY_CLOUDY,MOSTLY_CLOUDY,MOSTLY_CLOUDY,MOSTLY_CLOUDY","Cross-shore,Cross-shore,Cross-shore,Onshore,Onshore,Onshore,Onshore,Onshore,Onshore,Onshore",10
5842041f4e65fad6a770887d,2024_02_29,26.31719311695038,-80.07452525176168,Deerfield Beach Pier,0.6,0.07994699999999999,0.2201665,25,23,"NIGHT_CLEAR,NIGHT_CLEAR,NIGHT_MOSTLY_CLOUDY,NIGHT_MOSTLY_CLOUDY,NIGHT_CLEAR,NIGHT_OVERCAST,MOSTLY_CLOUDY,MOSTLY_CLOUDY,BRIEF_SHOWERS,MOSTLY_CLOUDY","Cross-shore,Cross-shore,Cross-shore,Onshore,Onshore,Onshore,Onshore,Onshore,Onshore,Onshore",10
5842041f4e65fad6a7708881,2024_02_29,30.20276320866628,-85.85626528676136,"Spyglass Dr., Panama City",1.4,0.224,0.52757,18,17,"NIGHT_MOSTLY_CLEAR,NIGHT_MOSTLY_CLOUDY,NIGHT_MOSTLY_CLOUDY,NIGHT_MOSTLY_CLOUDY,NIGHT_CLEAR,NIGHT_MOSTLY_CLOUDY,NIGHT_MOSTLY_CLOUDY,MOSTLY_CLOUDY,CLEAR,CLEAR","Offshore,Offshore,Offshore,Offshore,Offshore,Offshore,Offshore,Offshore,Offshore,Offshore",10
5842041f4e65fad6a7708884,2024_02_29,33.39000832738053,-117.59852,Cottons,3,0.46665999999999996,0.78678,14,14,"NIGHT_MIST,NIGHT_MIST,NIGHT_MIST,NIGHT_MIST,NIGHT_FOG,NIGHT_LIGHT_RAIN_AND_FOG,NIGHT_FOG,NIGHT_FOG,NIGHT_FOG,FOG","Offshore,Cross-shore,Cross-shore,Offshore,Offshore,Cross-shore,Cross-shore,Cross-shore,Cross-shore,Offshore",10
5842041f4e65fad6a7708885,2024_02_29,33.359416282661,-117.54167901405711,Trails,3,0.334,0.639,15,15,"NIGHT_MIST,NIGHT_MIST,NIGHT_DRIZZLE,NIGHT_MIST,NIGHT_FOG,NIGHT_FOG,NIGHT_FOG,NIGHT_FOG,NIGHT_FOG,MIST","Offshore,Offshore,Offshore,Offshore,Cross-shore,Onshore,Cross-shore,Offshore,Offshore,Offshore",10
5842041f4e65fad6a7708886,2024_02_29,33.38042605929805,-117.58332,Middles,3,0.4974266666666667,0.8274133333333333,14,14,"NIGHT_MIST,NIGHT_MIST,NIGHT_MIST,NIGHT_MIST,NIGHT_FOG,NIGHT_LIGHT_RAIN_AND_FOG,NIGHT_FOG,NIGHT_FOG,NIGHT_FOG,FOG","Offshore,Offshore,Offshore,Offshore,Offshore,Cross-shore,Onshore,Cross-shore,Offshore,Offshore",10
5842041f4e65fad6a7708887,2024_02_29,33.38445596302903,-117.59445,Upper Trestles,3,0.5558266666666667,0.8769466666666667,14,14,"NIGHT_MIST,NIGHT_MIST,NIGHT_MIST,NIGHT_MIST,NIGHT_FOG,NIGHT_LIGHT_RAIN_AND_FOG,NIGHT_FOG,NIGHT_FOG,NIGHT_FOG,FOG","Offshore,Offshore,Offshore,Offshore,Offshore,Cross-shore,Onshore,Offshore,Cross-shore,Offshore",10
5842041f4e65fad6a7708889,2024_02_29,28.944414,-95.28883,Surfside,0.1,0.632838,0.9888089999999999,17,17,"NIGHT_CLEAR,NIGHT_CLOUDY,NIGHT_CLEAR,NIGHT_OVERCAST,NIGHT_CLEAR,NIGHT_CLOUDY,NIGHT_CLOUDY,OVERCAST,CLOUDY,OVERCAST","Cross-shore,Cross-shore,Cross-shore,Cross-shore,Cross-shore,Cross-shore,Cross-shore,Cross-shore,Cross-shore,Cross-shore",10
5842041f4e65fad6a770888a,2024_02_29,33.38143999849023,-117.58843,Lower Trestles,3,0.6463066666666666,0.9811266666666667,14,14,"NIGHT_MIST,NIGHT_MIST,NIGHT_MIST,NIGHT_MIST,NIGHT_FOG,NIGHT_LIGHT_RAIN_AND_FOG,NIGHT_FOG,NIGHT_FOG,NIGHT_FOG,FOG","Offshore,Offshore,Offshore,Offshore,Offshore,Cross-shore,Onshore,Offshore,Cross-shore,Offshore",10
5842041f4e65fad6a770888b,2024_02_29,33.379622288757,-117.57894,Church,3,0.53976,0.88358,14,14,"NIGHT_MIST,NIGHT_MIST,NIGHT_MIST,NIGHT_MIST,NIGHT_FOG,NIGHT_LIGHT_RAIN_AND_FOG,NIGHT_FOG,NIGHT_FOG,NIGHT_FOG,FOG","Offshore,Offshore,Offshore,Offshore,Offshore,Cross-shore,Onshore,Cross-shore,Cross-shore,Cross-shore",10
5842041f4e65fad6a770888d,2024_02_29,21.679,-158.042,Sunset Beach,3,0.517,0.823,26,25,"NIGHT_CLEAR,NIGHT_OVERCAST,NIGHT_BRIEF_SHOWERS_POSSIBLE,NIGHT_OVERCAST,NIGHT_OVERCAST,NIGHT_CLEAR,NIGHT_SHOWERS,NIGHT_MOSTLY_CLEAR,NIGHT_CLEAR,NIGHT_CLEAR","Offshore,Offshore,Offshore,Offshore,Offshore,Offshore,Offshore,Offshore,Onshore,Offshore",10
5842041f4e65fad6a770888e,2024_02_29,21.670550036401,-158.0482,Rocky Point,2.7,0.607,0.911,26,25,"NIGHT_CLEAR,NIGHT_CLEAR,NIGHT_MOSTLY_CLOUDY,NIGHT_OVERCAST,NIGHT_DRIZZLE,NIGHT_MOSTLY_CLEAR,NIGHT_SHOWERS,NIGHT_MOSTLY_CLEAR,NIGHT_BRIEF_SHOWERS,NIGHT_MOSTLY_CLOUDY","Cross-shore,Cross-shore,Cross-shore,Cross-shore,Cross-shore,Cross-shore,Offshore,Cross-shore,Cross-shore,Cross-shore",10
5842041f4e65fad6a770888f,2024_02_29,21.668,-158.05,Chambers,2.9,0.552,0.859,24,24,"NIGHT_CLEAR,NIGHT_CLEAR,NIGHT_MOSTLY_CLOUDY,NIGHT_OVERCAST,NIGHT_DRIZZLE,NIGHT_MOSTLY_CLEAR,NIGHT_SHOWERS,NIGHT_MOSTLY_CLEAR,NIGHT_BRIEF_SHOWERS,NIGHT_MOSTLY_CLOUDY","Cross-shore,Cross-shore,Cross-shore,Cross-shore,Cross-shore,Offshore,Cross-shore,Cross-shore,Onshore,Onshore",10
5842041f4e65fad6a7708890,2024_02_29,21.66522,-158.0526,Pipeline,1,0.352,0.659,26,25,"NIGHT_CLEAR,NIGHT_CLEAR,NIGHT_MOSTLY_CLOUDY,NIGHT_OVERCAST,NIGHT_DRIZZLE,NIGHT_MOSTLY_CLEAR,NIGHT_SHOWERS,NIGHT_MOSTLY_CLEAR,NIGHT_BRIEF_SHOWERS,NIGHT_MOSTLY_CLOUDY","Cross-shore,Cross-shore,Cross-shore,Cross-shore,Cross-shore,Cross-shore,Offshore,Cross-shore,Onshore,Offshore",10
5842041f4e65fad6a7708891,2024_02_29,21.665,-158.054,Backdoor,2,0.352,0.659,26,25,"NIGHT_CLEAR,NIGHT_CLEAR,NIGHT_MOSTLY_CLOUDY,NIGHT_OVERCAST,NIGHT_DRIZZLE,NIGHT_MOSTLY_CLEAR,NIGHT_SHOWERS,NIGHT_MOSTLY_CLEAR,NIGHT_BRIEF_SHOWERS,NIGHT_MOSTLY_CLOUDY","Cross-shore,Cross-shore,Cross-shore,Cross-shore,Cross-shore,Cross-shore,Offshore,Cross-shore,Onshore,Offshore",10
5842041f4e65fad6a7708892,2024_02_29,21.662,-158.057,Rockpile,3,0.628,0.9359999999999999,24,24,"NIGHT_CLEAR,NIGHT_CLEAR,NIGHT_MOSTLY_CLOUDY,NIGHT_OVERCAST,NIGHT_DRIZZLE,NIGHT_MOSTLY_CLEAR,NIGHT_SHOWERS,NIGHT_MOSTLY_CLEAR,NIGHT_BRIEF_SHOWERS,NIGHT_MOSTLY_CLOUDY","Cross-shore,Cross-shore,Cross-shore,Cross-shore,Cross-shore,Cross-shore,Cross-shore,Cross-shore,Cross-shore,Offshore",10
5842041f4e65fad6a7708893,2024_02_29,21.65870453806827,-158.06058,Log Cabins,2,0.372,0.675,24,24,"NIGHT_CLEAR,NIGHT_CLEAR,NIGHT_MOSTLY_CLOUDY,NIGHT_OVERCAST,NIGHT_DRIZZLE,NIGHT_MOSTLY_CLEAR,NIGHT_SHOWERS,NIGHT_MOSTLY_CLEAR,NIGHT_BRIEF_SHOWERS,NIGHT_MOSTLY_CLOUDY","Cross-shore,Cross-shore,Cross-shore,Cross-shore,Cross-shore,Cross-shore,Offshore,Cross-shore,Onshore,Offshore",10
5842041f4e65fad6a7708894,2024_02_29,21.66203493640557,-158.05495,Off-The-Wall,2.6,0.431,0.735,24,24,"NIGHT_CLEAR,NIGHT_CLEAR,NIGHT_MOSTLY_CLOUDY,NIGHT_OVERCAST,NIGHT_DRIZZLE,NIGHT_MOSTLY_CLEAR,NIGHT_SHOWERS,NIGHT_MOSTLY_CLEAR,NIGHT_BRIEF_SHOWERS,NIGHT_MOSTLY_CLOUDY","Cross-shore,Cross-shore,Cross-shore,Cross-shore,Cross-shore,Cross-shore,Onshore,Cross-shore,Onshore,Cross-shore",10
5842041f4e65fad6a7708895,2024_02_29,21.643,-158.067,Waimea Bay,NA,0.36,0.663,26,25,"NIGHT_CLEAR,NIGHT_CLEAR,NIGHT_MOSTLY_CLOUDY,NIGHT_OVERCAST,NIGHT_DRIZZLE,NIGHT_MOSTLY_CLEAR,NIGHT_SHOWERS,NIGHT_MOSTLY_CLEAR,NIGHT_BRIEF_SHOWERS,NIGHT_MOSTLY_CLOUDY","Offshore,Offshore,Offshore,Offshore,Offshore,Offshore,Offshore,Offshore,Cross-shore,Offshore",10
5842041f4e65fad6a7708896,2024_02_29,21.622,-158.087,Hultin's,2,0.443,0.751,26,25,"NIGHT_CLOUDY,NIGHT_CLEAR,NIGHT_CLEAR,NIGHT_CLEAR,NIGHT_CLOUDY,NIGHT_MOSTLY_CLEAR,NIGHT_SHOWERS,NIGHT_CLEAR,NIGHT_CLEAR,NIGHT_CLEAR","Offshore,Offshore,Offshore,Offshore,Offshore,Offshore,Offshore,Offshore,Offshore,Offshore",10
5842041f4e65fad6a7708897,2024_02_29,21.623,-158.085,Jocko's,2,0.34099999999999997,0.647,24,24,"NIGHT_CLOUDY,NIGHT_CLEAR,NIGHT_CLEAR,NIGHT_CLEAR,NIGHT_CLOUDY,NIGHT_MOSTLY_CLEAR,NIGHT_SHOWERS,NIGHT_CLEAR,NIGHT_CLEAR,NIGHT_CLEAR","Onshore,Onshore,Cross-shore,Cross-shore,Onshore,Onshore,Onshore,Onshore,Cross-shore,Onshore",10
5842041f4e65fad6a7708898,2024_02_29,21.62,-158.088,Laniakea,2.5,0.606,0.909,26,25,"NIGHT_CLOUDY,NIGHT_CLEAR,NIGHT_CLEAR,NIGHT_CLEAR,NIGHT_CLOUDY,NIGHT_MOSTLY_CLEAR,NIGHT_SHOWERS,NIGHT_CLEAR,NIGHT_CLEAR,NIGHT_CLEAR","Cross-shore,Cross-shore,Offshore,Offshore,Cross-shore,Cross-shore,Cross-shore,Cross-shore,Offshore,Cross-shore",10
5842041f4e65fad6a7708899,2024_02_29,21.625,-158.083,Chun's,1,0.566,0.87,24,24,"NIGHT_CLOUDY,NIGHT_CLEAR,NIGHT_CLEAR,NIGHT_CLEAR,NIGHT_CLOUDY,NIGHT_MOSTLY_CLEAR,NIGHT_SHOWERS,NIGHT_CLEAR,NIGHT_CLEAR,NIGHT_CLEAR","Offshore,Offshore,Offshore,Offshore,Offshore,Offshore,Offshore,Offshore,Offshore,Offshore",10
5842041f4e65fad6a770889c,2024_02_29,21.286357895152136,-157.8515,South Shore - Ala Moana Park,2,0.551,0.856,24,24,"NIGHT_CLEAR,NIGHT_CLEAR,NIGHT_CLEAR,NIGHT_CLEAR,NIGHT_CLEAR,NIGHT_OVERCAST,NIGHT_CLEAR,NIGHT_CLEAR,NIGHT_CLEAR,NIGHT_CLEAR","Offshore,Offshore,Offshore,Offshore,Offshore,Offshore,Offshore,Offshore,Offshore,Offshore",10
5842041f4e65fad6a770889d,2024_02_29,19.606,-155.978,Banyans,2.9,0.379,0.684,26,25,"NIGHT_MOSTLY_CLOUDY,NIGHT_MOSTLY_CLOUDY,NIGHT_MOSTLY_CLOUDY,NIGHT_MOSTLY_CLOUDY,NIGHT_CLEAR,NIGHT_CLEAR,NIGHT_MOSTLY_CLEAR,NIGHT_CLEAR,NIGHT_CLEAR,NIGHT_CLEAR","Cross-shore,Cross-shore,Onshore,Onshore,Offshore,Offshore,Offshore,Offshore,Cross-shore,Cross-shore",10
5842041f4e65fad6a770889e,2024_02_29,20.029,-155.831,Kawaihae,1.5,0.4444,0.5879840000000001,25,25,"NIGHT_CLEAR,NIGHT_CLEAR,NIGHT_CLEAR,NIGHT_CLEAR,NIGHT_CLEAR,NIGHT_CLEAR,NIGHT_CLEAR,NIGHT_CLEAR,NIGHT_CLEAR,NIGHT_CLEAR","Offshore,Offshore,Offshore,Offshore,Onshore,Cross-shore,Offshore,Offshore,Offshore,Offshore",10
5842041f4e65fad6a770889f,2024_02_29,33.07541383424675,-117.3105,Grandview,3,0.445,0.749,15,15,"NIGHT_OVERCAST,NIGHT_OVERCAST,NIGHT_OVERCAST,NIGHT_MIST,NIGHT_MIST,NIGHT_MIST,NIGHT_MIST,NIGHT_FOG,NIGHT_CLEAR,FOG","Onshore,Onshore,Cross-shore,Cross-shore,Offshore,Offshore,Offshore,Offshore,Offshore,Cross-shore",10
5842041f4e65fad6a77088a0,2024_02_29,33.065267421296596,-117.30577,Beacons,3,0.446,0.748,15,15,"NIGHT_OVERCAST,NIGHT_OVERCAST,NIGHT_OVERCAST,NIGHT_MIST,NIGHT_MIST,NIGHT_MIST,NIGHT_MIST,NIGHT_FOG,NIGHT_CLEAR,FOG","Onshore,Onshore,Onshore,Cross-shore,Offshore,Offshore,Offshore,Offshore,Offshore,Offshore",10
5842041f4e65fad6a77088a2,2024_02_29,21.252,-157.805,Diamond Head,3,0.745059,1.066116,26,25,"NIGHT_CLEAR,NIGHT_CLEAR,NIGHT_CLEAR,NIGHT_CLEAR,NIGHT_CLOUDY,NIGHT_CLEAR,NIGHT_CLOUDY,NIGHT_CLOUDY,NIGHT_CLEAR,NIGHT_CLEAR","Cross-shore,Cross-shore,Cross-shore,Cross-shore,Cross-shore,Cross-shore,Cross-shore,Cross-shore,Cross-shore,Offshore",10
5842041f4e65fad6a77088a3,2024_02_29,33.04694255008896,-117.29966,Moonlight State Beach,3,0.444,0.748,15,15,"NIGHT_OVERCAST,NIGHT_OVERCAST,NIGHT_MIST,NIGHT_MIST,NIGHT_MIST,NIGHT_MIST,NIGHT_MIST,NIGHT_FOG,NIGHT_CLEAR,FOG","Onshore,Onshore,Cross-shore,Cross-shore,Offshore,Offshore,Offshore,Offshore,Offshore,Offshore",10
5842041f4e65fad6a77088a5,2024_02_29,33.08685865930869,-117.31532,Ponto,3,0.592,0.894,15,15,"NIGHT_OVERCAST,NIGHT_OVERCAST,NIGHT_OVERCAST,NIGHT_MIST,NIGHT_MIST,NIGHT_MIST,NIGHT_MIST,NIGHT_FOG,NIGHT_CLEAR,FOG","Onshore,Onshore,Offshore,Offshore,Cross-shore,Offshore,Offshore,Offshore,Offshore,Offshore",10
5842041f4e65fad6a77088a6,2024_02_29,33.130343587871906,-117.33667796442558,Terra Mar Point,2.5,0.5362600000000001,0.86014,16,16,"NIGHT_OVERCAST,NIGHT_OVERCAST,NIGHT_OVERCAST,NIGHT_MIST,NIGHT_FOG,NIGHT_FOG,NIGHT_FOG,NIGHT_FOG,NIGHT_FOG,FOG","Onshore,Onshore,Onshore,Onshore,Onshore,Onshore,Onshore,Onshore,Onshore,Onshore",10
5842041f4e65fad6a77088af,2024_02_29,32.95916304183685,-117.26963,Del Mar,3,0.551,0.859,15,15,"NIGHT_OVERCAST,NIGHT_MIST,NIGHT_MIST,NIGHT_MIST,NIGHT_DRIZZLE,NIGHT_MIST,NIGHT_MIST,NIGHT_FOG,NIGHT_MOSTLY_CLOUDY,FOG","Onshore,Onshore,Onshore,Onshore,Onshore,Onshore,Onshore,Onshore,Onshore,Cross-shore",10
5842041f4e65fad6a77088b0,2024_02_29,32.97527261243354,-117.2721061331305,Del Mar Rivermouth,2.5,0.527,0.829,15,15,"NIGHT_OVERCAST,NIGHT_DRIZZLE,NIGHT_MIST,NIGHT_MIST,NIGHT_MIST,NIGHT_MIST,NIGHT_MIST,NIGHT_FOG,NIGHT_MOSTLY_CLOUDY,MOSTLY_CLOUDY","Onshore,Onshore,Onshore,Onshore,Onshore,Onshore,Onshore,Onshore,Onshore,Cross-shore",10
5842041f4e65fad6a77088b1,2024_02_29,33.01352178146273,-117.28219,Cardiff Reef,2.5,0.46301,0.78008,16,16,"NIGHT_OVERCAST,NIGHT_OVERCAST,NIGHT_MIST,NIGHT_MIST,NIGHT_MIST,NIGHT_MIST,NIGHT_MIST,NIGHT_FOG,NIGHT_FOG,FOG","Onshore,Onshore,Onshore,Onshore,Onshore,Onshore,Onshore,Onshore,Onshore,Onshore",10
5842041f4e65fad6a77088b3,2024_02_29,33.00211185876003,-117.2811,Seaside Reef,2.6,0.59701,0.91808,16,16,"NIGHT_OVERCAST,NIGHT_OVERCAST,NIGHT_MIST,NIGHT_MIST,NIGHT_MIST,NIGHT_MIST,NIGHT_MIST,NIGHT_FOG,NIGHT_MOSTLY_CLOUDY,MOSTLY_CLOUDY","Onshore,Onshore,Onshore,Onshore,Onshore,Onshore,Onshore,Onshore,Onshore,Cross-shore",10
5842041f4e65fad6a77088b4,2024_02_29,33.0341859796287,-117.29552,Swami's,3,0.60901,0.9363400000000001,16,16,"NIGHT_OVERCAST,NIGHT_OVERCAST,NIGHT_MIST,NIGHT_MIST,NIGHT_MIST,NIGHT_MIST,NIGHT_MIST,NIGHT_FOG,NIGHT_FOG,FOG","Onshore,Onshore,Offshore,Cross-shore,Offshore,Offshore,Offshore,Offshore,Offshore,Offshore",10
5842041f4e65fad6a77088b7,2024_02_29,33.04569760260221,-117.2994,D Street,3,0.505,0.808,15,15,"NIGHT_OVERCAST,NIGHT_OVERCAST,NIGHT_MIST,NIGHT_MIST,NIGHT_MIST,NIGHT_MIST,NIGHT_MIST,NIGHT_FOG,NIGHT_CLEAR,FOG","Onshore,Onshore,Cross-shore,Cross-shore,Offshore,Offshore,Offshore,Offshore,Offshore,Offshore",10
5842041f4e65fad6a77088b8,2024_02_29,33.02090944350196,-117.28535,San Elijo State Beach,2.6,0.37801,0.69933,16,16,"NIGHT_OVERCAST,NIGHT_OVERCAST,NIGHT_MIST,NIGHT_MIST,NIGHT_MIST,NIGHT_MIST,NIGHT_MIST,NIGHT_FOG,NIGHT_FOG,FOG","Onshore,Onshore,Onshore,Onshore,Onshore,Onshore,Onshore,Onshore,Onshore,Onshore",10
5842041f4e65fad6a77088c2,2024_02_29,32.80662846492798,-117.2688764333725,PB Point,2.9,0.532,0.837,15,15,"NIGHT_DRIZZLE,NIGHT_DRIZZLE,NIGHT_MIST,NIGHT_DRIZZLE,NIGHT_FOG,NIGHT_FOG,NIGHT_FOG,NIGHT_FOG,NIGHT_MOSTLY_CLOUDY,MIST","Cross-shore,Onshore,Cross-shore,Onshore,Onshore,Cross-shore,Cross-shore,Offshore,Onshore,Onshore",10
5842041f4e65fad6a77088c4,2024_02_29,32.8060476681448,-117.26479,Old Man's at Tourmaline,2.9,0.402,0.709,15,15,"NIGHT_DRIZZLE,NIGHT_DRIZZLE,NIGHT_MIST,NIGHT_DRIZZLE,NIGHT_FOG,NIGHT_FOG,NIGHT_FOG,NIGHT_FOG,NIGHT_MOSTLY_CLOUDY,MIST","Cross-shore,Onshore,Onshore,Onshore,Onshore,Cross-shore,Cross-shore,Cross-shore,Onshore,Onshore",10
5842041f4e65fad6a77088cb,2024_02_29,32.557056711256,-117.1327445020322,Tijuana Slough,2.4,0.445,0.751,15.6,15.6,"NIGHT_MOSTLY_CLOUDY,NIGHT_CLEAR,NIGHT_MOSTLY_CLOUDY,NIGHT_OVERCAST,NIGHT_MIST,NIGHT_MIST,NIGHT_MIST,NIGHT_MOSTLY_CLOUDY,NIGHT_MOSTLY_CLOUDY,MOSTLY_CLOUDY","Cross-shore,Onshore,Onshore,Onshore,Onshore,Onshore,Onshore,Onshore,Onshore,Onshore",10
5842041f4e65fad6a77088cc,2024_02_29,32.863,-117.257,La Jolla Shores,2.6,0.432,0.738,15,15,"NIGHT_OVERCAST,NIGHT_MIST,NIGHT_MIST,NIGHT_MIST,NIGHT_FOG,NIGHT_MIST,NIGHT_MIST,NIGHT_MIST,NIGHT_MOSTLY_CLOUDY,MIST","Cross-shore,Onshore,Onshore,Cross-shore,Cross-shore,Cross-shore,Cross-shore,Cross-shore,Offshore,Offshore",10
5842041f4e65fad6a77088ce,2024_02_29,32.67443657790586,-117.17421316238693,Coronado Beach,2.3,0.28,0.585,15,15,"NIGHT_MIST,NIGHT_CLOUDY,NIGHT_CLOUDY,NIGHT_CLOUDY,NIGHT_DRIZZLE,NIGHT_FOG,NIGHT_FOG,NIGHT_MIST,NIGHT_MOSTLY_CLOUDY,MOSTLY_CLOUDY","Onshore,Onshore,Onshore,Onshore,Onshore,Onshore,Onshore,Onshore,Onshore,Onshore",10
5842041f4e65fad6a77088cf,2024_02_29,33.40484417640326,-117.60749,San Clemente State Beach,2,0.336,0.64,15,15,"NIGHT_MIST,NIGHT_MIST,NIGHT_MIST,NIGHT_MIST,NIGHT_FOG,NIGHT_FOG,NIGHT_FOG,NIGHT_FOG,NIGHT_FOG,FOG","Onshore,Onshore,Onshore,Onshore,Onshore,Onshore,Onshore,Onshore,Onshore,Onshore",10
5842041f4e65fad6a77088d5,2024_02_29,33.4663042002114,-117.7168352817103,Strands,3,0.44526,0.7620066666666666,14,14,"NIGHT_MIST,NIGHT_MIST,NIGHT_MIST,NIGHT_MIST,NIGHT_MIST,NIGHT_DRIZZLE,NIGHT_DRIZZLE,NIGHT_MIST,NIGHT_MIST,MIST","Onshore,Onshore,Onshore,Onshore,Onshore,Onshore,Onshore,Onshore,Cross-shore,Cross-shore",10
5842041f4e65fad6a77088d7,2024_02_29,33.4609858001748,-117.68535,Doheny State Beach,2,0.17288,0.47692666666666667,14,14,"NIGHT_MIST,NIGHT_DRIZZLE,NIGHT_MIST,NIGHT_MIST,NIGHT_FOG,NIGHT_FOG,NIGHT_LIGHT_RAIN_AND_FOG,NIGHT_FOG,NIGHT_FOG,FOG","Onshore,Onshore,Onshore,Onshore,Onshore,Onshore,Onshore,Onshore,Onshore,Onshore",10
5842041f4e65fad6a77088dc,2024_02_29,33.50894790083017,-117.75243,Aliso Creek,2.6,0.365,0.67,15,15,"NIGHT_MIST,NIGHT_MIST,NIGHT_MIST,NIGHT_MIST,NIGHT_MIST,NIGHT_LIGHT_RAIN,NIGHT_LIGHT_RAIN,NIGHT_DRIZZLE,NIGHT_MIST,DRIZZLE","Onshore,Onshore,Onshore,Onshore,Onshore,Onshore,Onshore,Onshore,Onshore,Onshore",10
5842041f4e65fad6a77088dd,2024_02_29,33.5326591767067,-117.77764,Brooks Street,2,0.244,0.549,15,15,"NIGHT_MIST,NIGHT_MIST,NIGHT_MIST,NIGHT_MIST,NIGHT_MIST,NIGHT_DRIZZLE,NIGHT_MIST,NIGHT_MIST,NIGHT_MIST,BRIEF_SHOWERS","Onshore,Onshore,Onshore,Onshore,Onshore,Onshore,Onshore,Onshore,Onshore,Onshore",10
5842041f4e65fad6a77088de,2024_02_29,33.53561225884637,-117.7799,Thalia Street,2,0.294,0.599,15,15,"NIGHT_MIST,NIGHT_MIST,NIGHT_MIST,NIGHT_MIST,NIGHT_MIST,NIGHT_DRIZZLE,NIGHT_MIST,NIGHT_MIST,NIGHT_MIST,BRIEF_SHOWERS","Onshore,Onshore,Onshore,Onshore,Onshore,Onshore,Onshore,Onshore,Onshore,Onshore",10
5842041f4e65fad6a77088e3,2024_02_29,33.54268310353641,-117.7916,Rockpile,3,0.483,0.788,15,15,"NIGHT_MIST,NIGHT_MIST,NIGHT_MIST,NIGHT_MIST,NIGHT_MIST,NIGHT_DRIZZLE,NIGHT_MIST,NIGHT_MIST,NIGHT_MIST,BRIEF_SHOWERS","Onshore,Onshore,Onshore,Onshore,Onshore,Onshore,Onshore,Onshore,Onshore,Onshore",10
5842041f4e65fad6a77088e4,2024_02_29,33.7368459504689,-118.10342,"Seal Beach Pier, Southside",1.9,0.07,0.372,15,15,"NIGHT_MIST,NIGHT_MIST,NIGHT_DRIZZLE,NIGHT_MIST,NIGHT_MIST,NIGHT_MIST,NIGHT_MIST,NIGHT_MIST,NIGHT_FOG,FOG","Onshore,Onshore,Onshore,Onshore,Onshore,Onshore,Onshore,Onshore,Onshore,Onshore",10
5842041f4e65fad6a77088e5,2024_02_29,33.73933701820233,-118.117,Ray Bay,2,0.119,0.425,15,15,"NIGHT_OVERCAST,NIGHT_MIST,NIGHT_MIST,NIGHT_DRIZZLE,NIGHT_FOG,NIGHT_FOG,NIGHT_FOG,NIGHT_FOG,NIGHT_FOG,FOG","Onshore,Onshore,Onshore,Onshore,Onshore,Onshore,Onshore,Onshore,Onshore,Onshore",10
5842041f4e65fad6a77088e7,2024_02_29,33.728733,-118.08982,Surfside,0.9,0,0.276,15,15,"NIGHT_MIST,NIGHT_MIST,NIGHT_DRIZZLE,NIGHT_MIST,NIGHT_FOG,NIGHT_FOG,NIGHT_FOG,NIGHT_FOG,NIGHT_FOG,FOG","Onshore,Onshore,Onshore,Onshore,Onshore,Onshore,Onshore,Onshore,Onshore,Onshore",10
5842041f4e65fad6a77088e8,2024_02_29,33.68760321488161,-118.04236,Bolsa Chica State Beach,2.5,0.33028,0.6353266666666667,14,14,"NIGHT_MIST,NIGHT_MIST,NIGHT_MIST,NIGHT_MIST,NIGHT_FOG,NIGHT_FOG,NIGHT_FOG,NIGHT_FOG,NIGHT_FOG,FOG","Onshore,Onshore,Onshore,Onshore,Onshore,Cross-shore,Onshore,Onshore,Onshore,Onshore",10
5842041f4e65fad6a77088ea,2024_02_29,33.66704400178788,-118.0192,North HB Streets,2.5,0.43759333333333333,0.7704133333333333,14,14,"NIGHT_MIST,NIGHT_MIST,NIGHT_MIST,NIGHT_MIST,NIGHT_MIST,NIGHT_MIST,NIGHT_DRIZZLE,NIGHT_MIST,NIGHT_FOG,MIST","Onshore,Onshore,Onshore,Onshore,Onshore,Cross-shore,Onshore,Onshore,Onshore,Onshore",10
5842041f4e65fad6a77088ed,2024_02_29,33.65475101379567,-118.00291,Huntington Beach Pier Southside,2.2,0.5098066666666666,0.8273866666666666,14,14,"NIGHT_MIST,NIGHT_MIST,NIGHT_MIST,NIGHT_MIST,NIGHT_FOG,NIGHT_FOG,NIGHT_FOG,NIGHT_FOG,NIGHT_FOG,FOG","Onshore,Cross-shore,Onshore,Cross-shore,Cross-shore,Cross-shore,Onshore,Onshore,Onshore,Onshore",10
5842041f4e65fad6a77088ee,2024_02_29,33.62778647706099,-117.95939,River Jetties,2.7,0.49749333333333334,0.82848,15,15,"NIGHT_MIST,NIGHT_MIST,NIGHT_MIST,NIGHT_MIST,NIGHT_FOG,NIGHT_FOG,NIGHT_FOG,NIGHT_FOG,NIGHT_FOG,FOG","Onshore,Onshore,Onshore,Offshore,Cross-shore,Onshore,Onshore,Onshore,Onshore,Onshore",10
5842041f4e65fad6a77088f2,2024_02_29,33.605165797643664,-117.92500376701355,Newport Point,2.6,0.502,0.809,15,15,"NIGHT_MIST,NIGHT_MIST,NIGHT_DRIZZLE,NIGHT_MIST,NIGHT_MIST,NIGHT_MIST,NIGHT_MIST,NIGHT_FOG,NIGHT_MIST,BRIEF_SHOWERS","Onshore,Onshore,Onshore,Onshore,Onshore,Onshore,Onshore,Onshore,Onshore,Onshore",10
5842041f4e65fad6a77088f3,2024_02_29,33.58982984726977,-117.87713,Corona del Mar,2,0.232965,0.364007,15,15,"NIGHT_MIST,NIGHT_MIST,NIGHT_MIST,NIGHT_DRIZZLE,NIGHT_DRIZZLE,NIGHT_DRIZZLE,NIGHT_DRIZZLE,NIGHT_MIST,NIGHT_MIST,MIST","Offshore,Cross-shore,Onshore,Cross-shore,Cross-shore,Onshore,Onshore,Onshore,Onshore,Offshore",10
5842041f4e65fad6a77088f7,2024_02_29,34.00750300824362,-118.4971783496269,Santa Monica Pier,2.3,0.376,0.681,15,15,"NIGHT_DRIZZLE,NIGHT_MIST,NIGHT_MIST,NIGHT_DRIZZLE,NIGHT_FOG,NIGHT_LIGHT_RAIN_AND_FOG,NIGHT_FOG,NIGHT_FOG,NIGHT_FOG,FOG","Onshore,Onshore,Onshore,Onshore,Onshore,Onshore,Onshore,Cross-shore,Cross-shore,Offshore",10
5842041f4e65fad6a77088ff,2024_02_29,33.94070283102945,-118.44321,Dockweiler Beach,2.3,0.6772445,0.895719,14,14,"NIGHT_MIST,NIGHT_MIST,NIGHT_MIST,NIGHT_OVERCAST,NIGHT_MIST,NIGHT_MIST,NIGHT_MIST,NIGHT_FOG,NIGHT_FOG,FOG","Onshore,Onshore,Onshore,Onshore,Onshore,Onshore,Cross-shore,Cross-shore,Offshore,Offshore",10
5842041f4e65fad6a7708900,2024_02_29,33.9231846937237,-118.4341465777908,Shitpipe,2,0.32694,0.64128,14,14,"NIGHT_MIST,NIGHT_MIST,NIGHT_DRIZZLE,NIGHT_MIST,NIGHT_MIST,NIGHT_MIST,NIGHT_MIST,NIGHT_MIST,NIGHT_FOG,FOG","Onshore,Onshore,Onshore,Onshore,Onshore,Onshore,Cross-shore,Offshore,Offshore,Cross-shore",10
5842041f4e65fad6a7708902,2024_02_29,33.9108528052242,-118.4279133138721,Hammerland,2,0.33394,0.64678,14,14,"NIGHT_MIST,NIGHT_MIST,NIGHT_DRIZZLE,NIGHT_MIST,NIGHT_MIST,NIGHT_MIST,NIGHT_MIST,NIGHT_MIST,NIGHT_FOG,FOG","Onshore,Onshore,Onshore,Onshore,Onshore,Onshore,Cross-shore,Offshore,Offshore,Cross-shore",10
5842041f4e65fad6a7708904,2024_02_29,33.87201368173932,-118.4075151286262,Hermosa Beach,1.9,0.22472,0.53506,14,14,"NIGHT_MIST,NIGHT_MIST,NIGHT_OVERCAST,NIGHT_OVERCAST,NIGHT_MIST,NIGHT_MIST,NIGHT_MIST,NIGHT_DRIZZLE,NIGHT_MIST,CLEAR","Onshore,Onshore,Cross-shore,Onshore,Onshore,Onshore,Cross-shore,Offshore,Offshore,Offshore",10
5842041f4e65fad6a7708906,2024_02_29,33.90129336911256,-118.42184,El Porto,2.8,0.41944000000000004,0.73378,14,14,"NIGHT_MIST,NIGHT_MIST,NIGHT_MIST,NIGHT_MIST,NIGHT_MIST,NIGHT_MIST,NIGHT_MIST,NIGHT_MIST,NIGHT_FOG,MIST","Onshore,Onshore,Onshore,Onshore,Onshore,Onshore,Cross-shore,Offshore,Offshore,Cross-shore",10
5842041f4e65fad6a7708907,2024_02_29,33.87963506431794,-118.41102,Manhattan Beach Pier,2.8,0.39544,0.70978,14,14,"NIGHT_MIST,NIGHT_MIST,NIGHT_MIST,NIGHT_MIST,NIGHT_MIST,NIGHT_MIST,NIGHT_MIST,NIGHT_MIST,NIGHT_FOG,MIST","Onshore,Onshore,Cross-shore,Onshore,Onshore,Onshore,Cross-shore,Offshore,Offshore,Offshore",10
5842041f4e65fad6a7708914,2024_02_29,34.038053387863464,-118.5532,Sunset Point,2,0.177,0.482,15,15,"NIGHT_BRIEF_SHOWERS,NIGHT_MIST,NIGHT_MIST,NIGHT_MIST,NIGHT_MIST,NIGHT_MIST,NIGHT_LIGHT_RAIN,NIGHT_MIST,NIGHT_MIST,MIST","Cross-shore,Offshore,Cross-shore,Onshore,Onshore,Onshore,Onshore,Onshore,Offshore,Offshore",10
5842041f4e65fad6a7708920,2024_02_29,33.80930828074364,-118.3933198342649,Haggerty's,1,0.0072,0.1902,15,15,"NIGHT_DRIZZLE,NIGHT_OVERCAST,NIGHT_CLOUDY,NIGHT_CLOUDY,NIGHT_DRIZZLE,NIGHT_MIST,NIGHT_FOG,NIGHT_MIST,NIGHT_CLEAR,CLEAR","Onshore,Cross-shore,Offshore,Cross-shore,Cross-shore,Offshore,Offshore,Offshore,Offshore,Offshore",10
5842041f4e65fad6a7708921,2024_02_29,33.85044519861206,-118.40048,Redondo Breakwater,2,0.227,0.532,15,15,"NIGHT_MIST,NIGHT_MIST,NIGHT_OVERCAST,NIGHT_OVERCAST,NIGHT_MIST,NIGHT_MIST,NIGHT_MIST,NIGHT_DRIZZLE,NIGHT_MIST,CLEAR","Onshore,Onshore,Cross-shore,Onshore,Onshore,Onshore,Cross-shore,Offshore,Offshore,Offshore",10
5842041f4e65fad6a7708927,2024_02_29,33.70877301002487,-118.2840112858389,Cabrillo Beach,1,0,0.186,15,15,"NIGHT_OVERCAST,NIGHT_MIST,NIGHT_MIST,NIGHT_MIST,NIGHT_DRIZZLE,NIGHT_FOG,NIGHT_FOG,NIGHT_MIST,NIGHT_FOG,FOG","Onshore,Onshore,Onshore,Onshore,Onshore,Onshore,Onshore,Onshore,Onshore,Onshore",10
5842041f4e65fad6a770892c,2024_02_29,33.77209986806257,-118.4268428476672,Lunada Bay,1,0.218,0.522,15,15,"NIGHT_DRIZZLE,NIGHT_MIST,NIGHT_MIST,NIGHT_DRIZZLE,NIGHT_MIST,NIGHT_MIST,NIGHT_MIST,NIGHT_MIST,NIGHT_MIST,MIST","Onshore,Onshore,Onshore,Onshore,Onshore,Onshore,Cross-shore,Cross-shore,Cross-shore,Cross-shore",10
5842041f4e65fad6a770892d,2024_02_29,33.79294656286144,-118.4070316699825,PV Cove,2,0.437494,0.691132,15,15,"NIGHT_DRIZZLE,NIGHT_OVERCAST,NIGHT_CLOUDY,NIGHT_CLOUDY,NIGHT_DRIZZLE,NIGHT_MIST,NIGHT_FOG,NIGHT_MIST,NIGHT_CLEAR,CLEAR","Onshore,Cross-shore,Offshore,Cross-shore,Cross-shore,Offshore,Offshore,Offshore,Offshore,Offshore",10
5842041f4e65fad6a7708930,2024_02_29,34.03944902292561,-118.57539,Chart House,1.8,0.046,0.348,15,15,"NIGHT_BRIEF_SHOWERS,NIGHT_LIGHT_RAIN,NIGHT_LIGHT_RAIN,NIGHT_LIGHT_RAIN,NIGHT_FOG,NIGHT_FOG,NIGHT_LIGHT_RAIN_AND_FOG,NIGHT_LIGHT_RAIN_AND_FOG,NIGHT_LIGHT_RAIN_AND_FOG,FOG","Cross-shore,Offshore,Onshore,Onshore,Onshore,Onshore,Onshore,Onshore,Offshore,Offshore",10
5842041f4e65fad6a7708936,2024_02_29,34.0016731994772,-118.80456,Point Dume,2,0.23696,0.53868,15,15,"NIGHT_MOSTLY_CLOUDY,NIGHT_MIST,NIGHT_MIST,NIGHT_MIST,NIGHT_MIST,NIGHT_DRIZZLE,NIGHT_LIGHT_RAIN,NIGHT_LIGHT_RAIN,NIGHT_DRIZZLE,MIST","Onshore,Onshore,Onshore,Onshore,Cross-shore,Cross-shore,Cross-shore,Onshore,Onshore,Onshore",10
5842041f4e65fad6a7708937,2024_02_29,34.02587527588963,-118.7554939066114,Latigo Point,2,0.31,0.613,15,15,"NIGHT_MIST,NIGHT_BRIEF_SHOWERS,NIGHT_BRIEF_SHOWERS,NIGHT_BRIEF_SHOWERS,NIGHT_MIST,NIGHT_DRIZZLE,NIGHT_DRIZZLE,NIGHT_DRIZZLE,NIGHT_MIST,LIGHT_RAIN","Onshore,Onshore,Onshore,Onshore,Cross-shore,Onshore,Onshore,Onshore,Onshore,Onshore",10
5842041f4e65fad6a770893f,2024_02_29,34.043762,-118.93294,Leo Carrillo,2.1,0.43094,0.7422799999999999,15,15,"NIGHT_CLEAR,NIGHT_MIST,NIGHT_MIST,NIGHT_BRIEF_SHOWERS,NIGHT_BRIEF_SHOWERS,NIGHT_DRIZZLE,NIGHT_MIST,NIGHT_DRIZZLE,NIGHT_DRIZZLE,MIST","Offshore,Offshore,Cross-shore,Offshore,Offshore,Cross-shore,Cross-shore,Cross-shore,Cross-shore,Onshore",10
5842041f4e65fad6a7708941,2024_02_29,36.69388179265737,-121.81289,Marina State Beach,2.6,0.944,1.133,14,14,"NIGHT_MIST,NIGHT_MIST,NIGHT_MIST,NIGHT_MIST,NIGHT_MIST,NIGHT_FOG,NIGHT_FOG,NIGHT_FOG,NIGHT_FOG,FOG","Onshore,Onshore,Onshore,Onshore,Onshore,Cross-shore,Cross-shore,Cross-shore,Onshore,Onshore",10
5842041f4e65fad6a7708944,2024_02_29,34.34145077331085,-119.416999352654,Stanley's,2,0.089,0.394,15,15,"NIGHT_MOSTLY_CLOUDY,NIGHT_MOSTLY_CLOUDY,NIGHT_MOSTLY_CLOUDY,NIGHT_MIST,NIGHT_FOG,NIGHT_FOG,NIGHT_FOG,NIGHT_FOG,NIGHT_FOG,DRIZZLE","Onshore,Onshore,Onshore,Onshore,Cross-shore,Onshore,Onshore,Onshore,Onshore,Onshore",10
5842041f4e65fad6a7708945,2024_02_29,34.35113017313915,-119.426921498899,Oil Piers,2,0.10500000000000001,0.41,15,15,"NIGHT_MOSTLY_CLOUDY,NIGHT_MOSTLY_CLOUDY,NIGHT_MOSTLY_CLOUDY,NIGHT_MIST,NIGHT_FOG,NIGHT_FOG,NIGHT_FOG,NIGHT_FOG,NIGHT_FOG,DRIZZLE","Cross-shore,Onshore,Onshore,Onshore,Onshore,Onshore,Onshore,Onshore,Onshore,Onshore",10
5842041f4e65fad6a770894c,2024_02_29,34.17876333306018,-119.2399483564372,Oxnard,3,0.44,0.746,15,15,"NIGHT_MIST,NIGHT_OVERCAST,NIGHT_OVERCAST,NIGHT_OVERCAST,NIGHT_FOG,NIGHT_FOG,NIGHT_FOG,NIGHT_FOG,NIGHT_FOG,FOG","Cross-shore,Onshore,Onshore,Onshore,Onshore,Onshore,Onshore,Onshore,Cross-shore,Cross-shore",10
5842041f4e65fad6a7708957,2024_02_29,34.31720331100517,-119.3882324751725,Pitas Point,2,0.114,0.418,15,15,"NIGHT_MIST,NIGHT_OVERCAST,NIGHT_MIST,NIGHT_MIST,NIGHT_MIST,NIGHT_MIST,NIGHT_MIST,NIGHT_DRIZZLE,NIGHT_MIST,DRIZZLE","Offshore,Offshore,Offshore,Offshore,Offshore,Offshore,Cross-shore,Onshore,Offshore,Offshore",10
5842041f4e65fad6a7708959,2024_02_29,34.27851754384724,-119.316202617226,Emma Wood,2,0.082,0.39,15,15,"NIGHT_MOSTLY_CLOUDY,NIGHT_OVERCAST,NIGHT_DRIZZLE,NIGHT_DRIZZLE,NIGHT_MIST,NIGHT_MIST,NIGHT_LIGHT_RAIN,NIGHT_DRIZZLE,NIGHT_DRIZZLE,DRIZZLE","Offshore,Offshore,Offshore,Offshore,Offshore,Offshore,Offshore,Offshore,Offshore,Offshore",10
5842041f4e65fad6a770895a,2024_02_29,34.35513640390276,-119.4400589884255,Mussel Shoals (aka Little Rincon),2,0.038,0.34400000000000003,15,15,"NIGHT_MIST,NIGHT_MOSTLY_CLOUDY,NIGHT_MIST,NIGHT_MIST,NIGHT_MIST,NIGHT_MIST,NIGHT_MIST,NIGHT_MIST,NIGHT_DRIZZLE,MIST","Cross-shore,Onshore,Onshore,Onshore,Onshore,Onshore,Onshore,Onshore,Onshore,Onshore",10
5842041f4e65fad6a770895e,2024_02_29,34.28991757054902,-119.3366646794652,Summer Beach,2,0.089,0.392,15,15,"NIGHT_MOSTLY_CLOUDY,NIGHT_OVERCAST,NIGHT_DRIZZLE,NIGHT_DRIZZLE,NIGHT_MIST,NIGHT_MIST,NIGHT_LIGHT_RAIN,NIGHT_DRIZZLE,NIGHT_DRIZZLE,DRIZZLE","Offshore,Offshore,Offshore,Offshore,Offshore,Offshore,Offshore,Offshore,Offshore,Offshore",10
5842041f4e65fad6a770895f,2024_02_29,34.30897456105926,-119.3582501170116,Solimar,2,0.092,0.399,15,15,"NIGHT_MIST,NIGHT_OVERCAST,NIGHT_MIST,NIGHT_MIST,NIGHT_MIST,NIGHT_MIST,NIGHT_MIST,NIGHT_DRIZZLE,NIGHT_MIST,DRIZZLE","Offshore,Offshore,Cross-shore,Offshore,Offshore,Offshore,Cross-shore,Offshore,Offshore,Offshore",10
5842041f4e65fad6a7708960,2024_02_29,34.39836265281686,-119.70213,Leadbetter Point,1,0,0.167,14.4,14.4,"NIGHT_MOSTLY_CLOUDY,NIGHT_MOSTLY_CLOUDY,NIGHT_MIST,NIGHT_BRIEF_SHOWERS,NIGHT_FOG,NIGHT_FOG,NIGHT_BRIEF_SHOWERS,NIGHT_BRIEF_SHOWERS,NIGHT_BRIEF_SHOWERS,FOG","Offshore,Offshore,Offshore,Offshore,Cross-shore,Onshore,Onshore,Onshore,Cross-shore,Offshore",10
5842041f4e65fad6a7708961,2024_02_29,34.46052293893899,-120.07328,Refugio,1,0,0.28,14.4,14.4,"NIGHT_MOSTLY_CLEAR,NIGHT_BRIEF_SHOWERS,NIGHT_BRIEF_SHOWERS,NIGHT_BRIEF_SHOWERS,NIGHT_MIST,NIGHT_FOG,NIGHT_FOG,NIGHT_MIST,NIGHT_MOSTLY_CLOUDY,MOSTLY_CLOUDY","Onshore,Onshore,Cross-shore,Onshore,Onshore,Onshore,Onshore,Onshore,Onshore,Onshore",10
5842041f4e65fad6a7708962,2024_02_29,34.40754276777778,-119.87639,Devereux,2,0.04,0.345,14.4,14.4,"NIGHT_MOSTLY_CLOUDY,NIGHT_MOSTLY_CLOUDY,NIGHT_MIST,NIGHT_MIST,NIGHT_MIST,NIGHT_MIST,NIGHT_MIST,NIGHT_MIST,NIGHT_BRIEF_SHOWERS,BRIEF_SHOWERS","Cross-shore,Onshore,Onshore,Onshore,Onshore,Onshore,Onshore,Onshore,Onshore,Onshore",10
5842041f4e65fad6a7708963,2024_02_29,34.27479983305182,-119.3133222656776,Ventura Overhead,2,0.101,0.409,15,15,"NIGHT_MOSTLY_CLOUDY,NIGHT_OVERCAST,NIGHT_MIST,NIGHT_MIST,NIGHT_MIST,NIGHT_MIST,NIGHT_MIST,NIGHT_MIST,NIGHT_MIST,MIST","Offshore,Offshore,Offshore,Offshore,Offshore,Offshore,Offshore,Offshore,Offshore,Offshore",10
5842041f4e65fad6a7708964,2024_02_29,34.41023236011655,-119.88261,Sands,2,0.053,0.358,14.4,14.4,"NIGHT_MOSTLY_CLOUDY,NIGHT_MOSTLY_CLOUDY,NIGHT_MIST,NIGHT_MIST,NIGHT_MIST,NIGHT_MIST,NIGHT_MIST,NIGHT_MIST,NIGHT_BRIEF_SHOWERS,BRIEF_SHOWERS","Onshore,Onshore,Cross-shore,Cross-shore,Offshore,Offshore,Offshore,Cross-shore,Cross-shore,Cross-shore",10
5842041f4e65fad6a7708966,2024_02_29,34.40450193869233,-119.68752,Sandspit,0.3,0,0.114,14.4,14.4,"NIGHT_MOSTLY_CLOUDY,NIGHT_MOSTLY_CLOUDY,NIGHT_MOSTLY_CLOUDY,NIGHT_MIST,NIGHT_FOG,NIGHT_FOG,NIGHT_FOG,NIGHT_FOG,NIGHT_FOG,MIST","Offshore,Offshore,Offshore,Offshore,Cross-shore,Cross-shore,Onshore,Onshore,Cross-shore,Offshore",10
5842041f4e65fad6a7708967,2024_02_29,34.41549098334453,-119.6375149840203,Hammond's,1,0,0.11599999999999999,14.4,14.4,"NIGHT_MOSTLY_CLOUDY,NIGHT_MOSTLY_CLOUDY,NIGHT_MOSTLY_CLOUDY,NIGHT_BRIEF_SHOWERS,NIGHT_FOG,NIGHT_FOG,NIGHT_FOG,NIGHT_FOG,NIGHT_FOG,FOG","Onshore,Onshore,Onshore,Onshore,Onshore,Onshore,Onshore,Onshore,Onshore,Onshore",10
5842041f4e65fad6a7708968,2024_02_29,34.45759322742309,-120.0220251867315,El Capitan,1.7,0.004,0.308,14.4,14.4,"NIGHT_MIST,NIGHT_MIST,NIGHT_MIST,NIGHT_MIST,NIGHT_CLEAR,NIGHT_MIST,NIGHT_CLEAR,NIGHT_CLEAR,NIGHT_MOSTLY_CLOUDY,MIST","Onshore,Onshore,Onshore,Onshore,Onshore,Onshore,Onshore,Onshore,Onshore,Onshore",10
5842041f4e65fad6a770896c,2024_02_29,34.405117655616,-119.84317,Campus Point,1,0,0.223,14.4,14.4,"NIGHT_MOSTLY_CLOUDY,NIGHT_MIST,NIGHT_MIST,NIGHT_MIST,NIGHT_MIST,NIGHT_MIST,NIGHT_MIST,NIGHT_BRIEF_SHOWERS,NIGHT_BRIEF_SHOWERS,FOG","Cross-shore,Onshore,Onshore,Onshore,Onshore,Onshore,Onshore,Onshore,Onshore,Onshore",10
5842041f4e65fad6a770896e,2024_02_29,34.38935162233354,-119.51955,Carpinteria State Beach,1,0,0.254,15,15,"NIGHT_MOSTLY_CLOUDY,NIGHT_MOSTLY_CLOUDY,NIGHT_MIST,NIGHT_MIST,NIGHT_MIST,NIGHT_MIST,NIGHT_BRIEF_SHOWERS,NIGHT_BRIEF_SHOWERS,NIGHT_BRIEF_SHOWERS,BRIEF_SHOWERS","Offshore,Offshore,Offshore,Offshore,Offshore,Offshore,Offshore,Offshore,Offshore,Offshore",10
5842041f4e65fad6a770896f,2024_02_29,37.48296565175612,-122.4549300127824,Half Moon Bay,1.7,0.596,0.901,14,14,"NIGHT_BRIEF_SHOWERS,NIGHT_BRIEF_SHOWERS,NIGHT_BRIEF_SHOWERS,NIGHT_MOSTLY_CLOUDY,NIGHT_MIST,NIGHT_MIST,NIGHT_MIST,NIGHT_BRIEF_SHOWERS,NIGHT_MIST,MIST","Onshore,Onshore,Onshore,Onshore,Onshore,Onshore,Onshore,Onshore,Onshore,Onshore",10
5842041f4e65fad6a7708970,2024_02_29,37.499,-122.471,Princeton Jetty,1.7,0.46599999999999997,0.77,14,14,"NIGHT_MOSTLY_CLOUDY,NIGHT_MIST,NIGHT_BRIEF_SHOWERS,NIGHT_MOSTLY_CLOUDY,NIGHT_MOSTLY_CLOUDY,NIGHT_MOSTLY_CLOUDY,NIGHT_MOSTLY_CLOUDY,NIGHT_SHOWERS,NIGHT_MOSTLY_CLOUDY,MOSTLY_CLOUDY","Onshore,Onshore,Onshore,Onshore,Onshore,Onshore,Onshore,Onshore,Onshore,Onshore",10
5842041f4e65fad6a7708972,2024_02_29,37.35699547365155,-122.4069534707252,Tunitas Creek,2.7,1.329,1.562,14,14,"NIGHT_BRIEF_SHOWERS,NIGHT_MIST,NIGHT_FOG,NIGHT_BRIEF_SHOWERS,NIGHT_BRIEF_SHOWERS,NIGHT_MIST,NIGHT_FOG,NIGHT_BRIEF_SHOWERS,NIGHT_MOSTLY_CLOUDY,MOSTLY_CLOUDY","Onshore,Onshore,Onshore,Onshore,Cross-shore,Cross-shore,Cross-shore,Onshore,Onshore,Onshore",10
5842041f4e65fad6a7708974,2024_02_29,37.54735589428842,-122.5161090212687,Montara,2.1,0.987,1.208,14,14,"NIGHT_MIST,NIGHT_BRIEF_SHOWERS,NIGHT_MOSTLY_CLOUDY,NIGHT_DRIZZLE,NIGHT_BRIEF_SHOWERS,NIGHT_MOSTLY_CLOUDY,NIGHT_BRIEF_SHOWERS,NIGHT_BRIEF_SHOWERS,NIGHT_MOSTLY_CLOUDY,OVERCAST","Onshore,Cross-shore,Onshore,Onshore,Cross-shore,Cross-shore,Cross-shore,Cross-shore,Cross-shore,Cross-shore",10
5842041f4e65fad6a7708975,2024_02_29,34.3869373724559,-119.5142334209018,Tarpits,1,0,0.244,15,15,"NIGHT_MOSTLY_CLOUDY,NIGHT_MOSTLY_CLOUDY,NIGHT_MIST,NIGHT_MOSTLY_CLOUDY,NIGHT_MIST,NIGHT_FOG,NIGHT_BRIEF_SHOWERS,NIGHT_BRIEF_SHOWERS,NIGHT_FOG,FOG","Offshore,Offshore,Offshore,Offshore,Offshore,Cross-shore,Offshore,Cross-shore,Cross-shore,Offshore",10
5842041f4e65fad6a7708976,2024_02_29,37.59881852720143,-122.50463,Pacifica / Linda Mar,1.4,0.2937,0.5974200000000001,14,14,"NIGHT_BRIEF_SHOWERS,NIGHT_BRIEF_SHOWERS,NIGHT_MOSTLY_CLOUDY,NIGHT_DRIZZLE,NIGHT_MIST,NIGHT_MOSTLY_CLOUDY,NIGHT_BRIEF_SHOWERS,NIGHT_MOSTLY_CLOUDY,NIGHT_MOSTLY_CLOUDY,OVERCAST","Onshore,Onshore,Onshore,Onshore,Cross-shore,Cross-shore,Cross-shore,Cross-shore,Cross-shore,Cross-shore",10
5842041f4e65fad6a7708978,2024_02_29,37.59883098461164,-122.5143843582282,Pedro Point,2.1,0.937,1.166,14,14,"NIGHT_MOSTLY_CLOUDY,NIGHT_MIST,NIGHT_BRIEF_SHOWERS,NIGHT_DRIZZLE,NIGHT_MOSTLY_CLOUDY,NIGHT_MOSTLY_CLOUDY,NIGHT_BRIEF_SHOWERS,NIGHT_MOSTLY_CLOUDY,NIGHT_MOSTLY_CLOUDY,OVERCAST","Onshore,Cross-shore,Cross-shore,Cross-shore,Cross-shore,Cross-shore,Cross-shore,Cross-shore,Cross-shore,Cross-shore",10
5842041f4e65fad6a7708979,2024_02_29,37.61081996647663,-122.4973287570634,Rockaway,1.8,0.983,1.197,14,14,"NIGHT_BRIEF_SHOWERS,NIGHT_BRIEF_SHOWERS,NIGHT_MOSTLY_CLOUDY,NIGHT_DRIZZLE,NIGHT_MIST,NIGHT_MOSTLY_CLOUDY,NIGHT_BRIEF_SHOWERS,NIGHT_MOSTLY_CLOUDY,NIGHT_MOSTLY_CLOUDY,OVERCAST","Onshore,Onshore,Onshore,Onshore,Onshore,Cross-shore,Cross-shore,Onshore,Onshore,Cross-shore",10
5842041f4e65fad6a770897a,2024_02_29,37.809987384424446,-122.4751353263855,Fort Point,1,0.517,0.8200000000000001,13,13,"NIGHT_MOSTLY_CLOUDY,NIGHT_MOSTLY_CLOUDY,NIGHT_MOSTLY_CLOUDY,NIGHT_BRIEF_SHOWERS,NIGHT_MIST,NIGHT_BRIEF_SHOWERS,NIGHT_MOSTLY_CLOUDY,NIGHT_BRIEF_SHOWERS,NIGHT_MIST,CLEAR","Cross-shore,Cross-shore,Cross-shore,Cross-shore,Onshore,Onshore,Onshore,Onshore,Onshore,Onshore",10
5842041f4e65fad6a770897c,2024_02_29,37.63422542967464,-122.4951,Sharp Park,1.7,1.04,1.282,14,14,"NIGHT_MIST,NIGHT_BRIEF_SHOWERS,NIGHT_MIST,NIGHT_LIGHT_RAIN,NIGHT_MIST,NIGHT_MIST,NIGHT_MOSTLY_CLOUDY,NIGHT_MIST,NIGHT_MOSTLY_CLOUDY,CLOUDY","Onshore,Onshore,Onshore,Onshore,Onshore,Onshore,Onshore,Onshore,Onshore,Onshore",10
5842041f4e65fad6a770897d,2024_02_29,37.27313605072472,-122.4127387912554,Pescadero,2.6,1.357,1.58,14,14,"NIGHT_BRIEF_SHOWERS,NIGHT_MOSTLY_CLOUDY,NIGHT_FOG,NIGHT_FOG,NIGHT_MIST,NIGHT_MIST,NIGHT_FOG,NIGHT_MOSTLY_CLOUDY,NIGHT_MOSTLY_CLOUDY,CLOUDY","Cross-shore,Onshore,Onshore,Onshore,Offshore,Offshore,Offshore,Onshore,Onshore,Cross-shore",10
5842041f4e65fad6a770897e,2024_02_29,37.18140279972666,-122.3926685899327,Pigeon Point,2.8,1.309,1.57,14,14,"NIGHT_BRIEF_SHOWERS,NIGHT_MOSTLY_CLOUDY,NIGHT_MOSTLY_CLOUDY,NIGHT_FOG,NIGHT_FOG,NIGHT_FOG,NIGHT_OVERCAST,NIGHT_BRIEF_SHOWERS,NIGHT_MOSTLY_CLOUDY,MOSTLY_CLOUDY","Offshore,Cross-shore,Cross-shore,Onshore,Onshore,Onshore,Onshore,Onshore,Onshore,Onshore",10
5842041f4e65fad6a770897f,2024_02_29,37.11578956919415,-122.314699271291,Ano Nuevo,2.7,0.76,1.02,14,14,"NIGHT_BRIEF_SHOWERS,NIGHT_MIST,NIGHT_MOSTLY_CLOUDY,NIGHT_BRIEF_SHOWERS,NIGHT_FOG,NIGHT_FOG,NIGHT_FOG,NIGHT_FOG,NIGHT_MOSTLY_CLOUDY,MOSTLY_CLOUDY","Offshore,Offshore,Offshore,Offshore,Cross-shore,Onshore,Onshore,Cross-shore,Onshore,Onshore",10
5842041f4e65fad6a7708980,2024_02_29,37.09520872681598,-122.2805474707768,Waddell Creek,3.1,1.09,1.356,14,14,"NIGHT_CLEAR,NIGHT_CLEAR,NIGHT_MOSTLY_CLOUDY,NIGHT_FOG,NIGHT_FOG,NIGHT_FOG,NIGHT_BRIEF_SHOWERS,NIGHT_FOG,NIGHT_MOSTLY_CLOUDY,MOSTLY_CLOUDY","Cross-shore,Cross-shore,Cross-shore,Cross-shore,Offshore,Offshore,Onshore,Onshore,Onshore,Onshore",10
5842041f4e65fad6a7708981,2024_02_29,36.96512852130351,-122.1252825495626,Four Mile,2.7,0.609,0.915,14,14,"NIGHT_MIST,NIGHT_MIST,NIGHT_BRIEF_SHOWERS,NIGHT_MIST,NIGHT_FOG,NIGHT_FOG,NIGHT_BRIEF_SHOWERS,NIGHT_DRIZZLE,NIGHT_MOSTLY_CLOUDY,MOSTLY_CLOUDY","Offshore,Offshore,Offshore,Offshore,Offshore,Offshore,Cross-shore,Onshore,Cross-shore,Onshore",10
5842041f4e65fad6a7708982,2024_02_29,37.04122807048655,-122.2333684729756,Scott Creek,3,1.089,1.353,14,14,"NIGHT_MOSTLY_CLOUDY,NIGHT_MOSTLY_CLOUDY,NIGHT_BRIEF_SHOWERS,NIGHT_MIST,NIGHT_FOG,NIGHT_FOG,NIGHT_BRIEF_SHOWERS,NIGHT_LIGHT_RAIN_AND_FOG,NIGHT_BRIEF_SHOWERS,MOSTLY_CLOUDY","Cross-shore,Cross-shore,Cross-shore,Cross-shore,Offshore,Offshore,Cross-shore,Onshore,Onshore,Onshore",10
5842041f4e65fad6a7708983,2024_02_29,37.02350229387179,-122.21908,Davenport,3,1.111,1.379,14,14,"NIGHT_CLEAR,NIGHT_MOSTLY_CLOUDY,NIGHT_BRIEF_SHOWERS,NIGHT_MOSTLY_CLOUDY,NIGHT_FOG,NIGHT_FOG,NIGHT_FOG,NIGHT_FOG,NIGHT_MOSTLY_CLOUDY,MOSTLY_CLOUDY","Cross-shore,Cross-shore,Cross-shore,Cross-shore,Offshore,Offshore,Cross-shore,Onshore,Onshore,Onshore",10
5842041f4e65fad6a7708986,2024_02_29,36.94905295955728,-122.0611823912244,Natural Bridges,3,0.972,1.161,14,14,"NIGHT_CLEAR,NIGHT_MOSTLY_CLOUDY,NIGHT_CLEAR,NIGHT_MOSTLY_CLOUDY,NIGHT_MOSTLY_CLOUDY,NIGHT_FOG,NIGHT_BRIEF_SHOWERS,NIGHT_LIGHT_RAIN,NIGHT_OVERCAST,MOSTLY_CLOUDY","Cross-shore,Cross-shore,Cross-shore,Cross-shore,Cross-shore,Cross-shore,Onshore,Onshore,Onshore,Onshore",10
5842041f4e65fad6a7708987,2024_02_29,36.95154854910425,-122.0420693940968,Mitchell's Cove,2.7,0.443,0.747,14,14,"NIGHT_CLEAR,NIGHT_MOSTLY_CLOUDY,NIGHT_MOSTLY_CLOUDY,NIGHT_MIST,NIGHT_FOG,NIGHT_FOG,NIGHT_BRIEF_SHOWERS,NIGHT_LIGHT_RAIN_AND_FOG,NIGHT_OVERCAST,MOSTLY_CLOUDY","Onshore,Cross-shore,Offshore,Cross-shore,Cross-shore,Cross-shore,Cross-shore,Onshore,Cross-shore,Cross-shore",10
5842041f4e65fad6a770898a,2024_02_29,36.9572312370203,-121.98177,26th Ave,3,0.963,1.149,14,14,"NIGHT_MIST,NIGHT_MOSTLY_CLOUDY,NIGHT_MOSTLY_CLOUDY,NIGHT_MOSTLY_CLOUDY,NIGHT_MOSTLY_CLOUDY,NIGHT_FOG,NIGHT_FOG,NIGHT_FOG,NIGHT_FOG,MOSTLY_CLOUDY","Offshore,Cross-shore,Onshore,Onshore,Onshore,Onshore,Onshore,Onshore,Onshore,Onshore",10
5842041f4e65fad6a770898e,2024_02_29,36.91899972819882,-121.85536,Manresa,1.9,0.668,0.971,14,14,"NIGHT_MIST,NIGHT_MIST,NIGHT_MIST,NIGHT_BRIEF_SHOWERS,NIGHT_MIST,NIGHT_LIGHT_RAIN_AND_FOG,NIGHT_LIGHT_RAIN,NIGHT_MIST,NIGHT_DRIZZLE,OVERCAST","Onshore,Onshore,Onshore,Onshore,Onshore,Onshore,Onshore,Onshore,Onshore,Onshore",10
5842041f4e65fad6a7708990,2024_02_29,34.45747731928454,-120.34242,The Ranch,2,0.229,0.535,14,14,"NIGHT_CLEAR,NIGHT_CLEAR,NIGHT_CLEAR,NIGHT_MOSTLY_CLEAR,NIGHT_CLEAR,NIGHT_MOSTLY_CLOUDY,NIGHT_BRIEF_SHOWERS,NIGHT_FOG,NIGHT_FOG,FOG","Offshore,Offshore,Offshore,Offshore,Offshore,Offshore,Cross-shore,Onshore,Onshore,Onshore",10
5842041f4e65fad6a7708991,2024_02_29,34.50875036590315,-120.50348,Jalama,2.2,0.528,0.833,14,14,"NIGHT_CLEAR,NIGHT_CLEAR,NIGHT_CLEAR,NIGHT_CLEAR,NIGHT_CLEAR,NIGHT_CLEAR,NIGHT_CLEAR,NIGHT_MOSTLY_CLOUDY,NIGHT_CLOUDY,CLOUDY","Offshore,Offshore,Offshore,Offshore,Offshore,Offshore,Offshore,Offshore,Cross-shore,Cross-shore",10
5842041f4e65fad6a7708996,2024_02_29,34.68700870220497,-120.6111611019887,Surf Beach,3,1.554,1.794,14,14,"NIGHT_MIST,NIGHT_MIST,NIGHT_MIST,NIGHT_MIST,NIGHT_MIST,NIGHT_MIST,NIGHT_MIST,NIGHT_CLOUDY,NIGHT_CLOUDY,FOG","Onshore,Onshore,Onshore,Onshore,Onshore,Onshore,Onshore,Onshore,Onshore,Onshore",10
5842041f4e65fad6a770899c,2024_02_29,35.5730538161116,-121.1143362345574,Moonstone,3,0.756,1.036,14,14,"NIGHT_CLEAR,NIGHT_MOSTLY_CLOUDY,NIGHT_MOSTLY_CLOUDY,NIGHT_MOSTLY_CLOUDY,NIGHT_MIST,NIGHT_MIST,NIGHT_MOSTLY_CLOUDY,NIGHT_MIST,NIGHT_MIST,MIST","Cross-shore,Offshore,Cross-shore,Offshore,Onshore,Onshore,Onshore,Onshore,Onshore,Cross-shore",10
5842041f4e65fad6a770899d,2024_02_29,35.61533716776573,-121.1502053073914,Pico Creek,3,0.721,1.014,14,14,"NIGHT_MOSTLY_CLOUDY,NIGHT_MOSTLY_CLOUDY,NIGHT_MOSTLY_CLOUDY,NIGHT_MOSTLY_CLOUDY,NIGHT_MIST,NIGHT_MIST,NIGHT_MOSTLY_CLOUDY,NIGHT_MOSTLY_CLOUDY,NIGHT_MOSTLY_CLOUDY,MIST","Onshore,Cross-shore,Cross-shore,Offshore,Onshore,Onshore,Onshore,Onshore,Onshore,Cross-shore",10
5842041f4e65fad6a770899e,2024_02_29,35.56829031927379,-121.1120653023953,Santa Rosa Creek,3,0.756,1.036,14,14,"NIGHT_MOSTLY_CLOUDY,NIGHT_MOSTLY_CLOUDY,NIGHT_MOSTLY_CLOUDY,NIGHT_BRIEF_SHOWERS,NIGHT_MIST,NIGHT_BRIEF_SHOWERS,NIGHT_MIST,NIGHT_BRIEF_SHOWERS,NIGHT_MOSTLY_CLOUDY,FOG","Cross-shore,Offshore,Cross-shore,Offshore,Cross-shore,Cross-shore,Cross-shore,Cross-shore,Offshore,Cross-shore",10
5842041f4e65fad6a77089a2,2024_02_29,35.44820114936284,-120.90715,"Cayucos Pier, Southside ",2.8,0.336,0.641,14,14,"NIGHT_MOSTLY_CLOUDY,NIGHT_MOSTLY_CLOUDY,NIGHT_MIST,NIGHT_MIST,NIGHT_BRIEF_SHOWERS,NIGHT_FOG,NIGHT_MIST,NIGHT_FOG,NIGHT_FOG,FOG","Onshore,Onshore,Onshore,Onshore,Onshore,Onshore,Onshore,Onshore,Onshore,Onshore",10
5842041f4e65fad6a77089a4,2024_02_29,35.30143372628852,-120.877819239902,Cable Landing,3,1.728,1.945,14,14,"NIGHT_MIST,NIGHT_MIST,NIGHT_MIST,NIGHT_MIST,NIGHT_MIST,NIGHT_MIST,NIGHT_MIST,NIGHT_MIST,NIGHT_DRIZZLE,FOG","Onshore,Onshore,Onshore,Onshore,Onshore,Onshore,Onshore,Onshore,Onshore,Onshore",10
5842041f4e65fad6a77089a9,2024_02_29,35.61269103500222,-121.1480725356606,San Simeon,3,0.4837,0.6881,14,14,"NIGHT_CLEAR,NIGHT_MOSTLY_CLOUDY,NIGHT_MOSTLY_CLOUDY,NIGHT_MOSTLY_CLOUDY,NIGHT_FOG,NIGHT_FOG,NIGHT_FOG,NIGHT_FOG,NIGHT_FOG,FOG","Onshore,Onshore,Onshore,Onshore,Onshore,Onshore,Onshore,Onshore,Onshore,Onshore",10
5842041f4e65fad6a77089ab,2024_02_29,35.1775325966252,-120.7341125142258,Avila Beach,2,0.052000000000000005,0.355,14,14,"NIGHT_MOSTLY_CLOUDY,NIGHT_MOSTLY_CLOUDY,NIGHT_MOSTLY_CLOUDY,NIGHT_MOSTLY_CLOUDY,NIGHT_MOSTLY_CLOUDY,NIGHT_MOSTLY_CLOUDY,NIGHT_OVERCAST,NIGHT_OVERCAST,NIGHT_DRIZZLE,MIST","Offshore,Offshore,Cross-shore,Onshore,Onshore,Onshore,Onshore,Onshore,Onshore,Onshore",10
5842041f4e65fad6a77089ac,2024_02_29,35.13877877884115,-120.64535,Pismo Beach Pier,3,0.6171800000000001,0.9238999999999999,12,12,"NIGHT_CLEAR,NIGHT_CLEAR,NIGHT_MOSTLY_CLOUDY,NIGHT_MOSTLY_CLOUDY,NIGHT_MOSTLY_CLOUDY,NIGHT_MOSTLY_CLOUDY,NIGHT_DRIZZLE,NIGHT_FOG,NIGHT_FOG,FOG","Cross-shore,Cross-shore,Cross-shore,Cross-shore,Cross-shore,Cross-shore,Cross-shore,Cross-shore,Cross-shore,Cross-shore",10
5842041f4e65fad6a77089ad,2024_02_29,46.8907710233147,-124.12964,Westport/Olympic Peninsula,1.1,2.387,2.809,10,10,"NIGHT_LIGHT_RAIN,NIGHT_LIGHT_SHOWERS_POSSIBLE,NIGHT_CLOUDY,NIGHT_OVERCAST,NIGHT_CLEAR,NIGHT_CLEAR,NIGHT_CLEAR,NIGHT_CLEAR,NIGHT_CLOUDY,MOSTLY_CLOUDY","Cross-shore,Onshore,Onshore,Onshore,Onshore,Onshore,Onshore,Onshore,Onshore,Onshore",10
5842041f4e65fad6a77089ae,2024_02_29,46.35185177248545,-124.06747,Long Beach Peninsula,0.9,3.162,3.659,10,10,"NIGHT_LIGHT_RAIN,NIGHT_RAIN,NIGHT_LIGHT_RAIN,NIGHT_LIGHT_RAIN,NIGHT_CLEAR,NIGHT_DRIZZLE,NIGHT_CLEAR,NIGHT_CLEAR,NIGHT_OVERCAST,CLEAR","Onshore,Onshore,Onshore,Onshore,Onshore,Onshore,Onshore,Onshore,Onshore,Onshore",10
5842041f4e65fad6a77089af,2024_02_29,47.90649175554033,-124.6370864743483,La Push,1.9,2.502,2.99,10,10,"NIGHT_BRIEF_SHOWERS_POSSIBLE,NIGHT_CLOUDY,NIGHT_MOSTLY_CLOUDY,NIGHT_CLEAR,NIGHT_CLEAR,NIGHT_CLEAR,NIGHT_MOSTLY_CLOUDY,NIGHT_CLEAR,NIGHT_CLEAR,CLEAR","Onshore,Onshore,Onshore,Onshore,Onshore,Onshore,Onshore,Cross-shore,Offshore,Cross-shore",10
5842041f4e65fad6a77089b0,2024_02_29,42.04368239985442,-124.26828,Brookings Jetty,0.2,1.283935,2.006151,12,12,"NIGHT_LIGHT_RAIN,NIGHT_DRIZZLE,NIGHT_RAIN,NIGHT_RAIN,NIGHT_RAIN,NIGHT_DRIZZLE,NIGHT_LIGHT_RAIN,NIGHT_LIGHT_RAIN,NIGHT_RAIN,DRIZZLE","Onshore,Onshore,Onshore,Onshore,Onshore,Onshore,Onshore,Onshore,Cross-shore,Onshore",10
5842041f4e65fad6a77089b1,2024_02_29,42.74071837900346,-124.4983727491047,Port Orford,0.4,2.682,3.06,12,12,"NIGHT_LIGHT_RAIN,NIGHT_LIGHT_RAIN,NIGHT_RAIN,NIGHT_LIGHT_RAIN,NIGHT_CLOUDY,NIGHT_LIGHT_RAIN,NIGHT_LIGHT_RAIN,NIGHT_DRIZZLE,NIGHT_LIGHT_RAIN,RAIN","Onshore,Onshore,Onshore,Onshore,Onshore,Onshore,Offshore,Cross-shore,Cross-shore,Onshore",10
5842041f4e65fad6a77089b2,2024_02_29,44.01532689312291,-124.13865,Florence South Jetty,0.9,3.269,3.759,11,11,"NIGHT_LIGHT_RAIN,NIGHT_LIGHT_RAIN,NIGHT_RAIN,NIGHT_HEAVY_RAIN,NIGHT_RAIN,NIGHT_RAIN,NIGHT_RAIN_AND_FOG,NIGHT_RAIN_AND_FOG,NIGHT_LIGHT_SHOWERS_POSSIBLE,RAIN","Onshore,Onshore,Onshore,Onshore,Onshore,Onshore,Onshore,Cross-shore,Onshore,Onshore",10
5842041f4e65fad6a77089b3,2024_02_29,42.41812540774362,-124.42945,Gold Beach South Jetty,0.3,2.677,3.178,11.6,11.6,"NIGHT_RAIN,NIGHT_RAIN,NIGHT_RAIN,NIGHT_DRIZZLE,NIGHT_RAIN,NIGHT_LIGHT_RAIN,NIGHT_HEAVY_RAIN,NIGHT_HEAVY_RAIN,NIGHT_DRIZZLE,LIGHT_RAIN","Onshore,Onshore,Onshore,Onshore,Onshore,Onshore,Onshore,Cross-shore,Cross-shore,Onshore",10
5842041f4e65fad6a77089b4,2024_02_29,44.95857310226525,-124.0219017690976,Lincoln City,1,3.151,3.56,11,11,"NIGHT_RAIN,NIGHT_HEAVY_RAIN,NIGHT_RAIN,NIGHT_LIGHT_RAIN,NIGHT_LIGHT_RAIN,NIGHT_BRIEF_SHOWERS_POSSIBLE,NIGHT_LIGHT_SHOWERS_POSSIBLE,NIGHT_LIGHT_RAIN,NIGHT_RAIN,LIGHT_SHOWERS_POSSIBLE","Cross-shore,Onshore,Onshore,Onshore,Onshore,Cross-shore,Cross-shore,Cross-shore,Onshore,Cross-shore",10
5842041f4e65fad6a77089b5,2024_02_29,44.63792761362982,-124.0657,Newport,0.8,3.447,3.872,11,11,"NIGHT_RAIN,NIGHT_RAIN,NIGHT_RAIN,NIGHT_RAIN,NIGHT_LIGHT_RAIN,NIGHT_LIGHT_SHOWERS_POSSIBLE,NIGHT_LIGHT_RAIN,NIGHT_LIGHT_SHOWERS_POSSIBLE,NIGHT_BRIEF_SHOWERS_POSSIBLE,LIGHT_RAIN","Onshore,Onshore,Onshore,Onshore,Onshore,Onshore,Onshore,Onshore,Cross-shore,Onshore",10
5842041f4e65fad6a77089b6,2024_02_29,45.61468496266301,-123.94643,Rockaway Beach,1.2,3.2479999999999998,3.6790000000000003,10,10,"NIGHT_LIGHT_RAIN,NIGHT_LIGHT_RAIN,NIGHT_LIGHT_RAIN,NIGHT_RAIN_AND_FOG,NIGHT_CLEAR,NIGHT_RAIN,NIGHT_BRIEF_SHOWERS_POSSIBLE,NIGHT_LIGHT_SHOWERS_POSSIBLE,NIGHT_BRIEF_SHOWERS_POSSIBLE,CLEAR","Cross-shore,Onshore,Onshore,Onshore,Cross-shore,Cross-shore,Onshore,Cross-shore,Cross-shore,Offshore",10
5842041f4e65fad6a77089b7,2024_02_29,45.20252914186085,-123.96975,Pacific City,1.1,2.702,3.227,11,11,"NIGHT_LIGHT_RAIN,NIGHT_RAIN,NIGHT_RAIN,NIGHT_RAIN_AND_FOG,NIGHT_RAIN,NIGHT_LIGHT_RAIN,NIGHT_LIGHT_RAIN,NIGHT_LIGHT_RAIN,NIGHT_RAIN_AND_FOG,LIGHT_SHOWERS_POSSIBLE","Onshore,Onshore,Cross-shore,Onshore,Onshore,Onshore,Onshore,Onshore,Onshore,Onshore",10
5842041f4e65fad6a77089b8,2024_02_29,45.88179930310263,-123.96681,Cannon Beach,1.2,3.1950000000000003,3.604,10,10,"NIGHT_RAIN,NIGHT_LIGHT_RAIN,NIGHT_RAIN_AND_FOG,NIGHT_LIGHT_RAIN,NIGHT_CLEAR,NIGHT_RAIN,NIGHT_LIGHT_RAIN,NIGHT_CLEAR,NIGHT_CLOUDY,CLEAR","Onshore,Cross-shore,Onshore,Onshore,Onshore,Onshore,Onshore,Cross-shore,Cross-shore,Cross-shore",10
5842041f4e65fad6a77089ba,2024_02_29,40.02528754746774,-124.06372,Shelter Cove,0.2,0.46676300000000004,0.729316,12.6,12.6,"NIGHT_BRIEF_SHOWERS,NIGHT_MOSTLY_CLOUDY,NIGHT_DRIZZLE,NIGHT_DRIZZLE,NIGHT_OVERCAST,NIGHT_OVERCAST,NIGHT_OVERCAST,NIGHT_LIGHT_RAIN,NIGHT_OVERCAST,OVERCAST","Onshore,Onshore,Onshore,Onshore,Onshore,Onshore,Onshore,Onshore,Onshore,Onshore",10
5842041f4e65fad6a77089bb,2024_02_29,40.76816197136951,-124.24248,Humboldt Harbor Entrance,0.6,2.078,2.426,12,12,"NIGHT_MOSTLY_CLOUDY,NIGHT_MOSTLY_CLOUDY,NIGHT_DRIZZLE,NIGHT_LIGHT_RAIN,NIGHT_OVERCAST,NIGHT_OVERCAST,NIGHT_OVERCAST,NIGHT_CLOUDY,NIGHT_LIGHT_RAIN,LIGHT_RAIN","Cross-shore,Cross-shore,Cross-shore,Cross-shore,Cross-shore,Cross-shore,Cross-shore,Cross-shore,Cross-shore,Cross-shore",10
5842041f4e65fad6a77089bc,2024_02_29,40.76684246920174,-124.23107,North Jetty,1.6,2.368,2.676,12,12,"NIGHT_MOSTLY_CLOUDY,NIGHT_MOSTLY_CLOUDY,NIGHT_DRIZZLE,NIGHT_OVERCAST,NIGHT_CLOUDY,NIGHT_CLOUDY,NIGHT_OVERCAST,NIGHT_CLOUDY,NIGHT_CLOUDY,DRIZZLE","Cross-shore,Cross-shore,Cross-shore,Cross-shore,Cross-shore,Cross-shore,Cross-shore,Cross-shore,Cross-shore,Cross-shore",10
5842041f4e65fad6a77089bd,2024_02_29,41.02731183893966,-124.1149972888982,Westhaven,1.1,2.808,3.2319999999999998,12,12,"NIGHT_OVERCAST,NIGHT_OVERCAST,NIGHT_LIGHT_RAIN,NIGHT_OVERCAST,NIGHT_LIGHT_RAIN,NIGHT_LIGHT_RAIN,NIGHT_LIGHT_RAIN,NIGHT_CLOUDY,NIGHT_LIGHT_RAIN,LIGHT_RAIN","Cross-shore,Cross-shore,Cross-shore,Cross-shore,Cross-shore,Onshore,Onshore,Onshore,Onshore,Onshore",10
5842041f4e65fad6a77089be,2024_02_29,41.13016238153297,-124.16466,Sue-meg,0.6,2.226,2.6,12,12,"NIGHT_OVERCAST,NIGHT_OVERCAST,NIGHT_DRIZZLE,NIGHT_DRIZZLE,NIGHT_OVERCAST,NIGHT_LIGHT_RAIN,NIGHT_LIGHT_RAIN,NIGHT_OVERCAST,NIGHT_LIGHT_RAIN,LIGHT_RAIN","Cross-shore,Cross-shore,Cross-shore,Cross-shore,Cross-shore,Cross-shore,Cross-shore,Cross-shore,Cross-shore,Cross-shore",10
5842041f4e65fad6a77089bf,2024_02_29,37.8289474958188,-122.5376795097543,Fort Cronkite/Rodeo Beach,1,0.681,0.987,13,13,"NIGHT_MOSTLY_CLOUDY,NIGHT_MOSTLY_CLOUDY,NIGHT_MOSTLY_CLOUDY,NIGHT_MOSTLY_CLOUDY,NIGHT_MOSTLY_CLOUDY,NIGHT_MOSTLY_CLOUDY,NIGHT_MOSTLY_CLOUDY,NIGHT_MOSTLY_CLOUDY,NIGHT_MOSTLY_CLOUDY,CLOUDY","Cross-shore,Onshore,Onshore,Onshore,Onshore,Onshore,Onshore,Onshore,Onshore,Onshore",10
5842041f4e65fad6a77089c0,2024_02_29,41.74415759876137,-124.17717,South Beach CA,0.6,2.075,2.355,12,12,"NIGHT_RAIN,NIGHT_RAIN,NIGHT_RAIN,NIGHT_LIGHT_RAIN,NIGHT_RAIN,NIGHT_LIGHT_RAIN,NIGHT_LIGHT_RAIN,NIGHT_OVERCAST,NIGHT_LIGHT_RAIN,RAIN","Onshore,Onshore,Onshore,Onshore,Onshore,Onshore,Onshore,Onshore,Onshore,Onshore",10
5842041f4e65fad6a77089c1,2024_02_29,37.89801283969752,-122.64519,Stinson Beach,1.7,0.265,0.5680000000000001,13.6,13.6,"NIGHT_MIST,NIGHT_BRIEF_SHOWERS,NIGHT_BRIEF_SHOWERS,NIGHT_MOSTLY_CLOUDY,NIGHT_BRIEF_SHOWERS,NIGHT_MOSTLY_CLOUDY,NIGHT_SHOWERS,NIGHT_MOSTLY_CLOUDY,NIGHT_MOSTLY_CLOUDY,DRIZZLE","Cross-shore,Offshore,Offshore,Cross-shore,Onshore,Cross-shore,Cross-shore,Cross-shore,Cross-shore,Cross-shore",10
5842041f4e65fad6a77089c2,2024_02_29,37.90514516176495,-122.68151,Bolinas,2.5,0.564165,0.881509,13.6,13.6,"NIGHT_MIST,NIGHT_FOG,NIGHT_BRIEF_SHOWERS,NIGHT_FOG,NIGHT_BRIEF_SHOWERS,NIGHT_MOSTLY_CLOUDY,NIGHT_BRIEF_SHOWERS,NIGHT_MOSTLY_CLOUDY,NIGHT_MOSTLY_CLOUDY,OVERCAST","Onshore,Cross-shore,Offshore,Onshore,Onshore,Offshore,Offshore,Offshore,Offshore,Offshore",10
5842041f4e65fad6a77089c3,2024_02_29,38.04892513158693,-122.9892494965416,Point Reyes (north),2.5,1.4929999999999999,1.774,14,14,"NIGHT_FOG,NIGHT_CLOUDY,NIGHT_OVERCAST,NIGHT_FOG,NIGHT_CLOUDY,NIGHT_DRIZZLE,NIGHT_LIGHT_RAIN,NIGHT_MOSTLY_CLOUDY,NIGHT_CLOUDY,MOSTLY_CLOUDY","Onshore,Onshore,Onshore,Cross-shore,Cross-shore,Cross-shore,Cross-shore,Cross-shore,Cross-shore,Cross-shore",10
5842041f4e65fad6a77089c6,2024_02_29,38.31088736605785,-123.0496777333731,Doran Beach,1.1,0.101,0.406,13.6,13.6,"NIGHT_FOG,NIGHT_MOSTLY_CLOUDY,NIGHT_MOSTLY_CLOUDY,NIGHT_FOG,NIGHT_MOSTLY_CLOUDY,NIGHT_BRIEF_SHOWERS,NIGHT_BRIEF_SHOWERS,NIGHT_MOSTLY_CLOUDY,NIGHT_OVERCAST,MOSTLY_CLOUDY","Offshore,Cross-shore,Cross-shore,Cross-shore,Cross-shore,Cross-shore,Onshore,Cross-shore,Onshore,Onshore",10
5842041f4e65fad6a77089c7,2024_02_29,38.45077228660809,-123.13008,Russian Rivermouth,1.9,0.998,1.236,13,13,"NIGHT_FOG,NIGHT_BRIEF_SHOWERS,NIGHT_MOSTLY_CLOUDY,NIGHT_FOG,NIGHT_MOSTLY_CLOUDY,NIGHT_MOSTLY_CLOUDY,NIGHT_BRIEF_SHOWERS,NIGHT_MOSTLY_CLOUDY,NIGHT_OVERCAST,OVERCAST","Onshore,Onshore,Onshore,Onshore,Onshore,Onshore,Onshore,Onshore,Onshore,Onshore",10
5842041f4e65fad6a77089c8,2024_02_29,38.35329968518107,-123.06906,Salmon Creek,1.9,1.252,1.45,13,13,"NIGHT_MIST,NIGHT_MOSTLY_CLOUDY,NIGHT_BRIEF_SHOWERS,NIGHT_FOG,NIGHT_MOSTLY_CLOUDY,NIGHT_MOSTLY_CLOUDY,NIGHT_MOSTLY_CLOUDY,NIGHT_MOSTLY_CLOUDY,NIGHT_OVERCAST,OVERCAST","Onshore,Onshore,Onshore,Onshore,Onshore,Onshore,Onshore,Onshore,Onshore,Onshore",10
5842041f4e65fad6a77089c9,2024_02_29,38.6845180197959,-123.4322714291198,Black Point Beach,1.5,0.5710000000000001,0.875,13,13,"NIGHT_MIST,NIGHT_FOG,NIGHT_FOG,NIGHT_FOG,NIGHT_MOSTLY_CLOUDY,NIGHT_MIST,NIGHT_MOSTLY_CLOUDY,NIGHT_DRIZZLE,NIGHT_OVERCAST,DRIZZLE","Onshore,Onshore,Onshore,Cross-shore,Cross-shore,Cross-shore,Cross-shore,Cross-shore,Cross-shore,Cross-shore",10
5842041f4e65fad6a77089ca,2024_02_29,43.251076,-70.59144,Ogunquit,2.917,1.1233600000000001,1.45288,4,3,"NIGHT_OVERCAST,NIGHT_OVERCAST,NIGHT_CLEAR,NIGHT_CLEAR,NIGHT_CLEAR,NIGHT_CLEAR,CLEAR,CLEAR,CLEAR,CLEAR","Offshore,Offshore,Offshore,Offshore,Offshore,Offshore,Offshore,Offshore,Offshore,Offshore",10
5842041f4e65fad6a77089cb,2024_02_29,41.362631366305415,-71.48006772942608,Point Judith,3.4,1.02565,1.620874,6,4,"NIGHT_CLOUDY,NIGHT_CLEAR,NIGHT_CLEAR,NIGHT_CLEAR,NIGHT_CLEAR,NIGHT_CLEAR,CLEAR,CLEAR,CLEAR,CLEAR","Offshore,Offshore,Offshore,Offshore,Offshore,Offshore,Offshore,Offshore,Offshore,Offshore",10
5842041f4e65fad6a77089cd,2024_02_29,41.422678090954726,-71.45413,Monahan's - Narragansett,1.9,0.571711,0.8933,4,4,"NIGHT_CLOUDY,NIGHT_CLEAR,NIGHT_CLEAR,NIGHT_CLEAR,NIGHT_CLEAR,NIGHT_CLEAR,CLEAR,CLEAR,CLEAR,CLEAR","Offshore,Offshore,Offshore,Offshore,Offshore,Offshore,Offshore,Offshore,Offshore,Offshore",10
5842041f4e65fad6a77089ce,2024_02_29,41.469,-71.293,Ruggles - Newport,2,1.440215,2.250333,4,4,"NIGHT_CLEAR,NIGHT_CLEAR,NIGHT_CLEAR,NIGHT_CLEAR,NIGHT_CLEAR,NIGHT_CLEAR,CLEAR,CLEAR,CLEAR,CLEAR","Offshore,Offshore,Offshore,Offshore,Offshore,Offshore,Offshore,Offshore,Offshore,Offshore",10
5842041f4e65fad6a77089cf,2024_02_29,43.175394,-70.606351,Short Sands Beach,2.7,1.157,1.44,4,4,"NIGHT_OVERCAST,NIGHT_SNOW,NIGHT_CLEAR,NIGHT_CLEAR,NIGHT_CLEAR,NIGHT_CLEAR,CLEAR,CLEAR,CLEAR,CLEAR","Offshore,Offshore,Offshore,Offshore,Offshore,Offshore,Offshore,Offshore,Offshore,Offshore",10
5842041f4e65fad6a77089d0,2024_02_29,41.487408,-71.29017,First Beach,2,1.229,1.4889999999999999,4,4,"NIGHT_CLEAR,NIGHT_CLEAR,NIGHT_CLEAR,NIGHT_CLEAR,NIGHT_CLEAR,NIGHT_CLEAR,CLEAR,CLEAR,CLEAR,CLEAR","Offshore,Offshore,Offshore,Offshore,Offshore,Offshore,Offshore,Offshore,Offshore,Offshore",10
5842041f4e65fad6a77089d1,2024_02_29,42.27916830233153,-70.86498,Nantasket Beach,0.317,0.10668000000000001,0.33736,4,3,"NIGHT_LIGHT_RAIN,NIGHT_SNOW,NIGHT_CLEAR,NIGHT_CLEAR,NIGHT_CLEAR,NIGHT_CLEAR,CLEAR,CLEAR,CLEAR,CLEAR","Offshore,Cross-shore,Cross-shore,Cross-shore,Cross-shore,Cross-shore,Cross-shore,Cross-shore,Cross-shore,Cross-shore",10
5842041f4e65fad6a77089d2,2024_02_29,41.817,-69.935,Cape Cod,1,0.675,0.978,4,4,"NIGHT_LIGHT_RAIN,NIGHT_LIGHT_RAIN,NIGHT_CLEAR,NIGHT_CLEAR,NIGHT_CLEAR,NIGHT_CLEAR,CLEAR,CLEAR,CLEAR,CLEAR","Offshore,Offshore,Offshore,Offshore,Offshore,Offshore,Offshore,Offshore,Offshore,Offshore",10
5842041f4e65fad6a77089d3,2024_02_29,42.22055448975661,-70.70634873403819,Egypt Beach,1,0,0.267,4,4,"NIGHT_LIGHT_RAIN,NIGHT_OVERCAST,NIGHT_CLEAR,NIGHT_CLEAR,NIGHT_CLEAR,NIGHT_CLEAR,CLEAR,CLEAR,CLEAR,CLEAR","Offshore,Offshore,Offshore,Offshore,Offshore,Offshore,Offshore,Offshore,Offshore,Offshore",10
5842041f4e65fad6a77089d4,2024_02_29,41.48739647744607,-71.25723,Second Beach,1.85,1.0651347500000001,1.5247315000000001,6,4,"NIGHT_CLEAR,NIGHT_CLEAR,NIGHT_CLEAR,NIGHT_CLEAR,NIGHT_CLEAR,NIGHT_CLEAR,CLEAR,CLEAR,CLEAR,CLEAR","Offshore,Cross-shore,Cross-shore,Cross-shore,Cross-shore,Cross-shore,Cross-shore,Cross-shore,Cross-shore,Cross-shore",10
5842041f4e65fad6a77089d5,2024_02_29,42.964,-70.769,Fox Hill,2.317,0.60236,0.90804,4,3,"NIGHT_OVERCAST,NIGHT_OVERCAST,NIGHT_CLEAR,NIGHT_CLEAR,NIGHT_CLEAR,NIGHT_CLEAR,CLEAR,CLEAR,CLEAR,CLEAR","Offshore,Offshore,Offshore,Offshore,Offshore,Offshore,Offshore,Offshore,Offshore,Offshore",10
5842041f4e65fad6a77089d6,2024_02_29,42.991359,-70.75149,Straws Point,2.2,0.76386,1.03554,4,3,"NIGHT_DRIZZLE,NIGHT_LIGHT_SNOW,NIGHT_CLEAR,NIGHT_CLEAR,NIGHT_CLEAR,NIGHT_CLEAR,CLEAR,CLEAR,CLEAR,CLEAR","Offshore,Offshore,Offshore,Offshore,Offshore,Offshore,Offshore,Offshore,Offshore,Offshore",10
5842041f4e65fad6a77089d7,2024_02_29,42.946,-70.786,Plaice Cove,2.217,0.60236,0.90804,4,3,"NIGHT_OVERCAST,NIGHT_OVERCAST,NIGHT_CLEAR,NIGHT_CLEAR,NIGHT_CLEAR,NIGHT_CLEAR,CLEAR,CLEAR,CLEAR,CLEAR","Offshore,Offshore,Offshore,Offshore,Offshore,Offshore,Offshore,Offshore,Offshore,Offshore",10
5842041f4e65fad6a77089d9,2024_02_29,42.911574,-70.80831,The Main Beach,2.493,0.65893815,1.00968285,4,3,"NIGHT_OVERCAST,NIGHT_OVERCAST,NIGHT_CLEAR,NIGHT_CLEAR,NIGHT_CLEAR,NIGHT_CLEAR,CLEAR,CLEAR,CLEAR,CLEAR","Offshore,Offshore,Offshore,Offshore,Offshore,Offshore,Offshore,Offshore,Offshore,Offshore",10
5842041f4e65fad6a77089da,2024_02_29,42.97583846220203,-70.764,Sawyer's Beach,2.717,0.88836,1.16604,4,3,"NIGHT_OVERCAST,NIGHT_OVERCAST,NIGHT_CLEAR,NIGHT_CLEAR,NIGHT_CLEAR,NIGHT_CLEAR,CLEAR,CLEAR,CLEAR,CLEAR","Offshore,Offshore,Offshore,Offshore,Offshore,Offshore,Offshore,Offshore,Offshore,Offshore",10
5842041f4e65fad6a77089db,2024_02_29,42.97,-70.77,Rye on the Rocks / 5-0's,2.493,0.70013355,1.05136155,4,3,"NIGHT_OVERCAST,NIGHT_OVERCAST,NIGHT_CLEAR,NIGHT_CLEAR,NIGHT_CLEAR,NIGHT_CLEAR,CLEAR,CLEAR,CLEAR,CLEAR","Offshore,Offshore,Offshore,Offshore,Offshore,Offshore,Offshore,Offshore,Offshore,Offshore",10
5842041f4e65fad6a77089dc,2024_02_29,43.55902946610303,-70.27795,Higgins Beach,2.633,1.2080373333333334,1.6438973333333333,4,3,"NIGHT_OVERCAST,NIGHT_OVERCAST,NIGHT_OVERCAST,NIGHT_CLEAR,NIGHT_CLEAR,NIGHT_CLEAR,CLEAR,CLEAR,CLEAR,CLEAR","Cross-shore,Cross-shore,Offshore,Offshore,Offshore,Offshore,Offshore,Offshore,Offshore,Offshore",10
5842041f4e65fad6a77089dd,2024_02_29,43.302676,-70.5652,Wells Beach,2.717,1.00286,1.3488799999999999,4,3,"NIGHT_OVERCAST,NIGHT_OVERCAST,NIGHT_CLEAR,NIGHT_CLEAR,NIGHT_CLEAR,NIGHT_CLEAR,CLEAR,CLEAR,CLEAR,CLEAR","Offshore,Offshore,Offshore,Offshore,Offshore,Offshore,Offshore,Offshore,Offshore,Offshore",10
5842041f4e65fad6a77089de,2024_02_29,43.545359,-70.30479,Scarborough Beach State Park,2.384,1.1255515,1.798679,4,3,"NIGHT_OVERCAST,NIGHT_OVERCAST,NIGHT_CLOUDY,NIGHT_CLEAR,NIGHT_CLEAR,NIGHT_CLEAR,CLEAR,CLEAR,CLEAR,CLEAR","Offshore,Offshore,Offshore,Offshore,Offshore,Offshore,Offshore,Offshore,Offshore,Offshore",10
5842041f4e65fad6a77089df,2024_02_29,43.514481,-70.372146,Old Orchard Beach,2.717,0.8341966666666667,1.2424253333333333,4,3,"NIGHT_OVERCAST,NIGHT_CLOUDY,NIGHT_CLEAR,NIGHT_CLEAR,NIGHT_CLEAR,NIGHT_CLEAR,CLEAR,CLEAR,CLEAR,CLEAR","Offshore,Offshore,Offshore,Offshore,Offshore,Offshore,Offshore,Offshore,Offshore,Offshore",10
5842041f4e65fad6a77089e0,2024_02_29,43.34711,-70.48165,Gooch's Beach,1.9,1.23336,1.51304,4,3,"NIGHT_OVERCAST,NIGHT_OVERCAST,NIGHT_CLEAR,NIGHT_CLEAR,NIGHT_CLEAR,NIGHT_CLEAR,CLEAR,CLEAR,CLEAR,CLEAR","Cross-shore,Cross-shore,Cross-shore,Cross-shore,Offshore,Offshore,Offshore,Offshore,Cross-shore,Cross-shore",10
5842041f4e65fad6a77089e2,2024_02_29,40.58433,-73.62953,Lido Beach,1.573,0.952824,1.4773253333333334,5,4,"NIGHT_CLEAR,NIGHT_CLEAR,NIGHT_CLEAR,NIGHT_CLEAR,NIGHT_CLEAR,NIGHT_CLEAR,CLEAR,CLEAR,CLEAR,CLEAR","Cross-shore,Cross-shore,Cross-shore,Cross-shore,Cross-shore,Onshore,Cross-shore,Cross-shore,Cross-shore,Cross-shore",10
5842041f4e65fad6a77089e3,2024_02_29,43.163135,-70.61689,Long Sands Beach,2.717,0.875104,1.3676336,4,3,"NIGHT_OVERCAST,NIGHT_SNOW,NIGHT_CLEAR,NIGHT_CLEAR,NIGHT_CLEAR,NIGHT_CLEAR,CLEAR,CLEAR,CLEAR,CLEAR","Offshore,Offshore,Offshore,Offshore,Offshore,Offshore,Offshore,Offshore,Offshore,Offshore",10
5842041f4e65fad6a77089e4,2024_02_29,40.61695351251805,-73.39376,Gilgo Beach,1.3,1.2250400000000001,1.58506,5,4,"NIGHT_CLEAR,NIGHT_CLEAR,NIGHT_CLEAR,NIGHT_CLEAR,NIGHT_CLEAR,NIGHT_CLEAR,CLEAR,CLEAR,CLEAR,CLEAR","Cross-shore,Offshore,Offshore,Cross-shore,Cross-shore,Cross-shore,Cross-shore,Cross-shore,Cross-shore,Cross-shore",10
5842041f4e65fad6a77089e5,2024_02_29,40.62530081928036,-73.23827,Robert Moses,1.4,1.116,1.393,4,4,"NIGHT_CLEAR,NIGHT_CLEAR,NIGHT_CLEAR,NIGHT_CLEAR,NIGHT_CLEAR,NIGHT_CLEAR,CLEAR,CLEAR,CLEAR,CLEAR","Cross-shore,Offshore,Offshore,Offshore,Offshore,Offshore,Cross-shore,Cross-shore,Cross-shore,Cross-shore",10
5842041f4e65fad6a77089e6,2024_02_29,40.64313317632791,-73.15727,Fire Island,1.4,1.104,1.3780000000000001,4.4,4.4,"NIGHT_CLOUDY,NIGHT_CLEAR,NIGHT_CLEAR,NIGHT_CLEAR,NIGHT_CLEAR,NIGHT_CLEAR,CLEAR,CLEAR,CLEAR,CLEAR","Cross-shore,Offshore,Offshore,Offshore,Offshore,Offshore,Cross-shore,Cross-shore,Cross-shore,Cross-shore",10
5842041f4e65fad6a77089e8,2024_02_29,40.76653118828782,-72.74579619372713,Cupsogue,1.9,2.507,2.813,5,5,"NIGHT_OVERCAST,NIGHT_CLEAR,NIGHT_CLEAR,NIGHT_CLEAR,NIGHT_CLEAR,NIGHT_CLEAR,CLEAR,CLEAR,CLEAR,CLEAR","Cross-shore,Offshore,Offshore,Offshore,Offshore,Offshore,Cross-shore,Cross-shore,Cross-shore,Cross-shore",10
5842041f4e65fad6a77089e9,2024_02_29,42.9376373334092,-70.79141,The Wall ,2.493,0.6456234000000001,0.9888765166666666,4,3,"NIGHT_OVERCAST,NIGHT_OVERCAST,NIGHT_CLEAR,NIGHT_CLEAR,NIGHT_CLEAR,NIGHT_CLEAR,CLEAR,CLEAR,CLEAR,CLEAR","Offshore,Offshore,Offshore,Offshore,Offshore,Offshore,Offshore,Offshore,Offshore,Offshore",10
5842041f4e65fad6a77089ea,2024_02_29,40.887088,-72.33856,Flys,1.9,2.107,2.384,5,5,"NIGHT_OVERCAST,NIGHT_CLEAR,NIGHT_CLEAR,NIGHT_CLEAR,NIGHT_CLEAR,NIGHT_CLEAR,CLEAR,CLEAR,CLEAR,CLEAR","Cross-shore,Cross-shore,Offshore,Offshore,Offshore,Offshore,Cross-shore,Cross-shore,Cross-shore,Cross-shore",10
5842041f4e65fad6a77089eb,2024_02_29,41.0389266436591,-71.91068529316958,Trailer Park,1.633,1.3334700499999999,2.0415730500000002,5,4,"NIGHT_OVERCAST,NIGHT_SNOW,NIGHT_MOSTLY_CLEAR,NIGHT_CLEAR,NIGHT_CLEAR,NIGHT_CLEAR,CLEAR,CLEAR,CLEAR,CLEAR","Cross-shore,Offshore,Offshore,Offshore,Offshore,Offshore,Offshore,Offshore,Cross-shore,Cross-shore",10
5842041f4e65fad6a77089ec,2024_02_29,41.039505402729105,-71.9142,Ditch Plains,2.2,1.369584,2.139977,5,5,"NIGHT_OVERCAST,NIGHT_CLOUDY,NIGHT_MOSTLY_CLEAR,NIGHT_CLEAR,NIGHT_CLEAR,NIGHT_CLEAR,CLEAR,CLEAR,CLEAR,CLEAR","Offshore,Offshore,Offshore,Offshore,Offshore,Offshore,Offshore,Offshore,Offshore,Offshore",10
5842041f4e65fad6a77089ee,2024_02_29,40.57633275206492,-73.56895305108567,"West End, Jones Beach",1.2,1.32904,1.57772,5,4,"NIGHT_CLEAR,NIGHT_CLEAR,NIGHT_CLEAR,NIGHT_CLEAR,NIGHT_CLEAR,NIGHT_CLEAR,CLEAR,CLEAR,CLEAR,CLEAR","Cross-shore,Cross-shore,Cross-shore,Cross-shore,Cross-shore,Cross-shore,Cross-shore,Cross-shore,Cross-shore,Cross-shore",10
5842041f4e65fad6a77089f1,2024_02_29,41.038286691230795,-71.91991567611694,Poles,1.633,1.3378291500000001,2.0070756833333334,5,4,"NIGHT_OVERCAST,NIGHT_SNOW,NIGHT_MOSTLY_CLEAR,NIGHT_CLEAR,NIGHT_CLEAR,NIGHT_CLEAR,CLEAR,CLEAR,CLEAR,CLEAR","Cross-shore,Offshore,Offshore,Offshore,Offshore,Offshore,Offshore,Offshore,Cross-shore,Cross-shore",10
5842041f4e65fad6a77089f3,2024_02_29,40.84077769766295,-72.47989493724765,The Bowl,1.9,2.209,2.466,5,5,"NIGHT_CLOUDY,NIGHT_CLEAR,NIGHT_CLEAR,NIGHT_CLEAR,NIGHT_CLEAR,NIGHT_CLEAR,CLEAR,CLEAR,CLEAR,CLEAR","Cross-shore,Cross-shore,Offshore,Offshore,Offshore,Offshore,Cross-shore,Cross-shore,Cross-shore,Cross-shore",10
5842041f4e65fad6a77089f4,2024_02_29,40.94235535243154,-72.19286,Main Beach,1.4,1.7070400000000001,2.1149,13,12,"NIGHT_OVERCAST,NIGHT_CLEAR,NIGHT_CLEAR,NIGHT_CLEAR,NIGHT_CLEAR,NIGHT_CLEAR,CLEAR,CLEAR,CLEAR,CLEAR","Cross-shore,Cross-shore,Cross-shore,Cross-shore,Cross-shore,Cross-shore,Cross-shore,Cross-shore,Cross-shore,Cross-shore",10
5842041f4e65fad6a77089f5,2024_02_29,40.58270702399518,-73.67251552079799,Laurelton Blvd.,1.46,0.9576555333333333,1.3992677333333334,5,4,"NIGHT_CLEAR,NIGHT_CLEAR,NIGHT_CLEAR,NIGHT_CLEAR,NIGHT_CLEAR,NIGHT_CLEAR,CLEAR,CLEAR,CLEAR,CLEAR","Onshore,Cross-shore,Onshore,Cross-shore,Offshore,Onshore,Onshore,Onshore,Onshore,Onshore",10
5842041f4e65fad6a77089f6,2024_02_29,41.033752854071416,-71.93695522488403,Terrace,1.536,1.3903906666666666,2.040788,5,4,"NIGHT_OVERCAST,NIGHT_LIGHT_SNOW,NIGHT_MOSTLY_CLEAR,NIGHT_CLEAR,NIGHT_CLEAR,NIGHT_CLEAR,CLEAR,CLEAR,CLEAR,CLEAR","Cross-shore,Offshore,Offshore,Offshore,Offshore,Offshore,Offshore,Offshore,Cross-shore,Cross-shore",10
5842041f4e65fad6a77089f7,2024_02_29,40.83372943645748,-72.50426173210144,K Road,2,2.293,2.56,5,5,"NIGHT_CLOUDY,NIGHT_CLEAR,NIGHT_CLEAR,NIGHT_CLEAR,NIGHT_CLEAR,NIGHT_CLEAR,CLEAR,CLEAR,CLEAR,CLEAR","Cross-shore,Offshore,Offshore,Offshore,Offshore,Offshore,Offshore,Offshore,Offshore,Cross-shore",10
5842041f4e65fad6a77089f8,2024_02_29,40.58456099581507,-73.80730032920837,84th Street,2.233,0.82938,1.343442,5,4,"NIGHT_CLEAR,NIGHT_CLEAR,NIGHT_CLEAR,NIGHT_CLEAR,NIGHT_CLEAR,NIGHT_CLEAR,CLEAR,CLEAR,CLEAR,CLEAR","Offshore,Offshore,Offshore,Offshore,Offshore,Cross-shore,Cross-shore,Cross-shore,Cross-shore,Offshore",10
5842041f4e65fad6a77089fa,2024_02_29,40.1319,-74.02788,Sea Girt,2.95,0.8518433333333333,1.25504,7,6,"NIGHT_CLEAR,NIGHT_CLEAR,NIGHT_CLEAR,NIGHT_CLEAR,NIGHT_CLEAR,NIGHT_CLEAR,CLEAR,CLEAR,CLEAR,CLEAR","Offshore,Offshore,Offshore,Offshore,Offshore,Offshore,Offshore,Offshore,Offshore,Offshore",10
5842041f4e65fad6a77089fb,2024_02_29,40.54698301868125,-73.9268,Breezy Point,1.5,0.839,1.119,5,5,"NIGHT_CLEAR,NIGHT_CLEAR,NIGHT_CLEAR,NIGHT_CLEAR,NIGHT_CLEAR,NIGHT_CLEAR,CLEAR,CLEAR,CLEAR,CLEAR","Offshore,Offshore,Offshore,Offshore,Cross-shore,Cross-shore,Cross-shore,Cross-shore,Cross-shore,Offshore",10
5842041f4e65fad6a77089fc,2024_02_29,40.152504,-74.021383,Spring Lake,2.95,0.86576,1.2302899999999999,7,6,"NIGHT_CLEAR,NIGHT_CLEAR,NIGHT_CLEAR,NIGHT_CLEAR,NIGHT_CLEAR,NIGHT_CLEAR,CLEAR,CLEAR,CLEAR,CLEAR","Offshore,Offshore,Offshore,Offshore,Offshore,Offshore,Offshore,Offshore,Offshore,Offshore",10
5842041f4e65fad6a77089fd,2024_02_29,40.591277,-73.770792,30th - 39th Streets,1.6,0.82286,1.15638,5,4,"NIGHT_CLEAR,NIGHT_CLEAR,NIGHT_CLEAR,NIGHT_CLEAR,NIGHT_CLEAR,NIGHT_CLEAR,CLEAR,CLEAR,CLEAR,CLEAR","Cross-shore,Offshore,Offshore,Cross-shore,Cross-shore,Cross-shore,Cross-shore,Cross-shore,Cross-shore,Cross-shore",10
5842041f4e65fad6a77089fe,2024_02_29,40.18834955871439,-74.00860982500222,Avon,2.95,0.86226,1.1809566666666667,7,6,"NIGHT_CLEAR,NIGHT_CLEAR,NIGHT_CLEAR,NIGHT_CLEAR,NIGHT_CLEAR,NIGHT_CLEAR,CLEAR,CLEAR,CLEAR,CLEAR","Offshore,Offshore,Offshore,Offshore,Offshore,Offshore,Offshore,Offshore,Offshore,Offshore",10
5842041f4e65fad6a77089ff,2024_02_29,40.1974229100932,-74.00650533798255,Bradley Beach,2.95,0.97251,1.29204,7,6,"NIGHT_CLEAR,NIGHT_CLEAR,NIGHT_CLEAR,NIGHT_CLEAR,NIGHT_CLEAR,NIGHT_CLEAR,CLEAR,CLEAR,CLEAR,CLEAR","Offshore,Offshore,Offshore,Offshore,Offshore,Offshore,Offshore,Offshore,Offshore,Offshore",10
5842041f4e65fad6a7708a01,2024_02_29,40.17202,-74.01503,"16th Ave., Belmar",2.683,0.8977633333333334,1.2992933333333334,7,6,"NIGHT_CLEAR,NIGHT_CLEAR,NIGHT_CLEAR,NIGHT_CLEAR,NIGHT_CLEAR,NIGHT_CLEAR,CLEAR,CLEAR,CLEAR,CLEAR","Offshore,Offshore,Offshore,Offshore,Offshore,Offshore,Offshore,Offshore,Offshore,Offshore",10
5842041f4e65fad6a7708a02,2024_02_29,40.217443,-73.99982,Asbury Park,3.15,1.03401,1.32879,7,6,"NIGHT_CLEAR,NIGHT_CLEAR,NIGHT_CLEAR,NIGHT_CLEAR,NIGHT_CLEAR,NIGHT_CLEAR,CLEAR,CLEAR,CLEAR,CLEAR","Offshore,Offshore,Offshore,Offshore,Offshore,Offshore,Offshore,Offshore,Offshore,Offshore",10
5842041f4e65fad6a7708a03,2024_02_29,40.229841,-73.996782,Loch Arbour and Deal,2.95,0.9154266666666666,1.2519566666666666,7,6,"NIGHT_CLEAR,NIGHT_CLEAR,NIGHT_CLEAR,NIGHT_CLEAR,NIGHT_CLEAR,NIGHT_CLEAR,CLEAR,CLEAR,CLEAR,CLEAR","Offshore,Offshore,Offshore,Offshore,Offshore,Offshore,Offshore,Offshore,Offshore,Offshore",10
5842041f4e65fad6a7708a05,2024_02_29,40.41754,-73.97935,Sandy Hook,0.6,0.188,0.492,5,5,"NIGHT_CLEAR,NIGHT_CLEAR,NIGHT_CLEAR,NIGHT_CLEAR,NIGHT_CLEAR,NIGHT_CLEAR,CLEAR,CLEAR,CLEAR,CLEAR","Offshore,Offshore,Offshore,Offshore,Offshore,Offshore,Offshore,Offshore,Offshore,Offshore",10
5842041f4e65fad6a7708a06,2024_02_29,39.36353,-74.40873,Crystals,2.65,0.8902843333333333,1.4332978333333333,7,6,"NIGHT_CLEAR,NIGHT_CLEAR,NIGHT_CLEAR,NIGHT_CLEAR,NIGHT_CLEAR,NIGHT_CLEAR,CLEAR,CLEAR,CLEAR,CLEAR","Offshore,Offshore,Offshore,Offshore,Offshore,Offshore,Offshore,Offshore,Offshore,Offshore",10
5842041f4e65fad6a7708a07,2024_02_29,39.31443,-74.51863,32nd Street,2.5,0.8204594166666667,1.3241943333333333,7,6,"NIGHT_CLEAR,NIGHT_CLEAR,NIGHT_CLEAR,NIGHT_CLEAR,NIGHT_CLEAR,NIGHT_CLEAR,CLEAR,CLEAR,CLEAR,CLEAR","Offshore,Offshore,Offshore,Offshore,Offshore,Offshore,Offshore,Offshore,Offshore,Offshore",10
5842041f4e65fad6a7708a08,2024_02_29,39.327688,-74.49524,Margate Pier Northside,2.5,0.8204594166666667,1.3241943333333333,7,6,"NIGHT_CLEAR,NIGHT_CLEAR,NIGHT_CLEAR,NIGHT_CLEAR,NIGHT_CLEAR,NIGHT_CLEAR,CLEAR,CLEAR,CLEAR,CLEAR","Offshore,Offshore,Offshore,Offshore,Offshore,Offshore,Offshore,Offshore,Offshore,Offshore",10
5842041f4e65fad6a7708a09,2024_02_29,39.336276,-74.47782,Ventnor Pier,2.3,0.8284081666666667,1.3366155,7,6,"NIGHT_CLEAR,NIGHT_CLEAR,NIGHT_CLEAR,NIGHT_CLEAR,NIGHT_CLEAR,NIGHT_CLEAR,CLEAR,CLEAR,CLEAR,CLEAR","Offshore,Offshore,Offshore,Offshore,Offshore,Offshore,Offshore,Offshore,Offshore,Offshore",10
5842041f4e65fad6a7708a0a,2024_02_29,39.35929751441085,-74.41683,States Avenue,2.6,0.8902843333333333,1.4332978333333333,7,6,"NIGHT_CLEAR,NIGHT_CLEAR,NIGHT_CLEAR,NIGHT_CLEAR,NIGHT_CLEAR,NIGHT_CLEAR,CLEAR,CLEAR,CLEAR,CLEAR","Offshore,Offshore,Offshore,Offshore,Offshore,Offshore,Offshore,Offshore,Offshore,Offshore",10
5842041f4e65fad6a7708a0b,2024_02_29,39.37274173278517,-74.40454,Brigantine Jetty,2.3,0.9233526666666667,1.4849649166666665,7,6,"NIGHT_CLEAR,NIGHT_CLEAR,NIGHT_CLEAR,NIGHT_CLEAR,NIGHT_CLEAR,NIGHT_CLEAR,CLEAR,CLEAR,CLEAR,CLEAR","Offshore,Offshore,Offshore,Offshore,Offshore,Offshore,Offshore,Offshore,Offshore,Offshore",10
5842041f4e65fad6a7708a0c,2024_02_29,39.356505,-74.42263,South Carolina Avenue,2.3,0.9233526666666667,1.4849649166666665,7,6,"NIGHT_CLEAR,NIGHT_CLEAR,NIGHT_CLEAR,NIGHT_CLEAR,NIGHT_CLEAR,NIGHT_CLEAR,CLEAR,CLEAR,CLEAR,CLEAR","Offshore,Offshore,Offshore,Offshore,Offshore,Offshore,Offshore,Offshore,Offshore,Offshore",10
5842041f4e65fad6a7708a0d,2024_02_29,39.413485,-74.35476,14th Street North,2.25,0.6153433333333334,0.9816233333333333,7,6,"NIGHT_CLEAR,NIGHT_CLEAR,NIGHT_CLEAR,NIGHT_CLEAR,NIGHT_CLEAR,NIGHT_CLEAR,CLEAR,CLEAR,CLEAR,CLEAR","Offshore,Offshore,Offshore,Offshore,Offshore,Offshore,Offshore,Offshore,Offshore,Offshore",10
5842041f4e65fad6a7708a0e,2024_02_29,39.531319,-74.263252,The Wooden Jetty,2.467,0.99091775,1.2821335,7,6,"NIGHT_CLEAR,NIGHT_CLEAR,NIGHT_CLEAR,NIGHT_CLEAR,NIGHT_CLEAR,NIGHT_CLEAR,CLEAR,CLEAR,CLEAR,CLEAR","Offshore,Offshore,Offshore,Offshore,Offshore,Offshore,Offshore,Offshore,Offshore,Offshore",10
5842041f4e65fad6a7708a0f,2024_02_29,39.552472,-74.24344,Holyoke,2.533,0.9718533333333332,1.3573931666666668,7,6,"NIGHT_CLEAR,NIGHT_CLEAR,NIGHT_CLEAR,NIGHT_CLEAR,NIGHT_CLEAR,NIGHT_CLEAR,CLEAR,CLEAR,CLEAR,CLEAR","Offshore,Offshore,Offshore,Offshore,Offshore,Offshore,Offshore,Offshore,Offshore,Offshore",10
5842041f4e65fad6a7708a10,2024_02_29,39.692364,-74.14068,Hudson Ave.,2.959,0.9516899999999999,1.4014433333333334,7,6,"NIGHT_CLEAR,NIGHT_CLEAR,NIGHT_CLEAR,NIGHT_CLEAR,NIGHT_CLEAR,NIGHT_CLEAR,CLEAR,CLEAR,CLEAR,CLEAR","Offshore,Offshore,Offshore,Offshore,Offshore,Offshore,Offshore,Offshore,Offshore,Offshore",10
5842041f4e65fad6a7708a11,2024_02_29,39.79614,-74.09248,Island Beach State Park,2.65,1.0574333333333334,1.33898,7,6,"NIGHT_CLEAR,NIGHT_CLEAR,NIGHT_CLEAR,NIGHT_CLEAR,NIGHT_CLEAR,NIGHT_CLEAR,CLEAR,CLEAR,CLEAR,CLEAR","Offshore,Offshore,Offshore,Offshore,Offshore,Offshore,Offshore,Offshore,Offshore,Offshore",10
5842041f4e65fad6a7708a12,2024_02_29,39.91813588078152,-74.07527,Seaside Park,2.35,1.0016,1.28798,7,6,"NIGHT_CLEAR,NIGHT_CLEAR,NIGHT_CLEAR,NIGHT_CLEAR,NIGHT_CLEAR,NIGHT_CLEAR,CLEAR,CLEAR,CLEAR,CLEAR","Offshore,Offshore,Offshore,Offshore,Offshore,Offshore,Offshore,Offshore,Offshore,Offshore",10
5842041f4e65fad6a7708a14,2024_02_29,39.946638,-74.06884,Seaside Heights,2.55,0.8368433333333334,1.1444733333333332,7,6,"NIGHT_CLEAR,NIGHT_CLEAR,NIGHT_CLEAR,NIGHT_CLEAR,NIGHT_CLEAR,NIGHT_CLEAR,CLEAR,CLEAR,CLEAR,CLEAR","Offshore,Offshore,Offshore,Offshore,Offshore,Offshore,Offshore,Offshore,Offshore,Offshore",10
5842041f4e65fad6a7708a15,2024_02_29,39.95745637606704,-74.06736,Ortley Beach,2.35,0.8190933333333333,1.15354,7,6,"NIGHT_CLEAR,NIGHT_CLEAR,NIGHT_CLEAR,NIGHT_CLEAR,NIGHT_CLEAR,NIGHT_CLEAR,CLEAR,CLEAR,CLEAR,CLEAR","Offshore,Offshore,Offshore,Offshore,Offshore,Offshore,Offshore,Offshore,Offshore,Offshore",10
5842041f4e65fad6a7708a16,2024_02_29,39.98313468342945,-74.06265685577506,Lavallette,2.75,0.87851,1.2609566666666667,7,6,"NIGHT_CLEAR,NIGHT_CLEAR,NIGHT_CLEAR,NIGHT_CLEAR,NIGHT_CLEAR,NIGHT_CLEAR,CLEAR,CLEAR,CLEAR,CLEAR","Offshore,Offshore,Offshore,Offshore,Offshore,Offshore,Offshore,Offshore,Offshore,Offshore",10
5842041f4e65fad6a7708a17,2024_02_29,40.0699319967757,-74.04144910856634,Bay Head,2.85,0.8875933333333333,1.2273733333333334,7,6,"NIGHT_CLEAR,NIGHT_CLEAR,NIGHT_CLEAR,NIGHT_CLEAR,NIGHT_CLEAR,NIGHT_CLEAR,CLEAR,CLEAR,CLEAR,CLEAR","Offshore,Offshore,Offshore,Offshore,Offshore,Offshore,Offshore,Offshore,Offshore,Offshore",10
5842041f4e65fad6a7708a18,2024_02_29,40.094041,-74.034859,Jenkinson's,2.85,0.81576,1.2267066666666666,7,6,"NIGHT_CLEAR,NIGHT_CLEAR,NIGHT_CLEAR,NIGHT_CLEAR,NIGHT_CLEAR,NIGHT_CLEAR,CLEAR,CLEAR,CLEAR,CLEAR","Offshore,Offshore,Offshore,Offshore,Offshore,Offshore,Offshore,Offshore,Offshore,Offshore",10
5842041f4e65fad6a7708a1a,2024_02_29,38.148058,-75.17704,Assateague,2,0.7337366666666667,1.0141366666666667,7,6,"NIGHT_CLEAR,NIGHT_CLEAR,NIGHT_CLEAR,NIGHT_CLEAR,NIGHT_CLEAR,NIGHT_CLEAR,CLEAR,CLEAR,CLEAR,CLEAR","Offshore,Offshore,Offshore,Offshore,Offshore,Offshore,Offshore,Offshore,Offshore,Offshore",10
5842041f4e65fad6a7708a1b,2024_02_29,38.33889038664497,-75.08017670566352,North End to Ocean City Inlet,1.683,0.8687366666666667,1.12422,7,6,"NIGHT_CLEAR,NIGHT_CLEAR,NIGHT_CLEAR,NIGHT_CLEAR,NIGHT_CLEAR,NIGHT_CLEAR,CLEAR,CLEAR,CLEAR,CLEAR","Offshore,Offshore,Offshore,Offshore,Offshore,Offshore,Offshore,Offshore,Offshore,Offshore",10
5842041f4e65fad6a7708a1c,2024_02_29,38.603993,-75.06271,Indian River Inlet,1.483,0.569736,0.8962418333333333,7,6,"NIGHT_CLEAR,NIGHT_CLEAR,NIGHT_CLEAR,NIGHT_CLEAR,NIGHT_CLEAR,NIGHT_CLEAR,CLEAR,CLEAR,CLEAR,CLEAR","Offshore,Offshore,Offshore,Offshore,Offshore,Offshore,Offshore,Offshore,Offshore,Offshore",10
5842041f4e65fad6a7708a1d,2024_02_29,38.460477,-75.052069,Fenwick Island,1.483,0.5964866666666666,0.87397,7,6,"NIGHT_CLEAR,NIGHT_CLEAR,NIGHT_CLEAR,NIGHT_CLEAR,NIGHT_CLEAR,NIGHT_CLEAR,CLEAR,CLEAR,CLEAR,CLEAR","Offshore,Offshore,Offshore,Offshore,Offshore,Offshore,Offshore,Offshore,Offshore,Offshore",10
5842041f4e65fad6a7708a1e,2024_02_29,38.538767,-75.05619,Bethany Beach,1.483,0.5399791666666667,0.84974775,7,6,"NIGHT_CLEAR,NIGHT_CLEAR,NIGHT_CLEAR,NIGHT_CLEAR,NIGHT_CLEAR,NIGHT_CLEAR,CLEAR,CLEAR,CLEAR,CLEAR","Offshore,Offshore,Offshore,Offshore,Offshore,Offshore,Offshore,Offshore,Offshore,Offshore",10
5842041f4e65fad6a7708a1f,2024_02_29,38.697657,-75.075951,Dewey Beach,1.283,0.48723666666666665,0.79172,7,6,"NIGHT_CLEAR,NIGHT_CLEAR,NIGHT_CLEAR,NIGHT_CLEAR,NIGHT_CLEAR,NIGHT_CLEAR,CLEAR,CLEAR,CLEAR,CLEAR","Offshore,Offshore,Offshore,Offshore,Offshore,Offshore,Offshore,Offshore,Offshore,Offshore",10
5842041f4e65fad6a7708a20,2024_02_29,38.75034741676525,-75.08194,Gordons Pond,1.3,0.4501009166666667,0.709315,7,6,"NIGHT_CLEAR,NIGHT_CLEAR,NIGHT_CLEAR,NIGHT_CLEAR,NIGHT_CLEAR,NIGHT_CLEAR,CLEAR,CLEAR,CLEAR,CLEAR","Offshore,Offshore,Offshore,Offshore,Offshore,Offshore,Offshore,Offshore,Offshore,Offshore",10
5842041f4e65fad6a7708a21,2024_02_29,38.767837,-75.082841,Naval Jetties,0.883,0.46898666666666666,0.7743866666666667,7,6,"NIGHT_CLEAR,NIGHT_CLEAR,NIGHT_CLEAR,NIGHT_CLEAR,NIGHT_CLEAR,NIGHT_CLEAR,CLEAR,CLEAR,CLEAR,CLEAR","Cross-shore,Cross-shore,Offshore,Offshore,Cross-shore,Offshore,Offshore,Offshore,Offshore,Offshore",10
5842041f4e65fad6a7708a22,2024_02_29,36.81735875786576,-75.96624,Camp Pendleton,1.423,0.3377,0.64348,7,6,"NIGHT_CLOUDY,NIGHT_CLEAR,NIGHT_CLEAR,NIGHT_CLEAR,NIGHT_CLEAR,NIGHT_CLEAR,CLEAR,CLEAR,CLEAR,CLEAR","Offshore,Offshore,Offshore,Offshore,Offshore,Offshore,Offshore,Offshore,Offshore,Cross-shore",10
5842041f4e65fad6a7708a23,2024_02_29,36.9102212316428,-75.98732471466064,North End,0.7,0.21,0.51668,7,6,"NIGHT_CLEAR,NIGHT_CLEAR,NIGHT_CLEAR,NIGHT_CLEAR,NIGHT_CLEAR,NIGHT_CLEAR,CLEAR,CLEAR,CLEAR,CLEAR","Offshore,Offshore,Offshore,Offshore,Offshore,Offshore,Offshore,Offshore,Offshore,Offshore",10
5842041f4e65fad6a7708a24,2024_02_29,36.737117517621314,-75.93923719853362,Sandbridge Beach,1,0.397,0.703,7,6,"NIGHT_OVERCAST,NIGHT_CLEAR,NIGHT_CLEAR,NIGHT_CLEAR,NIGHT_CLEAR,NIGHT_CLEAR,CLEAR,CLEAR,CLEAR,CLEAR","Offshore,Offshore,Offshore,Offshore,Offshore,Offshore,Offshore,Cross-shore,Cross-shore,Cross-shore",10
5842041f4e65fad6a7708a26,2024_02_29,36.818257440557794,-75.96666,Croatan to Pendleton,1.44,0.2697,0.57698,7,6,"NIGHT_CLOUDY,NIGHT_CLEAR,NIGHT_CLEAR,NIGHT_CLEAR,NIGHT_CLEAR,NIGHT_CLEAR,CLEAR,CLEAR,CLEAR,CLEAR","Offshore,Offshore,Offshore,Offshore,Offshore,Offshore,Offshore,Offshore,Offshore,Offshore",10
5842041f4e65fad6a7708a27,2024_02_29,36.84318777204769,-75.9719,South End,0.7,0.253,0.55918,7,6,"NIGHT_CLEAR,NIGHT_CLEAR,NIGHT_CLEAR,NIGHT_CLEAR,NIGHT_CLEAR,NIGHT_CLEAR,CLEAR,CLEAR,CLEAR,CLEAR","Offshore,Offshore,Offshore,Offshore,Offshore,Offshore,Offshore,Offshore,Offshore,Offshore",10
5842041f4e65fad6a7708a28,2024_02_29,37.08612627584661,-75.976121638199,Fishermans Island,1,0.1396,0.2612,7,7,"NIGHT_CLEAR,NIGHT_CLEAR,NIGHT_CLEAR,NIGHT_CLEAR,NIGHT_CLEAR,NIGHT_CLEAR,CLEAR,CLEAR,CLEAR,CLEAR","Offshore,Offshore,Offshore,Offshore,Offshore,Offshore,Offshore,Offshore,Offshore,Offshore",10
5842041f4e65fad6a7708a38,2024_02_29,35.254619418229026,-75.52074,Cape Hatteras Lighthouse,1.399,0.7109780833333333,1.115031,13,12,"NIGHT_OVERCAST,NIGHT_LIGHT_RAIN,NIGHT_CLEAR,NIGHT_OVERCAST,NIGHT_CLEAR,NIGHT_CLEAR,CLEAR,CLEAR,CLEAR,CLEAR","Offshore,Offshore,Offshore,Offshore,Offshore,Offshore,Offshore,Offshore,Cross-shore,Cross-shore",10
5842041f4e65fad6a7708a3a,2024_02_29,35.54572934093336,-75.46477,Waves and Salvo,1,0.72172,1.0262666666666667,12,11,"NIGHT_OVERCAST,NIGHT_LIGHT_RAIN,NIGHT_OVERCAST,NIGHT_CLEAR,NIGHT_CLEAR,NIGHT_CLEAR,CLEAR,CLEAR,CLEAR,CLEAR","Offshore,Offshore,Offshore,Offshore,Offshore,Offshore,Offshore,Offshore,Cross-shore,Cross-shore",10
5842041f4e65fad6a7708a3b,2024_02_29,35.22565892751075,-75.63606,Frisco,1.75,0.7715133333333334,1.0344166666666668,14,13,"NIGHT_OVERCAST,NIGHT_RAIN,NIGHT_CLOUDY,NIGHT_CLEAR,NIGHT_CLEAR,NIGHT_CLEAR,CLEAR,CLEAR,CLEAR,CLEAR","Offshore,Offshore,Offshore,Offshore,Offshore,Offshore,Offshore,Offshore,Offshore,Offshore",10
5842041f4e65fad6a7708a3c,2024_02_29,35.13086,-75.90591,Ocracoke,1.5,0.693983,1.084348,10,10,"NIGHT_CLOUDY,NIGHT_LIGHT_SHOWERS_POSSIBLE,NIGHT_BRIEF_SHOWERS_POSSIBLE,NIGHT_OVERCAST,NIGHT_CLEAR,NIGHT_CLEAR,CLEAR,CLEAR,CLEAR,CLEAR","Offshore,Offshore,Offshore,Offshore,Offshore,Offshore,Offshore,Offshore,Offshore,Offshore",10
5842041f4e65fad6a7708a3d,2024_02_29,35.34721340158342,-75.50084,Avon Pier,1.416,0.84802,1.1935966666666666,13,12,"NIGHT_OVERCAST,NIGHT_RAIN,NIGHT_DRIZZLE,NIGHT_CLEAR,NIGHT_CLEAR,NIGHT_CLEAR,CLEAR,CLEAR,CLEAR,CLEAR","Offshore,Offshore,Offshore,Offshore,Offshore,Offshore,Offshore,Offshore,Cross-shore,Cross-shore",10
5842041f4e65fad6a7708a3f,2024_02_29,35.71680821253768,-75.49243,Pea Island,0.4,0.569,0.872,8,8,"NIGHT_MOSTLY_CLOUDY,NIGHT_OVERCAST,NIGHT_OVERCAST,NIGHT_CLEAR,NIGHT_CLEAR,NIGHT_CLEAR,CLEAR,CLEAR,CLEAR,CLEAR","Offshore,Cross-shore,Cross-shore,Cross-shore,Cross-shore,Cross-shore,Cross-shore,Cross-shore,Cross-shore,Cross-shore",10
5842041f4e65fad6a7708a40,2024_02_29,35.97427620657821,-75.62984,Nags Head Pier,1.15,0.45697,0.76169,9,6,"NIGHT_LIGHT_SHOWERS_POSSIBLE,NIGHT_OVERCAST,NIGHT_CLEAR,NIGHT_CLEAR,NIGHT_CLEAR,NIGHT_CLEAR,CLEAR,CLEAR,CLEAR,CLEAR","Offshore,Cross-shore,Cross-shore,Cross-shore,Cross-shore,Cross-shore,Onshore,Onshore,Cross-shore,Onshore",10
5842041f4e65fad6a7708a41,2024_02_29,36.0439998039079,-75.67288,Avalon Pier,0.683,0.5638466666666666,0.8670666666666667,9,6,"NIGHT_LIGHT_RAIN,NIGHT_OVERCAST,NIGHT_CLEAR,NIGHT_CLEAR,NIGHT_CLEAR,NIGHT_CLEAR,CLEAR,CLEAR,CLEAR,CLEAR","Offshore,Cross-shore,Cross-shore,Cross-shore,Cross-shore,Cross-shore,Cross-shore,Cross-shore,Cross-shore,Cross-shore",10
5842041f4e65fad6a7708a42,2024_02_29,36.03043116489792,-75.66413,First Street,0.683,0.44972,0.7534400000000001,9,6,"NIGHT_LIGHT_RAIN,NIGHT_OVERCAST,NIGHT_CLEAR,NIGHT_CLEAR,NIGHT_CLEAR,NIGHT_CLEAR,CLEAR,CLEAR,CLEAR,CLEAR","Offshore,Cross-shore,Cross-shore,Cross-shore,Cross-shore,Cross-shore,Cross-shore,Cross-shore,Cross-shore,Cross-shore",10
5842041f4e65fad6a7708a43,2024_02_29,36.06829910590498,-75.6899,Old Station/Laundromats,0.7,0.50122,0.80644,9,6,"NIGHT_BRIEF_SHOWERS_POSSIBLE,NIGHT_OVERCAST,NIGHT_CLEAR,NIGHT_CLEAR,NIGHT_CLEAR,NIGHT_CLEAR,CLEAR,CLEAR,CLEAR,CLEAR","Offshore,Cross-shore,Offshore,Cross-shore,Cross-shore,Cross-shore,Cross-shore,Cross-shore,Cross-shore,Cross-shore",10
5842041f4e65fad6a7708a44,2024_02_29,36.10126676607491,-75.71107462163894,Kitty Hawk Pier,0.7,0.47555333333333333,0.7812733333333333,9,6,"NIGHT_OVERCAST,NIGHT_OVERCAST,NIGHT_CLEAR,NIGHT_CLEAR,NIGHT_CLEAR,NIGHT_CLEAR,CLEAR,CLEAR,CLEAR,CLEAR","Offshore,Cross-shore,Cross-shore,Cross-shore,Cross-shore,Cross-shore,Cross-shore,Cross-shore,Cross-shore,Cross-shore",10
5842041f4e65fad6a7708a45,2024_02_29,36.18220630068973,-75.75013580649097,Duck Pier,0.683,0.32122,0.62344,8,6,"NIGHT_OVERCAST,NIGHT_CLEAR,NIGHT_CLEAR,NIGHT_CLEAR,NIGHT_CLEAR,NIGHT_CLEAR,CLEAR,CLEAR,CLEAR,CLEAR","Offshore,Offshore,Offshore,Offshore,Cross-shore,Cross-shore,Cross-shore,Cross-shore,Cross-shore,Cross-shore",10
5842041f4e65fad6a7708a46,2024_02_29,36.37660668125033,-75.82409701687456,Corolla,0.7,0.48955333333333334,0.7971900000000001,8,6,"NIGHT_LIGHT_RAIN,NIGHT_CLEAR,NIGHT_CLEAR,NIGHT_CLEAR,NIGHT_CLEAR,NIGHT_CLEAR,CLEAR,CLEAR,CLEAR,CLEAR","Offshore,Offshore,Offshore,Offshore,Cross-shore,Cross-shore,Cross-shore,Cross-shore,Cross-shore,Cross-shore",10
