_id,date,lat,lon,name,daily_mean_swell_rating,daily_mean_wave_height_min,daily_mean_wave_height_max,daily_mean_water_temperature_max,daily_mean_water_temperature_min,weather_per_timestamp,wind_per_timestamp,n_samples_per_day
5842041f4e65fad6a77087f9,2024_08_09,37.741668,-122.51038,South Ocean Beach,1.5833333333333333,0.590164,0.907622,13,13,"NIGHT_MIST,NIGHT_MIST,NIGHT_MIST,NIGHT_MIST,NIGHT_MIST,NIGHT_MIST,NIGHT_MIST,NIGHT_MIST,MIST,MIST","Onshore,Onshore,Onshore,Onshore,Onshore,Onshore,Onshore,Onshore,Onshore,Onshore",10
5842041f4e65fad6a7708801,2024_08_09,37.49142,-122.50428,Maverick's,NA,0.717,1.0190000000000001,16,16,"NIGHT_BRIEF_SHOWERS,NIGHT_BRIEF_SHOWERS,NIGHT_BRIEF_SHOWERS,NIGHT_BRIEF_SHOWERS,NIGHT_BRIEF_SHOWERS,NIGHT_BRIEF_SHOWERS,NIGHT_MIST,NIGHT_BRIEF_SHOWERS,MOSTLY_CLOUDY,BRIEF_SHOWERS","Cross-shore,Cross-shore,Cross-shore,Cross-shore,Cross-shore,Cross-shore,Cross-shore,Cross-shore,Cross-shore,Cross-shore",10
5842041f4e65fad6a7708804,2024_08_09,44.997,-124.018,Roads End,2.5,0.763,1.0650000000000002,14,14,"NIGHT_MIST,NIGHT_MIST,NIGHT_MIST,NIGHT_MIST,NIGHT_MIST,NIGHT_MIST,NIGHT_MIST,NIGHT_MIST,MIST,MIST","Cross-shore,Cross-shore,Cross-shore,Cross-shore,Cross-shore,Cross-shore,Cross-shore,Cross-shore,Cross-shore,Onshore",10
5842041f4e65fad6a7708805,2024_08_09,36.95188851423011,-122.02522,Steamer Lane,1.9166666666666667,0.335685,0.638631,15,15,"NIGHT_CLEAR,NIGHT_CLEAR,NIGHT_CLEAR,NIGHT_CLEAR,NIGHT_CLEAR,NIGHT_CLEAR,NIGHT_CLEAR,NIGHT_MOSTLY_CLOUDY,MOSTLY_CLOUDY,CLEAR","Onshore,Onshore,Offshore,Offshore,Offshore,Cross-shore,Onshore,Offshore,Cross-shore,Cross-shore",10
5842041f4e65fad6a7708806,2024_08_09,36.95918781542251,-122.02489,Cowells,0.4,0,0.155403,15,15,"NIGHT_CLEAR,NIGHT_CLEAR,NIGHT_CLEAR,NIGHT_CLEAR,NIGHT_CLEAR,NIGHT_CLEAR,NIGHT_CLEAR,NIGHT_MOSTLY_CLOUDY,MOSTLY_CLOUDY,CLEAR","Onshore,Onshore,Offshore,Offshore,Offshore,Cross-shore,Onshore,Cross-shore,Onshore,Offshore",10
5842041f4e65fad6a7708807,2024_08_09,36.95468082526536,-121.97234,Pleasure Point,2.8166666666666664,0.42098599999999997,0.728238,15,15,"NIGHT_CLEAR,NIGHT_CLEAR,NIGHT_CLEAR,NIGHT_MOSTLY_CLEAR,NIGHT_MOSTLY_CLEAR,NIGHT_MOSTLY_CLEAR,NIGHT_MIST,NIGHT_BRIEF_SHOWERS,MOSTLY_CLOUDY,CLEAR","Onshore,Onshore,Onshore,Onshore,Cross-shore,Onshore,Onshore,Onshore,Onshore,Onshore",10
5842041f4e65fad6a770880a,2024_08_09,35.37815414378748,-120.86589,Morro Bay,2.75,0.661351,0.9675560000000001,13,13,"NIGHT_MOSTLY_CLOUDY,NIGHT_MOSTLY_CLOUDY,NIGHT_MOSTLY_CLEAR,NIGHT_MOSTLY_CLEAR,NIGHT_MOSTLY_CLEAR,NIGHT_MOSTLY_CLEAR,NIGHT_MOSTLY_CLEAR,NIGHT_MOSTLY_CLEAR,MOSTLY_CLEAR,CLEAR","Offshore,Offshore,Cross-shore,Offshore,Cross-shore,Onshore,Onshore,Cross-shore,Offshore,Onshore",10
5842041f4e65fad6a770880b,2024_08_09,36.95782765000708,-121.96729,Jack's,1.8166666666666667,0.058569,0.34771,15,15,"NIGHT_CLEAR,NIGHT_CLEAR,NIGHT_CLEAR,NIGHT_MOSTLY_CLEAR,NIGHT_MOSTLY_CLEAR,NIGHT_MOSTLY_CLEAR,NIGHT_MIST,NIGHT_BRIEF_SHOWERS,MOSTLY_CLOUDY,CLEAR","Onshore,Onshore,Onshore,Cross-shore,Cross-shore,Onshore,Onshore,Onshore,Onshore,Onshore",10
5842041f4e65fad6a770880d,2024_08_09,34.29982939936656,-119.3489016603669,Gold Coast Beachbreaks,2.9,0.594,0.902,19,19,"NIGHT_CLEAR,NIGHT_CLEAR,NIGHT_CLEAR,NIGHT_CLEAR,NIGHT_CLEAR,NIGHT_CLEAR,NIGHT_CLEAR,NIGHT_CLEAR,CLEAR,CLEAR","Onshore,Cross-shore,Cross-shore,Onshore,Offshore,Offshore,Cross-shore,Cross-shore,Offshore,Onshore",10
5842041f4e65fad6a7708811,2024_08_09,34.245076,-119.26799,Ventura Harbor,2.716666666666667,1.03284,1.31714,18,18,"NIGHT_CLEAR,NIGHT_CLEAR,NIGHT_CLEAR,NIGHT_CLEAR,NIGHT_CLEAR,NIGHT_CLEAR,NIGHT_CLEAR,NIGHT_CLEAR,CLEAR,CLEAR","Onshore,Onshore,Onshore,Onshore,Onshore,Offshore,Offshore,Cross-shore,Onshore,Onshore",10
5842041f4e65fad6a7708813,2024_08_09,34.051,-118.964,County Line,3.0833333333333335,0.9797,1.29649,16.2,16.2,"NIGHT_CLEAR,NIGHT_CLEAR,NIGHT_CLEAR,NIGHT_CLEAR,NIGHT_MIST,NIGHT_CLEAR,NIGHT_CLEAR,NIGHT_MIST,CLEAR,CLEAR","Offshore,Onshore,Onshore,Offshore,Offshore,Offshore,Offshore,Offshore,Offshore,Onshore",10
5842041f4e65fad6a7708814,2024_08_09,34.37256264378892,-119.47797,Rincon,2.4,0.28900000000000003,0.59,18.5,18.5,"NIGHT_CLEAR,NIGHT_CLEAR,NIGHT_CLEAR,NIGHT_CLEAR,NIGHT_MIST,NIGHT_MIST,NIGHT_MIST,NIGHT_MIST,MIST,BRIEF_SHOWERS","Onshore,Onshore,Onshore,Onshore,Onshore,Onshore,Onshore,Onshore,Onshore,Cross-shore",10
5842041f4e65fad6a7708817,2024_08_09,34.03096101876324,-118.68109,Malibu Third Point,2.9,0.6126159999999999,0.929121,19,19,"NIGHT_CLEAR,NIGHT_MOSTLY_CLEAR,NIGHT_MOSTLY_CLEAR,NIGHT_MOSTLY_CLEAR,NIGHT_MOSTLY_CLOUDY,NIGHT_MOSTLY_CLOUDY,NIGHT_MOSTLY_CLOUDY,NIGHT_MOSTLY_CLOUDY,MOSTLY_CLOUDY,MOSTLY_CLOUDY","Onshore,Cross-shore,Onshore,Onshore,Cross-shore,Onshore,Onshore,Onshore,Onshore,Cross-shore",10
5842041f4e65fad6a7708819,2024_08_09,33.984079047970035,-118.47382,Venice Beach,2.3833333333333333,0.533333,0.835576,18,18,"NIGHT_BRIEF_SHOWERS,NIGHT_BRIEF_SHOWERS,NIGHT_MIST,NIGHT_MIST,NIGHT_MOSTLY_CLOUDY,NIGHT_MOSTLY_CLOUDY,NIGHT_MOSTLY_CLOUDY,NIGHT_MOSTLY_CLOUDY,MOSTLY_CLOUDY,SHOWERS","Onshore,Onshore,Onshore,Onshore,Onshore,Onshore,Onshore,Onshore,Onshore,Onshore",10
5842041f4e65fad6a770881e,2024_08_09,34.037508438646746,-118.5834,Topanga Beach,2.8333333333333335,0.281578,0.42248,19.1,19.1,"NIGHT_CLEAR,NIGHT_CLEAR,NIGHT_CLEAR,NIGHT_CLEAR,NIGHT_CLEAR,NIGHT_CLEAR,NIGHT_CLEAR,NIGHT_CLEAR,CLEAR,CLEAR","Cross-shore,Onshore,Cross-shore,Offshore,Offshore,Offshore,Offshore,Offshore,Offshore,Onshore",10
5842041f4e65fad6a7708820,2024_08_09,33.73954373690184,-118.11414,Seal Beach Jetty,2.9,1.539,1.797,20,20,"NIGHT_CLEAR,NIGHT_CLEAR,NIGHT_CLEAR,NIGHT_CLEAR,NIGHT_MOSTLY_CLEAR,NIGHT_BRIEF_SHOWERS,NIGHT_MOSTLY_CLEAR,NIGHT_MOSTLY_CLOUDY,MOSTLY_CLOUDY,CLEAR","Onshore,Onshore,Onshore,Onshore,Onshore,Onshore,Onshore,Onshore,Onshore,Onshore",10
5842041f4e65fad6a7708822,2024_08_09,33.72309983348433,-118.08078,Anderson Street,2.8166666666666664,0.735399,1.018126,17.4,17.4,"NIGHT_CLEAR,NIGHT_CLEAR,NIGHT_CLEAR,NIGHT_CLEAR,NIGHT_MOSTLY_CLEAR,NIGHT_MOSTLY_CLEAR,NIGHT_MOSTLY_CLOUDY,NIGHT_MOSTLY_CLOUDY,MOSTLY_CLOUDY,MOSTLY_CLEAR","Onshore,Onshore,Onshore,Onshore,Onshore,Onshore,Onshore,Onshore,Onshore,Onshore",10
5842041f4e65fad6a7708827,2024_08_09,33.65574085629463,-118.00397,Huntington Beach Pier Northside,2.8166666666666664,1.670444,2.15929,17.4,17.4,"NIGHT_MOSTLY_CLEAR,NIGHT_MOSTLY_CLEAR,NIGHT_MOSTLY_CLEAR,NIGHT_MOSTLY_CLOUDY,NIGHT_MOSTLY_CLOUDY,NIGHT_MOSTLY_CLOUDY,NIGHT_MOSTLY_CLOUDY,NIGHT_MOSTLY_CLOUDY,MOSTLY_CLOUDY,CLEAR","Onshore,Onshore,Onshore,Onshore,Onshore,Onshore,Onshore,Onshore,Cross-shore,Onshore",10
5842041f4e65fad6a7708828,2024_08_09,34.272041739333,-119.29976,C St.,3.0833333333333335,0.875124,1.331749,18,18,"NIGHT_MOSTLY_CLEAR,NIGHT_MIST,NIGHT_MIST,NIGHT_MOSTLY_CLEAR,NIGHT_MOSTLY_CLEAR,NIGHT_MOSTLY_CLEAR,NIGHT_MOSTLY_CLEAR,NIGHT_MOSTLY_CLEAR,MOSTLY_CLEAR,BRIEF_SHOWERS","Cross-shore,Cross-shore,Onshore,Onshore,Onshore,Cross-shore,Cross-shore,Offshore,Offshore,Onshore",10
5842041f4e65fad6a770882a,2024_08_09,33.61555743705257,-117.93676,Newport Lower Jetties,2.8833333333333333,0.856644,1.085466,18.4,18.4,"NIGHT_CLEAR,NIGHT_MOSTLY_CLOUDY,NIGHT_MOSTLY_CLOUDY,NIGHT_MOSTLY_CLOUDY,NIGHT_MOSTLY_CLOUDY,NIGHT_MOSTLY_CLOUDY,NIGHT_MOSTLY_CLOUDY,NIGHT_MOSTLY_CLOUDY,MOSTLY_CLOUDY,CLEAR","Onshore,Onshore,Onshore,Onshore,Onshore,Offshore,Cross-shore,Offshore,Cross-shore,Onshore",10
5842041f4e65fad6a770882b,2024_08_09,33.5930302087,-117.88199,The Wedge,3.3833333333333333,1.88232,2.38265,18.4,18.4,"NIGHT_CLEAR,NIGHT_MOSTLY_CLOUDY,NIGHT_MOSTLY_CLOUDY,NIGHT_MOSTLY_CLOUDY,NIGHT_MOSTLY_CLOUDY,NIGHT_MOSTLY_CLOUDY,NIGHT_MOSTLY_CLOUDY,NIGHT_MOSTLY_CLOUDY,MOSTLY_CLOUDY,CLEAR","Onshore,Onshore,Onshore,Onshore,Onshore,Offshore,Onshore,Offshore,Offshore,Onshore",10
5842041f4e65fad6a770882e,2024_08_09,33.475793399792984,-117.72291,Salt Creek,3.2,1.015306,1.313893,18.4,18.4,"NIGHT_MIST,NIGHT_BRIEF_SHOWERS,NIGHT_MOSTLY_CLOUDY,NIGHT_MOSTLY_CLOUDY,NIGHT_MOSTLY_CLOUDY,NIGHT_MOSTLY_CLOUDY,NIGHT_OVERCAST,NIGHT_MOSTLY_CLOUDY,MIST,MIST","Onshore,Onshore,Onshore,Onshore,Onshore,Onshore,Onshore,Onshore,Onshore,Onshore",10
5842041f4e65fad6a7708830,2024_08_09,33.41800974113613,-117.61952,T-Street,2.7333333333333334,1.155931,1.452928,18.8,18.8,"NIGHT_BRIEF_SHOWERS,NIGHT_MIST,NIGHT_OVERCAST,NIGHT_MOSTLY_CLOUDY,NIGHT_MOSTLY_CLOUDY,NIGHT_MOSTLY_CLOUDY,NIGHT_MOSTLY_CLOUDY,NIGHT_MOSTLY_CLOUDY,MIST,MIST","Onshore,Onshore,Onshore,Onshore,Onshore,Cross-shore,Cross-shore,Cross-shore,Cross-shore,Onshore",10
5842041f4e65fad6a7708832,2024_08_09,33.202391008646,-117.39475,Oceanside Harbor,2.8833333333333333,0.9860800000000001,1.253247,20.2,20.2,"NIGHT_MOSTLY_CLOUDY,NIGHT_MOSTLY_CLOUDY,NIGHT_MOSTLY_CLOUDY,NIGHT_MOSTLY_CLOUDY,NIGHT_OVERCAST,NIGHT_MIST,NIGHT_MIST,NIGHT_MIST,MIST,MIST","Onshore,Onshore,Onshore,Cross-shore,Cross-shore,Cross-shore,Cross-shore,Cross-shore,Cross-shore,Onshore",10
5842041f4e65fad6a7708835,2024_08_09,33.19477795952803,-117.38667,Oceanside Pier,2.8833333333333333,0.988076,1.217687,20.2,20.2,"NIGHT_MOSTLY_CLOUDY,NIGHT_MOSTLY_CLOUDY,NIGHT_MOSTLY_CLOUDY,NIGHT_MOSTLY_CLOUDY,NIGHT_OVERCAST,NIGHT_MOSTLY_CLOUDY,NIGHT_MOSTLY_CLOUDY,NIGHT_OVERCAST,OVERCAST,CLEAR","Onshore,Onshore,Onshore,Cross-shore,Cross-shore,Cross-shore,Cross-shore,Cross-shore,Cross-shore,Onshore",10
5842041f4e65fad6a7708837,2024_08_09,33.14948100706,-117.35029,Tamarack,2.9,0.550603,0.8527899999999999,21,21,"NIGHT_MOSTLY_CLOUDY,NIGHT_MOSTLY_CLOUDY,NIGHT_OVERCAST,NIGHT_OVERCAST,NIGHT_CLOUDY,NIGHT_CLOUDY,NIGHT_CLOUDY,NIGHT_CLOUDY,CLOUDY,CLEAR","Onshore,Onshore,Onshore,Onshore,Onshore,Onshore,Onshore,Cross-shore,Offshore,Onshore",10
5842041f4e65fad6a7708839,2024_08_09,32.865777159358856,-117.25614,Scripps,2.8833333333333333,0.45028,0.757274,17.8,17.8,"NIGHT_MIST,NIGHT_MIST,NIGHT_OVERCAST,NIGHT_OVERCAST,NIGHT_MIST,NIGHT_DRIZZLE,NIGHT_MIST,NIGHT_MIST,MIST,MIST","Onshore,Onshore,Onshore,Onshore,Onshore,Onshore,Onshore,Onshore,Onshore,Onshore",10
5842041f4e65fad6a770883a,2024_08_09,32.813094,-117.27381,Birdrock,3,0.637,0.941,20,20,"NIGHT_MOSTLY_CLOUDY,NIGHT_OVERCAST,NIGHT_OVERCAST,NIGHT_OVERCAST,NIGHT_OVERCAST,NIGHT_OVERCAST,NIGHT_OVERCAST,NIGHT_OVERCAST,OVERCAST,CLEAR","Onshore,Onshore,Cross-shore,Onshore,Onshore,Onshore,Cross-shore,Offshore,Offshore,Cross-shore",10
5842041f4e65fad6a770883b,2024_08_09,32.877231,-117.25303,Blacks,2.9166666666666665,0.75408,1.057607,17.8,17.8,"NIGHT_MIST,NIGHT_MIST,NIGHT_OVERCAST,NIGHT_OVERCAST,NIGHT_MIST,NIGHT_DRIZZLE,NIGHT_MIST,NIGHT_MIST,MIST,MIST","Onshore,Onshore,Onshore,Onshore,Onshore,Onshore,Onshore,Onshore,Onshore,Onshore",10
5842041f4e65fad6a770883c,2024_08_09,32.82978974229765,-117.28162,Windansea,2.9166666666666665,0.829747,1.108107,18,18,"NIGHT_MOSTLY_CLOUDY,NIGHT_OVERCAST,NIGHT_OVERCAST,NIGHT_OVERCAST,NIGHT_OVERCAST,NIGHT_OVERCAST,NIGHT_OVERCAST,NIGHT_OVERCAST,OVERCAST,CLEAR","Onshore,Onshore,Onshore,Onshore,Onshore,Onshore,Onshore,Onshore,Onshore,Onshore",10
5842041f4e65fad6a770883d,2024_08_09,32.838278,-117.28396,Horseshoe,2.9,0.766,1.0310000000000001,20,20,"NIGHT_MOSTLY_CLOUDY,NIGHT_OVERCAST,NIGHT_OVERCAST,NIGHT_OVERCAST,NIGHT_OVERCAST,NIGHT_OVERCAST,NIGHT_OVERCAST,NIGHT_OVERCAST,OVERCAST,CLEAR","Onshore,Onshore,Onshore,Onshore,Onshore,Onshore,Onshore,Onshore,Onshore,Onshore",10
5842041f4e65fad6a770883f,2024_08_09,32.75034717673179,-117.25337,Ocean Beach,2.8833333333333333,0.561206,0.88066,18,18,"NIGHT_MIST,NIGHT_MIST,NIGHT_OVERCAST,NIGHT_OVERCAST,NIGHT_MIST,NIGHT_MIST,NIGHT_MIST,NIGHT_MIST,MIST,MIST","Onshore,Onshore,Onshore,Onshore,Cross-shore,Onshore,Cross-shore,Onshore,Onshore,Onshore",10
5842041f4e65fad6a7708840,2024_08_09,32.73693,-117.25718,Sunset Cliffs,2,0.405084,0.711485,20,20,"NIGHT_MIST,NIGHT_MIST,NIGHT_OVERCAST,NIGHT_OVERCAST,NIGHT_MIST,NIGHT_MIST,NIGHT_MIST,NIGHT_MIST,MIST,BRIEF_SHOWERS","Onshore,Onshore,Onshore,Onshore,Cross-shore,Onshore,Cross-shore,Onshore,Onshore,Onshore",10
5842041f4e65fad6a7708841,2024_08_09,32.796582258728826,-117.25779,Pacific Beach,2.9166666666666665,0.819985,1.141436,18,18,"NIGHT_MIST,NIGHT_MIST,NIGHT_OVERCAST,NIGHT_OVERCAST,NIGHT_MIST,NIGHT_MIST,NIGHT_MIST,NIGHT_MIST,MIST,CLEAR","Onshore,Onshore,Cross-shore,Onshore,Onshore,Onshore,Cross-shore,Offshore,Offshore,Cross-shore",10
5842041f4e65fad6a7708842,2024_08_09,32.776636,-117.25514,Mission Beach,2.8,0.69572,1.00556,18,18,"NIGHT_MIST,NIGHT_MIST,NIGHT_OVERCAST,NIGHT_OVERCAST,NIGHT_MIST,NIGHT_MIST,NIGHT_MIST,NIGHT_MIST,MIST,CLEAR","Onshore,Onshore,Onshore,Onshore,Onshore,Cross-shore,Offshore,Offshore,Offshore,Onshore",10
5842041f4e65fad6a7708844,2024_08_09,32.577195519016,-117.13475,Imperial Beach Pier,2.9,0.669,0.972,19.5,19.5,"NIGHT_MIST,NIGHT_MIST,NIGHT_MOSTLY_CLOUDY,NIGHT_MOSTLY_CLOUDY,NIGHT_MOSTLY_CLOUDY,NIGHT_MOSTLY_CLOUDY,NIGHT_CLOUDY,NIGHT_CLOUDY,MIST,CLEAR","Onshore,Onshore,Onshore,Onshore,Onshore,Onshore,Onshore,Onshore,Onshore,Onshore",10
5842041f4e65fad6a770884a,2024_08_09,42.88678181061,-70.80843,Seabrook,1,0.043705,0.380541,18.1,16.1,"NIGHT_MIST,NIGHT_MIST,NIGHT_MIST,NIGHT_MIST,MIST,RAIN,MIST,MIST,MIST,MIST","Onshore,Onshore,Onshore,Onshore,Onshore,Onshore,Onshore,Onshore,Onshore,Onshore",10
5842041f4e65fad6a770884e,2024_08_09,41.434181432898335,-71.45312,Narragansett,1.65,0.22108,0.52665,23,21,"NIGHT_FOG,NIGHT_FOG,NIGHT_MIST,NIGHT_MIST,BRIEF_SHOWERS,BRIEF_SHOWERS_POSSIBLE,MIST,MIST,MIST,CLEAR","Onshore,Onshore,Onshore,Onshore,Onshore,Onshore,Onshore,Onshore,Onshore,Onshore",10
5842041f4e65fad6a7708850,2024_08_09,40.582703230722,-73.65247,Lincoln Blvd,0.6833333333333333,0.992694,1.324842,23,20.1,"NIGHT_MIST,NIGHT_MIST,NIGHT_MIST,NIGHT_MIST,MIST,DRIZZLE,MIST,OVERCAST,MIST,MOSTLY_CLEAR","Cross-shore,Cross-shore,Onshore,Cross-shore,Onshore,Onshore,Onshore,Onshore,Onshore,Onshore",10
5842041f4e65fad6a7708852,2024_08_09,40.58342841721757,-73.81182,Rockaways,0.9833333333333333,0.810278,1.163503,23,20.1,"NIGHT_MIST,NIGHT_MIST,NIGHT_MIST,NIGHT_MIST,OVERCAST,MIST,DRIZZLE,MIST,OVERCAST,CLEAR","Onshore,Onshore,Onshore,Onshore,Onshore,Onshore,Onshore,Onshore,Onshore,Onshore",10
5842041f4e65fad6a7708853,2024_08_09,40.330474,-73.9734,Monmouth Beach,0.6166666666666667,0.932627,1.31294,22,21.9,"NIGHT_MIST,NIGHT_BRIEF_SHOWERS,NIGHT_MIST,NIGHT_DRIZZLE,NIGHT_DRIZZLE,MIST,CLOUDY,MIST,MIST,CLEAR","Onshore,Onshore,Onshore,Onshore,Onshore,Onshore,Onshore,Onshore,Onshore,Cross-shore",10
5842041f4e65fad6a7708856,2024_08_09,40.113,-74.028,Manasquan Inlet,1.9666666666666666,0.933384,1.422324,22,21,"NIGHT_CLEAR,NIGHT_CLEAR,NIGHT_MIST,NIGHT_MOSTLY_CLOUDY,NIGHT_LIGHT_SHOWERS_POSSIBLE,MIST,OVERCAST,CLEAR,CLEAR,CLEAR","Onshore,Onshore,Cross-shore,Onshore,Onshore,Onshore,Onshore,Cross-shore,Onshore,Cross-shore",10
5842041f4e65fad6a7708857,2024_08_09,39.941519877445664,-74.06829,Casino Pier,1,1.085164,1.557535,22,21,"NIGHT_MIST,NIGHT_MIST,NIGHT_MIST,NIGHT_MIST,NIGHT_MIST,MIST,MOSTLY_CLOUDY,DRIZZLE,MIST,DRIZZLE","Onshore,Onshore,Onshore,Onshore,Onshore,Onshore,Onshore,Onshore,Onshore,Cross-shore",10
5842041f4e65fad6a7708858,2024_08_09,39.28223089949212,-74.55766,North End OC,1.1333333333333333,0.932284,1.273888,18.1,17.1,"NIGHT_MIST,NIGHT_MIST,NIGHT_HEAVY_SHOWERS,NIGHT_BRIEF_SHOWERS,NIGHT_MIST,MIST,DRIZZLE,MIST,MOSTLY_CLOUDY,CLEAR","Onshore,Onshore,Onshore,Onshore,Onshore,Onshore,Onshore,Onshore,Onshore,Cross-shore",10
5842041f4e65fad6a770885b,2024_08_09,39.65080599934257,-74.17146,Ship Bottom,1,0.747098,1.17933,18.1,17.1,"NIGHT_MIST,NIGHT_MIST,NIGHT_MIST,NIGHT_MIST,NIGHT_DRIZZLE,MIST,MIST,MIST,MIST,CLOUDY","Onshore,Onshore,Onshore,Onshore,Onshore,Onshore,Onshore,Onshore,Onshore,Cross-shore",10
5842041f4e65fad6a7708863,2024_08_09,36.034151543144,-75.66791,Third Street,2.5166666666666666,0.85068,1.165173,21,19,"NIGHT_CLEAR,NIGHT_MOSTLY_CLOUDY,NIGHT_CLEAR,NIGHT_CLEAR,NIGHT_CLEAR,CLEAR,CLEAR,CLEAR,CLEAR,CLEAR","Offshore,Offshore,Offshore,Offshore,Offshore,Offshore,Offshore,Offshore,Offshore,Offshore",10
5842041f4e65fad6a7708867,2024_08_09,35.605833221351425,-75.46303,S-Turns,1,0.955738,1.437143,24,22.2,"NIGHT_CLOUDY,NIGHT_CLEAR,NIGHT_CLEAR,NIGHT_MOSTLY_CLOUDY,NIGHT_CLEAR,CLEAR,CLEAR,CLEAR,MOSTLY_CLOUDY,CLEAR","Cross-shore,Cross-shore,Cross-shore,Cross-shore,Cross-shore,Cross-shore,Cross-shore,Cross-shore,Cross-shore,Cross-shore",10
5842041f4e65fad6a770886d,2024_08_09,38.338461,-75.08117,Ocean City Boardwalk,1,1.248504,1.570436,19.9,18.9,"NIGHT_CLOUDY,NIGHT_SHOWERS,NIGHT_MIST,NIGHT_MIST,NIGHT_MIST,MIST,MIST,MIST,CLOUDY,CLEAR","Cross-shore,Cross-shore,Cross-shore,Cross-shore,Cross-shore,Cross-shore,Cross-shore,Cross-shore,Cross-shore,Cross-shore",10
5842041f4e65fad6a770886f,2024_08_09,29.844757212379562,-81.26136,A St.,2,0.335,0.642,26,26,"NIGHT_CLEAR,NIGHT_CLEAR,NIGHT_CLEAR,NIGHT_MOSTLY_CLEAR,NIGHT_CLEAR,CLEAR,CLEAR,CLEAR,CLEAR,MOSTLY_CLEAR","Cross-shore,Cross-shore,Cross-shore,Cross-shore,Cross-shore,Offshore,Offshore,Offshore,Offshore,Onshore",10
5842041f4e65fad6a7708871,2024_08_09,29.069417851135093,-80.90824,New Smyrna Beach,2.9,0.627705,1.029752,26.9,26.9,"NIGHT_CLEAR,NIGHT_CLEAR,NIGHT_CLEAR,NIGHT_CLEAR,NIGHT_CLEAR,CLEAR,CLEAR,CLEAR,CLEAR,CLEAR","Offshore,Offshore,Offshore,Offshore,Offshore,Offshore,Offshore,Offshore,Offshore,Cross-shore",10
5842041f4e65fad6a7708872,2024_08_09,28.367707417566,-80.60171,Cocoa Beach Pier,1.2333333333333334,0.112912,0.418727,26.9,26.8,"NIGHT_CLEAR,NIGHT_CLEAR,NIGHT_MOSTLY_CLEAR,NIGHT_MOSTLY_CLEAR,NIGHT_CLEAR,CLEAR,CLEAR,CLEAR,CLEAR,CLEAR","Cross-shore,Cross-shore,Cross-shore,Cross-shore,Cross-shore,Offshore,Offshore,Cross-shore,Offshore,Onshore",10
5842041f4e65fad6a7708873,2024_08_09,28.091782738658846,-80.56479,Indialantic,1.9,0.187137,0.491594,26.9,26.8,"NIGHT_CLEAR,NIGHT_CLEAR,NIGHT_CLEAR,NIGHT_CLEAR,NIGHT_CLEAR,CLEAR,CLEAR,CLEAR,CLEAR,MIST","Offshore,Offshore,Offshore,Offshore,Offshore,Offshore,Offshore,Offshore,Offshore,Onshore",10
5842041f4e65fad6a7708876,2024_08_09,27.25392904143517,-80.19455,Jensen Beach,0.8,0,0.25436,29.8,28.8,"NIGHT_CLEAR,NIGHT_CLEAR,NIGHT_CLEAR,NIGHT_CLEAR,NIGHT_CLEAR,CLEAR,CLEAR,CLEAR,CLEAR,CLEAR","Offshore,Offshore,Offshore,Offshore,Offshore,Offshore,Offshore,Offshore,Offshore,Onshore",10
5842041f4e65fad6a7708879,2024_08_09,26.76346795333825,-80.03607,Reef Road,0.9,0.013,0.239404,30.9,29,"NIGHT_CLEAR,NIGHT_CLEAR,NIGHT_MOSTLY_CLEAR,NIGHT_CLEAR,NIGHT_CLEAR,CLEAR,CLEAR,CLEAR,CLEAR,MOSTLY_CLOUDY","Offshore,Offshore,Offshore,Offshore,Offshore,Offshore,Offshore,Offshore,Offshore,Cross-shore",10
5842041f4e65fad6a770887c,2024_08_09,26.336499228484,-80.06956100463,Boca Raton Inlet,0.75,0,0.229667,30.9,29,"NIGHT_CLEAR,NIGHT_CLEAR,NIGHT_CLEAR,NIGHT_CLEAR,NIGHT_CLEAR,CLEAR,CLEAR,CLEAR,CLEAR,HEAVY_SHOWERS","Cross-shore,Offshore,Offshore,Offshore,Cross-shore,Cross-shore,Offshore,Cross-shore,Cross-shore,Offshore",10
5842041f4e65fad6a770887d,2024_08_09,26.31719311695038,-80.07453,Deerfield Beach Pier,0,0,0.155568,31,29,"NIGHT_CLEAR,NIGHT_CLEAR,NIGHT_CLEAR,NIGHT_CLEAR,NIGHT_CLEAR,CLEAR,CLEAR,CLEAR,CLEAR,HEAVY_SHOWERS","Cross-shore,Offshore,Offshore,Offshore,Cross-shore,Cross-shore,Offshore,Cross-shore,Cross-shore,Offshore",10
5842041f4e65fad6a7708881,2024_08_09,30.20276320866628,-85.85626528676136,"Spyglass Dr., Panama City",0.8,0.0685,0.37081,30.8,29,"NIGHT_CLEAR,NIGHT_CLEAR,NIGHT_CLEAR,NIGHT_CLEAR,NIGHT_CLEAR,NIGHT_CLEAR,CLEAR,CLEAR,CLEAR,CLEAR","Offshore,Offshore,Offshore,Offshore,Offshore,Offshore,Offshore,Offshore,Offshore,Onshore",10
5842041f4e65fad6a7708884,2024_08_09,33.39000832738053,-117.59852,Cottons,3.8,1.399107,1.707113,18.8,18.8,"NIGHT_MIST,NIGHT_MIST,NIGHT_MOSTLY_CLOUDY,NIGHT_MOSTLY_CLOUDY,NIGHT_MOSTLY_CLOUDY,NIGHT_MOSTLY_CLOUDY,NIGHT_MOSTLY_CLOUDY,NIGHT_MOSTLY_CLOUDY,MOSTLY_CLOUDY,CLEAR","Offshore,Cross-shore,Offshore,Offshore,Offshore,Offshore,Offshore,Offshore,Offshore,Onshore",10
5842041f4e65fad6a7708885,2024_08_09,33.359416282661,-117.54168,Trails,3,0.946,1.119,21,21,"NIGHT_MIST,NIGHT_MIST,NIGHT_MOSTLY_CLOUDY,NIGHT_MOSTLY_CLOUDY,NIGHT_MOSTLY_CLOUDY,NIGHT_MIST,NIGHT_MIST,NIGHT_MIST,MOSTLY_CLOUDY,CLEAR","Cross-shore,Onshore,Cross-shore,Onshore,Offshore,Offshore,Cross-shore,Offshore,Offshore,Onshore",10
5842041f4e65fad6a7708886,2024_08_09,33.38042605929805,-117.58332,Middles,3.9,1.3050000000000002,1.552,21,21,"NIGHT_MIST,NIGHT_MIST,NIGHT_MOSTLY_CLOUDY,NIGHT_MOSTLY_CLOUDY,NIGHT_MOSTLY_CLOUDY,NIGHT_MOSTLY_CLOUDY,NIGHT_MOSTLY_CLOUDY,NIGHT_MOSTLY_CLOUDY,MOSTLY_CLOUDY,CLEAR","Offshore,Offshore,Offshore,Offshore,Offshore,Offshore,Offshore,Offshore,Offshore,Onshore",10
5842041f4e65fad6a7708887,2024_08_09,33.38445596302903,-117.59445,Upper Trestles,3.8,1.3092730000000001,1.59828,18.8,18.8,"NIGHT_MIST,NIGHT_MIST,NIGHT_MOSTLY_CLOUDY,NIGHT_MOSTLY_CLOUDY,NIGHT_MOSTLY_CLOUDY,NIGHT_MOSTLY_CLOUDY,NIGHT_MOSTLY_CLOUDY,NIGHT_MOSTLY_CLOUDY,MOSTLY_CLOUDY,CLEAR","Offshore,Cross-shore,Offshore,Offshore,Offshore,Offshore,Offshore,Offshore,Offshore,Onshore",10
5842041f4e65fad6a7708889,2024_08_09,28.944414,-95.28883,Surfside,0.6,0,0.244294,30.5,30.5,"NIGHT_CLEAR,NIGHT_CLEAR,NIGHT_CLEAR,NIGHT_CLEAR,NIGHT_CLEAR,NIGHT_CLEAR,MOSTLY_CLOUDY,MOSTLY_CLOUDY,MOSTLY_CLOUDY,CLEAR","Cross-shore,Cross-shore,Offshore,Offshore,Offshore,Offshore,Offshore,Offshore,Offshore,Onshore",10
5842041f4e65fad6a770888a,2024_08_09,33.38143999849023,-117.58843,Lower Trestles,3.8666666666666667,1.473169,1.981787,18.8,18.8,"NIGHT_MIST,NIGHT_MIST,NIGHT_MOSTLY_CLOUDY,NIGHT_MOSTLY_CLOUDY,NIGHT_MOSTLY_CLOUDY,NIGHT_MOSTLY_CLOUDY,NIGHT_MOSTLY_CLOUDY,NIGHT_MOSTLY_CLOUDY,MOSTLY_CLOUDY,CLEAR","Offshore,Cross-shore,Offshore,Offshore,Offshore,Offshore,Offshore,Offshore,Offshore,Onshore",10
5842041f4e65fad6a770888b,2024_08_09,33.379622288757,-117.57894,Church,3.8833333333333333,1.331773,1.630613,18.8,18.8,"NIGHT_MIST,NIGHT_MIST,NIGHT_MOSTLY_CLOUDY,NIGHT_MOSTLY_CLOUDY,NIGHT_MOSTLY_CLOUDY,NIGHT_MOSTLY_CLOUDY,NIGHT_MOSTLY_CLOUDY,NIGHT_MOSTLY_CLOUDY,MOSTLY_CLOUDY,CLEAR","Offshore,Offshore,Offshore,Offshore,Offshore,Offshore,Offshore,Offshore,Offshore,Onshore",10
5842041f4e65fad6a770888d,2024_08_09,21.679,-158.042,Sunset Beach,2.966666666666667,0.632655,0.938536,26,25,"NIGHT_MOSTLY_CLEAR,NIGHT_CLEAR,NIGHT_CLEAR,NIGHT_CLEAR,NIGHT_MOSTLY_CLEAR,NIGHT_CLEAR,NIGHT_CLEAR,NIGHT_BRIEF_SHOWERS,NIGHT_CLEAR,MOSTLY_CLEAR","Offshore,Offshore,Cross-shore,Cross-shore,Offshore,Offshore,Offshore,Offshore,Offshore,Cross-shore",10
5842041f4e65fad6a770888e,2024_08_09,21.670550036401,-158.0482,Rocky Point,2.966666666666667,0.621453,0.943891,26,25,"NIGHT_MOSTLY_CLEAR,NIGHT_CLEAR,NIGHT_CLEAR,NIGHT_MOSTLY_CLEAR,NIGHT_MOSTLY_CLEAR,NIGHT_CLEAR,NIGHT_CLEAR,NIGHT_CLEAR,NIGHT_CLEAR,CLEAR","Cross-shore,Cross-shore,Cross-shore,Cross-shore,Cross-shore,Offshore,Offshore,Offshore,Offshore,Cross-shore",10
5842041f4e65fad6a770888f,2024_08_09,21.668,-158.05,Chambers,3,0.77605,1.097417,26,26,"NIGHT_MOSTLY_CLEAR,NIGHT_CLEAR,NIGHT_CLEAR,NIGHT_MOSTLY_CLEAR,NIGHT_MOSTLY_CLEAR,NIGHT_CLEAR,NIGHT_CLEAR,NIGHT_CLEAR,NIGHT_CLEAR,CLEAR","Offshore,Cross-shore,Cross-shore,Cross-shore,Offshore,Offshore,Offshore,Offshore,Offshore,Cross-shore",10
5842041f4e65fad6a7708890,2024_08_09,21.66522,-158.0526,Pipeline,1,0.34291699999999997,0.640102,26,25,"NIGHT_MOSTLY_CLEAR,NIGHT_CLEAR,NIGHT_CLEAR,NIGHT_MOSTLY_CLEAR,NIGHT_MOSTLY_CLEAR,NIGHT_CLEAR,NIGHT_CLEAR,NIGHT_CLEAR,NIGHT_CLEAR,CLEAR","Cross-shore,Cross-shore,Cross-shore,Cross-shore,Cross-shore,Offshore,Offshore,Offshore,Offshore,Cross-shore",10
5842041f4e65fad6a7708891,2024_08_09,21.665,-158.054,Backdoor,2.466666666666667,0.405165,0.712024,26,25,"NIGHT_MOSTLY_CLEAR,NIGHT_CLEAR,NIGHT_CLEAR,NIGHT_MOSTLY_CLEAR,NIGHT_MOSTLY_CLEAR,NIGHT_CLEAR,NIGHT_CLEAR,NIGHT_CLEAR,NIGHT_CLEAR,CLEAR","Cross-shore,Cross-shore,Cross-shore,Cross-shore,Cross-shore,Offshore,Offshore,Offshore,Offshore,Cross-shore",10
5842041f4e65fad6a7708892,2024_08_09,21.662,-158.057,Rockpile,3,0.632,0.9349999999999999,26,26,"NIGHT_MOSTLY_CLEAR,NIGHT_CLEAR,NIGHT_CLEAR,NIGHT_MOSTLY_CLEAR,NIGHT_MOSTLY_CLEAR,NIGHT_CLEAR,NIGHT_CLEAR,NIGHT_CLEAR,NIGHT_CLEAR,CLEAR","Cross-shore,Cross-shore,Cross-shore,Cross-shore,Cross-shore,Offshore,Offshore,Offshore,Offshore,Cross-shore",10
5842041f4e65fad6a7708893,2024_08_09,21.65870453806827,-158.06058,Log Cabins,2.9,0.742494,1.057667,26,26,"NIGHT_MOSTLY_CLEAR,NIGHT_CLEAR,NIGHT_CLEAR,NIGHT_MOSTLY_CLEAR,NIGHT_MOSTLY_CLEAR,NIGHT_CLEAR,NIGHT_CLEAR,NIGHT_CLEAR,NIGHT_CLEAR,CLEAR","Cross-shore,Cross-shore,Cross-shore,Cross-shore,Cross-shore,Offshore,Offshore,Offshore,Offshore,Cross-shore",10
5842041f4e65fad6a7708894,2024_08_09,21.66203493640557,-158.05495,Off-The-Wall,3,0.508,0.8119999999999999,26,26,"NIGHT_MOSTLY_CLEAR,NIGHT_CLEAR,NIGHT_CLEAR,NIGHT_MOSTLY_CLEAR,NIGHT_MOSTLY_CLEAR,NIGHT_CLEAR,NIGHT_CLEAR,NIGHT_CLEAR,NIGHT_CLEAR,CLEAR","Offshore,Cross-shore,Cross-shore,Cross-shore,Cross-shore,Offshore,Offshore,Offshore,Offshore,Cross-shore",10
5842041f4e65fad6a7708895,2024_08_09,21.643,-158.067,Waimea Bay,NA,0.544,0.83816,26,25,"NIGHT_MOSTLY_CLEAR,NIGHT_CLEAR,NIGHT_CLEAR,NIGHT_MOSTLY_CLEAR,NIGHT_MOSTLY_CLEAR,NIGHT_CLEAR,NIGHT_CLEAR,NIGHT_CLEAR,NIGHT_CLEAR,CLEAR","Offshore,Offshore,Offshore,Offshore,Offshore,Offshore,Offshore,Offshore,Offshore,Cross-shore",10
5842041f4e65fad6a7708896,2024_08_09,21.622,-158.087,Hultin's,1.9833333333333334,0.515987,0.821307,26,25,"NIGHT_CLEAR,NIGHT_CLEAR,NIGHT_CLEAR,NIGHT_CLEAR,NIGHT_CLEAR,NIGHT_MOSTLY_CLEAR,NIGHT_CLEAR,NIGHT_CLEAR,NIGHT_CLEAR,CLEAR","Offshore,Offshore,Offshore,Offshore,Offshore,Offshore,Offshore,Offshore,Offshore,Offshore",10
5842041f4e65fad6a7708897,2024_08_09,21.623,-158.085,Jocko's,2,0.434782,0.738298,26,26,"NIGHT_CLEAR,NIGHT_CLEAR,NIGHT_CLEAR,NIGHT_CLEAR,NIGHT_CLEAR,NIGHT_MOSTLY_CLEAR,NIGHT_CLEAR,NIGHT_CLEAR,NIGHT_CLEAR,CLEAR","Onshore,Cross-shore,Onshore,Onshore,Onshore,Cross-shore,Cross-shore,Onshore,Cross-shore,Onshore",10
5842041f4e65fad6a7708898,2024_08_09,21.62,-158.088,Laniakea,2.8666666666666667,0.628722,1.008497,26,25,"NIGHT_CLEAR,NIGHT_CLEAR,NIGHT_CLEAR,NIGHT_CLEAR,NIGHT_CLEAR,NIGHT_MOSTLY_CLEAR,NIGHT_CLEAR,NIGHT_CLEAR,NIGHT_CLEAR,CLEAR","Cross-shore,Offshore,Cross-shore,Cross-shore,Cross-shore,Offshore,Offshore,Cross-shore,Offshore,Cross-shore",10
5842041f4e65fad6a7708899,2024_08_09,21.625,-158.083,Chun's,1.9,0.446,0.751,26,26,"NIGHT_CLEAR,NIGHT_CLEAR,NIGHT_CLEAR,NIGHT_CLEAR,NIGHT_CLEAR,NIGHT_MOSTLY_CLEAR,NIGHT_CLEAR,NIGHT_CLEAR,NIGHT_CLEAR,CLEAR","Cross-shore,Offshore,Offshore,Offshore,Cross-shore,Offshore,Offshore,Offshore,Offshore,Offshore",10
5842041f4e65fad6a770889c,2024_08_09,21.286357895152136,-157.8515,South Shore - Ala Moana Park,2.6,0.391,0.699,26,26,"NIGHT_CLEAR,NIGHT_CLEAR,NIGHT_CLEAR,NIGHT_CLEAR,NIGHT_CLEAR,NIGHT_CLEAR,NIGHT_CLEAR,NIGHT_CLEAR,NIGHT_CLEAR,CLEAR","Offshore,Offshore,Offshore,Offshore,Offshore,Offshore,Offshore,Offshore,Offshore,Offshore",10
5842041f4e65fad6a770889d,2024_08_09,19.606,-155.978,Banyans,2.1,0.303987,0.6083069999999999,26,25,"NIGHT_MOSTLY_CLEAR,NIGHT_MOSTLY_CLOUDY,NIGHT_CLEAR,NIGHT_MOSTLY_CLOUDY,NIGHT_CLEAR,NIGHT_FOG,NIGHT_MIST,NIGHT_CLEAR,NIGHT_CLEAR,CLEAR","Onshore,Onshore,Onshore,Onshore,Cross-shore,Cross-shore,Cross-shore,Offshore,Cross-shore,Onshore",10
5842041f4e65fad6a770889e,2024_08_09,20.029,-155.831,Kawaihae,2,0.4444,0.567472,27,27,"NIGHT_CLEAR,NIGHT_CLEAR,NIGHT_CLEAR,NIGHT_LIGHT_SHOWERS_POSSIBLE,NIGHT_SHOWERS,NIGHT_BRIEF_SHOWERS,NIGHT_MOSTLY_CLEAR,NIGHT_CLEAR,NIGHT_CLEAR,MOSTLY_CLEAR","Offshore,Offshore,Offshore,Offshore,Offshore,Offshore,Offshore,Offshore,Offshore,Onshore",10
5842041f4e65fad6a770889f,2024_08_09,33.07541383424675,-117.3105,Grandview,2.6,0.636004,0.954453,21,21,"NIGHT_MOSTLY_CLOUDY,NIGHT_MOSTLY_CLOUDY,NIGHT_BRIEF_SHOWERS,NIGHT_MOSTLY_CLOUDY,NIGHT_MIST,NIGHT_MIST,NIGHT_MIST,NIGHT_MIST,MIST,MIST","Onshore,Onshore,Onshore,Onshore,Onshore,Onshore,Onshore,Cross-shore,Cross-shore,Onshore",10
5842041f4e65fad6a77088a0,2024_08_09,33.065267421296596,-117.30577,Beacons,2.8,0.584269,0.911596,21,21,"NIGHT_MOSTLY_CLOUDY,NIGHT_MOSTLY_CLOUDY,NIGHT_BRIEF_SHOWERS,NIGHT_MOSTLY_CLOUDY,NIGHT_MIST,NIGHT_MIST,NIGHT_MIST,NIGHT_MIST,MIST,MIST","Onshore,Onshore,Onshore,Onshore,Onshore,Onshore,Onshore,Cross-shore,Cross-shore,Onshore",10
5842041f4e65fad6a77088a2,2024_08_09,21.252,-157.805,Diamond Head,2.5,0.601101,0.918695,26,25,"NIGHT_CLEAR,NIGHT_MOSTLY_CLEAR,NIGHT_MOSTLY_CLEAR,NIGHT_MOSTLY_CLEAR,NIGHT_CLEAR,NIGHT_MOSTLY_CLEAR,NIGHT_CLEAR,NIGHT_CLEAR,NIGHT_CLEAR,CLEAR","Offshore,Cross-shore,Cross-shore,Cross-shore,Offshore,Cross-shore,Cross-shore,Cross-shore,Offshore,Cross-shore",10
5842041f4e65fad6a77088a3,2024_08_09,33.04694255008896,-117.29966,Moonlight State Beach,2.9,0.5630000000000001,0.864,21,21,"NIGHT_MIST,NIGHT_MOSTLY_CLOUDY,NIGHT_MOSTLY_CLOUDY,NIGHT_OVERCAST,NIGHT_MIST,NIGHT_MIST,NIGHT_MIST,NIGHT_MIST,MIST,MIST","Onshore,Cross-shore,Cross-shore,Onshore,Onshore,Offshore,Offshore,Cross-shore,Cross-shore,Onshore",10
5842041f4e65fad6a77088a5,2024_08_09,33.08685865930869,-117.31532,Ponto,2.9,0.8123,1.067245,21,21,"NIGHT_MOSTLY_CLOUDY,NIGHT_MOSTLY_CLOUDY,NIGHT_BRIEF_SHOWERS,NIGHT_MOSTLY_CLOUDY,NIGHT_MIST,NIGHT_MIST,NIGHT_MIST,NIGHT_MIST,MIST,MIST","Onshore,Onshore,Onshore,Onshore,Cross-shore,Onshore,Onshore,Onshore,Offshore,Onshore",10
5842041f4e65fad6a77088a6,2024_08_09,33.130343587871906,-117.33668,Terra Mar Point,2.8833333333333333,0.850096,1.09028,20.2,20.2,"NIGHT_MOSTLY_CLOUDY,NIGHT_MOSTLY_CLOUDY,NIGHT_MOSTLY_CLOUDY,NIGHT_MOSTLY_CLOUDY,NIGHT_OVERCAST,NIGHT_OVERCAST,NIGHT_OVERCAST,NIGHT_OVERCAST,OVERCAST,CLEAR","Onshore,Onshore,Onshore,Onshore,Onshore,Onshore,Onshore,Cross-shore,Offshore,Onshore",10
5842041f4e65fad6a77088af,2024_08_09,32.95916304183685,-117.26963,Del Mar,2.9,0.424025,0.7276549999999999,20.5,20.5,"NIGHT_MIST,NIGHT_MIST,NIGHT_OVERCAST,NIGHT_OVERCAST,NIGHT_MIST,NIGHT_MIST,NIGHT_MIST,NIGHT_MIST,MIST,MIST","Onshore,Onshore,Onshore,Onshore,Onshore,Onshore,Onshore,Cross-shore,Cross-shore,Onshore",10
5842041f4e65fad6a77088b0,2024_08_09,32.97527261243354,-117.2721061331305,Del Mar Rivermouth,2.9,0.705,0.997,21,21,"NIGHT_BRIEF_SHOWERS,NIGHT_MIST,NIGHT_MOSTLY_CLOUDY,NIGHT_MOSTLY_CLOUDY,NIGHT_MIST,NIGHT_MIST,NIGHT_MIST,NIGHT_MIST,MIST,MIST","Onshore,Onshore,Onshore,Onshore,Onshore,Onshore,Onshore,Cross-shore,Cross-shore,Onshore",10
5842041f4e65fad6a77088b1,2024_08_09,33.01352178146273,-117.28219,Cardiff Reef,1.7833333333333334,0.15134899999999998,0.470656,20.2,20.2,"NIGHT_MIST,NIGHT_MOSTLY_CLOUDY,NIGHT_MOSTLY_CLOUDY,NIGHT_MOSTLY_CLOUDY,NIGHT_MIST,NIGHT_MIST,NIGHT_MIST,NIGHT_MIST,MIST,MIST","Onshore,Onshore,Onshore,Onshore,Onshore,Onshore,Onshore,Onshore,Offshore,Onshore",10
5842041f4e65fad6a77088b3,2024_08_09,33.00211185876003,-117.2811,Seaside Reef,2.7,0.667,0.972,21,21,"NIGHT_MIST,NIGHT_MIST,NIGHT_MOSTLY_CLOUDY,NIGHT_MOSTLY_CLOUDY,NIGHT_MIST,NIGHT_MIST,NIGHT_MIST,NIGHT_MIST,MIST,MIST","Onshore,Onshore,Onshore,Onshore,Onshore,Onshore,Cross-shore,Cross-shore,Cross-shore,Onshore",10
5842041f4e65fad6a77088b4,2024_08_09,33.0341859796287,-117.29552,Swami's,2.9,0.522589,0.842438,20.2,20.2,"NIGHT_MIST,NIGHT_MOSTLY_CLOUDY,NIGHT_MOSTLY_CLOUDY,NIGHT_MOSTLY_CLOUDY,NIGHT_MIST,NIGHT_MIST,NIGHT_MIST,NIGHT_MIST,MIST,MIST","Onshore,Cross-shore,Cross-shore,Onshore,Offshore,Cross-shore,Cross-shore,Onshore,Cross-shore,Onshore",10
5842041f4e65fad6a77088b7,2024_08_09,33.04569760260221,-117.2994,D Street,2.9,0.678202,1.038267,21,21,"NIGHT_MIST,NIGHT_MOSTLY_CLOUDY,NIGHT_MOSTLY_CLOUDY,NIGHT_OVERCAST,NIGHT_MIST,NIGHT_MIST,NIGHT_MIST,NIGHT_MIST,MIST,MIST","Onshore,Cross-shore,Cross-shore,Onshore,Offshore,Offshore,Offshore,Offshore,Cross-shore,Onshore",10
5842041f4e65fad6a77088b8,2024_08_09,33.02090944350196,-117.28535,San Elijo State Beach,2.3833333333333333,0.297359,0.603161,20.2,20.2,"NIGHT_MIST,NIGHT_MOSTLY_CLOUDY,NIGHT_MOSTLY_CLOUDY,NIGHT_MOSTLY_CLOUDY,NIGHT_MIST,NIGHT_MIST,NIGHT_MIST,NIGHT_MIST,MIST,MIST","Onshore,Onshore,Onshore,Onshore,Onshore,Onshore,Onshore,Onshore,Cross-shore,Onshore",10
5842041f4e65fad6a77088c2,2024_08_09,32.80662846492798,-117.26888,PB Point,2.9,0.645,0.95,20,20,"NIGHT_MOSTLY_CLOUDY,NIGHT_OVERCAST,NIGHT_OVERCAST,NIGHT_OVERCAST,NIGHT_OVERCAST,NIGHT_OVERCAST,NIGHT_OVERCAST,NIGHT_OVERCAST,OVERCAST,CLEAR","Cross-shore,Cross-shore,Cross-shore,Cross-shore,Cross-shore,Onshore,Cross-shore,Offshore,Offshore,Cross-shore",10
5842041f4e65fad6a77088c4,2024_08_09,32.8060476681448,-117.26479,Old Man's at Tourmaline,2.9,0.569544,0.87276,20,20,"NIGHT_MOSTLY_CLOUDY,NIGHT_OVERCAST,NIGHT_OVERCAST,NIGHT_OVERCAST,NIGHT_OVERCAST,NIGHT_OVERCAST,NIGHT_OVERCAST,NIGHT_OVERCAST,OVERCAST,CLEAR","Cross-shore,Cross-shore,Cross-shore,Cross-shore,Cross-shore,Onshore,Cross-shore,Offshore,Offshore,Cross-shore",10
5842041f4e65fad6a77088cb,2024_08_09,32.557056711256,-117.1327445020322,Tijuana Slough,2.9,0.652,0.955,19.5,19.5,"NIGHT_MIST,NIGHT_MIST,NIGHT_MOSTLY_CLOUDY,NIGHT_MOSTLY_CLOUDY,NIGHT_MOSTLY_CLOUDY,NIGHT_MIST,NIGHT_MIST,NIGHT_MIST,MIST,MOSTLY_CLEAR","Onshore,Onshore,Onshore,Onshore,Onshore,Onshore,Onshore,Onshore,Onshore,Onshore",10
5842041f4e65fad6a77088cc,2024_08_09,32.863,-117.257,La Jolla Shores,2.2,0.322,0.627,20,20,"NIGHT_MIST,NIGHT_MIST,NIGHT_OVERCAST,NIGHT_OVERCAST,NIGHT_MIST,NIGHT_DRIZZLE,NIGHT_MIST,NIGHT_MIST,MIST,MIST","Onshore,Onshore,Onshore,Onshore,Onshore,Onshore,Onshore,Onshore,Onshore,Onshore",10
5842041f4e65fad6a77088ce,2024_08_09,32.67443657790586,-117.17421,Coronado Beach,2.8,0.433,0.74,19.5,19.5,"NIGHT_MIST,NIGHT_MIST,NIGHT_MOSTLY_CLOUDY,NIGHT_MOSTLY_CLOUDY,NIGHT_OVERCAST,NIGHT_MIST,NIGHT_MIST,NIGHT_OVERCAST,CLOUDY,CLEAR","Onshore,Onshore,Onshore,Onshore,Onshore,Onshore,Cross-shore,Cross-shore,Cross-shore,Cross-shore",10
5842041f4e65fad6a77088cf,2024_08_09,33.40484417640326,-117.60749,San Clemente State Beach,2.9,0.954,1.16,21,21,"NIGHT_MOSTLY_CLOUDY,NIGHT_MIST,NIGHT_MOSTLY_CLOUDY,NIGHT_MOSTLY_CLOUDY,NIGHT_MOSTLY_CLOUDY,NIGHT_MOSTLY_CLOUDY,NIGHT_MOSTLY_CLOUDY,NIGHT_MOSTLY_CLOUDY,MOSTLY_CLOUDY,CLEAR","Onshore,Onshore,Onshore,Onshore,Onshore,Cross-shore,Offshore,Cross-shore,Cross-shore,Onshore",10
5842041f4e65fad6a77088d5,2024_08_09,33.4663042002114,-117.7168352817103,Strands,3.3166666666666664,1.06458,1.389527,18.4,18.4,"NIGHT_MIST,NIGHT_BRIEF_SHOWERS,NIGHT_MOSTLY_CLOUDY,NIGHT_MOSTLY_CLOUDY,NIGHT_MOSTLY_CLOUDY,NIGHT_MOSTLY_CLOUDY,NIGHT_OVERCAST,NIGHT_MOSTLY_CLOUDY,MIST,MIST","Onshore,Onshore,Onshore,Onshore,Onshore,Onshore,Cross-shore,Onshore,Onshore,Onshore",10
5842041f4e65fad6a77088d7,2024_08_09,33.4609858001748,-117.68535,Doheny State Beach,2.9,0.9729270000000001,1.205844,17.6,17.6,"NIGHT_CLEAR,NIGHT_MOSTLY_CLOUDY,NIGHT_MOSTLY_CLOUDY,NIGHT_MOSTLY_CLOUDY,NIGHT_MOSTLY_CLOUDY,NIGHT_MOSTLY_CLOUDY,NIGHT_MOSTLY_CLOUDY,NIGHT_MOSTLY_CLOUDY,MOSTLY_CLOUDY,CLEAR","Onshore,Onshore,Onshore,Onshore,Onshore,Onshore,Cross-shore,Cross-shore,Cross-shore,Onshore",10
5842041f4e65fad6a77088dc,2024_08_09,33.50894790083017,-117.75243,Aliso Creek,3.2,0.994,1.2670000000000001,20.5,20.5,"NIGHT_MIST,NIGHT_MIST,NIGHT_MOSTLY_CLOUDY,NIGHT_MOSTLY_CLOUDY,NIGHT_BRIEF_SHOWERS,NIGHT_MOSTLY_CLOUDY,NIGHT_MOSTLY_CLOUDY,NIGHT_MOSTLY_CLOUDY,MOSTLY_CLOUDY,BRIEF_SHOWERS","Onshore,Onshore,Onshore,Onshore,Onshore,Onshore,Cross-shore,Cross-shore,Cross-shore,Onshore",10
5842041f4e65fad6a77088dd,2024_08_09,33.5326591767067,-117.77764,Brooks Street,2.9,0.665,0.972,20,20,"NIGHT_MIST,NIGHT_MIST,NIGHT_MOSTLY_CLOUDY,NIGHT_MOSTLY_CLOUDY,NIGHT_MOSTLY_CLOUDY,NIGHT_MOSTLY_CLOUDY,NIGHT_MOSTLY_CLOUDY,NIGHT_MOSTLY_CLOUDY,MOSTLY_CLOUDY,MIST","Onshore,Onshore,Onshore,Offshore,Onshore,Onshore,Offshore,Offshore,Offshore,Onshore",10
5842041f4e65fad6a77088de,2024_08_09,33.53561225884637,-117.7799,Thalia Street,2.9,0.517,0.823,20,20,"NIGHT_MIST,NIGHT_MIST,NIGHT_MOSTLY_CLOUDY,NIGHT_MOSTLY_CLOUDY,NIGHT_MOSTLY_CLOUDY,NIGHT_MOSTLY_CLOUDY,NIGHT_MOSTLY_CLOUDY,NIGHT_MOSTLY_CLOUDY,MOSTLY_CLOUDY,MIST","Onshore,Onshore,Onshore,Offshore,Onshore,Onshore,Offshore,Offshore,Offshore,Onshore",10
5842041f4e65fad6a77088e3,2024_08_09,33.54268310353641,-117.7916,Rockpile,2.9,0.665,0.972,20,20,"NIGHT_MIST,NIGHT_MIST,NIGHT_MOSTLY_CLOUDY,NIGHT_MOSTLY_CLOUDY,NIGHT_MOSTLY_CLOUDY,NIGHT_MOSTLY_CLOUDY,NIGHT_MOSTLY_CLOUDY,NIGHT_MOSTLY_CLOUDY,MOSTLY_CLOUDY,MIST","Onshore,Onshore,Cross-shore,Offshore,Onshore,Onshore,Offshore,Offshore,Offshore,Onshore",10
5842041f4e65fad6a77088e4,2024_08_09,33.7368459504689,-118.10342,"Seal Beach Pier, Southside",2,0.509417,0.813534,20,20,"NIGHT_CLEAR,NIGHT_CLEAR,NIGHT_CLEAR,NIGHT_CLEAR,NIGHT_MIST,NIGHT_MIST,NIGHT_MOSTLY_CLOUDY,NIGHT_MOSTLY_CLOUDY,MOSTLY_CLOUDY,CLEAR","Onshore,Onshore,Onshore,Onshore,Onshore,Onshore,Onshore,Onshore,Onshore,Onshore",10
5842041f4e65fad6a77088e5,2024_08_09,33.73933701820233,-118.117,Ray Bay,2.9,1.67,1.9669999999999999,20,20,"NIGHT_CLEAR,NIGHT_CLEAR,NIGHT_CLEAR,NIGHT_CLEAR,NIGHT_MOSTLY_CLEAR,NIGHT_BRIEF_SHOWERS,NIGHT_MOSTLY_CLEAR,NIGHT_MOSTLY_CLOUDY,MOSTLY_CLOUDY,CLEAR","Onshore,Onshore,Onshore,Onshore,Onshore,Onshore,Onshore,Onshore,Onshore,Onshore",10
5842041f4e65fad6a77088e7,2024_08_09,33.728733,-118.08982,Surfside,2.2,0.272,0.575,20,20,"NIGHT_CLEAR,NIGHT_CLEAR,NIGHT_CLEAR,NIGHT_CLEAR,NIGHT_MOSTLY_CLEAR,NIGHT_MOSTLY_CLEAR,NIGHT_MOSTLY_CLOUDY,NIGHT_MOSTLY_CLOUDY,MOSTLY_CLOUDY,MOSTLY_CLEAR","Onshore,Onshore,Onshore,Onshore,Onshore,Onshore,Onshore,Onshore,Onshore,Onshore",10
5842041f4e65fad6a77088e8,2024_08_09,33.68760321488161,-118.04236,Bolsa Chica State Beach,2.783333333333333,0.925905,1.248586,17.4,17.4,"NIGHT_CLEAR,NIGHT_MOSTLY_CLEAR,NIGHT_MOSTLY_CLEAR,NIGHT_MOSTLY_CLEAR,NIGHT_MOSTLY_CLOUDY,NIGHT_MOSTLY_CLOUDY,NIGHT_MOSTLY_CLOUDY,NIGHT_MOSTLY_CLOUDY,MOSTLY_CLOUDY,CLEAR","Offshore,Offshore,Offshore,Offshore,Offshore,Offshore,Offshore,Offshore,Cross-shore,Onshore",10
5842041f4e65fad6a77088ea,2024_08_09,33.66704400178788,-118.0192,North HB Streets,2.7333333333333334,1.27284,1.726692,17.4,17.4,"NIGHT_MOSTLY_CLEAR,NIGHT_MOSTLY_CLEAR,NIGHT_MOSTLY_CLEAR,NIGHT_MOSTLY_CLOUDY,NIGHT_MOSTLY_CLOUDY,NIGHT_MOSTLY_CLOUDY,NIGHT_MOSTLY_CLOUDY,NIGHT_MOSTLY_CLOUDY,MOSTLY_CLOUDY,CLEAR","Onshore,Onshore,Onshore,Onshore,Onshore,Onshore,Onshore,Onshore,Onshore,Onshore",10
5842041f4e65fad6a77088ed,2024_08_09,33.65475101379567,-118.00291,Huntington Beach Pier Southside,2.783333333333333,1.4980849999999999,1.893961,17.4,17.4,"NIGHT_MOSTLY_CLEAR,NIGHT_MOSTLY_CLEAR,NIGHT_MOSTLY_CLEAR,NIGHT_MOSTLY_CLOUDY,NIGHT_MOSTLY_CLOUDY,NIGHT_MOSTLY_CLOUDY,NIGHT_MOSTLY_CLOUDY,NIGHT_MOSTLY_CLOUDY,MOSTLY_CLOUDY,CLEAR","Onshore,Onshore,Onshore,Onshore,Onshore,Onshore,Onshore,Onshore,Cross-shore,Onshore",10
5842041f4e65fad6a77088ee,2024_08_09,33.62778647706099,-117.95939,River Jetties,2.8166666666666664,1.51382,1.89585,18.2,18.2,"NIGHT_CLEAR,NIGHT_MOSTLY_CLOUDY,NIGHT_MOSTLY_CLOUDY,NIGHT_MOSTLY_CLOUDY,NIGHT_MOSTLY_CLOUDY,NIGHT_MOSTLY_CLOUDY,NIGHT_MOSTLY_CLOUDY,NIGHT_MOSTLY_CLOUDY,MOSTLY_CLOUDY,CLEAR","Onshore,Onshore,Onshore,Onshore,Onshore,Cross-shore,Cross-shore,Cross-shore,Offshore,Onshore",10
5842041f4e65fad6a77088f2,2024_08_09,33.605165797643664,-117.925,Newport Point,3,2.561,2.942,20,20,"NIGHT_BRIEF_SHOWERS,NIGHT_BRIEF_SHOWERS,NIGHT_MIST,NIGHT_MOSTLY_CLOUDY,NIGHT_MIST,NIGHT_MIST,NIGHT_MOSTLY_CLOUDY,NIGHT_BRIEF_SHOWERS,BRIEF_SHOWERS,MIST","Onshore,Onshore,Onshore,Onshore,Onshore,Onshore,Onshore,Onshore,Onshore,Onshore",10
5842041f4e65fad6a77088f3,2024_08_09,33.58982984726977,-117.87713,Corona del Mar,3.9,1.439,1.685,20,20,"NIGHT_MIST,NIGHT_MIST,NIGHT_MOSTLY_CLOUDY,NIGHT_MOSTLY_CLOUDY,NIGHT_MIST,NIGHT_MOSTLY_CLOUDY,NIGHT_MOSTLY_CLOUDY,NIGHT_MOSTLY_CLOUDY,MOSTLY_CLOUDY,MIST","Onshore,Onshore,Onshore,Onshore,Onshore,Cross-shore,Cross-shore,Offshore,Offshore,Onshore",10
5842041f4e65fad6a77088f7,2024_08_09,34.00750300824362,-118.4971783496269,Santa Monica Pier,1.9,0.23700000000000002,0.541,20,20,"NIGHT_CLEAR,NIGHT_CLEAR,NIGHT_MOSTLY_CLEAR,NIGHT_MOSTLY_CLEAR,NIGHT_MOSTLY_CLOUDY,NIGHT_MOSTLY_CLOUDY,NIGHT_MOSTLY_CLOUDY,NIGHT_MOSTLY_CLOUDY,MOSTLY_CLEAR,CLEAR","Onshore,Onshore,Onshore,Onshore,Onshore,Onshore,Onshore,Onshore,Onshore,Onshore",10
5842041f4e65fad6a77088ff,2024_08_09,33.94070283102945,-118.44321,Dockweiler Beach,2.283333333333333,0.43802,0.74358,18,18,"NIGHT_BRIEF_SHOWERS,NIGHT_BRIEF_SHOWERS,NIGHT_MIST,NIGHT_MIST,NIGHT_MOSTLY_CLOUDY,NIGHT_MOSTLY_CLOUDY,NIGHT_MOSTLY_CLOUDY,NIGHT_MOSTLY_CLOUDY,MOSTLY_CLOUDY,SHOWERS","Onshore,Onshore,Onshore,Onshore,Onshore,Onshore,Onshore,Onshore,Onshore,Onshore",10
5842041f4e65fad6a7708900,2024_08_09,33.9231846937237,-118.4341465777908,Shitpipe,2.3833333333333333,0.49627,0.80183,18,18,"NIGHT_MIST,NIGHT_MIST,NIGHT_MIST,NIGHT_MIST,NIGHT_MOSTLY_CLOUDY,NIGHT_MOSTLY_CLOUDY,NIGHT_MOSTLY_CLOUDY,NIGHT_MOSTLY_CLOUDY,MOSTLY_CLOUDY,BRIEF_SHOWERS","Onshore,Onshore,Onshore,Onshore,Onshore,Onshore,Onshore,Onshore,Onshore,Onshore",10
5842041f4e65fad6a7708902,2024_08_09,33.9108528052242,-118.4279133138721,Hammerland,2.3833333333333333,0.49627,0.80183,18,18,"NIGHT_MIST,NIGHT_MIST,NIGHT_MIST,NIGHT_MIST,NIGHT_MOSTLY_CLOUDY,NIGHT_MOSTLY_CLOUDY,NIGHT_MOSTLY_CLOUDY,NIGHT_MOSTLY_CLOUDY,MOSTLY_CLOUDY,BRIEF_SHOWERS","Onshore,Onshore,Onshore,Onshore,Onshore,Onshore,Onshore,Onshore,Onshore,Onshore",10
5842041f4e65fad6a7708904,2024_08_09,33.87201368173932,-118.40752,Hermosa Beach,2.1166666666666667,0.319334,0.624476,18,18,"NIGHT_MIST,NIGHT_MIST,NIGHT_MIST,NIGHT_MOSTLY_CLOUDY,NIGHT_MIST,NIGHT_MOSTLY_CLOUDY,NIGHT_MOSTLY_CLOUDY,NIGHT_MOSTLY_CLOUDY,MOSTLY_CLOUDY,BRIEF_SHOWERS","Onshore,Onshore,Onshore,Onshore,Onshore,Onshore,Cross-shore,Cross-shore,Cross-shore,Onshore",10
5842041f4e65fad6a7708906,2024_08_09,33.90129336911256,-118.42184,El Porto,2.5,0.60328,0.905415,18,18,"NIGHT_MIST,NIGHT_MIST,NIGHT_MIST,NIGHT_MOSTLY_CLOUDY,NIGHT_MOSTLY_CLOUDY,NIGHT_MOSTLY_CLOUDY,NIGHT_MOSTLY_CLOUDY,NIGHT_MOSTLY_CLOUDY,MOSTLY_CLOUDY,BRIEF_SHOWERS","Onshore,Onshore,Onshore,Onshore,Onshore,Onshore,Cross-shore,Cross-shore,Onshore,Onshore",10
5842041f4e65fad6a7708907,2024_08_09,33.87963506431794,-118.41102,Manhattan Beach Pier,2.2333333333333334,0.509011,0.879734,18,18,"NIGHT_MIST,NIGHT_MIST,NIGHT_MIST,NIGHT_MOSTLY_CLOUDY,NIGHT_MOSTLY_CLOUDY,NIGHT_MOSTLY_CLOUDY,NIGHT_MOSTLY_CLOUDY,NIGHT_MOSTLY_CLOUDY,MOSTLY_CLOUDY,BRIEF_SHOWERS","Onshore,Onshore,Onshore,Onshore,Onshore,Onshore,Onshore,Cross-shore,Onshore,Onshore",10
5842041f4e65fad6a7708914,2024_08_09,34.038053387863464,-118.5532,Sunset Point,1.9,0.186,0.492,20,20,"NIGHT_CLEAR,NIGHT_MOSTLY_CLEAR,NIGHT_MOSTLY_CLEAR,NIGHT_MOSTLY_CLEAR,NIGHT_MOSTLY_CLOUDY,NIGHT_MOSTLY_CLOUDY,NIGHT_MOSTLY_CLOUDY,NIGHT_MOSTLY_CLOUDY,MOSTLY_CLOUDY,MIST","Onshore,Onshore,Cross-shore,Offshore,Offshore,Offshore,Offshore,Offshore,Offshore,Onshore",10
5842041f4e65fad6a7708920,2024_08_09,33.80282,-118.39989,Haggerty's,1.5,0.0784,0.32,20,20,"NIGHT_MIST,NIGHT_MIST,NIGHT_MIST,NIGHT_CLEAR,NIGHT_MOSTLY_CLOUDY,NIGHT_MOSTLY_CLOUDY,NIGHT_MOSTLY_CLOUDY,NIGHT_MOSTLY_CLOUDY,MOSTLY_CLOUDY,BRIEF_SHOWERS","Onshore,Onshore,Onshore,Onshore,Onshore,Onshore,Onshore,Cross-shore,Cross-shore,Onshore",10
5842041f4e65fad6a7708921,2024_08_09,33.85044519861206,-118.40048,Redondo Breakwater,1.9,0.260802,0.565375,20,20,"NIGHT_MIST,NIGHT_MIST,NIGHT_MIST,NIGHT_MOSTLY_CLOUDY,NIGHT_MIST,NIGHT_MOSTLY_CLOUDY,NIGHT_MOSTLY_CLOUDY,NIGHT_MOSTLY_CLOUDY,MOSTLY_CLOUDY,BRIEF_SHOWERS","Onshore,Onshore,Onshore,Onshore,Onshore,Onshore,Cross-shore,Cross-shore,Cross-shore,Onshore",10
5842041f4e65fad6a7708927,2024_08_09,33.70877301002487,-118.2840112858389,Cabrillo Beach,2.9,0.494,0.798,20,20,"NIGHT_CLEAR,NIGHT_CLEAR,NIGHT_CLEAR,NIGHT_CLEAR,NIGHT_CLEAR,NIGHT_CLEAR,NIGHT_CLEAR,NIGHT_CLEAR,CLEAR,CLEAR","Offshore,Offshore,Offshore,Cross-shore,Cross-shore,Cross-shore,Offshore,Cross-shore,Onshore,Onshore",10
5842041f4e65fad6a770892c,2024_08_09,33.77209986806257,-118.4268428476672,Lunada Bay,1.4,0.28500000000000003,0.591,20,20,"NIGHT_MOSTLY_CLOUDY,NIGHT_MIST,NIGHT_MOSTLY_CLOUDY,NIGHT_MOSTLY_CLOUDY,NIGHT_MOSTLY_CLOUDY,NIGHT_MOSTLY_CLOUDY,NIGHT_MOSTLY_CLOUDY,NIGHT_MOSTLY_CLOUDY,MOSTLY_CLOUDY,MIST","Onshore,Onshore,Onshore,Onshore,Onshore,Onshore,Cross-shore,Offshore,Cross-shore,Onshore",10
5842041f4e65fad6a770892d,2024_08_09,33.79294656286144,-118.40703,PV Cove,1.8,0.098,0.4,20,20,"NIGHT_MIST,NIGHT_MIST,NIGHT_MIST,NIGHT_CLEAR,NIGHT_MOSTLY_CLOUDY,NIGHT_MOSTLY_CLOUDY,NIGHT_MOSTLY_CLOUDY,NIGHT_MOSTLY_CLOUDY,MOSTLY_CLOUDY,BRIEF_SHOWERS","Onshore,Onshore,Onshore,Cross-shore,Onshore,Onshore,Onshore,Cross-shore,Onshore,Onshore",10
5842041f4e65fad6a7708930,2024_08_09,34.03944902292561,-118.57539,Chart House,0,0,0.138,20,20,"NIGHT_CLEAR,NIGHT_CLEAR,NIGHT_CLEAR,NIGHT_CLEAR,NIGHT_CLEAR,NIGHT_CLEAR,NIGHT_CLEAR,NIGHT_CLEAR,CLEAR,BRIEF_SHOWERS_POSSIBLE","Onshore,Onshore,Cross-shore,Offshore,Offshore,Offshore,Offshore,Offshore,Offshore,Cross-shore",10
5842041f4e65fad6a7708936,2024_08_09,34.0016731994772,-118.80456,Point Dume,3.066666666666667,0.787,1.05408,18.1,18.1,"NIGHT_CLEAR,NIGHT_CLEAR,NIGHT_CLEAR,NIGHT_CLEAR,NIGHT_MIST,NIGHT_MIST,NIGHT_MIST,NIGHT_MIST,MOSTLY_CLOUDY,MIST","Cross-shore,Offshore,Cross-shore,Onshore,Onshore,Onshore,Onshore,Onshore,Onshore,Cross-shore",10
5842041f4e65fad6a7708937,2024_08_09,34.02587527588963,-118.7554939066114,Latigo Point,2.9,0.583,0.889,19,19,"NIGHT_CLEAR,NIGHT_CLEAR,NIGHT_MOSTLY_CLEAR,NIGHT_MOSTLY_CLEAR,NIGHT_MOSTLY_CLOUDY,NIGHT_MOSTLY_CLOUDY,NIGHT_MOSTLY_CLOUDY,NIGHT_MOSTLY_CLOUDY,MOSTLY_CLOUDY,MIST","Cross-shore,Onshore,Cross-shore,Cross-shore,Cross-shore,Offshore,Cross-shore,Cross-shore,Cross-shore,Cross-shore",10
5842041f4e65fad6a770893f,2024_08_09,34.043762,-118.93294,Leo Carrillo,2.9,1.0842,1.37799,16.2,16.2,"NIGHT_CLEAR,NIGHT_CLEAR,NIGHT_CLEAR,NIGHT_MOSTLY_CLEAR,NIGHT_MIST,NIGHT_MIST,NIGHT_MOSTLY_CLOUDY,NIGHT_MIST,MOSTLY_CLOUDY,MIST","Cross-shore,Cross-shore,Onshore,Offshore,Cross-shore,Cross-shore,Cross-shore,Cross-shore,Cross-shore,Cross-shore",10
5842041f4e65fad6a7708941,2024_08_09,36.69388179265737,-121.81289,Marina State Beach,1.9,0.466,0.772,15,15,"NIGHT_MOSTLY_CLOUDY,NIGHT_MIST,NIGHT_MIST,NIGHT_MIST,NIGHT_MIST,NIGHT_BRIEF_SHOWERS,NIGHT_MIST,NIGHT_MIST,MIST,SHOWERS","Onshore,Onshore,Onshore,Onshore,Onshore,Onshore,Onshore,Onshore,Onshore,Onshore",10
5842041f4e65fad6a7708944,2024_08_09,34.34145077331085,-119.416999352654,Stanley's,2,0.224,0.528,19,19,"NIGHT_CLEAR,NIGHT_CLEAR,NIGHT_CLEAR,NIGHT_MIST,NIGHT_CLEAR,NIGHT_CLEAR,NIGHT_CLEAR,NIGHT_MIST,CLEAR,CLEAR","Offshore,Cross-shore,Cross-shore,Offshore,Cross-shore,Cross-shore,Cross-shore,Cross-shore,Cross-shore,Onshore",10
5842041f4e65fad6a7708945,2024_08_09,34.35113017313915,-119.426921498899,Oil Piers,2,0.224,0.528,19,19,"NIGHT_CLEAR,NIGHT_CLEAR,NIGHT_CLEAR,NIGHT_MIST,NIGHT_CLEAR,NIGHT_CLEAR,NIGHT_CLEAR,NIGHT_MIST,CLEAR,CLEAR","Onshore,Cross-shore,Offshore,Offshore,Offshore,Offshore,Offshore,Offshore,Offshore,Onshore",10
5842041f4e65fad6a770894c,2024_08_09,34.17876333306018,-119.23995,Oxnard,2.8,0.632,0.938,19,19,"NIGHT_CLEAR,NIGHT_CLEAR,NIGHT_MOSTLY_CLEAR,NIGHT_MOSTLY_CLEAR,NIGHT_MOSTLY_CLEAR,NIGHT_MOSTLY_CLEAR,NIGHT_MOSTLY_CLOUDY,NIGHT_CLEAR,CLEAR,CLEAR","Onshore,Cross-shore,Onshore,Cross-shore,Onshore,Onshore,Offshore,Cross-shore,Onshore,Onshore",10
5842041f4e65fad6a7708957,2024_08_09,34.31720331100517,-119.3882324751725,Pitas Point,2.9,0.46699999999999997,0.771,19,19,"NIGHT_CLEAR,NIGHT_CLEAR,NIGHT_CLEAR,NIGHT_CLEAR,NIGHT_CLEAR,NIGHT_CLEAR,NIGHT_CLEAR,NIGHT_CLEAR,CLEAR,BRIEF_SHOWERS","Onshore,Onshore,Offshore,Onshore,Offshore,Offshore,Cross-shore,Onshore,Offshore,Onshore",10
5842041f4e65fad6a7708959,2024_08_09,34.27851754384724,-119.3162,Emma Wood,2.6,0.713,0.992,19,19,"NIGHT_CLEAR,NIGHT_CLEAR,NIGHT_MIST,NIGHT_CLEAR,NIGHT_MOSTLY_CLEAR,NIGHT_MOSTLY_CLEAR,NIGHT_MOSTLY_CLEAR,NIGHT_MOSTLY_CLEAR,MOSTLY_CLEAR,BRIEF_SHOWERS","Onshore,Onshore,Onshore,Onshore,Onshore,Offshore,Cross-shore,Offshore,Offshore,Onshore",10
5842041f4e65fad6a770895a,2024_08_09,34.35513640390276,-119.4400589884255,Mussel Shoals (aka Little Rincon),2,0.258,0.56,19,19,"NIGHT_CLEAR,NIGHT_CLEAR,NIGHT_CLEAR,NIGHT_MIST,NIGHT_MIST,NIGHT_MIST,NIGHT_CLEAR,NIGHT_CLEAR,MIST,MIST","Onshore,Cross-shore,Cross-shore,Offshore,Offshore,Offshore,Offshore,Offshore,Offshore,Cross-shore",10
5842041f4e65fad6a770895e,2024_08_09,34.28991757054902,-119.3366646794652,Summer Beach,2.6,0.594,0.902,19,19,"NIGHT_CLEAR,NIGHT_CLEAR,NIGHT_MIST,NIGHT_CLEAR,NIGHT_MOSTLY_CLEAR,NIGHT_MOSTLY_CLEAR,NIGHT_MOSTLY_CLEAR,NIGHT_MOSTLY_CLEAR,MOSTLY_CLEAR,BRIEF_SHOWERS","Onshore,Onshore,Onshore,Onshore,Onshore,Offshore,Offshore,Offshore,Offshore,Onshore",10
5842041f4e65fad6a770895f,2024_08_09,34.30897456105926,-119.3582501170116,Solimar,2.9,0.594,0.902,19,19,"NIGHT_CLEAR,NIGHT_CLEAR,NIGHT_CLEAR,NIGHT_CLEAR,NIGHT_CLEAR,NIGHT_CLEAR,NIGHT_CLEAR,NIGHT_CLEAR,CLEAR,BRIEF_SHOWERS","Onshore,Onshore,Offshore,Onshore,Offshore,Offshore,Cross-shore,Onshore,Cross-shore,Onshore",10
5842041f4e65fad6a7708960,2024_08_09,34.39836265281686,-119.70213,Leadbetter Point,1,0,0.27,18,18,"NIGHT_CLEAR,NIGHT_CLEAR,NIGHT_CLEAR,NIGHT_MIST,NIGHT_MIST,NIGHT_MIST,NIGHT_MIST,NIGHT_CLEAR,CLEAR,CLEAR","Onshore,Onshore,Onshore,Onshore,Onshore,Onshore,Onshore,Onshore,Onshore,Cross-shore",10
5842041f4e65fad6a7708961,2024_08_09,34.46052293893899,-120.07328,Refugio,2,0.063,0.368,16,16,"NIGHT_CLEAR,NIGHT_CLEAR,NIGHT_CLEAR,NIGHT_CLEAR,NIGHT_CLEAR,NIGHT_CLEAR,NIGHT_CLEAR,NIGHT_CLEAR,CLEAR,CLEAR","Onshore,Cross-shore,Offshore,Offshore,Offshore,Offshore,Offshore,Onshore,Onshore,Cross-shore",10
5842041f4e65fad6a7708962,2024_08_09,34.40754276777778,-119.87639,Devereux,1.9,0.046,0.348,17,17,"NIGHT_MIST,NIGHT_CLEAR,NIGHT_CLEAR,NIGHT_CLEAR,NIGHT_MIST,NIGHT_MIST,NIGHT_MIST,NIGHT_MIST,MIST,BRIEF_SHOWERS","Onshore,Onshore,Onshore,Onshore,Onshore,Onshore,Onshore,Onshore,Onshore,Cross-shore",10
5842041f4e65fad6a7708963,2024_08_09,34.27479983305182,-119.3133222656776,Ventura Overhead,2.6,0.713,0.992,19,19,"NIGHT_MOSTLY_CLEAR,NIGHT_MIST,NIGHT_MIST,NIGHT_MOSTLY_CLEAR,NIGHT_MOSTLY_CLEAR,NIGHT_MOSTLY_CLEAR,NIGHT_MOSTLY_CLEAR,NIGHT_MOSTLY_CLEAR,MOSTLY_CLEAR,BRIEF_SHOWERS","Onshore,Onshore,Onshore,Onshore,Onshore,Offshore,Offshore,Offshore,Offshore,Onshore",10
5842041f4e65fad6a7708964,2024_08_09,34.41023236011655,-119.88261,Sands,1.9,0.033,0.337,17,17,"NIGHT_MIST,NIGHT_CLEAR,NIGHT_CLEAR,NIGHT_CLEAR,NIGHT_MIST,NIGHT_MIST,NIGHT_MIST,NIGHT_MIST,MIST,BRIEF_SHOWERS","Offshore,Offshore,Offshore,Offshore,Offshore,Offshore,Offshore,Cross-shore,Offshore,Onshore",10
5842041f4e65fad6a7708966,2024_08_09,34.40450193869233,-119.68752,Sandspit,1,0,0.27,18,18,"NIGHT_CLEAR,NIGHT_CLEAR,NIGHT_CLEAR,NIGHT_CLEAR,NIGHT_CLEAR,NIGHT_CLEAR,NIGHT_CLEAR,NIGHT_CLEAR,CLEAR,CLEAR","Onshore,Onshore,Onshore,Onshore,Onshore,Onshore,Onshore,Onshore,Onshore,Cross-shore",10
5842041f4e65fad6a7708967,2024_08_09,34.41549098334453,-119.6375149840203,Hammond's,2,0.163,0.46799999999999997,18,18,"NIGHT_CLEAR,NIGHT_CLEAR,NIGHT_MOSTLY_CLEAR,NIGHT_MOSTLY_CLEAR,NIGHT_MOSTLY_CLEAR,NIGHT_MOSTLY_CLEAR,NIGHT_MOSTLY_CLEAR,NIGHT_BRIEF_SHOWERS,BRIEF_SHOWERS,CLEAR","Onshore,Onshore,Cross-shore,Onshore,Onshore,Onshore,Onshore,Onshore,Onshore,Cross-shore",10
5842041f4e65fad6a7708968,2024_08_09,34.45759322742309,-120.02203,El Capitan,2,0.063,0.368,16,16,"NIGHT_CLEAR,NIGHT_CLEAR,NIGHT_CLEAR,NIGHT_CLEAR,NIGHT_CLEAR,NIGHT_CLEAR,NIGHT_CLEAR,NIGHT_CLEAR,MOSTLY_CLEAR,CLEAR","Onshore,Cross-shore,Offshore,Offshore,Offshore,Onshore,Cross-shore,Offshore,Onshore,Cross-shore",10
5842041f4e65fad6a770896c,2024_08_09,34.405117655616,-119.84317,Campus Point,1.9,0.033,0.337,17,17,"NIGHT_CLEAR,NIGHT_CLEAR,NIGHT_CLEAR,NIGHT_CLEAR,NIGHT_CLEAR,NIGHT_CLEAR,NIGHT_CLEAR,NIGHT_CLEAR,CLEAR,CLEAR","Onshore,Onshore,Onshore,Onshore,Onshore,Onshore,Onshore,Onshore,Onshore,Cross-shore",10
5842041f4e65fad6a770896e,2024_08_09,34.38935162233354,-119.51955,Carpinteria State Beach,2,0.189,0.495,18,18,"NIGHT_CLEAR,NIGHT_CLEAR,NIGHT_CLEAR,NIGHT_CLEAR,NIGHT_MIST,NIGHT_MIST,NIGHT_MIST,NIGHT_MIST,MIST,BRIEF_SHOWERS","Onshore,Onshore,Cross-shore,Cross-shore,Cross-shore,Cross-shore,Cross-shore,Cross-shore,Onshore,Onshore",10
5842041f4e65fad6a770896f,2024_08_09,37.48296565175612,-122.45493,Half Moon Bay,2.5,0.604,0.907,16,16,"NIGHT_BRIEF_SHOWERS,NIGHT_BRIEF_SHOWERS,NIGHT_BRIEF_SHOWERS,NIGHT_BRIEF_SHOWERS,NIGHT_BRIEF_SHOWERS,NIGHT_BRIEF_SHOWERS,NIGHT_BRIEF_SHOWERS,NIGHT_MIST,MIST,BRIEF_SHOWERS","Onshore,Onshore,Onshore,Onshore,Onshore,Onshore,Onshore,Onshore,Onshore,Onshore",10
5842041f4e65fad6a7708970,2024_08_09,37.499,-122.471,Princeton Jetty,2.5,0.391,0.694,16,16,"NIGHT_BRIEF_SHOWERS,NIGHT_MIST,NIGHT_BRIEF_SHOWERS,NIGHT_BRIEF_SHOWERS,NIGHT_BRIEF_SHOWERS,NIGHT_BRIEF_SHOWERS,NIGHT_BRIEF_SHOWERS,NIGHT_BRIEF_SHOWERS,MIST,MOSTLY_CLOUDY","Onshore,Onshore,Onshore,Onshore,Onshore,Onshore,Onshore,Onshore,Onshore,Onshore",10
5842041f4e65fad6a7708972,2024_08_09,37.35699547365155,-122.4069534707252,Tunitas Creek,3,0.83,1.122,16,16,"NIGHT_BRIEF_SHOWERS,NIGHT_MOSTLY_CLOUDY,NIGHT_BRIEF_SHOWERS,NIGHT_BRIEF_SHOWERS,NIGHT_BRIEF_SHOWERS,NIGHT_BRIEF_SHOWERS,NIGHT_BRIEF_SHOWERS,NIGHT_BRIEF_SHOWERS,MOSTLY_CLOUDY,MIST","Offshore,Offshore,Offshore,Offshore,Cross-shore,Offshore,Offshore,Cross-shore,Cross-shore,Cross-shore",10
5842041f4e65fad6a7708974,2024_08_09,37.54735589428842,-122.51611,Montara,2.8,0.782,1.085,16,16,"NIGHT_BRIEF_SHOWERS,NIGHT_BRIEF_SHOWERS,NIGHT_BRIEF_SHOWERS,NIGHT_SHOWERS,NIGHT_SHOWERS,NIGHT_SHOWERS,NIGHT_BRIEF_SHOWERS,NIGHT_BRIEF_SHOWERS,BRIEF_SHOWERS,BRIEF_SHOWERS","Onshore,Cross-shore,Cross-shore,Onshore,Onshore,Onshore,Onshore,Cross-shore,Cross-shore,Onshore",10
5842041f4e65fad6a7708975,2024_08_09,34.3869373724559,-119.5142334209018,Tarpits,2,0.198,0.502,18,18,"NIGHT_CLEAR,NIGHT_CLEAR,NIGHT_CLEAR,NIGHT_MIST,NIGHT_MIST,NIGHT_MIST,NIGHT_MIST,NIGHT_MIST,MIST,CLEAR","Onshore,Onshore,Onshore,Onshore,Onshore,Onshore,Onshore,Onshore,Onshore,Cross-shore",10
5842041f4e65fad6a7708976,2024_08_09,37.59881852720143,-122.50463,Linda Mar,1.8833333333333333,0.493019,0.826273,13,13,"NIGHT_SHOWERS,NIGHT_SHOWERS,NIGHT_SHOWERS,NIGHT_SHOWERS,NIGHT_SHOWERS,NIGHT_SHOWERS,NIGHT_SHOWERS,NIGHT_BRIEF_SHOWERS,BRIEF_SHOWERS,SHOWERS","Onshore,Onshore,Onshore,Onshore,Onshore,Onshore,Onshore,Onshore,Onshore,Onshore",10
5842041f4e65fad6a7708978,2024_08_09,37.59883098461164,-122.5143843582282,Pedro Point,2,0.787,1.091,16,16,"NIGHT_MIST,NIGHT_MIST,NIGHT_MIST,NIGHT_MIST,NIGHT_MIST,NIGHT_MIST,NIGHT_MIST,NIGHT_MIST,MIST,MIST","Onshore,Onshore,Onshore,Onshore,Onshore,Onshore,Onshore,Onshore,Onshore,Onshore",10
5842041f4e65fad6a7708979,2024_08_09,37.61081996647663,-122.49733,Rockaway,3,0.705,1.009,16,16,"NIGHT_SHOWERS,NIGHT_SHOWERS,NIGHT_SHOWERS,NIGHT_SHOWERS,NIGHT_SHOWERS,NIGHT_SHOWERS,NIGHT_SHOWERS,NIGHT_BRIEF_SHOWERS,BRIEF_SHOWERS,SHOWERS","Cross-shore,Cross-shore,Cross-shore,Cross-shore,Cross-shore,Cross-shore,Cross-shore,Cross-shore,Cross-shore,Cross-shore",10
5842041f4e65fad6a770897a,2024_08_09,37.809987384424446,-122.47514,Fort Point,2.1,0.394,0.699,17,17,"NIGHT_MIST,NIGHT_BRIEF_SHOWERS,NIGHT_BRIEF_SHOWERS,NIGHT_BRIEF_SHOWERS,NIGHT_BRIEF_SHOWERS,NIGHT_MIST,NIGHT_BRIEF_SHOWERS,NIGHT_BRIEF_SHOWERS,BRIEF_SHOWERS,MIST","Onshore,Onshore,Onshore,Onshore,Onshore,Onshore,Onshore,Onshore,Onshore,Onshore",10
5842041f4e65fad6a770897c,2024_08_09,37.63422542967464,-122.4951,Sharp Park,3,0.79,1.064,16.5,16.5,"NIGHT_BRIEF_SHOWERS,NIGHT_BRIEF_SHOWERS,NIGHT_BRIEF_SHOWERS,NIGHT_BRIEF_SHOWERS,NIGHT_BRIEF_SHOWERS,NIGHT_BRIEF_SHOWERS,NIGHT_BRIEF_SHOWERS,NIGHT_BRIEF_SHOWERS,BRIEF_SHOWERS,BRIEF_SHOWERS","Onshore,Cross-shore,Onshore,Onshore,Cross-shore,Cross-shore,Cross-shore,Cross-shore,Cross-shore,Cross-shore",10
5842041f4e65fad6a770897d,2024_08_09,37.27313605072472,-122.4127387912554,Pescadero,2.7,0.819,1.1219999999999999,15,15,"NIGHT_BRIEF_SHOWERS,NIGHT_BRIEF_SHOWERS,NIGHT_BRIEF_SHOWERS,NIGHT_BRIEF_SHOWERS,NIGHT_MIST,NIGHT_MIST,NIGHT_MIST,NIGHT_MIST,MIST,MIST","Cross-shore,Cross-shore,Cross-shore,Cross-shore,Cross-shore,Cross-shore,Cross-shore,Cross-shore,Cross-shore,Cross-shore",10
5842041f4e65fad6a770897e,2024_08_09,37.18140279972666,-122.3926685899327,Pigeon Point,3,0.881,1.095,15,15,"NIGHT_MIST,NIGHT_MIST,NIGHT_MOSTLY_CLOUDY,NIGHT_BRIEF_SHOWERS,NIGHT_BRIEF_SHOWERS,NIGHT_MIST,NIGHT_MIST,NIGHT_MIST,MIST,MIST","Offshore,Offshore,Offshore,Offshore,Offshore,Offshore,Offshore,Offshore,Offshore,Offshore",10
5842041f4e65fad6a770897f,2024_08_09,37.11578956919415,-122.314699271291,Ano Nuevo,3,0.609,0.904,15,15,"NIGHT_CLEAR,NIGHT_CLEAR,NIGHT_CLEAR,NIGHT_CLEAR,NIGHT_CLEAR,NIGHT_CLEAR,NIGHT_CLEAR,NIGHT_CLEAR,CLEAR,CLEAR","Offshore,Offshore,Offshore,Offshore,Offshore,Offshore,Offshore,Offshore,Offshore,Offshore",10
5842041f4e65fad6a7708980,2024_08_09,37.09520872681598,-122.2805474707768,Waddell Creek,2.9,0.71,1,15,15,"NIGHT_CLEAR,NIGHT_CLEAR,NIGHT_CLEAR,NIGHT_CLEAR,NIGHT_CLEAR,NIGHT_CLEAR,NIGHT_CLEAR,NIGHT_CLEAR,CLEAR,CLEAR","Offshore,Offshore,Cross-shore,Cross-shore,Offshore,Cross-shore,Cross-shore,Cross-shore,Cross-shore,Cross-shore",10
5842041f4e65fad6a7708981,2024_08_09,36.96512852130351,-122.1252825495626,Four Mile,2.9,0.366,0.672,15,15,"NIGHT_CLEAR,NIGHT_CLEAR,NIGHT_CLEAR,NIGHT_CLEAR,NIGHT_MIST,NIGHT_MIST,NIGHT_CLEAR,NIGHT_CLEAR,CLEAR,CLEAR","Onshore,Onshore,Offshore,Offshore,Cross-shore,Cross-shore,Offshore,Onshore,Onshore,Cross-shore",10
5842041f4e65fad6a7708982,2024_08_09,37.04122807048655,-122.23337,Scott Creek,2.9,0.723,1.006,15,15,"NIGHT_CLEAR,NIGHT_CLEAR,NIGHT_MIST,NIGHT_MIST,NIGHT_MIST,NIGHT_MIST,NIGHT_MIST,NIGHT_MIST,CLEAR,CLEAR","Offshore,Offshore,Offshore,Offshore,Cross-shore,Cross-shore,Cross-shore,Cross-shore,Offshore,Onshore",10
5842041f4e65fad6a7708983,2024_08_09,37.02350229387179,-122.21908,Davenport,2.6,0.667,0.972,15,15,"NIGHT_CLEAR,NIGHT_MIST,NIGHT_MIST,NIGHT_MIST,NIGHT_MIST,NIGHT_MIST,NIGHT_MIST,NIGHT_MIST,MIST,CLEAR","Offshore,Offshore,Offshore,Cross-shore,Offshore,Offshore,Offshore,Cross-shore,Cross-shore,Cross-shore",10
5842041f4e65fad6a7708986,2024_08_09,36.94905295955728,-122.06118,Natural Bridges,3,0.744,1.048,15,15,"NIGHT_CLEAR,NIGHT_CLEAR,NIGHT_MOSTLY_CLOUDY,NIGHT_MOSTLY_CLOUDY,NIGHT_MOSTLY_CLOUDY,NIGHT_MOSTLY_CLOUDY,NIGHT_CLEAR,NIGHT_CLEAR,MOSTLY_CLOUDY,CLEAR","Onshore,Onshore,Onshore,Onshore,Onshore,Onshore,Cross-shore,Cross-shore,Cross-shore,Onshore",10
5842041f4e65fad6a7708987,2024_08_09,36.95154854910425,-122.04207,Mitchell's Cove,3,0.39799999999999996,0.703,16,16,"NIGHT_CLEAR,NIGHT_CLEAR,NIGHT_CLEAR,NIGHT_CLEAR,NIGHT_CLEAR,NIGHT_CLEAR,NIGHT_CLEAR,NIGHT_MOSTLY_CLOUDY,MOSTLY_CLOUDY,CLEAR","Cross-shore,Onshore,Onshore,Onshore,Onshore,Onshore,Onshore,Onshore,Cross-shore,Onshore",10
5842041f4e65fad6a770898a,2024_08_09,36.9572312370203,-121.98177,26th Ave,2.9,0.47,0.775,16,16,"NIGHT_CLEAR,NIGHT_CLEAR,NIGHT_CLEAR,NIGHT_CLEAR,NIGHT_CLEAR,NIGHT_CLEAR,NIGHT_MOSTLY_CLOUDY,NIGHT_BRIEF_SHOWERS,MOSTLY_CLOUDY,CLEAR","Offshore,Cross-shore,Onshore,Onshore,Onshore,Cross-shore,Onshore,Cross-shore,Offshore,Cross-shore",10
5842041f4e65fad6a770898e,2024_08_09,36.91899972819882,-121.85536,Manresa,2.7,0.385,0.689,16,16,"NIGHT_MIST,NIGHT_BRIEF_SHOWERS,NIGHT_MIST,NIGHT_MIST,NIGHT_MIST,NIGHT_MIST,NIGHT_MIST,NIGHT_MIST,MIST,MIST","Cross-shore,Cross-shore,Cross-shore,Cross-shore,Onshore,Onshore,Onshore,Cross-shore,Cross-shore,Onshore",10
5842041f4e65fad6a7708990,2024_08_09,34.45747731928454,-120.34242,The Ranch,2.8,0.36,0.667,15,15,"NIGHT_CLEAR,NIGHT_CLEAR,NIGHT_CLEAR,NIGHT_CLEAR,NIGHT_CLEAR,NIGHT_CLEAR,NIGHT_CLEAR,NIGHT_CLEAR,CLEAR,CLEAR","Offshore,Offshore,Offshore,Onshore,Cross-shore,Offshore,Offshore,Cross-shore,Offshore,Onshore",10
5842041f4e65fad6a7708991,2024_08_09,34.50875036590315,-120.50348,Jalama,2.8,0.514,0.819,15,15,"NIGHT_CLEAR,NIGHT_CLEAR,NIGHT_CLEAR,NIGHT_CLEAR,NIGHT_CLEAR,NIGHT_CLEAR,NIGHT_CLEAR,NIGHT_CLEAR,CLEAR,CLEAR","Offshore,Offshore,Offshore,Offshore,Offshore,Offshore,Offshore,Offshore,Offshore,Onshore",10
5842041f4e65fad6a7708996,2024_08_09,34.68700870220497,-120.6111611019887,Surf Beach,2.9,0.8029999999999999,1.108,15,15,"NIGHT_BRIEF_SHOWERS,NIGHT_BRIEF_SHOWERS,NIGHT_MIST,NIGHT_MIST,NIGHT_MIST,NIGHT_MIST,NIGHT_MIST,NIGHT_BRIEF_SHOWERS,MIST,BRIEF_SHOWERS","Onshore,Onshore,Onshore,Onshore,Onshore,Onshore,Onshore,Onshore,Onshore,Onshore",10
5842041f4e65fad6a770899c,2024_08_09,35.5730538161116,-121.1143362345574,Moonstone,2.9,0.528,0.832,14,14,"NIGHT_CLEAR,NIGHT_CLEAR,NIGHT_MOSTLY_CLOUDY,NIGHT_MOSTLY_CLOUDY,NIGHT_CLEAR,NIGHT_MOSTLY_CLOUDY,NIGHT_MOSTLY_CLOUDY,NIGHT_MOSTLY_CLOUDY,MOSTLY_CLEAR,CLEAR","Cross-shore,Cross-shore,Cross-shore,Cross-shore,Onshore,Onshore,Onshore,Cross-shore,Cross-shore,Onshore",10
5842041f4e65fad6a770899d,2024_08_09,35.61533716776573,-121.1502053073914,Pico Creek,2.9,0.722,1.026,14,14,"NIGHT_CLEAR,NIGHT_CLEAR,NIGHT_CLEAR,NIGHT_CLEAR,NIGHT_MOSTLY_CLOUDY,NIGHT_MOSTLY_CLOUDY,NIGHT_MOSTLY_CLOUDY,NIGHT_CLEAR,CLEAR,CLEAR","Offshore,Cross-shore,Cross-shore,Onshore,Offshore,Offshore,Offshore,Offshore,Onshore,Onshore",10
5842041f4e65fad6a770899e,2024_08_09,35.56829031927379,-121.11207,Santa Rosa Creek,2.8,0.528,0.832,14,14,"NIGHT_CLEAR,NIGHT_MOSTLY_CLOUDY,NIGHT_MOSTLY_CLOUDY,NIGHT_MOSTLY_CLOUDY,NIGHT_MOSTLY_CLOUDY,NIGHT_MOSTLY_CLOUDY,NIGHT_MOSTLY_CLOUDY,NIGHT_MOSTLY_CLOUDY,MOSTLY_CLOUDY,MIST","Onshore,Onshore,Onshore,Onshore,Cross-shore,Cross-shore,Cross-shore,Cross-shore,Onshore,Onshore",10
5842041f4e65fad6a77089a2,2024_08_09,35.44820114936284,-120.90715,"Cayucos Pier, Southside",2,0.215013,0.5197350000000001,15,15,"NIGHT_MOSTLY_CLOUDY,NIGHT_MOSTLY_CLOUDY,NIGHT_MOSTLY_CLOUDY,NIGHT_MOSTLY_CLOUDY,NIGHT_MOSTLY_CLOUDY,NIGHT_MOSTLY_CLOUDY,NIGHT_MOSTLY_CLOUDY,NIGHT_MOSTLY_CLEAR,MOSTLY_CLEAR,CLEAR","Onshore,Onshore,Onshore,Onshore,Onshore,Cross-shore,Offshore,Offshore,Offshore,Onshore",10
5842041f4e65fad6a77089a4,2024_08_09,35.30143372628852,-120.877819239902,Cable Landing,2,1.1219999999999999,1.425,15,15,"NIGHT_BRIEF_SHOWERS,NIGHT_MIST,NIGHT_MIST,NIGHT_MIST,NIGHT_MIST,NIGHT_MIST,NIGHT_MOSTLY_CLOUDY,NIGHT_MIST,MIST,MIST","Onshore,Onshore,Onshore,Onshore,Onshore,Onshore,Onshore,Onshore,Onshore,Onshore",10
5842041f4e65fad6a77089a9,2024_08_09,35.61269103500222,-121.14807,San Simeon,2.7,0.49210000000000004,0.7063,14,14,"NIGHT_MOSTLY_CLEAR,NIGHT_MOSTLY_CLEAR,NIGHT_MOSTLY_CLEAR,NIGHT_MOSTLY_CLEAR,NIGHT_MOSTLY_CLEAR,NIGHT_MOSTLY_CLEAR,NIGHT_MOSTLY_CLEAR,NIGHT_MOSTLY_CLEAR,MOSTLY_CLEAR,CLEAR","Cross-shore,Cross-shore,Onshore,Cross-shore,Cross-shore,Offshore,Offshore,Cross-shore,Cross-shore,Onshore",10
5842041f4e65fad6a77089ab,2024_08_09,35.1775325966252,-120.73411,Avila Beach,2,0.139,0.445,15,15,"NIGHT_CLEAR,NIGHT_CLEAR,NIGHT_CLEAR,NIGHT_CLEAR,NIGHT_CLEAR,NIGHT_CLEAR,NIGHT_MOSTLY_CLOUDY,NIGHT_MOSTLY_CLOUDY,MOSTLY_CLOUDY,CLEAR","Onshore,Onshore,Onshore,Onshore,Onshore,Onshore,Onshore,Onshore,Onshore,Onshore",10
5842041f4e65fad6a77089ac,2024_08_09,35.13877877884115,-120.64535,Pismo Beach Pier,2.7,0.40325,0.70608,13,13,"NIGHT_CLEAR,NIGHT_CLEAR,NIGHT_CLEAR,NIGHT_CLEAR,NIGHT_MOSTLY_CLOUDY,NIGHT_MOSTLY_CLOUDY,NIGHT_MOSTLY_CLOUDY,NIGHT_MOSTLY_CLOUDY,MOSTLY_CLOUDY,CLEAR","Offshore,Onshore,Offshore,Offshore,Offshore,Offshore,Offshore,Offshore,Offshore,Onshore",10
5842041f4e65fad6a77089ad,2024_08_09,46.8907710233147,-124.12964,Westport/Olympic Peninsula,2.6,0.628,0.933,16,16,"NIGHT_CLOUDY,NIGHT_MIST,NIGHT_MIST,NIGHT_MIST,NIGHT_MIST,NIGHT_MIST,NIGHT_MIST,NIGHT_MIST,MIST,MOSTLY_CLOUDY","Onshore,Onshore,Onshore,Onshore,Onshore,Onshore,Onshore,Onshore,Onshore,Onshore",10
5842041f4e65fad6a77089ae,2024_08_09,46.35185177248545,-124.06747,Long Beach Peninsula,2.6,0.6699999999999999,0.975,16,16,"NIGHT_DRIZZLE,NIGHT_MIST,NIGHT_MIST,NIGHT_MIST,NIGHT_MIST,NIGHT_MIST,NIGHT_MIST,NIGHT_CLOUDY,CLOUDY,MIST","Cross-shore,Cross-shore,Cross-shore,Cross-shore,Onshore,Onshore,Onshore,Onshore,Onshore,Onshore",10
5842041f4e65fad6a77089af,2024_08_09,47.90649175554033,-124.63709,La Push,2.5,0.536,0.842,14,14,"NIGHT_MIST,NIGHT_BRIEF_SHOWERS_POSSIBLE,NIGHT_MIST,NIGHT_MIST,NIGHT_MIST,NIGHT_CLEAR,NIGHT_MOSTLY_CLOUDY,NIGHT_MOSTLY_CLOUDY,MOSTLY_CLOUDY,MIST","Cross-shore,Cross-shore,Onshore,Offshore,Offshore,Offshore,Offshore,Offshore,Cross-shore,Onshore",10
5842041f4e65fad6a77089b0,2024_08_09,42.04368239985442,-124.26828,Brookings Jetty,2,0.293289,0.540396,13,13,"NIGHT_MOSTLY_CLEAR,NIGHT_BRIEF_SHOWERS,NIGHT_BRIEF_SHOWERS,NIGHT_BRIEF_SHOWERS,NIGHT_BRIEF_SHOWERS,NIGHT_MOSTLY_CLOUDY,NIGHT_MOSTLY_CLOUDY,NIGHT_MOSTLY_CLOUDY,MOSTLY_CLOUDY,CLEAR","Onshore,Onshore,Onshore,Onshore,Cross-shore,Onshore,Onshore,Onshore,Onshore,Cross-shore",10
5842041f4e65fad6a77089b1,2024_08_09,42.74071837900346,-124.4983727491047,Port Orford,1.6,0.208,0.51,12.5,12.5,"NIGHT_CLEAR,NIGHT_CLEAR,NIGHT_CLEAR,NIGHT_CLEAR,NIGHT_CLEAR,NIGHT_CLEAR,NIGHT_CLEAR,NIGHT_CLEAR,CLEAR,CLEAR","Offshore,Offshore,Offshore,Offshore,Offshore,Offshore,Offshore,Offshore,Offshore,Offshore",10
5842041f4e65fad6a77089b2,2024_08_09,44.01532689312291,-124.13865,Florence South Jetty,2.5,0.6799999999999999,0.985,14,14,"NIGHT_MIST,NIGHT_MIST,NIGHT_MIST,NIGHT_MIST,NIGHT_MIST,NIGHT_DRIZZLE,NIGHT_MIST,NIGHT_MIST,MIST,MIST","Onshore,Onshore,Onshore,Onshore,Onshore,Onshore,Onshore,Onshore,Cross-shore,Onshore",10
5842041f4e65fad6a77089b3,2024_08_09,42.41812540774362,-124.42945,Gold Beach South Jetty,3,0.628,0.9339999999999999,12.5,12.5,"NIGHT_MIST,NIGHT_MIST,NIGHT_MIST,NIGHT_MIST,NIGHT_MIST,NIGHT_MIST,NIGHT_MIST,NIGHT_MIST,MIST,MIST","Offshore,Offshore,Offshore,Offshore,Offshore,Offshore,Offshore,Offshore,Offshore,Offshore",10
5842041f4e65fad6a77089b4,2024_08_09,44.95857310226525,-124.0219,Lincoln City,2.2,0.656,0.959,14,14,"NIGHT_MIST,NIGHT_MIST,NIGHT_MIST,NIGHT_MIST,NIGHT_MIST,NIGHT_MIST,NIGHT_MIST,NIGHT_MIST,MIST,MIST","Cross-shore,Cross-shore,Cross-shore,Cross-shore,Cross-shore,Cross-shore,Cross-shore,Cross-shore,Cross-shore,Onshore",10
5842041f4e65fad6a77089b5,2024_08_09,44.63792761362982,-124.0657,Newport,2.3,0.704,1.009,14,14,"NIGHT_MIST,NIGHT_MIST,NIGHT_MIST,NIGHT_MIST,NIGHT_MIST,NIGHT_MIST,NIGHT_MIST,NIGHT_DRIZZLE,DRIZZLE,BRIEF_SHOWERS","Cross-shore,Cross-shore,Cross-shore,Cross-shore,Cross-shore,Cross-shore,Cross-shore,Cross-shore,Cross-shore,Onshore",10
5842041f4e65fad6a77089b6,2024_08_09,45.61468496266301,-123.94643,Rockaway Beach,2.6,0.661,0.967,15,15,"NIGHT_MIST,NIGHT_MIST,NIGHT_MIST,NIGHT_MIST,NIGHT_MOSTLY_CLOUDY,NIGHT_BRIEF_SHOWERS,NIGHT_MOSTLY_CLOUDY,NIGHT_MOSTLY_CLOUDY,MOSTLY_CLOUDY,MIST","Onshore,Onshore,Onshore,Onshore,Cross-shore,Onshore,Onshore,Onshore,Offshore,Onshore",10
5842041f4e65fad6a77089b7,2024_08_09,45.20252914186085,-123.96975,Pacific City,2.2,0.438,0.743,14,14,"NIGHT_MIST,NIGHT_MIST,NIGHT_MIST,NIGHT_MIST,NIGHT_MIST,NIGHT_MIST,NIGHT_MOSTLY_CLOUDY,NIGHT_MOSTLY_CLOUDY,MOSTLY_CLOUDY,MOSTLY_CLEAR","Cross-shore,Cross-shore,Cross-shore,Cross-shore,Cross-shore,Cross-shore,Cross-shore,Cross-shore,Offshore,Cross-shore",10
5842041f4e65fad6a77089b8,2024_08_09,45.88179930310263,-123.96681,Cannon Beach,3,0.673,0.979,16,16,"NIGHT_MOSTLY_CLOUDY,NIGHT_MIST,NIGHT_MIST,NIGHT_MIST,NIGHT_MOSTLY_CLOUDY,NIGHT_MOSTLY_CLOUDY,NIGHT_MOSTLY_CLOUDY,NIGHT_MOSTLY_CLOUDY,MOSTLY_CLOUDY,CLEAR","Cross-shore,Offshore,Offshore,Offshore,Offshore,Cross-shore,Cross-shore,Onshore,Cross-shore,Onshore",10
5842041f4e65fad6a77089ba,2024_08_09,40.02528754746774,-124.06372,Shelter Cove,2,0.146019,0.32135400000000003,13.5,13.5,"NIGHT_CLEAR,NIGHT_CLEAR,NIGHT_CLEAR,NIGHT_CLEAR,NIGHT_CLEAR,NIGHT_CLEAR,NIGHT_CLEAR,NIGHT_CLEAR,CLEAR,CLEAR","Offshore,Offshore,Offshore,Offshore,Offshore,Offshore,Offshore,Offshore,Offshore,Offshore",10
5842041f4e65fad6a77089bb,2024_08_09,40.76816197136951,-124.24248,Humboldt Harbor Entrance,3,0.828,1.13,13.5,13.5,"NIGHT_MIST,NIGHT_MIST,NIGHT_MIST,NIGHT_MIST,NIGHT_DRIZZLE,NIGHT_DRIZZLE,NIGHT_MIST,NIGHT_MIST,MIST,MIST","Offshore,Cross-shore,Cross-shore,Offshore,Offshore,Onshore,Onshore,Onshore,Onshore,Onshore",10
5842041f4e65fad6a77089bc,2024_08_09,40.76684246920174,-124.23107,North Jetty,3,1.0290000000000001,1.331,13.5,13.5,"NIGHT_MIST,NIGHT_MIST,NIGHT_MIST,NIGHT_MIST,NIGHT_MIST,NIGHT_MIST,NIGHT_MIST,NIGHT_MIST,MIST,MIST","Cross-shore,Cross-shore,Cross-shore,Onshore,Offshore,Onshore,Offshore,Offshore,Cross-shore,Onshore",10
5842041f4e65fad6a77089be,2024_08_09,41.13016238153297,-124.16466,Sue-meg,2.9,0.84,1.145,14,14,"NIGHT_MIST,NIGHT_MIST,NIGHT_MIST,NIGHT_MIST,NIGHT_MIST,NIGHT_MOSTLY_CLOUDY,NIGHT_MOSTLY_CLOUDY,NIGHT_MIST,MIST,BRIEF_SHOWERS","Onshore,Onshore,Onshore,Onshore,Onshore,Onshore,Onshore,Onshore,Onshore,Onshore",10
5842041f4e65fad6a77089bf,2024_08_09,37.8289474958188,-122.53768,Fort Cronkite/Rodeo Beach,1,0.513,0.82,17,17,"NIGHT_MIST,NIGHT_MIST,NIGHT_MIST,NIGHT_MIST,NIGHT_MIST,NIGHT_MIST,NIGHT_MOSTLY_CLOUDY,NIGHT_MOSTLY_CLOUDY,MOSTLY_CLOUDY,CLEAR","Onshore,Onshore,Onshore,Onshore,Onshore,Onshore,Onshore,Onshore,Onshore,Onshore",10
5842041f4e65fad6a77089c0,2024_08_09,41.74415759876137,-124.17717,South Beach CA,2,0.203,0.511,13.5,13.5,"NIGHT_CLEAR,NIGHT_CLEAR,NIGHT_MOSTLY_CLEAR,NIGHT_MIST,NIGHT_MOSTLY_CLEAR,NIGHT_MOSTLY_CLEAR,NIGHT_MOSTLY_CLEAR,NIGHT_MOSTLY_CLOUDY,MOSTLY_CLOUDY,CLEAR","Onshore,Onshore,Onshore,Onshore,Onshore,Onshore,Onshore,Onshore,Cross-shore,Cross-shore",10
5842041f4e65fad6a77089c1,2024_08_09,37.89801283969752,-122.64519,Stinson Beach,2.4,0.31,0.615,17,17,"NIGHT_CLEAR,NIGHT_CLEAR,NIGHT_CLEAR,NIGHT_CLEAR,NIGHT_CLEAR,NIGHT_CLEAR,NIGHT_CLEAR,NIGHT_CLEAR,CLEAR,CLEAR","Offshore,Offshore,Offshore,Offshore,Offshore,Offshore,Offshore,Offshore,Offshore,Offshore",10
5842041f4e65fad6a77089c2,2024_08_09,37.90514516176495,-122.68151,Bolinas,2,0.1356,0.436492,16,16,"NIGHT_BRIEF_SHOWERS,NIGHT_MIST,NIGHT_MIST,NIGHT_MIST,NIGHT_MIST,NIGHT_MIST,NIGHT_CLEAR,NIGHT_CLEAR,CLEAR,CLEAR","Offshore,Offshore,Offshore,Offshore,Offshore,Offshore,Offshore,Offshore,Offshore,Offshore",10
5842041f4e65fad6a77089c3,2024_08_09,38.04892513158693,-122.98925,Point Reyes (north),2,1.371,1.6400000000000001,14,14,"NIGHT_MIST,NIGHT_MIST,NIGHT_MIST,NIGHT_MIST,NIGHT_MIST,NIGHT_MIST,NIGHT_MIST,NIGHT_DRIZZLE,MIST,MIST","Onshore,Onshore,Onshore,Onshore,Onshore,Onshore,Onshore,Onshore,Onshore,Onshore",10
5842041f4e65fad6a77089c6,2024_08_09,38.31088736605785,-123.0496777333731,Doran Beach,1.5,0.005,0.303,14,14,"NIGHT_MIST,NIGHT_MIST,NIGHT_MIST,NIGHT_MIST,NIGHT_MIST,NIGHT_MIST,NIGHT_MIST,NIGHT_MIST,MIST,MOSTLY_CLEAR","Offshore,Offshore,Offshore,Offshore,Offshore,Offshore,Offshore,Offshore,Offshore,Offshore",10
5842041f4e65fad6a77089c7,2024_08_09,38.45077228660809,-123.13008,Russian Rivermouth,2.9,0.755,1.059,13.5,13.5,"NIGHT_CLEAR,NIGHT_CLEAR,NIGHT_CLEAR,NIGHT_CLEAR,NIGHT_CLEAR,NIGHT_CLEAR,NIGHT_CLEAR,NIGHT_CLEAR,CLEAR,CLEAR","Onshore,Onshore,Onshore,Onshore,Onshore,Onshore,Onshore,Cross-shore,Cross-shore,Onshore",10
5842041f4e65fad6a77089c8,2024_08_09,38.35329968518107,-123.06906,Salmon Creek,2.5,1.08,1.387,14,14,"NIGHT_MIST,NIGHT_MIST,NIGHT_MIST,NIGHT_MIST,NIGHT_MIST,NIGHT_MIST,NIGHT_MIST,NIGHT_MIST,MIST,MIST","Onshore,Onshore,Onshore,Onshore,Onshore,Onshore,Onshore,Onshore,Onshore,Onshore",10
5842041f4e65fad6a77089c9,2024_08_09,38.6845180197959,-123.4322714291198,Black Point Beach,2.9,0.468,0.77,12.5,12.5,"NIGHT_MIST,NIGHT_MIST,NIGHT_MIST,NIGHT_CLEAR,NIGHT_MIST,NIGHT_MIST,NIGHT_CLEAR,NIGHT_MIST,MIST,CLEAR","Onshore,Onshore,Onshore,Onshore,Onshore,Onshore,Onshore,Onshore,Onshore,Onshore",10
5842041f4e65fad6a77089ca,2024_08_09,43.251076,-70.59144,Ogunquit,1,0.167833,0.47098700000000004,18.1,16.1,"NIGHT_FOG,NIGHT_OVERCAST,NIGHT_LIGHT_RAIN,NIGHT_DRIZZLE,FOG,MIST,MIST,MIST,MIST,MIST","Onshore,Onshore,Onshore,Onshore,Onshore,Onshore,Onshore,Onshore,Onshore,Onshore",10
5842041f4e65fad6a77089cb,2024_08_09,41.362631366305415,-71.48007,Point Judith,1.3,0.508127,0.819612,23,21,"NIGHT_MIST,NIGHT_MIST,NIGHT_MIST,NIGHT_MIST,MIST,MIST,MIST,MIST,MIST,MIST","Onshore,Onshore,Onshore,Onshore,Onshore,Cross-shore,Cross-shore,Cross-shore,Cross-shore,Cross-shore",10
5842041f4e65fad6a77089cd,2024_08_09,41.422678090954726,-71.45413,Monahan's - Narragansett,1,0.248766,0.545525,22,22,"NIGHT_MIST,NIGHT_MIST,NIGHT_MIST,NIGHT_DRIZZLE,MIST,MIST,MIST,MIST,MIST,MIST","Onshore,Onshore,Onshore,Onshore,Onshore,Onshore,Onshore,Onshore,Onshore,Onshore",10
5842041f4e65fad6a77089ce,2024_08_09,41.469,-71.293,Ruggles - Newport,1.1,0.57575,0.923716,22,22,"NIGHT_MIST,NIGHT_MIST,NIGHT_MIST,NIGHT_MIST,MIST,MIST,MIST,MIST,MIST,MIST","Cross-shore,Cross-shore,Onshore,Onshore,Onshore,Onshore,Onshore,Onshore,Onshore,Onshore",10
5842041f4e65fad6a77089cf,2024_08_09,43.175394,-70.606351,Short Sands Beach,1.3,0.253,0.558,20,20,"NIGHT_LIGHT_RAIN_AND_FOG,NIGHT_LIGHT_RAIN_AND_FOG,NIGHT_OVERCAST,NIGHT_LIGHT_RAIN,FOG,FOG,LIGHT_SHOWERS_POSSIBLE,MIST,MIST,MIST","Onshore,Onshore,Onshore,Onshore,Onshore,Onshore,Onshore,Onshore,Onshore,Cross-shore",10
5842041f4e65fad6a77089d0,2024_08_09,41.487408,-71.29017,First Beach,1.5,0.32,0.627,22,22,"NIGHT_FOG,NIGHT_MIST,NIGHT_BRIEF_SHOWERS_POSSIBLE,NIGHT_FOG,MIST,MIST,MIST,MIST,MIST,CLEAR","Cross-shore,Cross-shore,Onshore,Onshore,Onshore,Onshore,Onshore,Onshore,Onshore,Onshore",10
5842041f4e65fad6a77089d1,2024_08_09,42.27916830233153,-70.86498,Nantasket Beach,0.08333333333333333,0,0.19282,19,17.1,"NIGHT_MIST,NIGHT_MIST,NIGHT_MIST,NIGHT_MIST,MIST,MIST,MIST,MIST,LIGHT_RAIN,CLOUDY","Onshore,Onshore,Onshore,Onshore,Cross-shore,Cross-shore,Cross-shore,Cross-shore,Cross-shore,Offshore",10
5842041f4e65fad6a77089d2,2024_08_09,41.817,-69.935,Cape Cod,0.9,0.1,0.405,20,20,"NIGHT_MIST,NIGHT_MIST,NIGHT_MIST,NIGHT_MIST,MIST,MIST,MIST,MIST,MIST,MOSTLY_CLOUDY","Onshore,Onshore,Onshore,Onshore,Onshore,Onshore,Onshore,Onshore,Onshore,Cross-shore",10
5842041f4e65fad6a77089d3,2024_08_09,42.22055448975661,-70.70634873403819,Egypt Beach,0,0,0.242,20,20,"NIGHT_MIST,NIGHT_MIST,NIGHT_MIST,NIGHT_MIST,MIST,MIST,MIST,BRIEF_SHOWERS,MIST,MIST","Onshore,Onshore,Onshore,Onshore,Onshore,Onshore,Onshore,Cross-shore,Onshore,Cross-shore",10
5842041f4e65fad6a77089d4,2024_08_09,41.48739647744607,-71.25723,Second Beach,1.2,0.676242,1.03857,23,21,"NIGHT_MIST,NIGHT_MIST,NIGHT_BRIEF_SHOWERS_POSSIBLE,NIGHT_MIST,MIST,MIST,MIST,MIST,MIST,MIST","Cross-shore,Cross-shore,Cross-shore,Cross-shore,Cross-shore,Onshore,Onshore,Onshore,Onshore,Onshore",10
5842041f4e65fad6a77089d5,2024_08_09,42.964,-70.769,Fox Hill,1.65,0.078333,0.382986,18.1,16.1,"NIGHT_FOG,NIGHT_LIGHT_RAIN_AND_FOG,NIGHT_FOG,NIGHT_FOG,FOG,MIST,MIST,BRIEF_SHOWERS_POSSIBLE,MIST,MIST","Onshore,Onshore,Onshore,Onshore,Onshore,Onshore,Onshore,Onshore,Onshore,Onshore",10
5842041f4e65fad6a77089d6,2024_08_09,42.991359,-70.75149,Straws Point,1.6333333333333333,0.087834,0.391987,18.1,16.1,"NIGHT_FOG,NIGHT_FOG,NIGHT_LIGHT_RAIN,NIGHT_FOG,FOG,MIST,MIST,LIGHT_SHOWERS_POSSIBLE,MIST,MIST","Onshore,Cross-shore,Cross-shore,Cross-shore,Onshore,Onshore,Onshore,Onshore,Onshore,Onshore",10
5842041f4e65fad6a77089d7,2024_08_09,42.946,-70.786,Plaice Cove,1,0.078333,0.382986,18.1,16.1,"NIGHT_FOG,NIGHT_FOG,NIGHT_FOG,NIGHT_FOG,FOG,DRIZZLE,MIST,MIST,MIST,MIST","Onshore,Onshore,Onshore,Onshore,Onshore,Onshore,Onshore,Onshore,Onshore,Onshore",10
5842041f4e65fad6a77089d9,2024_08_09,42.911574,-70.80831,The Main Beach,1,0.056328,0.392161,18.1,16.1,"NIGHT_MIST,NIGHT_OVERCAST,NIGHT_MIST,NIGHT_MIST,MIST,LIGHT_RAIN,MIST,MIST,MIST,MIST","Onshore,Cross-shore,Cross-shore,Cross-shore,Cross-shore,Onshore,Onshore,Onshore,Onshore,Onshore",10
5842041f4e65fad6a77089da,2024_08_09,42.97583846220203,-70.764,Sawyer's Beach,1,0.113,0.416487,18.1,16.1,"NIGHT_FOG,NIGHT_LIGHT_RAIN_AND_FOG,NIGHT_FOG,NIGHT_FOG,FOG,MIST,MIST,BRIEF_SHOWERS_POSSIBLE,MIST,MIST","Onshore,Onshore,Onshore,Onshore,Onshore,Onshore,Onshore,Onshore,Onshore,Onshore",10
5842041f4e65fad6a77089db,2024_08_09,42.97,-70.77,Rye on the Rocks / 5-0's,1,0.215419,0.485719,18.1,16.1,"NIGHT_FOG,NIGHT_LIGHT_RAIN_AND_FOG,NIGHT_FOG,NIGHT_FOG,FOG,MIST,MIST,BRIEF_SHOWERS_POSSIBLE,MIST,MIST","Onshore,Onshore,Onshore,Onshore,Onshore,Onshore,Onshore,Onshore,Onshore,Onshore",10
5842041f4e65fad6a77089dc,2024_08_09,43.55902946610303,-70.27795,Higgins Beach,1,0.11,0.415,18.1,16.1,"NIGHT_OVERCAST,NIGHT_LIGHT_RAIN,NIGHT_OVERCAST,NIGHT_OVERCAST,FOG,DRIZZLE,MIST,MIST,MIST,MIST","Cross-shore,Cross-shore,Cross-shore,Cross-shore,Cross-shore,Cross-shore,Cross-shore,Cross-shore,Cross-shore,Onshore",10
5842041f4e65fad6a77089dd,2024_08_09,43.302676,-70.5652,Wells Beach,1,0.13966699999999999,0.442153,18.1,16.1,"NIGHT_DRIZZLE,NIGHT_LIGHT_RAIN,NIGHT_LIGHT_RAIN,NIGHT_MIST,MIST,MIST,MIST,MIST,MIST,MIST","Onshore,Onshore,Onshore,Onshore,Onshore,Onshore,Onshore,Onshore,Onshore,Onshore",10
5842041f4e65fad6a77089de,2024_08_09,43.545359,-70.30479,Scarborough Beach State Park,1,0.094594,0.426511,18.1,16.1,"NIGHT_OVERCAST,NIGHT_LIGHT_RAIN,NIGHT_OVERCAST,NIGHT_OVERCAST,DRIZZLE,MIST,OVERCAST,MIST,MIST,MIST","Cross-shore,Cross-shore,Cross-shore,Cross-shore,Onshore,Cross-shore,Cross-shore,Cross-shore,Cross-shore,Onshore",10
5842041f4e65fad6a77089df,2024_08_09,43.514481,-70.37215,Old Orchard Beach,1,0.039658,0.345792,18.1,16.1,"NIGHT_RAIN,NIGHT_DRIZZLE,NIGHT_MIST,NIGHT_MIST,LIGHT_RAIN,OVERCAST,MIST,MIST,MIST,MIST","Onshore,Onshore,Onshore,Cross-shore,Onshore,Onshore,Onshore,Onshore,Onshore,Onshore",10
5842041f4e65fad6a77089e0,2024_08_09,43.34711,-70.48165,Gooch's Beach,0.8333333333333333,0.1415,0.442654,18.1,16.1,"NIGHT_FOG,NIGHT_DRIZZLE,NIGHT_LIGHT_RAIN,NIGHT_OVERCAST,LIGHT_RAIN_AND_FOG,MIST,MIST,MIST,MIST,MIST","Cross-shore,Cross-shore,Cross-shore,Offshore,Cross-shore,Cross-shore,Cross-shore,Cross-shore,Cross-shore,Onshore",10
5842041f4e65fad6a77089e2,2024_08_09,40.58433,-73.62953,Lido Beach,0.9833333333333333,0.842568,1.230848,23,20.1,"NIGHT_MIST,NIGHT_MIST,NIGHT_MIST,NIGHT_MIST,MIST,MIST,CLOUDY,CLOUDY,CLOUDY,MOSTLY_CLOUDY","Onshore,Onshore,Onshore,Onshore,Onshore,Onshore,Onshore,Onshore,Onshore,Onshore",10
5842041f4e65fad6a77089e3,2024_08_09,43.163135,-70.61689,Long Sands Beach,1,0.085149,0.373678,18.1,16.1,"NIGHT_LIGHT_RAIN,NIGHT_OVERCAST,NIGHT_LIGHT_RAIN,NIGHT_DRIZZLE,DRIZZLE,MIST,MIST,MIST,DRIZZLE,MIST","Onshore,Cross-shore,Cross-shore,Cross-shore,Onshore,Cross-shore,Onshore,Onshore,Onshore,Onshore",10
5842041f4e65fad6a77089e4,2024_08_09,40.61695351251805,-73.39376,Gilgo Beach,0.9,0.846794,1.21378,23,20.1,"NIGHT_DRIZZLE,NIGHT_MIST,NIGHT_MIST,NIGHT_DRIZZLE,MIST,MIST,MIST,OVERCAST,MIST,CLOUDY","Cross-shore,Onshore,Onshore,Onshore,Onshore,Onshore,Onshore,Onshore,Onshore,Onshore",10
5842041f4e65fad6a77089e5,2024_08_09,40.62530081928036,-73.23827,Robert Moses,0.9,0.71,1.017,24,24,"NIGHT_LIGHT_RAIN,NIGHT_DRIZZLE,NIGHT_DRIZZLE,NIGHT_MIST,MIST,MIST,MIST,MIST,DRIZZLE,MIST","Onshore,Onshore,Onshore,Onshore,Onshore,Onshore,Onshore,Onshore,Onshore,Onshore",10
5842041f4e65fad6a77089e6,2024_08_09,40.64313317632791,-73.15727,Fire Island,0.9,0.743,1.05,23.5,23.5,"NIGHT_DRIZZLE,NIGHT_MIST,NIGHT_MIST,NIGHT_DRIZZLE,MIST,CLOUDY,MIST,DRIZZLE,OVERCAST,MIST","Onshore,Onshore,Onshore,Onshore,Onshore,Onshore,Onshore,Onshore,Onshore,Onshore",10
5842041f4e65fad6a77089e8,2024_08_09,40.76653118828782,-72.7458,Cupsogue,0.9,0.998,1.275,23,23,"NIGHT_DRIZZLE,NIGHT_MIST,NIGHT_DRIZZLE,NIGHT_DRIZZLE,MIST,CLOUDY,CLOUDY,CLOUDY,MIST,CLOUDY","Onshore,Onshore,Onshore,Onshore,Onshore,Onshore,Onshore,Onshore,Onshore,Onshore",10
5842041f4e65fad6a77089e9,2024_08_09,42.9376373334092,-70.79141,The Wall,1,0.056327999999999996,0.384129,18.1,16.1,"NIGHT_MIST,NIGHT_OVERCAST,NIGHT_MIST,NIGHT_MIST,MIST,LIGHT_RAIN,MIST,MIST,MIST,MIST","Onshore,Onshore,Onshore,Onshore,Onshore,Onshore,Onshore,Onshore,Onshore,Cross-shore",10
5842041f4e65fad6a77089ea,2024_08_09,40.887088,-72.33856,Flys,1,0.962,1.235,22,22,"NIGHT_MIST,NIGHT_MIST,NIGHT_MIST,NIGHT_MIST,MIST,MIST,MIST,MIST,OVERCAST,OVERCAST","Cross-shore,Onshore,Onshore,Onshore,Onshore,Onshore,Onshore,Onshore,Onshore,Onshore",10
5842041f4e65fad6a77089eb,2024_08_09,41.0389266436591,-71.91068529316958,Trailer Park,0.9166666666666666,0.820838,1.243846,23,20.1,"NIGHT_CLEAR,NIGHT_CLEAR,NIGHT_CLEAR,NIGHT_CLEAR,CLEAR,MIST,MIST,MIST,CLEAR,CLEAR","Onshore,Onshore,Onshore,Onshore,Onshore,Onshore,Onshore,Onshore,Onshore,Onshore",10
5842041f4e65fad6a77089ec,2024_08_09,41.039505402729105,-71.9142,Ditch Plains,0.9,0.6764399999999999,1.017464,21,21,"NIGHT_MIST,NIGHT_MIST,NIGHT_MIST,NIGHT_MIST,MIST,MIST,MIST,MIST,MIST,CLOUDY","Onshore,Onshore,Onshore,Onshore,Onshore,Onshore,Onshore,Onshore,Onshore,Onshore",10
5842041f4e65fad6a77089ee,2024_08_09,40.57633275206492,-73.56895305108567,"West End, Jones Beach",0.9,0.8826269999999999,1.266933,23,20.1,"NIGHT_MIST,NIGHT_MIST,NIGHT_MIST,NIGHT_MIST,MIST,MIST,CLOUDY,CLOUDY,CLEAR,MOSTLY_CLOUDY","Cross-shore,Cross-shore,Onshore,Onshore,Onshore,Onshore,Onshore,Onshore,Onshore,Onshore",10
5842041f4e65fad6a77089f1,2024_08_09,41.038286691230795,-71.91991567611694,Poles,1,0.8329070000000001,1.253497,23,20.1,"NIGHT_CLEAR,NIGHT_CLEAR,NIGHT_CLEAR,NIGHT_CLEAR,CLEAR,MIST,MIST,MIST,CLEAR,CLEAR","Onshore,Onshore,Onshore,Onshore,Onshore,Onshore,Onshore,Onshore,Onshore,Onshore",10
5842041f4e65fad6a77089f3,2024_08_09,40.84077769766295,-72.47989493724765,The Bowl,1,0.924,1.184,22.5,22.5,"NIGHT_LIGHT_RAIN,NIGHT_MIST,NIGHT_DRIZZLE,NIGHT_LIGHT_RAIN,MIST,BRIEF_SHOWERS,MIST,CLOUDY,CLOUDY,MOSTLY_CLOUDY","Cross-shore,Onshore,Onshore,Onshore,Onshore,Onshore,Onshore,Onshore,Onshore,Onshore",10
5842041f4e65fad6a77089f4,2024_08_09,40.94235535243154,-72.19286,Main Beach,1.5,0.834306,1.1844540000000001,22,20.1,"NIGHT_CLEAR,NIGHT_MIST,NIGHT_CLEAR,NIGHT_CLEAR,MIST,MIST,BRIEF_SHOWERS_POSSIBLE,MIST,MIST,BRIEF_SHOWERS_POSSIBLE","Cross-shore,Cross-shore,Onshore,Onshore,Onshore,Onshore,Onshore,Onshore,Onshore,Onshore",10
5842041f4e65fad6a77089f5,2024_08_09,40.58270702399518,-73.67251552079799,Laurelton Blvd.,0.9833333333333333,0.8829199999999999,1.268475,23,20.1,"NIGHT_MIST,NIGHT_MIST,NIGHT_MIST,NIGHT_MIST,MIST,DRIZZLE,MIST,OVERCAST,MIST,MOSTLY_CLEAR","Cross-shore,Cross-shore,Onshore,Onshore,Onshore,Onshore,Onshore,Onshore,Onshore,Onshore",10
5842041f4e65fad6a77089f6,2024_08_09,41.033752854071416,-71.93696,Terrace,1,0.832114,1.191938,23,20.1,"NIGHT_MIST,NIGHT_MIST,NIGHT_MIST,NIGHT_MIST,MIST,MIST,MIST,MIST,MIST,CLOUDY","Onshore,Onshore,Onshore,Onshore,Onshore,Onshore,Onshore,Onshore,Onshore,Onshore",10
5842041f4e65fad6a77089f7,2024_08_09,40.83372943645748,-72.50426173210144,K Road,1,0.998,1.2790000000000001,22.5,22.5,"NIGHT_DRIZZLE,NIGHT_LIGHT_RAIN,NIGHT_MIST,NIGHT_DRIZZLE,MIST,MIST,MIST,MIST,CLOUDY,MOSTLY_CLOUDY","Onshore,Onshore,Onshore,Onshore,Onshore,Onshore,Onshore,Onshore,Onshore,Onshore",10
5842041f4e65fad6a77089f8,2024_08_09,40.58456099581507,-73.80730032920837,84th Street,0.9833333333333333,0.873235,1.200086,23,20.1,"NIGHT_MIST,NIGHT_MIST,NIGHT_MIST,NIGHT_MIST,OVERCAST,MIST,DRIZZLE,MIST,OVERCAST,CLEAR","Onshore,Onshore,Onshore,Onshore,Onshore,Onshore,Onshore,Onshore,Onshore,Onshore",10
5842041f4e65fad6a77089fa,2024_08_09,40.1319,-74.02788,Sea Girt,1.0166666666666666,0.88628,1.254267,22,21,"NIGHT_CLEAR,NIGHT_CLEAR,NIGHT_CLEAR,NIGHT_BRIEF_SHOWERS_POSSIBLE,NIGHT_CLEAR,MIST,OVERCAST,MIST,MIST,CLEAR","Onshore,Onshore,Onshore,Onshore,Onshore,Onshore,Onshore,Onshore,Onshore,Cross-shore",10
5842041f4e65fad6a77089fb,2024_08_09,40.54698301868125,-73.9268,Breezy Point,0.9,0.724,1.028,25,25,"NIGHT_MIST,NIGHT_MIST,NIGHT_MIST,NIGHT_MIST,MIST,MIST,CLOUDY,MIST,LIGHT_RAIN,CLEAR","Onshore,Onshore,Onshore,Onshore,Onshore,Onshore,Onshore,Onshore,Onshore,Onshore",10
5842041f4e65fad6a77089fc,2024_08_09,40.152504,-74.02138,Spring Lake,1,0.88828,1.190433,22,21,"NIGHT_CLEAR,NIGHT_CLEAR,NIGHT_CLEAR,NIGHT_CLEAR,NIGHT_CLEAR,MIST,OVERCAST,BRIEF_SHOWERS_POSSIBLE,MIST,CLEAR","Onshore,Onshore,Onshore,Onshore,Onshore,Onshore,Onshore,Onshore,Onshore,Cross-shore",10
5842041f4e65fad6a77089fd,2024_08_09,40.591277,-73.770792,30th - 39th Streets,0.65,0.661793,0.987767,23,20.1,"NIGHT_CLEAR,NIGHT_CLEAR,NIGHT_CLEAR,NIGHT_CLEAR,CLEAR,MIST,CLOUDY,OVERCAST,CLEAR,CLEAR","Onshore,Onshore,Onshore,Onshore,Onshore,Onshore,Onshore,Onshore,Onshore,Onshore",10
5842041f4e65fad6a77089fe,2024_08_09,40.18834955871439,-74.00860982500222,Avon,0.9833333333333333,0.828113,1.132767,22,21,"NIGHT_MIST,NIGHT_CLEAR,NIGHT_MIST,NIGHT_MIST,NIGHT_CLEAR,MIST,OVERCAST,MIST,MIST,CLEAR","Onshore,Onshore,Onshore,Onshore,Onshore,Onshore,Onshore,Onshore,Onshore,Cross-shore",10
5842041f4e65fad6a77089ff,2024_08_09,40.1974229100932,-74.00650533798255,Bradley Beach,1.1,0.84878,1.1221,22,21,"NIGHT_MIST,NIGHT_CLEAR,NIGHT_MIST,NIGHT_MIST,NIGHT_CLEAR,MIST,OVERCAST,MIST,MIST,CLEAR","Onshore,Onshore,Onshore,Onshore,Onshore,Onshore,Onshore,Onshore,Onshore,Cross-shore",10
5842041f4e65fad6a7708a01,2024_08_09,40.17202,-74.01503,"16th Ave., Belmar",0.85,1.0227140000000001,1.508443,22,21.9,"NIGHT_MIST,NIGHT_CLEAR,NIGHT_MIST,NIGHT_MIST,NIGHT_CLEAR,MIST,OVERCAST,MIST,MIST,CLEAR","Onshore,Onshore,Onshore,Onshore,Onshore,Onshore,Onshore,Onshore,Onshore,Cross-shore",10
5842041f4e65fad6a7708a02,2024_08_09,40.217443,-73.99982,Asbury Park,1,0.877114,1.183267,22,21,"NIGHT_MIST,NIGHT_CLEAR,NIGHT_MIST,NIGHT_MIST,NIGHT_CLEAR,LIGHT_RAIN,OVERCAST,MIST,MIST,CLEAR","Onshore,Onshore,Onshore,Onshore,Onshore,Onshore,Onshore,Onshore,Onshore,Cross-shore",10
5842041f4e65fad6a7708a03,2024_08_09,40.229841,-73.99678,Loch Arbour and Deal,0.6666666666666667,0.928613,1.2301,22,21,"NIGHT_MIST,NIGHT_MIST,NIGHT_MIST,NIGHT_MIST,NIGHT_CLEAR,BRIEF_SHOWERS_POSSIBLE,CLEAR,MIST,MIST,CLEAR","Onshore,Onshore,Onshore,Onshore,Onshore,Onshore,Onshore,Onshore,Onshore,Cross-shore",10
5842041f4e65fad6a7708a05,2024_08_09,40.41754,-73.97935,Sandy Hook,0.6,0.563,0.866,25,25,"NIGHT_DRIZZLE,NIGHT_MIST,NIGHT_MIST,NIGHT_MIST,NIGHT_CLEAR,MIST,CLEAR,CLOUDY,OVERCAST,CLEAR","Onshore,Onshore,Onshore,Onshore,Onshore,Onshore,Onshore,Onshore,Onshore,Cross-shore",10
5842041f4e65fad6a7708a06,2024_08_09,39.36353,-74.40873,Crystals,0.9166666666666666,1.248297,1.576823,18.1,17.1,"NIGHT_MIST,NIGHT_SHOWERS,NIGHT_MIST,NIGHT_MIST,NIGHT_MIST,MIST,MIST,MIST,MIST,MIST","Onshore,Onshore,Onshore,Onshore,Onshore,Onshore,Onshore,Onshore,Onshore,Onshore",10
5842041f4e65fad6a7708a07,2024_08_09,39.31443,-74.51863,32nd Street,1,0.896805,1.24348,18.1,17.1,"NIGHT_BRIEF_SHOWERS,NIGHT_MIST,NIGHT_SHOWERS,NIGHT_MIST,NIGHT_MIST,MIST,MIST,MIST,MIST,CLEAR","Onshore,Onshore,Onshore,Onshore,Onshore,Onshore,Onshore,Onshore,Onshore,Onshore",10
5842041f4e65fad6a7708a08,2024_08_09,39.327688,-74.49524,Margate Pier Northside,1,0.896805,1.24348,18.1,17.1,"NIGHT_BRIEF_SHOWERS,NIGHT_MIST,NIGHT_SHOWERS,NIGHT_MIST,NIGHT_MIST,MIST,MIST,MIST,MIST,CLEAR","Onshore,Onshore,Onshore,Onshore,Onshore,Onshore,Onshore,Onshore,Onshore,Onshore",10
5842041f4e65fad6a7708a09,2024_08_09,39.336276,-74.47782,Ventnor Pier,0.9166666666666666,1.0637,1.449134,18.1,17.1,"NIGHT_BRIEF_SHOWERS,NIGHT_MIST,NIGHT_SHOWERS,NIGHT_MIST,NIGHT_MIST,MIST,MIST,MIST,MIST,CLEAR","Onshore,Onshore,Onshore,Onshore,Onshore,Onshore,Onshore,Onshore,Onshore,Onshore",10
5842041f4e65fad6a7708a0a,2024_08_09,39.35929751441085,-74.41683,States Avenue,0.9,1.248297,1.576823,18.1,17.1,"NIGHT_MIST,NIGHT_MIST,NIGHT_MIST,NIGHT_MIST,NIGHT_MIST,MIST,MIST,MIST,MIST,MOSTLY_CLOUDY","Onshore,Onshore,Onshore,Onshore,Onshore,Onshore,Onshore,Onshore,Onshore,Onshore",10
5842041f4e65fad6a7708a0b,2024_08_09,39.37274173278517,-74.40454,Brigantine Jetty,0.9,1.261292,1.593064,18.1,17.1,"NIGHT_MIST,NIGHT_SHOWERS,NIGHT_MIST,NIGHT_MIST,NIGHT_MIST,MIST,MIST,MIST,MIST,MIST","Onshore,Onshore,Onshore,Onshore,Onshore,Onshore,Onshore,Onshore,Onshore,Onshore",10
5842041f4e65fad6a7708a0c,2024_08_09,39.356505,-74.42263,South Carolina Avenue,0.9,1.261292,1.593064,18.1,17.1,"NIGHT_MIST,NIGHT_MIST,NIGHT_MIST,NIGHT_MIST,NIGHT_MIST,MIST,MIST,MIST,MIST,MOSTLY_CLOUDY","Onshore,Onshore,Onshore,Onshore,Onshore,Onshore,Onshore,Onshore,Onshore,Onshore",10
5842041f4e65fad6a7708a0d,2024_08_09,39.413485,-74.35476,14th Street North,1.2833333333333332,1.1711530000000001,1.472987,18.1,17.1,"NIGHT_MIST,NIGHT_BRIEF_SHOWERS,NIGHT_MIST,NIGHT_MIST,NIGHT_CLEAR,MIST,OVERCAST,CLOUDY,CLEAR,MOSTLY_CLOUDY","Onshore,Onshore,Onshore,Onshore,Onshore,Onshore,Onshore,Onshore,Onshore,Onshore",10
5842041f4e65fad6a7708a0e,2024_08_09,39.531319,-74.263252,The Wooden Jetty,1,1.020758,1.4972079999999999,18.1,17.1,"NIGHT_MIST,NIGHT_MIST,NIGHT_DRIZZLE,NIGHT_MIST,NIGHT_MIST,CLOUDY,MIST,MIST,OVERCAST,CLEAR","Onshore,Onshore,Onshore,Onshore,Onshore,Onshore,Onshore,Onshore,Onshore,Onshore",10
5842041f4e65fad6a7708a0f,2024_08_09,39.552472,-74.24344,Holyoke,1,0.9608140000000001,1.443149,18.1,17.1,"NIGHT_MIST,NIGHT_MIST,NIGHT_DRIZZLE,NIGHT_MIST,NIGHT_MIST,CLOUDY,MIST,MIST,OVERCAST,CLEAR","Onshore,Onshore,Onshore,Onshore,Onshore,Onshore,Onshore,Onshore,Onshore,Onshore",10
5842041f4e65fad6a7708a10,2024_08_09,39.692364,-74.14068,Hudson Ave.,0.9166666666666666,0.945623,1.435243,18.1,17.1,"NIGHT_MIST,NIGHT_MIST,NIGHT_MIST,NIGHT_MIST,NIGHT_MIST,MIST,MIST,MIST,MIST,CLOUDY","Onshore,Onshore,Onshore,Onshore,Onshore,Onshore,Onshore,Onshore,Onshore,Cross-shore",10
5842041f4e65fad6a7708a11,2024_08_09,39.79614,-74.09248,Island Beach State Park,0.65,1.001446,1.330086,20.1,19,"NIGHT_MIST,NIGHT_MIST,NIGHT_MIST,NIGHT_MOSTLY_CLOUDY,NIGHT_MIST,MIST,MOSTLY_CLOUDY,MIST,OVERCAST,CLOUDY","Onshore,Onshore,Onshore,Onshore,Onshore,Onshore,Onshore,Onshore,Onshore,Cross-shore",10
5842041f4e65fad6a7708a12,2024_08_09,39.91813588078152,-74.07527,Seaside Park,0.8333333333333334,0.83854,1.183922,20.1,19,"NIGHT_MIST,NIGHT_MIST,NIGHT_BRIEF_SHOWERS,NIGHT_MIST,NIGHT_MIST,MIST,MOSTLY_CLOUDY,MIST,CLOUDY,OVERCAST","Onshore,Onshore,Onshore,Onshore,Onshore,Onshore,Onshore,Onshore,Onshore,Cross-shore",10
5842041f4e65fad6a7708a15,2024_08_09,39.95745637606704,-74.06736,Ortley Beach,0.6666666666666667,0.626082,0.956928,22,21,"NIGHT_MIST,NIGHT_MIST,NIGHT_MIST,NIGHT_MIST,NIGHT_MIST,MIST,MOSTLY_CLOUDY,DRIZZLE,MIST,DRIZZLE","Onshore,Onshore,Onshore,Onshore,Onshore,Onshore,Onshore,Onshore,Onshore,Cross-shore",10
5842041f4e65fad6a7708a16,2024_08_09,39.98313468342945,-74.06265685577506,Lavallette,0.6666666666666667,0.897613,1.265433,22,21,"NIGHT_MIST,NIGHT_MIST,NIGHT_MIST,NIGHT_MIST,NIGHT_DRIZZLE,DRIZZLE,MOSTLY_CLOUDY,MIST,CLOUDY,OVERCAST","Onshore,Onshore,Onshore,Onshore,Onshore,Onshore,Onshore,Onshore,Onshore,Cross-shore",10
5842041f4e65fad6a7708a17,2024_08_09,40.0699319967757,-74.04145,Bay Head,0.6666666666666667,0.884947,1.249933,22,21,"NIGHT_MIST,NIGHT_MIST,NIGHT_MIST,NIGHT_MIST,NIGHT_MIST,MIST,OVERCAST,LIGHT_RAIN,MIST,CLOUDY","Onshore,Onshore,Onshore,Onshore,Onshore,Onshore,Onshore,Onshore,Onshore,Cross-shore",10
5842041f4e65fad6a7708a18,2024_08_09,40.094041,-74.034859,Jenkinson's,0.8666666666666667,0.90878,1.273767,22,21,"NIGHT_CLEAR,NIGHT_CLEAR,NIGHT_MIST,NIGHT_MOSTLY_CLOUDY,NIGHT_LIGHT_SHOWERS_POSSIBLE,MIST,OVERCAST,CLEAR,CLEAR,CLEAR","Onshore,Onshore,Onshore,Onshore,Onshore,Onshore,Onshore,Onshore,Onshore,Cross-shore",10
5842041f4e65fad6a7708a1a,2024_08_09,38.148058,-75.17704,Assateague,0.7333333333333334,1.33232,1.638653,19,18,"NIGHT_MOSTLY_CLOUDY,NIGHT_MIST,NIGHT_MIST,NIGHT_MIST,NIGHT_MIST,MIST,MIST,MIST,MIST,MIST","Onshore,Onshore,Onshore,Onshore,Onshore,Onshore,Onshore,Onshore,Onshore,Onshore",10
5842041f4e65fad6a7708a1b,2024_08_09,38.33889038664497,-75.08017670566352,North End to Ocean City Inlet,0.9166666666666666,1.38832,1.693653,19,18,"NIGHT_CLOUDY,NIGHT_SHOWERS,NIGHT_MIST,NIGHT_MIST,NIGHT_MIST,MIST,MIST,MIST,CLOUDY,CLEAR","Cross-shore,Cross-shore,Cross-shore,Cross-shore,Cross-shore,Cross-shore,Cross-shore,Cross-shore,Cross-shore,Cross-shore",10
5842041f4e65fad6a7708a1c,2024_08_09,38.603993,-75.06271,Indian River Inlet,0.6,1.271006,1.629918,23,23,"NIGHT_MIST,NIGHT_MIST,NIGHT_MIST,NIGHT_MIST,NIGHT_MIST,MIST,MIST,MIST,CLOUDY,MOSTLY_CLOUDY","Onshore,Onshore,Onshore,Onshore,Onshore,Onshore,Onshore,Onshore,Onshore,Cross-shore",10
5842041f4e65fad6a7708a1d,2024_08_09,38.460477,-75.05207,Fenwick Island,0.2,0.987,1.295,22.5,22.5,"NIGHT_CLEAR,NIGHT_MOSTLY_CLOUDY,NIGHT_CLEAR,NIGHT_CLEAR,NIGHT_CLEAR,BRIEF_SHOWERS,CLEAR,CLEAR,CLEAR,MOSTLY_CLOUDY","Cross-shore,Cross-shore,Cross-shore,Cross-shore,Cross-shore,Cross-shore,Cross-shore,Cross-shore,Cross-shore,Offshore",10
5842041f4e65fad6a7708a1e,2024_08_09,38.538767,-75.05619,Bethany Beach,0.3,1.26187,1.618205,23,23,"NIGHT_MIST,NIGHT_MIST,NIGHT_MIST,NIGHT_MIST,NIGHT_MIST,MIST,MIST,MIST,MIST,MOSTLY_CLOUDY","Onshore,Onshore,Onshore,Onshore,Onshore,Onshore,Onshore,Onshore,Onshore,Cross-shore",10
5842041f4e65fad6a7708a1f,2024_08_09,38.697657,-75.07595,Dewey Beach,0.3,1.054,1.289,23,23,"NIGHT_MIST,NIGHT_BRIEF_SHOWERS,NIGHT_MIST,NIGHT_MIST,NIGHT_CLEAR,CLEAR,MIST,CLEAR,CLEAR,MOSTLY_CLOUDY","Cross-shore,Cross-shore,Cross-shore,Cross-shore,Cross-shore,Cross-shore,Cross-shore,Cross-shore,Cross-shore,Cross-shore",10
5842041f4e65fad6a7708a20,2024_08_09,38.75034741676525,-75.08194,Gordons Pond,0.2,0.879293,1.275555,23,23,"NIGHT_MIST,NIGHT_MIST,NIGHT_MIST,NIGHT_MIST,NIGHT_MIST,MIST,MIST,MIST,MIST,MOSTLY_CLOUDY","Onshore,Onshore,Onshore,Onshore,Onshore,Onshore,Onshore,Onshore,Onshore,Cross-shore",10
5842041f4e65fad6a7708a21,2024_08_09,38.767837,-75.08284,Naval Jetties,0.3,1.035,1.329,23,23,"NIGHT_MIST,NIGHT_MIST,NIGHT_MIST,NIGHT_MIST,NIGHT_MIST,MIST,MIST,MIST,MIST,MOSTLY_CLOUDY","Cross-shore,Cross-shore,Cross-shore,Cross-shore,Cross-shore,Cross-shore,Cross-shore,Cross-shore,Cross-shore,Offshore",10
5842041f4e65fad6a7708a22,2024_08_09,36.81735875786576,-75.96624,Camp Pendleton,1.3333333333333333,0.814002,1.174135,23.3,21.5,"NIGHT_LIGHT_SHOWERS_POSSIBLE,NIGHT_CLEAR,NIGHT_CLEAR,NIGHT_CLEAR,NIGHT_CLEAR,CLEAR,CLEAR,CLEAR,CLEAR,MOSTLY_CLOUDY","Onshore,Cross-shore,Cross-shore,Cross-shore,Cross-shore,Cross-shore,Cross-shore,Cross-shore,Cross-shore,Cross-shore",10
5842041f4e65fad6a7708a23,2024_08_09,36.9102212316428,-75.98732471466064,North End,1.125,0.695227,1.050313,23.3,21.5,"NIGHT_LIGHT_SHOWERS_POSSIBLE,NIGHT_CLEAR,NIGHT_CLEAR,NIGHT_CLEAR,NIGHT_CLEAR,CLEAR,CLEAR,CLEAR,CLEAR,CLEAR","Cross-shore,Cross-shore,Cross-shore,Cross-shore,Cross-shore,Cross-shore,Cross-shore,Cross-shore,Cross-shore,Cross-shore",10
5842041f4e65fad6a7708a24,2024_08_09,36.737117517621314,-75.93924,Sandbridge Beach,0.5666666666666667,0.8596600000000001,1.2284469999999998,23.3,21.5,"NIGHT_CLEAR,NIGHT_CLEAR,NIGHT_CLEAR,NIGHT_CLEAR,NIGHT_CLEAR,CLEAR,CLEAR,CLEAR,CLEAR,MOSTLY_CLOUDY","Cross-shore,Cross-shore,Cross-shore,Cross-shore,Cross-shore,Cross-shore,Cross-shore,Cross-shore,Cross-shore,Cross-shore",10
5842041f4e65fad6a7708a26,2024_08_09,36.818257440557794,-75.96666,Croatan to Pendleton,1.3333333333333333,0.742163,1.140783,23.3,21.5,"NIGHT_LIGHT_SHOWERS_POSSIBLE,NIGHT_CLEAR,NIGHT_CLEAR,NIGHT_CLEAR,NIGHT_CLEAR,CLEAR,CLEAR,CLEAR,CLEAR,MOSTLY_CLOUDY","Onshore,Cross-shore,Onshore,Cross-shore,Cross-shore,Cross-shore,Cross-shore,Cross-shore,Cross-shore,Cross-shore",10
5842041f4e65fad6a7708a27,2024_08_09,36.84318777204769,-75.9719,South End,0.6666666666666667,0.8563930000000001,1.215813,23.3,21.5,"NIGHT_BRIEF_SHOWERS_POSSIBLE,NIGHT_CLEAR,NIGHT_BRIEF_SHOWERS_POSSIBLE,NIGHT_CLEAR,NIGHT_CLEAR,CLEAR,CLEAR,CLEAR,CLEAR,CLEAR","Onshore,Cross-shore,Onshore,Cross-shore,Cross-shore,Cross-shore,Cross-shore,Cross-shore,Cross-shore,Cross-shore",10
5842041f4e65fad6a7708a28,2024_08_09,37.08612627584661,-75.976121638199,Fishermans Island,0.1,0.496,0.61,25,25,"NIGHT_SHOWERS,NIGHT_MIST,NIGHT_MOSTLY_CLOUDY,NIGHT_MOSTLY_CLOUDY,NIGHT_CLEAR,CLEAR,MOSTLY_CLEAR,CLEAR,CLEAR,CLEAR","Onshore,Onshore,Onshore,Onshore,Onshore,Onshore,Onshore,Onshore,Onshore,Onshore",10
5842041f4e65fad6a7708a38,2024_08_09,35.254619418229026,-75.52074,Cape Hatteras Lighthouse,0.5,1.355831,1.818404,27,25,"NIGHT_CLEAR,NIGHT_MOSTLY_CLOUDY,NIGHT_MOSTLY_CLOUDY,NIGHT_CLOUDY,NIGHT_CLEAR,CLEAR,CLEAR,CLEAR,MOSTLY_CLOUDY,CLEAR","Onshore,Onshore,Onshore,Onshore,Onshore,Onshore,Onshore,Onshore,Onshore,Cross-shore",10
5842041f4e65fad6a7708a3a,2024_08_09,35.54572934093336,-75.46477,Waves and Salvo,0.25,1.591347,1.9301599999999999,25.9,23.1,"NIGHT_CLOUDY,NIGHT_CLEAR,NIGHT_CLEAR,NIGHT_MOSTLY_CLOUDY,NIGHT_CLEAR,CLEAR,CLEAR,CLEAR,MOSTLY_CLOUDY,CLEAR","Onshore,Onshore,Onshore,Onshore,Onshore,Onshore,Onshore,Onshore,Onshore,Cross-shore",10
5842041f4e65fad6a7708a3b,2024_08_09,35.22565892751075,-75.63606,Frisco,0.08333333333333333,1.493533,1.914333,28,27,"NIGHT_CLEAR,NIGHT_MOSTLY_CLOUDY,NIGHT_CLOUDY,NIGHT_OVERCAST,NIGHT_CLEAR,CLEAR,CLEAR,CLEAR,CLEAR,CLEAR","Onshore,Onshore,Onshore,Onshore,Onshore,Onshore,Onshore,Onshore,Onshore,Onshore",10
5842041f4e65fad6a7708a3c,2024_08_09,35.13086,-75.90591,Ocracoke,0.1,1.887129,2.247817,27,27,"NIGHT_OVERCAST,NIGHT_MOSTLY_CLOUDY,NIGHT_DRIZZLE,NIGHT_CLOUDY,NIGHT_CLEAR,CLEAR,CLEAR,CLEAR,CLEAR,CLEAR","Onshore,Onshore,Onshore,Onshore,Onshore,Onshore,Onshore,Onshore,Onshore,Onshore",10
5842041f4e65fad6a7708a3d,2024_08_09,35.34721340158342,-75.50084,Avon Pier,0.33333333333333337,1.472971,1.930068,26.9,24,"NIGHT_CLEAR,NIGHT_CLEAR,NIGHT_CLEAR,NIGHT_CLEAR,NIGHT_CLEAR,CLEAR,CLEAR,CLEAR,CLEAR,CLEAR","Onshore,Onshore,Onshore,Onshore,Onshore,Onshore,Onshore,Onshore,Onshore,Cross-shore",10
5842041f4e65fad6a7708a3f,2024_08_09,35.71680821253768,-75.49243,Pea Island,1.3,0.9329999999999999,1.236,26,26,"NIGHT_CLEAR,NIGHT_CLEAR,NIGHT_CLEAR,NIGHT_CLEAR,NIGHT_CLEAR,CLEAR,CLEAR,CLEAR,CLEAR,CLEAR","Cross-shore,Offshore,Offshore,Offshore,Offshore,Offshore,Offshore,Offshore,Offshore,Offshore",10
5842041f4e65fad6a7708a40,2024_08_09,35.97427620657821,-75.62984,Nags Head Pier,1.4833333333333334,0.681899,1.028188,21,19,"NIGHT_CLEAR,NIGHT_CLEAR,NIGHT_CLEAR,NIGHT_BRIEF_SHOWERS_POSSIBLE,NIGHT_CLEAR,CLEAR,CLEAR,CLEAR,CLEAR,CLEAR","Offshore,Offshore,Offshore,Offshore,Offshore,Offshore,Offshore,Offshore,Offshore,Offshore",10
5842041f4e65fad6a7708a41,2024_08_09,36.0439998039079,-75.67288,Avalon Pier,2.0666666666666664,0.862347,1.178507,21,19,"NIGHT_CLEAR,NIGHT_MOSTLY_CLOUDY,NIGHT_CLEAR,NIGHT_CLEAR,NIGHT_CLEAR,CLEAR,CLEAR,CLEAR,CLEAR,CLEAR","Offshore,Offshore,Offshore,Offshore,Offshore,Offshore,Offshore,Offshore,Offshore,Offshore",10
5842041f4e65fad6a7708a42,2024_08_09,36.03043116489792,-75.66413,First Street,1.0333333333333332,0.929171,1.248719,21,19,"NIGHT_CLEAR,NIGHT_MOSTLY_CLOUDY,NIGHT_CLEAR,NIGHT_CLEAR,NIGHT_CLEAR,CLEAR,CLEAR,CLEAR,CLEAR,CLEAR","Offshore,Offshore,Offshore,Offshore,Offshore,Offshore,Offshore,Offshore,Offshore,Offshore",10
5842041f4e65fad6a7708a43,2024_08_09,36.06829910590498,-75.6899,Old Station/Laundromats,0.35000000000000003,0.9553470000000001,1.273507,21,19,"NIGHT_CLEAR,NIGHT_CLEAR,NIGHT_BRIEF_SHOWERS_POSSIBLE,NIGHT_CLEAR,NIGHT_CLEAR,CLEAR,CLEAR,CLEAR,CLEAR,CLEAR","Cross-shore,Cross-shore,Cross-shore,Cross-shore,Cross-shore,Cross-shore,Cross-shore,Cross-shore,Cross-shore,Offshore",10
5842041f4e65fad6a7708a44,2024_08_09,36.10126676607491,-75.71107,Kitty Hawk Pier,1.1,0.9466709999999999,1.335873,21,19,"NIGHT_CLEAR,NIGHT_CLEAR,NIGHT_CLEAR,NIGHT_CLEAR,NIGHT_CLEAR,CLEAR,CLEAR,CLEAR,CLEAR,CLEAR","Cross-shore,Cross-shore,Cross-shore,Cross-shore,Cross-shore,Cross-shore,Cross-shore,Cross-shore,Cross-shore,Offshore",10
5842041f4e65fad6a7708a45,2024_08_09,36.18220630068973,-75.75013580649097,Duck Pier,0.35000000000000003,0.650667,0.9643269999999999,22.6,20.7,"NIGHT_MOSTLY_CLOUDY,NIGHT_MOSTLY_CLOUDY,NIGHT_MOSTLY_CLOUDY,NIGHT_MOSTLY_CLOUDY,NIGHT_CLEAR,CLEAR,CLEAR,CLOUDY,MOSTLY_CLOUDY,CLEAR","Cross-shore,Cross-shore,Cross-shore,Cross-shore,Cross-shore,Cross-shore,Cross-shore,Cross-shore,Cross-shore,Offshore",10
5842041f4e65fad6a7708a46,2024_08_09,36.37660668125033,-75.82409701687456,Corolla,0.35000000000000003,0.795333,1.108993,22.6,20.7,"NIGHT_MOSTLY_CLOUDY,NIGHT_CLEAR,NIGHT_CLEAR,NIGHT_DRIZZLE,NIGHT_CLEAR,CLEAR,CLEAR,CLEAR,MOSTLY_CLOUDY,BRIEF_SHOWERS_POSSIBLE","Cross-shore,Cross-shore,Cross-shore,Cross-shore,Cross-shore,Cross-shore,Cross-shore,Cross-shore,Cross-shore,Cross-shore",10
5842041f4e65fad6a7708a47,2024_08_09,33.90373404124834,-78.08241431707907,Oak Island,1,1.038,1.277,27,27,"NIGHT_CLEAR,NIGHT_CLEAR,NIGHT_CLEAR,NIGHT_CLEAR,NIGHT_HEAVY_SHOWERS,MOSTLY_CLOUDY,MOSTLY_CLOUDY,MOSTLY_CLEAR,CLEAR,CLOUDY","Onshore,Onshore,Onshore,Onshore,Onshore,Onshore,Onshore,Onshore,Onshore,Onshore",10
5842041f4e65fad6a7708a48,2024_08_09,33.91108837766468,-78.29653,South Brunswick Beaches,1.1,1.150237,1.541753,27,27,"NIGHT_CLEAR,NIGHT_CLEAR,NIGHT_CLEAR,NIGHT_MOSTLY_CLEAR,NIGHT_LIGHT_SHOWERS_POSSIBLE,CLEAR,MOSTLY_CLEAR,CLEAR,CLEAR,CLOUDY","Onshore,Onshore,Onshore,Onshore,Onshore,Onshore,Onshore,Onshore,Onshore,Onshore",10
5842041f4e65fad6a7708a49,2024_08_09,34.05683595651973,-77.88128,Carolina Beach Pier,1.3833333333333333,0.731233,1.215393,27,27,"NIGHT_CLOUDY,NIGHT_CLEAR,NIGHT_MOSTLY_CLEAR,NIGHT_CLEAR,NIGHT_HEAVY_SHOWERS,MOSTLY_CLOUDY,MOSTLY_CLEAR,MOSTLY_CLOUDY,CLEAR,CLOUDY","Cross-shore,Cross-shore,Cross-shore,Cross-shore,Cross-shore,Offshore,Cross-shore,Cross-shore,Onshore,Cross-shore",10
5842041f4e65fad6a7708a4a,2024_08_09,33.96841191816696,-77.9180242565498,Fort Fisher,1.4333333333333333,0.785167,1.2204599999999999,27,27,"NIGHT_CLOUDY,NIGHT_MOSTLY_CLEAR,NIGHT_CLEAR,NIGHT_CLEAR,NIGHT_MOSTLY_CLOUDY,MOSTLY_CLOUDY,CLEAR,MOSTLY_CLOUDY,CLEAR,CLEAR","Cross-shore,Cross-shore,Cross-shore,Cross-shore,Cross-shore,Cross-shore,Cross-shore,Cross-shore,Cross-shore,Cross-shore",10
