_id,date,lat,lon,name,daily_mean_swell_rating,daily_mean_wave_height_min,daily_mean_wave_height_max,daily_mean_water_temperature_max,daily_mean_water_temperature_min,weather_per_timestamp,wind_per_timestamp,n_samples_per_day
5842041f4e65fad6a77087f9,2024_02_18,37.741668,-122.51038,South Ocean Beach,2.2916666666666665,3.5660611111111113,4.834022222222222,14,14,"MOSTLY_CLOUDY,BRIEF_SHOWERS,NIGHT_MIST,NIGHT_MIST,NIGHT_MIST,MOSTLY_CLOUDY,MIST,CLEAR,CLEAR,CLEAR,MIST,MOSTLY_CLOUDY","Offshore,Offshore,Cross-shore,Offshore,Offshore,Offshore,Offshore,Offshore,Offshore,Offshore,Offshore,Cross-shore",12
5842041f4e65fad6a7708801,2024_02_18,37.49142,-122.50428,Maverick's,NA,4.345916666666667,5.570597222222222,13,13,"SHOWERS,MOSTLY_CLOUDY,NIGHT_MIST,NIGHT_MIST,NIGHT_MOSTLY_CLOUDY,MOSTLY_CLOUDY,CLEAR,CLEAR,CLEAR,MOSTLY_CLEAR,MOSTLY_CLOUDY,MOSTLY_CLOUDY","Onshore,Onshore,Onshore,Onshore,Onshore,Onshore,Onshore,Onshore,Onshore,Onshore,Onshore,Onshore",12
5842041f4e65fad6a7708804,2024_02_18,44.997,-124.018,Roads End,2.5833333333333335,2.9091666666666667,3.47,11,11,"LIGHT_RAIN,LIGHT_SHOWERS_POSSIBLE,NIGHT_LIGHT_RAIN,NIGHT_CLOUDY,NIGHT_DRIZZLE,NIGHT_MIST,OVERCAST,OVERCAST,MOSTLY_CLOUDY,CLEAR,MOSTLY_CLOUDY,CLEAR","Offshore,Offshore,Offshore,Offshore,Cross-shore,Onshore,Cross-shore,Cross-shore,Cross-shore,Cross-shore,Cross-shore,Cross-shore",12
5842041f4e65fad6a7708805,2024_02_18,36.95188851423011,-122.02522,Steamer Lane,2.069166666666667,2.4440805555555554,3.0570472222222222,14,14,"LIGHT_RAIN,MIST,NIGHT_FOG,NIGHT_FOG,NIGHT_CLEAR,CLEAR,CLEAR,CLEAR,CLEAR,CLEAR,MOSTLY_CLOUDY,MOSTLY_CLOUDY","Onshore,Onshore,Onshore,Onshore,Onshore,Offshore,Onshore,Onshore,Cross-shore,Onshore,Onshore,Onshore",12
5842041f4e65fad6a7708806,2024_02_18,36.95918781542251,-122.02489,Cowells,1.7775,0.5455555555555556,0.8477972222222222,14,14,"LIGHT_RAIN,MIST,NIGHT_FOG,NIGHT_LIGHT_RAIN_AND_FOG,NIGHT_CLEAR,CLEAR,CLEAR,CLEAR,CLEAR,CLEAR,MOSTLY_CLOUDY,MOSTLY_CLOUDY","Onshore,Onshore,Cross-shore,Cross-shore,Onshore,Cross-shore,Onshore,Onshore,Onshore,Onshore,Onshore,Cross-shore",12
5842041f4e65fad6a7708807,2024_02_18,36.95468082526536,-121.97234,Pleasure Point,2.388333333333333,2.553802777777778,3.1882277777777777,14,14,"RAIN,LIGHT_RAIN,NIGHT_FOG,NIGHT_FOG,NIGHT_CLEAR,CLEAR,CLEAR,CLEAR,CLEAR,CLEAR,MOSTLY_CLEAR,CLEAR","Onshore,Onshore,Onshore,Onshore,Cross-shore,Onshore,Onshore,Onshore,Onshore,Onshore,Onshore,Onshore",12
5842041f4e65fad6a770880a,2024_02_18,35.37815414378748,-120.86589,Morro Bay,2.555833333333333,2.7371333333333334,3.7201500000000003,14,14,"RAIN,RAIN,NIGHT_MOSTLY_CLOUDY,NIGHT_MOSTLY_CLOUDY,NIGHT_CLEAR,CLEAR,CLEAR,CLEAR,CLEAR,MOSTLY_CLEAR,MOSTLY_CLEAR,MOSTLY_CLOUDY","Offshore,Offshore,Offshore,Offshore,Offshore,Offshore,Offshore,Offshore,Offshore,Offshore,Offshore,Offshore",12
5842041f4e65fad6a770880b,2024_02_18,36.95782765000708,-121.9672887511276,Jack's,1.7775,0.7270333333333333,1.023163888888889,14,14,"RAIN,LIGHT_RAIN,NIGHT_FOG,NIGHT_FOG,NIGHT_CLEAR,CLEAR,CLEAR,CLEAR,CLEAR,CLEAR,MOSTLY_CLEAR,CLEAR","Onshore,Onshore,Cross-shore,Onshore,Onshore,Onshore,Onshore,Onshore,Onshore,Onshore,Onshore,Cross-shore",12
5842041f4e65fad6a770880d,2024_02_18,34.29982939936656,-119.3489016603669,Gold Coast Beachbreaks,3,0.9141666666666667,1.1391666666666667,15,15,"MOSTLY_CLEAR,MOSTLY_CLEAR,NIGHT_MOSTLY_CLOUDY,NIGHT_FOG,NIGHT_FOG,LIGHT_RAIN_AND_FOG,CLEAR,CLEAR,CLEAR,CLEAR,CLEAR,CLEAR","Onshore,Cross-shore,Offshore,Cross-shore,Cross-shore,Cross-shore,Cross-shore,Cross-shore,Cross-shore,Cross-shore,Cross-shore,Cross-shore",12
5842041f4e65fad6a7708811,2024_02_18,34.245076,-119.26799,Ventura Harbor,3,2.4434690277777777,3.213508263888889,14,14,"MOSTLY_CLEAR,CLEAR,NIGHT_MOSTLY_CLOUDY,NIGHT_FOG,NIGHT_FOG,MIST,CLEAR,CLEAR,MOSTLY_CLOUDY,MOSTLY_CLOUDY,MOSTLY_CLOUDY,MOSTLY_CLOUDY","Onshore,Onshore,Offshore,Cross-shore,Offshore,Offshore,Offshore,Offshore,Onshore,Onshore,Onshore,Offshore",12
5842041f4e65fad6a7708813,2024_02_18,34.051,-118.964,County Line,3.2225,1.1791972222222222,1.5995222222222223,15,15,"MOSTLY_CLOUDY,MOSTLY_CLOUDY,NIGHT_BRIEF_SHOWERS,NIGHT_FOG,NIGHT_FOG,FOG,MOSTLY_CLOUDY,MOSTLY_CLOUDY,MOSTLY_CLOUDY,BRIEF_SHOWERS,MOSTLY_CLOUDY,MOSTLY_CLOUDY","Onshore,Onshore,Offshore,Offshore,Offshore,Offshore,Offshore,Cross-shore,Offshore,Offshore,Cross-shore,Offshore",12
5842041f4e65fad6a7708814,2024_02_18,34.37256264378892,-119.47797,Rincon,3.3333333333333335,2.2641666666666667,2.7066666666666666,14.333333333333334,14.333333333333334,"MOSTLY_CLEAR,CLEAR,NIGHT_MOSTLY_CLOUDY,NIGHT_SHOWERS,NIGHT_MOSTLY_CLOUDY,OVERCAST,CLEAR,CLEAR,CLEAR,MOSTLY_CLOUDY,MOSTLY_CLEAR,MOSTLY_CLEAR","Cross-shore,Cross-shore,Cross-shore,Cross-shore,Cross-shore,Cross-shore,Cross-shore,Cross-shore,Cross-shore,Onshore,Onshore,Onshore",12
5842041f4e65fad6a7708817,2024_02_18,34.03096101876324,-118.68109,Malibu Third Point,2.8333333333333335,0.5158333333333334,0.8108333333333333,15,15,"MOSTLY_CLOUDY,MOSTLY_CLOUDY,NIGHT_FOG,NIGHT_FOG,NIGHT_FOG,MIST,MIST,MIST,MIST,MIST,BRIEF_SHOWERS,MIST","Cross-shore,Cross-shore,Onshore,Onshore,Onshore,Onshore,Onshore,Onshore,Onshore,Onshore,Onshore,Onshore",12
5842041f4e65fad6a7708819,2024_02_18,33.984079047970035,-118.47381591796875,Venice Beach,3.305833333333333,1.7970083333333333,2.293841666666667,14,14,"MOSTLY_CLOUDY,MOSTLY_CLOUDY,NIGHT_FOG,NIGHT_FOG,NIGHT_MIST,MIST,CLEAR,MOSTLY_CLOUDY,MIST,MIST,MIST,MIST","Onshore,Onshore,Onshore,Offshore,Offshore,Offshore,Offshore,Offshore,Offshore,Offshore,Onshore,Onshore",12
5842041f4e65fad6a770881e,2024_02_18,34.037508438646746,-118.58339846155594,Topanga Beach,3.75,1.2963333333333333,1.5775083333333333,15,15,"MIST,MIST,NIGHT_FOG,NIGHT_FOG,NIGHT_MIST,MIST,MIST,BRIEF_SHOWERS,MIST,MIST,MIST,MIST","Onshore,Onshore,Offshore,Offshore,Offshore,Offshore,Offshore,Cross-shore,Cross-shore,Cross-shore,Onshore,Onshore",12
5842041f4e65fad6a7708820,2024_02_18,33.73954373690184,-118.11414,Seal Beach Jetty,2.8333333333333335,1.1775,1.4616666666666667,15,15,"DRIZZLE,OVERCAST,NIGHT_FOG,NIGHT_FOG,NIGHT_FOG,FOG,MIST,MOSTLY_CLOUDY,BRIEF_SHOWERS,BRIEF_SHOWERS,BRIEF_SHOWERS,BRIEF_SHOWERS_POSSIBLE","Onshore,Onshore,Cross-shore,Cross-shore,Offshore,Offshore,Offshore,Cross-shore,Onshore,Onshore,Onshore,Onshore",12
5842041f4e65fad6a7708822,2024_02_18,33.72309983348433,-118.08078,Anderson Street,2.9166666666666665,1.725,2.069166666666667,15,15,"OVERCAST,DRIZZLE,NIGHT_FOG,NIGHT_FOG,NIGHT_FOG,FOG,OVERCAST,MOSTLY_CLOUDY,MIST,MIST,MIST,MOSTLY_CLEAR","Onshore,Onshore,Offshore,Cross-shore,Offshore,Offshore,Offshore,Offshore,Onshore,Onshore,Onshore,Onshore",12
5842041f4e65fad6a7708827,2024_02_18,33.65574085629463,-118.00397,Huntington Beach Pier Northside,3.305833333333333,1.8816805555555554,2.683397222222222,14,14,"OVERCAST,DRIZZLE,NIGHT_MOSTLY_CLOUDY,NIGHT_MOSTLY_CLOUDY,NIGHT_FOG,FOG,MIST,MIST,MIST,MIST,MIST,MOSTLY_CLOUDY","Onshore,Onshore,Offshore,Cross-shore,Offshore,Offshore,Offshore,Offshore,Cross-shore,Cross-shore,Onshore,Cross-shore",12
5842041f4e65fad6a7708828,2024_02_18,34.272041739333,-119.2997646331,C St.,3.375,1.8495916666666667,2.4968444444444446,14,14,"MOSTLY_CLEAR,CLEAR,NIGHT_BRIEF_SHOWERS,NIGHT_FOG,NIGHT_MIST,OVERCAST,CLEAR,CLEAR,CLEAR,CLEAR,MOSTLY_CLOUDY,MOSTLY_CLOUDY","Onshore,Onshore,Offshore,Offshore,Offshore,Offshore,Offshore,Offshore,Onshore,Onshore,Onshore,Onshore",12
5842041f4e65fad6a770882a,2024_02_18,33.61555743705257,-117.93676,Newport Lower Jetties,3.4025,1.5472166666666667,2.0243333333333333,15,15,"OVERCAST,OVERCAST,NIGHT_FOG,NIGHT_MOSTLY_CLOUDY,NIGHT_FOG,FOG,MIST,MIST,MIST,MIST,CLEAR,CLEAR","Onshore,Onshore,Offshore,Cross-shore,Offshore,Offshore,Offshore,Cross-shore,Onshore,Onshore,Onshore,Onshore",12
5842041f4e65fad6a770882b,2024_02_18,33.5930302087,-117.88199,The Wedge,2.8333333333333335,1.0808708333333334,1.44901,15,15,"OVERCAST,OVERCAST,NIGHT_FOG,NIGHT_MOSTLY_CLOUDY,NIGHT_FOG,FOG,MIST,CLEAR,MOSTLY_CLOUDY,MOSTLY_CLOUDY,MOSTLY_CLOUDY,MOSTLY_CLOUDY","Onshore,Onshore,Offshore,Cross-shore,Offshore,Offshore,Offshore,Onshore,Cross-shore,Onshore,Onshore,Onshore",12
5842041f4e65fad6a770882c,2024_02_18,33.60577342582,-117.9315376281,Newport Beach Pier,3,1.301236111111111,1.6222277777777778,15,15,"CLOUDY,CLOUDY,NIGHT_FOG,NIGHT_MOSTLY_CLOUDY,NIGHT_MOSTLY_CLOUDY,FOG,MIST,MIST,MIST,MIST,MOSTLY_CLOUDY,CLEAR","Cross-shore,Cross-shore,Offshore,Onshore,Onshore,Onshore,Cross-shore,Cross-shore,Onshore,Onshore,Onshore,Onshore",12
5842041f4e65fad6a770882e,2024_02_18,33.475793399792984,-117.72291,Salt Creek,3.5,1.5858694444444446,2.25395,14,14,"MOSTLY_CLOUDY,MOSTLY_CLOUDY,NIGHT_MOSTLY_CLOUDY,NIGHT_FOG,NIGHT_CLEAR,CLEAR,MIST,CLEAR,CLEAR,MOSTLY_CLEAR,CLEAR,MOSTLY_CLOUDY","Onshore,Onshore,Offshore,Offshore,Offshore,Offshore,Offshore,Offshore,Offshore,Cross-shore,Cross-shore,Onshore",12
5842041f4e65fad6a7708830,2024_02_18,33.41800974113613,-117.61952,T-Street,3.694166666666667,1.29295,1.8589111111111112,14,14,"MOSTLY_CLOUDY,MOSTLY_CLOUDY,NIGHT_MOSTLY_CLOUDY,NIGHT_CLEAR,NIGHT_CLEAR,CLEAR,MOSTLY_CLOUDY,CLEAR,CLEAR,MOSTLY_CLEAR,CLEAR,MOSTLY_CLOUDY","Onshore,Cross-shore,Offshore,Offshore,Cross-shore,Onshore,Offshore,Cross-shore,Onshore,Onshore,Onshore,Onshore",12
5842041f4e65fad6a7708832,2024_02_18,33.202391008646,-117.39475,Oceanside Harbor,3.1525,1.6839111111111111,2.3003,15,15,"CLEAR,CLEAR,NIGHT_FOG,NIGHT_FOG,NIGHT_CLEAR,CLEAR,CLEAR,MOSTLY_CLOUDY,MOSTLY_CLEAR,MOSTLY_CLEAR,MOSTLY_CLEAR,CLEAR","Onshore,Onshore,Offshore,Offshore,Offshore,Offshore,Offshore,Offshore,Offshore,Offshore,Onshore,Onshore",12
5842041f4e65fad6a7708835,2024_02_18,33.19477795952803,-117.38667,Oceanside Pier,3,1.6204277777777778,2.1328694444444443,15,15,"OVERCAST,CLOUDY,NIGHT_FOG,NIGHT_FOG,NIGHT_MOSTLY_CLEAR,CLEAR,MOSTLY_CLOUDY,CLEAR,CLEAR,CLEAR,MOSTLY_CLEAR,MOSTLY_CLEAR","Onshore,Onshore,Cross-shore,Offshore,Offshore,Offshore,Offshore,Offshore,Offshore,Cross-shore,Onshore,Onshore",12
5842041f4e65fad6a7708837,2024_02_18,33.14948100706,-117.35029,Tamarack,2.8333333333333335,0.9375,1.1716666666666666,15,15,"CLEAR,CLEAR,NIGHT_FOG,NIGHT_MOSTLY_CLOUDY,NIGHT_CLEAR,CLEAR,CLEAR,CLEAR,CLEAR,CLEAR,CLEAR,CLEAR","Onshore,Onshore,Offshore,Offshore,Offshore,Offshore,Offshore,Offshore,Offshore,Offshore,Onshore,Onshore",12
5842041f4e65fad6a7708839,2024_02_18,32.865777159358856,-117.25614295356122,Scripps,3,1.4348694444444445,2.0946694444444445,14,14,"CLEAR,CLOUDY,NIGHT_FOG,NIGHT_CLEAR,NIGHT_MOSTLY_CLEAR,MOSTLY_CLEAR,CLEAR,CLEAR,CLEAR,CLEAR,CLEAR,CLEAR","Onshore,Onshore,Cross-shore,Offshore,Offshore,Offshore,Offshore,Offshore,Cross-shore,Onshore,Onshore,Onshore",12
5842041f4e65fad6a770883a,2024_02_18,32.813094,-117.27381,Birdrock,3.5,2.2625,2.711666666666667,15,15,"CLOUDY,CLOUDY,NIGHT_MOSTLY_CLOUDY,NIGHT_FOG,NIGHT_MIST,FOG,MOSTLY_CLEAR,CLEAR,CLEAR,CLEAR,CLEAR,CLEAR","Onshore,Cross-shore,Offshore,Offshore,Cross-shore,Offshore,Offshore,Offshore,Cross-shore,Onshore,Onshore,Onshore",12
5842041f4e65fad6a770883b,2024_02_18,32.877231,-117.25303,Blacks,4.195,1.8846,2.741827777777778,14,14,"CLEAR,CLOUDY,NIGHT_FOG,NIGHT_CLEAR,NIGHT_MOSTLY_CLEAR,MOSTLY_CLEAR,CLEAR,CLEAR,CLEAR,CLEAR,CLEAR,CLEAR","Onshore,Onshore,Onshore,Cross-shore,Offshore,Offshore,Onshore,Onshore,Onshore,Onshore,Onshore,Onshore",12
5842041f4e65fad6a770883c,2024_02_18,32.82978974229765,-117.28161740727381,Windansea,3.7358333333333333,1.7893916666666667,2.2673833333333335,14,14,"CLOUDY,CLOUDY,NIGHT_FOG,NIGHT_MIST,NIGHT_CLEAR,MIST,CLEAR,CLEAR,CLEAR,CLEAR,CLEAR,CLEAR","Onshore,Onshore,Offshore,Offshore,Offshore,Offshore,Offshore,Offshore,Offshore,Cross-shore,Onshore,Onshore",12
5842041f4e65fad6a770883d,2024_02_18,32.838278,-117.28396,Horseshoe,3.5,1.9816666666666667,2.3691666666666666,15,15,"CLOUDY,CLOUDY,NIGHT_FOG,NIGHT_MIST,NIGHT_CLEAR,MIST,CLEAR,CLEAR,CLEAR,CLEAR,CLEAR,CLEAR","Onshore,Onshore,Offshore,Offshore,Offshore,Offshore,Offshore,Offshore,Onshore,Onshore,Onshore,Onshore",12
5842041f4e65fad6a770883f,2024_02_18,32.75034717673179,-117.25337,Ocean Beach,2.569166666666667,1.8741833333333333,2.38975,14,14,"CLOUDY,MOSTLY_CLOUDY,NIGHT_FOG,NIGHT_MOSTLY_CLOUDY,NIGHT_CLEAR,CLEAR,MIST,CLEAR,CLEAR,CLEAR,CLEAR,CLEAR","Onshore,Onshore,Offshore,Offshore,Offshore,Offshore,Offshore,Offshore,Offshore,Onshore,Onshore,Onshore",12
5842041f4e65fad6a7708840,2024_02_18,32.73693,-117.25718,Sunset Cliffs,3.6666666666666665,2.1816666666666666,2.6158333333333332,15,15,"CLOUDY,MOSTLY_CLOUDY,NIGHT_FOG,NIGHT_FOG,NIGHT_MIST,MIST,CLEAR,CLEAR,CLEAR,CLEAR,CLEAR,CLEAR","Onshore,Onshore,Offshore,Offshore,Offshore,Offshore,Offshore,Offshore,Offshore,Cross-shore,Onshore,Onshore",12
5842041f4e65fad6a7708841,2024_02_18,32.796582258728826,-117.25779,Pacific Beach,3.0833333333333335,1.6866166666666667,2.349397222222222,14,14,"CLOUDY,CLOUDY,NIGHT_FOG,NIGHT_MOSTLY_CLEAR,NIGHT_MOSTLY_CLOUDY,MOSTLY_CLEAR,MIST,CLEAR,CLEAR,CLEAR,CLEAR,CLEAR","Onshore,Cross-shore,Offshore,Offshore,Cross-shore,Offshore,Offshore,Offshore,Cross-shore,Onshore,Onshore,Onshore",12
5842041f4e65fad6a7708842,2024_02_18,32.776636,-117.25514,Mission Beach,3.1666666666666665,1.6696722222222222,2.3291194444444447,14,14,"CLOUDY,CLOUDY,NIGHT_FOG,NIGHT_MOSTLY_CLEAR,NIGHT_MOSTLY_CLOUDY,MOSTLY_CLEAR,MIST,CLEAR,CLEAR,CLEAR,CLEAR,CLEAR","Onshore,Onshore,Offshore,Offshore,Offshore,Offshore,Offshore,Offshore,Cross-shore,Onshore,Onshore,Onshore",12
5842041f4e65fad6a7708844,2024_02_18,32.577195519016,-117.13475,Imperial Beach Pier,2.9166666666666665,2.2558333333333334,2.7058333333333335,15,15,"CLOUDY,MOSTLY_CLOUDY,NIGHT_FOG,NIGHT_FOG,NIGHT_MOSTLY_CLEAR,CLEAR,CLEAR,CLEAR,CLEAR,CLEAR,CLEAR,CLEAR","Onshore,Onshore,Offshore,Offshore,Offshore,Offshore,Offshore,Offshore,Cross-shore,Onshore,Onshore,Onshore",12
5842041f4e65fad6a770884a,2024_02_18,42.88678181061,-70.80843,Seabrook,0.25,0.04045111111111111,0.1796198611111111,4,3,"NIGHT_CLEAR,NIGHT_CLEAR,NIGHT_CLEAR,NIGHT_CLEAR,CLEAR,CLEAR,CLEAR,CLEAR,CLEAR,CLEAR,CLEAR,CLEAR","Offshore,Offshore,Offshore,Offshore,Cross-shore,Cross-shore,Cross-shore,Cross-shore,Offshore,Offshore,Offshore,Offshore",12
5842041f4e65fad6a770884e,2024_02_18,41.434181432898335,-71.45312118111178,Narragansett,0.6058333333333333,0.20941944444444446,0.49389166666666673,5,4,"NIGHT_CLEAR,NIGHT_CLEAR,NIGHT_CLEAR,NIGHT_CLEAR,CLEAR,CLEAR,CLEAR,CLEAR,CLEAR,CLEAR,CLEAR,CLEAR","Offshore,Offshore,Cross-shore,Offshore,Cross-shore,Cross-shore,Cross-shore,Cross-shore,Cross-shore,Cross-shore,Cross-shore,Cross-shore",12
5842041f4e65fad6a7708850,2024_02_18,40.582703230722,-73.65247,Lincoln Blvd,0.08333333333333334,0.2198088888888889,0.47272000000000003,5,4,"NIGHT_CLEAR,NIGHT_CLEAR,NIGHT_CLEAR,NIGHT_CLEAR,CLEAR,CLEAR,CLEAR,CLEAR,CLEAR,CLEAR,CLEAR,CLEAR","Onshore,Offshore,Onshore,Onshore,Cross-shore,Cross-shore,Cross-shore,Cross-shore,Cross-shore,Cross-shore,Offshore,Offshore",12
5842041f4e65fad6a7708852,2024_02_18,40.58342841721757,-73.81182,Rockaways,0,0.11598888888888889,0.3725111111111111,5,4,"NIGHT_CLEAR,NIGHT_CLEAR,NIGHT_CLEAR,NIGHT_CLEAR,CLEAR,CLEAR,CLEAR,CLEAR,CLEAR,CLEAR,CLEAR,CLEAR","Cross-shore,Offshore,Cross-shore,Cross-shore,Onshore,Onshore,Onshore,Onshore,Onshore,Onshore,Cross-shore,Cross-shore",12
5842041f4e65fad6a7708853,2024_02_18,40.330474,-73.9734,Monmouth Beach,0.48583333333333334,0.07625000000000001,0.35079166666666667,6,5,"NIGHT_CLEAR,NIGHT_CLEAR,NIGHT_CLEAR,NIGHT_CLEAR,CLEAR,CLEAR,CLEAR,CLEAR,CLEAR,CLEAR,CLEAR,CLEAR","Offshore,Offshore,Offshore,Offshore,Offshore,Offshore,Offshore,Offshore,Offshore,Offshore,Offshore,Offshore",12
5842041f4e65fad6a7708856,2024_02_18,40.113,-74.028,Manasquan Inlet,0.08333333333333334,0.018666666666666665,0.3072361111111111,6,5,"NIGHT_CLEAR,NIGHT_CLEAR,NIGHT_CLEAR,NIGHT_CLEAR,CLEAR,CLEAR,CLEAR,CLEAR,CLEAR,CLEAR,CLEAR,CLEAR","Offshore,Offshore,Offshore,Offshore,Offshore,Offshore,Offshore,Offshore,Offshore,Offshore,Offshore,Offshore",12
5842041f4e65fad6a7708857,2024_02_18,39.941519877445664,-74.06829,Casino Pier,0.23583333333333334,0.019666666666666666,0.3093472222222222,6,5,"NIGHT_CLEAR,NIGHT_CLEAR,NIGHT_CLEAR,NIGHT_CLEAR,CLEAR,CLEAR,CLEAR,CLEAR,CLEAR,CLEAR,CLEAR,CLEAR","Offshore,Offshore,Offshore,Offshore,Offshore,Offshore,Offshore,Offshore,Offshore,Offshore,Offshore,Offshore",12
5842041f4e65fad6a7708858,2024_02_18,39.28223089949212,-74.55766,North End OC,0.08333333333333334,0.019313333333333335,0.3143077777777778,6,5,"NIGHT_CLEAR,NIGHT_CLEAR,NIGHT_CLEAR,NIGHT_CLEAR,CLEAR,CLEAR,CLEAR,CLEAR,CLEAR,CLEAR,CLEAR,CLEAR","Offshore,Offshore,Offshore,Offshore,Cross-shore,Cross-shore,Onshore,Cross-shore,Cross-shore,Cross-shore,Cross-shore,Cross-shore",12
5842041f4e65fad6a770885b,2024_02_18,39.65080599934257,-74.17146,Ship Bottom,0.23583333333333334,0.05239666666666667,0.30740611111111116,6,5,"NIGHT_CLEAR,NIGHT_CLEAR,NIGHT_CLEAR,NIGHT_CLEAR,CLEAR,CLEAR,CLEAR,CLEAR,CLEAR,CLEAR,CLEAR,CLEAR","Offshore,Offshore,Offshore,Offshore,Cross-shore,Cross-shore,Cross-shore,Cross-shore,Cross-shore,Cross-shore,Cross-shore,Cross-shore",12
5842041f4e65fad6a7708863,2024_02_18,36.034151543144,-75.66791,Third Street,1.7358333333333333,0.5001777777777778,0.8569888888888889,7,6,"NIGHT_CLEAR,NIGHT_CLEAR,NIGHT_CLEAR,NIGHT_CLEAR,CLEAR,CLEAR,CLEAR,CLEAR,CLEAR,CLEAR,CLEAR,CLEAR","Cross-shore,Cross-shore,Onshore,Cross-shore,Offshore,Offshore,Offshore,Offshore,Offshore,Offshore,Offshore,Offshore",12
5842041f4e65fad6a7708867,2024_02_18,35.605833221351425,-75.46303,S-Turns,1.8408333333333333,0.6439861111111111,0.9970861111111111,9,8,"NIGHT_CLEAR,NIGHT_CLEAR,NIGHT_CLEAR,NIGHT_CLEAR,CLEAR,CLEAR,CLEAR,CLEAR,CLEAR,CLEAR,CLEAR,CLEAR","Cross-shore,Cross-shore,Onshore,Cross-shore,Onshore,Cross-shore,Offshore,Offshore,Offshore,Offshore,Offshore,Offshore",12
5842041f4e65fad6a770886d,2024_02_18,38.338461,-75.08117,Ocean City Boardwalk,0,-0.002055555555555556,0.20360666666666666,7,5,"NIGHT_CLEAR,NIGHT_CLEAR,NIGHT_CLEAR,NIGHT_CLEAR,CLEAR,CLEAR,CLEAR,CLEAR,CLEAR,CLEAR,CLEAR,CLEAR","Offshore,Offshore,Offshore,Offshore,Offshore,Offshore,Offshore,Offshore,Offshore,Offshore,Offshore,Offshore",12
5842041f4e65fad6a770886f,2024_02_18,29.844757212379562,-81.26136,A St.,1.0833333333333333,0.31416666666666665,0.6025,15.666666666666666,15.666666666666666,"LIGHT_RAIN,NIGHT_RAIN_AND_FOG,NIGHT_RAIN,NIGHT_RAIN,LIGHT_RAIN,LIGHT_SHOWERS_POSSIBLE,RAIN,LIGHT_RAIN,RAIN,LIGHT_RAIN,LIGHT_RAIN,LIGHT_RAIN","Offshore,Offshore,Cross-shore,Cross-shore,Cross-shore,Cross-shore,Cross-shore,Cross-shore,Cross-shore,Cross-shore,Cross-shore,Cross-shore",12
5842041f4e65fad6a7708871,2024_02_18,29.069417851135093,-80.90824,New Smyrna Beach,0.44416666666666665,0.5858694444444444,0.892738888888889,17,16,"RAIN,NIGHT_RAIN,NIGHT_DRIZZLE,NIGHT_FOG,RAIN,LIGHT_RAIN,RAIN,RAIN,RAIN,HEAVY_RAIN,RAIN,HEAVY_RAIN","Cross-shore,Cross-shore,Cross-shore,Cross-shore,Cross-shore,Onshore,Onshore,Onshore,Onshore,Onshore,Onshore,Cross-shore",12
5842041f4e65fad6a7708872,2024_02_18,28.367707417566,-80.60171,Cocoa Beach Pier,0.16666666666666666,0.013402777777777777,0.2602027777777778,18,17,"OVERCAST,NIGHT_OVERCAST,NIGHT_DRIZZLE,NIGHT_MOSTLY_CLOUDY,LIGHT_RAIN,LIGHT_RAIN,LIGHT_RAIN,RAIN,RAIN,RAIN,HEAVY_RAIN,HEAVY_RAIN","Cross-shore,Cross-shore,Cross-shore,Cross-shore,Cross-shore,Cross-shore,Onshore,Onshore,Onshore,Cross-shore,Cross-shore,Cross-shore",12
5842041f4e65fad6a7708873,2024_02_18,28.091782738658846,-80.56479,Indialantic,0.5408333333333333,0.23315833333333336,0.5253166666666667,19,18,"CLOUDY,NIGHT_MOSTLY_CLOUDY,NIGHT_OVERCAST,NIGHT_LIGHT_RAIN,LIGHT_RAIN,LIGHT_RAIN,LIGHT_RAIN,DRIZZLE,LIGHT_RAIN,RAIN,RAIN,RAIN","Cross-shore,Cross-shore,Onshore,Cross-shore,Cross-shore,Cross-shore,Cross-shore,Onshore,Onshore,Onshore,Cross-shore,Cross-shore",12
5842041f4e65fad6a7708876,2024_02_18,27.25392904143517,-80.19455,Jensen Beach,0.5408333333333333,0.25801944444444447,0.5430250000000001,22,20,"CLOUDY,NIGHT_CLOUDY,NIGHT_BRIEF_SHOWERS,NIGHT_OVERCAST,CLOUDY,DRIZZLE,OVERCAST,OVERCAST,MOSTLY_CLOUDY,HEAVY_RAIN,CLOUDY,DRIZZLE","Onshore,Cross-shore,Onshore,Cross-shore,Onshore,Onshore,Onshore,Onshore,Onshore,Onshore,Onshore,Onshore",12
5842041f4e65fad6a7708879,2024_02_18,26.76346795333825,-80.0360655784607,Reef Road,0.68,0.13486111111111113,0.3893,23,22,"BRIEF_SHOWERS,NIGHT_CLEAR,NIGHT_RAIN,NIGHT_OVERCAST,OVERCAST,MOSTLY_CLOUDY,OVERCAST,OVERCAST,OVERCAST,OVERCAST,LIGHT_RAIN,LIGHT_RAIN","Offshore,Offshore,Onshore,Onshore,Cross-shore,Onshore,Onshore,Onshore,Onshore,Onshore,Onshore,Cross-shore",12
5842041f4e65fad6a770887c,2024_02_18,26.336499228484,-80.06956100463,Boca Raton Inlet,0.41583333333333333,0.014166666666666668,0.31143611111111114,24,22,"MOSTLY_CLEAR,NIGHT_CLEAR,NIGHT_LIGHT_RAIN_AND_FOG,NIGHT_RAIN,MIST,DRIZZLE,CLOUDY,LIGHT_RAIN,DRIZZLE,DRIZZLE,BRIEF_SHOWERS_POSSIBLE,CLOUDY","Cross-shore,Offshore,Onshore,Onshore,Cross-shore,Onshore,Cross-shore,Onshore,Onshore,Onshore,Onshore,Cross-shore",12
5842041f4e65fad6a770887d,2024_02_18,26.31719311695038,-80.07452525176168,Deerfield Beach Pier,0.08333333333333334,0.03279111111111111,0.2206963888888889,24,23,"CLEAR,NIGHT_CLEAR,NIGHT_FOG,NIGHT_RAIN_AND_FOG,LIGHT_SHOWERS_POSSIBLE,MIST,CLEAR,LIGHT_RAIN,DRIZZLE,DRIZZLE,BRIEF_SHOWERS_POSSIBLE,CLOUDY","Cross-shore,Offshore,Onshore,Onshore,Cross-shore,Onshore,Cross-shore,Onshore,Onshore,Onshore,Onshore,Cross-shore",12
5842041f4e65fad6a7708881,2024_02_18,30.20276320866628,-85.85626528676136,"Spyglass Dr., Panama City",0,0,0.09125833333333334,16,15,"LIGHT_RAIN,NIGHT_LIGHT_SHOWERS_POSSIBLE,NIGHT_OVERCAST,NIGHT_OVERCAST,CLOUDY,CLEAR,CLEAR,CLEAR,CLEAR,CLEAR,CLEAR,CLEAR","Offshore,Offshore,Offshore,Offshore,Offshore,Offshore,Offshore,Offshore,Offshore,Offshore,Offshore,Offshore",12
5842041f4e65fad6a7708884,2024_02_18,33.39000832738053,-117.59852,Cottons,3.9025,1.6196305555555557,2.269788888888889,14,14,"MOSTLY_CLOUDY,MOSTLY_CLOUDY,NIGHT_CLEAR,NIGHT_MIST,NIGHT_CLEAR,CLEAR,MOSTLY_CLOUDY,MOSTLY_CLOUDY,CLEAR,CLEAR,CLEAR,MOSTLY_CLOUDY","Onshore,Onshore,Offshore,Offshore,Offshore,Cross-shore,Cross-shore,Cross-shore,Cross-shore,Onshore,Cross-shore,Onshore",12
5842041f4e65fad6a7708885,2024_02_18,33.359416282661,-117.54167901405711,Trails,3.25,1.2941666666666667,1.5858333333333332,15,15,"MOSTLY_CLOUDY,MOSTLY_CLOUDY,NIGHT_MOSTLY_CLOUDY,NIGHT_CLEAR,NIGHT_CLEAR,CLEAR,CLEAR,MOSTLY_CLEAR,MOSTLY_CLEAR,CLEAR,CLEAR,MOSTLY_CLEAR","Onshore,Onshore,Offshore,Offshore,Offshore,Offshore,Offshore,Onshore,Onshore,Onshore,Onshore,Onshore",12
5842041f4e65fad6a7708886,2024_02_18,33.38042605929805,-117.58332,Middles,3.3891666666666667,1.1309361111111111,1.588938888888889,14,14,"MOSTLY_CLOUDY,MOSTLY_CLOUDY,NIGHT_CLEAR,NIGHT_MIST,NIGHT_CLEAR,CLEAR,MOSTLY_CLOUDY,MOSTLY_CLOUDY,CLEAR,CLEAR,CLEAR,MOSTLY_CLOUDY","Onshore,Onshore,Offshore,Offshore,Offshore,Cross-shore,Offshore,Cross-shore,Onshore,Onshore,Cross-shore,Onshore",12
5842041f4e65fad6a7708887,2024_02_18,33.38445596302903,-117.59445,Upper Trestles,3.930833333333333,1.5252555555555556,2.1409000000000002,14,14,"MOSTLY_CLOUDY,MOSTLY_CLOUDY,NIGHT_CLEAR,NIGHT_MIST,NIGHT_CLEAR,CLEAR,MOSTLY_CLOUDY,MOSTLY_CLOUDY,CLEAR,CLEAR,CLEAR,MOSTLY_CLOUDY","Onshore,Onshore,Offshore,Offshore,Offshore,Cross-shore,Offshore,Offshore,Onshore,Onshore,Onshore,Onshore",12
5842041f4e65fad6a7708889,2024_02_18,28.944414,-95.28883,Surfside,1.25,0.22863583333333334,0.35724333333333336,15.666666666666666,15.666666666666666,"CLEAR,CLEAR,NIGHT_CLEAR,NIGHT_CLEAR,CLEAR,CLEAR,CLEAR,CLEAR,MOSTLY_CLEAR,CLEAR,CLEAR,CLEAR","Offshore,Offshore,Offshore,Offshore,Offshore,Offshore,Offshore,Offshore,Offshore,Offshore,Offshore,Offshore",12
5842041f4e65fad6a770888a,2024_02_18,33.38143999849023,-117.58843,Lower Trestles,3.1666666666666665,1.450811111111111,1.9075638888888888,14,14,"MOSTLY_CLOUDY,MOSTLY_CLOUDY,NIGHT_CLEAR,NIGHT_MOSTLY_CLOUDY,NIGHT_CLEAR,CLEAR,MOSTLY_CLOUDY,MOSTLY_CLOUDY,CLEAR,CLEAR,CLEAR,MOSTLY_CLOUDY","Onshore,Onshore,Offshore,Offshore,Offshore,Cross-shore,Offshore,Cross-shore,Onshore,Onshore,Onshore,Onshore",12
5842041f4e65fad6a770888b,2024_02_18,33.379622288757,-117.57894,Church,3.3891666666666667,1.2541305555555555,1.7120638888888888,14,14,"MOSTLY_CLOUDY,MOSTLY_CLOUDY,NIGHT_CLEAR,NIGHT_MIST,NIGHT_CLEAR,CLEAR,MOSTLY_CLOUDY,MOSTLY_CLOUDY,CLEAR,CLEAR,CLEAR,MOSTLY_CLOUDY","Onshore,Onshore,Offshore,Offshore,Offshore,Cross-shore,Offshore,Cross-shore,Cross-shore,Onshore,Cross-shore,Onshore",12
5842041f4e65fad6a770888d,2024_02_18,21.679,-158.042,Sunset Beach,3,3.382311111111111,4.420272222222223,26,25,"CLEAR,CLEAR,NIGHT_BRIEF_SHOWERS,NIGHT_CLEAR,NIGHT_MOSTLY_CLOUDY,NIGHT_MOSTLY_CLOUDY,NIGHT_MOSTLY_CLEAR,NIGHT_MOSTLY_CLEAR,CLEAR,MOSTLY_CLEAR,BRIEF_SHOWERS,MOSTLY_CLEAR","Cross-shore,Cross-shore,Cross-shore,Offshore,Offshore,Offshore,Cross-shore,Offshore,Cross-shore,Cross-shore,Cross-shore,Offshore",12
5842041f4e65fad6a770888e,2024_02_18,21.670550036401,-158.0482,Rocky Point,2.625,3.223977777777778,4.232286111111111,26,25,"CLEAR,CLEAR,NIGHT_CLEAR,NIGHT_CLEAR,NIGHT_MOSTLY_CLOUDY,NIGHT_MOSTLY_CLEAR,NIGHT_MOSTLY_CLEAR,NIGHT_MOSTLY_CLEAR,CLEAR,CLEAR,CLEAR,CLEAR","Cross-shore,Cross-shore,Cross-shore,Cross-shore,Cross-shore,Cross-shore,Cross-shore,Cross-shore,Cross-shore,Cross-shore,Cross-shore,Cross-shore",12
5842041f4e65fad6a770888f,2024_02_18,21.668,-158.05,Chambers,3,3.32,3.9675000000000002,24,24,"CLEAR,CLEAR,NIGHT_CLEAR,NIGHT_CLEAR,NIGHT_MOSTLY_CLOUDY,NIGHT_MOSTLY_CLEAR,NIGHT_MOSTLY_CLEAR,NIGHT_MOSTLY_CLEAR,CLEAR,CLEAR,CLEAR,CLEAR","Cross-shore,Cross-shore,Cross-shore,Cross-shore,Cross-shore,Cross-shore,Cross-shore,Cross-shore,Cross-shore,Cross-shore,Cross-shore,Cross-shore",12
5842041f4e65fad6a7708890,2024_02_18,21.66522,-158.0526,Pipeline,3.0833333333333335,2.7871027777777777,3.6378194444444443,26,25,"CLEAR,CLEAR,NIGHT_CLEAR,NIGHT_CLEAR,NIGHT_MOSTLY_CLOUDY,NIGHT_MOSTLY_CLEAR,NIGHT_MOSTLY_CLEAR,NIGHT_MOSTLY_CLEAR,CLEAR,CLEAR,CLEAR,CLEAR","Cross-shore,Cross-shore,Cross-shore,Cross-shore,Cross-shore,Cross-shore,Cross-shore,Cross-shore,Cross-shore,Cross-shore,Cross-shore,Cross-shore",12
5842041f4e65fad6a7708891,2024_02_18,21.665,-158.054,Backdoor,3,2.7871027777777777,3.6378194444444443,26,25,"CLEAR,CLEAR,NIGHT_CLEAR,NIGHT_CLEAR,NIGHT_MOSTLY_CLOUDY,NIGHT_MOSTLY_CLEAR,NIGHT_MOSTLY_CLEAR,NIGHT_MOSTLY_CLEAR,CLEAR,CLEAR,CLEAR,CLEAR","Cross-shore,Cross-shore,Cross-shore,Cross-shore,Cross-shore,Cross-shore,Cross-shore,Cross-shore,Cross-shore,Cross-shore,Cross-shore,Cross-shore",12
5842041f4e65fad6a7708892,2024_02_18,21.662,-158.057,Rockpile,2.6666666666666665,3.47,4.145833333333333,24,24,"CLEAR,CLEAR,NIGHT_CLEAR,NIGHT_MOSTLY_CLOUDY,NIGHT_MOSTLY_CLOUDY,NIGHT_MOSTLY_CLEAR,NIGHT_MOSTLY_CLEAR,NIGHT_MOSTLY_CLEAR,CLEAR,CLEAR,CLEAR,CLEAR","Cross-shore,Cross-shore,Cross-shore,Cross-shore,Cross-shore,Cross-shore,Cross-shore,Cross-shore,Cross-shore,Cross-shore,Cross-shore,Cross-shore",12
5842041f4e65fad6a7708893,2024_02_18,21.65870453806827,-158.06058,Log Cabins,2.8333333333333335,3.125,3.7358333333333333,24,24,"CLEAR,CLEAR,NIGHT_CLEAR,NIGHT_MOSTLY_CLOUDY,NIGHT_MOSTLY_CLOUDY,NIGHT_MOSTLY_CLEAR,NIGHT_MOSTLY_CLEAR,NIGHT_MOSTLY_CLEAR,CLEAR,CLEAR,CLEAR,CLEAR","Cross-shore,Cross-shore,Cross-shore,Cross-shore,Cross-shore,Cross-shore,Cross-shore,Cross-shore,Cross-shore,Cross-shore,Cross-shore,Cross-shore",12
5842041f4e65fad6a7708894,2024_02_18,21.66203493640557,-158.05495,Off-The-Wall,3,3.5225,4.2091666666666665,24,24,"CLEAR,CLEAR,NIGHT_CLEAR,NIGHT_MOSTLY_CLOUDY,NIGHT_MOSTLY_CLOUDY,NIGHT_MOSTLY_CLEAR,NIGHT_MOSTLY_CLEAR,NIGHT_MOSTLY_CLEAR,CLEAR,CLEAR,CLEAR,CLEAR","Cross-shore,Cross-shore,Cross-shore,Cross-shore,Cross-shore,Cross-shore,Cross-shore,Cross-shore,Cross-shore,Cross-shore,Cross-shore,Cross-shore",12
5842041f4e65fad6a7708895,2024_02_18,21.643,-158.067,Waimea Bay,NA,4.197797222222222,5.112480555555556,26,25,"CLEAR,CLEAR,NIGHT_CLEAR,NIGHT_CLEAR,NIGHT_MOSTLY_CLOUDY,NIGHT_MOSTLY_CLEAR,NIGHT_MOSTLY_CLEAR,NIGHT_MOSTLY_CLEAR,CLEAR,CLEAR,CLEAR,CLEAR","Cross-shore,Cross-shore,Cross-shore,Offshore,Offshore,Offshore,Offshore,Offshore,Offshore,Offshore,Cross-shore,Offshore",12
5842041f4e65fad6a7708896,2024_02_18,21.622,-158.087,Hultin's,2.2083333333333335,3.3937694444444446,4.416452777777778,26,25,"CLEAR,CLEAR,NIGHT_CLEAR,NIGHT_MOSTLY_CLEAR,NIGHT_MOSTLY_CLOUDY,NIGHT_CLEAR,NIGHT_MOSTLY_CLEAR,NIGHT_CLEAR,CLEAR,CLEAR,CLEAR,CLEAR","Cross-shore,Cross-shore,Cross-shore,Offshore,Offshore,Offshore,Offshore,Offshore,Offshore,Offshore,Offshore,Offshore",12
5842041f4e65fad6a7708897,2024_02_18,21.623,-158.085,Jocko's,2,3.1,3.7075,24,24,"CLEAR,CLEAR,NIGHT_CLEAR,NIGHT_MOSTLY_CLEAR,NIGHT_MOSTLY_CLOUDY,NIGHT_CLEAR,NIGHT_MOSTLY_CLEAR,NIGHT_CLEAR,CLEAR,CLEAR,CLEAR,CLEAR","Onshore,Onshore,Onshore,Onshore,Onshore,Onshore,Onshore,Onshore,Onshore,Onshore,Onshore,Onshore",12
5842041f4e65fad6a7708898,2024_02_18,21.62,-158.088,Laniakea,2.375,3.244858333333333,4.269208333333333,26,25,"CLEAR,CLEAR,NIGHT_CLEAR,NIGHT_MOSTLY_CLEAR,NIGHT_MOSTLY_CLOUDY,NIGHT_CLEAR,NIGHT_MOSTLY_CLEAR,NIGHT_CLEAR,CLEAR,CLEAR,CLEAR,CLEAR","Cross-shore,Cross-shore,Cross-shore,Cross-shore,Cross-shore,Cross-shore,Cross-shore,Cross-shore,Cross-shore,Cross-shore,Cross-shore,Cross-shore",12
5842041f4e65fad6a7708899,2024_02_18,21.625,-158.083,Chun's,2,2.9583333333333335,3.5358333333333336,24,24,"CLEAR,CLEAR,NIGHT_CLEAR,NIGHT_MOSTLY_CLEAR,NIGHT_MOSTLY_CLOUDY,NIGHT_CLEAR,NIGHT_MOSTLY_CLEAR,NIGHT_CLEAR,CLEAR,CLEAR,CLEAR,CLEAR","Cross-shore,Cross-shore,Cross-shore,Cross-shore,Cross-shore,Cross-shore,Cross-shore,Cross-shore,Cross-shore,Cross-shore,Cross-shore,Cross-shore",12
5842041f4e65fad6a770889c,2024_02_18,21.286357895152136,-157.8515,South Shore - Ala Moana Park,1.9166666666666667,0.3591666666666667,0.6633333333333333,24,24,"CLEAR,CLEAR,NIGHT_CLEAR,NIGHT_CLEAR,NIGHT_CLEAR,NIGHT_CLEAR,NIGHT_CLEAR,CLEAR,CLEAR,CLEAR,CLEAR,CLEAR","Offshore,Offshore,Offshore,Offshore,Offshore,Offshore,Offshore,Offshore,Offshore,Offshore,Offshore,Offshore",12
5842041f4e65fad6a770889d,2024_02_18,19.606,-155.978,Banyans,3,0.9501694444444445,1.2171583333333333,26,25,"CLEAR,CLEAR,NIGHT_CLEAR,NIGHT_CLEAR,NIGHT_CLEAR,NIGHT_FOG,NIGHT_CLEAR,CLEAR,CLEAR,CLEAR,CLEAR,CLEAR","Onshore,Onshore,Cross-shore,Cross-shore,Onshore,Offshore,Cross-shore,Cross-shore,Cross-shore,Onshore,Onshore,Onshore",12
5842041f4e65fad6a770889e,2024_02_18,20.029,-155.831,Kawaihae,2.1666666666666665,0.46363,0.7926766666666667,25,25,"MOSTLY_CLEAR,CLEAR,NIGHT_CLEAR,NIGHT_MOSTLY_CLEAR,NIGHT_CLEAR,NIGHT_CLEAR,NIGHT_CLEAR,CLEAR,CLEAR,CLEAR,CLEAR,CLEAR","Offshore,Offshore,Offshore,Offshore,Offshore,Offshore,Offshore,Offshore,Offshore,Offshore,Offshore,Offshore",12
5842041f4e65fad6a770889f,2024_02_18,33.07541383424675,-117.3105,Grandview,3.25,1.8091666666666666,2.1766666666666667,15,15,"CLOUDY,CLOUDY,NIGHT_FOG,NIGHT_CLEAR,NIGHT_CLEAR,CLEAR,MOSTLY_CLEAR,MOSTLY_CLEAR,CLEAR,CLEAR,CLEAR,CLEAR","Onshore,Onshore,Offshore,Offshore,Offshore,Cross-shore,Offshore,Offshore,Onshore,Onshore,Onshore,Onshore",12
5842041f4e65fad6a77088a0,2024_02_18,33.065267421296596,-117.30577,Beacons,3.4166666666666665,1.6475,2.0058333333333334,15,15,"CLOUDY,CLOUDY,NIGHT_FOG,NIGHT_MOSTLY_CLOUDY,NIGHT_CLEAR,CLEAR,MOSTLY_CLEAR,MOSTLY_CLEAR,CLEAR,CLEAR,CLEAR,CLEAR","Onshore,Onshore,Offshore,Offshore,Offshore,Onshore,Offshore,Offshore,Cross-shore,Onshore,Cross-shore,Onshore",12
5842041f4e65fad6a77088a2,2024_02_18,21.252,-157.805,Diamond Head,3,0.6522715972222223,1.02311125,26,25,"CLEAR,CLEAR,NIGHT_CLEAR,NIGHT_CLEAR,NIGHT_CLEAR,NIGHT_CLEAR,NIGHT_CLEAR,CLEAR,CLEAR,CLEAR,CLEAR,CLEAR","Offshore,Offshore,Offshore,Offshore,Offshore,Offshore,Offshore,Offshore,Offshore,Offshore,Offshore,Offshore",12
5842041f4e65fad6a77088a3,2024_02_18,33.04694255008896,-117.29966,Moonlight State Beach,3.3333333333333335,1.7325,2.1058333333333334,15,15,"CLEAR,CLOUDY,NIGHT_LIGHT_RAIN_AND_FOG,NIGHT_MOSTLY_CLOUDY,NIGHT_MOSTLY_CLEAR,CLEAR,MOSTLY_CLEAR,CLEAR,MOSTLY_CLEAR,CLEAR,CLEAR,CLEAR","Onshore,Onshore,Offshore,Offshore,Offshore,Offshore,Offshore,Offshore,Cross-shore,Onshore,Onshore,Onshore",12
5842041f4e65fad6a77088a5,2024_02_18,33.08685865930869,-117.31532,Ponto,3.0833333333333335,2.0833333333333335,2.501666666666667,15,15,"CLOUDY,CLOUDY,NIGHT_FOG,NIGHT_MOSTLY_CLOUDY,NIGHT_CLEAR,CLEAR,MOSTLY_CLEAR,MOSTLY_CLEAR,CLEAR,CLEAR,CLEAR,CLEAR","Onshore,Onshore,Offshore,Offshore,Offshore,Offshore,Offshore,Offshore,Offshore,Onshore,Onshore,Onshore",12
5842041f4e65fad6a77088a6,2024_02_18,33.130343587871906,-117.33667796442558,Terra Mar Point,2.930833333333333,1.2572333333333334,1.8255666666666668,15,15,"CLOUDY,OVERCAST,NIGHT_FOG,NIGHT_MOSTLY_CLOUDY,NIGHT_MOSTLY_CLEAR,CLEAR,MOSTLY_CLOUDY,CLEAR,CLEAR,CLEAR,CLEAR,CLEAR","Onshore,Onshore,Offshore,Offshore,Offshore,Offshore,Offshore,Offshore,Offshore,Offshore,Onshore,Onshore",12
5842041f4e65fad6a77088af,2024_02_18,32.95916304183685,-117.26963,Del Mar,3.1666666666666665,1.9133333333333333,2.3033333333333332,15,15,"CLOUDY,CLOUDY,NIGHT_CLEAR,NIGHT_CLEAR,NIGHT_CLEAR,MIST,CLEAR,CLEAR,CLEAR,CLEAR,CLEAR,CLEAR","Cross-shore,Onshore,Cross-shore,Cross-shore,Offshore,Offshore,Offshore,Offshore,Cross-shore,Cross-shore,Cross-shore,Cross-shore",12
5842041f4e65fad6a77088b0,2024_02_18,32.97527261243354,-117.2721061331305,Del Mar Rivermouth,3.25,1.7308333333333332,2.1025,15,15,"CLEAR,CLEAR,NIGHT_FOG,NIGHT_CLEAR,NIGHT_MIST,MIST,CLEAR,CLEAR,CLEAR,CLEAR,CLEAR,CLEAR","Cross-shore,Onshore,Offshore,Cross-shore,Offshore,Offshore,Offshore,Offshore,Cross-shore,Cross-shore,Onshore,Cross-shore",12
5842041f4e65fad6a77088b1,2024_02_18,33.01352178146273,-117.28219,Cardiff Reef,3.7358333333333333,1.85585,2.3548833333333334,15,15,"CLEAR,CLEAR,NIGHT_FOG,NIGHT_MOSTLY_CLEAR,NIGHT_MOSTLY_CLEAR,MOSTLY_CLEAR,MOSTLY_CLEAR,MOSTLY_CLEAR,CLEAR,CLEAR,CLEAR,CLEAR","Onshore,Onshore,Offshore,Offshore,Offshore,Offshore,Offshore,Offshore,Offshore,Offshore,Onshore,Onshore",12
5842041f4e65fad6a77088b3,2024_02_18,33.00211185876003,-117.2811,Seaside Reef,3.694166666666667,1.7992527777777778,2.3077305555555556,15,15,"CLOUDY,CLEAR,NIGHT_FOG,NIGHT_CLEAR,NIGHT_MIST,CLEAR,CLEAR,CLEAR,CLEAR,CLEAR,CLEAR,CLEAR","Onshore,Onshore,Offshore,Offshore,Offshore,Offshore,Offshore,Offshore,Offshore,Offshore,Onshore,Onshore",12
5842041f4e65fad6a77088b4,2024_02_18,33.0341859796287,-117.29552,Swami's,3.694166666666667,1.7705666666666666,2.5078,15,15,"CLEAR,CLEAR,NIGHT_FOG,NIGHT_MOSTLY_CLOUDY,NIGHT_MOSTLY_CLEAR,MOSTLY_CLEAR,MOSTLY_CLEAR,MOSTLY_CLEAR,CLEAR,CLEAR,CLEAR,CLEAR","Onshore,Onshore,Offshore,Offshore,Offshore,Offshore,Offshore,Offshore,Offshore,Onshore,Onshore,Onshore",12
5842041f4e65fad6a77088b7,2024_02_18,33.04569760260221,-117.2994,D Street,3.3333333333333335,2.0825,2.505,15,15,"CLEAR,CLOUDY,NIGHT_LIGHT_RAIN_AND_FOG,NIGHT_MOSTLY_CLOUDY,NIGHT_MOSTLY_CLEAR,CLEAR,MOSTLY_CLEAR,CLEAR,MOSTLY_CLEAR,CLEAR,CLEAR,CLEAR","Onshore,Onshore,Offshore,Offshore,Offshore,Offshore,Offshore,Offshore,Onshore,Onshore,Onshore,Onshore",12
5842041f4e65fad6a77088b8,2024_02_18,33.02090944350196,-117.28535,San Elijo State Beach,3.8333333333333335,1.7299361111111111,2.2098722222222222,15,15,"CLEAR,CLEAR,NIGHT_FOG,NIGHT_MOSTLY_CLEAR,NIGHT_MOSTLY_CLEAR,MOSTLY_CLEAR,MOSTLY_CLEAR,MOSTLY_CLEAR,CLEAR,CLEAR,CLEAR,CLEAR","Onshore,Onshore,Offshore,Offshore,Offshore,Offshore,Offshore,Offshore,Offshore,Offshore,Onshore,Onshore",12
5842041f4e65fad6a77088c2,2024_02_18,32.80662846492798,-117.2688764333725,PB Point,3.6666666666666665,1.7116666666666667,2.0591666666666666,15,15,"CLOUDY,CLOUDY,NIGHT_MOSTLY_CLOUDY,NIGHT_FOG,NIGHT_MIST,FOG,MOSTLY_CLEAR,CLEAR,CLEAR,CLEAR,CLEAR,CLEAR","Cross-shore,Cross-shore,Cross-shore,Offshore,Cross-shore,Offshore,Offshore,Cross-shore,Onshore,Onshore,Onshore,Cross-shore",12
5842041f4e65fad6a77088c4,2024_02_18,32.8060476681448,-117.26479,Old Man's at Tourmaline,3.5833333333333335,1.5083333333333333,1.83,15,15,"CLOUDY,CLOUDY,NIGHT_MOSTLY_CLOUDY,NIGHT_FOG,NIGHT_MIST,FOG,MOSTLY_CLEAR,CLEAR,CLEAR,CLEAR,CLEAR,CLEAR","Cross-shore,Cross-shore,Cross-shore,Offshore,Cross-shore,Cross-shore,Offshore,Cross-shore,Onshore,Onshore,Onshore,Cross-shore",12
5842041f4e65fad6a77088cb,2024_02_18,32.557056711256,-117.1327445020322,Tijuana Slough,3.25,1.0533333333333332,1.3191666666666666,15,15,"CLOUDY,MOSTLY_CLOUDY,NIGHT_FOG,NIGHT_CLEAR,NIGHT_MIST,CLEAR,CLEAR,CLEAR,CLEAR,CLEAR,CLEAR,CLEAR","Onshore,Onshore,Offshore,Offshore,Offshore,Offshore,Offshore,Offshore,Offshore,Cross-shore,Onshore,Onshore",12
5842041f4e65fad6a77088cc,2024_02_18,32.863,-117.257,La Jolla Shores,2.9166666666666665,1.425,1.74,15,15,"CLEAR,CLOUDY,NIGHT_FOG,NIGHT_MOSTLY_CLOUDY,NIGHT_MOSTLY_CLEAR,MOSTLY_CLEAR,CLEAR,CLEAR,CLEAR,CLEAR,CLEAR,CLEAR","Onshore,Onshore,Cross-shore,Offshore,Offshore,Offshore,Offshore,Offshore,Cross-shore,Onshore,Onshore,Onshore",12
5842041f4e65fad6a77088ce,2024_02_18,32.67443657790586,-117.17421316238693,Coronado Beach,3.6666666666666665,2.09,2.5075,15,15,"CLOUDY,MOSTLY_CLOUDY,NIGHT_FOG,NIGHT_FOG,NIGHT_CLEAR,CLEAR,CLEAR,CLEAR,CLEAR,CLEAR,CLEAR,CLEAR","Cross-shore,Cross-shore,Offshore,Offshore,Offshore,Offshore,Offshore,Offshore,Offshore,Offshore,Cross-shore,Cross-shore",12
5842041f4e65fad6a77088cf,2024_02_18,33.40484417640326,-117.60749,San Clemente State Beach,3.1666666666666665,1.2758333333333334,1.575,15,15,"MOSTLY_CLOUDY,MOSTLY_CLOUDY,NIGHT_CLEAR,NIGHT_MIST,NIGHT_CLEAR,CLEAR,MOSTLY_CLOUDY,MOSTLY_CLOUDY,CLEAR,CLEAR,CLEAR,CLEAR","Onshore,Onshore,Offshore,Offshore,Cross-shore,Offshore,Offshore,Cross-shore,Onshore,Onshore,Onshore,Onshore",12
5842041f4e65fad6a77088d5,2024_02_18,33.4663042002114,-117.7168352817103,Strands,3.5,1.6144805555555555,2.280616666666667,14,14,"MOSTLY_CLOUDY,MOSTLY_CLOUDY,NIGHT_MOSTLY_CLOUDY,NIGHT_FOG,NIGHT_CLEAR,CLEAR,MIST,CLEAR,CLEAR,MOSTLY_CLEAR,CLEAR,MOSTLY_CLOUDY","Onshore,Onshore,Offshore,Offshore,Offshore,Cross-shore,Offshore,Offshore,Cross-shore,Cross-shore,Onshore,Onshore",12
5842041f4e65fad6a77088d7,2024_02_18,33.4609858001748,-117.68535,Doheny State Beach,2.25,0.1951388888888889,0.49848611111111113,14,14,"MOSTLY_CLOUDY,MOSTLY_CLOUDY,NIGHT_MIST,NIGHT_MIST,NIGHT_MIST,FOG,MOSTLY_CLOUDY,MIST,CLEAR,CLEAR,CLEAR,CLEAR","Onshore,Onshore,Offshore,Offshore,Offshore,Cross-shore,Offshore,Cross-shore,Offshore,Onshore,Onshore,Onshore",12
5842041f4e65fad6a77088dc,2024_02_18,33.50894790083017,-117.75243,Aliso Creek,2.9166666666666665,1.3241666666666667,1.6191666666666666,15,15,"MOSTLY_CLOUDY,CLOUDY,NIGHT_MOSTLY_CLOUDY,NIGHT_MOSTLY_CLOUDY,NIGHT_CLEAR,CLEAR,MIST,BRIEF_SHOWERS,MIST,MOSTLY_CLEAR,MOSTLY_CLEAR,MOSTLY_CLOUDY","Onshore,Cross-shore,Offshore,Offshore,Cross-shore,Cross-shore,Offshore,Cross-shore,Cross-shore,Cross-shore,Onshore,Onshore",12
5842041f4e65fad6a77088dd,2024_02_18,33.5326591767067,-117.77764,Brooks Street,2.9166666666666665,1.0225,1.2733333333333334,15,15,"MOSTLY_CLOUDY,CLOUDY,NIGHT_FOG,NIGHT_MOSTLY_CLOUDY,NIGHT_MIST,FOG,MIST,MIST,MOSTLY_CLOUDY,MOSTLY_CLEAR,MOSTLY_CLOUDY,MOSTLY_CLOUDY","Onshore,Cross-shore,Offshore,Cross-shore,Cross-shore,Cross-shore,Cross-shore,Cross-shore,Cross-shore,Onshore,Onshore,Onshore",12
5842041f4e65fad6a77088de,2024_02_18,33.53561225884637,-117.7799,Thalia Street,3,1.0766666666666667,1.3358333333333334,15,15,"MOSTLY_CLOUDY,CLOUDY,NIGHT_FOG,NIGHT_MOSTLY_CLOUDY,NIGHT_MIST,FOG,MIST,MIST,MOSTLY_CLOUDY,MOSTLY_CLEAR,MOSTLY_CLOUDY,MOSTLY_CLOUDY","Onshore,Cross-shore,Offshore,Cross-shore,Cross-shore,Cross-shore,Cross-shore,Cross-shore,Cross-shore,Onshore,Onshore,Onshore",12
5842041f4e65fad6a77088e3,2024_02_18,33.54268310353641,-117.7916,Rockpile,3.5833333333333335,1.165,1.4383333333333332,15,15,"MOSTLY_CLOUDY,CLOUDY,NIGHT_FOG,NIGHT_MOSTLY_CLOUDY,NIGHT_MIST,FOG,MIST,MIST,MOSTLY_CLOUDY,MOSTLY_CLEAR,MOSTLY_CLOUDY,MOSTLY_CLOUDY","Cross-shore,Cross-shore,Offshore,Cross-shore,Cross-shore,Cross-shore,Cross-shore,Cross-shore,Cross-shore,Onshore,Onshore,Onshore",12
5842041f4e65fad6a77088e4,2024_02_18,33.7368459504689,-118.10342,"Seal Beach Pier, Southside",2.5,0.5966666666666667,0.9025,15,15,"DRIZZLE,OVERCAST,NIGHT_FOG,NIGHT_CLOUDY,NIGHT_FOG,FOG,MIST,MOSTLY_CLOUDY,BRIEF_SHOWERS,BRIEF_SHOWERS,BRIEF_SHOWERS,MOSTLY_CLEAR","Onshore,Onshore,Cross-shore,Cross-shore,Cross-shore,Offshore,Offshore,Cross-shore,Onshore,Onshore,Onshore,Onshore",12
5842041f4e65fad6a77088e5,2024_02_18,33.73933701820233,-118.117,Ray Bay,2.3333333333333335,0.34,0.6416666666666666,15,15,"DRIZZLE,OVERCAST,NIGHT_FOG,NIGHT_CLEAR,NIGHT_FOG,FOG,MIST,MOSTLY_CLOUDY,BRIEF_SHOWERS,BRIEF_SHOWERS,BRIEF_SHOWERS,BRIEF_SHOWERS_POSSIBLE","Onshore,Onshore,Cross-shore,Cross-shore,Offshore,Offshore,Offshore,Cross-shore,Onshore,Onshore,Onshore,Onshore",12
5842041f4e65fad6a77088e7,2024_02_18,33.728733,-118.08982,Surfside,3,2.0341666666666667,2.430833333333333,15,15,"OVERCAST,DRIZZLE,NIGHT_FOG,NIGHT_FOG,NIGHT_FOG,FOG,OVERCAST,MOSTLY_CLOUDY,MIST,MIST,MIST,MOSTLY_CLEAR","Onshore,Onshore,Cross-shore,Cross-shore,Offshore,Offshore,Offshore,Cross-shore,Onshore,Onshore,Onshore,Onshore",12
5842041f4e65fad6a77088e8,2024_02_18,33.68760321488161,-118.04236,Bolsa Chica State Beach,3,1.9079805555555556,2.4437083333333334,14,14,"OVERCAST,OVERCAST,NIGHT_MOSTLY_CLOUDY,NIGHT_MOSTLY_CLOUDY,NIGHT_FOG,FOG,BRIEF_SHOWERS,MIST,MIST,MIST,MIST,MOSTLY_CLEAR","Onshore,Onshore,Offshore,Onshore,Cross-shore,Cross-shore,Offshore,Offshore,Cross-shore,Cross-shore,Onshore,Onshore",12
5842041f4e65fad6a77088ea,2024_02_18,33.66704400178788,-118.0192,North HB Streets,3,1.9466805555555555,2.7465222222222225,14,14,"CLOUDY,MIST,NIGHT_MOSTLY_CLOUDY,NIGHT_CLEAR,NIGHT_FOG,FOG,MIST,MIST,MIST,MIST,MIST,CLEAR","Onshore,Onshore,Offshore,Cross-shore,Cross-shore,Cross-shore,Cross-shore,Cross-shore,Cross-shore,Cross-shore,Onshore,Onshore",12
5842041f4e65fad6a77088ed,2024_02_18,33.65475101379567,-118.00291,Huntington Beach Pier Southside,3.305833333333333,1.816263888888889,2.6263888888888887,14,14,"OVERCAST,DRIZZLE,NIGHT_MOSTLY_CLOUDY,NIGHT_MOSTLY_CLEAR,NIGHT_FOG,FOG,MIST,MIST,MIST,MIST,MIST,MOSTLY_CLOUDY","Onshore,Onshore,Offshore,Cross-shore,Offshore,Offshore,Offshore,Offshore,Cross-shore,Cross-shore,Cross-shore,Cross-shore",12
5842041f4e65fad6a77088ee,2024_02_18,33.62778647706099,-117.95939,River Jetties,2.9166666666666665,1.5956805555555555,2.1891555555555557,15,15,"OVERCAST,OVERCAST,NIGHT_FOG,NIGHT_MOSTLY_CLOUDY,NIGHT_FOG,FOG,MIST,MIST,MIST,MIST,CLEAR,CLEAR","Onshore,Onshore,Cross-shore,Cross-shore,Offshore,Offshore,Offshore,Cross-shore,Cross-shore,Onshore,Cross-shore,Onshore",12
5842041f4e65fad6a77088f2,2024_02_18,33.605165797643664,-117.92500376701355,Newport Point,2.3333333333333335,0.3625,0.6683333333333333,15,15,"CLOUDY,CLOUDY,NIGHT_FOG,NIGHT_MOSTLY_CLOUDY,NIGHT_MOSTLY_CLOUDY,FOG,MIST,MIST,MIST,MIST,MOSTLY_CLOUDY,CLEAR","Onshore,Onshore,Offshore,Onshore,Onshore,Cross-shore,Cross-shore,Cross-shore,Cross-shore,Onshore,Onshore,Onshore",12
5842041f4e65fad6a77088f3,2024_02_18,33.58982984726977,-117.87713,Corona del Mar,1.4166666666666667,0.20973,0.32770083333333333,15,15,"MOSTLY_CLOUDY,OVERCAST,NIGHT_CLEAR,NIGHT_MOSTLY_CLOUDY,NIGHT_FOG,FOG,MIST,MOSTLY_CLOUDY,MOSTLY_CLOUDY,MOSTLY_CLOUDY,MOSTLY_CLOUDY,MOSTLY_CLOUDY","Onshore,Onshore,Offshore,Offshore,Cross-shore,Offshore,Offshore,Cross-shore,Cross-shore,Cross-shore,Cross-shore,Cross-shore",12
5842041f4e65fad6a77088f7,2024_02_18,34.00750300824362,-118.4971783496269,Santa Monica Pier,2.8333333333333335,0.6525,0.925,15,15,"MOSTLY_CLOUDY,MOSTLY_CLOUDY,NIGHT_FOG,NIGHT_FOG,NIGHT_FOG,FOG,MOSTLY_CLOUDY,MOSTLY_CLOUDY,MIST,LIGHT_RAIN,MIST,MIST","Onshore,Onshore,Offshore,Onshore,Cross-shore,Cross-shore,Offshore,Offshore,Offshore,Offshore,Offshore,Cross-shore",12
5842041f4e65fad6a77088ff,2024_02_18,33.94070283102945,-118.44321,Dockweiler Beach,2.9166666666666665,1.6646615972222223,2.084357638888889,14,14,"CLOUDY,MOSTLY_CLOUDY,NIGHT_CLEAR,NIGHT_MIST,NIGHT_MIST,FOG,CLEAR,MIST,MOSTLY_CLOUDY,MIST,MIST,MIST","Onshore,Onshore,Offshore,Onshore,Cross-shore,Cross-shore,Offshore,Offshore,Offshore,Offshore,Offshore,Cross-shore",12
5842041f4e65fad6a7708900,2024_02_18,33.9231846937237,-118.4341465777908,Shitpipe,2.9166666666666665,1.8492388888888889,2.333363888888889,14,14,"OVERCAST,OVERCAST,NIGHT_CLEAR,NIGHT_MOSTLY_CLOUDY,NIGHT_FOG,FOG,MOSTLY_CLOUDY,MIST,BRIEF_SHOWERS,MIST,MIST,MIST","Onshore,Onshore,Offshore,Cross-shore,Cross-shore,Cross-shore,Offshore,Offshore,Offshore,Offshore,Cross-shore,Cross-shore",12
5842041f4e65fad6a7708902,2024_02_18,33.9108528052242,-118.4279133138721,Hammerland,2.9025,1.9785555555555556,2.7935305555555554,14,14,"OVERCAST,OVERCAST,NIGHT_CLEAR,NIGHT_MOSTLY_CLOUDY,NIGHT_FOG,FOG,MOSTLY_CLOUDY,MIST,BRIEF_SHOWERS,MIST,MIST,MIST","Onshore,Onshore,Offshore,Cross-shore,Cross-shore,Cross-shore,Offshore,Offshore,Offshore,Offshore,Cross-shore,Cross-shore",12
5842041f4e65fad6a7708904,2024_02_18,33.87201368173932,-118.4075151286262,Hermosa Beach,2.8608333333333333,1.4090722222222223,1.8950083333333332,14,14,"CLOUDY,CLOUDY,NIGHT_MOSTLY_CLOUDY,NIGHT_FOG,NIGHT_MIST,FOG,MIST,MIST,MIST,MIST,MIST,MIST","Onshore,Onshore,Onshore,Onshore,Cross-shore,Cross-shore,Offshore,Offshore,Offshore,Offshore,Offshore,Offshore",12
5842041f4e65fad6a7708906,2024_02_18,33.90129336911256,-118.42184,El Porto,2.9166666666666665,2.115638888888889,2.9451972222222222,14,14,"CLOUDY,OVERCAST,NIGHT_CLEAR,NIGHT_MOSTLY_CLOUDY,NIGHT_MIST,FOG,MOSTLY_CLOUDY,MOSTLY_CLOUDY,MIST,MIST,MIST,MIST","Onshore,Onshore,Offshore,Cross-shore,Cross-shore,Cross-shore,Offshore,Offshore,Offshore,Offshore,Cross-shore,Cross-shore",12
5842041f4e65fad6a7708907,2024_02_18,33.87963506431794,-118.41102,Manhattan Beach Pier,2.9166666666666665,2.0149333333333335,2.5349666666666666,14,14,"CLOUDY,OVERCAST,NIGHT_CLEAR,NIGHT_FOG,NIGHT_MIST,FOG,MOSTLY_CLOUDY,MOSTLY_CLOUDY,MIST,MIST,MIST,MIST","Onshore,Onshore,Offshore,Cross-shore,Cross-shore,Cross-shore,Offshore,Offshore,Offshore,Offshore,Offshore,Offshore",12
5842041f4e65fad6a7708914,2024_02_18,34.038053387863464,-118.5532,Sunset Point,2.8333333333333335,0.6141666666666666,0.885,15,15,"MOSTLY_CLOUDY,CLEAR,NIGHT_FOG,NIGHT_FOG,NIGHT_BRIEF_SHOWERS,MIST,MOSTLY_CLOUDY,MIST,MIST,MIST,MIST,MIST","Cross-shore,Onshore,Offshore,Offshore,Offshore,Offshore,Offshore,Cross-shore,Cross-shore,Onshore,Onshore,Onshore",12
5842041f4e65fad6a7708920,2024_02_18,33.80930828074364,-118.3933198342649,Haggerty's,2.8333333333333335,0.772,0.9490000000000001,15,15,"MIST,MOSTLY_CLOUDY,NIGHT_MOSTLY_CLEAR,NIGHT_MOSTLY_CLEAR,NIGHT_CLEAR,MOSTLY_CLOUDY,CLEAR,MOSTLY_CLOUDY,CLEAR,CLEAR,CLEAR,MOSTLY_CLOUDY","Onshore,Onshore,Onshore,Cross-shore,Offshore,Offshore,Offshore,Offshore,Offshore,Offshore,Offshore,Offshore",12
5842041f4e65fad6a7708921,2024_02_18,33.85044519861206,-118.40048,Redondo Breakwater,3.1666666666666665,2.361666666666667,2.8233333333333333,15,15,"CLOUDY,CLOUDY,NIGHT_MOSTLY_CLOUDY,NIGHT_MOSTLY_CLOUDY,NIGHT_MIST,FOG,MIST,MIST,MIST,MIST,MIST,MIST","Onshore,Onshore,Onshore,Cross-shore,Cross-shore,Cross-shore,Offshore,Offshore,Offshore,Offshore,Offshore,Offshore",12
5842041f4e65fad6a7708927,2024_02_18,33.70877301002487,-118.2840112858389,Cabrillo Beach,2.5833333333333335,0.8466666666666667,1.085,15,15,"DRIZZLE,MOSTLY_CLOUDY,NIGHT_FOG,NIGHT_FOG,NIGHT_FOG,FOG,MIST,MOSTLY_CLOUDY,MOSTLY_CLOUDY,BRIEF_SHOWERS,MOSTLY_CLOUDY,MIST","Offshore,Offshore,Cross-shore,Onshore,Onshore,Onshore,Onshore,Onshore,Onshore,Onshore,Onshore,Onshore",12
5842041f4e65fad6a770892c,2024_02_18,33.77209986806257,-118.4268428476672,Lunada Bay,2.8333333333333335,2.9466666666666668,3.529166666666667,15,15,"CLOUDY,MOSTLY_CLOUDY,NIGHT_MOSTLY_CLEAR,NIGHT_MOSTLY_CLOUDY,NIGHT_FOG,MIST,MOSTLY_CLOUDY,CLEAR,CLEAR,MIST,CLEAR,MOSTLY_CLOUDY","Onshore,Onshore,Onshore,Onshore,Cross-shore,Cross-shore,Offshore,Cross-shore,Cross-shore,Cross-shore,Cross-shore,Cross-shore",12
5842041f4e65fad6a770892d,2024_02_18,33.79294656286144,-118.4070316699825,PV Cove,3.6666666666666665,1.6494116666666667,1.920375,15,15,"MIST,MOSTLY_CLOUDY,NIGHT_MOSTLY_CLEAR,NIGHT_MOSTLY_CLOUDY,NIGHT_CLEAR,MOSTLY_CLOUDY,CLEAR,MOSTLY_CLOUDY,CLEAR,CLEAR,CLEAR,MOSTLY_CLOUDY","Onshore,Onshore,Onshore,Cross-shore,Offshore,Offshore,Offshore,Offshore,Offshore,Offshore,Offshore,Offshore",12
5842041f4e65fad6a7708930,2024_02_18,34.03944902292561,-118.57539,Chart House,2.6666666666666665,0.40166666666666667,0.7066666666666667,15,15,"MOSTLY_CLOUDY,MOSTLY_CLOUDY,NIGHT_FOG,NIGHT_FOG,NIGHT_BRIEF_SHOWERS,FOG,MIST,MOSTLY_CLOUDY,MIST,MIST,MIST,BRIEF_SHOWERS","Cross-shore,Cross-shore,Offshore,Offshore,Offshore,Offshore,Cross-shore,Onshore,Onshore,Onshore,Onshore,Onshore",12
5842041f4e65fad6a7708936,2024_02_18,34.0016731994772,-118.80456,Point Dume,3.2775,0.8737694444444444,1.1878444444444445,15,15,"MOSTLY_CLOUDY,CLEAR,NIGHT_CLEAR,NIGHT_MOSTLY_CLOUDY,NIGHT_MIST,MIST,MOSTLY_CLOUDY,BRIEF_SHOWERS,CLEAR,MOSTLY_CLOUDY,BRIEF_SHOWERS,MIST","Cross-shore,Cross-shore,Offshore,Onshore,Onshore,Onshore,Cross-shore,Cross-shore,Cross-shore,Cross-shore,Cross-shore,Onshore",12
5842041f4e65fad6a7708937,2024_02_18,34.02587527588963,-118.7554939066114,Latigo Point,2.1666666666666665,0.36083333333333334,0.665,15,15,"MOSTLY_CLOUDY,MOSTLY_CLOUDY,NIGHT_MOSTLY_CLEAR,NIGHT_MIST,NIGHT_BRIEF_SHOWERS,MIST,MOSTLY_CLOUDY,BRIEF_SHOWERS,MIST,MIST,MIST,MIST","Cross-shore,Cross-shore,Onshore,Onshore,Onshore,Onshore,Cross-shore,Onshore,Onshore,Cross-shore,Onshore,Onshore",12
5842041f4e65fad6a770893f,2024_02_18,34.043762,-118.93294,Leo Carrillo,2.625,1.049111111111111,1.3205638888888889,15,15,"MOSTLY_CLOUDY,MIST,NIGHT_MOSTLY_CLOUDY,NIGHT_MIST,NIGHT_MIST,MIST,MOSTLY_CLOUDY,MOSTLY_CLOUDY,MOSTLY_CLOUDY,MOSTLY_CLOUDY,CLEAR,MOSTLY_CLOUDY","Cross-shore,Cross-shore,Cross-shore,Offshore,Offshore,Offshore,Offshore,Cross-shore,Onshore,Onshore,Onshore,Onshore",12
5842041f4e65fad6a7708941,2024_02_18,36.69388179265737,-121.81289,Marina State Beach,3,3.430833333333333,4.100833333333333,13.666666666666666,13.666666666666666,"DRIZZLE,MOSTLY_CLOUDY,NIGHT_MOSTLY_CLOUDY,NIGHT_MIST,NIGHT_MIST,MOSTLY_CLEAR,MIST,MIST,CLEAR,CLEAR,CLEAR,MOSTLY_CLEAR","Offshore,Offshore,Offshore,Offshore,Offshore,Offshore,Offshore,Offshore,Offshore,Offshore,Offshore,Onshore",12
5842041f4e65fad6a7708944,2024_02_18,34.34145077331085,-119.416999352654,Stanley's,3.6666666666666665,1.3508333333333333,1.6166666666666667,15,15,"MOSTLY_CLEAR,MIST,NIGHT_MOSTLY_CLOUDY,NIGHT_BRIEF_SHOWERS,NIGHT_MOSTLY_CLOUDY,LIGHT_RAIN,MOSTLY_CLOUDY,CLEAR,CLEAR,CLEAR,MOSTLY_CLEAR,CLEAR","Onshore,Onshore,Offshore,Offshore,Offshore,Offshore,Offshore,Offshore,Offshore,Offshore,Offshore,Cross-shore",12
5842041f4e65fad6a7708945,2024_02_18,34.35113017313915,-119.426921498899,Oil Piers,3.25,1.4441666666666666,1.7258333333333333,15,15,"MOSTLY_CLEAR,MIST,NIGHT_MOSTLY_CLOUDY,NIGHT_BRIEF_SHOWERS,NIGHT_MOSTLY_CLOUDY,LIGHT_RAIN,MOSTLY_CLOUDY,CLEAR,CLEAR,CLEAR,MOSTLY_CLEAR,CLEAR","Onshore,Onshore,Offshore,Offshore,Offshore,Offshore,Offshore,Offshore,Cross-shore,Cross-shore,Cross-shore,Cross-shore",12
5842041f4e65fad6a770894c,2024_02_18,34.17876333306018,-119.2399483564372,Oxnard,3.1666666666666665,1.8891666666666667,2.265833333333333,15,15,"CLEAR,CLEAR,NIGHT_FOG,NIGHT_FOG,NIGHT_MIST,FOG,MOSTLY_CLOUDY,CLEAR,CLEAR,CLEAR,CLEAR,MOSTLY_CLOUDY","Onshore,Onshore,Offshore,Cross-shore,Cross-shore,Cross-shore,Offshore,Offshore,Offshore,Cross-shore,Cross-shore,Cross-shore",12
5842041f4e65fad6a7708957,2024_02_18,34.31720331100517,-119.3882324751725,Pitas Point,3.1666666666666665,1.4991666666666665,1.8016666666666667,15,15,"MIST,MIST,NIGHT_MOSTLY_CLOUDY,NIGHT_MOSTLY_CLOUDY,NIGHT_FOG,MIST,MOSTLY_CLOUDY,CLEAR,CLEAR,MOSTLY_CLOUDY,MOSTLY_CLEAR,CLEAR","Onshore,Cross-shore,Offshore,Offshore,Offshore,Offshore,Cross-shore,Cross-shore,Onshore,Onshore,Onshore,Onshore",12
5842041f4e65fad6a7708959,2024_02_18,34.27851754384724,-119.316202617226,Emma Wood,3.4166666666666665,1.3491666666666666,1.6258333333333332,15,15,"MOSTLY_CLEAR,MOSTLY_CLEAR,NIGHT_CLEAR,NIGHT_FOG,NIGHT_MIST,OVERCAST,MOSTLY_CLOUDY,CLEAR,CLEAR,CLEAR,CLEAR,MOSTLY_CLOUDY","Onshore,Onshore,Offshore,Offshore,Offshore,Offshore,Offshore,Offshore,Cross-shore,Cross-shore,Cross-shore,Cross-shore",12
5842041f4e65fad6a770895a,2024_02_18,34.35513640390276,-119.4400589884255,Mussel Shoals (aka Little Rincon),3.9166666666666665,1.885,2.251666666666667,15,15,"MOSTLY_CLEAR,MOSTLY_CLEAR,NIGHT_MOSTLY_CLOUDY,NIGHT_MOSTLY_CLOUDY,NIGHT_MOSTLY_CLOUDY,OVERCAST,CLEAR,CLEAR,MOSTLY_CLOUDY,MOSTLY_CLOUDY,MOSTLY_CLEAR,MOSTLY_CLEAR","Onshore,Cross-shore,Offshore,Offshore,Offshore,Cross-shore,Offshore,Offshore,Cross-shore,Cross-shore,Cross-shore,Cross-shore",12
5842041f4e65fad6a770895e,2024_02_18,34.28991757054902,-119.3366646794652,Summer Beach,2.9166666666666665,0.9125,1.1825,15,15,"MOSTLY_CLEAR,MOSTLY_CLEAR,NIGHT_CLEAR,NIGHT_FOG,NIGHT_MIST,OVERCAST,MOSTLY_CLOUDY,CLEAR,CLEAR,CLEAR,CLEAR,MOSTLY_CLOUDY","Onshore,Onshore,Offshore,Offshore,Offshore,Offshore,Offshore,Offshore,Offshore,Offshore,Offshore,Offshore",12
5842041f4e65fad6a770895f,2024_02_18,34.30897456105926,-119.3582501170116,Solimar,2.8333333333333335,0.925,1.1616666666666666,15,15,"MIST,MIST,NIGHT_MOSTLY_CLOUDY,NIGHT_BRIEF_SHOWERS,NIGHT_FOG,MIST,MOSTLY_CLOUDY,CLEAR,CLEAR,MOSTLY_CLOUDY,MOSTLY_CLEAR,CLEAR","Onshore,Cross-shore,Offshore,Offshore,Offshore,Offshore,Cross-shore,Cross-shore,Onshore,Onshore,Onshore,Onshore",12
5842041f4e65fad6a7708960,2024_02_18,34.39836265281686,-119.70213,Leadbetter Point,2.3333333333333335,0.6333333333333333,0.9158333333333334,14,14,"MOSTLY_CLEAR,MOSTLY_CLEAR,NIGHT_LIGHT_RAIN,NIGHT_MOSTLY_CLOUDY,NIGHT_MOSTLY_CLOUDY,FOG,CLEAR,CLEAR,MOSTLY_CLEAR,MOSTLY_CLEAR,MOSTLY_CLEAR,BRIEF_SHOWERS","Cross-shore,Cross-shore,Offshore,Offshore,Onshore,Offshore,Offshore,Onshore,Onshore,Onshore,Onshore,Onshore",12
5842041f4e65fad6a7708961,2024_02_18,34.46052293893899,-120.07328,Refugio,1.3333333333333333,0.47250000000000003,0.7758333333333334,14,14,"MOSTLY_CLEAR,MOSTLY_CLEAR,NIGHT_BRIEF_SHOWERS,NIGHT_MOSTLY_CLOUDY,NIGHT_BRIEF_SHOWERS,MOSTLY_CLOUDY,MOSTLY_CLEAR,BRIEF_SHOWERS,SHOWERS,MOSTLY_CLEAR,MOSTLY_CLOUDY,MOSTLY_CLOUDY","Onshore,Onshore,Onshore,Onshore,Onshore,Onshore,Onshore,Onshore,Onshore,Onshore,Onshore,Onshore",12
5842041f4e65fad6a7708962,2024_02_18,34.40754276777778,-119.87639,Devereux,2.8333333333333335,1.505,1.81,14,14,"MIST,MIST,NIGHT_LIGHT_RAIN_AND_FOG,NIGHT_MOSTLY_CLOUDY,NIGHT_MOSTLY_CLOUDY,CLOUDY,CLEAR,MOSTLY_CLOUDY,MOSTLY_CLOUDY,CLEAR,MOSTLY_CLOUDY,BRIEF_SHOWERS","Cross-shore,Cross-shore,Cross-shore,Cross-shore,Cross-shore,Cross-shore,Cross-shore,Onshore,Onshore,Onshore,Onshore,Onshore",12
5842041f4e65fad6a7708963,2024_02_18,34.27479983305182,-119.3133222656776,Ventura Overhead,3.8333333333333335,1.4933333333333334,1.7925,15,15,"MOSTLY_CLEAR,CLEAR,NIGHT_BRIEF_SHOWERS,NIGHT_MOSTLY_CLOUDY,NIGHT_MIST,OVERCAST,CLEAR,CLEAR,CLEAR,CLEAR,MOSTLY_CLOUDY,MOSTLY_CLOUDY","Onshore,Onshore,Offshore,Offshore,Offshore,Offshore,Offshore,Offshore,Offshore,Offshore,Offshore,Offshore",12
5842041f4e65fad6a7708964,2024_02_18,34.41023236011655,-119.88261,Sands,3.4166666666666665,1.5116666666666667,1.8091666666666666,14,14,"MIST,MIST,NIGHT_LIGHT_RAIN_AND_FOG,NIGHT_MOSTLY_CLOUDY,NIGHT_MOSTLY_CLOUDY,CLOUDY,CLEAR,MOSTLY_CLOUDY,MOSTLY_CLOUDY,CLEAR,MOSTLY_CLOUDY,BRIEF_SHOWERS","Onshore,Onshore,Offshore,Offshore,Offshore,Offshore,Offshore,Offshore,Offshore,Offshore,Offshore,Offshore",12
5842041f4e65fad6a7708966,2024_02_18,34.40450193869233,-119.68752,Sandspit,2.0833333333333335,0.2658333333333333,0.5683333333333334,14,14,"MOSTLY_CLEAR,CLEAR,NIGHT_RAIN,NIGHT_MOSTLY_CLOUDY,NIGHT_MOSTLY_CLOUDY,FOG,MOSTLY_CLEAR,CLEAR,MOSTLY_CLEAR,MOSTLY_CLEAR,MOSTLY_CLEAR,MOSTLY_CLOUDY","Cross-shore,Cross-shore,Offshore,Offshore,Cross-shore,Offshore,Offshore,Cross-shore,Onshore,Onshore,Onshore,Onshore",12
5842041f4e65fad6a7708967,2024_02_18,34.41549098334453,-119.6375149840203,Hammond's,2.4166666666666665,0.7233333333333333,0.9758333333333333,14,14,"MOSTLY_CLEAR,CLEAR,NIGHT_OVERCAST,NIGHT_LIGHT_RAIN_AND_FOG,NIGHT_MOSTLY_CLOUDY,BRIEF_SHOWERS,MOSTLY_CLEAR,CLEAR,MOSTLY_CLEAR,SHOWERS,BRIEF_SHOWERS,MOSTLY_CLOUDY","Cross-shore,Cross-shore,Cross-shore,Cross-shore,Cross-shore,Cross-shore,Cross-shore,Cross-shore,Onshore,Onshore,Onshore,Onshore",12
5842041f4e65fad6a7708968,2024_02_18,34.45759322742309,-120.0220251867315,El Capitan,2.0833333333333335,0.7508333333333334,1.0016666666666667,14,14,"MOSTLY_CLEAR,MOSTLY_CLEAR,NIGHT_BRIEF_SHOWERS,NIGHT_MOSTLY_CLOUDY,NIGHT_BRIEF_SHOWERS,MOSTLY_CLOUDY,CLEAR,MOSTLY_CLOUDY,BRIEF_SHOWERS,MOSTLY_CLEAR,BRIEF_SHOWERS,MOSTLY_CLOUDY","Onshore,Onshore,Cross-shore,Cross-shore,Onshore,Cross-shore,Cross-shore,Onshore,Onshore,Onshore,Onshore,Onshore",12
5842041f4e65fad6a770896c,2024_02_18,34.405117655616,-119.84317,Campus Point,2.9166666666666665,0.9033333333333333,1.155,14,14,"MOSTLY_CLEAR,CLEAR,NIGHT_LIGHT_RAIN_AND_FOG,NIGHT_RAIN_AND_FOG,NIGHT_MOSTLY_CLOUDY,FOG,CLEAR,CLEAR,MOSTLY_CLOUDY,CLEAR,MOSTLY_CLOUDY,BRIEF_SHOWERS","Cross-shore,Cross-shore,Onshore,Cross-shore,Cross-shore,Cross-shore,Cross-shore,Onshore,Onshore,Onshore,Onshore,Onshore",12
5842041f4e65fad6a770896e,2024_02_18,34.38935162233354,-119.51955,Carpinteria State Beach,3,2.1241666666666665,2.5383333333333336,14,14,"MOSTLY_CLEAR,MIST,NIGHT_MOSTLY_CLOUDY,NIGHT_FOG,NIGHT_MOSTLY_CLOUDY,MOSTLY_CLOUDY,CLEAR,CLEAR,CLEAR,CLEAR,MOSTLY_CLEAR,CLEAR","Onshore,Onshore,Offshore,Offshore,Offshore,Offshore,Offshore,Cross-shore,Cross-shore,Cross-shore,Cross-shore,Cross-shore",12
5842041f4e65fad6a770896f,2024_02_18,37.48296565175612,-122.4549300127824,Half Moon Bay,1.8333333333333333,3.185,3.8066666666666666,13,13,"HEAVY_SHOWERS,MOSTLY_CLOUDY,NIGHT_BRIEF_SHOWERS,NIGHT_MIST,NIGHT_CLEAR,CLEAR,CLEAR,CLEAR,CLEAR,MOSTLY_CLEAR,MOSTLY_CLEAR,MOSTLY_CLOUDY","Onshore,Onshore,Onshore,Onshore,Cross-shore,Offshore,Cross-shore,Cross-shore,Cross-shore,Cross-shore,Onshore,Onshore",12
5842041f4e65fad6a7708970,2024_02_18,37.499,-122.471,Princeton Jetty,2.1666666666666665,2.605,3.1149999999999998,13,13,"SHOWERS,MOSTLY_CLOUDY,NIGHT_FOG,NIGHT_BRIEF_SHOWERS,NIGHT_CLEAR,CLEAR,CLEAR,CLEAR,CLEAR,CLEAR,MOSTLY_CLEAR,MOSTLY_CLOUDY","Onshore,Onshore,Onshore,Onshore,Cross-shore,Cross-shore,Onshore,Onshore,Onshore,Onshore,Onshore,Onshore",12
5842041f4e65fad6a7708972,2024_02_18,37.35699547365155,-122.4069534707252,Tunitas Creek,1.5,3.8975,4.658333333333333,13,13,"BRIEF_SHOWERS,MOSTLY_CLOUDY,NIGHT_MIST,NIGHT_MIST,NIGHT_CLEAR,CLEAR,CLEAR,CLEAR,CLEAR,CLEAR,MOSTLY_CLEAR,MOSTLY_CLOUDY","Cross-shore,Cross-shore,Onshore,Onshore,Cross-shore,Cross-shore,Cross-shore,Cross-shore,Cross-shore,Cross-shore,Cross-shore,Cross-shore",12
5842041f4e65fad6a7708974,2024_02_18,37.54735589428842,-122.5161090212687,Montara,2.75,3.3666666666666667,4.024166666666667,13,13,"BRIEF_SHOWERS,SHOWERS,NIGHT_LIGHT_RAIN,NIGHT_MIST,NIGHT_MIST,MOSTLY_CLOUDY,CLEAR,CLEAR,CLEAR,CLEAR,MOSTLY_CLOUDY,MOSTLY_CLOUDY","Offshore,Offshore,Cross-shore,Offshore,Offshore,Offshore,Offshore,Offshore,Offshore,Offshore,Offshore,Offshore",12
5842041f4e65fad6a7708975,2024_02_18,34.3869373724559,-119.5142334209018,Tarpits,3.1666666666666665,1.97,2.3575,14,14,"MOSTLY_CLEAR,MOSTLY_CLEAR,NIGHT_MOSTLY_CLOUDY,NIGHT_MOSTLY_CLOUDY,NIGHT_MOSTLY_CLOUDY,MOSTLY_CLOUDY,CLEAR,CLEAR,CLEAR,CLEAR,MOSTLY_CLEAR,MOSTLY_CLEAR","Onshore,Cross-shore,Offshore,Offshore,Offshore,Cross-shore,Cross-shore,Onshore,Onshore,Onshore,Onshore,Onshore",12
5842041f4e65fad6a7708976,2024_02_18,37.59881852720143,-122.50463,Pacifica / Linda Mar,2.9166666666666665,1.027211111111111,1.4062972222222223,14,14,"BRIEF_SHOWERS,BRIEF_SHOWERS,NIGHT_MIST,NIGHT_MIST,NIGHT_CLEAR,CLEAR,CLEAR,CLEAR,CLEAR,CLEAR,MOSTLY_CLEAR,CLEAR","Offshore,Cross-shore,Cross-shore,Cross-shore,Offshore,Offshore,Offshore,Offshore,Offshore,Offshore,Offshore,Offshore",12
5842041f4e65fad6a7708978,2024_02_18,37.59883098461164,-122.5143843582282,Pedro Point,2.8333333333333335,3.4025,4.065833333333333,13,13,"BRIEF_SHOWERS,BRIEF_SHOWERS,NIGHT_MIST,NIGHT_BRIEF_SHOWERS,NIGHT_CLEAR,CLEAR,CLEAR,CLEAR,CLEAR,CLEAR,MOSTLY_CLOUDY,MOSTLY_CLOUDY","Offshore,Offshore,Cross-shore,Offshore,Offshore,Offshore,Offshore,Offshore,Offshore,Offshore,Offshore,Offshore",12
5842041f4e65fad6a7708979,2024_02_18,37.61081996647663,-122.4973287570634,Rockaway,2.6666666666666665,3.1,3.7066666666666666,13,13,"BRIEF_SHOWERS,BRIEF_SHOWERS,NIGHT_MIST,NIGHT_MIST,NIGHT_CLEAR,CLEAR,CLEAR,CLEAR,CLEAR,CLEAR,MOSTLY_CLEAR,CLEAR","Cross-shore,Cross-shore,Onshore,Cross-shore,Offshore,Offshore,Offshore,Offshore,Offshore,Offshore,Offshore,Cross-shore",12
5842041f4e65fad6a770897a,2024_02_18,37.809987384424446,-122.4751353263855,Fort Point,2.8333333333333335,2.2491666666666665,2.6875,13,13,"MOSTLY_CLOUDY,BRIEF_SHOWERS,NIGHT_CLOUDY,NIGHT_MIST,NIGHT_MIST,MIST,MIST,MIST,MIST,CLEAR,MOSTLY_CLEAR,CLEAR","Onshore,Onshore,Onshore,Onshore,Onshore,Onshore,Onshore,Onshore,Onshore,Onshore,Onshore,Onshore",12
5842041f4e65fad6a770897c,2024_02_18,37.63422542967464,-122.4951,Sharp Park,2.25,3.5566666666666666,4.25,13,13,"BRIEF_SHOWERS,BRIEF_SHOWERS,NIGHT_DRIZZLE,NIGHT_MOSTLY_CLOUDY,NIGHT_CLEAR,CLEAR,CLEAR,CLEAR,CLEAR,CLEAR,MOSTLY_CLEAR,MOSTLY_CLOUDY","Cross-shore,Cross-shore,Onshore,Cross-shore,Offshore,Offshore,Offshore,Offshore,Offshore,Offshore,Offshore,Cross-shore",12
5842041f4e65fad6a770897d,2024_02_18,37.27313605072472,-122.4127387912554,Pescadero,2.25,3.5125,4.196666666666666,13,13,"LIGHT_SHOWERS_POSSIBLE,LIGHT_RAIN,NIGHT_MIST,NIGHT_MIST,NIGHT_BRIEF_SHOWERS,BRIEF_SHOWERS,CLEAR,CLEAR,MOSTLY_CLOUDY,MOSTLY_CLEAR,CLEAR,MOSTLY_CLOUDY","Offshore,Cross-shore,Cross-shore,Cross-shore,Offshore,Offshore,Offshore,Offshore,Offshore,Offshore,Cross-shore,Cross-shore",12
5842041f4e65fad6a770897e,2024_02_18,37.18140279972666,-122.3926685899327,Pigeon Point,1.0833333333333333,3.665,4.38,13,13,"MOSTLY_CLOUDY,LIGHT_RAIN,NIGHT_MIST,NIGHT_MIST,NIGHT_MOSTLY_CLOUDY,MOSTLY_CLOUDY,CLEAR,CLEAR,CLEAR,CLEAR,MOSTLY_CLOUDY,MOSTLY_CLOUDY","Onshore,Onshore,Onshore,Onshore,Onshore,Onshore,Onshore,Onshore,Onshore,Onshore,Onshore,Onshore",12
5842041f4e65fad6a770897f,2024_02_18,37.11578956919415,-122.314699271291,Ano Nuevo,1.5,3.9125,4.675,13,13,"OVERCAST,LIGHT_RAIN,NIGHT_MIST,NIGHT_MIST,NIGHT_MOSTLY_CLOUDY,MOSTLY_CLOUDY,MOSTLY_CLOUDY,CLEAR,MOSTLY_CLOUDY,CLEAR,CLEAR,MOSTLY_CLOUDY","Onshore,Onshore,Onshore,Onshore,Onshore,Onshore,Onshore,Onshore,Onshore,Onshore,Onshore,Onshore",12
5842041f4e65fad6a7708980,2024_02_18,37.09520872681598,-122.2805474707768,Waddell Creek,1.75,2.9491666666666667,3.526666666666667,13,13,"RAIN,LIGHT_RAIN,NIGHT_MIST,NIGHT_MIST,NIGHT_MOSTLY_CLOUDY,MOSTLY_CLOUDY,MOSTLY_CLEAR,MOSTLY_CLOUDY,MOSTLY_CLOUDY,CLEAR,CLEAR,CLEAR","Cross-shore,Onshore,Onshore,Onshore,Cross-shore,Cross-shore,Cross-shore,Cross-shore,Cross-shore,Cross-shore,Onshore,Cross-shore",12
5842041f4e65fad6a7708981,2024_02_18,36.96512852130351,-122.1252825495626,Four Mile,1.9166666666666667,3.6225,4.329166666666667,13,13,"RAIN,OVERCAST,NIGHT_MIST,NIGHT_MIST,NIGHT_MOSTLY_CLOUDY,MOSTLY_CLOUDY,CLEAR,MOSTLY_CLOUDY,CLEAR,CLEAR,BRIEF_SHOWERS,MOSTLY_CLOUDY","Onshore,Onshore,Cross-shore,Onshore,Cross-shore,Cross-shore,Cross-shore,Cross-shore,Onshore,Onshore,Onshore,Onshore",12
5842041f4e65fad6a7708982,2024_02_18,37.04122807048655,-122.2333684729756,Scott Creek,2,3.0675,3.6675,13,13,"RAIN,HEAVY_RAIN,NIGHT_MIST,NIGHT_MIST,NIGHT_MOSTLY_CLOUDY,MOSTLY_CLOUDY,MOSTLY_CLEAR,MOSTLY_CLOUDY,MOSTLY_CLOUDY,CLEAR,MOSTLY_CLOUDY,MOSTLY_CLOUDY","Cross-shore,Onshore,Onshore,Onshore,Cross-shore,Cross-shore,Cross-shore,Cross-shore,Cross-shore,Cross-shore,Onshore,Cross-shore",12
5842041f4e65fad6a7708983,2024_02_18,37.02350229387179,-122.21908,Davenport,2,3.1866666666666665,3.8083333333333336,13,13,"HEAVY_RAIN,LIGHT_RAIN,NIGHT_DRIZZLE,NIGHT_DRIZZLE,NIGHT_MOSTLY_CLOUDY,MOSTLY_CLOUDY,CLEAR,CLEAR,MOSTLY_CLOUDY,CLEAR,MOSTLY_CLOUDY,MOSTLY_CLOUDY","Cross-shore,Onshore,Onshore,Onshore,Cross-shore,Cross-shore,Cross-shore,Cross-shore,Cross-shore,Cross-shore,Onshore,Cross-shore",12
5842041f4e65fad6a7708986,2024_02_18,36.94905295955728,-122.0611823912244,Natural Bridges,2.5833333333333335,3.3891666666666667,4.049166666666666,13,13,"LIGHT_RAIN,MIST,NIGHT_FOG,NIGHT_MIST,NIGHT_CLEAR,CLEAR,CLEAR,CLEAR,CLEAR,MOSTLY_CLEAR,MOSTLY_CLOUDY,MOSTLY_CLOUDY","Cross-shore,Onshore,Onshore,Onshore,Cross-shore,Cross-shore,Cross-shore,Cross-shore,Cross-shore,Cross-shore,Onshore,Onshore",12
5842041f4e65fad6a7708987,2024_02_18,36.95154854910425,-122.0420693940968,Mitchell's Cove,2.8333333333333335,2.3941666666666666,2.8575,13,13,"LIGHT_RAIN,MIST,NIGHT_FOG,NIGHT_FOG,NIGHT_CLEAR,CLEAR,CLEAR,CLEAR,CLEAR,CLEAR,MOSTLY_CLOUDY,MOSTLY_CLOUDY","Onshore,Onshore,Onshore,Onshore,Onshore,Cross-shore,Onshore,Onshore,Onshore,Onshore,Onshore,Cross-shore",12
5842041f4e65fad6a770898a,2024_02_18,36.9572312370203,-121.98177,26th Ave,2.6666666666666665,2.6775,3.2,13,13,"LIGHT_RAIN,LIGHT_RAIN,NIGHT_FOG,NIGHT_LIGHT_RAIN_AND_FOG,NIGHT_CLEAR,CLEAR,CLEAR,CLEAR,CLEAR,CLEAR,MOSTLY_CLOUDY,BRIEF_SHOWERS","Cross-shore,Cross-shore,Onshore,Onshore,Offshore,Offshore,Offshore,Cross-shore,Cross-shore,Cross-shore,Cross-shore,Onshore",12
5842041f4e65fad6a770898e,2024_02_18,36.91899972819882,-121.85536,Manresa,2.8333333333333335,3.1683333333333334,3.7866666666666666,13,13,"DRIZZLE,HEAVY_RAIN,NIGHT_MIST,NIGHT_MIST,NIGHT_CLEAR,CLEAR,CLEAR,CLEAR,CLEAR,CLEAR,CLEAR,MOSTLY_CLOUDY","Cross-shore,Cross-shore,Cross-shore,Cross-shore,Offshore,Offshore,Offshore,Cross-shore,Cross-shore,Cross-shore,Cross-shore,Onshore",12
5842041f4e65fad6a7708990,2024_02_18,34.45747731928454,-120.34242,The Ranch,2.1666666666666665,2.0033333333333334,2.3941666666666666,14,14,"MIST,MOSTLY_CLOUDY,NIGHT_BRIEF_SHOWERS,NIGHT_SHOWERS,NIGHT_BRIEF_SHOWERS,BRIEF_SHOWERS,MIST,MOSTLY_CLEAR,MOSTLY_CLEAR,MOSTLY_CLOUDY,BRIEF_SHOWERS,BRIEF_SHOWERS","Onshore,Onshore,Onshore,Onshore,Onshore,Onshore,Onshore,Onshore,Onshore,Onshore,Onshore,Onshore",12
5842041f4e65fad6a7708991,2024_02_18,34.50875036590315,-120.50348,Jalama,2.5,2.254166666666667,2.6925,14,14,"MIST,MOSTLY_CLOUDY,NIGHT_MOSTLY_CLOUDY,NIGHT_MOSTLY_CLOUDY,NIGHT_MOSTLY_CLOUDY,MOSTLY_CLOUDY,CLEAR,CLEAR,MOSTLY_CLEAR,CLEAR,BRIEF_SHOWERS,BRIEF_SHOWERS","Onshore,Onshore,Cross-shore,Cross-shore,Cross-shore,Cross-shore,Cross-shore,Cross-shore,Cross-shore,Cross-shore,Cross-shore,Cross-shore",12
5842041f4e65fad6a7708996,2024_02_18,34.68700870220497,-120.6111611019887,Surf Beach,2.5833333333333335,4.2125,5.035833333333334,14,14,"MIST,OVERCAST,NIGHT_MOSTLY_CLOUDY,NIGHT_CLEAR,NIGHT_CLEAR,CLEAR,CLEAR,CLEAR,CLEAR,CLEAR,CLEAR,MOSTLY_CLOUDY","Cross-shore,Cross-shore,Offshore,Offshore,Offshore,Offshore,Offshore,Offshore,Offshore,Offshore,Offshore,Offshore",12
5842041f4e65fad6a770899c,2024_02_18,35.5730538161116,-121.1143362345574,Moonstone,2.0833333333333335,3.575,4.270833333333333,14,14,"RAIN,HEAVY_RAIN,NIGHT_MOSTLY_CLOUDY,NIGHT_MIST,NIGHT_MOSTLY_CLOUDY,MOSTLY_CLOUDY,MOSTLY_CLOUDY,MOSTLY_CLOUDY,MOSTLY_CLOUDY,MOSTLY_CLEAR,MOSTLY_CLEAR,MOSTLY_CLOUDY","Cross-shore,Cross-shore,Cross-shore,Cross-shore,Offshore,Offshore,Cross-shore,Cross-shore,Cross-shore,Cross-shore,Cross-shore,Cross-shore",12
5842041f4e65fad6a770899d,2024_02_18,35.61533716776573,-121.1502053073914,Pico Creek,2.9166666666666665,2.7466666666666666,3.283333333333333,14,14,"RAIN,RAIN,NIGHT_MIST,NIGHT_OVERCAST,NIGHT_MOSTLY_CLOUDY,MOSTLY_CLOUDY,MOSTLY_CLOUDY,MOSTLY_CLOUDY,MOSTLY_CLOUDY,MOSTLY_CLOUDY,MOSTLY_CLEAR,MOSTLY_CLOUDY","Cross-shore,Cross-shore,Cross-shore,Cross-shore,Offshore,Offshore,Cross-shore,Cross-shore,Cross-shore,Cross-shore,Cross-shore,Cross-shore",12
5842041f4e65fad6a770899e,2024_02_18,35.56829031927379,-121.1120653023953,Santa Rosa Creek,2,3.586666666666667,4.285,14,14,"LIGHT_RAIN,HEAVY_RAIN,NIGHT_OVERCAST,NIGHT_DRIZZLE,NIGHT_MOSTLY_CLOUDY,MOSTLY_CLOUDY,CLEAR,MOSTLY_CLOUDY,MOSTLY_CLOUDY,MOSTLY_CLEAR,CLEAR,CLOUDY","Cross-shore,Onshore,Cross-shore,Cross-shore,Cross-shore,Cross-shore,Cross-shore,Cross-shore,Cross-shore,Cross-shore,Cross-shore,Cross-shore",12
5842041f4e65fad6a77089a2,2024_02_18,35.44820114936284,-120.90715,"Cayucos Pier, Southside ",2.25,2.1433333333333335,2.5625,14,14,"RAIN,LIGHT_RAIN,NIGHT_FOG,NIGHT_FOG,NIGHT_CLEAR,CLEAR,CLEAR,CLEAR,CLEAR,MOSTLY_CLEAR,CLEAR,MOSTLY_CLOUDY","Onshore,Onshore,Onshore,Onshore,Cross-shore,Onshore,Onshore,Onshore,Onshore,Onshore,Onshore,Onshore",12
5842041f4e65fad6a77089a4,2024_02_18,35.30143372628852,-120.877819239902,Cable Landing,2.9166666666666665,4.611666666666666,5.511666666666667,14,14,"LIGHT_SHOWERS_POSSIBLE,LIGHT_RAIN,NIGHT_MOSTLY_CLOUDY,NIGHT_MOSTLY_CLOUDY,NIGHT_CLEAR,CLEAR,CLEAR,CLEAR,CLEAR,CLEAR,CLEAR,CLEAR","Cross-shore,Cross-shore,Offshore,Offshore,Offshore,Offshore,Offshore,Offshore,Offshore,Cross-shore,Cross-shore,Cross-shore",12
5842041f4e65fad6a77089a9,2024_02_18,35.61269103500222,-121.1480725356606,San Simeon,2,2.0679166666666666,2.471,14,14,"RAIN,RAIN,NIGHT_BRIEF_SHOWERS,NIGHT_BRIEF_SHOWERS,NIGHT_MOSTLY_CLOUDY,BRIEF_SHOWERS,MOSTLY_CLOUDY,CLEAR,MOSTLY_CLOUDY,MOSTLY_CLEAR,SHOWERS,MOSTLY_CLOUDY","Onshore,Onshore,Onshore,Cross-shore,Cross-shore,Cross-shore,Cross-shore,Cross-shore,Cross-shore,Cross-shore,Onshore,Onshore",12
5842041f4e65fad6a77089ab,2024_02_18,35.1775325966252,-120.7341125142258,Avila Beach,1.8333333333333333,0.6783333333333333,0.9625,14,14,"RAIN,DRIZZLE,NIGHT_FOG,NIGHT_RAIN_AND_FOG,NIGHT_CLEAR,MOSTLY_CLEAR,CLEAR,CLEAR,MOSTLY_CLEAR,CLEAR,CLEAR,MOSTLY_CLOUDY","Onshore,Onshore,Cross-shore,Cross-shore,Cross-shore,Cross-shore,Cross-shore,Cross-shore,Onshore,Onshore,Onshore,Onshore",12
5842041f4e65fad6a77089ac,2024_02_18,35.13877877884115,-120.64535,Pismo Beach Pier,2.3608333333333333,2.2824,3.0293972222222223,14,14,"RAIN,OVERCAST,NIGHT_OVERCAST,NIGHT_MIST,NIGHT_MOSTLY_CLEAR,CLEAR,CLEAR,CLEAR,CLEAR,CLEAR,MOSTLY_CLOUDY,MOSTLY_CLOUDY","Cross-shore,Cross-shore,Cross-shore,Cross-shore,Cross-shore,Cross-shore,Cross-shore,Cross-shore,Cross-shore,Cross-shore,Cross-shore,Cross-shore",12
5842041f4e65fad6a77089ad,2024_02_18,46.8907710233147,-124.12964,Westport/Olympic Peninsula,3,2.689166666666667,3.18,10,10,"DRIZZLE,LIGHT_SHOWERS_POSSIBLE,NIGHT_OVERCAST,NIGHT_CLEAR,NIGHT_DRIZZLE,NIGHT_OVERCAST,OVERCAST,CLOUDY,CLOUDY,DRIZZLE,OVERCAST,LIGHT_RAIN","Offshore,Offshore,Offshore,Offshore,Offshore,Offshore,Offshore,Offshore,Offshore,Offshore,Offshore,Cross-shore",12
5842041f4e65fad6a77089ae,2024_02_18,46.35185177248545,-124.06747,Long Beach Peninsula,2.8333333333333335,3.243333333333333,3.8208333333333333,10,10,"LIGHT_RAIN,LIGHT_RAIN,NIGHT_OVERCAST,NIGHT_DRIZZLE,NIGHT_DRIZZLE,NIGHT_CLOUDY,MOSTLY_CLOUDY,MOSTLY_CLOUDY,BRIEF_SHOWERS,BRIEF_SHOWERS,OVERCAST,OVERCAST","Offshore,Offshore,Offshore,Offshore,Offshore,Offshore,Offshore,Offshore,Offshore,Cross-shore,Cross-shore,Cross-shore",12
5842041f4e65fad6a77089af,2024_02_18,47.90649175554033,-124.6370864743483,La Push,3,2.7825,3.325,10,10,"DRIZZLE,LIGHT_RAIN,NIGHT_CLOUDY,NIGHT_MOSTLY_CLOUDY,NIGHT_CLOUDY,NIGHT_CLOUDY,DRIZZLE,DRIZZLE,CLEAR,CLEAR,OVERCAST,CLEAR","Offshore,Offshore,Offshore,Offshore,Offshore,Offshore,Offshore,Offshore,Offshore,Offshore,Offshore,Offshore",12
5842041f4e65fad6a77089b0,2024_02_18,42.04368239985442,-124.26828,Brookings Jetty,2.3333333333333335,2.2159058333333332,3.4623541666666666,11.666666666666666,11.666666666666666,"LIGHT_RAIN,OVERCAST,NIGHT_CLOUDY,NIGHT_LIGHT_RAIN,NIGHT_BRIEF_SHOWERS,NIGHT_CLEAR,CLEAR,CLEAR,CLEAR,CLEAR,CLEAR,CLEAR","Onshore,Onshore,Onshore,Onshore,Onshore,Onshore,Cross-shore,Cross-shore,Cross-shore,Onshore,Onshore,Cross-shore",12
5842041f4e65fad6a77089b1,2024_02_18,42.74071837900346,-124.4983727491047,Port Orford,1.1666666666666667,3.1008333333333336,3.705,11,11,"LIGHT_RAIN,DRIZZLE,NIGHT_SHOWERS,NIGHT_MIST,NIGHT_CLOUDY,NIGHT_MOSTLY_CLOUDY,MOSTLY_CLEAR,CLEAR,CLEAR,CLEAR,CLEAR,CLEAR","Onshore,Onshore,Onshore,Onshore,Onshore,Onshore,Onshore,Onshore,Onshore,Onshore,Onshore,Onshore",12
5842041f4e65fad6a77089b2,2024_02_18,44.01532689312291,-124.13865,Florence South Jetty,2.4166666666666665,3.6816666666666666,4.403333333333333,11,11,"LIGHT_RAIN,LIGHT_RAIN,NIGHT_CLEAR,NIGHT_LIGHT_RAIN,NIGHT_MOSTLY_CLOUDY,NIGHT_CLOUDY,MOSTLY_CLOUDY,CLEAR,MIST,CLEAR,CLEAR,CLEAR","Offshore,Offshore,Cross-shore,Cross-shore,Onshore,Cross-shore,Cross-shore,Cross-shore,Cross-shore,Cross-shore,Offshore,Offshore",12
5842041f4e65fad6a77089b3,2024_02_18,42.41812540774362,-124.42945,Gold Beach South Jetty,0.9166666666666666,4.088333333333333,4.884166666666666,11.666666666666666,11.666666666666666,"LIGHT_SHOWERS_POSSIBLE,LIGHT_SHOWERS_POSSIBLE,NIGHT_OVERCAST,NIGHT_MIST,NIGHT_CLEAR,NIGHT_MOSTLY_CLOUDY,CLEAR,CLEAR,CLEAR,CLEAR,CLEAR,CLEAR","Onshore,Onshore,Onshore,Onshore,Onshore,Onshore,Onshore,Onshore,Onshore,Onshore,Onshore,Onshore",12
5842041f4e65fad6a77089b4,2024_02_18,44.95857310226525,-124.0219017690976,Lincoln City,2.8333333333333335,3.1866666666666665,3.799166666666667,11,11,"LIGHT_SHOWERS_POSSIBLE,LIGHT_SHOWERS_POSSIBLE,NIGHT_DRIZZLE,NIGHT_CLOUDY,NIGHT_MIST,NIGHT_MIST,OVERCAST,OVERCAST,CLEAR,CLEAR,CLEAR,CLEAR","Offshore,Offshore,Offshore,Offshore,Cross-shore,Onshore,Cross-shore,Cross-shore,Cross-shore,Cross-shore,Cross-shore,Cross-shore",12
5842041f4e65fad6a77089b5,2024_02_18,44.63792761362982,-124.0657,Newport,2.3333333333333335,3.6491666666666664,4.325833333333334,11,11,"LIGHT_RAIN,LIGHT_RAIN,NIGHT_OVERCAST,NIGHT_OVERCAST,NIGHT_MIST,NIGHT_MIST,MIST,MOSTLY_CLOUDY,MOSTLY_CLOUDY,CLEAR,CLEAR,CLEAR","Offshore,Offshore,Cross-shore,Offshore,Onshore,Onshore,Cross-shore,Cross-shore,Cross-shore,Cross-shore,Cross-shore,Cross-shore",12
5842041f4e65fad6a77089b6,2024_02_18,45.61468496266301,-123.94643,Rockaway Beach,3,3.3274999999999997,3.944166666666667,10.333333333333334,10.333333333333334,"LIGHT_RAIN,LIGHT_SHOWERS_POSSIBLE,NIGHT_LIGHT_RAIN,NIGHT_DRIZZLE,NIGHT_CLOUDY,NIGHT_MOSTLY_CLOUDY,LIGHT_RAIN,OVERCAST,MOSTLY_CLOUDY,MOSTLY_CLOUDY,MOSTLY_CLOUDY,CLEAR","Offshore,Offshore,Offshore,Offshore,Offshore,Cross-shore,Offshore,Cross-shore,Cross-shore,Cross-shore,Cross-shore,Cross-shore",12
5842041f4e65fad6a77089b7,2024_02_18,45.20252914186085,-123.96975,Pacific City,2.9166666666666665,3.2175000000000002,3.8091666666666666,10.333333333333334,10.333333333333334,"LIGHT_SHOWERS_POSSIBLE,LIGHT_RAIN,NIGHT_DRIZZLE,NIGHT_DRIZZLE,NIGHT_BRIEF_SHOWERS,NIGHT_OVERCAST,OVERCAST,MOSTLY_CLOUDY,MOSTLY_CLOUDY,CLEAR,CLEAR,CLEAR","Offshore,Offshore,Offshore,Offshore,Cross-shore,Cross-shore,Cross-shore,Cross-shore,Cross-shore,Cross-shore,Cross-shore,Cross-shore",12
5842041f4e65fad6a77089b8,2024_02_18,45.88179930310263,-123.96681,Cannon Beach,2.5833333333333335,3.3375,3.961666666666667,10,10,"LIGHT_RAIN,LIGHT_SHOWERS_POSSIBLE,NIGHT_MOSTLY_CLOUDY,NIGHT_LIGHT_RAIN,NIGHT_MOSTLY_CLOUDY,NIGHT_BRIEF_SHOWERS,LIGHT_RAIN,RAIN,OVERCAST,BRIEF_SHOWERS,MIST,MIST","Offshore,Offshore,Offshore,Offshore,Cross-shore,Cross-shore,Cross-shore,Cross-shore,Cross-shore,Onshore,Onshore,Onshore",12
5842041f4e65fad6a77089ba,2024_02_18,40.02528754746774,-124.06372,Shelter Cove,1.4166666666666667,1.39684,2.182565,12,12,"SHOWERS,BRIEF_SHOWERS,NIGHT_MIST,NIGHT_MIST,NIGHT_CLEAR,NIGHT_CLEAR,CLEAR,CLEAR,CLEAR,CLEAR,CLOUDY,OVERCAST","Onshore,Onshore,Onshore,Onshore,Onshore,Onshore,Onshore,Onshore,Onshore,Onshore,Onshore,Onshore",12
5842041f4e65fad6a77089bb,2024_02_18,40.76816197136951,-124.24248,Humboldt Harbor Entrance,2.1666666666666665,3.9608333333333334,4.733333333333333,12,12,"HEAVY_SHOWERS,HEAVY_SHOWERS,NIGHT_CLEAR,NIGHT_CLEAR,NIGHT_CLEAR,NIGHT_CLEAR,CLEAR,CLEAR,CLEAR,CLEAR,MOSTLY_CLOUDY,CLEAR","Cross-shore,Cross-shore,Cross-shore,Cross-shore,Offshore,Cross-shore,Cross-shore,Cross-shore,Cross-shore,Cross-shore,Offshore,Offshore",12
5842041f4e65fad6a77089bc,2024_02_18,40.76684246920174,-124.23107,North Jetty,2.75,3.5316666666666667,4.215833333333333,12,12,"HEAVY_SHOWERS,HEAVY_SHOWERS,NIGHT_CLEAR,NIGHT_CLEAR,NIGHT_CLEAR,NIGHT_CLEAR,CLEAR,CLEAR,CLEAR,CLEAR,CLEAR,CLEAR","Cross-shore,Cross-shore,Cross-shore,Cross-shore,Offshore,Offshore,Offshore,Offshore,Cross-shore,Offshore,Offshore,Offshore",12
5842041f4e65fad6a77089bd,2024_02_18,41.02731183893966,-124.1149972888982,Westhaven,1.8333333333333333,4.925833333333333,5.886666666666667,12,12,"OVERCAST,OVERCAST,NIGHT_MOSTLY_CLEAR,NIGHT_CLEAR,NIGHT_CLEAR,NIGHT_CLEAR,CLEAR,CLEAR,CLEAR,CLEAR,CLEAR,CLEAR","Cross-shore,Cross-shore,Onshore,Cross-shore,Cross-shore,Cross-shore,Offshore,Offshore,Cross-shore,Cross-shore,Cross-shore,Cross-shore",12
5842041f4e65fad6a77089be,2024_02_18,41.13016238153297,-124.16466,Sue-meg,2.6666666666666665,4.170833333333333,4.984166666666667,12,12,"MOSTLY_CLOUDY,DRIZZLE,NIGHT_CLEAR,NIGHT_MOSTLY_CLOUDY,NIGHT_CLEAR,NIGHT_CLEAR,CLEAR,CLEAR,CLEAR,CLEAR,CLEAR,CLEAR","Offshore,Offshore,Cross-shore,Cross-shore,Offshore,Offshore,Offshore,Offshore,Offshore,Offshore,Offshore,Offshore",12
5842041f4e65fad6a77089bf,2024_02_18,37.8289474958188,-122.5376795097543,Fort Cronkite/Rodeo Beach,1.8333333333333333,4.0575,4.85,13,13,"OVERCAST,OVERCAST,NIGHT_MIST,NIGHT_MIST,NIGHT_MIST,MIST,BRIEF_SHOWERS,MIST,MIST,MIST,MOSTLY_CLEAR,MIST","Onshore,Onshore,Onshore,Onshore,Cross-shore,Cross-shore,Cross-shore,Cross-shore,Cross-shore,Cross-shore,Cross-shore,Onshore",12
5842041f4e65fad6a77089c0,2024_02_18,41.74415759876137,-124.17717,South Beach CA,1.8333333333333333,3.06,3.6566666666666667,12,12,"RAIN,MOSTLY_CLOUDY,NIGHT_MOSTLY_CLOUDY,NIGHT_MOSTLY_CLOUDY,NIGHT_CLEAR,NIGHT_CLEAR,CLEAR,CLEAR,CLEAR,CLEAR,CLEAR,CLEAR","Onshore,Onshore,Onshore,Onshore,Onshore,Onshore,Onshore,Cross-shore,Onshore,Onshore,Onshore,Cross-shore",12
5842041f4e65fad6a77089c1,2024_02_18,37.89801283969752,-122.64519,Stinson Beach,2.6666666666666665,1.2141666666666666,1.4616666666666667,13,13,"MIST,BRIEF_SHOWERS,NIGHT_FOG,NIGHT_FOG,NIGHT_FOG,FOG,MIST,MIST,MIST,BRIEF_SHOWERS,MIST,MIST","Onshore,Onshore,Cross-shore,Onshore,Onshore,Onshore,Onshore,Onshore,Onshore,Onshore,Onshore,Onshore",12
5842041f4e65fad6a77089c2,2024_02_18,37.90514516176495,-122.68151,Bolinas,3.5,1.3722633333333334,2.1441616666666667,13,13,"BRIEF_SHOWERS,BRIEF_SHOWERS,NIGHT_LIGHT_RAIN_AND_FOG,NIGHT_BRIEF_SHOWERS,NIGHT_FOG,FOG,MOSTLY_CLOUDY,CLEAR,CLEAR,MOSTLY_CLEAR,MOSTLY_CLEAR,MOSTLY_CLOUDY","Cross-shore,Cross-shore,Offshore,Cross-shore,Onshore,Onshore,Onshore,Onshore,Onshore,Onshore,Onshore,Onshore",12
5842041f4e65fad6a77089c3,2024_02_18,38.04892513158693,-122.9892494965416,Point Reyes (north),2.6666666666666665,4.023333333333333,4.808333333333334,13,13,"DRIZZLE,LIGHT_RAIN,NIGHT_MIST,NIGHT_MIST,NIGHT_MIST,CLOUDY,MIST,CLOUDY,MOSTLY_CLOUDY,CLEAR,MOSTLY_CLOUDY,MOSTLY_CLOUDY","Offshore,Offshore,Cross-shore,Offshore,Offshore,Offshore,Offshore,Offshore,Offshore,Offshore,Offshore,Offshore",12
5842041f4e65fad6a77089c6,2024_02_18,38.31088736605785,-123.0496777333731,Doran Beach,2.3333333333333335,1.4183333333333334,1.6983333333333333,13,13,"HEAVY_RAIN,MIST,NIGHT_FOG,NIGHT_MIST,NIGHT_BRIEF_SHOWERS,BRIEF_SHOWERS,MOSTLY_CLOUDY,CLOUDY,OVERCAST,MOSTLY_CLOUDY,MOSTLY_CLOUDY,MOSTLY_CLOUDY","Onshore,Onshore,Cross-shore,Onshore,Onshore,Onshore,Onshore,Onshore,Onshore,Onshore,Onshore,Onshore",12
5842041f4e65fad6a77089c7,2024_02_18,38.45077228660809,-123.13008,Russian Rivermouth,2,3.609166666666667,4.3133333333333335,13,13,"RAIN,DRIZZLE,NIGHT_FOG,NIGHT_FOG,NIGHT_CLEAR,CLEAR,CLEAR,MOSTLY_CLOUDY,CLOUDY,MOSTLY_CLOUDY,MOSTLY_CLOUDY,DRIZZLE","Onshore,Onshore,Onshore,Onshore,Offshore,Offshore,Offshore,Offshore,Offshore,Offshore,Cross-shore,Cross-shore",12
5842041f4e65fad6a77089c8,2024_02_18,38.35329968518107,-123.06906,Salmon Creek,2.4166666666666665,3.0566666666666666,3.6550000000000002,13,13,"LIGHT_RAIN,OVERCAST,NIGHT_DRIZZLE,NIGHT_MIST,NIGHT_MOSTLY_CLOUDY,MOSTLY_CLOUDY,CLOUDY,CLOUDY,CLEAR,CLEAR,MOSTLY_CLOUDY,MOSTLY_CLOUDY","Cross-shore,Cross-shore,Onshore,Cross-shore,Offshore,Offshore,Offshore,Offshore,Offshore,Offshore,Offshore,Cross-shore",12
5842041f4e65fad6a77089c9,2024_02_18,38.6845180197959,-123.4322714291198,Black Point Beach,3,3.473333333333333,4.149166666666667,13,13,"MIST,MIST,NIGHT_OVERCAST,NIGHT_OVERCAST,NIGHT_CLEAR,NIGHT_CLEAR,CLEAR,CLEAR,CLEAR,CLEAR,CLEAR,MOSTLY_CLOUDY","Offshore,Offshore,Cross-shore,Offshore,Offshore,Offshore,Offshore,Offshore,Offshore,Offshore,Offshore,Offshore",12
5842041f4e65fad6a77089ca,2024_02_18,43.251076,-70.59144,Ogunquit,0.41583333333333333,0.00375,0.2738,4,3,"NIGHT_CLEAR,NIGHT_CLEAR,NIGHT_CLEAR,NIGHT_CLEAR,CLEAR,CLEAR,CLEAR,CLEAR,CLEAR,CLEAR,CLEAR,CLEAR","Offshore,Offshore,Offshore,Offshore,Cross-shore,Cross-shore,Cross-shore,Cross-shore,Cross-shore,Offshore,Offshore,Offshore",12
5842041f4e65fad6a77089cb,2024_02_18,41.362631366305415,-71.48006772942608,Point Judith,0.8333333333333334,0.24749666666666667,0.5309966666666667,5,4,"NIGHT_CLEAR,NIGHT_CLEAR,NIGHT_CLEAR,NIGHT_CLEAR,CLEAR,CLEAR,CLEAR,CLEAR,CLEAR,CLEAR,CLEAR,CLEAR","Offshore,Offshore,Offshore,Offshore,Offshore,Offshore,Offshore,Offshore,Offshore,Offshore,Offshore,Offshore",12
5842041f4e65fad6a77089cd,2024_02_18,41.422678090954726,-71.45413,Monahan's - Narragansett,0.16666666666666666,0.023645833333333335,0.0369475,5,5,"NIGHT_CLEAR,NIGHT_CLEAR,NIGHT_CLEAR,NIGHT_CLEAR,CLEAR,CLEAR,CLEAR,CLEAR,CLEAR,CLEAR,CLEAR,CLEAR","Offshore,Offshore,Offshore,Offshore,Offshore,Offshore,Offshore,Offshore,Offshore,Offshore,Offshore,Offshore",12
5842041f4e65fad6a77089ce,2024_02_18,41.469,-71.293,Ruggles - Newport,0.4166666666666667,0.5685058333333334,0.8882883333333333,5,5,"NIGHT_CLEAR,NIGHT_CLEAR,NIGHT_CLEAR,NIGHT_CLEAR,CLEAR,CLEAR,CLEAR,CLEAR,CLEAR,CLEAR,CLEAR,CLEAR","Offshore,Offshore,Cross-shore,Cross-shore,Onshore,Onshore,Onshore,Onshore,Onshore,Onshore,Onshore,Cross-shore",12
5842041f4e65fad6a77089cf,2024_02_18,43.175394,-70.606351,Short Sands Beach,0.5833333333333334,0.008333333333333333,0.19833333333333333,3,3,"NIGHT_CLEAR,NIGHT_CLEAR,NIGHT_CLEAR,NIGHT_CLEAR,CLEAR,CLEAR,CLEAR,CLEAR,CLEAR,CLEAR,CLEAR,CLEAR","Offshore,Offshore,Offshore,Offshore,Offshore,Offshore,Offshore,Offshore,Offshore,Offshore,Offshore,Offshore",12
5842041f4e65fad6a77089d0,2024_02_18,41.487408,-71.29017,First Beach,0.25,0.09333333333333334,0.3675,5,5,"NIGHT_CLEAR,NIGHT_CLEAR,NIGHT_CLEAR,NIGHT_CLEAR,CLEAR,CLEAR,CLEAR,CLEAR,CLEAR,CLEAR,CLEAR,CLEAR","Offshore,Offshore,Cross-shore,Cross-shore,Onshore,Onshore,Onshore,Onshore,Onshore,Onshore,Cross-shore,Cross-shore",12
5842041f4e65fad6a77089d1,2024_02_18,42.27916830233153,-70.86498,Nantasket Beach,0,0,0.11325277777777779,4,3,"NIGHT_CLEAR,NIGHT_CLEAR,NIGHT_CLEAR,NIGHT_CLEAR,CLEAR,CLEAR,CLEAR,CLEAR,CLEAR,CLEAR,CLEAR,CLEAR","Cross-shore,Cross-shore,Offshore,Offshore,Offshore,Offshore,Offshore,Offshore,Offshore,Offshore,Offshore,Offshore",12
5842041f4e65fad6a77089d2,2024_02_18,41.817,-69.935,Cape Cod,0.9166666666666666,0.05333333333333333,0.2966666666666667,4,4,"NIGHT_CLEAR,NIGHT_CLEAR,NIGHT_CLEAR,NIGHT_CLEAR,CLEAR,CLEAR,CLEAR,CLEAR,CLEAR,CLEAR,CLEAR,CLEAR","Offshore,Offshore,Offshore,Offshore,Offshore,Offshore,Offshore,Offshore,Offshore,Offshore,Offshore,Offshore",12
5842041f4e65fad6a77089d3,2024_02_18,42.22055448975661,-70.70634873403819,Egypt Beach,0,0,0.08750000000000001,4,4,"NIGHT_CLEAR,NIGHT_CLEAR,NIGHT_CLEAR,NIGHT_CLEAR,CLEAR,CLEAR,CLEAR,CLEAR,CLEAR,CLEAR,CLEAR,CLEAR","Offshore,Offshore,Offshore,Offshore,Offshore,Offshore,Offshore,Offshore,Offshore,Offshore,Offshore,Offshore",12
5842041f4e65fad6a77089d4,2024_02_18,41.48739647744607,-71.25723,Second Beach,0.44416666666666665,0.3978922222222222,0.6733002777777778,5,4,"NIGHT_CLEAR,NIGHT_CLEAR,NIGHT_CLEAR,NIGHT_CLEAR,CLEAR,CLEAR,CLEAR,CLEAR,CLEAR,CLEAR,CLEAR,CLEAR","Cross-shore,Cross-shore,Cross-shore,Cross-shore,Onshore,Onshore,Onshore,Onshore,Onshore,Onshore,Onshore,Onshore",12
5842041f4e65fad6a77089d5,2024_02_18,42.964,-70.769,Fox Hill,0.23583333333333334,0,0.16308333333333333,4,3,"NIGHT_CLEAR,NIGHT_CLEAR,NIGHT_CLEAR,NIGHT_CLEAR,CLEAR,CLEAR,CLEAR,CLEAR,CLEAR,CLEAR,CLEAR,CLEAR","Offshore,Offshore,Offshore,Offshore,Cross-shore,Cross-shore,Cross-shore,Cross-shore,Cross-shore,Cross-shore,Offshore,Offshore",12
5842041f4e65fad6a77089d6,2024_02_18,42.991359,-70.75149,Straws Point,0.6525,0,0.23933333333333334,4,3,"NIGHT_CLEAR,NIGHT_CLEAR,NIGHT_CLEAR,NIGHT_CLEAR,CLEAR,CLEAR,CLEAR,CLEAR,CLEAR,CLEAR,CLEAR,CLEAR","Offshore,Offshore,Offshore,Offshore,Cross-shore,Cross-shore,Cross-shore,Cross-shore,Cross-shore,Cross-shore,Cross-shore,Cross-shore",12
5842041f4e65fad6a77089d7,2024_02_18,42.946,-70.786,Plaice Cove,0.23583333333333334,0,0.16308333333333333,4,3,"NIGHT_CLEAR,NIGHT_CLEAR,NIGHT_CLEAR,NIGHT_CLEAR,CLEAR,CLEAR,CLEAR,CLEAR,CLEAR,CLEAR,CLEAR,CLEAR","Offshore,Offshore,Offshore,Offshore,Offshore,Cross-shore,Cross-shore,Offshore,Offshore,Offshore,Offshore,Offshore",12
5842041f4e65fad6a77089d9,2024_02_18,42.911574,-70.80831,The Main Beach,0,0.009534402777777777,0.16729656944444446,4,3,"NIGHT_CLEAR,NIGHT_CLEAR,NIGHT_CLEAR,NIGHT_CLEAR,CLEAR,CLEAR,CLEAR,CLEAR,CLEAR,CLEAR,CLEAR,CLEAR","Offshore,Offshore,Offshore,Offshore,Cross-shore,Onshore,Onshore,Cross-shore,Cross-shore,Cross-shore,Cross-shore,Cross-shore",12
5842041f4e65fad6a77089da,2024_02_18,42.97583846220203,-70.764,Sawyer's Beach,0.4025,0,0.20648611111111112,4,3,"NIGHT_CLEAR,NIGHT_CLEAR,NIGHT_CLEAR,NIGHT_CLEAR,CLEAR,CLEAR,CLEAR,CLEAR,CLEAR,CLEAR,CLEAR,CLEAR","Offshore,Offshore,Offshore,Offshore,Cross-shore,Cross-shore,Cross-shore,Cross-shore,Cross-shore,Offshore,Offshore,Offshore",12
5842041f4e65fad6a77089db,2024_02_18,42.97,-70.77,Rye on the Rocks / 5-0's,0,0,0.15235533333333334,4,3,"NIGHT_CLEAR,NIGHT_CLEAR,NIGHT_CLEAR,NIGHT_CLEAR,CLEAR,CLEAR,CLEAR,CLEAR,CLEAR,CLEAR,CLEAR,CLEAR","Offshore,Offshore,Offshore,Offshore,Cross-shore,Cross-shore,Cross-shore,Cross-shore,Cross-shore,Cross-shore,Offshore,Cross-shore",12
5842041f4e65fad6a77089dc,2024_02_18,43.55902946610303,-70.27795,Higgins Beach,0.21666666666666667,0.17155333333333334,0.4088688888888889,4,3,"NIGHT_CLEAR,NIGHT_CLEAR,NIGHT_CLEAR,NIGHT_CLEAR,CLEAR,CLEAR,CLEAR,CLEAR,CLEAR,CLEAR,CLEAR,CLEAR","Offshore,Offshore,Offshore,Cross-shore,Cross-shore,Cross-shore,Onshore,Onshore,Onshore,Onshore,Cross-shore,Cross-shore",12
5842041f4e65fad6a77089dd,2024_02_18,43.302676,-70.5652,Wells Beach,0.41583333333333333,0.007916666666666666,0.28574444444444447,4,3,"NIGHT_CLEAR,NIGHT_CLEAR,NIGHT_CLEAR,NIGHT_CLEAR,CLEAR,CLEAR,CLEAR,CLEAR,CLEAR,CLEAR,CLEAR,CLEAR","Offshore,Offshore,Offshore,Offshore,Offshore,Cross-shore,Cross-shore,Cross-shore,Cross-shore,Offshore,Offshore,Offshore",12
5842041f4e65fad6a77089de,2024_02_18,43.545359,-70.30479,Scarborough Beach State Park,0.2633333333333333,0.060317361111111106,0.28263,4,3,"NIGHT_CLEAR,NIGHT_CLEAR,NIGHT_CLEAR,NIGHT_CLEAR,CLEAR,CLEAR,CLEAR,CLEAR,CLEAR,CLEAR,CLEAR,CLEAR","Offshore,Offshore,Offshore,Offshore,Cross-shore,Cross-shore,Cross-shore,Cross-shore,Cross-shore,Cross-shore,Cross-shore,Cross-shore",12
5842041f4e65fad6a77089df,2024_02_18,43.514481,-70.372146,Old Orchard Beach,0,0,0.20292222222222223,4,3,"NIGHT_CLEAR,NIGHT_CLEAR,NIGHT_CLEAR,NIGHT_CLEAR,CLEAR,CLEAR,CLEAR,CLEAR,CLEAR,CLEAR,CLEAR,CLEAR","Offshore,Offshore,Offshore,Offshore,Cross-shore,Cross-shore,Cross-shore,Cross-shore,Cross-shore,Cross-shore,Cross-shore,Cross-shore",12
5842041f4e65fad6a77089e0,2024_02_18,43.34711,-70.48165,Gooch's Beach,0.41583333333333333,0.09931666666666666,0.3315777777777778,4,3,"NIGHT_CLEAR,NIGHT_CLEAR,NIGHT_CLEAR,NIGHT_CLEAR,CLEAR,CLEAR,CLEAR,CLEAR,CLEAR,CLEAR,CLEAR,CLEAR","Offshore,Offshore,Cross-shore,Cross-shore,Onshore,Onshore,Onshore,Onshore,Onshore,Onshore,Onshore,Onshore",12
5842041f4e65fad6a77089e2,2024_02_18,40.58433,-73.62953,Lido Beach,0.08333333333333334,0.24810833333333335,0.5330416666666666,5,4,"NIGHT_CLEAR,NIGHT_CLEAR,NIGHT_CLEAR,NIGHT_CLEAR,CLEAR,CLEAR,CLEAR,CLEAR,CLEAR,CLEAR,CLEAR,CLEAR","Onshore,Offshore,Onshore,Onshore,Cross-shore,Cross-shore,Cross-shore,Cross-shore,Offshore,Offshore,Offshore,Offshore",12
5842041f4e65fad6a77089e3,2024_02_18,43.163135,-70.61689,Long Sands Beach,0,-0.01630952777777778,0.177718375,4,3,"NIGHT_CLEAR,NIGHT_CLEAR,NIGHT_CLEAR,NIGHT_CLEAR,CLEAR,CLEAR,CLEAR,CLEAR,CLEAR,CLEAR,CLEAR,CLEAR","Offshore,Offshore,Offshore,Offshore,Cross-shore,Cross-shore,Onshore,Cross-shore,Cross-shore,Cross-shore,Cross-shore,Cross-shore",12
5842041f4e65fad6a77089e4,2024_02_18,40.61695351251805,-73.39376,Gilgo Beach,0.16666666666666666,0.3227305555555556,0.6183222222222222,5,4,"NIGHT_CLEAR,NIGHT_CLEAR,NIGHT_CLEAR,NIGHT_CLEAR,CLEAR,CLEAR,CLEAR,CLEAR,CLEAR,CLEAR,CLEAR,CLEAR","Cross-shore,Cross-shore,Cross-shore,Cross-shore,Onshore,Onshore,Onshore,Onshore,Onshore,Onshore,Onshore,Cross-shore",12
5842041f4e65fad6a77089e5,2024_02_18,40.62530081928036,-73.23827,Robert Moses,0.25,0.3441666666666667,0.6425,5,5,"NIGHT_CLEAR,NIGHT_CLEAR,NIGHT_CLEAR,NIGHT_CLEAR,CLEAR,CLEAR,CLEAR,CLEAR,CLEAR,CLEAR,CLEAR,CLEAR","Offshore,Offshore,Cross-shore,Cross-shore,Onshore,Onshore,Onshore,Onshore,Onshore,Onshore,Cross-shore,Cross-shore",12
5842041f4e65fad6a77089e6,2024_02_18,40.64313317632791,-73.15727,Fire Island,0.3333333333333333,0.33416666666666667,0.6275,5,5,"NIGHT_CLEAR,NIGHT_CLEAR,NIGHT_CLEAR,NIGHT_CLEAR,CLEAR,CLEAR,CLEAR,CLEAR,CLEAR,CLEAR,CLEAR,CLEAR","Offshore,Offshore,Cross-shore,Cross-shore,Onshore,Cross-shore,Onshore,Onshore,Onshore,Onshore,Cross-shore,Cross-shore",12
5842041f4e65fad6a77089e8,2024_02_18,40.76653118828782,-72.74579619372713,Cupsogue,0.3333333333333333,0.5708333333333333,0.8741666666666666,5,5,"NIGHT_CLEAR,NIGHT_CLEAR,NIGHT_CLEAR,NIGHT_CLEAR,CLEAR,CLEAR,CLEAR,CLEAR,CLEAR,CLEAR,CLEAR,CLEAR","Offshore,Offshore,Cross-shore,Cross-shore,Onshore,Onshore,Onshore,Onshore,Onshore,Onshore,Onshore,Cross-shore",12
5842041f4e65fad6a77089e9,2024_02_18,42.9376373334092,-70.79141,The Wall ,0,0.00991676388888889,0.167894375,4,3,"NIGHT_CLEAR,NIGHT_CLEAR,NIGHT_CLEAR,NIGHT_CLEAR,CLEAR,CLEAR,CLEAR,CLEAR,CLEAR,CLEAR,CLEAR,CLEAR","Offshore,Offshore,Offshore,Offshore,Offshore,Offshore,Offshore,Offshore,Offshore,Offshore,Offshore,Offshore",12
5842041f4e65fad6a77089ea,2024_02_18,40.887088,-72.33856,Flys,0.3333333333333333,0.4741666666666667,0.7725,5.333333333333333,5.333333333333333,"NIGHT_CLEAR,NIGHT_CLEAR,NIGHT_CLEAR,NIGHT_CLEAR,CLEAR,CLEAR,CLEAR,CLEAR,CLEAR,CLEAR,CLEAR,CLEAR","Offshore,Offshore,Cross-shore,Cross-shore,Onshore,Onshore,Onshore,Onshore,Onshore,Onshore,Onshore,Onshore",12
5842041f4e65fad6a77089eb,2024_02_18,41.0389266436591,-71.91068529316958,Trailer Park,0.3333333333333333,0.4808342916666667,0.8591024861111111,5,4,"NIGHT_CLEAR,NIGHT_CLEAR,NIGHT_CLEAR,NIGHT_CLEAR,CLEAR,CLEAR,CLEAR,CLEAR,CLEAR,CLEAR,CLEAR,CLEAR","Offshore,Offshore,Cross-shore,Cross-shore,Onshore,Onshore,Onshore,Onshore,Onshore,Onshore,Onshore,Cross-shore",12
5842041f4e65fad6a77089ec,2024_02_18,41.039505402729105,-71.9142,Ditch Plains,0.3333333333333333,0.34264083333333334,0.5353766666666666,5,5,"NIGHT_CLEAR,NIGHT_CLEAR,NIGHT_CLEAR,NIGHT_CLEAR,CLEAR,CLEAR,CLEAR,CLEAR,CLEAR,CLEAR,CLEAR,CLEAR","Offshore,Offshore,Offshore,Offshore,Cross-shore,Cross-shore,Cross-shore,Cross-shore,Cross-shore,Cross-shore,Cross-shore,Cross-shore",12
5842041f4e65fad6a77089ee,2024_02_18,40.57633275206492,-73.56895305108567,"West End, Jones Beach",0.23583333333333334,0.2791888888888889,0.5905444444444444,5,4,"NIGHT_CLEAR,NIGHT_CLEAR,NIGHT_CLEAR,NIGHT_CLEAR,CLEAR,CLEAR,CLEAR,CLEAR,CLEAR,CLEAR,CLEAR,CLEAR","Cross-shore,Cross-shore,Cross-shore,Cross-shore,Onshore,Onshore,Onshore,Onshore,Onshore,Onshore,Onshore,Onshore",12
5842041f4e65fad6a77089f1,2024_02_18,41.038286691230795,-71.91991567611694,Poles,0.3333333333333333,0.4792133333333334,0.8527403472222221,5,4,"NIGHT_CLEAR,NIGHT_CLEAR,NIGHT_CLEAR,NIGHT_CLEAR,CLEAR,CLEAR,CLEAR,CLEAR,CLEAR,CLEAR,CLEAR,CLEAR","Offshore,Offshore,Cross-shore,Cross-shore,Onshore,Onshore,Onshore,Onshore,Onshore,Onshore,Onshore,Cross-shore",12
5842041f4e65fad6a77089f3,2024_02_18,40.84077769766295,-72.47989493724765,The Bowl,0.3333333333333333,0.5375,0.835,5,5,"NIGHT_CLEAR,NIGHT_CLEAR,NIGHT_CLEAR,NIGHT_CLEAR,CLEAR,CLEAR,CLEAR,CLEAR,CLEAR,CLEAR,CLEAR,CLEAR","Offshore,Offshore,Cross-shore,Cross-shore,Onshore,Onshore,Onshore,Onshore,Onshore,Onshore,Onshore,Onshore",12
5842041f4e65fad6a77089f4,2024_02_18,40.94235535243154,-72.19286,Main Beach,0.30583333333333335,0.5517388888888889,0.8517138888888889,13,12,"NIGHT_CLEAR,NIGHT_CLEAR,NIGHT_CLEAR,NIGHT_CLEAR,CLEAR,CLEAR,CLEAR,CLEAR,CLEAR,CLEAR,CLEAR,CLEAR","Offshore,Cross-shore,Cross-shore,Cross-shore,Onshore,Onshore,Onshore,Onshore,Onshore,Onshore,Onshore,Onshore",12
5842041f4e65fad6a77089f5,2024_02_18,40.58270702399518,-73.67251552079799,Laurelton Blvd.,0.08333333333333334,0.2249841666666667,0.47272479166666664,5,4,"NIGHT_CLEAR,NIGHT_CLEAR,NIGHT_CLEAR,NIGHT_CLEAR,CLEAR,CLEAR,CLEAR,CLEAR,CLEAR,CLEAR,CLEAR,CLEAR","Onshore,Offshore,Onshore,Onshore,Cross-shore,Cross-shore,Cross-shore,Cross-shore,Cross-shore,Cross-shore,Offshore,Cross-shore",12
5842041f4e65fad6a77089f6,2024_02_18,41.033752854071416,-71.93695522488403,Terrace,0.3333333333333333,0.5155883333333333,0.88341,5,4,"NIGHT_CLEAR,NIGHT_CLEAR,NIGHT_CLEAR,NIGHT_CLEAR,CLEAR,CLEAR,CLEAR,CLEAR,CLEAR,CLEAR,CLEAR,CLEAR","Offshore,Offshore,Cross-shore,Cross-shore,Onshore,Onshore,Onshore,Onshore,Onshore,Onshore,Onshore,Cross-shore",12
5842041f4e65fad6a77089f7,2024_02_18,40.83372943645748,-72.50426173210144,K Road,0.5,0.5766666666666667,0.88,5,5,"NIGHT_CLEAR,NIGHT_CLEAR,NIGHT_CLEAR,NIGHT_CLEAR,CLEAR,CLEAR,CLEAR,CLEAR,CLEAR,CLEAR,CLEAR,CLEAR","Offshore,Offshore,Cross-shore,Cross-shore,Onshore,Onshore,Onshore,Onshore,Onshore,Onshore,Cross-shore,Cross-shore",12
5842041f4e65fad6a77089f8,2024_02_18,40.58456099581507,-73.80730032920837,84th Street,0,0.11607222222222223,0.3686777777777778,5,4,"NIGHT_CLEAR,NIGHT_CLEAR,NIGHT_CLEAR,NIGHT_CLEAR,CLEAR,CLEAR,CLEAR,CLEAR,CLEAR,CLEAR,CLEAR,CLEAR","Cross-shore,Offshore,Cross-shore,Cross-shore,Onshore,Onshore,Onshore,Onshore,Onshore,Onshore,Cross-shore,Cross-shore",12
5842041f4e65fad6a77089fa,2024_02_18,40.1319,-74.02788,Sea Girt,0.5275,0.1139,0.41172222222222227,6,5,"NIGHT_CLEAR,NIGHT_CLEAR,NIGHT_CLEAR,NIGHT_CLEAR,CLEAR,CLEAR,CLEAR,CLEAR,CLEAR,CLEAR,CLEAR,CLEAR","Offshore,Offshore,Offshore,Offshore,Offshore,Offshore,Offshore,Offshore,Offshore,Offshore,Offshore,Offshore",12
5842041f4e65fad6a77089fb,2024_02_18,40.54698301868125,-73.9268,Breezy Point,0.3333333333333333,0.07333333333333333,0.3575,5,5,"NIGHT_CLEAR,NIGHT_CLEAR,NIGHT_CLEAR,NIGHT_CLEAR,CLEAR,CLEAR,CLEAR,CLEAR,CLEAR,CLEAR,CLEAR,CLEAR","Cross-shore,Offshore,Cross-shore,Cross-shore,Onshore,Onshore,Onshore,Onshore,Onshore,Onshore,Onshore,Cross-shore",12
5842041f4e65fad6a77089fc,2024_02_18,40.152504,-74.021383,Spring Lake,0.5275,0.11598333333333334,0.41505555555555557,6,5,"NIGHT_CLEAR,NIGHT_CLEAR,NIGHT_CLEAR,NIGHT_CLEAR,CLEAR,CLEAR,CLEAR,CLEAR,CLEAR,CLEAR,CLEAR,CLEAR","Offshore,Offshore,Offshore,Offshore,Offshore,Offshore,Offshore,Offshore,Offshore,Offshore,Offshore,Offshore",12
5842041f4e65fad6a77089fd,2024_02_18,40.591277,-73.770792,30th - 39th Streets,0.31916666666666665,0.11744166666666667,0.4131027777777778,5,4,"NIGHT_CLEAR,NIGHT_CLEAR,NIGHT_CLEAR,NIGHT_CLEAR,CLEAR,CLEAR,CLEAR,CLEAR,CLEAR,CLEAR,CLEAR,CLEAR","Cross-shore,Cross-shore,Cross-shore,Cross-shore,Onshore,Onshore,Onshore,Onshore,Onshore,Onshore,Onshore,Onshore",12
5842041f4e65fad6a77089fe,2024_02_18,40.18834955871439,-74.00860982500222,Avon,0.5275,0.11348333333333334,0.4093611111111111,6,5,"NIGHT_CLEAR,NIGHT_CLEAR,NIGHT_CLEAR,NIGHT_CLEAR,CLEAR,CLEAR,CLEAR,CLEAR,CLEAR,CLEAR,CLEAR,CLEAR","Offshore,Offshore,Offshore,Offshore,Offshore,Offshore,Offshore,Offshore,Offshore,Offshore,Offshore,Offshore",12
5842041f4e65fad6a77089ff,2024_02_18,40.1974229100932,-74.00650533798255,Bradley Beach,0.5275,0.11348333333333334,0.4102638888888889,6,5,"NIGHT_CLEAR,NIGHT_CLEAR,NIGHT_CLEAR,NIGHT_CLEAR,CLEAR,CLEAR,CLEAR,CLEAR,CLEAR,CLEAR,CLEAR,CLEAR","Offshore,Offshore,Offshore,Offshore,Offshore,Offshore,Offshore,Offshore,Offshore,Offshore,Offshore,Offshore",12
5842041f4e65fad6a7708a01,2024_02_18,40.17202,-74.01503,"16th Ave., Belmar",0.08333333333333334,0.08662,0.37820333333333334,6,5,"NIGHT_CLEAR,NIGHT_CLEAR,NIGHT_CLEAR,NIGHT_CLEAR,CLEAR,CLEAR,CLEAR,CLEAR,CLEAR,CLEAR,CLEAR,CLEAR","Offshore,Offshore,Offshore,Offshore,Offshore,Offshore,Offshore,Offshore,Offshore,Offshore,Offshore,Offshore",12
5842041f4e65fad6a7708a02,2024_02_18,40.217443,-73.99982,Asbury Park,0.5275,0.11765,0.42075,6,5,"NIGHT_CLEAR,NIGHT_CLEAR,NIGHT_CLEAR,NIGHT_CLEAR,CLEAR,CLEAR,CLEAR,CLEAR,CLEAR,CLEAR,CLEAR,CLEAR","Offshore,Offshore,Offshore,Offshore,Offshore,Offshore,Offshore,Offshore,Offshore,Offshore,Offshore,Offshore",12
5842041f4e65fad6a7708a03,2024_02_18,40.229841,-73.996782,Loch Arbour and Deal,0.5275,0.11723333333333334,0.4161666666666667,6,5,"NIGHT_CLEAR,NIGHT_CLEAR,NIGHT_CLEAR,NIGHT_CLEAR,CLEAR,CLEAR,CLEAR,CLEAR,CLEAR,CLEAR,CLEAR,CLEAR","Offshore,Offshore,Offshore,Offshore,Offshore,Offshore,Offshore,Offshore,Offshore,Offshore,Offshore,Offshore",12
5842041f4e65fad6a7708a05,2024_02_18,40.41754,-73.97935,Sandy Hook,0.25,0,0.135,5,5,"NIGHT_CLEAR,NIGHT_CLEAR,NIGHT_CLEAR,NIGHT_CLEAR,CLEAR,CLEAR,CLEAR,CLEAR,CLEAR,CLEAR,CLEAR,CLEAR","Offshore,Offshore,Offshore,Offshore,Offshore,Offshore,Offshore,Offshore,Offshore,Offshore,Offshore,Offshore",12
5842041f4e65fad6a7708a06,2024_02_18,39.36353,-74.40873,Crystals,0.31916666666666665,0.09590909722222223,0.34670958333333335,6,5,"NIGHT_CLEAR,NIGHT_CLEAR,NIGHT_CLEAR,NIGHT_CLEAR,CLEAR,CLEAR,CLEAR,CLEAR,CLEAR,CLEAR,CLEAR,CLEAR","Offshore,Offshore,Offshore,Offshore,Cross-shore,Cross-shore,Cross-shore,Cross-shore,Cross-shore,Cross-shore,Cross-shore,Cross-shore",12
5842041f4e65fad6a7708a07,2024_02_18,39.31443,-74.51863,32nd Street,0,0.020111527777777773,0.29791034722222226,6,5,"NIGHT_CLEAR,NIGHT_CLEAR,NIGHT_CLEAR,NIGHT_CLEAR,CLEAR,CLEAR,CLEAR,CLEAR,CLEAR,CLEAR,CLEAR,CLEAR","Offshore,Offshore,Offshore,Offshore,Cross-shore,Cross-shore,Cross-shore,Cross-shore,Cross-shore,Cross-shore,Cross-shore,Cross-shore",12
5842041f4e65fad6a7708a08,2024_02_18,39.327688,-74.49524,Margate Pier Northside,0,0.020111527777777773,0.29791034722222226,6,5,"NIGHT_CLEAR,NIGHT_CLEAR,NIGHT_CLEAR,NIGHT_CLEAR,CLEAR,CLEAR,CLEAR,CLEAR,CLEAR,CLEAR,CLEAR,CLEAR","Offshore,Offshore,Offshore,Offshore,Cross-shore,Cross-shore,Cross-shore,Cross-shore,Cross-shore,Cross-shore,Cross-shore,Cross-shore",12
5842041f4e65fad6a7708a09,2024_02_18,39.336276,-74.47782,Ventnor Pier,0.31916666666666665,0.09299708333333333,0.3421592361111111,6,5,"NIGHT_CLEAR,NIGHT_CLEAR,NIGHT_CLEAR,NIGHT_CLEAR,CLEAR,CLEAR,CLEAR,CLEAR,CLEAR,CLEAR,CLEAR,CLEAR","Offshore,Offshore,Offshore,Offshore,Cross-shore,Cross-shore,Cross-shore,Cross-shore,Cross-shore,Cross-shore,Cross-shore,Cross-shore",12
5842041f4e65fad6a7708a0a,2024_02_18,39.35929751441085,-74.41683,States Avenue,0.31916666666666665,0.09590909722222223,0.34670958333333335,6,5,"NIGHT_CLEAR,NIGHT_CLEAR,NIGHT_CLEAR,NIGHT_CLEAR,CLEAR,CLEAR,CLEAR,CLEAR,CLEAR,CLEAR,CLEAR,CLEAR","Offshore,Offshore,Offshore,Offshore,Cross-shore,Cross-shore,Cross-shore,Cross-shore,Cross-shore,Cross-shore,Cross-shore,Cross-shore",12
5842041f4e65fad6a7708a0b,2024_02_18,39.37274173278517,-74.40454,Brigantine Jetty,0.31916666666666665,0.12992520833333332,0.3998563888888889,6,5,"NIGHT_CLEAR,NIGHT_CLEAR,NIGHT_CLEAR,NIGHT_CLEAR,CLEAR,CLEAR,CLEAR,CLEAR,CLEAR,CLEAR,CLEAR,CLEAR","Offshore,Offshore,Cross-shore,Offshore,Cross-shore,Cross-shore,Cross-shore,Onshore,Onshore,Onshore,Onshore,Onshore",12
5842041f4e65fad6a7708a0c,2024_02_18,39.356505,-74.42263,South Carolina Avenue,0.31916666666666665,0.12991020833333333,0.3998330555555556,6,5,"NIGHT_CLEAR,NIGHT_CLEAR,NIGHT_CLEAR,NIGHT_CLEAR,CLEAR,CLEAR,CLEAR,CLEAR,CLEAR,CLEAR,CLEAR,CLEAR","Offshore,Offshore,Offshore,Cross-shore,Cross-shore,Cross-shore,Cross-shore,Onshore,Onshore,Onshore,Onshore,Onshore",12
5842041f4e65fad6a7708a0d,2024_02_18,39.413485,-74.35476,14th Street North,0.1525,-0.0036111111111111114,0.26435000000000003,6,5,"NIGHT_CLEAR,NIGHT_CLEAR,NIGHT_CLEAR,NIGHT_CLEAR,CLEAR,CLEAR,CLEAR,CLEAR,CLEAR,CLEAR,CLEAR,CLEAR","Offshore,Offshore,Offshore,Offshore,Cross-shore,Cross-shore,Cross-shore,Cross-shore,Cross-shore,Cross-shore,Cross-shore,Cross-shore",12
5842041f4e65fad6a7708a0e,2024_02_18,39.531319,-74.263252,The Wooden Jetty,0.1525,0.04745883333333333,0.29979125,6,5,"NIGHT_CLEAR,NIGHT_CLEAR,NIGHT_CLEAR,NIGHT_CLEAR,CLEAR,CLEAR,CLEAR,CLEAR,CLEAR,CLEAR,CLEAR,CLEAR","Offshore,Offshore,Offshore,Offshore,Cross-shore,Cross-shore,Cross-shore,Cross-shore,Cross-shore,Cross-shore,Cross-shore,Cross-shore",12
5842041f4e65fad6a7708a0f,2024_02_18,39.552472,-74.24344,Holyoke,0.1525,0.025498805555555556,0.2728879027777778,6,5,"NIGHT_CLEAR,NIGHT_CLEAR,NIGHT_CLEAR,NIGHT_CLEAR,CLEAR,CLEAR,CLEAR,CLEAR,CLEAR,CLEAR,CLEAR,CLEAR","Offshore,Offshore,Offshore,Offshore,Cross-shore,Cross-shore,Cross-shore,Cross-shore,Cross-shore,Cross-shore,Cross-shore,Cross-shore",12
5842041f4e65fad6a7708a10,2024_02_18,39.692364,-74.14068,Hudson Ave.,0.20249999999999999,0.045855,0.30403111111111114,6,5,"NIGHT_CLEAR,NIGHT_CLEAR,NIGHT_CLEAR,NIGHT_CLEAR,CLEAR,CLEAR,CLEAR,CLEAR,CLEAR,CLEAR,CLEAR,CLEAR","Offshore,Offshore,Offshore,Offshore,Cross-shore,Cross-shore,Cross-shore,Cross-shore,Cross-shore,Cross-shore,Cross-shore,Cross-shore",12
