_id,date,lat,lon,name,daily_mean_swell_rating,daily_mean_wave_height_min,daily_mean_wave_height_max,daily_mean_water_temperature_max,daily_mean_water_temperature_min,weather_per_timestamp,wind_per_timestamp,n_samples_per_day
5842041f4e65fad6a770884a,2024_03_08,42.88678181061,-70.80843,Seabrook,2,1.204155,1.8815,4,3,"NIGHT_CLEAR,NIGHT_CLEAR","Cross-shore,Cross-shore",2
5842041f4e65fad6a770884e,2024_03_08,41.434181432898335,-71.45312118111178,Narragansett,1.5,0.6,0.9,6,4,"NIGHT_CLEAR,NIGHT_CLEAR","Offshore,Offshore",2
5842041f4e65fad6a7708850,2024_03_08,40.582703230722,-73.65247,Lincoln Blvd,3,0.7933666666666667,1.1186666666666667,7,6,"NIGHT_CLEAR,NIGHT_CLEAR","Offshore,Offshore",2
5842041f4e65fad6a7708852,2024_03_08,40.58342841721757,-73.81182,Rockaways,3,0.8021166666666666,1.1295000000000002,7,6,"NIGHT_CLEAR,NIGHT_CLEAR","Offshore,Offshore",2
5842041f4e65fad6a7708853,2024_03_08,40.330474,-73.9734,Monmouth Beach,1.5,0.94,1.125,7,6,"NIGHT_CLEAR,NIGHT_CLEAR","Cross-shore,Cross-shore",2
5842041f4e65fad6a7708856,2024_03_08,40.113,-74.028,Manasquan Inlet,1.165,0.97,1.15,7,6,"NIGHT_CLEAR,NIGHT_CLEAR","Cross-shore,Cross-shore",2
5842041f4e65fad6a7708857,2024_03_08,39.941519877445664,-74.06829,Casino Pier,0.67,0.895,1.2,7,6,"NIGHT_CLEAR,NIGHT_CLEAR","Cross-shore,Cross-shore",2
5842041f4e65fad6a7708858,2024_03_08,39.28223089949212,-74.55766,North End OC,2,0.70295,1.0558833333333333,7,6,"NIGHT_CLEAR,NIGHT_CLEAR","Offshore,Offshore",2
5842041f4e65fad6a770885b,2024_03_08,39.65080599934257,-74.17146,Ship Bottom,2,1.0046166666666667,1.29755,7,6,"NIGHT_CLEAR,NIGHT_CLEAR","Offshore,Offshore",2
5842041f4e65fad6a7708863,2024_03_08,36.034151543144,-75.66791,Third Street,2,0.605,0.9099999999999999,11,9,"NIGHT_CLEAR,NIGHT_CLEAR","Onshore,Onshore",2
5842041f4e65fad6a7708867,2024_03_08,35.605833221351425,-75.46303,S-Turns,0,0.9686333333333333,1.2705166666666667,11,9,"NIGHT_MIST,NIGHT_CLEAR","Cross-shore,Cross-shore",2
5842041f4e65fad6a770886d,2024_03_08,38.338461,-75.08117,Ocean City Boardwalk,2,0.99,1.29,8,7,"NIGHT_CLEAR,NIGHT_CLEAR","Onshore,Onshore",2
5842041f4e65fad6a770886f,2024_03_08,29.844757212379562,-81.26136,A St.,3,0.44,0.75,17,17,"NIGHT_CLEAR,NIGHT_CLEAR","Cross-shore,Cross-shore",2
5842041f4e65fad6a7708871,2024_03_08,29.069417851135093,-80.90824,New Smyrna Beach,2.415,0.9335666666666667,1.3463166666666666,19,17,"NIGHT_MIST,NIGHT_MIST","Onshore,Onshore",2
5842041f4e65fad6a7708872,2024_03_08,28.367707417566,-80.60171,Cocoa Beach Pier,2,0.525,0.83,21,20,"NIGHT_CLEAR,NIGHT_MIST","Onshore,Onshore",2
5842041f4e65fad6a7708873,2024_03_08,28.091782738658846,-80.56479,Indialantic,3,0.575,0.88,21,20,"NIGHT_MIST,NIGHT_MIST","Cross-shore,Cross-shore",2
5842041f4e65fad6a7708876,2024_03_08,27.25392904143517,-80.19455,Jensen Beach,2,0.4,0.71,23,22,"NIGHT_MIST,NIGHT_MIST","Offshore,Cross-shore",2
5842041f4e65fad6a7708879,2024_03_08,26.76346795333825,-80.0360655784607,Reef Road,0,-0.011666666666666659,0.15073333333333333,24,23,"NIGHT_MIST,NIGHT_MIST","Offshore,Offshore",2
5842041f4e65fad6a770887c,2024_03_08,26.336499228484,-80.06956100463,Boca Raton Inlet,2,0.07,0.38,25,23,"NIGHT_MIST,NIGHT_CLEAR","Cross-shore,Offshore",2
5842041f4e65fad6a770887d,2024_03_08,26.31719311695038,-80.07452525176168,Deerfield Beach Pier,0,-0.003850000000000006,0.15295000000000003,25,23,"NIGHT_CLEAR,NIGHT_CLEAR","Cross-shore,Offshore",2
5842041f4e65fad6a7708881,2024_03_08,30.20276320866628,-85.85626528676136,"Spyglass Dr., Panama City",0.75,0,0.21275000000000002,19,18,"NIGHT_CLEAR,NIGHT_CLEAR","Cross-shore,Cross-shore",2
5842041f4e65fad6a770888d,2024_03_08,21.679,-158.042,Sunset Beach,3,1.045,1.255,26,25,"NIGHT_MOSTLY_CLOUDY,NIGHT_BRIEF_SHOWERS","Cross-shore,Cross-shore",2
5842041f4e65fad6a770888e,2024_03_08,21.670550036401,-158.0482,Rocky Point,3,1.02,1.3250000000000002,26,25,"NIGHT_MOSTLY_CLOUDY,NIGHT_CLEAR","Cross-shore,Cross-shore",2
5842041f4e65fad6a770888f,2024_03_08,21.668,-158.05,Chambers,3,1.025,1.225,24,24,"NIGHT_MOSTLY_CLOUDY,NIGHT_CLEAR","Cross-shore,Cross-shore",2
5842041f4e65fad6a7708890,2024_03_08,21.66522,-158.0526,Pipeline,2,0.935,1.1150000000000002,26,25,"NIGHT_MOSTLY_CLOUDY,NIGHT_CLEAR","Cross-shore,Cross-shore",2
5842041f4e65fad6a7708891,2024_03_08,21.665,-158.054,Backdoor,3,0.935,1.1150000000000002,26,25,"NIGHT_MOSTLY_CLOUDY,NIGHT_CLEAR","Cross-shore,Cross-shore",2
5842041f4e65fad6a7708892,2024_03_08,21.662,-158.057,Rockpile,3,1.005,1.26,24,24,"NIGHT_MOSTLY_CLOUDY,NIGHT_CLEAR","Cross-shore,Cross-shore",2
5842041f4e65fad6a7708893,2024_03_08,21.65870453806827,-158.06058,Log Cabins,2,0.745,1.05,24,24,"NIGHT_MOSTLY_CLOUDY,NIGHT_CLEAR","Cross-shore,Cross-shore",2
5842041f4e65fad6a7708894,2024_03_08,21.66203493640557,-158.05495,Off-The-Wall,3,1.02,1.275,24,24,"NIGHT_MOSTLY_CLOUDY,NIGHT_CLEAR","Cross-shore,Cross-shore",2
5842041f4e65fad6a7708895,2024_03_08,21.643,-158.067,Waimea Bay,NA,1.03,1.23,26,25,"NIGHT_MOSTLY_CLOUDY,NIGHT_CLEAR","Cross-shore,Offshore",2
5842041f4e65fad6a7708896,2024_03_08,21.622,-158.087,Hultin's,2,1.0350000000000001,1.24,26,25,"NIGHT_MOSTLY_CLOUDY,NIGHT_CLEAR","Offshore,Offshore",2
5842041f4e65fad6a7708897,2024_03_08,21.623,-158.085,Jocko's,2,0.76,1.065,24,24,"NIGHT_MOSTLY_CLOUDY,NIGHT_CLEAR","Onshore,Onshore",2
5842041f4e65fad6a7708898,2024_03_08,21.62,-158.088,Laniakea,2,0.995,1.185,26,25,"NIGHT_MOSTLY_CLOUDY,NIGHT_CLEAR","Cross-shore,Cross-shore",2
5842041f4e65fad6a7708899,2024_03_08,21.625,-158.083,Chun's,3,0.965,1.1549999999999998,24,24,"NIGHT_MOSTLY_CLOUDY,NIGHT_CLEAR","Cross-shore,Cross-shore",2
5842041f4e65fad6a770889c,2024_03_08,21.286357895152136,-157.8515,South Shore - Ala Moana Park,1,0.225,0.53,25,25,"NIGHT_CLEAR,NIGHT_BRIEF_SHOWERS_POSSIBLE","Offshore,Offshore",2
5842041f4e65fad6a770889d,2024_03_08,19.606,-155.978,Banyans,3,0.34,0.64,26,25,"NIGHT_CLEAR,NIGHT_CLEAR","Cross-shore,Onshore",2
5842041f4e65fad6a770889e,2024_03_08,20.029,-155.831,Kawaihae,2,0.4444,0.66234,25,25,"NIGHT_MOSTLY_CLOUDY,NIGHT_MOSTLY_CLOUDY","Offshore,Offshore",2
5842041f4e65fad6a77088a2,2024_03_08,21.252,-157.805,Diamond Head,2,0.46597,0.79122,26,25,"NIGHT_CLEAR,NIGHT_CLEAR","Offshore,Offshore",2
5842041f4e65fad6a77089ad,2024_03_08,46.8907710233147,-124.12964,Westport/Olympic Peninsula,3,1.225,1.5,8,8,"NIGHT_CLEAR,NIGHT_MOSTLY_CLOUDY","Cross-shore,Cross-shore",2
5842041f4e65fad6a77089ae,2024_03_08,46.35185177248545,-124.06747,Long Beach Peninsula,3,1.9,2.125,9,9,"NIGHT_CLEAR,NIGHT_MOSTLY_CLEAR","Offshore,Offshore",2
5842041f4e65fad6a77089af,2024_03_08,47.90649175554033,-124.6370864743483,La Push,1.5,1.4849999999999999,1.775,8,8,"NIGHT_CLOUDY,NIGHT_OVERCAST","Cross-shore,Cross-shore",2
5842041f4e65fad6a77089b6,2024_03_08,45.61468496266301,-123.94643,Rockaway Beach,4,1.88,2.1,9,9,"NIGHT_CLEAR,NIGHT_CLEAR","Offshore,Offshore",2
5842041f4e65fad6a77089b7,2024_03_08,45.20252914186085,-123.96975,Pacific City,3,1.3,1.6,10,10,"NIGHT_CLEAR,NIGHT_CLEAR","Offshore,Offshore",2
5842041f4e65fad6a77089b8,2024_03_08,45.88179930310263,-123.96681,Cannon Beach,3,1.73,1.9849999999999999,9,9,"NIGHT_CLEAR,NIGHT_CLEAR","Offshore,Offshore",2
5842041f4e65fad6a77089ca,2024_03_08,43.251076,-70.59144,Ogunquit,2,1.865,2.175,4,3,"NIGHT_CLEAR,NIGHT_CLEAR","Cross-shore,Cross-shore",2
5842041f4e65fad6a77089cb,2024_03_08,41.362631366305415,-71.48006772942608,Point Judith,0.41500000000000004,0.5562833333333332,0.9436666666666667,6,4,"NIGHT_CLEAR,NIGHT_CLEAR","Onshore,Onshore",2
5842041f4e65fad6a77089cd,2024_03_08,41.422678090954726,-71.45413,Monahan's - Narragansett,0,0.476595,0.744675,6,6,"NIGHT_CLEAR,NIGHT_CLEAR","Cross-shore,Cross-shore",2
5842041f4e65fad6a77089ce,2024_03_08,41.469,-71.293,Ruggles - Newport,2,0.6145499999999999,0.960235,6,6,"NIGHT_CLEAR,NIGHT_CLEAR","Offshore,Offshore",2
5842041f4e65fad6a77089cf,2024_03_08,43.175394,-70.606351,Short Sands Beach,2,1.39,1.69,5,5,"NIGHT_CLEAR,NIGHT_CLEAR","Cross-shore,Cross-shore",2
5842041f4e65fad6a77089d0,2024_03_08,41.487408,-71.29017,First Beach,2,0.49,0.795,5,5,"NIGHT_CLEAR,NIGHT_CLEAR","Offshore,Offshore",2
5842041f4e65fad6a77089d1,2024_03_08,42.27916830233153,-70.86498,Nantasket Beach,1,1.35,1.5350000000000001,4,3,"NIGHT_CLEAR,NIGHT_CLEAR","Onshore,Onshore",2
5842041f4e65fad6a77089d2,2024_03_08,41.817,-69.935,Cape Cod,0,2.725,3.0300000000000002,5,5,"NIGHT_CLEAR,NIGHT_CLEAR","Cross-shore,Cross-shore",2
5842041f4e65fad6a77089d3,2024_03_08,42.22055448975661,-70.70634873403819,Egypt Beach,0,1.745,2.09,4,4,"NIGHT_CLEAR,NIGHT_CLEAR","Onshore,Onshore",2
5842041f4e65fad6a77089d4,2024_03_08,41.48739647744607,-71.25723,Second Beach,2,0.452705,0.707355,6,4,"NIGHT_CLEAR,NIGHT_CLEAR","Offshore,Offshore",2
5842041f4e65fad6a77089d5,2024_03_08,42.964,-70.769,Fox Hill,2,0.7,1.005,4,3,"NIGHT_CLEAR,NIGHT_CLEAR","Offshore,Offshore",2
5842041f4e65fad6a77089d6,2024_03_08,42.991359,-70.75149,Straws Point,3,1.505,1.81,4,3,"NIGHT_CLEAR,NIGHT_CLEAR","Offshore,Offshore",2
5842041f4e65fad6a77089d7,2024_03_08,42.946,-70.786,Plaice Cove,1,0.7,1.005,4,3,"NIGHT_CLEAR,NIGHT_CLEAR","Cross-shore,Cross-shore",2
5842041f4e65fad6a77089d9,2024_03_08,42.911574,-70.80831,The Main Beach,2.5,0.79852,1.24769,4,3,"NIGHT_CLEAR,NIGHT_CLEAR","Offshore,Offshore",2
5842041f4e65fad6a77089da,2024_03_08,42.97583846220203,-70.764,Sawyer's Beach,3,0.87,1.18,4,3,"NIGHT_CLEAR,NIGHT_CLEAR","Cross-shore,Offshore",2
5842041f4e65fad6a77089db,2024_03_08,42.97,-70.77,Rye on the Rocks / 5-0's,2,0.74316,0.97617,4,3,"NIGHT_CLEAR,NIGHT_CLEAR","Offshore,Offshore",2
5842041f4e65fad6a77089dc,2024_03_08,43.55902946610303,-70.27795,Higgins Beach,3,0.55,0.86,4,3,"NIGHT_CLEAR,NIGHT_CLEAR","Offshore,Offshore",2
5842041f4e65fad6a77089dd,2024_03_08,43.302676,-70.5652,Wells Beach,2.5,0.93,1.11,4,3,"NIGHT_CLEAR,NIGHT_CLEAR","Cross-shore,Cross-shore",2
5842041f4e65fad6a77089de,2024_03_08,43.545359,-70.30479,Scarborough Beach State Park,3,0.8198000000000001,1.28094,4,3,"NIGHT_CLEAR,NIGHT_CLEAR","Offshore,Offshore",2
5842041f4e65fad6a77089df,2024_03_08,43.514481,-70.372146,Old Orchard Beach,3,0.5178,0.8686499999999999,4,3,"NIGHT_CLEAR,NIGHT_CLEAR","Offshore,Offshore",2
5842041f4e65fad6a77089e0,2024_03_08,43.34711,-70.48165,Gooch's Beach,3,0.725,1.0350000000000001,4,3,"NIGHT_CLEAR,NIGHT_CLEAR","Offshore,Offshore",2
5842041f4e65fad6a77089e2,2024_03_08,40.58433,-73.62953,Lido Beach,3,0.9021166666666667,1.1724166666666667,7,6,"NIGHT_CLEAR,NIGHT_CLEAR","Offshore,Offshore",2
5842041f4e65fad6a77089e3,2024_03_08,43.163135,-70.61689,Long Sands Beach,3,0.6213470833333333,1.00418875,4,3,"NIGHT_CLEAR,NIGHT_CLEAR","Offshore,Offshore",2
5842041f4e65fad6a77089e4,2024_03_08,40.61695351251805,-73.39376,Gilgo Beach,3,0.635,0.94,5,4,"NIGHT_CLEAR,NIGHT_CLEAR","Offshore,Offshore",2
5842041f4e65fad6a77089e5,2024_03_08,40.62530081928036,-73.23827,Robert Moses,3,0.615,0.92,7,7,"NIGHT_CLEAR,NIGHT_CLEAR","Offshore,Offshore",2
5842041f4e65fad6a77089e6,2024_03_08,40.64313317632791,-73.15727,Fire Island,3,0.615,0.92,7,7,"NIGHT_CLEAR,NIGHT_CLEAR","Offshore,Offshore",2
5842041f4e65fad6a77089e8,2024_03_08,40.76653118828782,-72.74579619372713,Cupsogue,4,1.27,1.49,7,7,"NIGHT_CLEAR,NIGHT_CLEAR","Offshore,Offshore",2
5842041f4e65fad6a77089e9,2024_03_08,42.9376373334092,-70.79141,The Wall ,2,1.23735,1.933365,4,3,"NIGHT_CLEAR,NIGHT_CLEAR","Cross-shore,Cross-shore",2
5842041f4e65fad6a77089ea,2024_03_08,40.887088,-72.33856,Flys,3,1.005,1.3050000000000002,7,7,"NIGHT_CLEAR,NIGHT_CLEAR","Offshore,Offshore",2
5842041f4e65fad6a77089eb,2024_03_08,41.0389266436591,-71.91068529316958,Trailer Park,3.585,0.9754025,1.2788983333333332,5,4,"NIGHT_CLEAR,NIGHT_CLEAR","Offshore,Offshore",2
5842041f4e65fad6a77089ec,2024_03_08,41.039505402729105,-71.9142,Ditch Plains,3,0.739765,1.155885,6,6,"NIGHT_CLEAR,NIGHT_CLEAR","Offshore,Offshore",2
5842041f4e65fad6a77089ee,2024_03_08,40.57633275206492,-73.56895305108567,"West End, Jones Beach",3,0.765,1.0750000000000002,7,6,"NIGHT_CLEAR,NIGHT_CLEAR","Offshore,Offshore",2
5842041f4e65fad6a77089f1,2024_03_08,41.038286691230795,-71.91991567611694,Poles,3.585,0.8871691666666666,1.2008629166666667,5,4,"NIGHT_CLEAR,NIGHT_CLEAR","Offshore,Offshore",2
5842041f4e65fad6a77089f3,2024_03_08,40.84077769766295,-72.47989493724765,The Bowl,3,0.995,1.3,7,7,"NIGHT_CLEAR,NIGHT_CLEAR","Offshore,Offshore",2
5842041f4e65fad6a77089f4,2024_03_08,40.94235535243154,-72.19286,Main Beach,3,1.115,1.38,13,12,"NIGHT_CLEAR,NIGHT_CLEAR","Offshore,Offshore",2
5842041f4e65fad6a77089f5,2024_03_08,40.58270702399518,-73.67251552079799,Laurelton Blvd.,3,0.81283125,1.0273937499999999,7,6,"NIGHT_CLEAR,NIGHT_CLEAR","Offshore,Offshore",2
5842041f4e65fad6a77089f6,2024_03_08,41.033752854071416,-71.93695522488403,Terrace,3.585,0.7801833333333333,1.0865833333333335,5,4,"NIGHT_CLEAR,NIGHT_CLEAR","Offshore,Offshore",2
5842041f4e65fad6a77089f7,2024_03_08,40.83372943645748,-72.50426173210144,K Road,4,1.24,1.48,7,7,"NIGHT_CLEAR,NIGHT_CLEAR","Offshore,Offshore",2
5842041f4e65fad6a77089f8,2024_03_08,40.58456099581507,-73.80730032920837,84th Street,3,0.8342,1.1540833333333333,7,6,"NIGHT_CLEAR,NIGHT_CLEAR","Offshore,Offshore",2
5842041f4e65fad6a77089fa,2024_03_08,40.1319,-74.02788,Sea Girt,2,1.04,1.3450000000000002,7,6,"NIGHT_CLEAR,NIGHT_CLEAR","Cross-shore,Cross-shore",2
5842041f4e65fad6a77089fb,2024_03_08,40.54698301868125,-73.9268,Breezy Point,3,0.63,0.935,7,7,"NIGHT_CLEAR,NIGHT_CLEAR","Offshore,Offshore",2
5842041f4e65fad6a77089fc,2024_03_08,40.152504,-74.021383,Spring Lake,2,1.02,1.275,7,6,"NIGHT_CLEAR,NIGHT_CLEAR","Cross-shore,Cross-shore",2
5842041f4e65fad6a77089fd,2024_03_08,40.591277,-73.770792,30th - 39th Streets,3,0.615,0.925,7,6,"NIGHT_CLEAR,NIGHT_CLEAR","Offshore,Offshore",2
5842041f4e65fad6a77089fe,2024_03_08,40.18834955871439,-74.00860982500222,Avon,2,1.0350000000000001,1.3450000000000002,7,6,"NIGHT_CLEAR,NIGHT_CLEAR","Cross-shore,Cross-shore",2
5842041f4e65fad6a77089ff,2024_03_08,40.1974229100932,-74.00650533798255,Bradley Beach,2,1.02,1.22,7,6,"NIGHT_CLEAR,NIGHT_CLEAR","Cross-shore,Onshore",2
5842041f4e65fad6a7708a01,2024_03_08,40.17202,-74.01503,"16th Ave., Belmar",1.165,1.005,1.185,7,6,"NIGHT_CLEAR,NIGHT_CLEAR","Cross-shore,Onshore",2
5842041f4e65fad6a7708a02,2024_03_08,40.217443,-73.99982,Asbury Park,2,1.04,1.245,7,6,"NIGHT_CLEAR,NIGHT_CLEAR","Cross-shore,Cross-shore",2
5842041f4e65fad6a7708a03,2024_03_08,40.229841,-73.996782,Loch Arbour and Deal,2,0.985,1.29,7,6,"NIGHT_CLEAR,NIGHT_CLEAR","Cross-shore,Cross-shore",2
5842041f4e65fad6a7708a05,2024_03_08,40.41754,-73.97935,Sandy Hook,1,0.35,0.655,7,7,"NIGHT_CLEAR,NIGHT_CLEAR","Cross-shore,Cross-shore",2
5842041f4e65fad6a7708a06,2024_03_08,39.36353,-74.40873,Crystals,3,0.72383,1.13099,7,6,"NIGHT_CLEAR,NIGHT_CLEAR","Offshore,Offshore",2
5842041f4e65fad6a7708a07,2024_03_08,39.31443,-74.51863,32nd Street,2,0.7226866666666667,1.1125262500000002,7,6,"NIGHT_CLEAR,NIGHT_CLEAR","Offshore,Offshore",2
5842041f4e65fad6a7708a08,2024_03_08,39.327688,-74.49524,Margate Pier Northside,2,0.7226866666666667,1.1125262500000002,7,6,"NIGHT_CLEAR,NIGHT_CLEAR","Offshore,Offshore",2
5842041f4e65fad6a7708a09,2024_03_08,39.336276,-74.47782,Ventnor Pier,3,0.67137,1.04902,7,6,"NIGHT_CLEAR,NIGHT_CLEAR","Offshore,Offshore",2
5842041f4e65fad6a7708a0a,2024_03_08,39.35929751441085,-74.41683,States Avenue,3,0.72383,1.13099,7,6,"NIGHT_CLEAR,NIGHT_CLEAR","Offshore,Offshore",2
5842041f4e65fad6a7708a0b,2024_03_08,39.37274173278517,-74.40454,Brigantine Jetty,2.5,0.663915,1.0373649999999999,7,6,"NIGHT_CLEAR,NIGHT_CLEAR","Offshore,Offshore",2
5842041f4e65fad6a7708a0c,2024_03_08,39.356505,-74.42263,South Carolina Avenue,3,0.663915,1.0373649999999999,7,6,"NIGHT_CLEAR,NIGHT_CLEAR","Offshore,Offshore",2
5842041f4e65fad6a7708a0d,2024_03_08,39.413485,-74.35476,14th Street North,3,0.89,1.1949999999999998,7,6,"NIGHT_CLEAR,NIGHT_CLEAR","Offshore,Offshore",2
5842041f4e65fad6a7708a0e,2024_03_08,39.531319,-74.263252,The Wooden Jetty,1.835,0.9995504166666667,1.2047608333333333,7,6,"NIGHT_CLEAR,NIGHT_CLEAR","Offshore,Offshore",2
5842041f4e65fad6a7708a0f,2024_03_08,39.552472,-74.24344,Holyoke,2,0.7588550000000001,1.1690375,7,6,"NIGHT_CLEAR,NIGHT_CLEAR","Offshore,Offshore",2
5842041f4e65fad6a7708a10,2024_03_08,39.692364,-74.14068,Hudson Ave.,1.835,0.9596166666666668,1.3279666666666667,7,6,"NIGHT_CLEAR,NIGHT_CLEAR","Offshore,Offshore",2
5842041f4e65fad6a7708a11,2024_03_08,39.79614,-74.09248,Island Beach State Park,2,1.33,1.475,7,6,"NIGHT_CLEAR,NIGHT_CLEAR","Cross-shore,Cross-shore",2
5842041f4e65fad6a7708a12,2024_03_08,39.91813588078152,-74.07527,Seaside Park,1.5,1.025,1.2850000000000001,7,6,"NIGHT_CLEAR,NIGHT_CLEAR","Cross-shore,Cross-shore",2
5842041f4e65fad6a7708a14,2024_03_08,39.946638,-74.06884,Seaside Heights,2,1.185,1.4849999999999999,7,6,"NIGHT_CLEAR,NIGHT_CLEAR","Cross-shore,Cross-shore",2
5842041f4e65fad6a7708a15,2024_03_08,39.95745637606704,-74.06736,Ortley Beach,2,1.025,1.225,7,6,"NIGHT_CLEAR,NIGHT_CLEAR","Cross-shore,Cross-shore",2
5842041f4e65fad6a7708a16,2024_03_08,39.98313468342945,-74.06265685577506,Lavallette,2,1.005,1.315,7,6,"NIGHT_CLEAR,NIGHT_CLEAR","Cross-shore,Cross-shore",2
5842041f4e65fad6a7708a17,2024_03_08,40.0699319967757,-74.04144910856634,Bay Head,1.5,0.995,1.3,7,6,"NIGHT_CLEAR,NIGHT_CLEAR","Cross-shore,Cross-shore",2
5842041f4e65fad6a7708a18,2024_03_08,40.094041,-74.034859,Jenkinson's,2.5,1.0750000000000002,1.375,7,6,"NIGHT_CLEAR,NIGHT_CLEAR","Offshore,Offshore",2
5842041f4e65fad6a7708a1a,2024_03_08,38.148058,-75.17704,Assateague,1.5,1.005,1.1949999999999998,8,7,"NIGHT_CLEAR,NIGHT_CLEAR","Cross-shore,Cross-shore",2
5842041f4e65fad6a7708a1b,2024_03_08,38.33889038664497,-75.08017670566352,North End to Ocean City Inlet,2,1.0150000000000001,1.3250000000000002,8,7,"NIGHT_CLEAR,NIGHT_CLEAR","Onshore,Onshore",2
5842041f4e65fad6a7708a1c,2024_03_08,38.603993,-75.06271,Indian River Inlet,1,0.661415,1.033465,8,7,"NIGHT_CLEAR,NIGHT_CLEAR","Cross-shore,Cross-shore",2
5842041f4e65fad6a7708a1d,2024_03_08,38.460477,-75.052069,Fenwick Island,1,0.67,0.975,8,7,"NIGHT_CLEAR,NIGHT_CLEAR","Onshore,Onshore",2
5842041f4e65fad6a7708a1e,2024_03_08,38.538767,-75.05619,Bethany Beach,1,0.645775,1.00903,8,7,"NIGHT_CLEAR,NIGHT_CLEAR","Cross-shore,Cross-shore",2
5842041f4e65fad6a7708a1f,2024_03_08,38.697657,-75.075951,Dewey Beach,2,0.75,1.0550000000000002,8,7,"NIGHT_CLEAR,NIGHT_CLEAR","Onshore,Onshore",2
5842041f4e65fad6a7708a20,2024_03_08,38.75034741676525,-75.08194,Gordons Pond,2,0.49254,0.7696000000000001,8,7,"NIGHT_CLEAR,NIGHT_CLEAR","Cross-shore,Cross-shore",2
5842041f4e65fad6a7708a21,2024_03_08,38.767837,-75.082841,Naval Jetties,1,0.69,1,8,7,"NIGHT_CLEAR,NIGHT_CLEAR","Onshore,Onshore",2
5842041f4e65fad6a7708a22,2024_03_08,36.81735875786576,-75.96624,Camp Pendleton,1,0.7,1.005,9,8,"NIGHT_CLEAR,NIGHT_CLEAR","Cross-shore,Onshore",2
5842041f4e65fad6a7708a23,2024_03_08,36.9102212316428,-75.98732471466064,North End,1,0.375,0.6799999999999999,9,8,"NIGHT_CLEAR,NIGHT_CLEAR","Onshore,Onshore",2
5842041f4e65fad6a7708a24,2024_03_08,36.737117517621314,-75.93923719853362,Sandbridge Beach,1.5,0.52,0.8200000000000001,9,8,"NIGHT_CLEAR,NIGHT_CLEAR","Cross-shore,Onshore",2
5842041f4e65fad6a7708a26,2024_03_08,36.818257440557794,-75.96666,Croatan to Pendleton,0.75,0.51,0.81,9,8,"NIGHT_CLEAR,NIGHT_CLEAR","Cross-shore,Onshore",2
5842041f4e65fad6a7708a27,2024_03_08,36.84318777204769,-75.9719,South End,2,0.425,0.725,9,8,"NIGHT_CLEAR,NIGHT_CLEAR","Onshore,Onshore",2
5842041f4e65fad6a7708a28,2024_03_08,37.08612627584661,-75.976121638199,Fishermans Island,2,0.246,0.368,9,9,"NIGHT_CLEAR,NIGHT_CLEAR","Cross-shore,Cross-shore",2
5842041f4e65fad6a7708a38,2024_03_08,35.254619418229026,-75.52074,Cape Hatteras Lighthouse,0,0.9227283333333334,1.3846116666666666,13,12,"NIGHT_CLEAR,NIGHT_CLEAR","Cross-shore,Cross-shore",2
5842041f4e65fad6a7708a3a,2024_03_08,35.54572934093336,-75.46477,Waves and Salvo,1,0.705,1.01,12,11,"NIGHT_CLEAR,NIGHT_CLOUDY","Cross-shore,Cross-shore",2
5842041f4e65fad6a7708a3b,2024_03_08,35.22565892751075,-75.63606,Frisco,3,0.984,1.112,14,13,"NIGHT_CLEAR,NIGHT_CLEAR","Offshore,Offshore",2
5842041f4e65fad6a7708a3c,2024_03_08,35.13086,-75.90591,Ocracoke,1,0.663845,1.037255,12,12,"NIGHT_CLEAR,NIGHT_CLEAR","Offshore,Offshore",2
5842041f4e65fad6a7708a3d,2024_03_08,35.34721340158342,-75.50084,Avon Pier,0,0.7448166666666669,1.4027500000000002,13,12,"NIGHT_CLEAR,NIGHT_CLEAR","Cross-shore,Cross-shore",2
5842041f4e65fad6a7708a3f,2024_03_08,35.71680821253768,-75.49243,Pea Island,1.5,0.5549999999999999,0.86,10,10,"NIGHT_FOG,NIGHT_CLOUDY","Cross-shore,Cross-shore",2
5842041f4e65fad6a7708a40,2024_03_08,35.97427620657821,-75.62984,Nags Head Pier,2,0.74295,1.04935,11,9,"NIGHT_OVERCAST,NIGHT_CLEAR","Onshore,Onshore",2
5842041f4e65fad6a7708a41,2024_03_08,36.0439998039079,-75.67288,Avalon Pier,1.5,0.65,0.95,11,9,"NIGHT_CLEAR,NIGHT_CLEAR","Onshore,Onshore",2
5842041f4e65fad6a7708a42,2024_03_08,36.03043116489792,-75.66413,First Street,2,0.7387833333333333,1.0501833333333335,11,9,"NIGHT_CLEAR,NIGHT_CLEAR","Cross-shore,Cross-shore",2
5842041f4e65fad6a7708a43,2024_03_08,36.06829910590498,-75.6899,Old Station/Laundromats,2,0.64,0.95,11,9,"NIGHT_CLOUDY,NIGHT_CLEAR","Cross-shore,Cross-shore",2
5842041f4e65fad6a7708a44,2024_03_08,36.10126676607491,-75.71107462163894,Kitty Hawk Pier,2,0.7146166666666667,1.0181,11,9,"NIGHT_OVERCAST,NIGHT_CLEAR","Cross-shore,Cross-shore",2
5842041f4e65fad6a7708a45,2024_03_08,36.18220630068973,-75.75013580649097,Duck Pier,1.5,0.495,0.8049999999999999,10,9,"NIGHT_CLOUDY,NIGHT_CLEAR","Cross-shore,Cross-shore",2
5842041f4e65fad6a7708a46,2024_03_08,36.37660668125033,-75.82409701687456,Corolla,1,0.51,0.81,10,9,"NIGHT_CLEAR,NIGHT_CLEAR","Cross-shore,Cross-shore",2
5842041f4e65fad6a7708a47,2024_03_08,33.90373404124834,-78.08241431707907,Oak Island,2,0.28500000000000003,0.585,14,14,"NIGHT_CLEAR,NIGHT_CLEAR","Offshore,Offshore",2
5842041f4e65fad6a7708a48,2024_03_08,33.91108837766468,-78.29653,South Brunswick Beaches,2,0.35202999999999995,0.550045,14,14,"NIGHT_MIST,NIGHT_MOSTLY_CLOUDY","Offshore,Cross-shore",2
5842041f4e65fad6a7708a49,2024_03_08,34.05683595651973,-77.88128,Carolina Beach Pier,1,0.5908666666666667,0.9022666666666668,14,13,"NIGHT_CLEAR,NIGHT_CLEAR","Onshore,Onshore",2
5842041f4e65fad6a7708a4a,2024_03_08,33.96841191816696,-77.9180242565498,Fort Fisher,1.335,0.6696166666666667,0.9731000000000001,14,13,"NIGHT_CLEAR,NIGHT_CLEAR","Onshore,Onshore",2
5842041f4e65fad6a7708a4b,2024_03_08,34.46776662988774,-77.47083191635772,Topsail Beach,2,0.635,0.945,14,13,"NIGHT_CLEAR,NIGHT_CLEAR","Offshore,Offshore",2
5842041f4e65fad6a7708a4c,2024_03_08,34.69270354752445,-76.82854854446575,Iron Steamer,2,0.3762000000000001,0.6809999999999999,14,13,"NIGHT_CLEAR,NIGHT_CLEAR","Offshore,Offshore",2
5842041f4e65fad6a7708a4f,2024_03_08,30.85132684893727,-81.42283496231143,Cumberland Island,1,0.42,0.73,16,16,"NIGHT_MIST,NIGHT_MIST","Cross-shore,Cross-shore",2
5842041f4e65fad6a7708a50,2024_03_08,34.686741128540874,-76.47516712138378,Cape Lookout National Seashore,1,0.62,0.92,12,12,"NIGHT_CLEAR,NIGHT_CLEAR","Cross-shore,Cross-shore",2
5842041f4e65fad6a7708a51,2024_03_08,31.10585419260024,-81.40422767604812,Jekyll Island,1,0.18,0.485,15,15,"NIGHT_MIST,NIGHT_MIST","Onshore,Onshore",2
5842041f4e65fad6a7708a52,2024_03_08,31.16212806376699,-81.32512426500224,Harbor Marker Buoys,1.5,0.44,0.75,15,15,"NIGHT_MIST,NIGHT_MIST","Cross-shore,Cross-shore",2
5842041f4e65fad6a7708a53,2024_03_08,31.20076299997009,-81.32629,Sea Island,2,0.43,0.73,15,15,"NIGHT_MIST,NIGHT_MIST","Cross-shore,Cross-shore",2
5842041f4e65fad6a7708a54,2024_03_08,31.13553222995767,-81.38457634790909,St. Simons Island,2,0.39,0.695,15,15,"NIGHT_MIST,NIGHT_MIST","Cross-shore,Cross-shore",2
5842041f4e65fad6a7708a55,2024_03_08,31.33550077186516,-81.28383377408417,Wolf Island,2,0.305,0.61,15,15,"NIGHT_MIST,NIGHT_MIST","Onshore,Onshore",2
5842041f4e65fad6a7708a56,2024_03_08,31.2704493877174,-81.27324039152315,Little St. Simons Island,2,0.39,0.695,15,15,"NIGHT_MIST,NIGHT_MIST","Onshore,Onshore",2
5842041f4e65fad6a7708a57,2024_03_08,31.39261761368919,-81.26190520231917,Sapelo Island,2,0.36,0.67,15,15,"NIGHT_MIST,NIGHT_MIST","Cross-shore,Cross-shore",2
5842041f4e65fad6a7708a58,2024_03_08,34.42458783809001,-77.54492,Surf City Pier,2,0.655,0.96,14,13,"NIGHT_CLEAR,NIGHT_CLEAR","Cross-shore,Cross-shore",2
5842041f4e65fad6a7708a59,2024_03_08,31.4231993614213,-81.24725340591522,Cabretta Island,2,0.38,0.69,15,15,"NIGHT_CLEAR,NIGHT_MIST","Cross-shore,Cross-shore",2
5842041f4e65fad6a7708a5a,2024_03_08,31.46684389030369,-81.2100056410468,Blackbeard Island,2,0.36,0.67,15,15,"NIGHT_CLEAR,NIGHT_OVERCAST","Cross-shore,Cross-shore",2
5842041f4e65fad6a7708a5b,2024_03_08,31.85953587631629,-80.99031310336719,Wassaw Island/South End,2,0.065,0.37,15,15,"NIGHT_MIST,NIGHT_MIST","Cross-shore,Cross-shore",2
5842041f4e65fad6a7708a5c,2024_03_08,31.62535662342983,-81.13328352167974,St. Catherines Island,2,0.365,0.67,15,15,"NIGHT_MIST,NIGHT_MIST","Onshore,Onshore",2
5842041f4e65fad6a7708a5d,2024_03_08,31.76502169596568,-81.07655443806622,Ossabaw Island,2,0.275,0.58,15,15,"NIGHT_MIST,NIGHT_MIST","Cross-shore,Cross-shore",2
5842041f4e65fad6a7708a5e,2024_03_08,31.90593619092352,-80.93589231700857,Wassaw Island/North End,2,0.51,0.815,15,15,"NIGHT_MIST,NIGHT_MIST","Cross-shore,Cross-shore",2
5842041f4e65fad6a7708a5f,2024_03_08,31.96738675414547,-80.86977980706155,Little Tybee Island,2,0.415,0.72,15,15,"NIGHT_MIST,NIGHT_MIST","Cross-shore,Cross-shore",2
5842041f4e65fad6a7708a60,2024_03_08,31.9812255780179,-80.84773973467009,South Tybee Sandbars,2.5,0.34,0.645,15,15,"NIGHT_MIST,NIGHT_MIST","Onshore,Cross-shore",2
5842041f4e65fad6a7708a61,2024_03_08,32.01226,-80.83983,Sugar Shack,2,0.275,0.585,15,15,"NIGHT_MIST,NIGHT_MIST","Onshore,Onshore",2
5842041f4e65fad6a7708a62,2024_03_08,31.98722842396969,-80.84773,18th St. Jetty,2,0.47845000000000004,0.74757,15,15,"NIGHT_MIST,NIGHT_MIST","Onshore,Onshore",2
5842041f4e65fad6a7708a64,2024_03_08,34.013473721006676,-77.8991,"Alabama Ave., Kure Beach",2,0.45499999999999996,0.755,14,14,"NIGHT_CLEAR,NIGHT_CLEAR","Cross-shore,Onshore",2
5842041f4e65fad6a7708a65,2024_03_08,34.20859853336924,-77.79293,"C Street, Wrightsville Beach",1,0.5303,0.88115,14,13,"NIGHT_CLEAR,NIGHT_CLEAR","Onshore,Cross-shore",2
5842041f4e65fad6a7708a66,2024_03_08,32.831,-79.71,Dewees Island,2,0.32,0.625,14,14,"NIGHT_MIST,NIGHT_MIST","Onshore,Cross-shore",2
5842041f4e65fad6a7708a67,2024_03_08,33.82924423172106,-78.62813,Cherry Grove Pier,1.5,0.21,0.52,14,14,"NIGHT_CLEAR,NIGHT_CLEAR","Cross-shore,Cross-shore",2
5842041f4e65fad6a7708a69,2024_03_08,34.27197439666496,-77.74050223196774,Figure Eight and Shell Islands,1.585,0.7232166666666666,1.06615,14,13,"NIGHT_CLEAR,NIGHT_CLEAR","Cross-shore,Cross-shore",2
5842041f4e65fad6a7708a6b,2024_03_08,33.49041958261793,-79.07666070599386,North End,2,0.29,0.59,14,14,"NIGHT_MOSTLY_CLEAR,NIGHT_MOSTLY_CLOUDY","Cross-shore,Cross-shore",2
5842041f4e65fad6a7708a6c,2024_03_08,33.39537062495087,-79.13835037835189,The South End,2,0.24,0.55,15,15,"NIGHT_MOSTLY_CLOUDY,NIGHT_MIST","Onshore,Onshore",2
5842041f4e65fad6a7708a6d,2024_03_08,33.29001727666697,-79.17190003352977,North Island,2,0.41500000000000004,0.72,15,15,"NIGHT_MOSTLY_CLOUDY,NIGHT_MOSTLY_CLEAR","Onshore,Onshore",2
5842041f4e65fad6a7708a6e,2024_03_08,32.90929771158952,-79.57810400297359,Bull Island,2,0.33,0.635,14,14,"NIGHT_CLEAR,NIGHT_MOSTLY_CLOUDY","Onshore,Onshore",2
5842041f4e65fad6a7708a6f,2024_03_08,31.99153112815895,-80.84543050470074,Tybee Island Pier,2,0.035,0.34,15,15,"NIGHT_MIST,NIGHT_MIST","Onshore,Cross-shore",2
5842041f4e65fad6a7708a70,2024_03_08,33.03478144356316,-79.35021028265125,Cape Romain,2,0.51,0.815,15,15,"NIGHT_MOSTLY_CLOUDY,NIGHT_MOSTLY_CLOUDY","Onshore,Onshore",2
5842041f4e65fad6a7708a71,2024_03_08,33.43231073271028,-79.11789,The Pier,2,0.35111000000000003,0.54861,15,15,"NIGHT_MIST,NIGHT_MIST","Onshore,Onshore",2
5842041f4e65fad6a7708a72,2024_03_08,33.45423621397969,-79.10497798178424,South Litchfield,2,0.305,0.61,15,15,"NIGHT_MOSTLY_CLOUDY,NIGHT_CLEAR","Onshore,Onshore",2
5842041f4e65fad6a7708a73,2024_03_08,34.19316590251396,-77.8045,Crystal Pier,1,0.38155,0.7294833333333333,14,13,"NIGHT_CLEAR,NIGHT_CLEAR","Onshore,Cross-shore",2
5842041f4e65fad6a7708a74,2024_03_08,33.68628680045124,-78.883460274301,Myrtle Beach,2,0.29,0.6,14,14,"NIGHT_MIST,NIGHT_MIST","Cross-shore,Cross-shore",2
5842041f4e65fad6a7708a75,2024_03_08,32.66166297145973,-79.91951806398808,10th Street,3,0.44,0.745,15,15,"NIGHT_MIST,NIGHT_MIST","Cross-shore,Cross-shore",2
5842041f4e65fad6a7708a76,2024_03_08,33.16729555197199,-79.19829236867845,South Island,2,0.47,0.775,15,15,"NIGHT_CLEAR,NIGHT_CLEAR","Onshore,Onshore",2
5842041f4e65fad6a7708a77,2024_03_08,32.595,-80.088,Kiawah Island/Seabrook Island,3,0.31,0.615,15,15,"NIGHT_MIST,NIGHT_MIST","Offshore,Offshore",2
5842041f4e65fad6a7708a78,2024_03_08,32.51356930575787,-80.28223,Edisto Beach,2,0.427575,0.66809,15,15,"NIGHT_MIST,NIGHT_MIST","Cross-shore,Cross-shore",2
5842041f4e65fad6a7708a79,2024_03_08,32.366270751262,-80.43911,Hunting Island,3,0.43482,0.679405,15,15,"NIGHT_MIST,NIGHT_MIST","Onshore,Onshore",2
5842041f4e65fad6a7708a7a,2024_03_08,32.65337734408365,-79.93983,Folly Beach Pier,2,0.325,0.625,16,14,"NIGHT_CLEAR,NIGHT_CLEAR","Offshore,Cross-shore",2
5842041f4e65fad6a7708a7b,2024_03_08,33.41209545530049,-79.13026341393126,South Jetty,2,0.24,0.55,15,15,"NIGHT_MOSTLY_CLOUDY,NIGHT_MOSTLY_CLEAR","Onshore,Onshore",2
5842041f4e65fad6a7708a7c,2024_03_08,32.31115640606869,-80.48564,Fripp Island,2,0.44305,0.6922699999999999,15,15,"NIGHT_MIST,NIGHT_MIST","Offshore,Offshore",2
5842041f4e65fad6a7708a7d,2024_03_08,32.14365226036034,-80.74402,Hilton Head Island,1,0,0.19,15,15,"NIGHT_MOSTLY_CLOUDY,NIGHT_OVERCAST","Cross-shore,Cross-shore",2
5842041f4e65fad6a7708a7e,2024_03_08,29.70405364733744,-81.22426004725459,Matanzas Inlet,2,0.28,0.59,17,17,"NIGHT_MIST,NIGHT_MIST","Cross-shore,Onshore",2
5842041f4e65fad6a7708a81,2024_03_08,29.76878537149042,-81.25109,Crescent Beach,2,0.33,0.63,17,17,"NIGHT_MOSTLY_CLOUDY,NIGHT_CLEAR","Cross-shore,Onshore",2
5842041f4e65fad6a7708a82,2024_03_08,32.80251718689188,-79.73221919500764,Wild Dunes,2,0.44,0.745,14,14,"NIGHT_CLEAR,NIGHT_MOSTLY_CLEAR","Cross-shore,Cross-shore",2
5842041f4e65fad6a7708a84,2024_03_08,32.75733539419244,-79.83258856064796,Bert's Bar,2,0.15000000000000002,0.455,14,14,"NIGHT_MIST,NIGHT_MIST","Cross-shore,Cross-shore",2
5842041f4e65fad6a7708a85,2024_03_08,32.66829212943039,-79.90735,Washout,1.835,0.36,0.665,16,14,"NIGHT_CLEAR,NIGHT_CLEAR","Cross-shore,Cross-shore",2
5842041f4e65fad6a7708a86,2024_03_08,32.78452968219067,-79.78540233488354,The Pier/Windjammer,3,0.445,0.75,14,14,"NIGHT_MIST,NIGHT_MIST","Cross-shore,Cross-shore",2
5842041f4e65fad6a7708a87,2024_03_08,29.86618162637438,-81.2662150259608,Anastasia Park (The Entrance),2,0.25,0.55,17,17,"NIGHT_CLEAR,NIGHT_CLEAR","Cross-shore,Onshore",2
5842041f4e65fad6a7708a89,2024_03_08,29.89149785916623,-81.2723223244215,Blowholes,2,0.3077,0.6174833333333334,23,21,"NIGHT_MIST,NIGHT_MIST","Cross-shore,Onshore",2
5842041f4e65fad6a7708a8a,2024_03_08,30.16227112983666,-81.35502907491218,Crossroads,2,0.40395,0.7037333333333333,23,21,"NIGHT_MIST,NIGHT_MIST","Cross-shore,Cross-shore",2
5842041f4e65fad6a7708a8b,2024_03_08,30.19308537587637,-81.36314247820911,Sawgrass,2,0.4318666666666667,0.7416499999999999,23,21,"NIGHT_CLEAR,NIGHT_CLEAR","Cross-shore,Cross-shore",2
5842041f4e65fad6a7708a8c,2024_03_08,30.34696027700899,-81.39451,18th Street,1.5,0.58681,0.9169,17,17,"NIGHT_MIST,NIGHT_MIST","Onshore,Cross-shore",2
5842041f4e65fad6a7708a8d,2024_03_08,30.381793,-81.39686,Mayport Poles,2,0.5,0.81,17,17,"NIGHT_MIST,NIGHT_MIST","Cross-shore,Cross-shore",2
5842041f4e65fad6a7708a8e,2024_03_08,30.390516,-81.395591,Blue Roofs,2,0.47,0.78,17,17,"NIGHT_MIST,NIGHT_MIST","Cross-shore,Cross-shore",2
5842041f4e65fad6a7708a8f,2024_03_08,30.40517712722211,-81.40074116169004,Huguenot Park (North Jetty),2,0.41,0.71,17,17,"NIGHT_MIST,NIGHT_MIST","Onshore,Onshore",2
5842041f4e65fad6a7708a90,2024_03_08,30.47788918872762,-81.41055821335078,Talbot Island,1.75,0.5974283333333333,0.9048833333333333,17,16,"NIGHT_CLEAR,NIGHT_CLEAR","Cross-shore,Cross-shore",2
5842041f4e65fad6a7708a91,2024_03_08,30.66753984549761,-81.42983,Main Beach,1,0.51,0.81,17,17,"NIGHT_MIST,NIGHT_MIST","Cross-shore,Cross-shore",2
5842041f4e65fad6a7708a92,2024_03_08,30.69983581209126,-81.42483,Ft. Clinch State Park,1,0.69,1,17,17,"NIGHT_MIST,NIGHT_MIST","Onshore,Onshore",2
5842041f4e65fad6a7708a93,2024_03_08,30.62059700777582,-81.437252942757425,Amelia Pier,1.5,0.42,0.73,17,17,"NIGHT_MOSTLY_CLOUDY,NIGHT_MOSTLY_CLOUDY","Cross-shore,Onshore",2
5842041f4e65fad6a7708a95,2024_03_08,28.95125170929067,-80.83837,Bethune Beach,2,0.45,0.755,18,18,"NIGHT_CLEAR,NIGHT_MOSTLY_CLEAR","Onshore,Onshore",2
5842041f4e65fad6a7708a96,2024_03_08,29.03874288905362,-80.8933424949646,Flagler Ave.,2,0.3,0.61,23,22,"NIGHT_CLEAR,NIGHT_MOSTLY_CLEAR","Onshore,Onshore",2
5842041f4e65fad6a7708a98,2024_03_08,30.332297686992757,-81.39319,Atlantic Beach,1.5,0.5603,0.87547,17,17,"NIGHT_MIST,NIGHT_MIST","Onshore,Cross-shore",2
5842041f4e65fad6a7708a99,2024_03_08,29.87530059952514,-81.26757958498874,Middles,2,0.2502,0.5604,23,21,"NIGHT_MIST,NIGHT_MIST","Cross-shore,Onshore",2
5842041f4e65fad6a7708a9a,2024_03_08,29.146475528378218,-80.96347,Sunglow Pier,2,0.4,0.7,18,18,"NIGHT_MIST,NIGHT_MIST","Onshore,Onshore",2
5842041f4e65fad6a7708a9b,2024_03_08,30.02251238001095,-81.32183077344881,Gate Station,2,0.2985333333333333,0.6087333333333333,23,21,"NIGHT_CLEAR,NIGHT_CLEAR","Cross-shore,Cross-shore",2
5842041f4e65fad6a7708a9c,2024_03_08,29.33976495417899,-81.0606,Bicentennial Park,2,0.34,0.65,17,17,"NIGHT_MIST,NIGHT_LIGHT_RAIN","Onshore,Onshore",2
5842041f4e65fad6a7708a9d,2024_03_08,29.08257353385602,-80.92136998257725,Ponce Inlet,2.5,0.5869666666666666,0.9428166666666666,19,17,"NIGHT_MOSTLY_CLEAR,NIGHT_CLEAR","Onshore,Onshore",2
5842041f4e65fad6a7708a9f,2024_03_08,27.862962005874696,-80.44668,Sebastian Inlet,2,0.6065637500000001,0.9568970833333333,21,21,"NIGHT_MIST,NIGHT_MIST","Onshore,Onshore",2
5842041f4e65fad6a7708aa0,2024_03_08,30.292626880836885,-81.38579,Jacksonville Beach Pier,2,0.5887666666666667,0.8985666666666667,17,16,"NIGHT_MIST,NIGHT_MIST","Onshore,Onshore",2
5842041f4e65fad6a7708aa1,2024_03_08,29.22878213864532,-81.00551,Main Street North,2,0.51891,0.69124,18,18,"NIGHT_FOG,NIGHT_FOG","Onshore,Onshore",2
5842041f4e65fad6a7708aa2,2024_03_08,29.21860397328164,-81.0019,Daytona Beach,2,0.37,0.68,18,18,"NIGHT_FOG,NIGHT_FOG","Onshore,Onshore",2
5842041f4e65fad6a7708aa3,2024_03_08,27.47531255634912,-80.28914,Ft. Pierce Inlet,2,0.5966833333333333,0.9559333333333333,23,22,"NIGHT_CLEAR,NIGHT_CLEAR","Onshore,Onshore",2
5842041f4e65fad6a7708aa4,2024_03_08,29.29239875585548,-81.0386,Ormond Beach,2,0.47,0.78,17,17,"NIGHT_MOSTLY_CLOUDY,NIGHT_HEAVY_SHOWERS","Onshore,Onshore",2
5842041f4e65fad6a7708aa5,2024_03_08,29.91629441498523,-81.28801,Vilano,2,0.29,0.59,17,17,"NIGHT_MIST,NIGHT_MIST","Cross-shore,Cross-shore",2
5842041f4e65fad6a7708aa6,2024_03_08,27.876230736320828,-80.4551,Spanish House,3,0.83,1.14,21,20,"NIGHT_MIST,NIGHT_MIST","Onshore,Onshore",2
5842041f4e65fad6a7708aa7,2024_03_08,28.64397251741012,-80.62328519781694,Playalinda,3,0.62,0.93,19,19,"NIGHT_MOSTLY_CLOUDY,NIGHT_MOSTLY_CLEAR","Onshore,Onshore",2
5842041f4e65fad6a7708aa8,2024_03_08,28.406142,-80.588858,Jetty Park,2,0.29,0.59,19,19,"NIGHT_MOSTLY_CLOUDY,NIGHT_CLEAR","Onshore,Onshore",2
5842041f4e65fad6a7708aa9,2024_03_08,28.49083243010974,-80.58001715986319,Kennedy Space Center,2,0.59,0.89,19,19,"NIGHT_CLEAR,NIGHT_CLEAR","Onshore,Onshore",2
5842041f4e65fad6a7708aab,2024_03_08,28.336757013024314,-80.60568,Lori Wilson Park,3,0.74,1.04,21,20,"NIGHT_CLEAR,NIGHT_MIST","Onshore,Onshore",2
5842041f4e65fad6a7708aad,2024_03_08,27.76388821683801,-80.3962958234027,Wabasso,3,0.69,1,22,22,"NIGHT_MIST,NIGHT_MIST","Onshore,Onshore",2
5842041f4e65fad6a7708aae,2024_03_08,27.521583322459,-80.30987620353699,P.V. Martin's,3,0.54,0.845,22,21,"NIGHT_CLEAR,NIGHT_CLEAR","Offshore,Cross-shore",2
5842041f4e65fad6a7708aaf,2024_03_08,27.644996047720046,-80.35242676734924,Riomar,2,0.55,0.85,22,21,"NIGHT_CLEAR,NIGHT_CLEAR","Onshore,Onshore",2
5842041f4e65fad6a7708ab1,2024_03_08,27.670121806659253,-80.36026954650879,Vero Pier,3,0.93,1.24,22,21,"NIGHT_MIST,NIGHT_MIST","Cross-shore,Onshore",2
5842041f4e65fad6a7708ab2,2024_03_08,28.047705032021486,-80.54680109024048,Spessard Holland,2,0.5825045833333333,0.93758125,21,20,"NIGHT_MIST,NIGHT_BRIEF_SHOWERS","Cross-shore,Cross-shore",2
5842041f4e65fad6a7708ab7,2024_03_08,28.135426226217064,-80.57895541191101,The Radisson,3,1.05,1.07,21,20,"NIGHT_MIST,NIGHT_MIST","Onshore,Cross-shore",2
5842041f4e65fad6a7708ab8,2024_03_08,28.26664623907351,-80.60448467731476,Picnic Tables,3,0.85,1.15,20,20,"NIGHT_CLEAR,NIGHT_MOSTLY_CLEAR","Onshore,Onshore",2
5842041f4e65fad6a7708ab9,2024_03_08,28.200840983180232,-80.59493,Perkins,3,1.025,1.33,21,20,"NIGHT_MOSTLY_CLEAR,NIGHT_MOSTLY_CLEAR","Onshore,Onshore",2
5842041f4e65fad6a7708aba,2024_03_08,28.185652556759443,-80.59154,RC's,2.165,0.6826666666666668,1.0975000000000001,21,20,"NIGHT_MOSTLY_CLEAR,NIGHT_MOSTLY_CLEAR","Cross-shore,Onshore",2
5842041f4e65fad6a7708abc,2024_03_08,28.252541991968208,-80.60269,2nd Light,3,0.84,1.15,20,20,"NIGHT_CLEAR,NIGHT_MOSTLY_CLEAR","Onshore,Onshore",2
5842041f4e65fad6a7708abd,2024_03_08,27.901611308716447,-80.4697,Bonsteel Park,3,0.7,1.005,21,20,"NIGHT_MIST,NIGHT_MIST","Onshore,Onshore",2
5842041f4e65fad6a7708abe,2024_03_08,28.2423394657007,-80.60104,Hangar's Beach,3,1.06,1.13,21,20,"NIGHT_MIST,NIGHT_MOSTLY_CLEAR","Onshore,Onshore",2
5842041f4e65fad6a7708abf,2024_03_08,27.34018197146798,-80.23278,Walton Rocks,2,0.61,0.92,23,22,"NIGHT_MOSTLY_CLOUDY,NIGHT_MIST","Offshore,Cross-shore",2
5842041f4e65fad6a7708ac0,2024_03_08,25.80407401902198,-80.1222227290161,30th Street,1,0,0.26,25,25,"NIGHT_CLEAR,NIGHT_CLEAR","Offshore,Offshore",2
5842041f4e65fad6a7708ac1,2024_03_08,25.76570280215999,-80.12983304957051,South Beach,0,0,0.1565666666666667,25,23,"NIGHT_CLEAR,NIGHT_CLEAR","Offshore,Offshore",2
5842041f4e65fad6a7708ac2,2024_03_08,26.058022412197,-80.10873562327671,Dania Pier,2,0.05,0.36,25,25,"NIGHT_MIST,NIGHT_MIST","Offshore,Offshore",2
5842041f4e65fad6a7708ac3,2024_03_08,26.04825428257198,-80.11153150137932,Franklin Street,1,0,0.3,25,25,"NIGHT_MIST,NIGHT_MIST","Offshore,Offshore",2
5842041f4e65fad6a7708ac4,2024_03_08,26.09086461141498,-80.10728410144065,John Lloyd State Park,1,0,0.29,25,25,"NIGHT_MIST,NIGHT_MIST","Offshore,Offshore",2
5842041f4e65fad6a7708ac5,2024_03_08,26.0971397396683,-80.10298876028907,Spoils,1,0.05,0.35,25,25,"NIGHT_CLEAR,NIGHT_CLEAR","Cross-shore,Offshore",2
5842041f4e65fad6a7708ac6,2024_03_08,26.18920557475824,-80.09224470008016,Commercial Pier,2,0.12,0.42,25,25,"NIGHT_CLEAR,NIGHT_CLEAR","Cross-shore,Offshore",2
5842041f4e65fad6a7708ac7,2024_03_08,28.289851576629342,-80.6063,16th St. South,3,0.55,0.85,21,20,"NIGHT_CLEAR,NIGHT_MIST","Onshore,Onshore",2
5842041f4e65fad6a7708ac8,2024_03_08,26.23467460139735,-80.08739675534814,Pompano Pier,1,0,0.165,25,23,"NIGHT_CLEAR,NIGHT_CLEAR","Cross-shore,Offshore",2
5842041f4e65fad6a7708acb,2024_03_08,26.44179551370651,-80.05928855229453,Atlantic Dunes Park,0,-0.004999166666666652,0.15025583333333337,25,23,"NIGHT_MIST,NIGHT_MIST","Offshore,Offshore",2
5842041f4e65fad6a7708acd,2024_03_08,26.62215707439298,-80.03599398392342,Hilton Hotel Backyard,2,0.22,0.52,24,23,"NIGHT_MIST,NIGHT_MIST","Cross-shore,Offshore",2
5842041f4e65fad6a7708ace,2024_03_08,26.96418190555367,-80.07769168113562,Coral Cove Park,3,0.44,0.74,24,23,"NIGHT_MIST,NIGHT_MIST","Offshore,Offshore",2
5842041f4e65fad6a7708acf,2024_03_08,26.7029496416037,-80.0318372872607,Palm Beach,2,0.245,0.55,24,23,"NIGHT_MIST,NIGHT_MIST","Offshore,Offshore",2
5842041f4e65fad6a7708ad0,2024_03_08,26.97679878167375,-80.08141631388132,Blowing Rocks,2,0.28500000000000003,0.59,24,23,"NIGHT_CLEAR,NIGHT_MIST","Offshore,Offshore",2
5842041f4e65fad6a7708ad2,2024_03_08,26.45661880078336,-80.05699952321751,Delray Beach,0,-0.00875,0.14781666666666665,25,23,"NIGHT_MIST,NIGHT_MIST","Onshore,Offshore",2
5842041f4e65fad6a7708ad3,2024_03_08,27.205685534312778,-80.16826629638672,Fletcher's,3,0.5,0.8,24,23,"NIGHT_MIST,NIGHT_MIST","Onshore,Cross-shore",2
5842041f4e65fad6a7708ad5,2024_03_08,26.5848450388814,-80.03649735753257,Lantana Public Beach,2,0.26,0.565,24,23,"NIGHT_CLEAR,NIGHT_CLEAR","Cross-shore,Offshore",2
5842041f4e65fad6a7708ad6,2024_03_08,25.77468432731322,-80.12884045797499,5th Street,1,0,0.2,25,25,"NIGHT_CLEAR,NIGHT_CLEAR","Offshore,Offshore",2
5842041f4e65fad6a7708ad7,2024_03_08,25.795157990715975,-80.12527585029602,21st Street,1,0,0.27,25,25,"NIGHT_CLEAR,NIGHT_CLEAR","Offshore,Offshore",2
5842041f4e65fad6a7708ad8,2024_03_08,25.897806453088073,-80.1211827993393,Haulover Inlet (South Jetty),2,0.03,0.34,25,25,"NIGHT_MIST,NIGHT_MIST","Offshore,Offshore",2
5842041f4e65fad6a7708ad9,2024_03_08,25.90147392328634,-80.12110769748688,Haulover Inlet (North Jetty),1,0,0.27,25,25,"NIGHT_MIST,NIGHT_MIST","Offshore,Offshore",2
5842041f4e65fad6a7708ada,2024_03_08,25.87049374242476,-80.11828560342356,85th Street,1,0,0.29,25,25,"NIGHT_MIST,NIGHT_MIST","Offshore,Offshore",2
5842041f4e65fad6a7708adb,2024_03_08,26.25486382031396,-80.0805,Hillsboro Inlet,2,0.38918,0.6081,28,26,"NIGHT_MIST,NIGHT_CLEAR","Cross-shore,Offshore",2
5842041f4e65fad6a7708add,2024_03_08,26.29705672965111,-80.07612393274484,Hillsboro Beach,2,0.1,0.41,28,26,"NIGHT_CLEAR,NIGHT_CLEAR","Cross-shore,Offshore",2
5842041f4e65fad6a7708ade,2024_03_08,26.36569956413266,-80.06717936869391,Red Reef Park,2,0.22,0.52,25,23,"NIGHT_MIST,NIGHT_CLEAR","Cross-shore,Offshore",2
5842041f4e65fad6a7708adf,2024_03_08,26.54593873498907,-80.04104359585143,Boynton Beach Inlet (Northside),2,0.19,0.495,24,23,"NIGHT_MIST,NIGHT_MIST","Cross-shore,Offshore",2
5842041f4e65fad6a7708ae0,2024_03_08,26.92746505629809,-80.06721138954163,Corners,0,-0.0027558333333333462,0.19410416666666674,24,23,"NIGHT_MIST,NIGHT_MIST","Offshore,Offshore",2
5842041f4e65fad6a7708ae1,2024_03_08,26.76983179886943,-80.03413481937037,The Cove,2,0.26,0.57,24,23,"NIGHT_MIST,NIGHT_MIST","Offshore,Offshore",2
5842041f4e65fad6a7708ae3,2024_03_08,26.39224485175123,-80.0650461233983,Japanese Rock,2,0.13,0.44,25,23,"NIGHT_MIST,NIGHT_CLEAR","Cross-shore,Offshore",2
5842041f4e65fad6a7708ae4,2024_03_08,29.94810928551321,-85.42545434612366,Mexico Beach,1,0,0.27,18,18,"NIGHT_CLEAR,NIGHT_CLEAR","Offshore,Offshore",2
5842041f4e65fad6a7708ae5,2024_03_08,30.11752500931267,-85.7306039427457,Shell Island,2,0.035,0.335,19,19,"NIGHT_CLEAR,NIGHT_CLEAR","Cross-shore,Offshore",2
5842041f4e65fad6a7708ae7,2024_03_08,29.94901514702268,-85.43042978529013,D.J.'s,1,0,0.27,18,18,"NIGHT_CLEAR,NIGHT_CLEAR","Cross-shore,Offshore",2
5842041f4e65fad6a7708ae8,2024_03_08,30.12396111446713,-85.73636797034509,St. Andrew's Park,0.75,0.03,0.23650000000000004,19,18,"NIGHT_CLEAR,NIGHT_CLEAR","Offshore,Offshore",2
5842041f4e65fad6a7708ae9,2024_03_08,30.16781531760227,-85.79604918824084,Spinnaker,0.75,0.01875,0.23025,19,18,"NIGHT_CLEAR,NIGHT_CLEAR","Cross-shore,Cross-shore",2
5842041f4e65fad6a7708aea,2024_03_08,30.18877050526983,-85.83243530466363,Wood Pier,2,0.035,0.34,19,18,"NIGHT_MIST,NIGHT_MIST","Offshore,Offshore",2
5842041f4e65fad6a7708aeb,2024_03_08,30.2676205895555,-85.9938578144113,Inlet Beach Pier,2,0.06,0.365,19,18,"NIGHT_CLEAR,NIGHT_CLEAR","Cross-shore,Offshore",2
5842041f4e65fad6a7708aec,2024_03_08,30.31815542759119,-86.1383771867044,Bud and Alley's,2,0.06,0.365,19,18,"NIGHT_CLEAR,NIGHT_CLEAR","Cross-shore,Cross-shore",2
5842041f4e65fad6a7708aed,2024_03_08,30.32686082481946,-86.16650590275447,Grayton Beach,2,0.07500000000000001,0.375,19,18,"NIGHT_CLEAR,NIGHT_CLEAR","Cross-shore,Cross-shore",2
5842041f4e65fad6a7708aee,2024_03_08,30.33661488976303,-86.20094370184573,Blue Mountain Beach,2,0.07,0.375,19,18,"NIGHT_CLEAR,NIGHT_CLEAR","Cross-shore,Cross-shore",2
5842041f4e65fad6a7708aef,2024_03_08,30.37677202831587,-86.38513326644897,Pompano Joe's,1,0.07,0.375,19,18,"NIGHT_MIST,NIGHT_MIST","Cross-shore,Cross-shore",2
5842041f4e65fad6a7708af0,2024_03_08,30.37429731725911,-86.36686966905461,Seascape,1.5,0.07500000000000001,0.375,19,18,"NIGHT_MIST,NIGHT_CLEAR","Cross-shore,Cross-shore",2
5842041f4e65fad6a7708af1,2024_03_08,30.382815988547186,-86.45838975906372,The Back Porch,1,0.07500000000000001,0.38,19,18,"NIGHT_MIST,NIGHT_MIST","Cross-shore,Cross-shore",2
5842041f4e65fad6a7708af2,2024_03_08,30.21207176798612,-85.87989730830542,Panama City Pier,2,0.045,0.35,19,18,"NIGHT_MIST,NIGHT_MIST","Offshore,Offshore",2
5842041f4e65fad6a7708af3,2024_03_08,30.37521499110326,-86.37169944119874,Whale's Tail,2,0.07500000000000001,0.38,19,18,"NIGHT_MIST,NIGHT_CLEAR","Cross-shore,Cross-shore",2
5842041f4e65fad6a7708af4,2024_03_08,30.38120596658251,-86.43045768307817,Old Crystal Pier,1,0.07,0.375,19,18,"NIGHT_CLEAR,NIGHT_CLEAR","Cross-shore,Cross-shore",2
5842041f4e65fad6a7708af5,2024_03_08,30.38090573159031,-86.50654862060082,Jetty East,2,0.07500000000000001,0.38,19,18,"NIGHT_MIST,NIGHT_MIST","Cross-shore,Cross-shore",2
5842041f4e65fad6a7708af6,2024_03_08,30.37584509640838,-86.50563273884252,HMO's,1,0.07500000000000001,0.38,19,18,"NIGHT_MIST,NIGHT_MIST","Cross-shore,Cross-shore",2
5842041f4e65fad6a7708af7,2024_03_08,30.38124006131522,-86.50052254675529,Two By Fours,1,0.08499999999999999,0.39,19,18,"NIGHT_MIST,NIGHT_MIST","Cross-shore,Cross-shore",2
5842041f4e65fad6a7708af8,2024_03_08,30.38250751017554,-86.45775957227345,The Pumphouse,2,0.10500000000000001,0.41,19,18,"NIGHT_MIST,NIGHT_MIST","Cross-shore,Cross-shore",2
5842041f4e65fad6a7708af9,2024_03_08,30.38655981578935,-86.52475380603576,NCO Club,2,0.08,0.385,19,18,"NIGHT_MIST,NIGHT_MIST","Cross-shore,Cross-shore",2
5842041f4e65fad6a7708afa,2024_03_08,30.39024516541047,-86.59341,Okaloosa Pier,1.5,0.07500000000000001,0.38,19,18,"NIGHT_MIST,NIGHT_MIST","Cross-shore,Cross-shore",2
5842041f4e65fad6a7708afb,2024_03_08,30.39281125722673,-86.59766184693287,Dead Man's,2,0.07500000000000001,0.38,19,18,"NIGHT_MIST,NIGHT_MIST","Cross-shore,Cross-shore",2
5842041f4e65fad6a7708afc,2024_03_08,30.32703176167034,-87.14196,Pensacola Pier,1,0.10500000000000001,0.415,18,18,"NIGHT_CLEAR,NIGHT_CLEAR","Onshore,Cross-shore",2
5842041f4e65fad6a7708afd,2024_03_08,30.37920054094992,-86.85583,Navarre Beach,2,0.29486,0.46072,19,18,"NIGHT_MIST,NIGHT_MIST","Cross-shore,Cross-shore",2
5842041f4e65fad6a7708afe,2024_03_08,30.39491626029151,-86.61248004999744,Blue Horizon Motel,2,0.065,0.37,19,18,"NIGHT_MIST,NIGHT_MIST","Cross-shore,Cross-shore",2
5842041f4e65fad6a7708aff,2024_03_08,30.29345899260828,-87.43546812169637,First Parking Lot,1,0.11499999999999999,0.415,18,18,"NIGHT_CLEAR,NIGHT_CLEAR","Onshore,Onshore",2
5842041f4e65fad6a7708b00,2024_03_08,30.29767401311303,-87.41361598257893,Johnsons Beach,1,0.12,0.425,18,18,"NIGHT_CLEAR,NIGHT_CLEAR","Onshore,Onshore",2
5842041f4e65fad6a7708b01,2024_03_08,30.29513397370759,-87.42642359089679,Sandy Key,1,0.11499999999999999,0.42,18,18,"NIGHT_CLEAR,NIGHT_CLEAR","Onshore,Onshore",2
5842041f4e65fad6a7708b03,2024_03_08,30.377504907388026,-86.86444,Navarre Pier,1,0,0.28,19,18,"NIGHT_MIST,NIGHT_MIST","Cross-shore,Onshore",2
5842041f4e65fad6a7708b04,2024_03_08,30.31482647791307,-87.26163894669438,Pickens Point Dunes,1,0.11499999999999999,0.415,18,18,"NIGHT_CLEAR,NIGHT_CLEAR","Onshore,Onshore",2
5842041f4e65fad6a7708b05,2024_03_08,30.32632110836516,-87.16019503253068,Slabs,1,0.135,0.445,18,18,"NIGHT_CLEAR,NIGHT_CLEAR","Onshore,Onshore",2
5842041f4e65fad6a7708b06,2024_03_08,30.32739721382043,-87.30406515493348,Pickens Point,1,0.13,0.435,18,18,"NIGHT_MIST,NIGHT_CLEAR","Offshore,Offshore",2
5842041f4e65fad6a7708b07,2024_03_08,30.27406893266753,-87.5436749948929,Bungalows,1,0.125,0.435,18,18,"NIGHT_MIST,NIGHT_MIST","Onshore,Onshore",2
5842041f4e65fad6a7708b08,2024_03_08,27.99627311846992,-82.82942,880,1,0.18318,0.28622,21,21,"NIGHT_CLOUDY,NIGHT_MOSTLY_CLOUDY","Offshore,Offshore",2
5842041f4e65fad6a7708b09,2024_03_08,27.97779860371595,-82.83246509090527,Pier 60,1,0,0.245,21,21,"NIGHT_CLOUDY,NIGHT_MOSTLY_CLOUDY","Cross-shore,Offshore",2
5842041f4e65fad6a7708b0a,2024_03_08,27.96296387618043,-82.8332635965418,Sand Key,1,0,0.25,20,20,"NIGHT_CLOUDY,NIGHT_MOSTLY_CLOUDY","Cross-shore,Offshore",2
5842041f4e65fad6a7708b0b,2024_03_08,27.92492619212885,-82.8449122845279,Belleair,1,0,0.255,20,20,"NIGHT_MOSTLY_CLOUDY,NIGHT_MOSTLY_CLOUDY","Offshore,Offshore",2
5842041f4e65fad6a7708b0c,2024_03_08,27.882,-82.854,Indian Rocks Beach,1,0,0.27,20,20,"NIGHT_CLEAR,NIGHT_CLEAR","Offshore,Offshore",2
5842041f4e65fad6a7708b0d,2024_03_08,27.83106104966094,-82.83550218771384,Redington Breakwater,1,0,0.26,20,20,"NIGHT_CLEAR,NIGHT_CLEAR","Offshore,Offshore",2
5842041f4e65fad6a7708b0e,2024_03_08,27.74369029906206,-82.76053473435867,Middle Jetty,1,0,0.255,21,21,"NIGHT_CLEAR,NIGHT_CLEAR","Offshore,Offshore",2
5842041f4e65fad6a7708b0f,2024_03_08,27.82174178852146,-82.83148664631841,Redington Pier,1,0,0.255,20,20,"NIGHT_CLEAR,NIGHT_CLEAR","Offshore,Offshore",2
5842041f4e65fad6a7708b10,2024_03_08,27.31496308261514,-82.5830466912004,Lido Beach,1,0,0.255,20,20,"NIGHT_MIST,NIGHT_CLEAR","Cross-shore,Offshore",2
5842041f4e65fad6a7708b11,2024_03_08,27.31122010159892,-82.57833234007632,Coolidge,1,0,0.255,20,20,"NIGHT_MIST,NIGHT_CLEAR","Cross-shore,Offshore",2
5842041f4e65fad6a7708b12,2024_03_08,27.26471672017615,-82.55464835167173,Siesta Key,1,0,0.20500000000000002,21,20,"NIGHT_MIST,NIGHT_CLEAR","Cross-shore,Offshore",2
5842041f4e65fad6a7708b13,2024_03_08,27.24638693488133,-82.53809115716797,Stickney Point,1,0,0.24,20,20,"NIGHT_CLEAR,NIGHT_CLEAR","Offshore,Offshore",2
5842041f4e65fad6a7708b14,2024_03_08,27.21907878229092,-82.51813937562073,Turtles,1,0,0.24,20,20,"NIGHT_CLEAR,NIGHT_CLEAR","Cross-shore,Offshore",2
5842041f4e65fad6a7708b15,2024_03_08,27.11375765852028,-82.47039,Venice Jetties North,0.67,0,0.18545,21,20,"NIGHT_CLEAR,NIGHT_CLEAR","Cross-shore,Cross-shore",2
5842041f4e65fad6a7708b16,2024_03_08,27.111485758834025,-82.46756550419744,Venice Jetties South,1,0,0.20500000000000002,21,20,"NIGHT_MOSTLY_CLOUDY,NIGHT_CLEAR","Cross-shore,Offshore",2
5842041f4e65fad6a7708b17,2024_03_08,27.07249378831575,-82.4530285256104,Venice Pier,1,0,0.245,21,20,"NIGHT_MOSTLY_CLOUDY,NIGHT_CLOUDY","Offshore,Offshore",2
5842041f4e65fad6a7708b19,2024_03_08,27.49680446426314,-82.7140145455959,Holmes Beach Pier,0,0,0.235,20,20,"NIGHT_MIST,NIGHT_CLEAR","Offshore,Offshore",2
5842041f4e65fad6a7708b1a,2024_03_08,27.7390348493064,-82.75763,Sunset Beach,1,0,0.255,21,21,"NIGHT_CLEAR,NIGHT_CLEAR","Offshore,Offshore",2
5842041f4e65fad6a7708b1b,2024_03_08,26.80347307599041,-82.28564775623539,Gasparilla Point,1,0,0.22,21,21,"NIGHT_CLOUDY,NIGHT_CLOUDY","Cross-shore,Cross-shore",2
5842041f4e65fad6a7708b1c,2024_03_08,27.45365831548911,-82.69609,Coquina Jetties,1,0,0.245,20,20,"NIGHT_CLEAR,NIGHT_CLEAR","Offshore,Offshore",2
5842041f4e65fad6a7708b1d,2024_03_08,27.46077315206043,-82.69924,Twin Piers,1,0,0.195,21,20,"NIGHT_CLEAR,NIGHT_CLEAR","Offshore,Offshore",2
5842041f4e65fad6a7708b1e,2024_03_08,26.91007316019612,-82.35352,Englewood,0,0,0.15,21,21,"NIGHT_CLEAR,NIGHT_CLEAR","Cross-shore,Offshore",2
5842041f4e65fad6a7708b1f,2024_03_08,26.88221101560038,-82.3359828282636,Knight's Point,1,0,0.215,21,21,"NIGHT_CLEAR,NIGHT_CLEAR","Cross-shore,Offshore",2
5842041f4e65fad6a7708b20,2024_03_08,26.51219285784982,-82.1928203289264,Tween Waters,1,0,0.215,22,22,"NIGHT_CLOUDY,NIGHT_CLOUDY","Cross-shore,Cross-shore",2
5842041f4e65fad6a7708b21,2024_03_08,26.55130241615096,-82.20222762415648,Redfish Pass,1,0,0.215,22,22,"NIGHT_CLOUDY,NIGHT_OVERCAST","Cross-shore,Cross-shore",2
5842041f4e65fad6a7708b22,2024_03_08,26.71713432926596,-82.26287777058234,Boca Grande,1,0,0.225,22,22,"NIGHT_CLOUDY,NIGHT_CLOUDY","Onshore,Cross-shore",2
5842041f4e65fad6a7708b23,2024_03_08,26.47856785808584,-82.181288592828,Blind Pass,1,0,0.215,22,22,"NIGHT_CLOUDY,NIGHT_CLOUDY","Offshore,Offshore",2
5842041f4e65fad6a7708b24,2024_03_08,26.25358330618783,-81.82429246081317,The Wall,1,0,0.19,23,23,"NIGHT_CLEAR,NIGHT_CLEAR","Cross-shore,Onshore",2
5842041f4e65fad6a7708b25,2024_03_08,26.17456407516186,-81.81588575623482,Doctor's Pass,1,0,0.19,23,23,"NIGHT_CLEAR,NIGHT_CLEAR","Cross-shore,Onshore",2
5842041f4e65fad6a7708b26,2024_03_08,27.427134501874612,-82.68110766159296,Whitney Beach,1,0,0.265,20,20,"NIGHT_MIST,NIGHT_MIST","Offshore,Offshore",2
5842041f4e65fad6a7708b27,2024_03_08,26.17300183052463,-81.81515842430267,Doctor's Pass (South Jetty),1,0,0.19,23,23,"NIGHT_CLEAR,NIGHT_CLEAR","Cross-shore,Onshore",2
5842041f4e65fad6a7708b28,2024_03_08,27.73496421495629,-82.75268962468695,Upham Beach Park,1,0,0.255,21,21,"NIGHT_CLEAR,NIGHT_CLEAR","Offshore,Offshore",2
5842041f4e65fad6a7708b29,2024_03_08,26.13144856766723,-81.8090395116521,Naples Pier,1,0,0.17,23,23,"NIGHT_CLEAR,NIGHT_CLEAR","Cross-shore,Onshore",2
5842041f4e65fad6a7708b2a,2024_03_08,20.63474,-156.45211,Little Beach,1,0,0.18,24,24,"NIGHT_CLEAR,NIGHT_CLEAR","Onshore,Onshore",2
5842041f4e65fad6a7708b2b,2024_03_08,20.613,-156.438,Dumps,1,0,0.2,24,24,"NIGHT_CLEAR,NIGHT_CLEAR","Onshore,Onshore",2
5842041f4e65fad6a7708b2c,2024_03_08,22.216,-159.502,Hanalei Bay,2,1.03,1.1949999999999998,23,23,"NIGHT_MOSTLY_CLEAR,NIGHT_SHOWERS","Offshore,Offshore",2
5842041f4e65fad6a7708b2d,2024_03_08,22.225,-159.567,Ha'Ena Bay (Cannons/Tunnels),0,1.05,1.26,23,23,"NIGHT_MOSTLY_CLEAR,NIGHT_CLEAR","Cross-shore,Cross-shore",2
5842041f4e65fad6a7708b2f,2024_03_08,22.148,-159.301,Anahola Bay,1,1.43,1.7349999999999999,24,24,"NIGHT_MOSTLY_CLOUDY,NIGHT_BRIEF_SHOWERS","Onshore,Onshore",2
5842041f4e65fad6a7708b30,2024_03_08,21.872,-159.462,Poipu Outer Reef,1,0.265,0.565,24,24,"NIGHT_CLEAR,NIGHT_BRIEF_SHOWERS","Offshore,Offshore",2
5842041f4e65fad6a7708b31,2024_03_08,21.936,-159.652,Pakala,2,0.07500000000000001,0.385,24,24,"NIGHT_CLEAR,NIGHT_CLEAR","Offshore,Offshore",2
5842041f4e65fad6a7708b32,2024_03_08,21.272,-157.832,Populars,1,0,0.3,26,25,"NIGHT_CLEAR,NIGHT_CLEAR","Offshore,Offshore",2
5842041f4e65fad6a7708b33,2024_03_08,21.26841992117695,-157.82329,Publics,1,0.04,0.35,26,25,"NIGHT_CLEAR,NIGHT_CLEAR","Offshore,Offshore",2
5842041f4e65fad6a7708b34,2024_03_08,21.25460513357954,-157.79432,Black Point,1,0.466195,0.79282,25,25,"NIGHT_CLEAR,NIGHT_MOSTLY_CLOUDY","Offshore,Offshore",2
5842041f4e65fad6a7708b35,2024_03_08,21.27394674233747,-157.82777,Canoes,1,0,0.27,26,25,"NIGHT_CLEAR,NIGHT_CLEAR","Offshore,Offshore",2
5842041f4e65fad6a7708b36,2024_03_08,21.273658410008455,-157.8263,Queen's,1,0,0.27,26,25,"NIGHT_CLEAR,NIGHT_CLEAR","Offshore,Offshore",2
5842041f4e65fad6a7708b37,2024_03_08,20.869,-156.679,Lahaina Harbor - Breakwall,2,0.33,0.635,25,25,"NIGHT_CLEAR,NIGHT_CLEAR","Offshore,Offshore",2
5842041f4e65fad6a7708b38,2024_03_08,21.277,-157.841,Kaiser's,2,0.425,0.73,26,25,"NIGHT_CLEAR,NIGHT_CLEAR","Offshore,Offshore",2
5842041f4e65fad6a7708b39,2024_03_08,21.280537020769913,-157.84107,Rockpiles,1,0,0.28,26,25,"NIGHT_CLEAR,NIGHT_CLEAR","Offshore,Offshore",2
5842041f4e65fad6a7708b3a,2024_03_08,21.2745,-157.8395,Four's,1,0.17,0.47,25,25,"NIGHT_CLEAR,NIGHT_CLEAR","Offshore,Offshore",2
5842041f4e65fad6a7708b3b,2024_03_08,21.576,-158.282,Kaena Point,0,0.525,0.835,24,24,"NIGHT_MOSTLY_CLOUDY,NIGHT_MOSTLY_CLOUDY","Onshore,Onshore",2
5842041f4e65fad6a7708b3c,2024_03_08,21.31110306220024,-157.6590697786346,Makapu'u,0,1.415,1.72,24,24,"NIGHT_MOSTLY_CLOUDY,NIGHT_MOSTLY_CLOUDY","Onshore,Onshore",2
5842041f4e65fad6a7708b3d,2024_03_08,21.276618032562773,-157.83386,Three's,1,0,0.23,26,25,"NIGHT_CLEAR,NIGHT_CLEAR","Offshore,Offshore",2
5842041f4e65fad6a7708b42,2024_03_08,21.281416779283845,-157.8457,Ala Moana Bowls,1,0.175,0.48,26,25,"NIGHT_CLEAR,NIGHT_CLEAR","Offshore,Offshore",2
5842041f4e65fad6a7708b43,2024_03_08,15.846,-97.06,Puerto Escondido,3,1.0350000000000001,1.29,27,27,"NIGHT_CLEAR,NIGHT_CLEAR","Onshore,Offshore",2
5842041f4e65fad6a7708b4b,2024_03_08,-8.814,115.089,Uluwatu,3,1.36935,1.6561666666666666,28,28,"THUNDER_SHOWERS,THUNDER_SHOWERS","Cross-shore,Cross-shore",2
5842041f4e65fad6a7708b4c,2024_03_08,-8.950192825865,115.12573242187,Kuta,3,1.725,2.065,30,30,"THUNDER_SHOWERS,LIGHT_RAIN","Cross-shore,Cross-shore",2
5842041f4e65fad6a7708b57,2024_03_08,43.29,-2.1708,Zarautz,4,1.05881,1.654385,12,12,"CLEAR,CLEAR","Offshore,Offshore",2
5842041f4e65fad6a7708b58,2024_03_08,54.27129984804951,-8.60171,Strandhill,3,1.34627,2.1035500000000003,8,8,"NIGHT_CLOUDY,MOSTLY_CLOUDY","Offshore,Offshore",2
5842041f4e65fad6a7708b5b,2024_03_08,39.276101,-74.56709,7th Street,2,0.6989337499999999,1.0754120833333332,7,6,"NIGHT_CLEAR,NIGHT_CLEAR","Offshore,Offshore",2
5842041f4e65fad6a7708b5c,2024_03_08,39.15774,-74.68639,36th Street to 42nd Street,2,0.62,0.93,8,7,"NIGHT_CLEAR,NIGHT_CLEAR","Offshore,Offshore",2
5842041f4e65fad6a7708b5d,2024_03_08,39.321896,-74.506191,Sumner Avenue,2,0.52,0.825,7,6,"NIGHT_CLEAR,NIGHT_CLEAR","Offshore,Offshore",2
5842041f4e65fad6a7708b5e,2024_03_08,39.093673,-74.71653,26th to 30th Street Pier,2,0.6425333333333333,0.9983833333333334,7,6,"NIGHT_CLEAR,NIGHT_CLEAR","Offshore,Offshore",2
5842041f4e65fad6a7708b5f,2024_03_08,39.039903,-74.76417,Nun's Beach,2,0.63759,0.99624,8,7,"NIGHT_CLEAR,NIGHT_CLEAR","Offshore,Offshore",2
5842041f4e65fad6a7708b60,2024_03_08,38.96768,-74.82565,Rambler Road,2,0.56,0.865,8,7,"NIGHT_CLEAR,NIGHT_CLEAR","Offshore,Offshore",2
5842041f4e65fad6a7708b61,2024_03_08,38.99931,-74.78814,2nd St. to 10th St.,2,0.695,0.995,8,7,"NIGHT_CLEAR,NIGHT_CLEAR","Offshore,Offshore",2
5842041f4e65fad6a7708b62,2024_03_08,38.929886,-74.91718,Stockton Avenue,3,0.50448,0.78825,8,7,"NIGHT_CLEAR,NIGHT_CLEAR","Cross-shore,Offshore",2
5842041f4e65fad6a7708b63,2024_03_08,38.942988,-74.862452,The Rocks,2,0.355,0.66,8,7,"NIGHT_CLEAR,NIGHT_CLEAR","Offshore,Offshore",2
5842041f4e65fad6a7708b64,2024_03_08,38.93036,-74.91257,Queen Street,3,0.5,0.8,8,7,"NIGHT_CLEAR,NIGHT_CLEAR","Offshore,Offshore",2
5842041f4e65fad6a7708b65,2024_03_08,38.942757,-74.880791,Poverty Beach,3,0.525,0.825,8,7,"NIGHT_CLEAR,NIGHT_CLEAR","Offshore,Offshore",2
5842041f4e65fad6a7708b66,2024_03_08,38.929441,-74.93129,Broadway Beach,3,0.46,0.76,8,7,"NIGHT_CLEAR,NIGHT_CLEAR","Offshore,Offshore",2
5842041f4e65fad6a7708b67,2024_03_08,38.92870117926206,-74.92116,Grant Street Beach,3,0.505,0.81,8,7,"NIGHT_CLEAR,NIGHT_CLEAR","Offshore,Offshore",2
5842041f4e65fad6a7708b68,2024_03_08,38.928934874358276,-74.93582,The Cove,3,0.315,0.62,7,7,"NIGHT_CLEAR,NIGHT_CLEAR","Offshore,Offshore",2
5842041f4e65fad6a7708b69,2024_03_08,26.775154329102108,-80.03124833106995,Pumphouse,2,0.27,0.575,24,24,"NIGHT_MIST,NIGHT_MIST","Cross-shore,Offshore",2
5842041f4e65fad6a7708b6a,2024_03_08,26.72114353296791,-80.03310374527736,Sunrise,2,0.21,0.515,24,23,"NIGHT_MIST,NIGHT_MIST","Offshore,Offshore",2
5842041f4e65fad6a7708b6b,2024_03_08,26.71306786153966,-80.03222170715443,Breakers,2,0.24,0.54,24,23,"NIGHT_MIST,NIGHT_MIST","Offshore,Offshore",2
5842041f4e65fad6a7708b6c,2024_03_08,26.699075556703683,-80.03263235092163,Charlie's Crab,2,0.25,0.55,24,23,"NIGHT_MIST,NIGHT_MIST","Offshore,Offshore",2
5842041f4e65fad6a7708b6d,2024_03_08,26.79441490392914,-80.0306161110009,Ocean Reef Park,2,0.22,0.52,24,23,"NIGHT_MIST,NIGHT_MIST","Offshore,Offshore",2
5842041f4e65fad6a7708b6f,2024_03_08,26.93134670517399,-80.06760115579169,Civic Center,0,-0.0028141666666666176,0.19096583333333333,24,23,"NIGHT_MIST,NIGHT_MIST","Offshore,Offshore",2
5842041f4e65fad6a7708b70,2024_03_08,26.90524197396177,-80.0593609780092,Kite Beach,0,-0.007775833333333343,0.19240416666666665,24,23,"NIGHT_MIST,NIGHT_MIST","Offshore,Offshore",2
5842041f4e65fad6a7708b71,2024_03_08,26.54279208054373,-80.04292130470276,Boynton Beach Inlet (Southside),1,0.19,0.495,24,23,"NIGHT_MIST,NIGHT_MIST","Cross-shore,Offshore",2
5842041f4e65fad6a7708b72,2024_03_08,26.613511029817357,-80.03534198871253,Lake Worth Pier,0,-0.00875,0.14989999999999998,24,23,"NIGHT_MIST,NIGHT_MIST","Cross-shore,Offshore",2
5842041f4e65fad6a7708b73,2024_03_08,27.06670219261476,-80.11447191238403,Hobe Sound Public Beach,2,0.34,0.64,24,23,"NIGHT_MIST,NIGHT_MIST","Offshore,Offshore",2
5842041f4e65fad6a7708b75,2024_03_08,27.21467611230439,-80.17308280299079,Stuart Public Beach,3,0.525,0.83,24,22,"NIGHT_MIST,NIGHT_MIST","Onshore,Cross-shore",2
5842041f4e65fad6a7708b76,2024_03_08,27.36627923374593,-80.24622,Blind Creek Park,2,0.81,1.1150000000000002,23,22,"NIGHT_MIST,NIGHT_MIST","Offshore,Cross-shore",2
5842041f4e65fad6a7708b77,2024_03_08,26.94256932088346,-80.0705677063405,Jupiter Inlet,2,0.26,0.565,24,23,"NIGHT_MIST,NIGHT_MIST","Offshore,Offshore",2
5842041f4e65fad6a7708b78,2024_03_08,26.89365359499372,-80.056,Juno Pier,0,0,0.19101666666666667,24,23,"NIGHT_MIST,NIGHT_MIST","Offshore,Offshore",2
5842041f4e65fad6a7708b7a,2024_03_08,29.67671206577928,-85.3689474172784,Cape San Blas,2,0.06,0.365,18,18,"NIGHT_CLEAR,NIGHT_CLEAR","Offshore,Offshore",2
5842041f4e65fad6a7708b7b,2024_03_08,26.706551543472415,-80.03280401229858,Flagpole,2,0.24,0.55,24,23,"NIGHT_MIST,NIGHT_MIST","Offshore,Offshore",2
5842041f4e65fad6a7708b7c,2024_03_08,29.94036477533054,-85.40953557392244,El Governor,1,0,0.265,18,18,"NIGHT_CLEAR,NIGHT_CLEAR","Offshore,Offshore",2
5842041f4e65fad6a7708b7d,2024_03_08,29.68231979841189,-85.30627194238092,Toilet Bowls,2,0.065,0.375,18,18,"NIGHT_CLEAR,NIGHT_CLEAR","Onshore,Cross-shore",2
5842041f4e65fad6a7708b7e,2024_03_08,29.6607153445246,-84.86361191991014,St. George Island,1,0,0.275,18,18,"NIGHT_CLEAR,NIGHT_CLEAR","Onshore,Onshore",2
5842041f4e65fad6a7708b7f,2024_03_08,29.77441172865639,-84.65942657000329,Dog Island,1,0,0.265,18,18,"NIGHT_MIST,NIGHT_CLEAR","Cross-shore,Cross-shore",2
5842041f4e65fad6a7708bbd,2024_03_08,38.945,-9.42,Foz de Lizandro,0,3.14518,4.914339999999999,15,15,"CLEAR,CLEAR","Onshore,Onshore",2
5842041f4e65fad6a7708bc0,2024_03_08,38.67869246746279,-9.33685,Carcavelos,2,1.9067,2.9792199999999998,15,15,"CLEAR,CLEAR","Onshore,Onshore",2
5842041f4e65fad6a7708bc1,2024_03_08,38.983,-9.425,Reef,0,5.595000000000001,6.6899999999999995,15,15,"CLEAR,CLEAR","Onshore,Onshore",2
5842041f4e65fad6a7708bc2,2024_03_08,38.988,-9.424,Ribeira D'Ilhas,1,4.98,5.785,15,15,"CLEAR,CLEAR","Onshore,Onshore",2
5842041f4e65fad6a7708bc3,2024_03_08,39.34167968424256,-9.36331,Supertubos,0.835,4.228,5.0631,15,15,"CLEAR,CLEAR","Onshore,Onshore",2
5842041f4e65fad6a7708bc4,2024_03_08,39.001,-9.4284,Coxos,0.5,3.328655,5.201025,15,15,"CLEAR,CLEAR","Onshore,Onshore",2
5842041f4e65fad6a7708bc5,2024_03_08,40.13063921100635,-8.87044,Cabedelo,0,3.44123,5.37692,14,14,"CLEAR,LIGHT_SHOWERS","Onshore,Onshore",2
5842041f4e65fad6a7708bc6,2024_03_08,39.37397686060677,-9.33235,Baleal,3,2.88,3.44,15,15,"CLEAR,CLEAR","Cross-shore,Cross-shore",2
5842041f4e65fad6a7708bc8,2024_03_08,43.68220203786759,-1.44167,Les Culs Nuls,3,1.77378,2.7715300000000003,12,12,"CLEAR,CLEAR","Cross-shore,Offshore",2
5842041f4e65fad6a7708bca,2024_03_08,43.48469485823068,-1.56023,Biarritz,3,1.594165,2.4908799999999998,12,12,"CLEAR,CLEAR","Cross-shore,Offshore",2
5842041f4e65fad6a7708bcb,2024_03_08,39.0132,-9.424,Sao Lourenco,0,3.2841050000000003,5.1314150000000005,15,15,"CLEAR,CLEAR","Onshore,Onshore",2
5842041f4e65fad6a7708bcd,2024_03_08,43.64760422014503,-1.44721,Le Santocha,3,1.203115,1.8798650000000001,12,12,"CLEAR,CLEAR","Cross-shore,Offshore",2
5842041f4e65fad6a7708bce,2024_03_08,43.51401611768647,-1.53382,Anglet,4,1.8250000000000002,2.125,12,12,"CLEAR,CLEAR","Offshore,Offshore",2
5842041f4e65fad6a7708bcf,2024_03_08,43.479,-1.569,La Cote des Basques,3,1.632225,2.55035,12,12,"CLEAR,CLEAR","Cross-shore,Offshore",2
5842041f4e65fad6a7708be3,2024_03_08,-28.3344521240417,153.57739,Cabarita,1.915,1.2904,1.75685,26,26,"LIGHT_SHOWERS,LIGHT_SHOWERS","Cross-shore,Cross-shore",2
5842041f4e65fad6a7708be5,2024_03_08,-28.16143481052803,153.55066,Snapper Rocks,3,1.2265000000000001,1.48975,26,26,"LIGHT_SHOWERS,LIGHT_SHOWERS","Offshore,Offshore",2
5842041f4e65fad6a7708be8,2024_03_08,-28.08967141602908,153.45956,Burleigh Heads,0.25,0.9964999999999999,1.5274999999999999,26,26,"LIGHT_RAIN,BRIEF_SHOWERS","Cross-shore,Cross-shore",2
5842041f4e65fad6a7708be9,2024_03_08,-28.16436510036895,153.53589,Kirra,3,0.7097500000000001,1.1117500000000002,26,26,"LIGHT_SHOWERS,LIGHT_SHOWERS","Offshore,Offshore",2
5842041f4e65fad6a7708bea,2024_03_08,-26.809,153.136,Caloundra Bar,1.085,1.1865,1.42825,21,21,"CLEAR,CLEAR","Onshore,Onshore",2
5842041f4e65fad6a7708beb,2024_03_08,-27.4488954777054,153.5383894760102,North Stradbroke Island,0,1.85,2.205,27,27,"BRIEF_SHOWERS_POSSIBLE,LIGHT_SHOWERS","Onshore,Onshore",2
5842041f4e65fad6a7708bec,2024_03_08,-26.68680536290502,153.13793,Mooloolaba,1.335,1.16025,1.5622500000000001,26,26,"CLEAR,CLEAR","Cross-shore,Cross-shore",2
5842041f4e65fad6a7708bed,2024_03_08,40.028403115215,-74.04836654663,Mantoloking,1.5,1.0350000000000001,1.24,7,6,"NIGHT_CLEAR,NIGHT_CLEAR","Cross-shore,Cross-shore",2
5842041f4e65fad6a7708bee,2024_03_08,-26.38257,153.09668,Noosa Heads,2.835,0.616,0.9239999999999999,26,26,"BRIEF_SHOWERS_POSSIBLE,BRIEF_SHOWERS_POSSIBLE","Offshore,Offshore",2
5842041f4e65fad6a7708bef,2024_03_08,-28.63764444,153.628025,"The Pass, Byron Bay",1,0.7198833333333334,1.0274833333333335,26,26,"CLEAR,CLEAR","Offshore,Offshore",2
5842041f4e65fad6a7708bf0,2024_03_08,-32.171,152.512,Tuncurry Breakwall,1.5,0.325,0.63,24,24,"CLEAR,CLEAR","Onshore,Onshore",2
5842041f4e65fad6a7708bf1,2024_03_08,-28.87513611,153.59244,Ballina North Wall,1,1.205,1.475,28,28,"CLEAR,CLEAR","Onshore,Onshore",2
5842041f4e65fad6a7708bf2,2024_03_08,-28.80011944,153.59755,Lennox Head,1,1.43915,1.9131,26,26,"CLEAR,CLEAR","Onshore,Onshore",2
5842041f4e65fad6a7708bf3,2024_03_08,-28.70581667,153.6198333,Broken Head,2,1.18,1.41,28,28,"CLEAR,CLEAR","Onshore,Onshore",2
5842041f4e65fad6a7708bf4,2024_03_08,-29.44056667,153.3695194,Pippies/Yamba,2,1.0350000000000001,1.34,27,27,"CLEAR,CLEAR","Onshore,Onshore",2
5842041f4e65fad6a7708bf5,2024_03_08,-33.94857222,151.2572167,Maroubra,1,0.5081166666666667,0.8982666666666668,22,22,"CLEAR,CLEAR","Onshore,Onshore",2
5842041f4e65fad6a7708bf6,2024_03_08,-34.05162704152385,151.15646,Cronulla,0.915,0.7761333333333333,1.0787333333333333,22,22,"CLEAR,CLEAR","Cross-shore,Cross-shore",2
5842041f4e65fad6a7708bf7,2024_03_08,-33.791855902720656,151.28878,Manly,1.085,0.5185333333333333,0.9032666666666667,22,22,"CLEAR,CLEAR","Onshore,Onshore",2
5842041f4e65fad6a7708bf8,2024_03_08,-33.892155707636114,151.27793,Bondi Beach,1.915,0.8048833333333334,1.1074833333333334,22,22,"CLEAR,CLEAR","Cross-shore,Cross-shore",2
5842041f4e65fad6a7708bf9,2024_03_08,-29.48278333,153.36727,Angourie,2,1.225,1.47,27,27,"CLEAR,CLEAR","Onshore,Onshore",2
5842041f4e65fad6a7708bfa,2024_03_08,-33.75169106295242,151.29854668200073,Dee Why,1,0.47853333333333337,0.8682666666666667,22,22,"CLEAR,CLEAR","Onshore,Onshore",2
5842041f4e65fad6a7708bfb,2024_03_08,-33.77330556,151.29331,Curl Curl,2.085,0.6694666666666667,1.16295,22,22,"CLEAR,CLEAR","Cross-shore,Cross-shore",2
5842041f4e65fad6a7708bfc,2024_03_08,-33.70960382813077,151.30361,Narrabeen,1.165,0.7619666666666667,1.06915,22,22,"CLEAR,CLEAR","Onshore,Onshore",2
5842041f4e65fad6a7708bfd,2024_03_08,-33.63539722,151.33297,Avalon,2.085,0.76905,1.1592,22,22,"CLEAR,CLEAR","Onshore,Onshore",2
5842041f4e65fad6a7708bfe,2024_03_08,-33.65150556,151.3251222,Newport,1.085,0.7373833333333333,1.0449833333333332,22,22,"CLEAR,CLEAR","Onshore,Onshore",2
5842041f4e65fad6a7708bff,2024_03_08,-36.94544444,149.9151111,Pambula Rivermouth,1,0.405,0.715,21,21,"BRIEF_SHOWERS_POSSIBLE,BRIEF_SHOWERS_POSSIBLE","Onshore,Onshore",2
5842041f4e65fad6a7708c00,2024_03_08,-33.60841111,151.33339,Whale Beach,2.085,0.49145000000000005,0.79405,22,22,"CLEAR,CLEAR","Onshore,Onshore",2
5842041f4e65fad6a7708c01,2024_03_08,-36.89662778,149.92144,Merimbula Bar,1,0.455,0.76,21,21,"BRIEF_SHOWERS_POSSIBLE,BRIEF_SHOWERS_POSSIBLE","Cross-shore,Cross-shore",2
5842041f4e65fad6a7708c02,2024_03_08,-35.90458333,150.15191,Moruya,1,0.51,0.815,22,22,"MOSTLY_CLOUDY,MOSTLY_CLOUDY","Onshore,Onshore",2
5842041f4e65fad6a7708c03,2024_03_08,-35.36742222,150.48575,Ulladulla Bommie,2,0.6599999999999999,0.96,23,23,"CLEAR,CLEAR","Offshore,Offshore",2
5842041f4e65fad6a7708c04,2024_03_08,-35.34604167,150.4773361,Golf Course Reef,2,0.385,0.685,23,23,"CLEAR,CLEAR","Onshore,Onshore",2
5842041f4e65fad6a7708c05,2024_03_08,-35.27280833,150.51393,Green Island,2,0.505,0.81,23,23,"CLEAR,CLEAR","Cross-shore,Cross-shore",2
5842041f4e65fad6a7708c06,2024_03_08,-35.17533333,150.6881667,Black Rock,2,0.365,0.675,23,23,"CLEAR,THUNDER_STORMS","Offshore,Offshore",2
5842041f4e65fad6a7708c07,2024_03_08,-34.74260833,150.8332833,Werri Beach,2,0.44,0.745,24,24,"CLEAR,LIGHT_SHOWERS_POSSIBLE","Onshore,Onshore",2
5842041f4e65fad6a7708c08,2024_03_08,-34.54684722,150.8784167,Windang Island,1,0.385,0.69,24,24,"CLEAR,CLEAR","Onshore,Cross-shore",2
5842041f4e65fad6a7708c09,2024_03_08,-28.64288889,153.6359639,Tallows,0,1.32,1.58,28,28,"CLEAR,CLEAR","Onshore,Onshore",2
5842041f4e65fad6a7708c0a,2024_03_08,-34.32977,150.92931,Sandon Point,1,0.615,0.92,23,23,"CLEAR,CLEAR","Onshore,Onshore",2
5842041f4e65fad6a7708c0b,2024_03_08,-38.347207621284134,144.31064659820353,Jan Juc,2,0.91275,1.2257500000000001,19,19,"CLEAR,CLEAR","Onshore,Cross-shore",2
5842041f4e65fad6a7708c0c,2024_03_08,-38.2873,144.4652,13th Beach,2.25,1.0390000000000001,1.4875000000000003,19,19,"CLEAR,CLEAR","Onshore,Onshore",2
5842041f4e65fad6a7708c0d,2024_03_08,-38.76017222,143.37283,Johanna,2,1.9706,3.07906,19,19,"CLEAR,CLEAR","Cross-shore,Cross-shore",2
5842041f4e65fad6a7708c0e,2024_03_08,-38.44902778,144.85891,Gunnamatta,3,1.550805,2.42313,20,20,"CLEAR,CLEAR","Cross-shore,Cross-shore",2
5842041f4e65fad6a7708c0f,2024_03_08,-38.42897222,145.07755,Point Leo,1,0.03560000000000001,0.34495,19,19,"CLEAR,CLEAR","Onshore,Onshore",2
5842041f4e65fad6a7708c10,2024_03_08,-38.55457222,145.33169,Woolamai,2,1.52,1.81,20,20,"CLEAR,CLEAR","Cross-shore,Cross-shore",2
5842041f4e65fad6a7708c11,2024_03_08,-28.16708333,153.55169,Duranbah,2,1.4320000000000002,2.007,26,26,"LIGHT_SHOWERS,LIGHT_SHOWERS","Cross-shore,Cross-shore",2
5842041f4e65fad6a7708c12,2024_03_08,-38.368504,144.2871,Winkipop,2,1.117,1.57175,19,19,"CLEAR,CLEAR","Onshore,Cross-shore",2
5842041f4e65fad6a7708c13,2024_03_08,-38.50596111,145.14044,Cat Bay,2,0.5225599999999999,0.8165,20,20,"CLEAR,CLEAR","Offshore,Offshore",2
5842041f4e65fad6a7708c14,2024_03_08,-28.87768889,153.58828,South Wall Ballina,1,1.24,1.435,28,28,"CLEAR,CLEAR","Onshore,Onshore",2
5842041f4e65fad6a7708c15,2024_03_08,-38.48777,144.97036,Mornington Peninsula,2,1.7850000000000001,2.1,20,20,"CLEAR,CLEAR","Onshore,Cross-shore",2
5842041f4e65fad6a7708c17,2024_03_08,-28.93778889,113.9235722,Abrolhos Islands,0,2.435,2.91,24,24,"CLEAR,CLOUDY","Cross-shore,Cross-shore",2
5842041f4e65fad6a7708c19,2024_03_08,-24.031,113.441,The Bluff,2,1.245,1.475,25,25,"CLEAR,CLEAR","Offshore,Offshore",2
5842041f4e65fad6a7708c1a,2024_03_08,-23.882,113.482,Tombstones,1.5,1.295,1.5350000000000001,25,25,"CLEAR,CLEAR","Onshore,Onshore",2
5842041f4e65fad6a7708c1b,2024_03_08,-23.64909722,113.6129972,Warroora Station,1.5,2.04,2.3899999999999997,26,26,"CLEAR,CLEAR","Cross-shore,Cross-shore",2
5842041f4e65fad6a7708c1c,2024_03_08,-38.62743889,142.9796,Two Mile/Easter Reef,0,2.95,3.435,19,19,"CLEAR,CLEAR","Onshore,Onshore",2
5842041f4e65fad6a7708c1e,2024_03_08,-31.89140556,115.75388,Scarborough,2,1.005,1.255,22,22,"MOSTLY_CLOUDY,CLEAR","Cross-shore,Onshore",2
5842041f4e65fad6a7708c1f,2024_03_08,-32.007275,115.75131,Cottesloe,0.5,1.057395,1.65218,23,23,"MOSTLY_CLOUDY,CLEAR","Cross-shore,Cross-shore",2
5842041f4e65fad6a7708c20,2024_03_08,-32.01661667,115.7511583,Cables,0.5,1.201505,1.877355,23,23,"MOSTLY_CLOUDY,CLEAR","Onshore,Onshore",2
5842041f4e65fad6a7708c21,2024_03_08,-33.65305556,115.018,Supertubes,1,1.5,1.795,21,21,"MOSTLY_CLOUDY,MOSTLY_CLOUDY","Cross-shore,Offshore",2
5842041f4e65fad6a7708c22,2024_03_08,-33.63875278,115.02247,Yallingup,0,1.0350000000000001,1.2349999999999999,21,21,"MOSTLY_CLOUDY,MOSTLY_CLOUDY","Onshore,Cross-shore",2
5842041f4e65fad6a7708c23,2024_03_08,-32.01881111,115.48693,Strickland Bay/Rottnest Island,0,1.8250000000000002,2.185,22,22,"CLOUDY,CLEAR","Onshore,Onshore",2
5842041f4e65fad6a7708c24,2024_03_08,-33.69852222,114.98713,Injidup Carpark,0,0.91,1.09,21,21,"MOSTLY_CLOUDY,MOSTLY_CLOUDY","Cross-shore,Cross-shore",2
5842041f4e65fad6a7708c25,2024_03_08,-33.858925,114.98469,North Point,0,1.28,1.53,21,21,"MOSTLY_CLOUDY,MOSTLY_CLOUDY","Onshore,Onshore",2
5842041f4e65fad6a7708c26,2024_03_08,-33.65705556,115.01457,Smiths Beach,0,0.69,0.99,21,21,"MOSTLY_CLOUDY,MOSTLY_CLOUDY","Cross-shore,Cross-shore",2
5842041f4e65fad6a7708c27,2024_03_08,-33.86301667,114.9767861,South Point,0,2.425,2.9000000000000004,21,21,"MOSTLY_CLOUDY,MOSTLY_CLOUDY","Cross-shore,Cross-shore",2
5842041f4e65fad6a7708c28,2024_03_08,-33.97649722,114.98311,Margaret River,0,2.2275,2.662,21,21,"MOSTLY_CLOUDY,LIGHT_SHOWERS","Onshore,Onshore",2
5842041f4e65fad6a7708c29,2024_03_08,-33.978325,114.9863667,Gas Bay,1,2.385,2.8449999999999998,21,21,"MOSTLY_CLOUDY,LIGHT_SHOWERS","Onshore,Onshore",2
5842041f4e65fad6a7708c2a,2024_03_08,-33.88036667,114.9803222,Lefthanders (Lefties),1,1.4849999999999999,1.78,21,21,"MOSTLY_CLOUDY,LIGHT_SHOWERS","Onshore,Onshore",2
5842041f4e65fad6a7708c2b,2024_03_08,-35.29171667,136.875225,Chinamans,3,1.755,2.04,19,19,"CLEAR,CLEAR","Cross-shore,Cross-shore",2
5842041f4e65fad6a7708c2c,2024_03_08,-32.14336389,133.108996,Cactus,3,2.005,2.395,19,19,"OVERCAST,OVERCAST","Cross-shore,Cross-shore",2
5842041f4e65fad6a7708c2d,2024_03_08,-35.86224722,137.74371,Pennington Bay,3,1.350655,2.110395,20,20,"CLEAR,CLEAR","Cross-shore,Cross-shore",2
5842041f4e65fad6a7708c2e,2024_03_08,-28.12496389,153.48648,Currumbin Alley,1.75,0.9802500000000001,1.46475,26,26,"LIGHT_RAIN,BRIEF_SHOWERS","Offshore,Offshore",2
5842041f4e65fad6a7708c2f,2024_03_08,-35.63450833,138.49829,Waitpinga,2,1.3078750000000001,2.0435600000000003,20,20,"CLEAR,CLEAR","Cross-shore,Cross-shore",2
5842041f4e65fad6a7708c30,2024_03_08,-35.52,138.71,Middleton,3,1.4669400000000001,2.2920949999999998,20,20,"CLEAR,CLEAR","Onshore,Onshore",2
5842041f4e65fad6a7708c39,2024_03_08,54.55819760353214,-8.21518,Rossnowlagh,3,0.958845,1.4982,8,8,"NIGHT_MOSTLY_CLOUDY,CLOUDY","Offshore,Offshore",2
5842041f4e65fad6a7708c3a,2024_03_08,54.5059358458,-8.27187,Tullan Strand,3,1.1204,1.7506249999999999,8,8,"NIGHT_MOSTLY_CLOUDY,CLOUDY","Offshore,Offshore",2
5842041f4e65fad6a7708c3b,2024_03_08,54.47958088962024,-8.29256,Bundoran,2.5,1.11066,1.73541,8,8,"NIGHT_MOSTLY_CLOUDY,CLOUDY","Offshore,Offshore",2
5842041f4e65fad6a7708c3c,2024_03_08,54.45887147557389,-8.434952849016696,Mullaghmore Strand,2,0.9312549999999999,1.45509,8,8,"NIGHT_MOSTLY_CLOUDY,CLOUDY","Offshore,Offshore",2
5842041f4e65fad6a7708c3d,2024_03_08,54.29465584522581,-8.965232737720527,Easkey,2.5,1.163005,1.8172000000000001,9,9,"NIGHT_OVERCAST,MOSTLY_CLOUDY","Offshore,Offshore",2
5842041f4e65fad6a7708c3e,2024_03_08,54.28521527547639,-9.223662106008305,Kilcummin Harbour,0.5,0.35450000000000004,0.5539000000000001,9,9,"NIGHT_OVERCAST,MOSTLY_CLOUDY","Onshore,Onshore",2
5842041f4e65fad6a7708c3f,2024_03_08,54.4123841889832,-8.535520783992467,Streedagh Strand,2,1.010935,1.57959,8,8,"NIGHT_MOSTLY_CLOUDY,CLOUDY","Offshore,Offshore",2
5842041f4e65fad6a7708c44,2024_03_08,54.266,-8.729,Dunmoran,1,0.33874000000000004,0.5292749999999999,8,8,"NIGHT_CLOUDY,MOSTLY_CLOUDY","Onshore,Onshore",2
5842041f4e65fad6a7708c46,2024_03_08,20.934,-105.401,Costa Azul,2,0.275,0.575,25,25,"NIGHT_CLEAR,NIGHT_CLEAR","Offshore,Cross-shore",2
5842041f4e65fad6a7708c66,2024_03_08,23.09289784805277,-82.49361057903533,Old Man's,0,0,0.08,26,26,"NIGHT_CLEAR,NIGHT_CLEAR","Offshore,Offshore",2
5842041f4e65fad6a7708c82,2024_03_08,43.64083333,-8.113611111,Playa de Rodo,2.5,4.145,4.835,13,13,"LIGHT_RAIN,LIGHT_SHOWERS","Offshore,Offshore",2
5842041f4e65fad6a7708c83,2024_03_08,43.53583333,-5.38583,Rodiles,3,0.71533,1.1177000000000001,13,13,"CLEAR,CLEAR","Offshore,Offshore",2
5842041f4e65fad6a7708c84,2024_03_08,43.44166667,-4.022777778,Playa de los Caballos,4,2.955,3.525,12,12,"CLEAR,CLEAR","Offshore,Offshore",2
5842041f4e65fad6a7708c85,2024_03_08,43.46972222,-3.731388889,Isla de Santa Marina,3,3.12,3.7350000000000003,12,12,"CLEAR,CLEAR","Offshore,Offshore",2
5842041f4e65fad6a7708c86,2024_03_08,43.397,-2.98667,Menakoz,2.5,1.2062499999999998,1.8847649999999998,12,12,"CLEAR,CLEAR","Offshore,Offshore",2
5842041f4e65fad6a7708c87,2024_03_08,43.43388889,-2.80194,Bakio,4,1.551455,2.424145,12,12,"CLEAR,CLEAR","Offshore,Offshore",2
5842041f4e65fad6a7708c88,2024_03_08,43.40861111,-2.69472,Mundaka,2,1.1982650000000001,1.87229,12,12,"CLEAR,CLEAR","Cross-shore,Cross-shore",2
5842041f4e65fad6a7708c89,2024_03_08,43.30777778,-2.239444444,Roca Puta,3,1.03,1.2349999999999999,12,12,"CLEAR,CLEAR","Offshore,Offshore",2
5842041f4e65fad6a7708c8b,2024_03_08,47.84083333,-4.35083,La Torche,3,1.500705,2.344855,11,11,"CLEAR,CLEAR","Cross-shore,Cross-shore",2
5842041f4e65fad6a7708c8c,2024_03_08,43.41611111,-1.62833,Lafitenia,4,1.652135,2.581465,12,12,"CLEAR,CLEAR","Offshore,Offshore",2
5842041f4e65fad6a7708c8d,2024_03_08,45.00222222,-1.2025,Lacanau,4,1.55682,2.43253,11,11,"CLEAR,CLEAR","Offshore,Offshore",2
5842041f4e65fad6a7708c8e,2024_03_08,43.66388889,-1.44389,La Graviere,3,2.1523149999999998,3.36299,12,12,"CLEAR,CLEAR","Cross-shore,Offshore",2
5842041f4e65fad6a7708c8f,2024_03_08,43.5225,-1.52583,Les Cavaliers,2,1.68006,2.62509,12,12,"CLEAR,CLEAR","Offshore,Offshore",2
5842041f4e65fad6a7708c90,2024_03_08,53.01055556,-9.400277778,Doolin Point,2,0.8300000000000001,1.0550000000000002,9,9,"NIGHT_CLOUDY,MOSTLY_CLOUDY","Offshore,Offshore",2
5842041f4e65fad6a7708c91,2024_03_08,53.01583333,-9.413055556,Crab Island,1,0.675,0.985,9,9,"NIGHT_CLOUDY,MOSTLY_CLOUDY","Offshore,Offshore",2
5842041f4e65fad6a7708c92,2024_03_08,52.1425,-9.993055556,Inch Reef,0,1.5554350000000001,2.430365,9,9,"NIGHT_CLOUDY,LIGHT_SHOWERS","Cross-shore,Cross-shore",2
5842041f4e65fad6a7708c93,2024_03_08,50.32127176553899,-5.20277738571167,Trevaunance Cove,1,0.878655,1.3729,10,10,"CLEAR,CLEAR","Offshore,Offshore",2
5842041f4e65fad6a7708c94,2024_03_08,50.34833333,-5.15889,Perranporth,3.5,1.08685,1.507705,9,9,"CLEAR,CLEAR","Offshore,Offshore",2
5842041f4e65fad6a7708c95,2024_03_08,50.224940120492306,-5.39939,Gwithian,3,0.9349350000000001,1.356055,9,9,"CLEAR,CLEAR","Offshore,Offshore",2
5842041f4e65fad6a7708c96,2024_03_08,50.2166643894,-5.48326,Porthmeor,2,0.8590800000000001,1.3423150000000001,10,10,"CLEAR,CLEAR","Cross-shore,Cross-shore",2
5842041f4e65fad6a7708c97,2024_03_08,50.082260215669976,-5.69518,Sennen,2.5,0.90061,1.302425,9,9,"CLEAR,CLEAR","Offshore,Offshore",2
5842041f4e65fad6a7708c98,2024_03_08,50.288859416902646,-5.24643,Porthtowan,3.915,1.07219,1.484795,9,9,"CLEAR,CLEAR","Offshore,Offshore",2
5842041f4e65fad6a7708c99,2024_03_08,54.58611111,-0.96667,Saltburn,2,0.59196,0.92494,7,7,"CLOUDY,BRIEF_SHOWERS","Cross-shore,Cross-shore",2
5842041f4e65fad6a7708c9a,2024_03_08,50.10222222,-5.38833,Praa Sands,0.5,0.694795,0.98084,9,9,"CLEAR,CLEAR","Cross-shore,Cross-shore",2
5842041f4e65fad6a7708c9b,2024_03_08,50.08194444,-5.32111,Porthleven,0,0.7941549999999999,1.2408700000000001,9,9,"CLEAR,CLEAR","Cross-shore,Cross-shore",2
5842041f4e65fad6a7708c9c,2024_03_08,54.49861111,-0.65583,Sandsend,1,0.405,0.715,7,7,"CLOUDY,CLEAR","Cross-shore,Cross-shore",2
5842041f4e65fad6a7708c9d,2024_03_08,54.24472222,-0.35806,Cayton Bay,0,0.725385,1.1334149999999998,6,6,"MOSTLY_CLOUDY,CLEAR","Onshore,Onshore",2
5842041f4e65fad6a7708c9e,2024_03_08,55.37888889,-1.606388889,Alnmouth,0.5,0.73,1.0350000000000001,6,6,"CLOUDY,LIGHT_SHOWERS","Onshore,Onshore",2
5842041f4e65fad6a7708c9f,2024_03_08,55.61055556,-1.698333333,Bamburgh,0,0.805195,1.258125,6,6,"CLOUDY,LIGHT_SHOWERS","Onshore,Onshore",2
5842041f4e65fad6a7708ca0,2024_03_08,55.49944444,-1.613055556,Embleton Bay,0.5,0.745,1.05,6,6,"CLOUDY,LIGHT_SHOWERS","Onshore,Onshore",2
5842041f4e65fad6a7708ca1,2024_03_08,51.15111111,-4.22333,Putsborough,1,0.5996516666666667,0.9004425,10,9,"CLEAR,CLEAR","Cross-shore,Cross-shore",2
5842041f4e65fad6a7708ca2,2024_03_08,51.23472222,-3.825833333,Lynmouth,0,0.300485,0.46951,9,9,"CLEAR,CLEAR","Cross-shore,Cross-shore",2
5842041f4e65fad6a7708ca3,2024_03_08,58.49888889,-6.27417,Europie,3,1.887675,2.9494949999999998,8,8,"CLEAR,CLEAR","Offshore,Offshore",2
5842041f4e65fad6a7708ca4,2024_03_08,51.13027778,-4.24083,Croyde,2,0.5961904166666667,1.0410887500000001,10,9,"CLEAR,CLEAR","Offshore,Offshore",2
5842041f4e65fad6a7708ca5,2024_03_08,50.83565,-4.55516,Bude Crooklets,2.585,0.8143549999999999,1.1676549999999999,9,9,"MOSTLY_CLOUDY,MOSTLY_CLOUDY","Offshore,Offshore",2
5842041f4e65fad6a7708ca6,2024_03_08,50.444688234298745,-5.04622,Watergate Bay,3,0.9995499999999999,1.561795,9,9,"CLEAR,CLEAR","Offshore,Offshore",2
5842041f4e65fad6a7708ca8,2024_03_08,55.93307468035716,-2.33223,Pease Bay,1,0.631645,0.986955,6,6,"LIGHT_SHOWERS,LIGHT_SHOWERS","Onshore,Onshore",2
5842041f4e65fad6a7708ca9,2024_03_08,58.52777778,-4.24028,Torrisdale,3,0.7505999999999999,1.172815,7,7,"CLOUDY,CLEAR","Offshore,Offshore",2
5842041f4e65fad6a7708caa,2024_03_08,58.59555556,-3.05444,Skirza,0,1.045,1.35,7,7,"MOSTLY_CLEAR,CLOUDY","Onshore,Onshore",2
5842041f4e65fad6a7708cab,2024_03_08,58.65027778,-3.17056,Gills Bay,0,0.22,0.52,7,7,"LIGHT_SHOWERS,MOSTLY_CLOUDY","Onshore,Onshore",2
5842041f4e65fad6a7708cac,2024_03_08,58.54027778,-5.05917,Sandwood Bay,3,0.81958,1.2805900000000001,8,8,"CLEAR,CLEAR","Offshore,Offshore",2
5842041f4e65fad6a7708cad,2024_03_08,58.56138889,-3.91111,Melvich,3,0.8259449999999999,1.29054,8,8,"CLOUDY,CLEAR","Offshore,Offshore",2
5842041f4e65fad6a7708cae,2024_03_08,58.56861111,-3.79083,Sandside Bay,2.5,0.7830250000000001,1.223475,8,8,"OVERCAST,CLEAR","Offshore,Offshore",2
5842041f4e65fad6a7708caf,2024_03_08,58.60166667,-3.51056,Thurso East,3,0.87296,1.363995,8,8,"LIGHT_SHOWERS,CLEAR","Offshore,Offshore",2
5842041f4e65fad6a7708cb0,2024_03_08,51.58611111,-3.81333,Aberavon,1.75,0.5171075,0.8127424999999999,8,8,"CLEAR,CLEAR","Offshore,Offshore",2
5842041f4e65fad6a7708cb1,2024_03_08,58.62277778,-3.65306,Brims Ness,2,0.918805,1.435635,8,8,"LIGHT_SHOWERS,CLEAR","Offshore,Offshore",2
5842041f4e65fad6a7708cb2,2024_03_08,51.65611111,-5.06194,Freshwater West,1.25,0.6242000000000001,0.9753100000000001,9,9,"CLEAR,CLEAR","Offshore,Offshore",2
5842041f4e65fad6a7708cb3,2024_03_08,51.59277778,-4.29917,Llangennith,2.75,0.59848,0.935125,8,8,"CLEAR,CLEAR","Offshore,Offshore",2
5842041f4e65fad6a7708cb4,2024_03_08,51.56527778,-4.01028,Langland Bay,0,0.30418999999999996,0.475295,8,8,"CLEAR,CLEAR","Onshore,Onshore",2
5842041f4e65fad6a7708cb5,2024_03_08,32.747742,-17.22032,Ponta Pequena,3,2.6,3.105,19,19,"NIGHT_MOSTLY_CLOUDY,MOSTLY_CLOUDY","Onshore,Onshore",2
5842041f4e65fad6a7708cb6,2024_03_08,32.73768,-17.2113,Jardim do Mar,3,1.6749999999999998,2,19,19,"NIGHT_MOSTLY_CLOUDY,MOSTLY_CLOUDY","Onshore,Onshore",2
5842041f4e65fad6a7708cb7,2024_03_08,32.75611111,-17.23055556,Paul do Mar,3,2.6550000000000002,3.17,19,19,"NIGHT_MOSTLY_CLOUDY,MOSTLY_CLOUDY","Onshore,Onshore",2
5842041f4e65fad6a7708cb8,2024_03_08,29.11027778,-13.6675,El Quemao,2,3.685,4.35,19,19,"NIGHT_CLOUDY,CLOUDY","Onshore,Onshore",2
5842041f4e65fad6a7708cb9,2024_03_08,28.75027778,-13.83528,Los Lobos,2,2.3251850000000003,3.6330999999999998,19,19,"NIGHT_CLEAR,CLEAR","Onshore,Onshore",2
5842041f4e65fad6a7708cbb,2024_03_08,52.82166667,-4.58861,Porth Neigwl (Hells Mouth),1,0.496555,0.77587,8,8,"CLEAR,CLEAR","Offshore,Offshore",2
5842041f4e65fad6a7708cbc,2024_03_08,29.11694444,-13.66306,La Santa Right (Morro Negro),1,2.6561,4.15016,19,19,"NIGHT_CLOUDY,CLOUDY","Onshore,Onshore",2
5842041f4e65fad6a7708cbf,2024_03_08,28.74416667,-13.94806,The Bubble (Hierro Right),1,2.5695449999999997,4.014915,19,19,"NIGHT_CLEAR,CLEAR","Onshore,Onshore",2
5842041f4e65fad6a7708cdf,2024_03_08,-23.01676944,-43.29781,Quebra-Mar,3,1.81,2.125,26,26,"NIGHT_CLEAR,NIGHT_CLEAR","Offshore,Offshore",2
5842041f4e65fad6a7708ce0,2024_03_08,-23.01488611,-43.37222222,Barra da Tijuca,3,1.8250000000000002,2.1100000000000003,27,27,"NIGHT_CLEAR,NIGHT_CLEAR","Offshore,Offshore",2
5842041f4e65fad6a7708ce1,2024_03_08,-23.04243333,-43.50372,Prainha,3,1.0299999999999998,1.6093700000000002,27,27,"NIGHT_CLEAR,NIGHT_CLEAR","Cross-shore,Offshore",2
5842041f4e65fad6a7708ce2,2024_03_08,-23.03561389,-43.4769,Praia da Macumba,4,1.29498,2.0234,27,27,"NIGHT_CLEAR,NIGHT_CLEAR","Offshore,Offshore",2
5842041f4e65fad6a7708ce4,2024_03_08,-22.999931,-43.25338,Pepino,4,1.4187400000000001,2.216785,26,26,"NIGHT_CLEAR,NIGHT_CLEAR","Offshore,Offshore",2
5842041f4e65fad6a7708ce5,2024_03_08,-22.99111111,-43.20733,Praia de Ipanema,3,0.575,0.88,26,26,"NIGHT_CLEAR,NIGHT_CLEAR","Offshore,Offshore",2
5842041f4e65fad6a7708ce6,2024_03_08,-22.99015,-43.1917,Arpoador,4,1.4177149999999998,2.21518,26,26,"NIGHT_CLEAR,NIGHT_CLEAR","Offshore,Offshore",2
5842041f4e65fad6a7708ce7,2024_03_08,-22.99126667,-43.22505,Pontão do Leblon,4,1.4187400000000001,2.216785,26,26,"NIGHT_CLEAR,NIGHT_CLEAR","Offshore,Offshore",2
5842041f4e65fad6a7708ce8,2024_03_08,-22.97852778,-43.18694,Copacabana,2.5,0.635,0.945,26,26,"NIGHT_CLEAR,NIGHT_CLEAR","Onshore,Onshore",2
5842041f4e65fad6a7708ce9,2024_03_08,-22.93640833,-42.48141,Saquarema,3,1.746,2.025,25,25,"NIGHT_CLEAR,NIGHT_CLEAR","Offshore,Offshore",2
5842041f4e65fad6a7708cea,2024_03_08,-22.78083611,-41.91111,Praia de Geriba,4,1.51125,2.361325,25,25,"NIGHT_CLEAR,NIGHT_CLEAR","Offshore,Offshore",2
5842041f4e65fad6a7708cf3,2024_03_08,30.62215833,-9.87905,Boilers,1,0.8331200000000001,1.30175,17,17,"CLEAR,CLEAR","Offshore,Offshore",2
5842041f4e65fad6a7708cf5,2024_03_08,32.23053611,-9.259630556,The Money Wave,2,6.785,8.105,17,17,"CLEAR,CLEAR","Cross-shore,Cross-shore",2
5842041f4e65fad6a7708cf6,2024_03_08,33.53641111,-7.81752,Dar Bouazza,3,2.9377250000000004,4.590195,17,17,"OVERCAST,OVERCAST","Cross-shore,Offshore",2
5842041f4e65fad6a7708cf7,2024_03_08,32.31853056,-9.25848,Safi,3.5,2.81182,4.393465,17,17,"CLEAR,CLEAR","Cross-shore,Cross-shore",2
5842041f4e65fad6a7708cf9,2024_03_08,30.545021,-9.715966,Mysteries,3,1.71,2.04,17,17,"CLEAR,CLEAR","Cross-shore,Cross-shore",2
5842041f4e65fad6a7708cfa,2024_03_08,30.549671597798312,-9.73883,Killers,2,2.0398699999999996,3.1873,17,17,"CLEAR,CLEAR","Cross-shore,Cross-shore",2
5842041f4e65fad6a7708cfb,2024_03_08,33.82546944,-7.1521,Bouznika Plage,2,2.93876,4.591815,17,17,"BRIEF_SHOWERS_POSSIBLE,BRIEF_SHOWERS","Cross-shore,Offshore",2
5842041f4e65fad6a7708cfc,2024_03_08,33.83184722,-7.12916,Oued Cherrat,2,2.786325,4.35363,17,17,"BRIEF_SHOWERS_POSSIBLE,BRIEF_SHOWERS","Onshore,Onshore",2
5842041f4e65fad6a7708cfd,2024_03_08,30.544006477861213,-9.72562,Anchor Point,4,2.0398699999999996,3.1873,17,17,"CLEAR,CLEAR","Offshore,Offshore",2
5842041f4e65fad6a7708cfe,2024_03_08,34.03740833,-6.837330556,Doura,1,5.3149999999999995,6.35,17,17,"BRIEF_SHOWERS_POSSIBLE,BRIEF_SHOWERS","Cross-shore,Cross-shore",2
5842041f4e65fad6a7708cff,2024_03_08,-30.82075556,30.40701,St Mikes,1,0.658725,1.029255,26,26,"CLEAR,CLEAR","Cross-shore,Cross-shore",2
5842041f4e65fad6a7708d00,2024_03_08,-29.85409444,31.04168056,Wedge,1.5,0.725,1.0350000000000001,27,27,"CLEAR,CLEAR","Cross-shore,Cross-shore",2
5842041f4e65fad6a7708d01,2024_03_08,-29.85251389,31.04166667,New Pier,2,0.725,1.0350000000000001,27,27,"CLEAR,CLEAR","Offshore,Offshore",2
5842041f4e65fad6a7708d02,2024_03_08,-29.8893,31.052,Cave Rock,2,0.92,1.0950000000000002,27,27,"CLEAR,CLEAR","Cross-shore,Cross-shore",2
5842041f4e65fad6a7708d03,2024_03_08,-29.85001667,31.04041,North Beach,3,0.7603249999999999,1.188005,27,27,"CLEAR,CLEAR","Cross-shore,Cross-shore",2
5842041f4e65fad6a7708d04,2024_03_08,-29.59467222,31.17150278,Westbrook,1.5,0.705,1.005,28,28,"CLEAR,CLEAR","Cross-shore,Cross-shore",2
5842041f4e65fad6a7708d05,2024_03_08,-29.52800833,31.22666389,Sunrise,2,0.97,1.15,28,28,"CLEAR,CLEAR","Cross-shore,Cross-shore",2
5842041f4e65fad6a7708d06,2024_03_08,-34.09497222,18.35222222,The Hoek,2,1.6,1.79,18,18,"MOSTLY_CLOUDY,MOSTLY_CLEAR","Onshore,Onshore",2
5842041f4e65fad6a7708d07,2024_03_08,-29.92498333,31.01995,Ansteys,1.5,0.649375,1.014645,27,27,"CLEAR,CLEAR","Onshore,Onshore",2
5842041f4e65fad6a7708d08,2024_03_08,-34.11648889,18.34814167,The Dunes,2,1.62,1.76,18,18,"MOSTLY_CLOUDY,MOSTLY_CLEAR","Onshore,Onshore",2
5842041f4e65fad6a7708d09,2024_03_08,-34.061225,18.32679167,Dungeons,4,1.88,2.04,18,18,"MOSTLY_CLOUDY,MOSTLY_CLEAR","Offshore,Offshore",2
5842041f4e65fad6a7708d0a,2024_03_08,-34.35976111,18.90847222,Bettys Bay,2.5,0.515,0.815,18,18,"MOSTLY_CLEAR,MOSTLY_CLEAR","Offshore,Offshore",2
5842041f4e65fad6a7708d0b,2024_03_08,-34.20904722,24.83816389,Seal Point,3,1.65,1.9499999999999997,19,19,"CLEAR,CLEAR","Offshore,Offshore",2
5842041f4e65fad6a7708d0c,2024_03_08,-34.16290833,24.83402,St Francis Bay,2,0.39,0.7,18,18,"CLEAR,CLEAR","Offshore,Offshore",2
5842041f4e65fad6a7708d0d,2024_03_08,-32.99735556,27.95438611,Nahoon Reef,1,0.475,0.78,25,25,"CLEAR,CLEAR","Cross-shore,Cross-shore",2
5842041f4e65fad6a7708d0e,2024_03_08,-34.12707778,18.33208056,Sunset Reef,1,1.52,1.8050000000000002,18,18,"MOSTLY_CLOUDY,MOSTLY_CLOUDY","Onshore,Onshore",2
5842041f4e65fad6a7708d0f,2024_03_08,-34.03148611,24.93413,Jeffreys Bay (J-Bay),3,0.71278,1.11372,19,19,"CLEAR,CLEAR","Offshore,Offshore",2
5842041f4e65fad6a7708d10,2024_03_08,-32.31417778,18.33111,Elands Bay,3,1.26897,1.9827650000000001,17,17,"CLEAR,CLEAR","Cross-shore,Cross-shore",2
5842041f4e65fad6a7708d12,2024_03_08,-31.96770278,29.17035,Coffee Bay,0,0.568565,0.888385,26,26,"CLOUDY,CLOUDY","Cross-shore,Cross-shore",2
5842041f4e65fad6a7708d15,2024_03_08,-29.729,31.094,Flowrider,1.5,0.63,0.9299999999999999,28,28,"CLEAR,CLEAR","Cross-shore,Cross-shore",2
5842041f4e65fad6a7708d2b,2024_03_08,-6.601088889,105.17275,Inside Lefts,0,0.595,0.905,29,29,"LIGHT_SHOWERS,THUNDER_STORMS","Onshore,Onshore",2
5842041f4e65fad6a7708d2c,2024_03_08,-6.594725,105.1507639,Inside Rights,3,0.945,1.13,29,29,"LIGHT_SHOWERS,THUNDER_STORMS","Offshore,Offshore",2
5842041f4e65fad6a7708d2d,2024_03_08,-6.655161111,105.1734,One Palm Point,0.5,1.253855,1.95915,29,29,"LIGHT_RAIN,THUNDER_STORMS","Cross-shore,Cross-shore",2
5842041f4e65fad6a7708d2e,2024_03_08,-6.614741667,105.1336417,Panaitan Rights,0,0.91,1.085,29,29,"LIGHT_SHOWERS,THUNDER_STORMS","Cross-shore,Cross-shore",2
5842041f4e65fad6a7708d2f,2024_03_08,-6.631141667,105.1167306,Bombies,2,2.2350000000000003,2.67,29,29,"LIGHT_SHOWERS,LIGHT_SHOWERS","Offshore,Offshore",2
5842041f4e65fad6a7708d30,2024_03_08,-8.7269,114.34882,G-land,2,1.1037949999999999,1.724675,30,30,"BRIEF_SHOWERS_POSSIBLE,THUNDER_STORMS","Onshore,Onshore",2
5842041f4e65fad6a7708d31,2024_03_08,-6.95835,106.2286083,Baya,2,1.9,2.2649999999999997,29,29,"THUNDER_SHOWERS,THUNDER_SHOWERS","Cross-shore,Cross-shore",2
5842041f4e65fad6a7708d32,2024_03_08,-7.347966667,106.39863,Turtles,1,1.22279,1.9106100000000001,30,30,"THUNDER_SHOWERS,THUNDER_SHOWERS","Onshore,Onshore",2
5842041f4e65fad6a7708d33,2024_03_08,-6.962980556,106.48007,Cimaja,3,1.37594,2.149905,29,29,"THUNDER_SHOWERS,THUNDER_SHOWERS","Onshore,Onshore",2
5842041f4e65fad6a7708d34,2024_03_08,-7.276458333,106.37126,Ombak Tujuh,1,1.239225,1.93629,29,29,"THUNDER_SHOWERS,THUNDER_SHOWERS","Onshore,Onshore",2
5842041f4e65fad6a7708d35,2024_03_08,-3.054130556,100.1726,Thunders Mentawais,2,2.355,2.66,30,30,"LIGHT_RAIN,RAIN","Onshore,Onshore",2
5842041f4e65fad6a7708d36,2024_03_08,-2.789,99.99,Macaronis,2.5,1.427585,2.2306049999999997,30,30,"RAIN,LIGHT_RAIN","Cross-shore,Cross-shore",2
5842041f4e65fad6a7708d37,2024_03_08,-2.375641667,99.85916,Lances Right,2,1.121175,1.75184,30,30,"LIGHT_RAIN,LIGHT_RAIN","Cross-shore,Cross-shore",2
5842041f4e65fad6a7708d38,2024_03_08,-2.066722222,99.54536,Telescopes,1.5,1.26752,1.9805000000000001,30,30,"LIGHT_RAIN,LIGHT_RAIN","Cross-shore,Cross-shore",2
5842041f4e65fad6a7708d39,2024_03_08,-2.372408333,99.833325,Lances Left,3,2.005,2.395,30,30,"LIGHT_RAIN,LIGHT_RAIN","Cross-shore,Cross-shore",2
5842041f4e65fad6a7708d3a,2024_03_08,-8.794,115.12,Balangan,3,0.9100333333333334,1.1958833333333332,28,28,"THUNDER_SHOWERS,THUNDER_SHOWERS","Onshore,Onshore",2
5842041f4e65fad6a7708d3b,2024_03_08,-8.804,115.113,Bingin,3,1.09795,1.2864333333333333,28,28,"THUNDER_SHOWERS,THUNDER_SHOWERS","Cross-shore,Cross-shore",2
5842041f4e65fad6a7708d3c,2024_03_08,-8.798916667,115.11733,Dreamland,2,0.545,0.8500000000000001,30,30,"THUNDER_SHOWERS,THUNDER_SHOWERS","Cross-shore,Cross-shore",2
5842041f4e65fad6a7708d3d,2024_03_08,-8.745,115.15,Airport Rights,3,1.235395,1.930305,30,30,"LIGHT_RAIN,LIGHT_RAIN","Onshore,Onshore",2
5842041f4e65fad6a7708d3e,2024_03_08,-8.715,115.165,Kuta Beach,3,0.7503,1.10115,28,28,"LIGHT_RAIN,LIGHT_RAIN","Onshore,Cross-shore",2
5842041f4e65fad6a7708d3f,2024_03_08,-8.731741667,115.1546,Kuta Reef,3,1.348,1.616,30,30,"LIGHT_RAIN,LIGHT_RAIN","Onshore,Onshore",2
5842041f4e65fad6a7708d40,2024_03_08,-8.66200267767095,115.13045,Canggu,3,1.2142,1.5321333333333333,28,28,"LIGHT_RAIN,LIGHT_RAIN","Onshore,Cross-shore",2
5842041f4e65fad6a7708d41,2024_03_08,-8.5242,114.988,Balian,3,1.27935,1.52075,28,28,"THUNDER_SHOWERS,THUNDER_STORMS","Onshore,Cross-shore",2
5842041f4e65fad6a7708d42,2024_03_08,-8.807,115.108,Impossibles,3,1.0312833333333336,1.2706,28,28,"THUNDER_SHOWERS,THUNDER_SHOWERS","Cross-shore,Cross-shore",2
5842041f4e65fad6a7708d43,2024_03_08,-8.422647222,114.80458,Medewi,3,0.81408,1.272,29,29,"THUNDER_SHOWERS,THUNDER_SHOWERS","Cross-shore,Cross-shore",2
5842041f4e65fad6a7708d44,2024_03_08,-8.810197222,115.10105,Padang Padang,2,0.90265,1.10405,28,28,"THUNDER_SHOWERS,THUNDER_SHOWERS","Cross-shore,Cross-shore",2
5842041f4e65fad6a7708d46,2024_03_08,-8.841166667,115.09185,Nyang Nyang,3,1.6400000000000001,1.955,30,30,"THUNDER_SHOWERS,THUNDER_SHOWERS","Onshore,Onshore",2
5842041f4e65fad6a7708d47,2024_03_08,-8.820544444,115.23035,Nusa Dua,3,0.962395,1.5037449999999999,30,30,"LIGHT_RAIN,LIGHT_RAIN","Offshore,Offshore",2
5842041f4e65fad6a7708d48,2024_03_08,-8.851288889,115.1704028,Green Ball,3,2.645,3.16,30,30,"LIGHT_RAIN,LIGHT_RAIN","Cross-shore,Offshore",2
5842041f4e65fad6a7708d49,2024_03_08,-8.742483333,115.24309,Serangan,3,0.819275,1.280115,30,30,"LIGHT_RAIN,LIGHT_RAIN","Offshore,Offshore",2
5842041f4e65fad6a7708d4a,2024_03_08,-8.788227778,115.23273,Sri Lanka,3,0.643585,1.005595,30,30,"LIGHT_RAIN,LIGHT_RAIN","Offshore,Offshore",2
5842041f4e65fad6a7708d4b,2024_03_08,-8.67685,115.27162,Sanur,3,0.670445,1.04757,29,29,"LIGHT_RAIN,LIGHT_RAIN","Offshore,Offshore",2
5842041f4e65fad6a7708d4c,2024_03_08,-8.715,115.272,Hyatt Reef,3.5,1.315,1.57,30,30,"LIGHT_RAIN,LIGHT_RAIN","Cross-shore,Offshore",2
5842041f4e65fad6a7708d4d,2024_03_08,-8.899444444,116.44222,Ekas,1,0.12,0.425,30,30,"THUNDER_SHOWERS,THUNDER_SHOWERS","Onshore,Onshore",2
5842041f4e65fad6a7708d4e,2024_03_08,-8.598583333,115.33908,Keramas,3.5,1.0766999999999998,1.4196333333333335,28,28,"RAIN,RAIN","Cross-shore,Cross-shore",2
5842041f4e65fad6a7708d4f,2024_03_08,-8.903055556,116.285,Kuta,2.5,1.0386449999999998,1.6228799999999999,30,30,"BRIEF_SHOWERS_POSSIBLE,THUNDER_STORMS","Cross-shore,Cross-shore",2
5842041f4e65fad6a7708d50,2024_03_08,-8.929166667,116.34889,Grupuk,2,2.425,2.9000000000000004,30,30,"BRIEF_SHOWERS_POSSIBLE,THUNDER_STORMS","Cross-shore,Cross-shore",2
5842041f4e65fad6a7708d51,2024_03_08,-8.872222222,116.03167,Belongas Bay,3,1.09679,1.71373,29,29,"CLEAR,THUNDER_STORMS","Cross-shore,Offshore",2
5842041f4e65fad6a7708d52,2024_03_08,-8.810277778,118.3825,Lakey Peak,3,0.92486,1.4451049999999999,31,31,"THUNDER_SHOWERS,THUNDER_SHOWERS","Onshore,Onshore",2
5842041f4e65fad6a7708d53,2024_03_08,-8.810277778,118.3825,Periscopes,4,1.315,1.5750000000000002,31,31,"THUNDER_SHOWERS,THUNDER_SHOWERS","Onshore,Onshore",2
5842041f4e65fad6a7708d54,2024_03_08,-8.974722222,116.72972,Yo-Yos,3,1.1529,1.80141,30,30,"THUNDER_STORMS,THUNDER_SHOWERS","Onshore,Onshore",2
5842041f4e65fad6a7708d55,2024_03_08,-8.749722222,115.82417,Desert Point,3,1.2149999999999999,1.45,29,29,"THUNDER_SHOWERS,MOSTLY_CLOUDY","Cross-shore,Onshore",2
5842041f4e65fad6a7708d56,2024_03_08,-8.932222222,116.74,Supersuck,3,0.743025,1.160975,30,30,"THUNDER_STORMS,THUNDER_SHOWERS","Onshore,Onshore",2
5842041f4e65fad6a7708d57,2024_03_08,-8.854444444,116.75806,Scar Reef,2,0.43655,0.682105,30,30,"THUNDER_STORMS,THUNDER_SHOWERS","Onshore,Onshore",2
5842041f4e65fad6a7708d58,2024_03_08,-19.14611111,177.9677778,"King Kong Left, Nagigia Island",3,1.9449999999999998,2.325,30,30,"NIGHT_HEAVY_THUNDER_STORMS,NIGHT_LIGHT_RAIN","Offshore,Offshore",2
5842041f4e65fad6a7708d59,2024_03_08,-10.88944444,122.81222,T-Land,2,0.7256549999999999,1.13384,30,30,"LIGHT_SHOWERS_POSSIBLE,CLEAR","Onshore,Onshore",2
5842041f4e65fad6a7708d5a,2024_03_08,-17.84527778,177.17806,Namotu Left,3,1.94,2.28,31,31,"NIGHT_OVERCAST,NIGHT_OVERCAST","Offshore,Offshore",2
5842041f4e65fad6a7708d5c,2024_03_08,-17.84138889,177.17111,"Wilkes Pass, Namotu",3,1.94,2.275,31,31,"NIGHT_OVERCAST,NIGHT_OVERCAST","Onshore,Onshore",2
5842041f4e65fad6a7708d5d,2024_03_08,-17.847910543694947,177.18961,"Swimming Pools, Namotu",3,1.94,2.28,31,31,"NIGHT_OVERCAST,NIGHT_OVERCAST","Onshore,Onshore",2
5842041f4e65fad6a7708d5e,2024_03_08,-18.47111111,177.9294444,Frigate Pass,4,1.915,2.27,30,30,"NIGHT_HEAVY_THUNDER_STORMS,NIGHT_HEAVY_THUNDER_STORMS","Offshore,Offshore",2
5842041f4e65fad6a7708d60,2024_03_08,6.868611111,158.3663889,Napali,1,1.56,1.8599999999999999,29,29,"CLEAR,NIGHT_CLEAR","Onshore,Onshore",2
5842041f4e65fad6a7708d64,2024_03_08,7.005277778,158.1933333,Center Channel,0,0.62,0.92,29,29,"CLEAR,NIGHT_CLEAR","Cross-shore,Cross-shore",2
5842041f4e65fad6a7708d65,2024_03_08,6.98,158.128,P-Pass,1.5,1.095,1.365,29,29,"CLEAR,NIGHT_CLEAR","Cross-shore,Cross-shore",2
5842041f4e65fad6a7708d66,2024_03_08,7.018611111,158.2938889,Mwahnd Pass,1,1.22,1.52,28,28,"CLEAR,NIGHT_CLEAR","Onshore,Onshore",2
5842041f4e65fad6a7708d67,2024_03_08,7.012777778,158.2075,Main Pass,1,0.325,0.635,29,29,"CLEAR,NIGHT_CLEAR","Offshore,Offshore",2
5842041f4e65fad6a7708d68,2024_03_08,-2.610277778,150.7094444,Ral Island,3,0.45,0.75,30,30,"CLEAR,CLEAR","Onshore,Onshore",2
5842041f4e65fad6a7708d69,2024_03_08,-2.583611111,150.7725,Nago,2,0.19,0.5,30,30,"CLEAR,CLEAR","Offshore,Offshore",2
5842041f4e65fad6a7708d6a,2024_03_08,-2.573611111,150.7911111,Pikinini,2,0.19,0.5,30,30,"CLEAR,CLEAR","Onshore,Onshore",2
5842041f4e65fad6a7708d6b,2024_03_08,-2.579093,150.773127,Long-Long,2,0.19,0.5,30,30,"CLEAR,CLEAR","Cross-shore,Cross-shore",2
5842041f4e65fad6a7708d6c,2024_03_08,-2.569,150.786,Nusa Lefts,2,0.19,0.5,30,30,"CLEAR,CLEAR","Onshore,Onshore",2
5842041f4e65fad6a7708d6d,2024_03_08,-22.35,166.24278,Dumbea Right,2,1.87,2.075,28,28,"LIGHT_SHOWERS,NIGHT_LIGHT_RAIN","Offshore,Offshore",2
5842041f4e65fad6a7708d6e,2024_03_08,-22.03194444,165.9597222,St. Vincent Pass,3,1.7349999999999999,1.99,28,28,"LIGHT_RAIN,NIGHT_LIGHT_RAIN","Offshore,Offshore",2
5842041f4e65fad6a7708d6f,2024_03_08,-22.27111111,166.1777778,False Pass,2,1.85,2.0549999999999997,28,28,"LIGHT_SHOWERS,NIGHT_LIGHT_RAIN","Offshore,Offshore",2
5842041f4e65fad6a7708d70,2024_03_08,-22.36361111,166.25611,Dumbea Left,2,1.87,2.075,28,28,"LIGHT_SHOWERS,NIGHT_LIGHT_RAIN","Offshore,Offshore",2
5842041f4e65fad6a7708d71,2024_03_08,-22.50805556,166.45139,Skate Park/Boulari Pass,2,1.6349999999999998,1.905,28,28,"OVERCAST,NIGHT_CLOUDY","Offshore,Offshore",2
5842041f4e65fad6a7708d7c,2024_03_08,-36.954,174.463,Piha,2,0.9600500000000001,1.2873666666666668,21,20,"NIGHT_MOSTLY_CLOUDY,NIGHT_MOSTLY_CLEAR","Onshore,Onshore",2
5842041f4e65fad6a7708d7e,2024_03_08,-37.82125556,174.82311,Raglan,1.915,0.61354375,1.0682033333333334,21,19,"NIGHT_CLEAR,NIGHT_CLEAR","Cross-shore,Cross-shore",2
5842041f4e65fad6a7708d80,2024_03_08,-35.17075278,173.11178,Shipwreck Bay,1,0.31026,0.484785,20,20,"NIGHT_CLEAR,NIGHT_CLEAR","Offshore,Offshore",2
5842041f4e65fad6a7708d81,2024_03_08,-38.71196389,178.04773,The Island,1,1.03,1.2,19,19,"NIGHT_CLOUDY,NIGHT_OVERCAST","Onshore,Onshore",2
5842041f4e65fad6a7708d82,2024_03_08,-38.68472222,178.07714000000001,Wainui Beach,2,1.0350000000000001,1.085,20,20,"NIGHT_CLOUDY,NIGHT_OVERCAST","Onshore,Onshore",2
5842041f4e65fad6a7708d83,2024_03_08,-35.12029167,173.98269,Taronui Bay,1,0.23,0.53,20,20,"NIGHT_MOSTLY_CLOUDY,NIGHT_MOSTLY_CLOUDY","Onshore,Onshore",2
5842041f4e65fad6a7708d84,2024_03_08,-37.62986,176.18002,Mt Maunganui Main Beach,2,0.027083333333333334,0.3392833333333334,21,21,"NIGHT_CLEAR,NIGHT_CLEAR","Offshore,Offshore",2
