_id,date,lat,lon,name,daily_mean_swell_rating,daily_mean_wave_height_min,daily_mean_wave_height_max,daily_mean_water_temperature_max,daily_mean_water_temperature_min,weather_per_timestamp,wind_per_timestamp,n_samples_per_day
5842041f4e65fad6a77087f9,2024_02_09,37.741668,-122.51038,South Ocean Beach,2.999230769230769,1.8410435897435897,2.3514692307692306,14,14,"NIGHT_CLEAR,NIGHT_MIST,NIGHT_MIST,NIGHT_MIST,NIGHT_MIST,NIGHT_MIST,NIGHT_CLEAR,CLEAR,CLEAR,CLEAR,MOSTLY_CLEAR,CLEAR,MOSTLY_CLEAR","Offshore,Offshore,Offshore,Offshore,Cross-shore,Offshore,Offshore,Cross-shore,Offshore,Onshore,Onshore,Onshore,Onshore",13
5842041f4e65fad6a7708801,2024_02_09,37.49142,-122.50428,Maverick's,NA,1.0683333333333334,1.2671153846153846,13,13,"NIGHT_CLEAR,NIGHT_CLEAR,NIGHT_CLEAR,NIGHT_CLEAR,NIGHT_CLEAR,NIGHT_CLEAR,NIGHT_CLEAR,CLEAR,CLEAR,CLEAR,CLEAR,CLEAR,CLEAR","Offshore,Offshore,Offshore,Offshore,Offshore,Offshore,Offshore,Offshore,Offshore,Offshore,Offshore,Offshore,Offshore",13
5842041f4e65fad6a7708804,2024_02_09,44.997,-124.018,Roads End,2.5384615384615383,1.6684615384615384,1.9884615384615385,11,11,"NIGHT_MOSTLY_CLOUDY,NIGHT_CLEAR,NIGHT_OVERCAST,NIGHT_CLEAR,NIGHT_OVERCAST,NIGHT_LIGHT_RAIN,NIGHT_DRIZZLE,LIGHT_RAIN,BRIEF_SHOWERS_POSSIBLE,LIGHT_SHOWERS_POSSIBLE,CLOUDY,DRIZZLE,OVERCAST","Onshore,Onshore,Onshore,Onshore,Onshore,Onshore,Cross-shore,Cross-shore,Cross-shore,Offshore,Cross-shore,Cross-shore,Cross-shore",13
5842041f4e65fad6a7708805,2024_02_09,36.95188851423011,-122.02522,Steamer Lane,3.230769230769231,1.1296564102564104,1.520302564102564,14,14,"NIGHT_CLEAR,NIGHT_CLEAR,NIGHT_CLEAR,NIGHT_CLEAR,NIGHT_CLEAR,NIGHT_CLEAR,NIGHT_MIST,MIST,CLEAR,CLEAR,CLEAR,CLEAR,MOSTLY_CLEAR","Offshore,Offshore,Offshore,Offshore,Offshore,Offshore,Cross-shore,Offshore,Cross-shore,Onshore,Cross-shore,Cross-shore,Offshore",13
5842041f4e65fad6a7708806,2024_02_09,36.95918781542251,-122.02489,Cowells,1,0.002625641025641027,0.27881538461538463,14,14,"NIGHT_CLEAR,NIGHT_CLEAR,NIGHT_CLEAR,NIGHT_CLEAR,NIGHT_CLEAR,NIGHT_CLEAR,NIGHT_MIST,MIST,CLEAR,CLEAR,CLEAR,CLEAR,MOSTLY_CLEAR","Offshore,Cross-shore,Cross-shore,Cross-shore,Cross-shore,Cross-shore,Onshore,Cross-shore,Onshore,Onshore,Offshore,Offshore,Offshore",13
5842041f4e65fad6a7708807,2024_02_09,36.95468082526536,-121.97234,Pleasure Point,2.8461538461538463,0.9770923076923077,1.3266948717948717,14,14,"NIGHT_CLEAR,NIGHT_CLEAR,NIGHT_CLEAR,NIGHT_CLEAR,NIGHT_CLEAR,NIGHT_CLEAR,NIGHT_CLEAR,CLEAR,CLEAR,CLEAR,CLEAR,CLEAR,CLEAR","Offshore,Offshore,Offshore,Offshore,Offshore,Offshore,Cross-shore,Offshore,Cross-shore,Cross-shore,Cross-shore,Cross-shore,Cross-shore",13
5842041f4e65fad6a770880a,2024_02_09,35.37815414378748,-120.86589,Morro Bay,3.333076923076923,1.350769230769231,1.718974358974359,14,14,"NIGHT_MOSTLY_CLEAR,NIGHT_CLEAR,NIGHT_MOSTLY_CLEAR,NIGHT_CLEAR,NIGHT_CLEAR,NIGHT_CLEAR,CLEAR,CLEAR,CLEAR,CLEAR,CLEAR,MOSTLY_CLEAR,MOSTLY_CLEAR","Offshore,Onshore,Offshore,Onshore,Cross-shore,Offshore,Offshore,Offshore,Cross-shore,Offshore,Onshore,Onshore,Onshore",13
5842041f4e65fad6a770880b,2024_02_09,36.95782765000708,-121.9672887511276,Jack's,2.09,0.3365717948717949,0.6418,14,14,"NIGHT_CLEAR,NIGHT_CLEAR,NIGHT_CLEAR,NIGHT_CLEAR,NIGHT_CLEAR,NIGHT_CLEAR,NIGHT_CLEAR,CLEAR,CLEAR,CLEAR,CLEAR,CLEAR,CLEAR","Offshore,Cross-shore,Cross-shore,Cross-shore,Cross-shore,Cross-shore,Cross-shore,Cross-shore,Offshore,Offshore,Offshore,Offshore,Offshore",13
5842041f4e65fad6a770880d,2024_02_09,34.29982939936656,-119.3489016603669,Gold Coast Beachbreaks,2.076923076923077,0.22,0.5269230769230769,14.76923076923077,14.76923076923077,"NIGHT_CLEAR,NIGHT_CLEAR,NIGHT_CLEAR,NIGHT_CLEAR,NIGHT_CLEAR,NIGHT_CLEAR,CLEAR,CLEAR,CLEAR,CLEAR,CLEAR,CLEAR,CLEAR","Cross-shore,Cross-shore,Onshore,Cross-shore,Cross-shore,Cross-shore,Cross-shore,Offshore,Onshore,Onshore,Onshore,Onshore,Onshore",13
5842041f4e65fad6a7708811,2024_02_09,34.245076,-119.26799,Ventura Harbor,2.640769230769231,0.9548857051282051,1.2591457051282051,14,14,"NIGHT_CLEAR,NIGHT_CLEAR,NIGHT_CLEAR,NIGHT_CLEAR,NIGHT_CLEAR,NIGHT_CLEAR,MOSTLY_CLEAR,MOSTLY_CLEAR,CLEAR,CLEAR,CLEAR,CLEAR,CLEAR","Cross-shore,Offshore,Offshore,Offshore,Offshore,Offshore,Offshore,Offshore,Offshore,Onshore,Onshore,Onshore,Onshore",13
5842041f4e65fad6a7708813,2024_02_09,34.051,-118.964,County Line,2.0253846153846156,0.44884358974358973,0.7555461538461539,15,15,"NIGHT_CLEAR,NIGHT_CLEAR,NIGHT_CLEAR,NIGHT_CLEAR,NIGHT_CLEAR,NIGHT_CLEAR,CLEAR,CLEAR,CLEAR,CLEAR,CLEAR,CLEAR,CLEAR","Offshore,Offshore,Offshore,Offshore,Offshore,Offshore,Offshore,Offshore,Onshore,Onshore,Onshore,Onshore,Onshore",13
5842041f4e65fad6a7708814,2024_02_09,34.37256264378892,-119.47797,Rincon,2.769230769230769,0.3669230769230769,0.6715384615384615,14.76923076923077,14.76923076923077,"NIGHT_CLEAR,NIGHT_CLEAR,NIGHT_CLEAR,NIGHT_CLEAR,NIGHT_CLEAR,NIGHT_CLEAR,CLEAR,CLEAR,CLEAR,CLEAR,CLEAR,CLEAR,CLEAR","Cross-shore,Cross-shore,Cross-shore,Cross-shore,Offshore,Offshore,Offshore,Offshore,Onshore,Onshore,Onshore,Onshore,Cross-shore",13
5842041f4e65fad6a7708817,2024_02_09,34.03096101876324,-118.68109,Malibu Third Point,2.1538461538461537,0.24846153846153846,0.5530769230769231,15,15,"NIGHT_CLEAR,NIGHT_CLEAR,NIGHT_MIST,NIGHT_CLEAR,NIGHT_CLEAR,NIGHT_MOSTLY_CLOUDY,CLEAR,CLEAR,CLEAR,CLEAR,CLEAR,CLEAR,CLEAR","Cross-shore,Cross-shore,Cross-shore,Cross-shore,Cross-shore,Cross-shore,Offshore,Offshore,Cross-shore,Onshore,Onshore,Onshore,Cross-shore",13
5842041f4e65fad6a7708819,2024_02_09,33.984079047970035,-118.47381591796875,Venice Beach,2.3461538461538463,0.7153179487179487,0.9958923076923077,15,15,"NIGHT_MIST,NIGHT_MOSTLY_CLOUDY,NIGHT_MOSTLY_CLOUDY,NIGHT_MOSTLY_CLOUDY,NIGHT_MOSTLY_CLOUDY,NIGHT_BRIEF_SHOWERS,MIST,MIST,MIST,MIST,MOSTLY_CLEAR,CLEAR,CLEAR","Cross-shore,Offshore,Offshore,Offshore,Offshore,Offshore,Offshore,Offshore,Offshore,Offshore,Cross-shore,Onshore,Onshore",13
5842041f4e65fad6a770881e,2024_02_09,34.037508438646746,-118.58339846155594,Topanga Beach,2.4615384615384617,0.36022564102564103,0.6633384615384615,15,15,"NIGHT_CLEAR,NIGHT_CLEAR,NIGHT_CLEAR,NIGHT_MIST,NIGHT_BRIEF_SHOWERS,NIGHT_BRIEF_SHOWERS,MOSTLY_CLEAR,MOSTLY_CLEAR,CLEAR,CLEAR,MOSTLY_CLEAR,MOSTLY_CLEAR,CLEAR","Offshore,Offshore,Offshore,Offshore,Offshore,Offshore,Offshore,Offshore,Cross-shore,Onshore,Onshore,Onshore,Onshore",13
5842041f4e65fad6a7708820,2024_02_09,33.73954373690184,-118.11414,Seal Beach Jetty,2.1538461538461537,0.2530769230769231,0.5584615384615385,14.76923076923077,14.76923076923077,"NIGHT_FOG,NIGHT_MOSTLY_CLOUDY,NIGHT_BRIEF_SHOWERS,NIGHT_MOSTLY_CLOUDY,NIGHT_CLEAR,NIGHT_CLEAR,FOG,CLEAR,MOSTLY_CLEAR,CLEAR,CLEAR,CLEAR,CLEAR","Onshore,Cross-shore,Offshore,Offshore,Offshore,Offshore,Offshore,Offshore,Offshore,Cross-shore,Offshore,Onshore,Onshore",13
5842041f4e65fad6a7708822,2024_02_09,33.72309983348433,-118.08078,Anderson Street,2.230769230769231,0.3607692307692308,0.6676923076923077,14.76923076923077,14.76923076923077,"NIGHT_MIST,NIGHT_MOSTLY_CLOUDY,NIGHT_MOSTLY_CLOUDY,NIGHT_CLEAR,NIGHT_BRIEF_SHOWERS,NIGHT_MOSTLY_CLOUDY,FOG,CLEAR,CLEAR,CLEAR,CLEAR,CLEAR,CLEAR","Onshore,Offshore,Offshore,Offshore,Offshore,Offshore,Offshore,Offshore,Offshore,Cross-shore,Offshore,Onshore,Onshore",13
5842041f4e65fad6a7708827,2024_02_09,33.65574085629463,-118.00397,Huntington Beach Pier Northside,2.7053846153846153,0.931574358974359,1.2831666666666666,14,14,"NIGHT_FOG,NIGHT_CLEAR,NIGHT_MOSTLY_CLOUDY,NIGHT_MOSTLY_CLOUDY,NIGHT_CLEAR,NIGHT_MOSTLY_CLEAR,FOG,FOG,CLEAR,MOSTLY_CLOUDY,MOSTLY_CLOUDY,MOSTLY_CLOUDY,CLEAR","Onshore,Offshore,Offshore,Offshore,Offshore,Offshore,Offshore,Offshore,Cross-shore,Cross-shore,Onshore,Cross-shore,Onshore",13
5842041f4e65fad6a7708828,2024_02_09,34.272041739333,-119.2997646331,C St.,2.6538461538461537,0.6400923076923077,0.9427666666666666,14,14,"NIGHT_CLEAR,NIGHT_CLEAR,NIGHT_CLEAR,NIGHT_CLEAR,NIGHT_CLEAR,NIGHT_CLEAR,CLEAR,CLEAR,CLEAR,CLEAR,CLEAR,CLEAR,CLEAR","Offshore,Offshore,Offshore,Offshore,Offshore,Offshore,Offshore,Offshore,Cross-shore,Cross-shore,Onshore,Onshore,Onshore",13
5842041f4e65fad6a770882a,2024_02_09,33.61555743705257,-117.93676,Newport Lower Jetties,2.5,0.6187538461538461,0.9742512820512821,15,15,"NIGHT_FOG,NIGHT_MOSTLY_CLOUDY,NIGHT_MOSTLY_CLOUDY,NIGHT_MOSTLY_CLOUDY,NIGHT_CLEAR,NIGHT_MOSTLY_CLEAR,CLEAR,MOSTLY_CLEAR,MOSTLY_CLEAR,CLEAR,CLEAR,MOSTLY_CLOUDY,OVERCAST","Onshore,Offshore,Offshore,Onshore,Offshore,Offshore,Cross-shore,Offshore,Cross-shore,Onshore,Onshore,Onshore,Onshore",13
5842041f4e65fad6a770882b,2024_02_09,33.5930302087,-117.88199,The Wedge,1.9230769230769231,0.29039,0.7222007692307693,14.76923076923077,14.76923076923077,"NIGHT_FOG,NIGHT_MOSTLY_CLOUDY,NIGHT_MOSTLY_CLOUDY,NIGHT_FOG,NIGHT_HEAVY_SHOWERS,NIGHT_MOSTLY_CLEAR,BRIEF_SHOWERS_POSSIBLE,CLEAR,MOSTLY_CLEAR,MOSTLY_CLOUDY,CLEAR,MOSTLY_CLOUDY,MOSTLY_CLOUDY","Offshore,Offshore,Cross-shore,Onshore,Offshore,Offshore,Offshore,Offshore,Cross-shore,Cross-shore,Onshore,Onshore,Onshore",13
5842041f4e65fad6a770882c,2024_02_09,33.60577342582,-117.9315376281,Newport Beach Pier,2.3715384615384614,0.647151282051282,0.9990769230769231,15,15,"NIGHT_FOG,NIGHT_CLEAR,NIGHT_MOSTLY_CLOUDY,NIGHT_MOSTLY_CLOUDY,NIGHT_CLEAR,NIGHT_CLEAR,CLEAR,CLEAR,MOSTLY_CLEAR,MOSTLY_CLEAR,CLEAR,CLEAR,CLEAR","Cross-shore,Cross-shore,Cross-shore,Cross-shore,Cross-shore,Onshore,Cross-shore,Onshore,Onshore,Cross-shore,Onshore,Onshore,Cross-shore",13
5842041f4e65fad6a770882e,2024_02_09,33.475793399792984,-117.72291,Salt Creek,2.4876923076923076,0.8803871794871795,1.1631897435897436,15,15,"NIGHT_MOSTLY_CLOUDY,NIGHT_MOSTLY_CLOUDY,NIGHT_MOSTLY_CLOUDY,NIGHT_MOSTLY_CLOUDY,NIGHT_MOSTLY_CLOUDY,NIGHT_CLEAR,MOSTLY_CLEAR,CLEAR,BRIEF_SHOWERS,MOSTLY_CLOUDY,MOSTLY_CLOUDY,MOSTLY_CLOUDY,CLEAR","Offshore,Onshore,Onshore,Cross-shore,Onshore,Onshore,Onshore,Onshore,Onshore,Onshore,Onshore,Onshore,Onshore",13
5842041f4e65fad6a7708830,2024_02_09,33.41800974113613,-117.61952,T-Street,2.743846153846154,0.7705692307692308,1.1140307692307692,16,16,"NIGHT_CLEAR,NIGHT_MOSTLY_CLOUDY,NIGHT_CLEAR,NIGHT_MOSTLY_CLOUDY,NIGHT_MOSTLY_CLOUDY,NIGHT_BRIEF_SHOWERS_POSSIBLE,CLEAR,MOSTLY_CLOUDY,BRIEF_SHOWERS,CLEAR,CLEAR,MOSTLY_CLOUDY,MOSTLY_CLOUDY","Offshore,Cross-shore,Cross-shore,Offshore,Offshore,Onshore,Onshore,Onshore,Onshore,Onshore,Onshore,Onshore,Onshore",13
5842041f4e65fad6a7708832,2024_02_09,33.202391008646,-117.39475,Oceanside Harbor,2.230769230769231,0.7866435897435897,1.1445205128205127,16,16,"NIGHT_CLEAR,NIGHT_FOG,NIGHT_SHOWERS,NIGHT_MOSTLY_CLEAR,NIGHT_CLEAR,NIGHT_MOSTLY_CLEAR,BRIEF_SHOWERS,MOSTLY_CLOUDY,CLEAR,MOSTLY_CLOUDY,MOSTLY_CLOUDY,MOSTLY_CLOUDY,CLEAR","Onshore,Onshore,Onshore,Cross-shore,Onshore,Cross-shore,Onshore,Onshore,Onshore,Onshore,Onshore,Onshore,Onshore",13
5842041f4e65fad6a7708835,2024_02_09,33.19477795952803,-117.38667,Oceanside Pier,2.230769230769231,0.8407461538461538,1.145451282051282,16,16,"NIGHT_MOSTLY_CLOUDY,NIGHT_CLEAR,NIGHT_MOSTLY_CLOUDY,NIGHT_MOSTLY_CLEAR,NIGHT_CLEAR,NIGHT_MOSTLY_CLEAR,FOG,MOSTLY_CLOUDY,MIST,CLEAR,MOSTLY_CLOUDY,MOSTLY_CLOUDY,CLEAR","Onshore,Onshore,Onshore,Cross-shore,Onshore,Cross-shore,Onshore,Onshore,Onshore,Onshore,Onshore,Onshore,Onshore",13
5842041f4e65fad6a7708837,2024_02_09,33.14948100706,-117.35029,Tamarack,2.3076923076923075,0.38153846153846155,0.6853846153846154,15,15,"NIGHT_BRIEF_SHOWERS,NIGHT_CLEAR,NIGHT_MOSTLY_CLOUDY,NIGHT_MOSTLY_CLEAR,NIGHT_MOSTLY_CLEAR,NIGHT_CLEAR,FOG,CLEAR,MOSTLY_CLOUDY,MOSTLY_CLOUDY,MOSTLY_CLOUDY,MOSTLY_CLOUDY,CLEAR","Onshore,Onshore,Onshore,Cross-shore,Cross-shore,Offshore,Onshore,Onshore,Onshore,Onshore,Onshore,Onshore,Onshore",13
5842041f4e65fad6a7708839,2024_02_09,32.865777159358856,-117.25614295356122,Scripps,2.1538461538461537,0.969225641025641,1.2790307692307692,14,14,"NIGHT_MOSTLY_CLOUDY,NIGHT_CLEAR,NIGHT_MOSTLY_CLOUDY,NIGHT_MOSTLY_CLOUDY,NIGHT_MOSTLY_CLOUDY,NIGHT_BRIEF_SHOWERS,SHOWERS,BRIEF_SHOWERS,MOSTLY_CLOUDY,CLEAR,MOSTLY_CLEAR,MOSTLY_CLEAR,CLEAR","Onshore,Onshore,Onshore,Onshore,Onshore,Cross-shore,Onshore,Onshore,Onshore,Onshore,Onshore,Onshore,Onshore",13
5842041f4e65fad6a770883a,2024_02_09,32.813094,-117.27381,Birdrock,2.923076923076923,1.0815384615384616,1.3253846153846154,15,15,"NIGHT_MOSTLY_CLOUDY,NIGHT_MOSTLY_CLOUDY,NIGHT_CLEAR,NIGHT_FOG,NIGHT_MOSTLY_CLOUDY,NIGHT_FOG,MOSTLY_CLOUDY,MIST,MOSTLY_CLOUDY,MOSTLY_CLOUDY,BRIEF_SHOWERS,CLEAR,MOSTLY_CLOUDY","Onshore,Offshore,Offshore,Offshore,Offshore,Offshore,Offshore,Cross-shore,Cross-shore,Onshore,Onshore,Onshore,Onshore",13
5842041f4e65fad6a770883b,2024_02_09,32.877231,-117.25303,Blacks,2.4484615384615385,1.2862871794871795,1.7716794871794872,14,14,"NIGHT_MOSTLY_CLOUDY,NIGHT_CLEAR,NIGHT_MOSTLY_CLOUDY,NIGHT_MOSTLY_CLOUDY,NIGHT_MOSTLY_CLOUDY,NIGHT_BRIEF_SHOWERS,SHOWERS,BRIEF_SHOWERS,MOSTLY_CLOUDY,CLEAR,MOSTLY_CLEAR,MOSTLY_CLEAR,CLEAR","Onshore,Onshore,Onshore,Onshore,Onshore,Onshore,Onshore,Onshore,Onshore,Onshore,Onshore,Onshore,Onshore",13
5842041f4e65fad6a770883c,2024_02_09,32.82978974229765,-117.28161740727381,Windansea,1.8715384615384616,1.0815333333333335,1.5123051282051283,14,14,"NIGHT_MOSTLY_CLOUDY,NIGHT_MOSTLY_CLOUDY,NIGHT_MOSTLY_CLOUDY,NIGHT_MOSTLY_CLOUDY,NIGHT_MOSTLY_CLOUDY,NIGHT_FOG,FOG,MOSTLY_CLOUDY,MOSTLY_CLOUDY,CLEAR,MOSTLY_CLEAR,MOSTLY_CLEAR,MOSTLY_CLOUDY","Onshore,Onshore,Onshore,Onshore,Onshore,Onshore,Onshore,Onshore,Onshore,Onshore,Onshore,Onshore,Onshore",13
5842041f4e65fad6a770883d,2024_02_09,32.838278,-117.28396,Horseshoe,3,1.2007692307692308,1.4676923076923076,15,15,"NIGHT_MOSTLY_CLOUDY,NIGHT_MOSTLY_CLOUDY,NIGHT_MOSTLY_CLOUDY,NIGHT_MOSTLY_CLOUDY,NIGHT_MOSTLY_CLOUDY,NIGHT_FOG,FOG,MOSTLY_CLOUDY,MOSTLY_CLOUDY,CLEAR,MOSTLY_CLEAR,MOSTLY_CLEAR,MOSTLY_CLOUDY","Onshore,Offshore,Offshore,Offshore,Offshore,Offshore,Offshore,Offshore,Offshore,Onshore,Onshore,Onshore,Onshore",13
5842041f4e65fad6a770883f,2024_02_09,32.75034717673179,-117.25337,Ocean Beach,2.076923076923077,1.3153897435897437,1.6162897435897436,14,14,"NIGHT_MOSTLY_CLOUDY,NIGHT_MOSTLY_CLOUDY,NIGHT_CLEAR,NIGHT_CLEAR,NIGHT_MOSTLY_CLOUDY,NIGHT_FOG,MOSTLY_CLOUDY,BRIEF_SHOWERS,BRIEF_SHOWERS,BRIEF_SHOWERS,CLEAR,CLEAR,MOSTLY_CLOUDY","Onshore,Onshore,Onshore,Onshore,Onshore,Cross-shore,Onshore,Onshore,Onshore,Onshore,Onshore,Onshore,Onshore",13
5842041f4e65fad6a7708840,2024_02_09,32.73693,-117.25718,Sunset Cliffs,2.1538461538461537,1.1938461538461538,1.4561538461538461,15,15,"NIGHT_MOSTLY_CLOUDY,NIGHT_FOG,NIGHT_MOSTLY_CLOUDY,NIGHT_CLEAR,NIGHT_MOSTLY_CLOUDY,NIGHT_MOSTLY_CLOUDY,MOSTLY_CLOUDY,BRIEF_SHOWERS,MIST,BRIEF_SHOWERS,MOSTLY_CLOUDY,CLEAR,MOSTLY_CLOUDY","Onshore,Onshore,Onshore,Onshore,Onshore,Cross-shore,Onshore,Onshore,Onshore,Onshore,Onshore,Onshore,Onshore",13
5842041f4e65fad6a7708841,2024_02_09,32.796582258728826,-117.25779,Pacific Beach,2.4615384615384617,1.2126333333333335,1.5240461538461538,14,14,"NIGHT_MOSTLY_CLOUDY,NIGHT_CLEAR,NIGHT_CLEAR,NIGHT_MOSTLY_CLOUDY,NIGHT_CLEAR,NIGHT_FOG,MOSTLY_CLOUDY,MIST,MOSTLY_CLOUDY,BRIEF_SHOWERS,MOSTLY_CLOUDY,CLEAR,MOSTLY_CLOUDY","Onshore,Offshore,Offshore,Offshore,Offshore,Offshore,Cross-shore,Offshore,Cross-shore,Onshore,Onshore,Onshore,Onshore",13
5842041f4e65fad6a7708842,2024_02_09,32.776636,-117.25514,Mission Beach,2.3846153846153846,1.1786589743589744,1.4927641025641027,14,14,"NIGHT_MOSTLY_CLOUDY,NIGHT_CLEAR,NIGHT_CLEAR,NIGHT_MOSTLY_CLOUDY,NIGHT_CLEAR,NIGHT_FOG,MOSTLY_CLOUDY,MIST,MOSTLY_CLOUDY,BRIEF_SHOWERS,MOSTLY_CLOUDY,CLEAR,MOSTLY_CLOUDY","Onshore,Offshore,Offshore,Offshore,Offshore,Offshore,Offshore,Offshore,Offshore,Onshore,Onshore,Onshore,Onshore",13
5842041f4e65fad6a7708844,2024_02_09,32.577195519016,-117.13475,Imperial Beach Pier,2.6923076923076925,1.303076923076923,1.5569230769230769,15,15,"NIGHT_MOSTLY_CLOUDY,NIGHT_MOSTLY_CLOUDY,NIGHT_CLEAR,NIGHT_OVERCAST,NIGHT_FOG,NIGHT_FOG,MOSTLY_CLOUDY,MIST,MIST,SHOWERS,CLEAR,CLEAR,MOSTLY_CLEAR","Onshore,Onshore,Onshore,Onshore,Onshore,Offshore,Onshore,Onshore,Onshore,Onshore,Onshore,Onshore,Onshore",13
5842041f4e65fad6a770884a,2024_02_09,42.88678181061,-70.80843,Seabrook,1.5,0.5653171794871795,0.9077314102564102,5,4,"NIGHT_CLEAR,NIGHT_CLEAR,NIGHT_CLEAR,CLEAR,CLEAR,CLEAR,CLEAR,CLEAR,CLEAR,CLEAR,CLEAR,CLEAR,CLEAR","Offshore,Cross-shore,Cross-shore,Cross-shore,Cross-shore,Cross-shore,Cross-shore,Cross-shore,Cross-shore,Cross-shore,Cross-shore,Cross-shore,Cross-shore",13
5842041f4e65fad6a770884e,2024_02_09,41.434181432898335,-71.45312118111178,Narragansett,1.8076923076923077,0.42822564102564104,0.7332358974358975,7,6,"NIGHT_CLEAR,NIGHT_CLEAR,NIGHT_CLEAR,CLEAR,CLEAR,BRIEF_SHOWERS_POSSIBLE,CLEAR,CLEAR,CLEAR,OVERCAST,OVERCAST,OVERCAST,OVERCAST","Onshore,Onshore,Onshore,Onshore,Onshore,Onshore,Onshore,Onshore,Onshore,Onshore,Onshore,Onshore,Onshore",13
5842041f4e65fad6a7708850,2024_02_09,40.582703230722,-73.65247,Lincoln Blvd,1.0646153846153845,0.45951794871794877,0.7612025641025641,7,6,"NIGHT_CLEAR,NIGHT_CLEAR,NIGHT_CLEAR,CLEAR,CLEAR,CLOUDY,MIST,MIST,MIST,MIST,MIST,MIST,MIST","Onshore,Onshore,Onshore,Onshore,Onshore,Onshore,Onshore,Onshore,Onshore,Onshore,Onshore,Onshore,Onshore",13
5842041f4e65fad6a7708852,2024_02_09,40.58342841721757,-73.81182,Rockaways,1.2946153846153847,0.6075871794871796,1.0586846153846154,7,6,"NIGHT_CLEAR,NIGHT_CLEAR,NIGHT_MIST,CLEAR,CLEAR,MIST,MIST,CLEAR,CLEAR,MIST,MIST,BRIEF_SHOWERS,BRIEF_SHOWERS","Onshore,Onshore,Onshore,Onshore,Onshore,Onshore,Onshore,Onshore,Onshore,Onshore,Onshore,Onshore,Onshore",13
5842041f4e65fad6a7708853,2024_02_09,40.330474,-73.9734,Monmouth Beach,1.1538461538461537,0.5359179487179487,0.9308051282051282,6,5,"NIGHT_CLEAR,NIGHT_CLEAR,NIGHT_CLEAR,CLEAR,CLOUDY,CLOUDY,CLEAR,CLOUDY,CLEAR,CLEAR,CLEAR,CLEAR,CLEAR","Cross-shore,Cross-shore,Cross-shore,Cross-shore,Cross-shore,Cross-shore,Cross-shore,Cross-shore,Cross-shore,Cross-shore,Cross-shore,Cross-shore,Cross-shore",13
5842041f4e65fad6a7708856,2024_02_09,40.113,-74.028,Manasquan Inlet,1.9807692307692308,0.9138871794871795,1.2251743589743591,6,5,"NIGHT_CLEAR,NIGHT_CLEAR,NIGHT_CLEAR,CLOUDY,CLOUDY,CLOUDY,CLEAR,CLEAR,CLEAR,MOSTLY_CLEAR,CLEAR,MOSTLY_CLEAR,MIST","Cross-shore,Cross-shore,Cross-shore,Cross-shore,Cross-shore,Cross-shore,Cross-shore,Cross-shore,Cross-shore,Cross-shore,Cross-shore,Cross-shore,Cross-shore",13
5842041f4e65fad6a7708857,2024_02_09,39.941519877445664,-74.06829,Casino Pier,1.4423076923076923,0.9151692307692307,1.4064974358974358,6,5,"NIGHT_CLEAR,NIGHT_CLEAR,NIGHT_CLEAR,CLOUDY,MIST,MIST,MIST,CLEAR,CLEAR,CLEAR,CLEAR,CLEAR,CLEAR","Cross-shore,Cross-shore,Cross-shore,Onshore,Cross-shore,Cross-shore,Cross-shore,Cross-shore,Cross-shore,Cross-shore,Cross-shore,Cross-shore,Cross-shore",13
5842041f4e65fad6a7708858,2024_02_09,39.28223089949212,-74.55766,North End OC,1.0646153846153845,0.7840102564102565,1.154697435897436,6,5,"NIGHT_CLEAR,NIGHT_CLOUDY,NIGHT_MIST,MIST,MIST,MIST,MIST,MIST,BRIEF_SHOWERS,BRIEF_SHOWERS,BRIEF_SHOWERS,BRIEF_SHOWERS,MIST","Onshore,Onshore,Onshore,Onshore,Onshore,Onshore,Onshore,Onshore,Onshore,Onshore,Onshore,Onshore,Onshore",13
5842041f4e65fad6a770885b,2024_02_09,39.65080599934257,-74.17146,Ship Bottom,1.0646153846153845,0.9126435897435897,1.3426615384615384,6,5,"NIGHT_CLEAR,NIGHT_CLEAR,NIGHT_CLOUDY,CLOUDY,MIST,MIST,MIST,MIST,MIST,MIST,BRIEF_SHOWERS,MIST,MIST","Onshore,Cross-shore,Onshore,Onshore,Onshore,Onshore,Onshore,Onshore,Cross-shore,Onshore,Onshore,Onshore,Cross-shore",13
5842041f4e65fad6a7708863,2024_02_09,36.034151543144,-75.66791,Third Street,3.1538461538461537,0.9927769230769231,1.3772102564102564,8,5,"NIGHT_MIST,NIGHT_MIST,NIGHT_MIST,MIST,CLEAR,CLEAR,CLEAR,CLEAR,CLEAR,CLEAR,CLEAR,CLEAR,CLEAR","Cross-shore,Offshore,Offshore,Offshore,Offshore,Offshore,Offshore,Offshore,Offshore,Offshore,Offshore,Offshore,Offshore",13
5842041f4e65fad6a7708867,2024_02_09,35.605833221351425,-75.46303,S-Turns,3.4492307692307693,1.2159948717948719,1.8720051282051282,10,8,"NIGHT_MIST,NIGHT_MIST,NIGHT_MIST,MIST,MIST,MIST,CLEAR,CLEAR,CLEAR,CLEAR,CLEAR,CLEAR,CLEAR","Onshore,Offshore,Offshore,Offshore,Offshore,Offshore,Cross-shore,Offshore,Cross-shore,Cross-shore,Offshore,Offshore,Offshore",13
5842041f4e65fad6a770886d,2024_02_09,38.338461,-75.08117,Ocean City Boardwalk,1.0646153846153845,0.911348717948718,1.2600358974358974,7,5,"NIGHT_MIST,NIGHT_MIST,NIGHT_MIST,MIST,MIST,MIST,MIST,MIST,MIST,CLEAR,CLEAR,CLEAR,CLEAR","Cross-shore,Cross-shore,Cross-shore,Cross-shore,Cross-shore,Offshore,Offshore,Cross-shore,Cross-shore,Offshore,Cross-shore,Cross-shore,Cross-shore",13
5842041f4e65fad6a770886f,2024_02_09,29.844757212379562,-81.26136,A St.,3,0.8223076923076923,1.1053846153846154,13,13,"NIGHT_MIST,NIGHT_MIST,NIGHT_MOSTLY_CLOUDY,NIGHT_MIST,MIST,MIST,CLEAR,CLEAR,MIST,MIST,MIST,MIST,MIST","Onshore,Offshore,Offshore,Cross-shore,Offshore,Offshore,Onshore,Onshore,Onshore,Onshore,Onshore,Onshore,Onshore",13
5842041f4e65fad6a7708871,2024_02_09,29.069417851135093,-80.90824,New Smyrna Beach,1.8907692307692308,1.3000384615384615,1.9029846153846153,17,15,"NIGHT_MIST,NIGHT_MIST,NIGHT_DRIZZLE,NIGHT_MIST,BRIEF_SHOWERS,MIST,CLEAR,CLEAR,MIST,MIST,BRIEF_SHOWERS_POSSIBLE,MIST,MIST","Cross-shore,Cross-shore,Onshore,Onshore,Onshore,Cross-shore,Onshore,Onshore,Cross-shore,Onshore,Onshore,Onshore,Onshore",13
5842041f4e65fad6a7708872,2024_02_09,28.367707417566,-80.60171,Cocoa Beach Pier,2.5053846153846155,0.8823358974358975,1.2181358974358976,18,17,"NIGHT_MIST,NIGHT_OVERCAST,NIGHT_OVERCAST,NIGHT_OVERCAST,MOSTLY_CLOUDY,MOSTLY_CLOUDY,OVERCAST,MOSTLY_CLOUDY,CLEAR,CLEAR,CLEAR,CLEAR,CLEAR","Offshore,Onshore,Onshore,Onshore,Onshore,Onshore,Onshore,Onshore,Onshore,Onshore,Onshore,Onshore,Onshore",13
5842041f4e65fad6a7708873,2024_02_09,28.091782738658846,-80.56479,Indialantic,2.5253846153846156,1.2113820512820515,1.4883538461538461,19,18,"NIGHT_CLEAR,NIGHT_CLEAR,NIGHT_MOSTLY_CLOUDY,NIGHT_MOSTLY_CLOUDY,CLEAR,CLEAR,MOSTLY_CLOUDY,MOSTLY_CLOUDY,MOSTLY_CLOUDY,MOSTLY_CLEAR,CLEAR,MOSTLY_CLOUDY,CLEAR","Onshore,Onshore,Onshore,Onshore,Onshore,Onshore,Onshore,Onshore,Onshore,Onshore,Onshore,Onshore,Onshore",13
5842041f4e65fad6a7708876,2024_02_09,27.25392904143517,-80.19455,Jensen Beach,1.7107692307692308,1.0981769230769232,1.4295076923076924,22,21,"NIGHT_BRIEF_SHOWERS,NIGHT_OVERCAST,NIGHT_CLOUDY,NIGHT_CLEAR,MOSTLY_CLOUDY,CLEAR,MOSTLY_CLOUDY,MOSTLY_CLOUDY,MOSTLY_CLOUDY,MOSTLY_CLOUDY,MOSTLY_CLOUDY,MOSTLY_CLOUDY,MOSTLY_CLOUDY","Onshore,Onshore,Onshore,Onshore,Onshore,Onshore,Onshore,Onshore,Onshore,Onshore,Onshore,Onshore,Onshore",13
5842041f4e65fad6a7708879,2024_02_09,26.76346795333825,-80.0360655784607,Reef Road,1.4607692307692308,0.8716256410256411,1.1710128205128205,24,22,"NIGHT_MOSTLY_CLOUDY,NIGHT_OVERCAST,NIGHT_OVERCAST,NIGHT_MOSTLY_CLOUDY,MOSTLY_CLOUDY,MOSTLY_CLOUDY,MOSTLY_CLOUDY,OVERCAST,OVERCAST,OVERCAST,OVERCAST,MOSTLY_CLOUDY,OVERCAST","Onshore,Onshore,Onshore,Onshore,Onshore,Onshore,Onshore,Onshore,Onshore,Onshore,Onshore,Onshore,Onshore",13
5842041f4e65fad6a770887c,2024_02_09,26.336499228484,-80.06956100463,Boca Raton Inlet,0.5638461538461539,0.37696666666666667,0.6797025641025641,24,22,"NIGHT_MOSTLY_CLOUDY,NIGHT_MOSTLY_CLOUDY,NIGHT_MOSTLY_CLOUDY,MOSTLY_CLOUDY,MOSTLY_CLOUDY,MOSTLY_CLOUDY,OVERCAST,OVERCAST,CLOUDY,OVERCAST,MOSTLY_CLOUDY,OVERCAST,MOSTLY_CLOUDY","Onshore,Onshore,Onshore,Onshore,Onshore,Onshore,Onshore,Onshore,Onshore,Onshore,Onshore,Onshore,Onshore",13
5842041f4e65fad6a770887d,2024_02_09,26.31719311695038,-80.07452525176168,Deerfield Beach Pier,0.5638461538461539,-0.013887628205128224,0.2363026923076923,24,23,"NIGHT_MOSTLY_CLOUDY,NIGHT_BRIEF_SHOWERS,NIGHT_MOSTLY_CLOUDY,MOSTLY_CLOUDY,MOSTLY_CLOUDY,MOSTLY_CLOUDY,MOSTLY_CLOUDY,OVERCAST,CLOUDY,OVERCAST,MOSTLY_CLOUDY,OVERCAST,MOSTLY_CLOUDY","Onshore,Onshore,Onshore,Onshore,Onshore,Onshore,Onshore,Onshore,Onshore,Onshore,Onshore,Onshore,Onshore",13
5842041f4e65fad6a7708881,2024_02_09,30.20276320866628,-85.85626528676136,"Spyglass Dr., Panama City",0.7561538461538462,0.07346153846153847,0.37385641025641025,16,14,"NIGHT_MIST,NIGHT_MIST,NIGHT_MIST,NIGHT_MIST,MIST,MIST,CLEAR,CLEAR,CLEAR,CLEAR,CLEAR,CLOUDY,CLEAR","Onshore,Cross-shore,Onshore,Cross-shore,Cross-shore,Cross-shore,Cross-shore,Cross-shore,Onshore,Onshore,Onshore,Onshore,Onshore",13
5842041f4e65fad6a7708884,2024_02_09,33.39000832738053,-117.59852,Cottons,2.923076923076923,0.7697358974358974,1.1074282051282052,16,16,"NIGHT_CLEAR,NIGHT_MOSTLY_CLOUDY,NIGHT_MOSTLY_CLOUDY,NIGHT_MOSTLY_CLOUDY,NIGHT_CLEAR,NIGHT_HEAVY_SHOWERS,MIST,MOSTLY_CLOUDY,MOSTLY_CLOUDY,MOSTLY_CLEAR,CLEAR,MIST,MOSTLY_CLOUDY","Offshore,Offshore,Offshore,Offshore,Offshore,Cross-shore,Offshore,Offshore,Offshore,Cross-shore,Offshore,Offshore,Cross-shore",13
5842041f4e65fad6a7708885,2024_02_09,33.359416282661,-117.54167901405711,Trails,2.6153846153846154,0.5584615384615385,0.8638461538461538,15,15,"NIGHT_MOSTLY_CLEAR,NIGHT_MOSTLY_CLOUDY,NIGHT_MOSTLY_CLOUDY,NIGHT_MOSTLY_CLEAR,NIGHT_MOSTLY_CLOUDY,NIGHT_SHOWERS,MOSTLY_CLOUDY,MOSTLY_CLOUDY,MOSTLY_CLOUDY,MOSTLY_CLEAR,MIST,BRIEF_SHOWERS,MOSTLY_CLOUDY","Offshore,Offshore,Offshore,Offshore,Offshore,Offshore,Offshore,Offshore,Cross-shore,Offshore,Offshore,Offshore,Onshore",13
5842041f4e65fad6a7708886,2024_02_09,33.38042605929805,-117.58332,Middles,2.397692307692308,0.5618846153846154,0.9241333333333334,16,16,"NIGHT_CLEAR,NIGHT_MOSTLY_CLOUDY,NIGHT_MOSTLY_CLOUDY,NIGHT_MOSTLY_CLOUDY,NIGHT_CLEAR,NIGHT_HEAVY_SHOWERS,MOSTLY_CLOUDY,MOSTLY_CLOUDY,MOSTLY_CLOUDY,MOSTLY_CLEAR,CLEAR,MIST,MOSTLY_CLOUDY","Offshore,Offshore,Offshore,Offshore,Offshore,Offshore,Offshore,Offshore,Offshore,Offshore,Offshore,Offshore,Cross-shore",13
5842041f4e65fad6a7708887,2024_02_09,33.38445596302903,-117.59445,Upper Trestles,3,0.7319153846153846,1.0698,16,16,"NIGHT_CLEAR,NIGHT_MOSTLY_CLOUDY,NIGHT_MOSTLY_CLOUDY,NIGHT_MOSTLY_CLOUDY,NIGHT_CLEAR,NIGHT_HEAVY_SHOWERS,MOSTLY_CLOUDY,MOSTLY_CLOUDY,MOSTLY_CLOUDY,MOSTLY_CLEAR,CLEAR,MIST,MOSTLY_CLOUDY","Offshore,Offshore,Offshore,Offshore,Offshore,Offshore,Offshore,Offshore,Offshore,Offshore,Offshore,Offshore,Onshore",13
5842041f4e65fad6a7708889,2024_02_09,28.944414,-95.28883,Surfside,2,0.7976407692307692,1.2463146153846154,14,14,"NIGHT_MIST,NIGHT_MIST,NIGHT_MIST,NIGHT_MIST,NIGHT_MIST,MIST,MIST,BRIEF_SHOWERS,MIST,MIST,BRIEF_SHOWERS,MIST,MIST","Onshore,Onshore,Onshore,Onshore,Onshore,Onshore,Onshore,Onshore,Onshore,Onshore,Onshore,Onshore,Onshore",13
5842041f4e65fad6a770888a,2024_02_09,33.38143999849023,-117.58843,Lower Trestles,3.166923076923077,0.7363358974358974,1.100828205128205,16,16,"NIGHT_CLEAR,NIGHT_MOSTLY_CLOUDY,NIGHT_MOSTLY_CLOUDY,NIGHT_MOSTLY_CLOUDY,NIGHT_CLEAR,NIGHT_HEAVY_SHOWERS,MOSTLY_CLOUDY,MOSTLY_CLOUDY,MOSTLY_CLOUDY,MOSTLY_CLEAR,CLEAR,MIST,MOSTLY_CLOUDY","Offshore,Offshore,Offshore,Offshore,Offshore,Offshore,Offshore,Offshore,Offshore,Offshore,Offshore,Offshore,Onshore",13
5842041f4e65fad6a770888b,2024_02_09,33.379622288757,-117.57894,Church,2.397692307692308,0.5702820512820513,0.9363769230769231,16,16,"NIGHT_CLEAR,NIGHT_MOSTLY_CLOUDY,NIGHT_MOSTLY_CLOUDY,NIGHT_MOSTLY_CLOUDY,NIGHT_CLEAR,NIGHT_HEAVY_SHOWERS,MOSTLY_CLOUDY,MOSTLY_CLOUDY,MOSTLY_CLOUDY,MOSTLY_CLEAR,CLEAR,MIST,MOSTLY_CLOUDY","Offshore,Offshore,Offshore,Offshore,Offshore,Offshore,Offshore,Offshore,Offshore,Cross-shore,Offshore,Offshore,Cross-shore",13
5842041f4e65fad6a770888d,2024_02_09,21.679,-158.042,Sunset Beach,3.6538461538461537,1.2191025641025641,1.5647435897435897,26,25,"NIGHT_MOSTLY_CLEAR,NIGHT_SHOWERS,NIGHT_CLEAR,NIGHT_BRIEF_SHOWERS,NIGHT_BRIEF_SHOWERS,NIGHT_CLEAR,NIGHT_SHOWERS,NIGHT_BRIEF_SHOWERS,CLEAR,CLEAR,MOSTLY_CLEAR,CLEAR,MOSTLY_CLEAR","Cross-shore,Offshore,Offshore,Cross-shore,Offshore,Cross-shore,Offshore,Cross-shore,Offshore,Offshore,Cross-shore,Offshore,Offshore",13
5842041f4e65fad6a770888e,2024_02_09,21.670550036401,-158.0482,Rocky Point,3.3461538461538463,1.2102564102564104,1.5221794871794871,26,25,"NIGHT_SHOWERS,NIGHT_BRIEF_SHOWERS,NIGHT_MOSTLY_CLEAR,NIGHT_MOSTLY_CLOUDY,NIGHT_BRIEF_SHOWERS,NIGHT_CLEAR,NIGHT_BRIEF_SHOWERS,NIGHT_CLEAR,CLEAR,MOSTLY_CLEAR,MOSTLY_CLEAR,CLEAR,MOSTLY_CLEAR","Cross-shore,Offshore,Offshore,Cross-shore,Cross-shore,Offshore,Offshore,Cross-shore,Offshore,Offshore,Offshore,Cross-shore,Offshore",13
5842041f4e65fad6a770888f,2024_02_09,21.668,-158.05,Chambers,3.3846153846153846,1.1946153846153846,1.456923076923077,24,24,"NIGHT_SHOWERS,NIGHT_BRIEF_SHOWERS,NIGHT_MOSTLY_CLEAR,NIGHT_MOSTLY_CLOUDY,NIGHT_BRIEF_SHOWERS,NIGHT_CLEAR,NIGHT_BRIEF_SHOWERS,NIGHT_CLEAR,CLEAR,MOSTLY_CLEAR,MOSTLY_CLEAR,CLEAR,MOSTLY_CLEAR","Cross-shore,Offshore,Offshore,Cross-shore,Cross-shore,Cross-shore,Cross-shore,Cross-shore,Offshore,Offshore,Cross-shore,Cross-shore,Offshore",13
5842041f4e65fad6a7708890,2024_02_09,21.66522,-158.0526,Pipeline,2,1.1553846153846155,1.4126923076923077,26,25,"NIGHT_SHOWERS,NIGHT_BRIEF_SHOWERS,NIGHT_MOSTLY_CLEAR,NIGHT_MOSTLY_CLOUDY,NIGHT_BRIEF_SHOWERS,NIGHT_CLEAR,NIGHT_BRIEF_SHOWERS,NIGHT_CLEAR,CLEAR,MOSTLY_CLEAR,MOSTLY_CLEAR,CLEAR,MOSTLY_CLEAR","Cross-shore,Offshore,Offshore,Cross-shore,Cross-shore,Offshore,Offshore,Offshore,Offshore,Offshore,Offshore,Cross-shore,Offshore",13
5842041f4e65fad6a7708891,2024_02_09,21.665,-158.054,Backdoor,3.166923076923077,1.1553846153846155,1.4126923076923077,26,25,"NIGHT_SHOWERS,NIGHT_BRIEF_SHOWERS,NIGHT_MOSTLY_CLEAR,NIGHT_MOSTLY_CLOUDY,NIGHT_BRIEF_SHOWERS,NIGHT_CLEAR,NIGHT_BRIEF_SHOWERS,NIGHT_CLEAR,CLEAR,MOSTLY_CLEAR,MOSTLY_CLEAR,CLEAR,MOSTLY_CLEAR","Cross-shore,Offshore,Offshore,Cross-shore,Cross-shore,Offshore,Cross-shore,Offshore,Offshore,Offshore,Offshore,Offshore,Offshore",13
5842041f4e65fad6a7708892,2024_02_09,21.662,-158.057,Rockpile,3.923076923076923,1.3346153846153845,1.5615384615384615,24,24,"NIGHT_SHOWERS,NIGHT_BRIEF_SHOWERS,NIGHT_MOSTLY_CLEAR,NIGHT_MOSTLY_CLOUDY,NIGHT_BRIEF_SHOWERS,NIGHT_CLEAR,NIGHT_BRIEF_SHOWERS,NIGHT_CLEAR,CLEAR,MOSTLY_CLEAR,MOSTLY_CLEAR,CLEAR,MOSTLY_CLEAR","Cross-shore,Offshore,Offshore,Offshore,Cross-shore,Offshore,Cross-shore,Cross-shore,Offshore,Offshore,Offshore,Cross-shore,Offshore",13
5842041f4e65fad6a7708893,2024_02_09,21.65870453806827,-158.06058,Log Cabins,3.076923076923077,1.0338461538461539,1.2446153846153847,24,24,"NIGHT_SHOWERS,NIGHT_BRIEF_SHOWERS,NIGHT_MOSTLY_CLEAR,NIGHT_MOSTLY_CLOUDY,NIGHT_BRIEF_SHOWERS,NIGHT_CLEAR,NIGHT_BRIEF_SHOWERS,NIGHT_CLEAR,CLEAR,MOSTLY_CLEAR,MOSTLY_CLEAR,CLEAR,MOSTLY_CLEAR","Cross-shore,Offshore,Offshore,Cross-shore,Cross-shore,Offshore,Cross-shore,Offshore,Offshore,Offshore,Offshore,Cross-shore,Offshore",13
5842041f4e65fad6a7708894,2024_02_09,21.66203493640557,-158.05495,Off-The-Wall,3.923076923076923,1.3392307692307692,1.5615384615384615,24,24,"NIGHT_SHOWERS,NIGHT_BRIEF_SHOWERS,NIGHT_MOSTLY_CLEAR,NIGHT_MOSTLY_CLOUDY,NIGHT_BRIEF_SHOWERS,NIGHT_CLEAR,NIGHT_BRIEF_SHOWERS,NIGHT_CLEAR,CLEAR,MOSTLY_CLEAR,MOSTLY_CLEAR,CLEAR,MOSTLY_CLEAR","Cross-shore,Offshore,Offshore,Offshore,Cross-shore,Cross-shore,Cross-shore,Offshore,Offshore,Offshore,Offshore,Cross-shore,Offshore",13
5842041f4e65fad6a7708895,2024_02_09,21.643,-158.067,Waimea Bay,NA,1.156025641025641,1.5325641025641026,26,25,"NIGHT_SHOWERS,NIGHT_BRIEF_SHOWERS,NIGHT_MOSTLY_CLEAR,NIGHT_MOSTLY_CLOUDY,NIGHT_BRIEF_SHOWERS,NIGHT_CLEAR,NIGHT_BRIEF_SHOWERS,NIGHT_CLEAR,CLEAR,MOSTLY_CLEAR,MOSTLY_CLEAR,CLEAR,MOSTLY_CLEAR","Offshore,Offshore,Offshore,Cross-shore,Cross-shore,Offshore,Offshore,Offshore,Offshore,Offshore,Offshore,Offshore,Offshore",13
5842041f4e65fad6a7708896,2024_02_09,21.622,-158.087,Hultin's,3.730769230769231,1.217948717948718,1.5194871794871794,26,25,"NIGHT_MOSTLY_CLEAR,NIGHT_MOSTLY_CLEAR,NIGHT_MOSTLY_CLEAR,NIGHT_MOSTLY_CLOUDY,NIGHT_MOSTLY_CLOUDY,NIGHT_MOSTLY_CLEAR,NIGHT_MOSTLY_CLEAR,NIGHT_CLEAR,CLEAR,MOSTLY_CLEAR,CLEAR,CLEAR,MOSTLY_CLEAR","Offshore,Offshore,Offshore,Offshore,Offshore,Offshore,Offshore,Offshore,Offshore,Offshore,Offshore,Offshore,Offshore",13
5842041f4e65fad6a7708897,2024_02_09,21.623,-158.085,Jocko's,3,1.0723076923076924,1.3307692307692307,24,24,"NIGHT_MOSTLY_CLEAR,NIGHT_MOSTLY_CLEAR,NIGHT_MOSTLY_CLEAR,NIGHT_MOSTLY_CLOUDY,NIGHT_MOSTLY_CLOUDY,NIGHT_MOSTLY_CLEAR,NIGHT_MOSTLY_CLEAR,NIGHT_CLEAR,CLEAR,MOSTLY_CLEAR,CLEAR,CLEAR,MOSTLY_CLEAR","Onshore,Cross-shore,Cross-shore,Cross-shore,Cross-shore,Cross-shore,Cross-shore,Cross-shore,Cross-shore,Cross-shore,Cross-shore,Cross-shore,Onshore",13
5842041f4e65fad6a7708898,2024_02_09,21.62,-158.088,Laniakea,3,1.034871794871795,1.2816666666666667,26,25,"NIGHT_MOSTLY_CLEAR,NIGHT_MOSTLY_CLEAR,NIGHT_MOSTLY_CLEAR,NIGHT_MOSTLY_CLOUDY,NIGHT_MOSTLY_CLOUDY,NIGHT_MOSTLY_CLEAR,NIGHT_MOSTLY_CLEAR,NIGHT_CLEAR,CLEAR,MOSTLY_CLEAR,CLEAR,CLEAR,MOSTLY_CLEAR","Cross-shore,Offshore,Offshore,Offshore,Offshore,Offshore,Offshore,Offshore,Offshore,Offshore,Offshore,Offshore,Cross-shore",13
5842041f4e65fad6a7708899,2024_02_09,21.625,-158.083,Chun's,3.4615384615384617,1.1292307692307693,1.393846153846154,24,24,"NIGHT_MOSTLY_CLEAR,NIGHT_MOSTLY_CLEAR,NIGHT_MOSTLY_CLEAR,NIGHT_MOSTLY_CLOUDY,NIGHT_MOSTLY_CLOUDY,NIGHT_MOSTLY_CLEAR,NIGHT_MOSTLY_CLEAR,NIGHT_CLEAR,CLEAR,MOSTLY_CLEAR,CLEAR,CLEAR,MOSTLY_CLEAR","Offshore,Offshore,Offshore,Offshore,Offshore,Offshore,Offshore,Offshore,Offshore,Offshore,Offshore,Offshore,Offshore",13
5842041f4e65fad6a770889c,2024_02_09,21.286357895152136,-157.8515,South Shore - Ala Moana Park,2.3076923076923075,0.47846153846153844,0.7846153846153846,24,24,"NIGHT_CLEAR,NIGHT_MOSTLY_CLOUDY,NIGHT_CLEAR,NIGHT_CLEAR,NIGHT_BRIEF_SHOWERS,NIGHT_CLEAR,NIGHT_BRIEF_SHOWERS,NIGHT_MOSTLY_CLOUDY,CLEAR,CLEAR,CLEAR,CLEAR,MOSTLY_CLEAR","Offshore,Offshore,Offshore,Offshore,Offshore,Offshore,Cross-shore,Offshore,Offshore,Offshore,Offshore,Offshore,Offshore",13
5842041f4e65fad6a770889d,2024_02_09,19.606,-155.978,Banyans,3,0.762051282051282,1.0691025641025642,26,25,"NIGHT_CLEAR,NIGHT_MOSTLY_CLEAR,NIGHT_MOSTLY_CLEAR,NIGHT_MOSTLY_CLEAR,NIGHT_CLEAR,NIGHT_CLEAR,NIGHT_CLEAR,NIGHT_MOSTLY_CLEAR,CLEAR,CLEAR,CLEAR,CLEAR,CLEAR","Cross-shore,Offshore,Offshore,Offshore,Offshore,Offshore,Offshore,Offshore,Offshore,Offshore,Cross-shore,Onshore,Onshore",13
5842041f4e65fad6a770889e,2024_02_09,20.029,-155.831,Kawaihae,2,0.4444,0.7215092307692308,25,25,"NIGHT_MOSTLY_CLEAR,NIGHT_CLEAR,NIGHT_MOSTLY_CLEAR,NIGHT_MOSTLY_CLEAR,NIGHT_MOSTLY_CLEAR,NIGHT_MOSTLY_CLEAR,NIGHT_CLEAR,NIGHT_CLEAR,CLEAR,CLEAR,CLEAR,CLEAR,CLEAR","Offshore,Offshore,Offshore,Offshore,Offshore,Offshore,Offshore,Offshore,Offshore,Onshore,Onshore,Onshore,Onshore",13
5842041f4e65fad6a770889f,2024_02_09,33.07541383424675,-117.3105,Grandview,2.8461538461538463,0.82,1.093076923076923,15,15,"NIGHT_MOSTLY_CLOUDY,NIGHT_BRIEF_SHOWERS,NIGHT_CLEAR,NIGHT_CLEAR,NIGHT_CLEAR,NIGHT_MOSTLY_CLEAR,BRIEF_SHOWERS,MOSTLY_CLOUDY,MOSTLY_CLOUDY,MOSTLY_CLOUDY,CLEAR,MOSTLY_CLOUDY,MOSTLY_CLOUDY","Offshore,Offshore,Offshore,Offshore,Offshore,Offshore,Offshore,Offshore,Offshore,Onshore,Onshore,Onshore,Onshore",13
5842041f4e65fad6a77088a0,2024_02_09,33.065267421296596,-117.30577,Beacons,2.8461538461538463,0.83,1.0992307692307692,15,15,"NIGHT_MOSTLY_CLOUDY,NIGHT_BRIEF_SHOWERS,NIGHT_CLEAR,NIGHT_CLEAR,NIGHT_CLEAR,NIGHT_MOSTLY_CLEAR,BRIEF_SHOWERS,MOSTLY_CLOUDY,MOSTLY_CLOUDY,MOSTLY_CLOUDY,CLEAR,MOSTLY_CLOUDY,MOSTLY_CLOUDY","Offshore,Offshore,Offshore,Offshore,Offshore,Offshore,Offshore,Offshore,Offshore,Onshore,Onshore,Onshore,Onshore",13
5842041f4e65fad6a77088a2,2024_02_09,21.252,-157.805,Diamond Head,3,0.8079326923076923,1.172248205128205,26,25,"NIGHT_CLEAR,NIGHT_MOSTLY_CLOUDY,NIGHT_MOSTLY_CLEAR,NIGHT_MOSTLY_CLEAR,NIGHT_MOSTLY_CLOUDY,NIGHT_MOSTLY_CLOUDY,NIGHT_MOSTLY_CLEAR,NIGHT_MOSTLY_CLOUDY,CLEAR,MOSTLY_CLEAR,MOSTLY_CLEAR,MOSTLY_CLEAR,CLEAR","Cross-shore,Cross-shore,Cross-shore,Cross-shore,Cross-shore,Cross-shore,Cross-shore,Cross-shore,Cross-shore,Offshore,Cross-shore,Offshore,Cross-shore",13
5842041f4e65fad6a77088a3,2024_02_09,33.04694255008896,-117.29966,Moonlight State Beach,2.769230769230769,0.8138461538461539,1.1,15,15,"NIGHT_CLEAR,NIGHT_MOSTLY_CLOUDY,NIGHT_CLEAR,NIGHT_CLEAR,NIGHT_FOG,NIGHT_CLEAR,HEAVY_SHOWERS,CLEAR,MOSTLY_CLOUDY,MOSTLY_CLOUDY,CLEAR,CLEAR,MOSTLY_CLOUDY","Offshore,Offshore,Onshore,Offshore,Offshore,Offshore,Cross-shore,Onshore,Onshore,Onshore,Onshore,Onshore,Onshore",13
5842041f4e65fad6a77088a5,2024_02_09,33.08685865930869,-117.31532,Ponto,2.6153846153846154,0.8607692307692307,1.1146153846153846,15,15,"NIGHT_MOSTLY_CLOUDY,NIGHT_BRIEF_SHOWERS,NIGHT_CLEAR,NIGHT_CLEAR,NIGHT_CLEAR,NIGHT_MOSTLY_CLEAR,BRIEF_SHOWERS,MOSTLY_CLOUDY,MOSTLY_CLOUDY,MOSTLY_CLOUDY,CLEAR,MOSTLY_CLOUDY,MOSTLY_CLOUDY","Offshore,Offshore,Offshore,Offshore,Offshore,Offshore,Offshore,Offshore,Offshore,Onshore,Onshore,Cross-shore,Onshore",13
5842041f4e65fad6a77088a6,2024_02_09,33.130343587871906,-117.33667796442558,Terra Mar Point,2.0123076923076924,0.6999128205128206,1.0673051282051282,16,16,"NIGHT_MOSTLY_CLOUDY,NIGHT_MOSTLY_CLOUDY,NIGHT_CLEAR,NIGHT_CLEAR,NIGHT_MIST,NIGHT_MIST,MOSTLY_CLEAR,MIST,MOSTLY_CLOUDY,MIST,MOSTLY_CLOUDY,MOSTLY_CLOUDY,MOSTLY_CLOUDY","Onshore,Onshore,Onshore,Onshore,Offshore,Offshore,Onshore,Onshore,Onshore,Onshore,Onshore,Onshore,Onshore",13
5842041f4e65fad6a77088af,2024_02_09,32.95916304183685,-117.26963,Del Mar,2.6923076923076925,1.0053846153846153,1.2276923076923076,15,15,"NIGHT_MOSTLY_CLOUDY,NIGHT_CLEAR,NIGHT_CLEAR,NIGHT_FOG,NIGHT_MOSTLY_CLOUDY,NIGHT_SHOWERS,FOG,CLEAR,MOSTLY_CLOUDY,BRIEF_SHOWERS,CLEAR,CLEAR,MOSTLY_CLOUDY","Offshore,Offshore,Cross-shore,Onshore,Onshore,Onshore,Onshore,Onshore,Onshore,Onshore,Onshore,Cross-shore,Onshore",13
5842041f4e65fad6a77088b0,2024_02_09,32.97527261243354,-117.2721061331305,Del Mar Rivermouth,2.5384615384615383,1.04,1.27,15,15,"NIGHT_MOSTLY_CLOUDY,NIGHT_CLEAR,NIGHT_CLEAR,NIGHT_FOG,NIGHT_CLEAR,NIGHT_BRIEF_SHOWERS,HEAVY_SHOWERS,CLEAR,MOSTLY_CLOUDY,MOSTLY_CLOUDY,MOSTLY_CLEAR,CLEAR,MOSTLY_CLOUDY","Offshore,Offshore,Cross-shore,Onshore,Onshore,Onshore,Onshore,Onshore,Onshore,Onshore,Onshore,Cross-shore,Onshore",13
5842041f4e65fad6a77088b1,2024_02_09,33.01352178146273,-117.28219,Cardiff Reef,1.8584615384615384,1.169425641025641,1.4573641025641026,16,16,"NIGHT_CLEAR,NIGHT_MOSTLY_CLOUDY,NIGHT_CLEAR,NIGHT_MOSTLY_CLOUDY,NIGHT_FOG,NIGHT_CLEAR,HEAVY_SHOWERS,CLEAR,MOSTLY_CLOUDY,MOSTLY_CLOUDY,MOSTLY_CLOUDY,CLEAR,MOSTLY_CLOUDY","Onshore,Onshore,Onshore,Onshore,Cross-shore,Offshore,Onshore,Onshore,Onshore,Onshore,Onshore,Onshore,Onshore",13
5842041f4e65fad6a77088b3,2024_02_09,33.00211185876003,-117.2811,Seaside Reef,2.076923076923077,1.1355153846153847,1.4462102564102564,16,16,"NIGHT_MOSTLY_CLOUDY,NIGHT_CLEAR,NIGHT_CLEAR,NIGHT_MOSTLY_CLOUDY,NIGHT_CLEAR,NIGHT_MOSTLY_CLOUDY,CLEAR,CLEAR,MOSTLY_CLOUDY,MOSTLY_CLOUDY,MOSTLY_CLOUDY,CLEAR,MOSTLY_CLOUDY","Onshore,Onshore,Onshore,Onshore,Onshore,Offshore,Offshore,Onshore,Onshore,Onshore,Onshore,Onshore,Onshore",13
5842041f4e65fad6a77088b4,2024_02_09,33.0341859796287,-117.29552,Swami's,2.4484615384615385,0.9450051282051282,1.256051282051282,16,16,"NIGHT_CLEAR,NIGHT_MOSTLY_CLOUDY,NIGHT_CLEAR,NIGHT_MOSTLY_CLOUDY,NIGHT_FOG,NIGHT_CLEAR,HEAVY_SHOWERS,CLEAR,MOSTLY_CLOUDY,MOSTLY_CLOUDY,MOSTLY_CLOUDY,CLEAR,MOSTLY_CLOUDY","Offshore,Offshore,Cross-shore,Offshore,Offshore,Offshore,Cross-shore,Onshore,Onshore,Onshore,Onshore,Onshore,Onshore",13
5842041f4e65fad6a77088b7,2024_02_09,33.04569760260221,-117.2994,D Street,2.5384615384615383,0.8123076923076923,1.09,15,15,"NIGHT_CLEAR,NIGHT_MOSTLY_CLOUDY,NIGHT_CLEAR,NIGHT_CLEAR,NIGHT_FOG,NIGHT_CLEAR,HEAVY_SHOWERS,CLEAR,MOSTLY_CLOUDY,MOSTLY_CLOUDY,CLEAR,CLEAR,MOSTLY_CLOUDY","Offshore,Offshore,Cross-shore,Offshore,Offshore,Offshore,Cross-shore,Onshore,Onshore,Onshore,Onshore,Onshore,Onshore",13
5842041f4e65fad6a77088b8,2024_02_09,33.02090944350196,-117.28535,San Elijo State Beach,2.1923076923076925,0.8226974358974359,1.223325641025641,16,16,"NIGHT_CLEAR,NIGHT_MOSTLY_CLOUDY,NIGHT_CLEAR,NIGHT_MOSTLY_CLOUDY,NIGHT_FOG,NIGHT_CLEAR,MOSTLY_CLEAR,CLEAR,MOSTLY_CLOUDY,MOSTLY_CLOUDY,MOSTLY_CLOUDY,CLEAR,MOSTLY_CLOUDY","Onshore,Onshore,Onshore,Onshore,Cross-shore,Offshore,Offshore,Onshore,Onshore,Onshore,Onshore,Onshore,Onshore",13
5842041f4e65fad6a77088c2,2024_02_09,32.80662846492798,-117.2688764333725,PB Point,3,1.0769230769230769,1.2853846153846153,15,15,"NIGHT_MOSTLY_CLOUDY,NIGHT_MOSTLY_CLOUDY,NIGHT_CLEAR,NIGHT_FOG,NIGHT_MOSTLY_CLOUDY,NIGHT_FOG,MOSTLY_CLOUDY,MIST,MOSTLY_CLOUDY,MOSTLY_CLOUDY,BRIEF_SHOWERS,CLEAR,MOSTLY_CLOUDY","Onshore,Cross-shore,Offshore,Offshore,Offshore,Offshore,Offshore,Offshore,Offshore,Onshore,Onshore,Onshore,Onshore",13
5842041f4e65fad6a77088c4,2024_02_09,32.8060476681448,-117.26479,Old Man's at Tourmaline,2.769230769230769,0.7607692307692308,1.0469230769230768,15,15,"NIGHT_MOSTLY_CLOUDY,NIGHT_MOSTLY_CLOUDY,NIGHT_CLEAR,NIGHT_FOG,NIGHT_MOSTLY_CLOUDY,NIGHT_FOG,MOSTLY_CLOUDY,MIST,MOSTLY_CLOUDY,MOSTLY_CLOUDY,BRIEF_SHOWERS,CLEAR,MOSTLY_CLOUDY","Onshore,Cross-shore,Offshore,Cross-shore,Offshore,Cross-shore,Offshore,Cross-shore,Cross-shore,Onshore,Onshore,Onshore,Onshore",13
5842041f4e65fad6a77088cb,2024_02_09,32.557056711256,-117.1327445020322,Tijuana Slough,2.6923076923076925,0.7446153846153846,1.0223076923076924,15,15,"NIGHT_MOSTLY_CLOUDY,NIGHT_MOSTLY_CLOUDY,NIGHT_CLEAR,NIGHT_OVERCAST,NIGHT_FOG,NIGHT_FOG,MOSTLY_CLOUDY,MOSTLY_CLOUDY,MIST,MIST,CLEAR,CLEAR,SHOWERS","Onshore,Onshore,Onshore,Onshore,Onshore,Cross-shore,Onshore,Onshore,Onshore,Onshore,Onshore,Onshore,Onshore",13
5842041f4e65fad6a77088cc,2024_02_09,32.863,-117.257,La Jolla Shores,2.076923076923077,0.8853846153846154,1.1292307692307693,15,15,"NIGHT_MOSTLY_CLOUDY,NIGHT_CLEAR,NIGHT_MOSTLY_CLOUDY,NIGHT_MOSTLY_CLOUDY,NIGHT_MOSTLY_CLOUDY,NIGHT_BRIEF_SHOWERS,SHOWERS,BRIEF_SHOWERS,MOSTLY_CLOUDY,CLEAR,MOSTLY_CLEAR,MOSTLY_CLEAR,CLEAR","Onshore,Onshore,Onshore,Onshore,Onshore,Cross-shore,Onshore,Onshore,Onshore,Onshore,Onshore,Onshore,Onshore",13
5842041f4e65fad6a77088ce,2024_02_09,32.67443657790586,-117.17421316238693,Coronado Beach,2,0.4176923076923077,0.7223076923076923,15,15,"NIGHT_OVERCAST,NIGHT_CLEAR,NIGHT_MOSTLY_CLOUDY,NIGHT_BRIEF_SHOWERS,NIGHT_MOSTLY_CLOUDY,NIGHT_FOG,MOSTLY_CLOUDY,FOG,MOSTLY_CLOUDY,MOSTLY_CLOUDY,MOSTLY_CLOUDY,CLEAR,CLEAR","Cross-shore,Cross-shore,Cross-shore,Cross-shore,Onshore,Onshore,Offshore,Cross-shore,Onshore,Onshore,Onshore,Cross-shore,Cross-shore",13
5842041f4e65fad6a77088cf,2024_02_09,33.40484417640326,-117.60749,San Clemente State Beach,2.3076923076923075,0.6607692307692308,0.9684615384615385,15,15,"NIGHT_CLEAR,NIGHT_MOSTLY_CLOUDY,NIGHT_BRIEF_SHOWERS,NIGHT_MOSTLY_CLOUDY,NIGHT_MOSTLY_CLOUDY,NIGHT_SHOWERS,FOG,MOSTLY_CLOUDY,MOSTLY_CLOUDY,MOSTLY_CLEAR,MOSTLY_CLOUDY,MOSTLY_CLOUDY,CLEAR","Offshore,Onshore,Onshore,Offshore,Offshore,Offshore,Onshore,Onshore,Onshore,Onshore,Onshore,Onshore,Onshore",13
5842041f4e65fad6a77088d5,2024_02_09,33.4663042002114,-117.7168352817103,Strands,2.7184615384615385,0.8439769230769231,1.1455615384615385,15,15,"NIGHT_MOSTLY_CLOUDY,NIGHT_MOSTLY_CLOUDY,NIGHT_MOSTLY_CLOUDY,NIGHT_MOSTLY_CLOUDY,NIGHT_MOSTLY_CLOUDY,NIGHT_CLEAR,MOSTLY_CLEAR,CLEAR,BRIEF_SHOWERS,MOSTLY_CLOUDY,MOSTLY_CLOUDY,MOSTLY_CLOUDY,CLEAR","Offshore,Onshore,Cross-shore,Cross-shore,Onshore,Onshore,Cross-shore,Onshore,Onshore,Onshore,Onshore,Onshore,Onshore",13
5842041f4e65fad6a77088d7,2024_02_09,33.4609858001748,-117.68535,Doheny State Beach,1.333076923076923,0.020576923076923076,0.28422051282051286,16,16,"NIGHT_MIST,NIGHT_MOSTLY_CLOUDY,NIGHT_MOSTLY_CLOUDY,NIGHT_MOSTLY_CLOUDY,NIGHT_MOSTLY_CLOUDY,NIGHT_CLEAR,CLEAR,MOSTLY_CLEAR,BRIEF_SHOWERS,CLEAR,MOSTLY_CLOUDY,MOSTLY_CLOUDY,MOSTLY_CLOUDY","Offshore,Offshore,Offshore,Offshore,Cross-shore,Onshore,Cross-shore,Onshore,Offshore,Cross-shore,Cross-shore,Cross-shore,Onshore",13
5842041f4e65fad6a77088dc,2024_02_09,33.50894790083017,-117.75243,Aliso Creek,2,0.47923076923076924,0.7830769230769231,14.76923076923077,14.76923076923077,"NIGHT_CLEAR,NIGHT_MOSTLY_CLOUDY,NIGHT_CLEAR,NIGHT_MOSTLY_CLOUDY,NIGHT_BRIEF_SHOWERS,NIGHT_CLEAR,CLEAR,MOSTLY_CLEAR,MIST,CLEAR,CLEAR,CLEAR,CLEAR","Offshore,Onshore,Cross-shore,Cross-shore,Onshore,Onshore,Cross-shore,Onshore,Onshore,Onshore,Onshore,Onshore,Onshore",13
5842041f4e65fad6a77088dd,2024_02_09,33.5326591767067,-117.77764,Brooks Street,2.3846153846153846,0.3546153846153846,0.6592307692307692,14.76923076923077,14.76923076923077,"NIGHT_CLEAR,NIGHT_MOSTLY_CLOUDY,NIGHT_MOSTLY_CLOUDY,NIGHT_MOSTLY_CLOUDY,NIGHT_FOG,NIGHT_CLEAR,FOG,CLEAR,MOSTLY_CLEAR,CLEAR,CLEAR,CLEAR,CLEAR","Cross-shore,Cross-shore,Cross-shore,Cross-shore,Cross-shore,Onshore,Cross-shore,Onshore,Onshore,Onshore,Onshore,Onshore,Onshore",13
5842041f4e65fad6a77088de,2024_02_09,33.53561225884637,-117.7799,Thalia Street,2,0.39692307692307693,0.7,14.76923076923077,14.76923076923077,"NIGHT_CLEAR,NIGHT_MOSTLY_CLOUDY,NIGHT_MOSTLY_CLOUDY,NIGHT_MOSTLY_CLOUDY,NIGHT_FOG,NIGHT_CLEAR,FOG,CLEAR,MOSTLY_CLEAR,CLEAR,CLEAR,CLEAR,CLEAR","Cross-shore,Cross-shore,Cross-shore,Cross-shore,Cross-shore,Onshore,Cross-shore,Onshore,Onshore,Onshore,Onshore,Onshore,Onshore",13
5842041f4e65fad6a77088e3,2024_02_09,33.54268310353641,-117.7916,Rockpile,2,0.37923076923076926,0.6853846153846154,14.76923076923077,14.76923076923077,"NIGHT_CLEAR,NIGHT_MOSTLY_CLOUDY,NIGHT_MOSTLY_CLOUDY,NIGHT_MOSTLY_CLOUDY,NIGHT_FOG,NIGHT_CLEAR,FOG,CLEAR,MOSTLY_CLEAR,CLEAR,CLEAR,CLEAR,CLEAR","Cross-shore,Cross-shore,Cross-shore,Cross-shore,Cross-shore,Cross-shore,Cross-shore,Onshore,Onshore,Onshore,Onshore,Onshore,Onshore",13
5842041f4e65fad6a77088e4,2024_02_09,33.7368459504689,-118.10342,"Seal Beach Pier, Southside",1.8461538461538463,0.07384615384615385,0.3792307692307692,14.76923076923077,14.76923076923077,"NIGHT_FOG,NIGHT_MOSTLY_CLOUDY,NIGHT_MOSTLY_CLOUDY,NIGHT_CLEAR,NIGHT_CLEAR,NIGHT_CLEAR,FOG,CLEAR,MOSTLY_CLEAR,MOSTLY_CLEAR,MOSTLY_CLOUDY,CLEAR,CLEAR","Onshore,Offshore,Offshore,Offshore,Offshore,Offshore,Offshore,Offshore,Offshore,Onshore,Cross-shore,Onshore,Onshore",13
5842041f4e65fad6a77088e5,2024_02_09,33.73933701820233,-118.117,Ray Bay,1.7692307692307692,0.054615384615384614,0.36,14.76923076923077,14.76923076923077,"NIGHT_FOG,NIGHT_MOSTLY_CLOUDY,NIGHT_BRIEF_SHOWERS,NIGHT_MOSTLY_CLOUDY,NIGHT_CLEAR,NIGHT_CLEAR,FOG,CLEAR,MOSTLY_CLEAR,CLEAR,CLEAR,CLEAR,CLEAR","Onshore,Cross-shore,Offshore,Offshore,Offshore,Offshore,Offshore,Offshore,Offshore,Cross-shore,Cross-shore,Onshore,Onshore",13
5842041f4e65fad6a77088e7,2024_02_09,33.728733,-118.08982,Surfside,2.1538461538461537,0.27,0.5753846153846154,14.76923076923077,14.76923076923077,"NIGHT_MIST,NIGHT_MOSTLY_CLOUDY,NIGHT_MOSTLY_CLOUDY,NIGHT_CLEAR,NIGHT_BRIEF_SHOWERS,NIGHT_MOSTLY_CLOUDY,FOG,CLEAR,CLEAR,CLEAR,CLEAR,CLEAR,CLEAR","Onshore,Offshore,Offshore,Offshore,Offshore,Offshore,Offshore,Offshore,Offshore,Onshore,Cross-shore,Onshore,Onshore",13
5842041f4e65fad6a77088e8,2024_02_09,33.68760321488161,-118.04236,Bolsa Chica State Beach,2.3207692307692307,0.7214435897435898,1.017276923076923,14,14,"NIGHT_FOG,NIGHT_CLEAR,NIGHT_MOSTLY_CLOUDY,NIGHT_MOSTLY_CLOUDY,NIGHT_SHOWERS,NIGHT_MIST,SHOWERS,MIST,MOSTLY_CLEAR,MOSTLY_CLOUDY,MOSTLY_CLOUDY,MOSTLY_CLOUDY,CLEAR","Offshore,Onshore,Onshore,Onshore,Onshore,Onshore,Offshore,Offshore,Offshore,Offshore,Cross-shore,Onshore,Onshore",13
5842041f4e65fad6a77088ea,2024_02_09,33.66704400178788,-118.0192,North HB Streets,2.4746153846153844,0.7880128205128205,1.0998923076923077,14,14,"NIGHT_CLEAR,NIGHT_CLEAR,NIGHT_CLEAR,NIGHT_FOG,NIGHT_SHOWERS,NIGHT_MOSTLY_CLEAR,FOG,MIST,CLEAR,MOSTLY_CLOUDY,MOSTLY_CLOUDY,MOSTLY_CLOUDY,MIST","Offshore,Cross-shore,Cross-shore,Onshore,Onshore,Onshore,Cross-shore,Offshore,Offshore,Offshore,Cross-shore,Onshore,Onshore",13
5842041f4e65fad6a77088ed,2024_02_09,33.65475101379567,-118.00291,Huntington Beach Pier Southside,2.640769230769231,0.8699076923076923,1.2272692307692308,14,14,"NIGHT_FOG,NIGHT_CLEAR,NIGHT_MOSTLY_CLOUDY,NIGHT_MOSTLY_CLOUDY,NIGHT_CLEAR,NIGHT_MOSTLY_CLEAR,FOG,FOG,CLEAR,MOSTLY_CLOUDY,MOSTLY_CLOUDY,MOSTLY_CLOUDY,CLEAR","Onshore,Offshore,Offshore,Offshore,Offshore,Offshore,Offshore,Offshore,Cross-shore,Cross-shore,Onshore,Cross-shore,Cross-shore",13
5842041f4e65fad6a77088ee,2024_02_09,33.62778647706099,-117.95939,River Jetties,2.3076923076923075,0.7114435897435898,1.074876923076923,15,15,"NIGHT_FOG,NIGHT_MOSTLY_CLOUDY,NIGHT_MOSTLY_CLOUDY,NIGHT_MOSTLY_CLOUDY,NIGHT_CLEAR,NIGHT_MOSTLY_CLEAR,FOG,MOSTLY_CLEAR,MOSTLY_CLEAR,CLEAR,CLEAR,MOSTLY_CLOUDY,OVERCAST","Onshore,Offshore,Cross-shore,Offshore,Cross-shore,Offshore,Offshore,Offshore,Cross-shore,Cross-shore,Cross-shore,Onshore,Cross-shore",13
5842041f4e65fad6a77088f2,2024_02_09,33.605165797643664,-117.92500376701355,Newport Point,2.3846153846153846,0.36230769230769233,0.6699999999999999,14.76923076923077,14.76923076923077,"NIGHT_FOG,NIGHT_CLEAR,NIGHT_MOSTLY_CLOUDY,NIGHT_MOSTLY_CLOUDY,NIGHT_CLEAR,NIGHT_CLEAR,CLEAR,CLEAR,MOSTLY_CLEAR,MOSTLY_CLEAR,CLEAR,CLEAR,CLEAR","Cross-shore,Cross-shore,Cross-shore,Cross-shore,Cross-shore,Onshore,Cross-shore,Onshore,Onshore,Cross-shore,Onshore,Onshore,Cross-shore",13
5842041f4e65fad6a77088f3,2024_02_09,33.58982984726977,-117.87713,Corona del Mar,1,0.1391746153846154,0.21745923076923077,14.76923076923077,14.76923076923077,"NIGHT_FOG,NIGHT_CLEAR,NIGHT_MOSTLY_CLOUDY,NIGHT_BRIEF_SHOWERS,NIGHT_BRIEF_SHOWERS,NIGHT_MOSTLY_CLEAR,BRIEF_SHOWERS,MOSTLY_CLEAR,CLEAR,CLEAR,MOSTLY_CLOUDY,MOSTLY_CLOUDY,CLEAR","Offshore,Cross-shore,Onshore,Onshore,Offshore,Offshore,Onshore,Offshore,Offshore,Cross-shore,Cross-shore,Cross-shore,Cross-shore",13
5842041f4e65fad6a77088f7,2024_02_09,34.00750300824362,-118.4971783496269,Santa Monica Pier,2.3846153846153846,0.35384615384615387,0.6592307692307693,14.76923076923077,14.76923076923077,"NIGHT_MIST,NIGHT_CLEAR,NIGHT_MIST,NIGHT_CLEAR,NIGHT_MOSTLY_CLOUDY,NIGHT_FOG,MIST,CLEAR,CLEAR,CLEAR,CLEAR,MOSTLY_CLOUDY,CLEAR","Offshore,Offshore,Offshore,Offshore,Offshore,Offshore,Offshore,Offshore,Offshore,Offshore,Cross-shore,Onshore,Onshore",13
5842041f4e65fad6a77088ff,2024_02_09,33.94070283102945,-118.44321,Dockweiler Beach,2.1538461538461537,0.7899653205128205,1.0721728205128205,15,15,"NIGHT_MIST,NIGHT_MOSTLY_CLOUDY,NIGHT_MOSTLY_CLOUDY,NIGHT_MOSTLY_CLOUDY,NIGHT_CLEAR,NIGHT_MOSTLY_CLOUDY,CLEAR,CLEAR,CLEAR,CLEAR,MOSTLY_CLEAR,CLEAR,CLEAR","Offshore,Onshore,Onshore,Onshore,Cross-shore,Offshore,Offshore,Offshore,Offshore,Offshore,Onshore,Onshore,Onshore",13
5842041f4e65fad6a7708900,2024_02_09,33.9231846937237,-118.4341465777908,Shitpipe,1.9361538461538461,0.653776923076923,0.9942512820512821,15,15,"NIGHT_CLEAR,NIGHT_MOSTLY_CLOUDY,NIGHT_CLOUDY,NIGHT_MOSTLY_CLOUDY,NIGHT_MOSTLY_CLOUDY,NIGHT_MOSTLY_CLOUDY,MOSTLY_CLOUDY,CLEAR,CLEAR,CLEAR,MOSTLY_CLEAR,CLEAR,CLEAR","Offshore,Onshore,Onshore,Onshore,Onshore,Offshore,Offshore,Offshore,Offshore,Cross-shore,Onshore,Onshore,Onshore",13
5842041f4e65fad6a7708902,2024_02_09,33.9108528052242,-118.4279133138721,Hammerland,2.436153846153846,0.7900615384615385,1.1329692307692307,15,15,"NIGHT_CLEAR,NIGHT_MOSTLY_CLOUDY,NIGHT_CLOUDY,NIGHT_MOSTLY_CLOUDY,NIGHT_MOSTLY_CLOUDY,NIGHT_MOSTLY_CLOUDY,CLEAR,CLEAR,CLEAR,CLEAR,MOSTLY_CLEAR,CLEAR,CLEAR","Offshore,Onshore,Onshore,Onshore,Onshore,Offshore,Offshore,Offshore,Offshore,Cross-shore,Onshore,Onshore,Onshore",13
5842041f4e65fad6a7708904,2024_02_09,33.87201368173932,-118.4075151286262,Hermosa Beach,2,0.5687666666666666,0.9487974358974359,15,15,"NIGHT_MOSTLY_CLEAR,NIGHT_CLOUDY,NIGHT_CLOUDY,NIGHT_CLOUDY,NIGHT_MOSTLY_CLOUDY,NIGHT_MOSTLY_CLOUDY,CLOUDY,CLEAR,CLEAR,CLEAR,CLEAR,CLEAR,CLEAR","Cross-shore,Onshore,Onshore,Onshore,Onshore,Onshore,Cross-shore,Offshore,Offshore,Offshore,Cross-shore,Onshore,Onshore",13
5842041f4e65fad6a7708906,2024_02_09,33.90129336911256,-118.42184,El Porto,2.3723076923076922,1.037753846153846,1.347776923076923,15,15,"NIGHT_MOSTLY_CLEAR,NIGHT_CLOUDY,NIGHT_FOG,NIGHT_MOSTLY_CLOUDY,NIGHT_CLEAR,NIGHT_CLEAR,MOSTLY_CLEAR,CLEAR,MOSTLY_CLEAR,CLEAR,CLEAR,CLEAR,CLEAR","Offshore,Onshore,Onshore,Onshore,Onshore,Onshore,Offshore,Offshore,Offshore,Cross-shore,Onshore,Onshore,Onshore",13
5842041f4e65fad6a7708907,2024_02_09,33.87963506431794,-118.41102,Manhattan Beach Pier,2.3846153846153846,0.8574948717948718,1.1993871794871795,15,15,"NIGHT_MOSTLY_CLEAR,NIGHT_CLOUDY,NIGHT_FOG,NIGHT_MOSTLY_CLOUDY,NIGHT_CLEAR,NIGHT_CLEAR,MOSTLY_CLEAR,CLEAR,MOSTLY_CLEAR,CLEAR,CLEAR,CLEAR,CLEAR","Offshore,Onshore,Onshore,Onshore,Onshore,Onshore,Offshore,Offshore,Offshore,Offshore,Cross-shore,Onshore,Onshore",13
5842041f4e65fad6a7708914,2024_02_09,34.038053387863464,-118.5532,Sunset Point,1.8461538461538463,0.20615384615384616,0.5092307692307693,15,15,"NIGHT_MOSTLY_CLEAR,NIGHT_CLEAR,NIGHT_CLEAR,NIGHT_CLEAR,NIGHT_CLEAR,NIGHT_MOSTLY_CLOUDY,MOSTLY_CLEAR,CLEAR,CLEAR,CLEAR,CLEAR,CLEAR,CLEAR","Offshore,Offshore,Offshore,Offshore,Offshore,Offshore,Offshore,Offshore,Onshore,Onshore,Onshore,Onshore,Cross-shore",13
5842041f4e65fad6a7708920,2024_02_09,33.80930828074364,-118.3933198342649,Haggerty's,1.6923076923076923,0.1956923076923077,0.378,14.76923076923077,14.76923076923077,"NIGHT_CLEAR,NIGHT_MOSTLY_CLOUDY,NIGHT_DRIZZLE,NIGHT_MOSTLY_CLOUDY,NIGHT_MOSTLY_CLOUDY,NIGHT_FOG,MOSTLY_CLOUDY,CLEAR,CLEAR,CLEAR,CLEAR,CLEAR,CLEAR","Onshore,Onshore,Onshore,Onshore,Onshore,Onshore,Onshore,Offshore,Cross-shore,Offshore,Onshore,Onshore,Onshore",13
5842041f4e65fad6a7708921,2024_02_09,33.85044519861206,-118.40048,Redondo Breakwater,2.769230769230769,0.8507692307692307,1.1046153846153846,14.76923076923077,14.76923076923077,"NIGHT_MOSTLY_CLEAR,NIGHT_CLOUDY,NIGHT_CLOUDY,NIGHT_CLOUDY,NIGHT_MOSTLY_CLOUDY,NIGHT_MOSTLY_CLOUDY,MOSTLY_CLEAR,CLEAR,CLEAR,CLEAR,CLEAR,CLEAR,CLEAR","Cross-shore,Onshore,Onshore,Onshore,Onshore,Onshore,Offshore,Offshore,Offshore,Offshore,Cross-shore,Onshore,Onshore",13
5842041f4e65fad6a7708927,2024_02_09,33.70877301002487,-118.2840112858389,Cabrillo Beach,1.6923076923076923,0.07846153846153846,0.38384615384615384,14.76923076923077,14.76923076923077,"NIGHT_MOSTLY_CLOUDY,NIGHT_CLEAR,NIGHT_MOSTLY_CLOUDY,NIGHT_MOSTLY_CLOUDY,NIGHT_MOSTLY_CLOUDY,NIGHT_FOG,FOG,MIST,CLEAR,MOSTLY_CLEAR,MOSTLY_CLEAR,MOSTLY_CLOUDY,CLOUDY","Cross-shore,Offshore,Offshore,Offshore,Offshore,Cross-shore,Offshore,Offshore,Cross-shore,Cross-shore,Offshore,Cross-shore,Cross-shore",13
5842041f4e65fad6a770892c,2024_02_09,33.77209986806257,-118.4268428476672,Lunada Bay,1.3846153846153846,0.7476923076923077,1.003076923076923,14.76923076923077,14.76923076923077,"NIGHT_MOSTLY_CLOUDY,NIGHT_MOSTLY_CLOUDY,NIGHT_CLOUDY,NIGHT_CLEAR,NIGHT_MOSTLY_CLOUDY,NIGHT_FOG,CLEAR,CLEAR,CLEAR,CLEAR,CLEAR,CLEAR,CLEAR","Onshore,Onshore,Onshore,Onshore,Onshore,Onshore,Offshore,Offshore,Offshore,Cross-shore,Onshore,Onshore,Onshore",13
5842041f4e65fad6a770892d,2024_02_09,33.79294656286144,-118.4070316699825,PV Cove,2.3076923076923075,0.7430746153846154,0.9944730769230768,14.76923076923077,14.76923076923077,"NIGHT_CLEAR,NIGHT_MOSTLY_CLOUDY,NIGHT_DRIZZLE,NIGHT_MOSTLY_CLOUDY,NIGHT_MOSTLY_CLOUDY,NIGHT_FOG,MOSTLY_CLOUDY,CLEAR,CLEAR,CLEAR,CLEAR,CLEAR,CLEAR","Onshore,Onshore,Onshore,Onshore,Onshore,Onshore,Onshore,Offshore,Offshore,Offshore,Onshore,Onshore,Onshore",13
5842041f4e65fad6a7708930,2024_02_09,34.03944902292561,-118.57539,Chart House,1.6923076923076923,0.1,0.40384615384615385,15,15,"NIGHT_CLEAR,NIGHT_MOSTLY_CLEAR,NIGHT_FOG,NIGHT_FOG,NIGHT_FOG,NIGHT_FOG,MOSTLY_CLEAR,MOSTLY_CLEAR,CLEAR,CLEAR,CLEAR,CLEAR,MOSTLY_CLOUDY","Offshore,Offshore,Offshore,Offshore,Offshore,Offshore,Offshore,Cross-shore,Onshore,Onshore,Onshore,Cross-shore,Cross-shore",13
5842041f4e65fad6a7708936,2024_02_09,34.0016731994772,-118.80456,Point Dume,1.2307692307692308,0.057753846153846156,0.36144358974358975,15,15,"NIGHT_CLEAR,NIGHT_CLEAR,NIGHT_CLEAR,NIGHT_CLEAR,NIGHT_CLEAR,NIGHT_CLEAR,MOSTLY_CLEAR,MOSTLY_CLEAR,CLEAR,CLEAR,CLEAR,CLEAR,CLEAR","Cross-shore,Offshore,Offshore,Offshore,Cross-shore,Cross-shore,Offshore,Offshore,Cross-shore,Onshore,Onshore,Onshore,Cross-shore",13
5842041f4e65fad6a7708937,2024_02_09,34.02587527588963,-118.7554939066114,Latigo Point,1.6923076923076923,0.06461538461538462,0.37153846153846154,15,15,"NIGHT_CLEAR,NIGHT_CLEAR,NIGHT_CLEAR,NIGHT_CLEAR,NIGHT_CLEAR,NIGHT_CLEAR,CLEAR,CLEAR,CLEAR,CLEAR,CLEAR,CLEAR,BRIEF_SHOWERS","Cross-shore,Offshore,Offshore,Cross-shore,Cross-shore,Cross-shore,Offshore,Offshore,Cross-shore,Onshore,Onshore,Onshore,Cross-shore",13
5842041f4e65fad6a770893f,2024_02_09,34.043762,-118.93294,Leo Carrillo,1.5507692307692307,0.39080256410256414,0.6959666666666666,15,15,"NIGHT_CLEAR,NIGHT_CLEAR,NIGHT_CLEAR,NIGHT_CLEAR,NIGHT_CLEAR,NIGHT_CLEAR,CLEAR,CLEAR,CLEAR,CLEAR,CLEAR,CLEAR,CLEAR","Offshore,Offshore,Offshore,Offshore,Offshore,Offshore,Offshore,Offshore,Onshore,Cross-shore,Cross-shore,Cross-shore,Cross-shore",13
5842041f4e65fad6a7708941,2024_02_09,36.69388179265737,-121.81289,Marina State Beach,3.6153846153846154,1.77,2.056923076923077,13,13,"NIGHT_FOG,NIGHT_CLEAR,NIGHT_MIST,NIGHT_MIST,NIGHT_MIST,NIGHT_CLEAR,NIGHT_CLEAR,CLEAR,CLEAR,CLEAR,CLEAR,CLEAR,CLEAR","Offshore,Offshore,Offshore,Offshore,Offshore,Offshore,Offshore,Offshore,Offshore,Offshore,Cross-shore,Onshore,Onshore",13
5842041f4e65fad6a7708944,2024_02_09,34.34145077331085,-119.416999352654,Stanley's,2.3076923076923075,0.28076923076923077,0.5853846153846154,14.76923076923077,14.76923076923077,"NIGHT_CLEAR,NIGHT_CLEAR,NIGHT_CLEAR,NIGHT_CLEAR,NIGHT_CLEAR,NIGHT_CLEAR,CLEAR,CLEAR,CLEAR,CLEAR,CLEAR,CLEAR,CLEAR","Offshore,Offshore,Offshore,Offshore,Offshore,Offshore,Offshore,Offshore,Onshore,Onshore,Onshore,Onshore,Onshore",13
5842041f4e65fad6a7708945,2024_02_09,34.35113017313915,-119.426921498899,Oil Piers,2.076923076923077,0.21615384615384617,0.5238461538461539,14.76923076923077,14.76923076923077,"NIGHT_CLEAR,NIGHT_CLEAR,NIGHT_CLEAR,NIGHT_CLEAR,NIGHT_CLEAR,NIGHT_CLEAR,CLEAR,CLEAR,CLEAR,CLEAR,CLEAR,CLEAR,CLEAR","Offshore,Offshore,Offshore,Offshore,Offshore,Offshore,Offshore,Offshore,Onshore,Onshore,Onshore,Onshore,Onshore",13
5842041f4e65fad6a770894c,2024_02_09,34.17876333306018,-119.2399483564372,Oxnard,2.6923076923076925,0.5907692307692307,0.8923076923076924,15,15,"NIGHT_MIST,NIGHT_MIST,NIGHT_MIST,NIGHT_MIST,NIGHT_MIST,NIGHT_MIST,BRIEF_SHOWERS_POSSIBLE,MIST,CLEAR,CLEAR,CLEAR,CLEAR,CLEAR","Offshore,Offshore,Offshore,Offshore,Offshore,Offshore,Offshore,Offshore,Cross-shore,Onshore,Onshore,Onshore,Onshore",13
5842041f4e65fad6a7708957,2024_02_09,34.31720331100517,-119.3882324751725,Pitas Point,2.3076923076923075,0.2823076923076923,0.5861538461538461,14.76923076923077,14.76923076923077,"NIGHT_CLEAR,NIGHT_CLEAR,NIGHT_CLEAR,NIGHT_CLEAR,NIGHT_CLEAR,NIGHT_CLEAR,CLEAR,CLEAR,CLEAR,CLEAR,CLEAR,CLEAR,CLEAR","Offshore,Offshore,Cross-shore,Offshore,Offshore,Offshore,Offshore,Offshore,Onshore,Onshore,Onshore,Onshore,Onshore",13
5842041f4e65fad6a7708959,2024_02_09,34.27851754384724,-119.316202617226,Emma Wood,2.230769230769231,0.26153846153846155,0.566923076923077,14.76923076923077,14.76923076923077,"NIGHT_CLEAR,NIGHT_CLEAR,NIGHT_CLEAR,NIGHT_CLEAR,NIGHT_CLEAR,NIGHT_CLEAR,CLEAR,CLEAR,CLEAR,CLEAR,CLEAR,CLEAR,CLEAR","Offshore,Offshore,Offshore,Offshore,Offshore,Offshore,Offshore,Offshore,Onshore,Onshore,Cross-shore,Cross-shore,Cross-shore",13
5842041f4e65fad6a770895a,2024_02_09,34.35513640390276,-119.4400589884255,Mussel Shoals (aka Little Rincon),2.5384615384615383,0.3176923076923077,0.6238461538461538,14.76923076923077,14.76923076923077,"NIGHT_CLEAR,NIGHT_CLEAR,NIGHT_CLEAR,NIGHT_CLEAR,NIGHT_CLEAR,NIGHT_CLEAR,CLEAR,CLEAR,CLEAR,CLEAR,CLEAR,CLEAR,CLEAR","Cross-shore,Cross-shore,Cross-shore,Offshore,Offshore,Offshore,Offshore,Offshore,Onshore,Onshore,Onshore,Onshore,Onshore",13
5842041f4e65fad6a770895e,2024_02_09,34.28991757054902,-119.3366646794652,Summer Beach,2,0.14846153846153845,0.4530769230769231,14.76923076923077,14.76923076923077,"NIGHT_CLEAR,NIGHT_CLEAR,NIGHT_CLEAR,NIGHT_CLEAR,NIGHT_CLEAR,NIGHT_CLEAR,CLEAR,CLEAR,CLEAR,CLEAR,CLEAR,CLEAR,CLEAR","Offshore,Offshore,Offshore,Offshore,Offshore,Offshore,Offshore,Offshore,Onshore,Onshore,Offshore,Offshore,Offshore",13
5842041f4e65fad6a770895f,2024_02_09,34.30897456105926,-119.3582501170116,Solimar,2.076923076923077,0.17692307692307693,0.48384615384615387,14.76923076923077,14.76923076923077,"NIGHT_CLEAR,NIGHT_CLEAR,NIGHT_CLEAR,NIGHT_CLEAR,NIGHT_CLEAR,NIGHT_CLEAR,CLEAR,CLEAR,CLEAR,CLEAR,CLEAR,CLEAR,CLEAR","Offshore,Offshore,Cross-shore,Offshore,Offshore,Offshore,Offshore,Offshore,Onshore,Onshore,Onshore,Onshore,Onshore",13
5842041f4e65fad6a7708960,2024_02_09,34.39836265281686,-119.70213,Leadbetter Point,1.0769230769230769,0.0015384615384615385,0.2623076923076923,14.76923076923077,14.76923076923077,"NIGHT_CLEAR,NIGHT_CLEAR,NIGHT_CLEAR,NIGHT_CLEAR,NIGHT_CLEAR,NIGHT_CLEAR,CLEAR,CLEAR,CLEAR,CLEAR,CLEAR,CLEAR,CLEAR","Offshore,Offshore,Offshore,Offshore,Offshore,Offshore,Offshore,Offshore,Cross-shore,Onshore,Onshore,Cross-shore,Cross-shore",13
5842041f4e65fad6a7708961,2024_02_09,34.46052293893899,-120.07328,Refugio,1.1538461538461537,0.014615384615384615,0.30846153846153845,14,14,"NIGHT_CLEAR,NIGHT_CLEAR,NIGHT_CLEAR,NIGHT_CLEAR,NIGHT_CLEAR,NIGHT_CLEAR,CLEAR,CLEAR,CLEAR,CLEAR,CLEAR,CLEAR,CLEAR","Offshore,Offshore,Offshore,Offshore,Offshore,Offshore,Offshore,Offshore,Cross-shore,Offshore,Offshore,Offshore,Offshore",13
5842041f4e65fad6a7708962,2024_02_09,34.40754276777778,-119.87639,Devereux,2.3846153846153846,0.2823076923076923,0.5884615384615385,14.76923076923077,14.76923076923077,"NIGHT_CLEAR,NIGHT_CLEAR,NIGHT_CLEAR,NIGHT_CLEAR,NIGHT_CLEAR,NIGHT_CLEAR,CLEAR,CLEAR,CLEAR,CLEAR,CLEAR,CLEAR,CLEAR","Offshore,Offshore,Offshore,Offshore,Offshore,Offshore,Offshore,Offshore,Onshore,Onshore,Onshore,Onshore,Cross-shore",13
5842041f4e65fad6a7708963,2024_02_09,34.27479983305182,-119.3133222656776,Ventura Overhead,2.3076923076923075,0.2776923076923077,0.5823076923076923,14.76923076923077,14.76923076923077,"NIGHT_CLEAR,NIGHT_CLEAR,NIGHT_CLEAR,NIGHT_CLEAR,NIGHT_CLEAR,NIGHT_CLEAR,CLEAR,CLEAR,CLEAR,CLEAR,CLEAR,CLEAR,CLEAR","Offshore,Offshore,Offshore,Offshore,Offshore,Offshore,Offshore,Offshore,Onshore,Onshore,Cross-shore,Cross-shore,Cross-shore",13
5842041f4e65fad6a7708964,2024_02_09,34.41023236011655,-119.88261,Sands,2.3076923076923075,0.35615384615384615,0.6607692307692308,14.76923076923077,14.76923076923077,"NIGHT_CLEAR,NIGHT_CLEAR,NIGHT_CLEAR,NIGHT_CLEAR,NIGHT_CLEAR,NIGHT_CLEAR,CLEAR,CLEAR,CLEAR,CLEAR,CLEAR,CLEAR,CLEAR","Cross-shore,Offshore,Offshore,Offshore,Offshore,Offshore,Offshore,Offshore,Onshore,Onshore,Onshore,Onshore,Onshore",13
5842041f4e65fad6a7708966,2024_02_09,34.40450193869233,-119.68752,Sandspit,0.6923076923076923,0,0.17153846153846156,14.76923076923077,14.76923076923077,"NIGHT_CLEAR,NIGHT_CLEAR,NIGHT_CLEAR,NIGHT_CLEAR,NIGHT_CLEAR,NIGHT_CLEAR,CLEAR,CLEAR,CLEAR,CLEAR,CLEAR,CLEAR,CLEAR","Offshore,Offshore,Offshore,Offshore,Offshore,Offshore,Offshore,Offshore,Cross-shore,Onshore,Onshore,Cross-shore,Cross-shore",13
5842041f4e65fad6a7708967,2024_02_09,34.41549098334453,-119.6375149840203,Hammond's,1.0769230769230769,0.0023076923076923075,0.24692307692307694,14.76923076923077,14.76923076923077,"NIGHT_CLEAR,NIGHT_CLEAR,NIGHT_CLEAR,NIGHT_CLEAR,NIGHT_CLEAR,NIGHT_CLEAR,CLEAR,CLEAR,CLEAR,CLEAR,CLEAR,CLEAR,CLEAR","Offshore,Offshore,Offshore,Offshore,Offshore,Offshore,Offshore,Offshore,Onshore,Onshore,Onshore,Onshore,Cross-shore",13
5842041f4e65fad6a7708968,2024_02_09,34.45759322742309,-120.0220251867315,El Capitan,2,0.09076923076923077,0.3992307692307692,14,14,"NIGHT_CLEAR,NIGHT_CLEAR,NIGHT_CLEAR,NIGHT_CLEAR,NIGHT_CLEAR,NIGHT_CLEAR,CLEAR,CLEAR,CLEAR,CLEAR,CLEAR,CLEAR,CLEAR","Offshore,Offshore,Offshore,Offshore,Offshore,Offshore,Offshore,Offshore,Onshore,Cross-shore,Cross-shore,Cross-shore,Offshore",13
5842041f4e65fad6a770896c,2024_02_09,34.405117655616,-119.84317,Campus Point,2,0.06615384615384616,0.3707692307692308,14.76923076923077,14.76923076923077,"NIGHT_CLEAR,NIGHT_CLEAR,NIGHT_CLEAR,NIGHT_CLEAR,NIGHT_CLEAR,NIGHT_CLEAR,CLEAR,CLEAR,CLEAR,CLEAR,CLEAR,CLEAR,CLEAR","Offshore,Offshore,Offshore,Offshore,Offshore,Offshore,Offshore,Offshore,Onshore,Onshore,Onshore,Onshore,Cross-shore",13
5842041f4e65fad6a770896e,2024_02_09,34.38935162233354,-119.51955,Carpinteria State Beach,2,0.15,0.4553846153846154,14.76923076923077,14.76923076923077,"NIGHT_CLEAR,NIGHT_CLEAR,NIGHT_CLEAR,NIGHT_CLEAR,NIGHT_CLEAR,NIGHT_CLEAR,CLEAR,CLEAR,CLEAR,CLEAR,CLEAR,CLEAR,CLEAR","Offshore,Offshore,Offshore,Offshore,Offshore,Offshore,Offshore,Offshore,Cross-shore,Onshore,Onshore,Onshore,Onshore",13
5842041f4e65fad6a770896f,2024_02_09,37.48296565175612,-122.4549300127824,Half Moon Bay,3.3846153846153846,1.0323076923076924,1.2384615384615385,13,13,"NIGHT_CLEAR,NIGHT_CLEAR,NIGHT_CLEAR,NIGHT_CLEAR,NIGHT_CLEAR,NIGHT_CLEAR,NIGHT_CLEAR,CLEAR,CLEAR,CLEAR,CLEAR,CLEAR,CLEAR","Offshore,Offshore,Offshore,Offshore,Offshore,Offshore,Offshore,Offshore,Offshore,Cross-shore,Cross-shore,Cross-shore,Cross-shore",13
5842041f4e65fad6a7708970,2024_02_09,37.499,-122.471,Princeton Jetty,3.5384615384615383,1.146153846153846,1.3992307692307693,13,13,"NIGHT_CLEAR,NIGHT_CLEAR,NIGHT_CLEAR,NIGHT_CLEAR,NIGHT_CLEAR,NIGHT_CLEAR,NIGHT_CLEAR,CLEAR,CLEAR,CLEAR,CLEAR,CLEAR,MOSTLY_CLEAR","Offshore,Offshore,Offshore,Offshore,Offshore,Offshore,Offshore,Offshore,Offshore,Offshore,Cross-shore,Offshore,Offshore",13
5842041f4e65fad6a7708972,2024_02_09,37.35699547365155,-122.4069534707252,Tunitas Creek,3.5384615384615383,2.1153846153846154,2.497692307692308,13,13,"NIGHT_CLEAR,NIGHT_CLEAR,NIGHT_CLEAR,NIGHT_CLEAR,NIGHT_CLEAR,NIGHT_CLEAR,NIGHT_CLEAR,CLEAR,CLEAR,CLEAR,CLEAR,CLEAR,CLEAR","Offshore,Offshore,Offshore,Offshore,Offshore,Offshore,Offshore,Offshore,Cross-shore,Cross-shore,Cross-shore,Cross-shore,Cross-shore",13
5842041f4e65fad6a7708974,2024_02_09,37.54735589428842,-122.5161090212687,Montara,3.4615384615384617,1.563076923076923,1.863076923076923,13,13,"NIGHT_CLEAR,NIGHT_CLEAR,NIGHT_CLEAR,NIGHT_CLEAR,NIGHT_CLEAR,NIGHT_CLEAR,NIGHT_CLEAR,CLEAR,CLEAR,CLEAR,CLEAR,CLEAR,MOSTLY_CLEAR","Offshore,Offshore,Offshore,Offshore,Cross-shore,Cross-shore,Offshore,Offshore,Cross-shore,Cross-shore,Onshore,Onshore,Onshore",13
5842041f4e65fad6a7708975,2024_02_09,34.3869373724559,-119.5142334209018,Tarpits,2,0.13923076923076924,0.44461538461538463,14.76923076923077,14.76923076923077,"NIGHT_CLEAR,NIGHT_CLEAR,NIGHT_CLEAR,NIGHT_CLEAR,NIGHT_CLEAR,NIGHT_CLEAR,CLEAR,CLEAR,CLEAR,CLEAR,CLEAR,CLEAR,CLEAR","Offshore,Offshore,Offshore,Offshore,Offshore,Offshore,Offshore,Offshore,Onshore,Onshore,Onshore,Onshore,Onshore",13
5842041f4e65fad6a7708976,2024_02_09,37.59881852720143,-122.50463,Pacifica / Linda Mar,2.986923076923077,0.5692564102564103,0.9492564102564103,14,14,"NIGHT_CLEAR,NIGHT_CLEAR,NIGHT_CLEAR,NIGHT_CLEAR,NIGHT_CLEAR,NIGHT_CLEAR,NIGHT_CLEAR,CLEAR,CLEAR,CLEAR,CLEAR,CLEAR,CLEAR","Offshore,Offshore,Offshore,Offshore,Offshore,Offshore,Offshore,Offshore,Offshore,Offshore,Onshore,Onshore,Onshore",13
5842041f4e65fad6a7708978,2024_02_09,37.59883098461164,-122.5143843582282,Pedro Point,3.076923076923077,1.45,1.7407692307692306,13.23076923076923,13.23076923076923,"NIGHT_CLEAR,NIGHT_CLEAR,NIGHT_CLEAR,NIGHT_CLEAR,NIGHT_CLEAR,NIGHT_CLEAR,NIGHT_CLEAR,CLEAR,CLEAR,CLEAR,CLEAR,CLEAR,CLEAR","Offshore,Offshore,Offshore,Offshore,Cross-shore,Offshore,Offshore,Offshore,Offshore,Cross-shore,Onshore,Onshore,Onshore",13
5842041f4e65fad6a7708979,2024_02_09,37.61081996647663,-122.4973287570634,Rockaway,3.6923076923076925,1.4946153846153847,1.7869230769230768,13,13,"NIGHT_CLEAR,NIGHT_CLEAR,NIGHT_CLEAR,NIGHT_CLEAR,NIGHT_CLEAR,NIGHT_CLEAR,NIGHT_CLEAR,CLEAR,CLEAR,CLEAR,CLEAR,CLEAR,CLEAR","Offshore,Offshore,Offshore,Offshore,Offshore,Offshore,Offshore,Offshore,Offshore,Offshore,Onshore,Onshore,Onshore",13
5842041f4e65fad6a770897a,2024_02_09,37.809987384424446,-122.4751353263855,Fort Point,3.076923076923077,0.9061538461538461,1.1523076923076923,12.23076923076923,12.23076923076923,"NIGHT_CLEAR,NIGHT_CLEAR,NIGHT_CLEAR,NIGHT_CLEAR,NIGHT_MIST,NIGHT_MIST,NIGHT_CLEAR,CLEAR,CLEAR,CLEAR,CLEAR,CLEAR,MOSTLY_CLEAR","Cross-shore,Offshore,Offshore,Offshore,Offshore,Offshore,Offshore,Offshore,Offshore,Offshore,Offshore,Cross-shore,Cross-shore",13
5842041f4e65fad6a770897c,2024_02_09,37.63422542967464,-122.4951,Sharp Park,3.1538461538461537,1.5807692307692307,1.8892307692307693,13.23076923076923,13.23076923076923,"NIGHT_MIST,NIGHT_CLEAR,NIGHT_CLEAR,NIGHT_CLEAR,NIGHT_CLEAR,NIGHT_CLEAR,NIGHT_CLEAR,CLEAR,CLEAR,CLEAR,CLEAR,CLEAR,MOSTLY_CLEAR","Offshore,Offshore,Offshore,Offshore,Offshore,Offshore,Offshore,Offshore,Offshore,Offshore,Cross-shore,Onshore,Onshore",13
5842041f4e65fad6a770897d,2024_02_09,37.27313605072472,-122.4127387912554,Pescadero,3.3846153846153846,1.9553846153846153,2.323846153846154,13,13,"NIGHT_CLEAR,NIGHT_CLEAR,NIGHT_CLEAR,NIGHT_CLEAR,NIGHT_CLEAR,NIGHT_CLEAR,NIGHT_CLEAR,CLEAR,CLEAR,CLEAR,CLEAR,CLEAR,CLEAR","Offshore,Offshore,Offshore,Offshore,Offshore,Offshore,Offshore,Offshore,Cross-shore,Onshore,Onshore,Onshore,Onshore",13
5842041f4e65fad6a770897e,2024_02_09,37.18140279972666,-122.3926685899327,Pigeon Point,4,2.05,2.426923076923077,13,13,"NIGHT_CLEAR,NIGHT_CLEAR,NIGHT_CLEAR,NIGHT_CLEAR,NIGHT_CLEAR,NIGHT_CLEAR,NIGHT_CLEAR,CLEAR,CLEAR,CLEAR,CLEAR,CLEAR,CLEAR","Offshore,Offshore,Offshore,Offshore,Offshore,Offshore,Offshore,Offshore,Offshore,Offshore,Offshore,Offshore,Offshore",13
5842041f4e65fad6a770897f,2024_02_09,37.11578956919415,-122.314699271291,Ano Nuevo,3.4615384615384617,1.303076923076923,1.5669230769230769,13,13,"NIGHT_CLEAR,NIGHT_CLEAR,NIGHT_CLEAR,NIGHT_CLEAR,NIGHT_CLEAR,NIGHT_CLEAR,NIGHT_CLEAR,CLEAR,CLEAR,CLEAR,CLEAR,CLEAR,CLEAR","Offshore,Cross-shore,Cross-shore,Cross-shore,Cross-shore,Cross-shore,Cross-shore,Cross-shore,Offshore,Offshore,Offshore,Offshore,Offshore",13
5842041f4e65fad6a7708980,2024_02_09,37.09520872681598,-122.2805474707768,Waddell Creek,3.5384615384615383,1.6115384615384616,1.9230769230769231,13,13,"NIGHT_CLEAR,NIGHT_CLEAR,NIGHT_CLEAR,NIGHT_CLEAR,NIGHT_CLEAR,NIGHT_CLEAR,NIGHT_CLEAR,CLEAR,CLEAR,CLEAR,CLEAR,CLEAR,CLEAR","Offshore,Offshore,Offshore,Offshore,Offshore,Offshore,Offshore,Offshore,Onshore,Cross-shore,Cross-shore,Cross-shore,Cross-shore",13
5842041f4e65fad6a7708981,2024_02_09,36.96512852130351,-122.1252825495626,Four Mile,3.923076923076923,1.5907692307692307,1.9,13,13,"NIGHT_CLEAR,NIGHT_CLEAR,NIGHT_CLEAR,NIGHT_CLEAR,NIGHT_CLEAR,NIGHT_CLEAR,NIGHT_CLEAR,CLEAR,CLEAR,CLEAR,CLEAR,CLEAR,CLEAR","Offshore,Offshore,Offshore,Offshore,Offshore,Offshore,Offshore,Offshore,Cross-shore,Cross-shore,Cross-shore,Offshore,Offshore",13
5842041f4e65fad6a7708982,2024_02_09,37.04122807048655,-122.2333684729756,Scott Creek,3.3076923076923075,1.5107692307692309,1.8069230769230769,13,13,"NIGHT_CLEAR,NIGHT_CLEAR,NIGHT_CLEAR,NIGHT_CLEAR,NIGHT_CLEAR,NIGHT_CLEAR,NIGHT_CLEAR,CLEAR,CLEAR,CLEAR,CLEAR,CLEAR,CLEAR","Offshore,Offshore,Offshore,Offshore,Cross-shore,Offshore,Cross-shore,Onshore,Onshore,Onshore,Onshore,Cross-shore,Cross-shore",13
5842041f4e65fad6a7708983,2024_02_09,37.02350229387179,-122.21908,Davenport,3.5384615384615383,1.6792307692307693,1.9953846153846153,13,13,"NIGHT_CLEAR,NIGHT_CLEAR,NIGHT_CLEAR,NIGHT_CLEAR,NIGHT_CLEAR,NIGHT_CLEAR,NIGHT_CLEAR,CLEAR,CLEAR,CLEAR,CLEAR,CLEAR,CLEAR","Offshore,Offshore,Offshore,Offshore,Cross-shore,Cross-shore,Cross-shore,Onshore,Onshore,Onshore,Cross-shore,Cross-shore,Cross-shore",13
5842041f4e65fad6a7708986,2024_02_09,36.94905295955728,-122.0611823912244,Natural Bridges,3.6923076923076925,1.1946153846153846,1.4507692307692308,13,13,"NIGHT_CLEAR,NIGHT_CLEAR,NIGHT_CLEAR,NIGHT_CLEAR,NIGHT_CLEAR,NIGHT_CLEAR,NIGHT_CLEAR,CLEAR,CLEAR,CLEAR,MOSTLY_CLEAR,CLEAR,MOSTLY_CLEAR","Offshore,Offshore,Offshore,Offshore,Offshore,Offshore,Offshore,Offshore,Offshore,Onshore,Cross-shore,Cross-shore,Cross-shore",13
5842041f4e65fad6a7708987,2024_02_09,36.95154854910425,-122.0420693940968,Mitchell's Cove,3,0.7738461538461539,1.0207692307692309,13,13,"NIGHT_CLEAR,NIGHT_CLEAR,NIGHT_CLEAR,NIGHT_CLEAR,NIGHT_CLEAR,NIGHT_CLEAR,NIGHT_CLEAR,MIST,CLEAR,CLEAR,CLEAR,CLEAR,MOSTLY_CLEAR","Offshore,Offshore,Offshore,Offshore,Offshore,Offshore,Offshore,Offshore,Offshore,Cross-shore,Cross-shore,Cross-shore,Cross-shore",13
5842041f4e65fad6a770898a,2024_02_09,36.9572312370203,-121.98177,26th Ave,3.5384615384615383,1.1592307692307693,1.4038461538461537,13,13,"NIGHT_MIST,NIGHT_CLEAR,NIGHT_CLEAR,NIGHT_CLEAR,NIGHT_CLEAR,NIGHT_CLEAR,NIGHT_CLEAR,CLEAR,CLEAR,CLEAR,CLEAR,CLEAR,CLEAR","Offshore,Offshore,Offshore,Offshore,Offshore,Offshore,Offshore,Offshore,Onshore,Onshore,Onshore,Onshore,Onshore",13
5842041f4e65fad6a770898e,2024_02_09,36.91899972819882,-121.85536,Manresa,3.6923076923076925,1.3692307692307693,1.5923076923076922,13,13,"NIGHT_CLEAR,NIGHT_CLEAR,NIGHT_MIST,NIGHT_MIST,NIGHT_MIST,NIGHT_MIST,NIGHT_CLEAR,CLEAR,CLEAR,CLEAR,CLEAR,CLEAR,CLEAR","Offshore,Offshore,Offshore,Offshore,Offshore,Offshore,Offshore,Offshore,Offshore,Offshore,Onshore,Onshore,Onshore",13
5842041f4e65fad6a7708990,2024_02_09,34.45747731928454,-120.34242,The Ranch,1.9230769230769231,0.30230769230769233,0.6076923076923076,14,14,"NIGHT_CLEAR,NIGHT_CLEAR,NIGHT_CLEAR,NIGHT_CLEAR,NIGHT_CLEAR,NIGHT_CLEAR,CLEAR,CLEAR,CLEAR,CLEAR,CLEAR,CLEAR,CLEAR","Offshore,Offshore,Offshore,Offshore,Offshore,Offshore,Offshore,Offshore,Offshore,Offshore,Offshore,Offshore,Offshore",13
5842041f4e65fad6a7708991,2024_02_09,34.50875036590315,-120.50348,Jalama,2.6153846153846154,1.0223076923076924,1.263076923076923,14,14,"NIGHT_CLEAR,NIGHT_CLEAR,NIGHT_BRIEF_SHOWERS,NIGHT_CLEAR,NIGHT_MOSTLY_CLEAR,NIGHT_FOG,CLEAR,CLEAR,CLEAR,CLEAR,CLEAR,CLEAR,CLEAR","Cross-shore,Cross-shore,Cross-shore,Cross-shore,Cross-shore,Cross-shore,Cross-shore,Cross-shore,Cross-shore,Cross-shore,Cross-shore,Cross-shore,Cross-shore",13
5842041f4e65fad6a7708996,2024_02_09,34.68700870220497,-120.6111611019887,Surf Beach,2.1538461538461537,2.6307692307692307,3.143076923076923,14,14,"NIGHT_CLEAR,NIGHT_MOSTLY_CLOUDY,NIGHT_MOSTLY_CLOUDY,NIGHT_CLEAR,NIGHT_FOG,NIGHT_CLEAR,CLEAR,CLEAR,CLEAR,CLEAR,CLEAR,CLEAR,CLEAR","Onshore,Onshore,Onshore,Cross-shore,Cross-shore,Offshore,Onshore,Onshore,Onshore,Onshore,Onshore,Onshore,Onshore",13
5842041f4e65fad6a770899c,2024_02_09,35.5730538161116,-121.1143362345574,Moonstone,3.6923076923076925,1.77,2.1076923076923078,13.23076923076923,13.23076923076923,"NIGHT_CLEAR,NIGHT_CLEAR,NIGHT_CLEAR,NIGHT_CLEAR,NIGHT_CLEAR,NIGHT_CLEAR,CLEAR,CLEAR,CLEAR,CLEAR,CLEAR,CLEAR,CLEAR","Offshore,Offshore,Offshore,Offshore,Offshore,Offshore,Offshore,Offshore,Offshore,Offshore,Onshore,Onshore,Onshore",13
5842041f4e65fad6a770899d,2024_02_09,35.61533716776573,-121.1502053073914,Pico Creek,3.4615384615384617,1.313076923076923,1.5715384615384616,13.23076923076923,13.23076923076923,"NIGHT_CLEAR,NIGHT_CLEAR,NIGHT_CLEAR,NIGHT_CLEAR,NIGHT_CLEAR,NIGHT_CLEAR,CLEAR,CLEAR,CLEAR,CLEAR,CLEAR,CLEAR,CLEAR","Offshore,Offshore,Offshore,Offshore,Offshore,Offshore,Offshore,Offshore,Cross-shore,Onshore,Onshore,Onshore,Onshore",13
5842041f4e65fad6a770899e,2024_02_09,35.56829031927379,-121.1120653023953,Santa Rosa Creek,3.5384615384615383,1.77,2.1076923076923078,13.23076923076923,13.23076923076923,"NIGHT_CLEAR,NIGHT_MOSTLY_CLEAR,NIGHT_CLEAR,NIGHT_CLEAR,NIGHT_CLEAR,NIGHT_CLEAR,CLEAR,CLEAR,CLEAR,CLEAR,CLEAR,CLEAR,CLEAR","Offshore,Offshore,Offshore,Offshore,Offshore,Offshore,Offshore,Offshore,Offshore,Offshore,Onshore,Onshore,Cross-shore",13
5842041f4e65fad6a77089a2,2024_02_09,35.44820114936284,-120.90715,"Cayucos Pier, Southside ",2.923076923076923,0.8030769230769231,1.0492307692307692,14,14,"NIGHT_CLEAR,NIGHT_MOSTLY_CLEAR,NIGHT_CLEAR,NIGHT_CLEAR,NIGHT_CLEAR,NIGHT_CLEAR,CLEAR,CLEAR,CLEAR,CLEAR,CLEAR,CLEAR,MOSTLY_CLEAR","Offshore,Offshore,Offshore,Offshore,Offshore,Offshore,Offshore,Offshore,Offshore,Offshore,Offshore,Offshore,Cross-shore",13
5842041f4e65fad6a77089a4,2024_02_09,35.30143372628852,-120.877819239902,Cable Landing,3.6923076923076925,2.6523076923076925,3.156923076923077,14,14,"NIGHT_CLEAR,NIGHT_CLEAR,NIGHT_MOSTLY_CLEAR,NIGHT_CLEAR,NIGHT_CLEAR,NIGHT_CLEAR,CLEAR,CLEAR,CLEAR,CLEAR,CLEAR,CLEAR,CLEAR","Offshore,Offshore,Offshore,Offshore,Offshore,Offshore,Offshore,Offshore,Offshore,Offshore,Cross-shore,Cross-shore,Onshore",13
5842041f4e65fad6a77089a9,2024_02_09,35.61269103500222,-121.1480725356606,San Simeon,2.8461538461538463,0.9487692307692307,1.1393846153846154,13.23076923076923,13.23076923076923,"NIGHT_MOSTLY_CLEAR,NIGHT_MOSTLY_CLEAR,NIGHT_MOSTLY_CLEAR,NIGHT_CLEAR,NIGHT_CLEAR,NIGHT_CLEAR,MOSTLY_CLEAR,CLEAR,CLEAR,CLEAR,CLEAR,CLEAR,CLEAR","Offshore,Offshore,Offshore,Offshore,Offshore,Offshore,Offshore,Offshore,Offshore,Onshore,Onshore,Onshore,Onshore",13
5842041f4e65fad6a77089ab,2024_02_09,35.1775325966252,-120.7341125142258,Avila Beach,1,0,0.23076923076923078,14,14,"NIGHT_FOG,NIGHT_MOSTLY_CLEAR,NIGHT_CLEAR,NIGHT_CLEAR,NIGHT_CLEAR,NIGHT_CLEAR,CLEAR,CLEAR,CLEAR,CLEAR,CLEAR,CLEAR,CLEAR","Offshore,Offshore,Offshore,Offshore,Offshore,Offshore,Offshore,Offshore,Offshore,Offshore,Offshore,Offshore,Offshore",13
5842041f4e65fad6a77089ac,2024_02_09,35.13877877884115,-120.64535,Pismo Beach Pier,2.859230769230769,1.1938205128205128,1.5039666666666667,14,14,"NIGHT_FOG,NIGHT_CLEAR,NIGHT_CLEAR,NIGHT_CLEAR,NIGHT_CLEAR,NIGHT_CLEAR,CLEAR,CLEAR,CLEAR,CLEAR,CLEAR,CLEAR,CLEAR","Cross-shore,Cross-shore,Cross-shore,Cross-shore,Cross-shore,Cross-shore,Cross-shore,Cross-shore,Cross-shore,Cross-shore,Cross-shore,Cross-shore,Cross-shore",13
5842041f4e65fad6a77089ad,2024_02_09,46.8907710233147,-124.12964,Westport/Olympic Peninsula,2.769230769230769,1.3,1.5338461538461539,10,10,"NIGHT_CLOUDY,NIGHT_CLOUDY,NIGHT_OVERCAST,NIGHT_OVERCAST,NIGHT_OVERCAST,NIGHT_MOSTLY_CLOUDY,NIGHT_BRIEF_SHOWERS,CLEAR,MOSTLY_CLOUDY,OVERCAST,OVERCAST,CLEAR,CLOUDY","Onshore,Onshore,Onshore,Cross-shore,Cross-shore,Onshore,Onshore,Onshore,Cross-shore,Cross-shore,Cross-shore,Cross-shore,Cross-shore",13
5842041f4e65fad6a77089ae,2024_02_09,46.35185177248545,-124.06747,Long Beach Peninsula,2.6923076923076925,1.8353846153846154,2.192307692307692,10,10,"NIGHT_CLOUDY,NIGHT_CLEAR,NIGHT_LIGHT_RAIN,NIGHT_CLEAR,NIGHT_CLOUDY,NIGHT_LIGHT_RAIN,NIGHT_DRIZZLE,CLEAR,OVERCAST,OVERCAST,DRIZZLE,CLOUDY,CLOUDY","Onshore,Onshore,Onshore,Onshore,Onshore,Cross-shore,Offshore,Offshore,Offshore,Offshore,Offshore,Offshore,Offshore",13
5842041f4e65fad6a77089af,2024_02_09,47.90649175554033,-124.6370864743483,La Push,3,1.6053846153846154,1.8784615384615384,10,10,"NIGHT_CLOUDY,NIGHT_CLOUDY,NIGHT_CLOUDY,NIGHT_MOSTLY_CLOUDY,NIGHT_MOSTLY_CLOUDY,NIGHT_CLEAR,NIGHT_MOSTLY_CLOUDY,MOSTLY_CLOUDY,MOSTLY_CLOUDY,CLEAR,CLEAR,CLEAR,MOSTLY_CLOUDY","Cross-shore,Cross-shore,Cross-shore,Cross-shore,Cross-shore,Cross-shore,Offshore,Cross-shore,Cross-shore,Cross-shore,Cross-shore,Onshore,Onshore",13
5842041f4e65fad6a77089b0,2024_02_09,42.04368239985442,-124.26828,Brookings Jetty,3.923076923076923,0.9949530769230769,1.5546146153846154,11.23076923076923,11.23076923076923,"NIGHT_CLEAR,NIGHT_CLEAR,NIGHT_CLEAR,NIGHT_CLEAR,NIGHT_CLEAR,NIGHT_CLEAR,NIGHT_MOSTLY_CLOUDY,CLEAR,OVERCAST,CLOUDY,DRIZZLE,OVERCAST,DRIZZLE","Offshore,Offshore,Offshore,Offshore,Offshore,Offshore,Offshore,Offshore,Offshore,Cross-shore,Offshore,Offshore,Offshore",13
5842041f4e65fad6a77089b1,2024_02_09,42.74071837900346,-124.4983727491047,Port Orford,2.8461538461538463,1.0315384615384615,1.3123076923076924,11.23076923076923,11.23076923076923,"NIGHT_CLEAR,NIGHT_MOSTLY_CLOUDY,NIGHT_MOSTLY_CLOUDY,NIGHT_CLEAR,NIGHT_CLEAR,NIGHT_MOSTLY_CLOUDY,NIGHT_RAIN_AND_FOG,LIGHT_RAIN_AND_FOG,CLOUDY,OVERCAST,DRIZZLE,BRIEF_SHOWERS,OVERCAST","Offshore,Offshore,Cross-shore,Cross-shore,Cross-shore,Cross-shore,Onshore,Onshore,Onshore,Onshore,Onshore,Onshore,Onshore",13
5842041f4e65fad6a77089b2,2024_02_09,44.01532689312291,-124.13865,Florence South Jetty,3,1.9023076923076923,2.247692307692308,11,11,"NIGHT_MOSTLY_CLOUDY,NIGHT_MOSTLY_CLOUDY,NIGHT_OVERCAST,NIGHT_OVERCAST,NIGHT_CLOUDY,NIGHT_FOG,NIGHT_DRIZZLE,DRIZZLE,LIGHT_RAIN,DRIZZLE,DRIZZLE,DRIZZLE,DRIZZLE","Onshore,Onshore,Onshore,Onshore,Onshore,Onshore,Onshore,Onshore,Cross-shore,Onshore,Cross-shore,Cross-shore,Offshore",13
5842041f4e65fad6a77089b3,2024_02_09,42.41812540774362,-124.42945,Gold Beach South Jetty,3.076923076923077,1.6046153846153846,1.8884615384615384,11.23076923076923,11.23076923076923,"NIGHT_CLEAR,NIGHT_CLEAR,NIGHT_CLEAR,NIGHT_CLEAR,NIGHT_CLEAR,NIGHT_CLEAR,NIGHT_CLOUDY,DRIZZLE,FOG,OVERCAST,OVERCAST,OVERCAST,OVERCAST","Offshore,Offshore,Offshore,Offshore,Offshore,Offshore,Cross-shore,Onshore,Onshore,Onshore,Onshore,Onshore,Cross-shore",13
5842041f4e65fad6a77089b4,2024_02_09,44.95857310226525,-124.0219017690976,Lincoln City,2.923076923076923,1.8800000000000001,2.2007692307692306,11,11,"NIGHT_MOSTLY_CLOUDY,NIGHT_CLEAR,NIGHT_OVERCAST,NIGHT_CLEAR,NIGHT_LIGHT_RAIN_AND_FOG,NIGHT_CLOUDY,NIGHT_BRIEF_SHOWERS_POSSIBLE,FOG,DRIZZLE,LIGHT_RAIN,DRIZZLE,DRIZZLE,DRIZZLE","Onshore,Onshore,Onshore,Onshore,Onshore,Onshore,Cross-shore,Cross-shore,Cross-shore,Offshore,Offshore,Cross-shore,Cross-shore",13
5842041f4e65fad6a77089b5,2024_02_09,44.63792761362982,-124.0657,Newport,2.923076923076923,2.04,2.3892307692307693,11,11,"NIGHT_MOSTLY_CLOUDY,NIGHT_CLEAR,NIGHT_OVERCAST,NIGHT_OVERCAST,NIGHT_OVERCAST,NIGHT_LIGHT_RAIN_AND_FOG,NIGHT_FOG,DRIZZLE,DRIZZLE,DRIZZLE,DRIZZLE,DRIZZLE,OVERCAST","Onshore,Onshore,Onshore,Onshore,Onshore,Onshore,Onshore,Onshore,Cross-shore,Cross-shore,Cross-shore,Cross-shore,Cross-shore",13
5842041f4e65fad6a77089b6,2024_02_09,45.61468496266301,-123.94643,Rockaway Beach,3,1.9046153846153846,2.2376923076923076,11,11,"NIGHT_MOSTLY_CLOUDY,NIGHT_CLEAR,NIGHT_FOG,NIGHT_CLOUDY,NIGHT_RAIN_AND_FOG,NIGHT_MOSTLY_CLOUDY,NIGHT_MOSTLY_CLOUDY,CLOUDY,CLOUDY,CLEAR,CLEAR,CLEAR,DRIZZLE","Onshore,Onshore,Onshore,Onshore,Onshore,Onshore,Offshore,Cross-shore,Cross-shore,Cross-shore,Cross-shore,Cross-shore,Offshore",13
5842041f4e65fad6a77089b7,2024_02_09,45.20252914186085,-123.96975,Pacific City,3,1.6707692307692308,1.9507692307692306,11,11,"NIGHT_MOSTLY_CLOUDY,NIGHT_DRIZZLE,NIGHT_CLOUDY,NIGHT_DRIZZLE,NIGHT_OVERCAST,NIGHT_OVERCAST,NIGHT_FOG,DRIZZLE,DRIZZLE,DRIZZLE,CLEAR,CLEAR,OVERCAST","Onshore,Onshore,Onshore,Onshore,Onshore,Onshore,Onshore,Onshore,Cross-shore,Cross-shore,Cross-shore,Cross-shore,Cross-shore",13
5842041f4e65fad6a77089b8,2024_02_09,45.88179930310263,-123.96681,Cannon Beach,2.923076923076923,1.8392307692307692,2.170769230769231,11,11,"NIGHT_CLEAR,NIGHT_CLOUDY,NIGHT_OVERCAST,NIGHT_OVERCAST,NIGHT_MOSTLY_CLOUDY,NIGHT_CLEAR,NIGHT_OVERCAST,FOG,CLEAR,CLOUDY,OVERCAST,OVERCAST,LIGHT_RAIN","Onshore,Onshore,Onshore,Onshore,Onshore,Cross-shore,Cross-shore,Cross-shore,Cross-shore,Onshore,Onshore,Onshore,Offshore",13
5842041f4e65fad6a77089ba,2024_02_09,40.02528754746774,-124.06372,Shelter Cove,2.8461538461538463,0.5567407692307692,0.8699069230769231,12,12,"NIGHT_CLEAR,NIGHT_CLEAR,NIGHT_CLEAR,NIGHT_CLEAR,NIGHT_CLEAR,NIGHT_CLEAR,NIGHT_CLEAR,CLEAR,CLEAR,CLEAR,CLEAR,CLEAR,CLEAR","Offshore,Offshore,Offshore,Offshore,Offshore,Offshore,Offshore,Offshore,Offshore,Offshore,Offshore,Offshore,Offshore",13
5842041f4e65fad6a77089bb,2024_02_09,40.76816197136951,-124.24248,Humboldt Harbor Entrance,2.6153846153846154,2.046153846153846,2.439230769230769,12,12,"NIGHT_MOSTLY_CLOUDY,NIGHT_CLEAR,NIGHT_CLEAR,NIGHT_CLEAR,NIGHT_CLEAR,NIGHT_CLEAR,NIGHT_CLEAR,MOSTLY_CLEAR,MOSTLY_CLOUDY,CLEAR,MOSTLY_CLOUDY,CLEAR,CLEAR","Cross-shore,Cross-shore,Cross-shore,Cross-shore,Cross-shore,Cross-shore,Cross-shore,Cross-shore,Cross-shore,Cross-shore,Cross-shore,Cross-shore,Cross-shore",13
5842041f4e65fad6a77089bc,2024_02_09,40.76684246920174,-124.23107,North Jetty,2.769230769230769,2.5015384615384617,2.93,12,12,"NIGHT_CLEAR,NIGHT_CLEAR,NIGHT_CLEAR,NIGHT_CLEAR,NIGHT_MOSTLY_CLEAR,NIGHT_CLEAR,NIGHT_CLEAR,CLEAR,MOSTLY_CLOUDY,MOSTLY_CLOUDY,MOSTLY_CLOUDY,MOSTLY_CLOUDY,CLEAR","Cross-shore,Cross-shore,Cross-shore,Cross-shore,Cross-shore,Cross-shore,Cross-shore,Cross-shore,Cross-shore,Cross-shore,Cross-shore,Cross-shore,Cross-shore",13
5842041f4e65fad6a77089bd,2024_02_09,41.02731183893966,-124.1149972888982,Westhaven,3.3076923076923075,2.770769230769231,3.2753846153846156,12,12,"NIGHT_CLEAR,NIGHT_CLEAR,NIGHT_CLEAR,NIGHT_CLEAR,NIGHT_CLEAR,NIGHT_CLEAR,NIGHT_CLEAR,CLEAR,MOSTLY_CLOUDY,MOSTLY_CLOUDY,MOSTLY_CLOUDY,MOSTLY_CLOUDY,MOSTLY_CLOUDY","Offshore,Offshore,Offshore,Offshore,Offshore,Offshore,Cross-shore,Cross-shore,Cross-shore,Cross-shore,Cross-shore,Cross-shore,Cross-shore",13
5842041f4e65fad6a77089be,2024_02_09,41.13016238153297,-124.16466,Sue-meg,3,1.9307692307692308,2.2361538461538464,12,12,"NIGHT_CLEAR,NIGHT_CLEAR,NIGHT_CLEAR,NIGHT_CLEAR,NIGHT_CLEAR,NIGHT_CLEAR,NIGHT_CLEAR,CLEAR,CLEAR,MOSTLY_CLOUDY,MOSTLY_CLOUDY,MOSTLY_CLOUDY,MOSTLY_CLOUDY","Cross-shore,Cross-shore,Cross-shore,Cross-shore,Cross-shore,Cross-shore,Cross-shore,Cross-shore,Cross-shore,Cross-shore,Cross-shore,Onshore,Cross-shore",13
5842041f4e65fad6a77089bf,2024_02_09,37.8289474958188,-122.5376795097543,Fort Cronkite/Rodeo Beach,3.769230769230769,1.7115384615384615,1.9976923076923077,13,13,"NIGHT_CLEAR,NIGHT_CLEAR,NIGHT_CLEAR,NIGHT_CLEAR,NIGHT_CLEAR,NIGHT_CLEAR,NIGHT_CLEAR,CLEAR,CLEAR,CLEAR,CLEAR,CLEAR,CLEAR","Offshore,Offshore,Offshore,Offshore,Offshore,Offshore,Offshore,Offshore,Offshore,Offshore,Cross-shore,Cross-shore,Cross-shore",13
5842041f4e65fad6a77089c0,2024_02_09,41.74415759876137,-124.1771718063073,South Beach CA,3,0.9315384615384615,1.1284615384615384,11.23076923076923,11.23076923076923,"NIGHT_CLEAR,NIGHT_CLEAR,NIGHT_CLEAR,NIGHT_CLEAR,NIGHT_CLEAR,NIGHT_CLEAR,NIGHT_CLEAR,CLEAR,CLEAR,OVERCAST,OVERCAST,OVERCAST,MOSTLY_CLOUDY","Offshore,Offshore,Offshore,Cross-shore,Offshore,Offshore,Cross-shore,Cross-shore,Cross-shore,Cross-shore,Cross-shore,Offshore,Offshore",13
5842041f4e65fad6a77089c1,2024_02_09,37.89801283969752,-122.64519,Stinson Beach,3,0.3976923076923077,0.7023076923076923,13,13,"NIGHT_BRIEF_SHOWERS_POSSIBLE,NIGHT_MIST,NIGHT_CLEAR,NIGHT_CLEAR,NIGHT_MOSTLY_CLEAR,NIGHT_MOSTLY_CLEAR,NIGHT_MIST,MOSTLY_CLEAR,MOSTLY_CLOUDY,MOSTLY_CLEAR,MOSTLY_CLEAR,MOSTLY_CLEAR,MIST","Offshore,Cross-shore,Cross-shore,Cross-shore,Cross-shore,Offshore,Offshore,Cross-shore,Cross-shore,Cross-shore,Cross-shore,Cross-shore,Cross-shore",13
5842041f4e65fad6a77089c2,2024_02_09,37.90514516176495,-122.68151,Bolinas,3,0.44710153846153844,0.6985969230769231,13,13,"NIGHT_CLEAR,NIGHT_CLEAR,NIGHT_CLEAR,NIGHT_CLEAR,NIGHT_MOSTLY_CLEAR,NIGHT_FOG,NIGHT_CLEAR,CLEAR,CLEAR,CLEAR,MOSTLY_CLEAR,BRIEF_SHOWERS,MIST","Cross-shore,Onshore,Onshore,Onshore,Cross-shore,Cross-shore,Onshore,Onshore,Cross-shore,Cross-shore,Offshore,Cross-shore,Offshore",13
5842041f4e65fad6a77089c3,2024_02_09,38.04892513158693,-122.9892494965416,Point Reyes (north),3,2.4646153846153847,2.920769230769231,13,13,"NIGHT_MOSTLY_CLEAR,NIGHT_CLEAR,NIGHT_CLEAR,NIGHT_CLEAR,NIGHT_MOSTLY_CLEAR,NIGHT_MOSTLY_CLEAR,NIGHT_CLEAR,CLEAR,CLEAR,CLEAR,CLEAR,CLEAR,CLEAR","Offshore,Offshore,Offshore,Offshore,Offshore,Cross-shore,Offshore,Offshore,Onshore,Onshore,Onshore,Onshore,Onshore",13
5842041f4e65fad6a77089c6,2024_02_09,38.31088736605785,-123.0496777333731,Doran Beach,2,0.18923076923076923,0.4946153846153846,13,13,"NIGHT_MOSTLY_CLEAR,NIGHT_CLEAR,NIGHT_CLEAR,NIGHT_CLEAR,NIGHT_CLEAR,NIGHT_CLEAR,NIGHT_CLEAR,CLEAR,MOSTLY_CLOUDY,MOSTLY_CLEAR,CLEAR,CLEAR,CLEAR","Onshore,Onshore,Offshore,Offshore,Offshore,Cross-shore,Offshore,Offshore,Offshore,Offshore,Offshore,Offshore,Offshore",13
5842041f4e65fad6a77089c7,2024_02_09,38.45077228660809,-123.13008,Russian Rivermouth,3,1.7646153846153847,2.0738461538461537,13,13,"NIGHT_MOSTLY_CLEAR,NIGHT_CLEAR,NIGHT_CLEAR,NIGHT_CLEAR,NIGHT_CLEAR,NIGHT_CLEAR,NIGHT_CLEAR,MOSTLY_CLEAR,MOSTLY_CLOUDY,MOSTLY_CLEAR,CLEAR,CLEAR,CLEAR","Cross-shore,Onshore,Onshore,Onshore,Offshore,Offshore,Cross-shore,Offshore,Onshore,Onshore,Onshore,Onshore,Onshore",13
5842041f4e65fad6a77089c8,2024_02_09,38.35329968518107,-123.06906,Salmon Creek,2.923076923076923,1.866923076923077,2.180769230769231,13,13,"NIGHT_CLEAR,NIGHT_CLEAR,NIGHT_CLEAR,NIGHT_CLEAR,NIGHT_CLEAR,NIGHT_CLEAR,NIGHT_CLEAR,CLEAR,MOSTLY_CLOUDY,CLEAR,CLEAR,CLEAR,CLEAR","Cross-shore,Onshore,Onshore,Onshore,Onshore,Onshore,Onshore,Onshore,Onshore,Onshore,Onshore,Onshore,Onshore",13
5842041f4e65fad6a77089c9,2024_02_09,38.6845180197959,-123.4322714291198,Black Point Beach,3.4615384615384617,1.0338461538461539,1.3138461538461539,13,13,"NIGHT_CLEAR,NIGHT_CLEAR,NIGHT_CLEAR,NIGHT_CLEAR,NIGHT_CLEAR,NIGHT_CLEAR,NIGHT_MOSTLY_CLEAR,CLEAR,CLEAR,CLEAR,CLEAR,CLEAR,CLEAR","Cross-shore,Offshore,Offshore,Cross-shore,Cross-shore,Cross-shore,Offshore,Offshore,Onshore,Onshore,Onshore,Onshore,Onshore",13
5842041f4e65fad6a77089ca,2024_02_09,43.251076,-70.59144,Ogunquit,1.5507692307692307,0.5507692307692308,0.9529487179487179,5,4,"NIGHT_CLEAR,NIGHT_MIST,NIGHT_MIST,MIST,MIST,CLEAR,MOSTLY_CLOUDY,CLEAR,CLEAR,CLEAR,CLEAR,CLEAR,CLEAR","Offshore,Cross-shore,Cross-shore,Cross-shore,Cross-shore,Cross-shore,Cross-shore,Cross-shore,Cross-shore,Cross-shore,Cross-shore,Cross-shore,Cross-shore",13
5842041f4e65fad6a77089cb,2024_02_09,41.362631366305415,-71.48006772942608,Point Judith,1.5292307692307692,0.5403820512820513,0.8460153846153846,7,6,"NIGHT_CLEAR,NIGHT_CLEAR,NIGHT_CLEAR,CLEAR,CLEAR,CLEAR,CLEAR,CLEAR,CLEAR,CLOUDY,OVERCAST,OVERCAST,OVERCAST","Offshore,Cross-shore,Cross-shore,Offshore,Cross-shore,Cross-shore,Cross-shore,Cross-shore,Offshore,Cross-shore,Cross-shore,Cross-shore,Cross-shore",13
5842041f4e65fad6a77089cd,2024_02_09,41.422678090954726,-71.45413,Monahan's - Narragansett,1.2307692307692308,0.27680461538461537,0.4325084615384615,5,5,"NIGHT_CLEAR,NIGHT_CLEAR,NIGHT_CLEAR,CLEAR,CLEAR,BRIEF_SHOWERS_POSSIBLE,CLEAR,CLEAR,CLEAR,OVERCAST,CLOUDY,OVERCAST,CLOUDY","Onshore,Cross-shore,Cross-shore,Cross-shore,Cross-shore,Onshore,Cross-shore,Cross-shore,Cross-shore,Cross-shore,Cross-shore,Cross-shore,Cross-shore",13
5842041f4e65fad6a77089ce,2024_02_09,41.469,-71.293,Ruggles - Newport,1.2307692307692308,0.2827369230769231,0.4417753846153846,5,5,"NIGHT_CLEAR,NIGHT_CLEAR,NIGHT_CLEAR,CLEAR,CLEAR,CLEAR,CLEAR,CLEAR,CLEAR,OVERCAST,CLOUDY,CLOUDY,CLOUDY","Onshore,Onshore,Onshore,Onshore,Onshore,Onshore,Onshore,Onshore,Onshore,Onshore,Onshore,Onshore,Onshore",13
5842041f4e65fad6a77089cf,2024_02_09,43.175394,-70.606351,Short Sands Beach,1.3846153846153846,0.3323076923076923,0.6392307692307693,4,4,"NIGHT_MIST,NIGHT_CLEAR,NIGHT_CLEAR,CLEAR,CLEAR,CLEAR,MOSTLY_CLOUDY,CLEAR,CLEAR,CLEAR,CLEAR,CLEAR,CLEAR","Offshore,Cross-shore,Cross-shore,Cross-shore,Cross-shore,Cross-shore,Cross-shore,Cross-shore,Cross-shore,Cross-shore,Cross-shore,Cross-shore,Cross-shore",13
5842041f4e65fad6a77089d0,2024_02_09,41.487408,-71.29017,First Beach,1.3846153846153846,0.03307692307692308,0.33692307692307694,5,5,"NIGHT_CLEAR,NIGHT_CLEAR,NIGHT_CLEAR,CLEAR,CLEAR,CLEAR,CLOUDY,CLEAR,CLEAR,OVERCAST,OVERCAST,OVERCAST,MIST","Onshore,Onshore,Onshore,Onshore,Onshore,Onshore,Onshore,Onshore,Onshore,Onshore,Onshore,Onshore,Onshore",13
5842041f4e65fad6a77089d1,2024_02_09,42.27916830233153,-70.86498,Nantasket Beach,2.3207692307692307,0.4075846153846154,0.7125948717948718,5,4,"NIGHT_MIST,NIGHT_CLEAR,NIGHT_CLEAR,MIST,CLEAR,CLEAR,CLEAR,CLEAR,CLEAR,CLEAR,CLEAR,MOSTLY_CLOUDY,MOSTLY_CLOUDY","Offshore,Offshore,Offshore,Offshore,Offshore,Offshore,Offshore,Offshore,Offshore,Offshore,Offshore,Offshore,Offshore",13
5842041f4e65fad6a77089d2,2024_02_09,41.817,-69.935,Cape Cod,1.6923076923076923,0.4292307692307692,0.7338461538461538,5,5,"NIGHT_MIST,NIGHT_CLEAR,NIGHT_CLEAR,CLEAR,CLEAR,CLEAR,CLEAR,CLEAR,CLOUDY,CLEAR,CLEAR,CLEAR,CLEAR","Onshore,Offshore,Onshore,Onshore,Cross-shore,Cross-shore,Cross-shore,Cross-shore,Cross-shore,Cross-shore,Cross-shore,Cross-shore,Cross-shore",13
5842041f4e65fad6a77089d3,2024_02_09,42.22055448975661,-70.70634873403819,Egypt Beach,1.3076923076923077,0.3792307692307692,0.6838461538461539,4,4,"NIGHT_CLEAR,NIGHT_CLEAR,NIGHT_CLEAR,CLEAR,CLEAR,CLEAR,CLEAR,CLEAR,CLEAR,CLEAR,CLEAR,CLEAR,BRIEF_SHOWERS","Cross-shore,Cross-shore,Cross-shore,Cross-shore,Cross-shore,Cross-shore,Cross-shore,Cross-shore,Cross-shore,Cross-shore,Cross-shore,Cross-shore,Cross-shore",13
5842041f4e65fad6a77089d4,2024_02_09,41.48739647744607,-71.25723,Second Beach,0.9361538461538461,0.25878641025641025,0.48299782051282053,7,6,"NIGHT_CLEAR,NIGHT_CLEAR,NIGHT_CLEAR,CLEAR,CLEAR,CLEAR,CLOUDY,CLEAR,CLEAR,CLOUDY,CLOUDY,OVERCAST,MIST","Onshore,Onshore,Onshore,Onshore,Onshore,Onshore,Onshore,Onshore,Onshore,Onshore,Onshore,Onshore,Onshore",13
5842041f4e65fad6a77089d5,2024_02_09,42.964,-70.769,Fox Hill,1.41,0.4897435897435898,0.8470512820512821,5,4,"NIGHT_CLEAR,NIGHT_CLEAR,NIGHT_CLEAR,CLEAR,CLEAR,CLEAR,CLEAR,CLEAR,CLEAR,CLEAR,CLEAR,CLEAR,CLEAR","Offshore,Onshore,Onshore,Onshore,Onshore,Onshore,Cross-shore,Onshore,Onshore,Onshore,Onshore,Onshore,Onshore",13
5842041f4e65fad6a77089d6,2024_02_09,42.991359,-70.75149,Straws Point,1.3976923076923078,0.4721794871794872,0.8238461538461538,5,4,"NIGHT_CLEAR,NIGHT_CLEAR,NIGHT_CLEAR,CLEAR,CLEAR,CLEAR,CLEAR,CLEAR,CLEAR,CLEAR,CLEAR,CLEAR,CLEAR","Cross-shore,Onshore,Onshore,Onshore,Onshore,Onshore,Onshore,Onshore,Onshore,Onshore,Onshore,Onshore,Onshore",13
5842041f4e65fad6a77089d7,2024_02_09,42.946,-70.786,Plaice Cove,1.4361538461538461,0.4897435897435898,0.8470512820512821,5,4,"NIGHT_CLEAR,NIGHT_CLEAR,NIGHT_CLEAR,CLEAR,CLEAR,CLEAR,CLEAR,CLEAR,CLEAR,CLEAR,CLEAR,CLEAR,CLEAR","Offshore,Cross-shore,Cross-shore,Cross-shore,Cross-shore,Cross-shore,Cross-shore,Cross-shore,Cross-shore,Cross-shore,Cross-shore,Cross-shore,Cross-shore",13
5842041f4e65fad6a77089d9,2024_02_09,42.911574,-70.80831,The Main Beach,1.6638461538461538,0.6101965384615384,1.0042347435897436,6,4,"NIGHT_CLEAR,NIGHT_CLEAR,NIGHT_CLEAR,CLEAR,CLEAR,CLEAR,CLEAR,CLEAR,CLEAR,CLEAR,CLEAR,CLEAR,CLEAR","Cross-shore,Onshore,Onshore,Onshore,Onshore,Onshore,Onshore,Onshore,Onshore,Onshore,Onshore,Onshore,Onshore",13
5842041f4e65fad6a77089da,2024_02_09,42.97583846220203,-70.764,Sawyer's Beach,1.4361538461538461,0.4552564102564103,0.8106410256410257,5,4,"NIGHT_CLEAR,NIGHT_CLEAR,NIGHT_CLEAR,CLEAR,CLEAR,CLEAR,CLEAR,CLEAR,CLEAR,CLEAR,CLEAR,CLEAR,CLEAR","Offshore,Onshore,Cross-shore,Cross-shore,Cross-shore,Cross-shore,Cross-shore,Onshore,Onshore,Onshore,Onshore,Onshore,Onshore",13
5842041f4e65fad6a77089db,2024_02_09,42.97,-70.77,Rye on the Rocks / 5-0's,1.540769230769231,0.6090199230769231,1.001644846153846,6,4,"NIGHT_CLEAR,NIGHT_CLEAR,NIGHT_CLEAR,CLEAR,CLEAR,CLEAR,CLEAR,CLEAR,CLEAR,CLEAR,CLEAR,CLEAR,CLEAR","Offshore,Onshore,Onshore,Onshore,Onshore,Onshore,Cross-shore,Onshore,Onshore,Onshore,Onshore,Onshore,Onshore",13
5842041f4e65fad6a77089dc,2024_02_09,43.55902946610303,-70.27795,Higgins Beach,1.4153846153846155,0.5397615384615385,0.8447025641025641,5,4,"NIGHT_MIST,NIGHT_CLEAR,NIGHT_CLEAR,CLEAR,CLEAR,CLEAR,CLEAR,CLOUDY,CLEAR,CLEAR,CLEAR,CLEAR,CLEAR","Onshore,Onshore,Onshore,Onshore,Onshore,Onshore,Onshore,Onshore,Onshore,Onshore,Onshore,Onshore,Onshore",13
5842041f4e65fad6a77089dd,2024_02_09,43.302676,-70.5652,Wells Beach,1.4223076923076923,0.5036538461538462,0.903974358974359,5,4,"NIGHT_MOSTLY_CLEAR,NIGHT_CLEAR,NIGHT_MIST,MIST,CLEAR,CLEAR,CLEAR,CLEAR,CLEAR,CLEAR,CLEAR,CLEAR,CLEAR","Offshore,Cross-shore,Cross-shore,Cross-shore,Cross-shore,Cross-shore,Cross-shore,Cross-shore,Cross-shore,Cross-shore,Cross-shore,Cross-shore,Cross-shore",13
5842041f4e65fad6a77089de,2024_02_09,43.545359,-70.30479,Scarborough Beach State Park,1.2307692307692308,0.5414788461538462,0.9193314102564102,5,4,"NIGHT_MOSTLY_CLEAR,NIGHT_CLEAR,NIGHT_CLEAR,CLEAR,CLEAR,CLEAR,CLEAR,CLEAR,CLEAR,CLEAR,CLEAR,CLEAR,CLEAR","Cross-shore,Onshore,Onshore,Onshore,Onshore,Onshore,Onshore,Onshore,Onshore,Onshore,Onshore,Onshore,Onshore",13
5842041f4e65fad6a77089df,2024_02_09,43.514481,-70.372146,Old Orchard Beach,1.7692307692307692,0.6071641025641026,1.0323615384615383,5,4,"NIGHT_MIST,NIGHT_CLEAR,NIGHT_CLEAR,CLEAR,CLEAR,CLEAR,CLEAR,CLEAR,CLEAR,CLEAR,CLEAR,CLEAR,CLEAR","Cross-shore,Onshore,Onshore,Onshore,Onshore,Onshore,Onshore,Onshore,Onshore,Onshore,Onshore,Onshore,Onshore",13
5842041f4e65fad6a77089e0,2024_02_09,43.34711,-70.48165,Gooch's Beach,1.3846153846153846,0.2834615384615385,0.587948717948718,5,4,"NIGHT_MIST,NIGHT_CLEAR,NIGHT_CLEAR,CLEAR,CLEAR,CLEAR,CLEAR,CLEAR,CLEAR,CLEAR,CLEAR,CLEAR,CLEAR","Onshore,Onshore,Onshore,Onshore,Onshore,Onshore,Onshore,Onshore,Onshore,Onshore,Onshore,Onshore,Onshore",13
5842041f4e65fad6a77089e2,2024_02_09,40.58433,-73.62953,Lido Beach,1.5061538461538462,0.6535820512820513,1.0816179487179487,7,6,"NIGHT_CLEAR,NIGHT_CLEAR,NIGHT_CLEAR,CLEAR,CLOUDY,CLEAR,MIST,CLEAR,MIST,MIST,MIST,MIST,MIST","Onshore,Onshore,Onshore,Onshore,Onshore,Onshore,Onshore,Onshore,Onshore,Onshore,Onshore,Onshore,Onshore",13
5842041f4e65fad6a77089e3,2024_02_09,43.163135,-70.61689,Long Sands Beach,1.9384615384615385,0.6109960256410256,1.0338118717948717,5,4,"NIGHT_CLEAR,NIGHT_CLEAR,NIGHT_CLEAR,CLEAR,CLEAR,CLEAR,MOSTLY_CLOUDY,CLEAR,CLEAR,CLEAR,CLEAR,CLEAR,CLEAR","Onshore,Onshore,Onshore,Onshore,Onshore,Onshore,Onshore,Onshore,Onshore,Onshore,Onshore,Onshore,Onshore",13
5842041f4e65fad6a77089e4,2024_02_09,40.61695351251805,-73.39376,Gilgo Beach,0.9615384615384616,0.4527128205128205,0.8032358974358974,8,6,"NIGHT_CLEAR,NIGHT_CLEAR,NIGHT_CLEAR,CLEAR,CLEAR,CLOUDY,CLEAR,CLEAR,CLEAR,MIST,MIST,MIST,MIST","Onshore,Onshore,Onshore,Onshore,Onshore,Onshore,Onshore,Onshore,Onshore,Onshore,Onshore,Onshore,Onshore",13
5842041f4e65fad6a77089e5,2024_02_09,40.62530081928036,-73.23827,Robert Moses,1,0.18846153846153846,0.4946153846153846,5,5,"NIGHT_MIST,NIGHT_CLEAR,NIGHT_CLEAR,CLEAR,CLEAR,CLEAR,CLEAR,CLEAR,CLEAR,MIST,MIST,MIST,MIST","Onshore,Onshore,Onshore,Onshore,Onshore,Onshore,Onshore,Onshore,Onshore,Onshore,Onshore,Onshore,Onshore",13
5842041f4e65fad6a77089e6,2024_02_09,40.64313317632791,-73.15727,Fire Island,1,0.18461538461538463,0.49,5.769230769230769,5.769230769230769,"NIGHT_CLEAR,NIGHT_CLEAR,NIGHT_CLEAR,CLEAR,CLEAR,CLOUDY,CLEAR,CLEAR,CLEAR,MIST,MIST,MIST,MIST","Onshore,Onshore,Onshore,Onshore,Onshore,Onshore,Onshore,Onshore,Onshore,Onshore,Onshore,Onshore,Onshore",13
5842041f4e65fad6a77089e8,2024_02_09,40.76653118828782,-72.74579619372713,Cupsogue,1.8461538461538463,0.35384615384615387,0.6592307692307693,5,5,"NIGHT_CLEAR,NIGHT_CLEAR,NIGHT_CLEAR,CLEAR,CLEAR,CLEAR,CLEAR,CLEAR,MOSTLY_CLOUDY,CLEAR,MOSTLY_CLOUDY,MIST,MOSTLY_CLOUDY","Onshore,Onshore,Onshore,Onshore,Onshore,Onshore,Onshore,Onshore,Onshore,Onshore,Onshore,Onshore,Onshore",13
5842041f4e65fad6a77089e9,2024_02_09,42.9376373334092,-70.79141,The Wall ,1.6484615384615384,0.6059655128205128,0.9976195512820513,6,4,"NIGHT_CLEAR,NIGHT_CLEAR,NIGHT_CLEAR,CLEAR,CLEAR,CLEAR,CLEAR,CLEAR,CLEAR,CLEAR,CLEAR,CLEAR,CLEAR","Offshore,Cross-shore,Cross-shore,Cross-shore,Cross-shore,Cross-shore,Cross-shore,Cross-shore,Cross-shore,Cross-shore,Cross-shore,Cross-shore,Cross-shore",13
5842041f4e65fad6a77089ea,2024_02_09,40.887088,-72.33856,Flys,1.3846153846153846,0.3230769230769231,0.6292307692307693,5,5,"NIGHT_CLEAR,NIGHT_CLEAR,NIGHT_CLEAR,CLEAR,CLEAR,CLEAR,CLEAR,CLEAR,CLEAR,CLEAR,CLEAR,MIST,MOSTLY_CLOUDY","Onshore,Onshore,Onshore,Onshore,Onshore,Onshore,Onshore,Onshore,Onshore,Onshore,Onshore,Onshore,Onshore",13
5842041f4e65fad6a77089eb,2024_02_09,41.0389266436591,-71.91068529316958,Trailer Park,1.2307692307692308,0.7734157692307693,1.1448315384615384,8,6,"NIGHT_CLEAR,NIGHT_CLEAR,NIGHT_CLEAR,CLEAR,CLEAR,CLEAR,CLEAR,CLEAR,OVERCAST,OVERCAST,CLEAR,MOSTLY_CLOUDY,OVERCAST","Onshore,Onshore,Onshore,Onshore,Onshore,Onshore,Onshore,Onshore,Onshore,Onshore,Onshore,Onshore,Onshore",13
5842041f4e65fad6a77089ec,2024_02_09,41.039505402729105,-71.9142,Ditch Plains,1.1538461538461537,0.42467846153846156,0.66356,5,5,"NIGHT_CLEAR,NIGHT_CLEAR,NIGHT_CLEAR,CLEAR,CLEAR,CLEAR,CLEAR,CLEAR,CLEAR,CLEAR,CLEAR,CLEAR,CLOUDY","Onshore,Onshore,Onshore,Onshore,Onshore,Onshore,Onshore,Onshore,Onshore,Onshore,Onshore,Onshore,Onshore",13
5842041f4e65fad6a77089ee,2024_02_09,40.57633275206492,-73.56895305108567,"West End, Jones Beach",1,0.3966769230769231,0.7901538461538461,7,6,"NIGHT_CLEAR,NIGHT_CLEAR,NIGHT_CLEAR,CLEAR,CLEAR,CLEAR,CLEAR,OVERCAST,CLEAR,CLOUDY,MIST,MIST,MIST","Onshore,Onshore,Onshore,Onshore,Onshore,Onshore,Onshore,Onshore,Onshore,Onshore,Onshore,Onshore,Onshore",13
5842041f4e65fad6a77089f1,2024_02_09,41.038286691230795,-71.91991567611694,Poles,1.2946153846153847,0.7751197692307692,1.1462885897435897,8,6,"NIGHT_CLEAR,NIGHT_CLEAR,NIGHT_CLEAR,CLEAR,CLEAR,CLEAR,CLEAR,CLEAR,OVERCAST,OVERCAST,CLEAR,MOSTLY_CLOUDY,OVERCAST","Onshore,Onshore,Onshore,Onshore,Onshore,Onshore,Onshore,Onshore,Onshore,Onshore,Onshore,Onshore,Onshore",13
5842041f4e65fad6a77089f3,2024_02_09,40.84077769766295,-72.47989493724765,The Bowl,1.3846153846153846,0.31076923076923074,0.6161538461538462,5,5,"NIGHT_CLEAR,NIGHT_CLEAR,NIGHT_CLEAR,CLEAR,CLEAR,CLEAR,CLEAR,CLEAR,CLOUDY,MOSTLY_CLEAR,CLEAR,CLEAR,MOSTLY_CLOUDY","Onshore,Onshore,Onshore,Onshore,Onshore,Onshore,Onshore,Onshore,Onshore,Onshore,Onshore,Onshore,Onshore",13
5842041f4e65fad6a77089f4,2024_02_09,40.94235535243154,-72.19286,Main Beach,0.9230769230769231,0.49046923076923077,0.8851,14,13,"NIGHT_CLEAR,NIGHT_CLEAR,NIGHT_CLEAR,CLOUDY,CLEAR,CLEAR,CLEAR,CLOUDY,CLOUDY,MOSTLY_CLOUDY,MOSTLY_CLEAR,CLEAR,MIST","Onshore,Onshore,Onshore,Onshore,Onshore,Onshore,Onshore,Onshore,Onshore,Onshore,Onshore,Onshore,Onshore",13
