_id,date,lat,lon,name,daily_mean_swell_rating,daily_mean_wave_height_min,daily_mean_wave_height_max,daily_mean_water_temperature_max,daily_mean_water_temperature_min,weather_per_timestamp,wind_per_timestamp,n_samples_per_day
5842041f4e65fad6a77087f9,2024_11_22,37.741668,-122.51038,South Ocean Beach,3,2.26346,2.7341,12,12,NIGHT_OVERCAST,Offshore,1
5842041f4e65fad6a7708801,2024_11_22,37.49142,-122.50428,Maverick's,NA,1.77333,2.13873,12,12,NIGHT_MIST,Onshore,1
5842041f4e65fad6a7708804,2024_11_22,44.997,-124.018,Roads End,2,1.79,2.14,12,12,NIGHT_RAIN,Onshore,1
5842041f4e65fad6a7708805,2024_11_22,36.95188851423011,-122.02522,Steamer Lane,3,1.41334,1.70774,12,12,NIGHT_MIST,Onshore,1
5842041f4e65fad6a7708806,2024_11_22,36.95918781542251,-122.02489,Cowells,2,0.35064,0.65111,12,12,NIGHT_MIST,Cross-shore,1
5842041f4e65fad6a7708807,2024_11_22,36.95468082526536,-121.97234,Pleasure Point,3,1.13053,1.39599,12,12,NIGHT_CLEAR,Offshore,1
5842041f4e65fad6a770880a,2024_11_22,35.37815414378748,-120.86589,Morro Bay,4,1.24033,1.50613,12,12,NIGHT_MOSTLY_CLEAR,Offshore,1
5842041f4e65fad6a770880b,2024_11_22,36.95782765000708,-121.96729,Jack's,3,0.51731,0.79507,12,12,NIGHT_CLEAR,Offshore,1
5842041f4e65fad6a770880d,2024_11_22,34.29982939936656,-119.3489016603669,Gold Coast Beachbreaks,2,0.26,0.56,14,14,NIGHT_CLEAR,Offshore,1
5842041f4e65fad6a7708811,2024_11_22,34.245076,-119.26799,Ventura Harbor,3,0.94,1.11,13,13,NIGHT_CLEAR,Onshore,1
5842041f4e65fad6a7708813,2024_11_22,34.051,-118.964,County Line,3,0.47,0.78,13,13,NIGHT_CLEAR,Cross-shore,1
5842041f4e65fad6a7708814,2024_11_22,34.37256264378892,-119.47797,Rincon,3,0.5,0.81,13,13,NIGHT_CLEAR,Onshore,1
5842041f4e65fad6a7708817,2024_11_22,34.03096101876324,-118.68109,Malibu Third Point,2,0.3196,0.62107,15,15,NIGHT_CLEAR,Cross-shore,1
5842041f4e65fad6a7708819,2024_11_22,33.984079047970035,-118.47382,Venice Beach,3,0.62,0.93,14,14,NIGHT_MIST,Offshore,1
5842041f4e65fad6a770881e,2024_11_22,34.037508438646746,-118.5834,Topanga Beach,3,0.47494,0.86971,14,14,NIGHT_CLEAR,Onshore,1
5842041f4e65fad6a7708820,2024_11_22,33.73954373690184,-118.11414,Seal Beach Jetty,3,0.47,0.78,14,14,NIGHT_CLEAR,Offshore,1
5842041f4e65fad6a7708822,2024_11_22,33.72309983348433,-118.08078,Anderson Street,1,0.00459,0.18761,14,14,NIGHT_CLEAR,Offshore,1
5842041f4e65fad6a7708827,2024_11_22,33.65574085629463,-118.00397,Huntington Beach Pier Northside,3,0.7109,1.02395,14,14,NIGHT_CLEAR,Offshore,1
5842041f4e65fad6a7708828,2024_11_22,34.272041739333,-119.29976,C St.,3,0.56645,0.88331,13,13,NIGHT_CLEAR,Offshore,1
5842041f4e65fad6a770882a,2024_11_22,33.61555743705257,-117.93676,Newport Lower Jetties,3,0.50428,0.85238,14,14,NIGHT_CLEAR,Offshore,1
5842041f4e65fad6a770882b,2024_11_22,33.5930302087,-117.88199,The Wedge,2,0.55417,0.85103,14,14,NIGHT_MOSTLY_CLOUDY,Offshore,1
5842041f4e65fad6a770882e,2024_11_22,33.475793399792984,-117.72291,Salt Creek,3,0.74937,1.00016,14,14,NIGHT_CLEAR,Cross-shore,1
5842041f4e65fad6a7708830,2024_11_22,33.41800974113613,-117.61952,T-Street,3,0.61146,0.9346,14,14,NIGHT_CLEAR,Cross-shore,1
5842041f4e65fad6a7708832,2024_11_22,33.202391008646,-117.39475,Oceanside Harbor,3,0.53489,0.80348,15,15,NIGHT_CLEAR,Offshore,1
5842041f4e65fad6a7708835,2024_11_22,33.19477795952803,-117.38667,Oceanside Pier,3,0.37932,0.72743,15,15,NIGHT_CLEAR,Offshore,1
5842041f4e65fad6a7708837,2024_11_22,33.14948100706,-117.35029,Tamarack,3,0.33869,0.63789,15,15,NIGHT_CLEAR,Offshore,1
5842041f4e65fad6a7708839,2024_11_22,32.865777159358856,-117.25614,Scripps,3,0.86712,1.25042,15,15,NIGHT_MOSTLY_CLOUDY,Offshore,1
5842041f4e65fad6a770883a,2024_11_22,32.813094,-117.27381,Birdrock,3,0.61,0.92,15,15,NIGHT_CLEAR,Offshore,1
5842041f4e65fad6a770883b,2024_11_22,32.88338,-117.25571,Blacks,3,0.97487,1.174,15,15,NIGHT_MOSTLY_CLOUDY,Onshore,1
5842041f4e65fad6a770883c,2024_11_22,32.82978974229765,-117.28162,Windansea,3,0.89573,1.11193,15,15,NIGHT_MOSTLY_CLOUDY,Offshore,1
5842041f4e65fad6a770883d,2024_11_22,32.838278,-117.28396,Horseshoe,3,0.91,1.08,16,16,NIGHT_MOSTLY_CLOUDY,Offshore,1
5842041f4e65fad6a770883f,2024_11_22,32.75034717673179,-117.25337,Ocean Beach,3,0.94876,1.16956,15,15,NIGHT_MIST,Cross-shore,1
5842041f4e65fad6a7708840,2024_11_22,32.73693,-117.25718,Sunset Cliffs,2,0.74,1.04,15,15,NIGHT_MIST,Cross-shore,1
5842041f4e65fad6a7708841,2024_11_22,32.796582258728826,-117.25779,Pacific Beach,3,0.73178,1.00566,15,15,NIGHT_MIST,Offshore,1
5842041f4e65fad6a7708842,2024_11_22,32.776636,-117.25514,Mission Beach,3,0.6774,1.0386,15,15,NIGHT_MIST,Offshore,1
5842041f4e65fad6a7708844,2024_11_22,32.577195519016,-117.13475,Imperial Beach Pier,3,0.98,1.18,15,15,NIGHT_CLEAR,Cross-shore,1
5842041f4e65fad6a770884a,2024_11_22,42.88678181061,-70.80843,Seabrook,0.5,1.61848,2.14457,11,9,"NIGHT_LIGHT_RAIN,MOSTLY_CLOUDY","Onshore,Onshore",2
5842041f4e65fad6a770884e,2024_11_22,41.434181432898335,-71.45312,Narragansett,0.5,0.7006650000000001,1.066165,13,12,"NIGHT_OVERCAST,BRIEF_SHOWERS","Onshore,Onshore",2
5842041f4e65fad6a7708850,2024_11_22,40.582703230722,-73.65247,Lincoln Blvd,0.6666666666666666,0.44438,0.821,14,13,"NIGHT_MOSTLY_CLOUDY,LIGHT_SHOWERS_POSSIBLE","Onshore,Onshore",2
5842041f4e65fad6a7708852,2024_11_22,40.58342841721757,-73.81182,Rockaways,0.33333333333333337,0.429755,0.736455,14,13,"NIGHT_CLEAR,BRIEF_SHOWERS_POSSIBLE","Cross-shore,Onshore",2
5842041f4e65fad6a7708853,2024_11_22,40.330474,-73.9734,Monmouth Beach,0.8333333333333334,0.249585,0.5472,13,13,"NIGHT_CLEAR,CLEAR","Offshore,Offshore",2
5842041f4e65fad6a7708856,2024_11_22,40.113,-74.028,Manasquan Inlet,1.6666666666666665,0.3252,0.654785,13,13,"NIGHT_CLEAR,CLEAR","Offshore,Offshore",2
5842041f4e65fad6a7708857,2024_11_22,39.941519877445664,-74.06829,Casino Pier,2,0.347265,0.65728,13,13,"NIGHT_CLEAR,CLEAR","Offshore,Offshore",2
5842041f4e65fad6a7708858,2024_11_22,39.28223089949212,-74.55766,North End OC,1,0.06,0.365,13,13,"NIGHT_CLEAR,CLEAR","Offshore,Cross-shore",2
5842041f4e65fad6a770885b,2024_11_22,39.65080599934257,-74.17146,Ship Bottom,2,0.590015,0.92242,14.5,14.5,"NIGHT_CLEAR,CLEAR","Offshore,Cross-shore",2
5842041f4e65fad6a7708863,2024_11_22,36.034151543144,-75.66791,Third Street,1,0.216165,0.528165,17,17,"NIGHT_CLEAR,CLEAR","Offshore,Offshore",2
5842041f4e65fad6a7708867,2024_11_22,35.605833221351425,-75.46303,S-Turns,1.3333333333333335,0.33815,0.64535,18,17,"NIGHT_CLEAR,CLEAR","Offshore,Offshore",2
5842041f4e65fad6a770886d,2024_11_22,38.338461,-75.08117,Ocean City Boardwalk,1.1666666666666665,0.12298500000000001,0.42578499999999997,16,14,"NIGHT_CLEAR,CLEAR","Offshore,Offshore",2
5842041f4e65fad6a770886f,2024_11_22,29.844757212379562,-81.26136,A St.,1,0.01,0.315,23.5,23.5,"NIGHT_CLEAR,CLEAR","Offshore,Offshore",2
5842041f4e65fad6a7708871,2024_11_22,29.069417851135093,-80.90824,New Smyrna Beach,2,0.578565,0.881185,24,23,"NIGHT_CLEAR,CLEAR","Offshore,Offshore",2
5842041f4e65fad6a7708872,2024_11_22,28.367707417566,-80.60171,Cocoa Beach Pier,1,0,0.274285,24,24,"NIGHT_CLEAR,CLEAR","Offshore,Offshore",2
5842041f4e65fad6a7708873,2024_11_22,28.091782738658846,-80.56479,Indialantic,1.6666666666666665,0.280115,0.5923149999999999,24,24,"NIGHT_CLEAR,CLEAR","Offshore,Offshore",2
5842041f4e65fad6a7708876,2024_11_22,27.25392904143517,-80.19455,Jensen Beach,1.5,0.610235,0.9777,27,26,"NIGHT_CLEAR,CLEAR","Cross-shore,Offshore",2
5842041f4e65fad6a7708879,2024_11_22,26.76346795333825,-80.03607,Reef Road,3.5,0.689935,1.087285,26,26,"NIGHT_CLEAR,CLEAR","Offshore,Offshore",2
5842041f4e65fad6a770887c,2024_11_22,26.336499228484,-80.06956100463,Boca Raton Inlet,1.25,0.1995,0.497335,27,27,"NIGHT_CLEAR,CLEAR","Offshore,Offshore",2
5842041f4e65fad6a770887d,2024_11_22,26.31719311695038,-80.07453,Deerfield Beach Pier,2,0.47048500000000004,0.773375,28,28,"NIGHT_CLEAR,CLEAR","Offshore,Offshore",2
5842041f4e65fad6a7708881,2024_11_22,30.20276320866628,-85.85626528676136,"Spyglass Dr., Panama City",1,0.5524,0.8553999999999999,21,21,"NIGHT_CLEAR,CLEAR","Offshore,Offshore",2
5842041f4e65fad6a7708884,2024_11_22,33.39000832738053,-117.59852,Cottons,3,0.68787,1.00097,14,14,NIGHT_MIST,Cross-shore,1
5842041f4e65fad6a7708885,2024_11_22,33.359416282661,-117.54168,Trails,3,0.5,0.81,15,15,NIGHT_CLEAR,Cross-shore,1
5842041f4e65fad6a7708886,2024_11_22,33.38042605929805,-117.58332,Middles,3,0.59,0.89,15,15,NIGHT_MIST,Onshore,1
5842041f4e65fad6a7708887,2024_11_22,33.38445596302903,-117.59445,Upper Trestles,3,0.73287,1.04597,14,14,NIGHT_MIST,Onshore,1
5842041f4e65fad6a7708889,2024_11_22,28.944414,-95.28883,Surfside,1,0,0.30391,24,24,NIGHT_CLEAR,Offshore,1
5842041f4e65fad6a770888a,2024_11_22,33.38143999849023,-117.58843,Lower Trestles,3,0.71011,1.08287,14,14,NIGHT_MIST,Onshore,1
5842041f4e65fad6a770888b,2024_11_22,33.379622288757,-117.57894,Church,3,0.64413,0.9664,14,14,NIGHT_MIST,Cross-shore,1
5842041f4e65fad6a770888d,2024_11_22,21.679,-158.042,Sunset Beach,3.5,1.06,1.27,26,25,"NIGHT_MOSTLY_CLOUDY,NIGHT_MOSTLY_CLEAR","Offshore,Offshore",2
5842041f4e65fad6a770888e,2024_11_22,21.670550036401,-158.0482,Rocky Point,3,0.997705,1.303285,26,25,"NIGHT_CLEAR,NIGHT_MOSTLY_CLEAR","Offshore,Offshore",2
5842041f4e65fad6a770888f,2024_11_22,21.668,-158.05,Chambers,3.5,1.181805,1.5375,26,26,"NIGHT_CLEAR,NIGHT_MOSTLY_CLEAR","Offshore,Offshore",2
5842041f4e65fad6a7708890,2024_11_22,21.66522,-158.0526,Pipeline,2,1.06691,1.34572,26,25,"NIGHT_CLEAR,NIGHT_MOSTLY_CLEAR","Offshore,Offshore",2
5842041f4e65fad6a7708891,2024_11_22,21.665,-158.054,Backdoor,3.5,0.865,1.17,26,25,"NIGHT_CLEAR,NIGHT_MOSTLY_CLEAR","Offshore,Offshore",2
5842041f4e65fad6a7708892,2024_11_22,21.662,-158.057,Rockpile,3.5,1.185,1.415,26,26,"NIGHT_CLEAR,NIGHT_MOSTLY_CLEAR","Offshore,Offshore",2
5842041f4e65fad6a7708893,2024_11_22,21.65870453806827,-158.06058,Log Cabins,3,0.845,1.15,26,26,"NIGHT_CLEAR,NIGHT_MOSTLY_CLEAR","Offshore,Offshore",2
5842041f4e65fad6a7708894,2024_11_22,21.66203493640557,-158.05495,Off-The-Wall,3.5,0.955,1.225,26,26,"NIGHT_CLEAR,NIGHT_MOSTLY_CLEAR","Offshore,Offshore",2
5842041f4e65fad6a7708895,2024_11_22,21.643,-158.067,Waimea Bay,NA,1.075,1.285,26,25,"NIGHT_CLEAR,NIGHT_MOSTLY_CLEAR","Offshore,Offshore",2
5842041f4e65fad6a7708896,2024_11_22,21.622,-158.087,Hultin's,3,0.9450000000000001,1.185,26,25,"NIGHT_CLEAR,NIGHT_CLEAR","Offshore,Offshore",2
5842041f4e65fad6a7708897,2024_11_22,21.623,-158.085,Jocko's,3,1.217225,1.42389,26,26,"NIGHT_CLEAR,NIGHT_CLEAR","Cross-shore,Cross-shore",2
5842041f4e65fad6a7708898,2024_11_22,21.62,-158.088,Laniakea,3,0.845,1.0899999999999999,26,25,"NIGHT_CLEAR,NIGHT_CLEAR","Offshore,Offshore",2
5842041f4e65fad6a7708899,2024_11_22,21.625,-158.083,Chun's,3,0.8200000000000001,1.125,26,26,"NIGHT_CLEAR,NIGHT_CLEAR","Offshore,Offshore",2
5842041f4e65fad6a770889c,2024_11_22,21.286357895152136,-157.8515,Ala Moana Beach Park,2,0.22,0.525,26,26,"NIGHT_CLEAR,NIGHT_MOSTLY_CLOUDY","Offshore,Offshore",2
5842041f4e65fad6a770889d,2024_11_22,19.606,-155.978,Banyans,2,0.175,0.48,26,25,"NIGHT_CLEAR,NIGHT_MIST","Cross-shore,Cross-shore",2
5842041f4e65fad6a770889e,2024_11_22,20.029,-155.831,Kawaihae,2,0.4444,0.5085,26,26,"NIGHT_LIGHT_SHOWERS_POSSIBLE,NIGHT_CLEAR","Onshore,Cross-shore",2
5842041f4e65fad6a770889f,2024_11_22,33.07541383424675,-117.3105,Grandview,3,0.63459,0.98162,15,15,NIGHT_CLEAR,Onshore,1
5842041f4e65fad6a77088a0,2024_11_22,33.065267421296596,-117.30577,Beacons,3,0.72196,1.07898,15,15,NIGHT_CLEAR,Onshore,1
5842041f4e65fad6a77088a2,2024_11_22,21.252,-157.805,Diamond Head,2,0.471215,0.79647,26,25,"NIGHT_CLEAR,NIGHT_CLEAR","Cross-shore,Cross-shore",2
5842041f4e65fad6a77088a3,2024_11_22,33.04694255008896,-117.29966,Moonlight State Beach,3,0.59,0.89,15,15,NIGHT_CLEAR,Offshore,1
5842041f4e65fad6a77088a5,2024_11_22,33.08685865930869,-117.31532,Ponto,3,0.8069,1.11837,15,15,NIGHT_CLEAR,Offshore,1
5842041f4e65fad6a77088a6,2024_11_22,33.130343587871906,-117.33668,Terra Mar Point,3,0.38964,0.70169,15,15,NIGHT_MOSTLY_CLEAR,Offshore,1
5842041f4e65fad6a77088af,2024_11_22,32.95916304183685,-117.26963,Del Mar,3,0.75089,1.06017,15,15,NIGHT_CLEAR,Offshore,1
5842041f4e65fad6a77088b0,2024_11_22,32.97527261243354,-117.2721061331305,Del Mar Rivermouth,3,0.7,1,15,15,NIGHT_CLEAR,Offshore,1
5842041f4e65fad6a77088b1,2024_11_22,33.01352178146273,-117.28219,Cardiff Reef,3,0.91298,1.09516,15,15,NIGHT_CLEAR,Offshore,1
5842041f4e65fad6a77088b3,2024_11_22,33.00211185876003,-117.2811,Seaside Reef,3,0.67,0.98,15,15,NIGHT_CLEAR,Offshore,1
5842041f4e65fad6a77088b4,2024_11_22,33.0341859796287,-117.29552,Swami's,3,0.64029,0.96545,15,15,NIGHT_CLEAR,Offshore,1
5842041f4e65fad6a77088b7,2024_11_22,33.04569760260221,-117.2994,D Street,3,0.75682,1.10384,15,15,NIGHT_CLEAR,Offshore,1
5842041f4e65fad6a77088b8,2024_11_22,33.02090944350196,-117.28535,San Elijo State Beach,3,0.38014,0.69632,15,15,NIGHT_CLEAR,Offshore,1
5842041f4e65fad6a77088c2,2024_11_22,32.80662846492798,-117.26888,PB Point,3,0.69,0.99,15,15,NIGHT_CLEAR,Offshore,1
5842041f4e65fad6a77088c4,2024_11_22,32.8060476681448,-117.26479,Old Man's at Tourmaline,3,0.4573,0.76877,15,15,NIGHT_CLEAR,Offshore,1
5842041f4e65fad6a77088cb,2024_11_22,32.557056711256,-117.1327445020322,Tijuana Slough,3,0.47,0.78,15,15,NIGHT_CLEAR,Offshore,1
5842041f4e65fad6a77088cc,2024_11_22,32.863,-117.257,La Jolla Shores,3,0.59,0.9,15,15,NIGHT_MOSTLY_CLOUDY,Cross-shore,1
5842041f4e65fad6a77088ce,2024_11_22,32.67443657790586,-117.17421,Coronado Beach,2,0.23,0.54,15,15,NIGHT_CLEAR,Offshore,1
5842041f4e65fad6a77088cf,2024_11_22,33.40484417640326,-117.60749,San Clemente State Beach,3,0.44,0.75,15,15,NIGHT_MIST,Cross-shore,1
5842041f4e65fad6a77088d5,2024_11_22,33.4663042002114,-117.7168352817103,Strands,3,0.67787,1.01367,14,14,NIGHT_CLEAR,Cross-shore,1
5842041f4e65fad6a77088d7,2024_11_22,33.4609858001748,-117.68535,Doheny State Beach,2,0.15310000000000001,0.45359,14,14,NIGHT_CLEAR,Cross-shore,1
5842041f4e65fad6a77088dc,2024_11_22,33.50894790083017,-117.75243,Aliso Creek,3,0.37,0.67,15,15,NIGHT_CLEAR,Offshore,1
5842041f4e65fad6a77088dd,2024_11_22,33.5326591767067,-117.77764,Brooks Street,2,0.28,0.59,15,15,NIGHT_CLEAR,Offshore,1
5842041f4e65fad6a77088de,2024_11_22,33.53561225884637,-117.7799,Thalia Street,2,0.3,0.6,15,15,NIGHT_CLEAR,Offshore,1
5842041f4e65fad6a77088e3,2024_11_22,33.54268310353641,-117.7916,Rockpile,2,0.28,0.59,15,15,NIGHT_CLEAR,Offshore,1
5842041f4e65fad6a77088e4,2024_11_22,33.7368459504689,-118.10342,"Seal Beach Pier, Southside",3,0.55,0.86,15,15,NIGHT_CLEAR,Offshore,1
5842041f4e65fad6a77088e5,2024_11_22,33.73933701820233,-118.117,Ray Bay,3,0.5,0.81,15,15,NIGHT_CLEAR,Offshore,1
5842041f4e65fad6a77088e7,2024_11_22,33.728733,-118.08982,Surfside,1,0,0.24,15,15,NIGHT_CLEAR,Offshore,1
5842041f4e65fad6a77088e8,2024_11_22,33.68760321488161,-118.04236,Bolsa Chica State Beach,3,0.62932,0.92271,14,14,NIGHT_CLEAR,Offshore,1
5842041f4e65fad6a77088ea,2024_11_22,33.66704400178788,-118.0192,North HB Streets,3,0.7191,1.01867,14,14,NIGHT_CLEAR,Offshore,1
5842041f4e65fad6a77088ed,2024_11_22,33.65475101379567,-118.00291,Huntington Beach Pier Southside,3,0.7791,1.10407,14,14,NIGHT_CLEAR,Offshore,1
5842041f4e65fad6a77088ee,2024_11_22,33.62778647706099,-117.95939,River Jetties,3,0.7662,1.0893,14,14,NIGHT_CLEAR,Offshore,1
5842041f4e65fad6a77088f2,2024_11_22,33.605165797643664,-117.925,Newport Point,2,0.14,0.45,15,15,NIGHT_CLEAR,Cross-shore,1
5842041f4e65fad6a77088f3,2024_11_22,33.58982984726977,-117.87713,Corona del Mar,2,0.28,0.59,15,15,NIGHT_CLEAR,Offshore,1
5842041f4e65fad6a77088f7,2024_11_22,34.00750300824362,-118.49718,Santa Monica Pier,2,0.26,0.57,15,15,NIGHT_CLEAR,Offshore,1
5842041f4e65fad6a77088ff,2024_11_22,33.94070283102945,-118.44321,Dockweiler Beach,3,0.94,1.12,14,14,NIGHT_CLEAR,Cross-shore,1
5842041f4e65fad6a7708900,2024_11_22,33.9231846937237,-118.4341465777908,Shitpipe,3,1.05,1.25,14,14,NIGHT_CLEAR,Onshore,1
5842041f4e65fad6a7708902,2024_11_22,33.9108528052242,-118.4279133138721,Hammerland,3,1.05,1.25,14,14,NIGHT_CLEAR,Onshore,1
5842041f4e65fad6a7708904,2024_11_22,33.87201368173932,-118.40752,Hermosa Beach,3,0.71246,0.95717,15,15,NIGHT_MIST,Onshore,1
5842041f4e65fad6a7708906,2024_11_22,33.90129336911256,-118.42184,El Porto,3,1.06799,1.27912,14,14,NIGHT_BRIEF_SHOWERS_POSSIBLE,Onshore,1
5842041f4e65fad6a7708907,2024_11_22,33.87963506431794,-118.41102,Manhattan Beach Pier,3,0.94593,1.15015,15,15,NIGHT_BRIEF_SHOWERS_POSSIBLE,Onshore,1
5842041f4e65fad6a7708914,2024_11_22,34.038053387863464,-118.5532,Sunset Point,2,0.25,0.55,15,15,NIGHT_CLEAR,Onshore,1
5842041f4e65fad6a7708920,2024_11_22,33.80282,-118.39989,Haggerty's,3,0.408,0.656,15,15,NIGHT_BRIEF_SHOWERS,Cross-shore,1
5842041f4e65fad6a7708921,2024_11_22,33.85044519861206,-118.40048,Redondo Breakwater,3,0.6733,0.9737,15,15,NIGHT_MIST,Onshore,1
5842041f4e65fad6a7708927,2024_11_22,33.70877301002487,-118.2840112858389,Cabrillo Beach,3,0.33,0.64,15,15,NIGHT_CLEAR,Offshore,1
5842041f4e65fad6a770892c,2024_11_22,33.77209986806257,-118.4268428476672,Lunada Bay,2,0.96,1.07,15,15,NIGHT_BRIEF_SHOWERS,Onshore,1
5842041f4e65fad6a770892d,2024_11_22,33.79294656286144,-118.40703,PV Cove,2,0.51,0.82,15,15,NIGHT_BRIEF_SHOWERS,Onshore,1
5842041f4e65fad6a7708930,2024_11_22,34.03944902292561,-118.57539,Chart House,1,0,0.23,15,15,NIGHT_CLEAR,Onshore,1
5842041f4e65fad6a7708936,2024_11_22,34.0016731994772,-118.80456,Point Dume,2,0.08,0.39,14,14,NIGHT_CLEAR,Cross-shore,1
5842041f4e65fad6a7708937,2024_11_22,34.02587527588963,-118.7554939066114,Latigo Point,2,0.06,0.37,15,15,NIGHT_CLEAR,Offshore,1
5842041f4e65fad6a770893f,2024_11_22,34.043762,-118.93294,Leo Carrillo,3,0.5,0.8,13,13,NIGHT_CLEAR,Cross-shore,1
5842041f4e65fad6a7708941,2024_11_22,36.69388179265737,-121.81289,Marina State Beach,4,1.62,1.94,12,12,NIGHT_CLEAR,Offshore,1
5842041f4e65fad6a7708944,2024_11_22,34.34145077331085,-119.416999352654,Stanley's,3,0.42,0.72,13,13,NIGHT_CLEAR,Offshore,1
5842041f4e65fad6a7708945,2024_11_22,34.35113017313915,-119.426921498899,Oil Piers,3,0.42,0.72,13,13,NIGHT_CLEAR,Offshore,1
5842041f4e65fad6a770894c,2024_11_22,34.17876333306018,-119.23995,Oxnard,3,0.52,0.82,14,14,NIGHT_CLEAR,Onshore,1
5842041f4e65fad6a7708957,2024_11_22,34.31720331100517,-119.3882324751725,Pitas Point,3,0.4,0.71,13,13,NIGHT_CLEAR,Offshore,1
5842041f4e65fad6a7708959,2024_11_22,34.27851754384724,-119.3162,Emma Wood,3,0.51,0.82,14,14,NIGHT_CLEAR,Offshore,1
5842041f4e65fad6a770895a,2024_11_22,34.35513640390276,-119.4400589884255,Mussel Shoals (aka Little Rincon),3,0.46,0.77,13,13,NIGHT_CLEAR,Offshore,1
5842041f4e65fad6a770895e,2024_11_22,34.28991757054902,-119.3366646794652,Summer Beach,2,0.26,0.56,14,14,NIGHT_CLEAR,Cross-shore,1
5842041f4e65fad6a770895f,2024_11_22,34.30897456105926,-119.3582501170116,Solimar,2,0.26,0.56,13,13,NIGHT_CLEAR,Offshore,1
5842041f4e65fad6a7708960,2024_11_22,34.39836265281686,-119.70213,Leadbetter Point,1,0,0.27,14,14,NIGHT_MOSTLY_CLEAR,Offshore,1
5842041f4e65fad6a7708961,2024_11_22,34.46052293893899,-120.07328,Refugio,2,0.11,0.41,14,14,NIGHT_CLEAR,Offshore,1
5842041f4e65fad6a7708962,2024_11_22,34.40754276777778,-119.87639,Devereux,2,0.23,0.54,14,14,NIGHT_CLEAR,Cross-shore,1
5842041f4e65fad6a7708963,2024_11_22,34.27479983305182,-119.3133222656776,Ventura Overhead,3,0.51,0.82,14,14,NIGHT_CLEAR,Offshore,1
5842041f4e65fad6a7708964,2024_11_22,34.41023236011655,-119.88261,Sands,2,0.22,0.53,14,14,NIGHT_CLEAR,Offshore,1
5842041f4e65fad6a7708966,2024_11_22,34.40450193869233,-119.68752,Sandspit,1,0,0.27,14,14,NIGHT_MOSTLY_CLEAR,Offshore,1
5842041f4e65fad6a7708967,2024_11_22,34.41549098334453,-119.6375149840203,Hammond's,2,0.13,0.44,14,14,NIGHT_CLEAR,Offshore,1
5842041f4e65fad6a7708968,2024_11_22,34.45759322742309,-120.02203,El Capitan,2,0.13,0.44,14,14,NIGHT_CLEAR,Offshore,1
5842041f4e65fad6a770896c,2024_11_22,34.405117655616,-119.84317,Campus Point,2,0.22,0.53,14,14,NIGHT_CLEAR,Onshore,1
5842041f4e65fad6a770896e,2024_11_22,34.38935162233354,-119.51955,Carpinteria State Beach,3,0.34,0.65,13,13,NIGHT_CLEAR,Offshore,1
5842041f4e65fad6a770896f,2024_11_22,37.48296565175612,-122.45493,Half Moon Bay,1,2.18,2.32,12,12,NIGHT_OVERCAST,Onshore,1
5842041f4e65fad6a7708970,2024_11_22,37.499,-122.471,Princeton Jetty,1,1.52,1.82,12,12,NIGHT_OVERCAST,Onshore,1
5842041f4e65fad6a7708972,2024_11_22,37.35699547365155,-122.4069534707252,Tunitas Creek,1,2.4,2.87,12,12,NIGHT_CLEAR,Cross-shore,1
5842041f4e65fad6a7708974,2024_11_22,37.54735589428842,-122.51611,Montara,2,1.9,2.27,12,12,NIGHT_OVERCAST,Offshore,1
5842041f4e65fad6a7708975,2024_11_22,34.3869373724559,-119.5142334209018,Tarpits,2,0.37,0.68,13,13,NIGHT_CLEAR,Cross-shore,1
5842041f4e65fad6a7708976,2024_11_22,37.59881852720143,-122.50463,Linda Mar,2,0.82284,1.10663,12,12,NIGHT_BRIEF_SHOWERS_POSSIBLE,Offshore,1
5842041f4e65fad6a7708978,2024_11_22,37.59883098461164,-122.5143843582282,Pedro Point,3,1.91,2.28,12,12,NIGHT_OVERCAST,Offshore,1
5842041f4e65fad6a7708979,2024_11_22,37.61081996647663,-122.49733,Rockaway,3,1.9,2.27,12,12,NIGHT_BRIEF_SHOWERS_POSSIBLE,Offshore,1
5842041f4e65fad6a770897a,2024_11_22,37.809987384424446,-122.47514,Fort Point,3,1.26,1.5,13,13,NIGHT_OVERCAST,Onshore,1
5842041f4e65fad6a770897c,2024_11_22,37.63422542967464,-122.4951,Sharp Park,2,1.99,2.38,12,12,NIGHT_CLOUDY,Offshore,1
5842041f4e65fad6a770897d,2024_11_22,37.27313605072472,-122.4127387912554,Pescadero,2,2.37,2.83,12,12,NIGHT_OVERCAST,Cross-shore,1
5842041f4e65fad6a770897e,2024_11_22,37.18140279972666,-122.3926685899327,Pigeon Point,1,2.39,2.85,13,13,NIGHT_OVERCAST,Onshore,1
5842041f4e65fad6a770897f,2024_11_22,37.11578956919415,-122.314699271291,Ano Nuevo,1,2.02,2.41,13,13,NIGHT_MIST,Onshore,1
5842041f4e65fad6a7708980,2024_11_22,37.09520872681598,-122.2805474707768,Waddell Creek,2,2.09,2.49,13,13,NIGHT_MIST,Cross-shore,1
5842041f4e65fad6a7708981,2024_11_22,36.96512852130351,-122.1252825495626,Four Mile,3,1.96,2.34,13,13,NIGHT_MIST,Onshore,1
5842041f4e65fad6a7708982,2024_11_22,37.04122807048655,-122.23337,Scott Creek,3,1.94,2.32,13,13,NIGHT_MIST,Cross-shore,1
5842041f4e65fad6a7708983,2024_11_22,37.02350229387179,-122.21908,Davenport,3,2.12,2.53,13,13,NIGHT_MIST,Cross-shore,1
5842041f4e65fad6a7708986,2024_11_22,36.94905295955728,-122.06118,Natural Bridges,3,2.21,2.45,13,13,NIGHT_MIST,Onshore,1
5842041f4e65fad6a7708987,2024_11_22,36.95154854910425,-122.04207,Mitchell's Cove,3,1.3058,1.58898,13,13,NIGHT_MIST,Onshore,1
5842041f4e65fad6a770898a,2024_11_22,36.9572312370203,-121.98177,26th Ave,3,1.36,1.67,12,12,NIGHT_FOG,Cross-shore,1
5842041f4e65fad6a770898e,2024_11_22,36.91899972819882,-121.85536,Manresa,3,1.8,2.16,12,12,NIGHT_MIST,Offshore,1
5842041f4e65fad6a7708990,2024_11_22,34.45747731928454,-120.34242,The Ranch,3,0.63,0.93,13,13,NIGHT_CLEAR,Offshore,1
5842041f4e65fad6a7708991,2024_11_22,34.50875036590315,-120.50348,Jalama,3,1.21,1.44,13,13,NIGHT_CLEAR,Offshore,1
5842041f4e65fad6a7708996,2024_11_22,34.68700870220497,-120.6111611019887,Surf Beach,4,2.33,2.79,12,12,NIGHT_MOSTLY_CLOUDY,Offshore,1
5842041f4e65fad6a770899c,2024_11_22,35.5730538161116,-121.1143362345574,Moonstone,4,1.74,2.08,12,12,NIGHT_BRIEF_SHOWERS,Offshore,1
5842041f4e65fad6a770899d,2024_11_22,35.61533716776573,-121.1502053073914,Pico Creek,4,1.52,1.81,12,12,NIGHT_BRIEF_SHOWERS,Offshore,1
5842041f4e65fad6a770899e,2024_11_22,35.56829031927379,-121.11207,Santa Rosa Creek,4,1.74,2.08,12,12,NIGHT_MOSTLY_CLOUDY,Offshore,1
5842041f4e65fad6a77089a2,2024_11_22,35.44820114936284,-120.90715,"Cayucos Pier, Southside",3,0.5789,0.91238,12,12,NIGHT_MOSTLY_CLOUDY,Offshore,1
5842041f4e65fad6a77089a4,2024_11_22,35.30143372628852,-120.877819239902,Cable Landing,4,2.58,3.09,12,12,NIGHT_CLEAR,Offshore,1
5842041f4e65fad6a77089a9,2024_11_22,35.61269103500222,-121.14807,San Simeon,3,1.008,1.204,12,12,NIGHT_BRIEF_SHOWERS,Offshore,1
5842041f4e65fad6a77089ab,2024_11_22,35.1775325966252,-120.73411,Avila Beach,1,0,0.26,12,12,NIGHT_MOSTLY_CLOUDY,Cross-shore,1
5842041f4e65fad6a77089ac,2024_11_22,35.13877877884115,-120.64535,Pismo Beach Pier,3,1.2091,1.48927,12,12,NIGHT_MOSTLY_CLOUDY,Offshore,1
5842041f4e65fad6a77089ad,2024_11_22,46.8907710233147,-124.12964,Westport/Olympic Peninsula,2,1.135,1.355,11,11,"NIGHT_BRIEF_SHOWERS_POSSIBLE,NIGHT_LIGHT_RAIN","Offshore,Offshore",2
5842041f4e65fad6a77089ae,2024_11_22,46.35185177248545,-124.06747,Long Beach Peninsula,2.5,1.47,1.7599999999999998,11.5,11.5,"NIGHT_LIGHT_SHOWERS_POSSIBLE,NIGHT_OVERCAST","Offshore,Offshore",2
5842041f4e65fad6a77089af,2024_11_22,47.90649175554033,-124.63709,La Push,3.5,1.21,1.4449999999999998,11,11,"NIGHT_CLEAR,NIGHT_DRIZZLE","Offshore,Offshore",2
5842041f4e65fad6a77089b0,2024_11_22,42.04368239985442,-124.26828,Brookings Jetty,0,1.59607,1.90394,12,12,NIGHT_LIGHT_RAIN,Onshore,1
5842041f4e65fad6a77089b1,2024_11_22,42.74071837900346,-124.4983727491047,Port Orford,0,3.57,3.87,12,12,NIGHT_DRIZZLE,Onshore,1
5842041f4e65fad6a77089b2,2024_11_22,44.01532689312291,-124.13865,Florence South Jetty,2,2.05,2.39,12,12,NIGHT_DRIZZLE,Offshore,1
5842041f4e65fad6a77089b3,2024_11_22,42.41812540774362,-124.42945,Gold Beach South Jetty,0,3.25,3.72,12,12,NIGHT_RAIN,Onshore,1
5842041f4e65fad6a77089b4,2024_11_22,44.95857310226525,-124.0219,Lincoln City,3,1.79,2.14,12,12,NIGHT_HEAVY_RAIN,Offshore,1
5842041f4e65fad6a77089b5,2024_11_22,44.63792761362982,-124.0657,Newport,3,2,2.34,12,12,NIGHT_HEAVY_RAIN,Offshore,1
5842041f4e65fad6a77089b6,2024_11_22,45.61468496266301,-123.94643,Rockaway Beach,2.5,1.57,1.875,12,12,"NIGHT_LIGHT_SHOWERS_POSSIBLE,NIGHT_LIGHT_RAIN","Offshore,Offshore",2
5842041f4e65fad6a77089b7,2024_11_22,45.20252914186085,-123.96975,Pacific City,2.5,1.42,1.705,11.5,11.5,"NIGHT_RAIN,NIGHT_BRIEF_SHOWERS","Offshore,Cross-shore",2
5842041f4e65fad6a77089b8,2024_11_22,45.88179930310263,-123.96681,Cannon Beach,2.5,1.4449999999999998,1.73,12,12,"NIGHT_LIGHT_RAIN,NIGHT_RAIN","Offshore,Cross-shore",2
5842041f4e65fad6a77089ba,2024_11_22,40.02528754746774,-124.06372,Shelter Cove,0,1.33945,1.51766,13,13,NIGHT_LIGHT_RAIN,Onshore,1
5842041f4e65fad6a77089bb,2024_11_22,40.76816197136951,-124.24248,Humboldt Harbor Entrance,2,2.55,3.05,12,12,NIGHT_RAIN,Offshore,1
5842041f4e65fad6a77089bc,2024_11_22,40.76684246920174,-124.23107,North Jetty,3,2.85,3.4,12,12,NIGHT_RAIN,Offshore,1
5842041f4e65fad6a77089be,2024_11_22,41.13016238153297,-124.16466,Sue-meg,2,2.47,2.95,12,12,NIGHT_HEAVY_RAIN,Cross-shore,1
5842041f4e65fad6a77089bf,2024_11_22,37.8289474958188,-122.53768,Fort Cronkite/Rodeo Beach,1,2.02,2.29,13,13,NIGHT_OVERCAST,Onshore,1
5842041f4e65fad6a77089c0,2024_11_22,41.74415759876137,-124.17717,South Beach CA,1,2.8,3.1,12,12,NIGHT_LIGHT_SHOWERS_POSSIBLE,Onshore,1
5842041f4e65fad6a77089c1,2024_11_22,37.89801283969752,-122.64519,Stinson Beach,2,1.32,1.56,12,12,NIGHT_DRIZZLE,Onshore,1
5842041f4e65fad6a77089c2,2024_11_22,37.90514516176495,-122.68151,Bolinas,3,1.356,1.38569,12,12,NIGHT_DRIZZLE,Onshore,1
5842041f4e65fad6a77089c3,2024_11_22,38.04892513158693,-122.98925,Point Reyes (north),2,2.64,3.16,12,12,NIGHT_OVERCAST,Offshore,1
5842041f4e65fad6a77089c6,2024_11_22,38.31088736605785,-123.0496777333731,Doran Beach,1,0.83,1.14,12,12,NIGHT_OVERCAST,Onshore,1
5842041f4e65fad6a77089c7,2024_11_22,38.45077228660809,-123.13008,Russian Rivermouth,1,2.34,2.78,12,12,NIGHT_RAIN,Cross-shore,1
5842041f4e65fad6a77089c8,2024_11_22,38.35329968518107,-123.06906,Salmon Creek,1,2.47,2.95,12,12,NIGHT_MIST,Cross-shore,1
5842041f4e65fad6a77089c9,2024_11_22,38.6845180197959,-123.4322714291198,Black Point Beach,2,2.26,2.56,13,13,NIGHT_MIST,Offshore,1
5842041f4e65fad6a77089ca,2024_11_22,43.251076,-70.59144,Ogunquit,0.5,1.769665,2.103665,11,9,"NIGHT_LIGHT_RAIN,MOSTLY_CLOUDY","Onshore,Onshore",2
5842041f4e65fad6a77089cb,2024_11_22,41.362631366305415,-71.48007,Point Judith,1.3333333333333333,0.7635000000000001,1.134,13,12,"NIGHT_CLOUDY,MOSTLY_CLOUDY","Offshore,Offshore",2
5842041f4e65fad6a77089cd,2024_11_22,41.422678090954726,-71.45413,Monahan's - Narragansett,0,0.63171,0.935325,14,14,"NIGHT_CLOUDY,SHOWERS","Cross-shore,Cross-shore",2
5842041f4e65fad6a77089ce,2024_11_22,41.469,-71.293,Ruggles - Newport,0,1.751285,2.100395,13,13,"NIGHT_CLOUDY,MOSTLY_CLOUDY","Onshore,Onshore",2
5842041f4e65fad6a77089cf,2024_11_22,43.175394,-70.606351,Short Sands Beach,0.5,1.8800000000000001,2.1799999999999997,10,10,"NIGHT_LIGHT_RAIN,OVERCAST","Onshore,Onshore",2
5842041f4e65fad6a77089d0,2024_11_22,41.487408,-71.29017,First Beach,0,0.85,1.0750000000000002,13,13,"NIGHT_OVERCAST,MOSTLY_CLOUDY","Onshore,Onshore",2
5842041f4e65fad6a77089d1,2024_11_22,42.27916830233153,-70.86498,Nantasket Beach,1.5,1.126335,1.4341650000000001,12,11,"NIGHT_CLEAR,CLEAR","Offshore,Offshore",2
5842041f4e65fad6a77089d2,2024_11_22,41.817,-69.935,Cape Cod,0,0.8600000000000001,1.1,11,11,"NIGHT_CLEAR,CLEAR","Cross-shore,Cross-shore",2
5842041f4e65fad6a77089d3,2024_11_22,42.22055448975661,-70.70634873403819,Egypt Beach,0,1.35,1.44,11,11,"NIGHT_CLEAR,CLEAR","Cross-shore,Cross-shore",2
5842041f4e65fad6a77089d4,2024_11_22,41.48739647744607,-71.25723,Second Beach,0,0.83727,1.154445,13,12,"NIGHT_CLOUDY,MOSTLY_CLOUDY","Onshore,Onshore",2
5842041f4e65fad6a77089d5,2024_11_22,42.964,-70.769,Fox Hill,0.5,1.2530000000000001,1.7555,11,9,"NIGHT_HEAVY_RAIN,DRIZZLE","Onshore,Onshore",2
5842041f4e65fad6a77089d6,2024_11_22,42.991359,-70.75149,Straws Point,0.5,1.391335,1.888835,11,9,"NIGHT_HEAVY_RAIN,LIGHT_RAIN","Cross-shore,Onshore",2
5842041f4e65fad6a77089d7,2024_11_22,42.946,-70.786,Plaice Cove,0.5,1.2530000000000001,1.7555,11,9,"NIGHT_HEAVY_RAIN,MOSTLY_CLOUDY","Onshore,Onshore",2
5842041f4e65fad6a77089d9,2024_11_22,42.911574,-70.80831,The Main Beach,1.0833333333333333,1.280635,1.985985,11,9,"NIGHT_RAIN,MOSTLY_CLOUDY","Cross-shore,Onshore",2
5842041f4e65fad6a77089da,2024_11_22,42.97583846220203,-70.764,Sawyer's Beach,0.5,1.218835,1.617165,11,9,"NIGHT_HEAVY_RAIN,DRIZZLE","Onshore,Onshore",2
5842041f4e65fad6a77089db,2024_11_22,42.97,-70.77,Rye on the Rocks / 5-0's,0.75,1.25677,1.962495,11,9,"NIGHT_HEAVY_RAIN,DRIZZLE","Onshore,Onshore",2
5842041f4e65fad6a77089dc,2024_11_22,43.55902946610303,-70.27795,Higgins Beach,1.4166666666666665,0.785525,1.331475,11,9,"NIGHT_LIGHT_RAIN,OVERCAST","Cross-shore,Onshore",2
5842041f4e65fad6a77089dd,2024_11_22,43.302676,-70.5652,Wells Beach,0.5,1.2613349999999999,1.691165,11,9,"NIGHT_RAIN,CLEAR","Onshore,Onshore",2
5842041f4e65fad6a77089de,2024_11_22,43.545359,-70.30479,Scarborough Beach State Park,0.5,1.43098,1.90051,11,9,"NIGHT_RAIN,MOSTLY_CLOUDY","Cross-shore,Onshore",2
5842041f4e65fad6a77089df,2024_11_22,43.514481,-70.37215,Old Orchard Beach,0.5,1.0305,1.3383349999999998,11,9,"NIGHT_LIGHT_RAIN,MOSTLY_CLOUDY","Cross-shore,Onshore",2
5842041f4e65fad6a77089e0,2024_11_22,43.34711,-70.48165,Gooch's Beach,0.5,1.131835,1.429665,11,9,"NIGHT_RAIN,CLEAR","Cross-shore,Onshore",2
5842041f4e65fad6a77089e2,2024_11_22,40.58433,-73.62953,Lido Beach,0,0.5189349999999999,0.8918,14,13,"NIGHT_CLEAR,CLEAR","Cross-shore,Cross-shore",2
5842041f4e65fad6a77089e3,2024_11_22,43.163135,-70.61689,Long Sands Beach,0.5,1.188515,1.4642249999999999,11,9,"NIGHT_LIGHT_RAIN,LIGHT_RAIN","Cross-shore,Onshore",2
5842041f4e65fad6a77089e4,2024_11_22,40.61695351251805,-73.39376,Gilgo Beach,-0.33333333333333337,0.818265,1.125465,14,13,"NIGHT_CLOUDY,CLOUDY","Onshore,Onshore",2
5842041f4e65fad6a77089e5,2024_11_22,40.62530081928036,-73.23827,Robert Moses,0,0.815,1.125,15,15,"NIGHT_OVERCAST,CLOUDY","Cross-shore,Onshore",2
5842041f4e65fad6a77089e6,2024_11_22,40.64313317632791,-73.15727,Fire Island,0,0.81,1.12,15,15,"NIGHT_CLOUDY,OVERCAST","Cross-shore,Onshore",2
5842041f4e65fad6a77089e8,2024_11_22,40.76653118828782,-72.7458,Cupsogue,0,1.3450000000000002,1.65,15,15,"NIGHT_MOSTLY_CLOUDY,OVERCAST","Cross-shore,Onshore",2
5842041f4e65fad6a77089e9,2024_11_22,42.9376373334092,-70.79141,The Wall,0.8333333333333333,1.446945,2.181625,11,9,"NIGHT_RAIN,MOSTLY_CLOUDY","Onshore,Onshore",2
5842041f4e65fad6a77089ea,2024_11_22,40.887088,-72.33856,Flys,0,1.21,1.5150000000000001,14,14,"NIGHT_CLEAR,MOSTLY_CLOUDY","Onshore,Onshore",2
5842041f4e65fad6a77089eb,2024_11_22,41.0389266436591,-71.91068529316958,Trailer Park,0,0.862055,1.274915,14,13,"NIGHT_MOSTLY_CLOUDY,SHOWERS","Onshore,Onshore",2
5842041f4e65fad6a77089ec,2024_11_22,41.039505402729105,-71.9142,Ditch Plains,0,1.048875,1.3910200000000001,14,14,"NIGHT_MOSTLY_CLOUDY,SHOWERS","Cross-shore,Onshore",2
5842041f4e65fad6a77089ee,2024_11_22,40.57633275206492,-73.56895305108567,"West End, Jones Beach",0,0.7194,1.09645,14,13,"NIGHT_CLEAR,CLOUDY","Onshore,Onshore",2
5842041f4e65fad6a77089f1,2024_11_22,41.038286691230795,-71.91991567611694,Poles,0,0.826385,1.2699600000000002,14,13,"NIGHT_MOSTLY_CLOUDY,SHOWERS","Onshore,Onshore",2
5842041f4e65fad6a77089f3,2024_11_22,40.84077769766295,-72.47989493724765,The Bowl,0,1.415,1.7199999999999998,14.5,14.5,"NIGHT_MOSTLY_CLOUDY,MOSTLY_CLOUDY","Onshore,Onshore",2
5842041f4e65fad6a77089f4,2024_11_22,40.94235535243154,-72.19286,Main Beach,0,1.011185,1.3183850000000001,17,17,"NIGHT_CLEAR,MOSTLY_CLOUDY","Onshore,Onshore",2
5842041f4e65fad6a77089f5,2024_11_22,40.58270702399518,-73.67251552079799,Laurelton Blvd.,0,0.660315,0.97287,14,13,"NIGHT_MOSTLY_CLOUDY,LIGHT_SHOWERS_POSSIBLE","Onshore,Onshore",2
5842041f4e65fad6a77089f6,2024_11_22,41.033752854071416,-71.93696,Terrace,0,0.872915,1.23962,14,13,"NIGHT_MOSTLY_CLOUDY,BRIEF_SHOWERS","Onshore,Onshore",2
5842041f4e65fad6a77089f7,2024_11_22,40.83372943645748,-72.50426173210144,K Road,0,1.45,1.75,15,15,"NIGHT_MOSTLY_CLOUDY,BRIEF_SHOWERS","Cross-shore,Onshore",2
5842041f4e65fad6a77089f8,2024_11_22,40.58456099581507,-73.80730032920837,84th Street,0.33333333333333337,0.384785,0.7699349999999999,14,13,"NIGHT_CLEAR,BRIEF_SHOWERS_POSSIBLE","Cross-shore,Onshore",2
5842041f4e65fad6a77089fa,2024_11_22,40.1319,-74.02788,Sea Girt,1,0.14916500000000002,0.456785,13.5,13.5,"NIGHT_CLEAR,CLEAR","Offshore,Offshore",2
5842041f4e65fad6a77089fb,2024_11_22,40.54698301868125,-73.9268,Breezy Point,0,0.295,0.6000000000000001,14,14,"NIGHT_CLEAR,LIGHT_SHOWERS_POSSIBLE","Cross-shore,Onshore",2
5842041f4e65fad6a77089fc,2024_11_22,40.152504,-74.02138,Spring Lake,1.5,0.165415,0.473035,13.5,13.5,"NIGHT_CLEAR,CLEAR","Offshore,Offshore",2
5842041f4e65fad6a77089fd,2024_11_22,40.591277,-73.770792,30th - 39th Streets,0,0.36065,0.733115,14,13,"NIGHT_MOSTLY_CLOUDY,LIGHT_SHOWERS_POSSIBLE","Cross-shore,Onshore",2
5842041f4e65fad6a77089fe,2024_11_22,40.18834955871439,-74.00860982500222,Avon,1.5,0.192085,0.49470000000000003,14,14,"NIGHT_CLEAR,CLEAR","Offshore,Offshore",2
5842041f4e65fad6a77089ff,2024_11_22,40.1974229100932,-74.00650533798255,Bradley Beach,1.5,0.171665,0.483865,14,14,"NIGHT_CLEAR,CLEAR","Offshore,Offshore",2
5842041f4e65fad6a7708a01,2024_11_22,40.17202,-74.01503,"16th Ave., Belmar",1.0333333333333332,0.3277,0.6527000000000001,13,13,"NIGHT_CLEAR,CLEAR","Offshore,Offshore",2
5842041f4e65fad6a7708a02,2024_11_22,40.217443,-73.99982,Asbury Park,1,0.15458500000000003,0.4572,14,14,"NIGHT_CLEAR,CLEAR","Offshore,Offshore",2
5842041f4e65fad6a7708a03,2024_11_22,40.229841,-73.99678,Loch Arbour and Deal,0.8333333333333334,0.14375000000000002,0.45094999999999996,14,14,"NIGHT_CLEAR,CLEAR","Offshore,Offshore",2
5842041f4e65fad6a7708a05,2024_11_22,40.41754,-73.97935,Sandy Hook,1,0,0.23,14,14,"NIGHT_CLEAR,LIGHT_SHOWERS_POSSIBLE","Offshore,Offshore",2
5842041f4e65fad6a7708a06,2024_11_22,39.36353,-74.40873,Crystals,1,0.30087,0.652835,16,16,"NIGHT_CLEAR,CLEAR","Offshore,Cross-shore",2
5842041f4e65fad6a7708a07,2024_11_22,39.31443,-74.51863,32nd Street,0.5,0.21356999999999998,0.56951,13,13,"NIGHT_CLEAR,CLEAR","Offshore,Cross-shore",2
5842041f4e65fad6a7708a08,2024_11_22,39.327688,-74.49524,Margate Pier Northside,0.5,0.21356999999999998,0.56951,13,13,"NIGHT_CLEAR,CLEAR","Offshore,Cross-shore",2
5842041f4e65fad6a7708a09,2024_11_22,39.336276,-74.47782,Ventnor Pier,0.5,0.26886,0.598665,16,16,"NIGHT_CLEAR,CLEAR","Offshore,Cross-shore",2
5842041f4e65fad6a7708a0a,2024_11_22,39.35929751441085,-74.41683,States Avenue,0.5,0.30087,0.652835,16,16,"NIGHT_CLEAR,CLEAR","Offshore,Cross-shore",2
5842041f4e65fad6a7708a0b,2024_11_22,39.37274173278517,-74.40454,Brigantine Jetty,0.5,0.37129,0.72008,16,16,"NIGHT_CLEAR,CLEAR","Cross-shore,Cross-shore",2
5842041f4e65fad6a7708a0c,2024_11_22,39.356505,-74.42263,South Carolina Avenue,0.5,0.37129,0.72008,16,16,"NIGHT_CLEAR,CLEAR","Cross-shore,Cross-shore",2
5842041f4e65fad6a7708a0d,2024_11_22,39.413485,-74.35476,14th Street North,1,0,0.26,16,16,"NIGHT_CLEAR,CLEAR","Offshore,Offshore",2
5842041f4e65fad6a7708a0e,2024_11_22,39.531319,-74.263252,The Wooden Jetty,1.5,0.602695,0.92299,14.5,14.5,"NIGHT_CLEAR,CLEAR","Offshore,Cross-shore",2
5842041f4e65fad6a7708a0f,2024_11_22,39.552472,-74.24344,Holyoke,1.5,0.62632,0.9576100000000001,14.5,14.5,"NIGHT_CLEAR,CLEAR","Offshore,Offshore",2
5842041f4e65fad6a7708a10,2024_11_22,39.692364,-74.14068,Hudson Ave.,1.5,0.31978,0.65478,13,13,"NIGHT_CLEAR,CLEAR","Offshore,Offshore",2
5842041f4e65fad6a7708a11,2024_11_22,39.79614,-74.09248,Island Beach State Park,0.8333333333333334,0.20791500000000002,0.510535,16,16,"NIGHT_CLEAR,CLEAR","Offshore,Offshore",2
5842041f4e65fad6a7708a12,2024_11_22,39.91813588078152,-74.07527,Seaside Park,0.8333333333333334,0.17158500000000002,0.48290500000000003,16,16,"NIGHT_CLEAR,CLEAR","Offshore,Offshore",2
5842041f4e65fad6a7708a15,2024_11_22,39.95745637606704,-74.06736,Ortley Beach,0.33333333333333337,0.13964000000000001,0.43762999999999996,13,13,"NIGHT_CLEAR,CLEAR","Offshore,Offshore",2
5842041f4e65fad6a7708a16,2024_11_22,39.98313468342945,-74.06265685577506,Lavallette,0.8333333333333334,0.17,0.467615,13,13,"NIGHT_CLEAR,CLEAR","Offshore,Offshore",2
5842041f4e65fad6a7708a17,2024_11_22,40.0699319967757,-74.04145,Bay Head,0.8333333333333334,0.17,0.467615,13,13,"NIGHT_CLEAR,CLEAR","Offshore,Offshore",2
5842041f4e65fad6a7708a18,2024_11_22,40.094041,-74.034859,Jenkinson's,1.3333333333333335,0.164165,0.466785,13,13,"NIGHT_CLEAR,CLEAR","Offshore,Offshore",2
5842041f4e65fad6a7708a1a,2024_11_22,38.148058,-75.17704,Assateague,0.8333333333333334,0.260535,0.5677350000000001,14,13,"NIGHT_CLEAR,CLEAR","Offshore,Offshore",2
5842041f4e65fad6a7708a1b,2024_11_22,38.33889038664497,-75.08017670566352,North End to Ocean City Inlet,1,0.27595000000000003,0.573565,14,13,"NIGHT_CLEAR,CLEAR","Offshore,Offshore",2
5842041f4e65fad6a7708a1c,2024_11_22,38.603993,-75.06271,Indian River Inlet,1,0.076995,0.43827499999999997,15,15,"NIGHT_CLEAR,CLEAR","Offshore,Offshore",2
5842041f4e65fad6a7708a1d,2024_11_22,38.460477,-75.05207,Fenwick Island,1,0.055,0.365,15.5,15.5,"NIGHT_CLEAR,CLEAR","Offshore,Offshore",2
5842041f4e65fad6a7708a1e,2024_11_22,38.538767,-75.05619,Bethany Beach,1,0.07644,0.43513,15.5,15.5,"NIGHT_CLEAR,CLEAR","Offshore,Offshore",2
5842041f4e65fad6a7708a1f,2024_11_22,38.697657,-75.07595,Dewey Beach,1,0.055,0.355,15,15,"NIGHT_CLEAR,CLEAR","Offshore,Offshore",2
5842041f4e65fad6a7708a20,2024_11_22,38.75034741676525,-75.08194,Gordons Pond,1,0,0.297845,15,15,"NIGHT_CLEAR,CLEAR","Offshore,Offshore",2
5842041f4e65fad6a7708a21,2024_11_22,38.767837,-75.08284,Naval Jetties,1,0.13,0.435,15,15,"NIGHT_CLEAR,CLEAR","Offshore,Offshore",2
5842041f4e65fad6a7708a22,2024_11_22,36.81735875786576,-75.96624,Camp Pendleton,1,0.03,0.33,15.5,15.5,"NIGHT_CLEAR,CLEAR","Offshore,Offshore",2
5842041f4e65fad6a7708a23,2024_11_22,36.9102212316428,-75.98732471466064,North End,0.75,0,0.206835,17,16,"NIGHT_CLEAR,CLEAR","Offshore,Offshore",2
5842041f4e65fad6a7708a24,2024_11_22,36.737117517621314,-75.93924,Sandbridge Beach,1,8.35e-4,0.29366499999999995,17,16,"NIGHT_CLEAR,CLEAR","Offshore,Offshore",2
5842041f4e65fad6a7708a26,2024_11_22,36.818257440557794,-75.96666,Croatan to Pendleton,0.75,0.007855,0.24364000000000002,17,16,"NIGHT_CLEAR,CLEAR","Offshore,Offshore",2
5842041f4e65fad6a7708a27,2024_11_22,36.84318777204769,-75.9719,South End,0.75,0,0.211835,17,16,"NIGHT_CLEAR,CLEAR","Offshore,Offshore",2
5842041f4e65fad6a7708a28,2024_11_22,37.08612627584661,-75.976121638199,Fishermans Island,0,0,0.054,15,15,"NIGHT_CLEAR,CLEAR","Offshore,Offshore",2
5842041f4e65fad6a7708a38,2024_11_22,35.254619418229026,-75.52074,Cape Hatteras Lighthouse,1.3333333333333335,0.33763,0.664595,18,17,"NIGHT_CLEAR,CLEAR","Offshore,Offshore",2
5842041f4e65fad6a7708a3a,2024_11_22,35.54572934093336,-75.46477,Waves and Salvo,1.3333333333333335,0.3544,0.657015,18,17,"NIGHT_CLEAR,CLEAR","Offshore,Offshore",2
5842041f4e65fad6a7708a3b,2024_11_22,35.22565892751075,-75.63606,Frisco,1.1666666666666665,0.699435,0.973465,20,19,"NIGHT_CLEAR,CLEAR","Offshore,Offshore",2
5842041f4e65fad6a7708a3c,2024_11_22,35.13086,-75.90591,Ocracoke,0,0.07661499999999999,0.43023,18.5,18.5,"NIGHT_CLEAR,CLEAR","Offshore,Offshore",2
5842041f4e65fad6a7708a3d,2024_11_22,35.34721340158342,-75.50084,Avon Pier,1.8333333333333335,0.46023500000000006,0.75785,18,17,"NIGHT_CLEAR,CLEAR","Offshore,Offshore",2
5842041f4e65fad6a7708a3f,2024_11_22,35.71680821253768,-75.49243,Pea Island,1,0.135,0.44499999999999995,16,16,"NIGHT_CLEAR,CLEAR","Cross-shore,Offshore",2
5842041f4e65fad6a7708a40,2024_11_22,35.97427620657821,-75.62984,Nags Head Pier,1,0.208665,0.5065,17,17,"NIGHT_CLEAR,CLEAR","Offshore,Offshore",2
5842041f4e65fad6a7708a41,2024_11_22,36.0439998039079,-75.67288,Avalon Pier,1,0.256165,0.5640000000000001,17,17,"NIGHT_CLEAR,CLEAR","Offshore,Offshore",2
5842041f4e65fad6a7708a42,2024_11_22,36.03043116489792,-75.66413,First Street,1.1666666666666667,0.280665,0.594665,17,17,"NIGHT_CLEAR,CLEAR","Offshore,Offshore",2
5842041f4e65fad6a7708a43,2024_11_22,36.06829910590498,-75.6899,Old Station/Laundromats,1,0.2445,0.5465,17,17,"NIGHT_CLEAR,CLEAR","Offshore,Offshore",2
5842041f4e65fad6a7708a44,2024_11_22,36.10126676607491,-75.71107,Kitty Hawk Pier,1.1666666666666667,0.31874,0.6281399999999999,17,17,"NIGHT_CLEAR,CLEAR","Offshore,Offshore",2
5842041f4e65fad6a7708a45,2024_11_22,36.18220630068973,-75.75014,Duck Pier,0.5,0.005,0.28500000000000003,16,16,"NIGHT_CLEAR,CLEAR","Offshore,Offshore",2
5842041f4e65fad6a7708a46,2024_11_22,36.37660668125033,-75.8241,Corolla,1,0.06,0.365,16,16,"NIGHT_CLEAR,CLEAR","Offshore,Offshore",2
5842041f4e65fad6a7708a47,2024_11_22,33.90373404124834,-78.08241431707907,Oak Island,1,0.02,0.315,19,19,"NIGHT_CLEAR,CLEAR","Cross-shore,Cross-shore",2
5842041f4e65fad6a7708a48,2024_11_22,33.91108837766468,-78.29653,South Brunswick Beaches,1,0.063975,0.441415,19,19,"NIGHT_CLEAR,CLEAR","Offshore,Offshore",2
5842041f4e65fad6a7708a49,2024_11_22,34.05683595651973,-77.88128,Carolina Beach Pier,-0.5,0,0.21381499999999998,18,18,"NIGHT_CLEAR,CLEAR","Offshore,Offshore",2
5842041f4e65fad6a7708a4a,2024_11_22,33.96841191816696,-77.9180242565498,Fort Fisher,-0.5,-0.009165,0.20965,18,18,"NIGHT_CLEAR,CLEAR","Offshore,Offshore",2
5842041f4e65fad6a7708a4b,2024_11_22,34.46776662988774,-77.47083,Topsail Beach,0.5,0.005,0.30595,19,18,"NIGHT_CLEAR,CLEAR","Offshore,Offshore",2
5842041f4e65fad6a7708a4c,2024_11_22,34.69270354752445,-76.82854854446575,Iron Steamer,0.5,0.40273499999999995,0.7095,19,19,"NIGHT_MOSTLY_CLEAR,CLEAR","Offshore,Cross-shore",2
5842041f4e65fad6a7708a4f,2024_11_22,30.85132684893727,-81.42283496231143,Cumberland Island,1,0,0.19,22,22,"NIGHT_CLEAR,CLEAR","Offshore,Offshore",2
5842041f4e65fad6a7708a50,2024_11_22,34.686741128540874,-76.47516712138378,Cape Lookout National Seashore,1,0.16999999999999998,0.48,19,19,"NIGHT_CLEAR,CLEAR","Offshore,Offshore",2
5842041f4e65fad6a7708a51,2024_11_22,31.10585419260024,-81.40422767604812,Jekyll Island,0,0,0.095,21,21,"NIGHT_CLEAR,CLEAR","Offshore,Offshore",2
5842041f4e65fad6a7708a52,2024_11_22,31.16212806376699,-81.32512426500224,Harbor Marker Buoys,0,0,0.125,21.5,21.5,"NIGHT_CLEAR,CLEAR","Offshore,Offshore",2
5842041f4e65fad6a7708a53,2024_11_22,31.20076299997009,-81.32629,Sea Island,0,0,0.11499999999999999,21.5,21.5,"NIGHT_CLEAR,CLEAR","Offshore,Offshore",2
5842041f4e65fad6a7708a54,2024_11_22,31.13553222995767,-81.38457634790909,St. Simons Island,0,0,0.11499999999999999,21,21,"NIGHT_CLEAR,CLEAR","Offshore,Offshore",2
5842041f4e65fad6a7708a55,2024_11_22,31.33550077186516,-81.28383377408417,Wolf Island,0,0,0.10500000000000001,21,21,"NIGHT_CLEAR,CLEAR","Offshore,Offshore",2
5842041f4e65fad6a7708a56,2024_11_22,31.2704493877174,-81.27324039152315,Little St. Simons Island,0,0,0.135,21.5,21.5,"NIGHT_CLEAR,CLEAR","Offshore,Offshore",2
5842041f4e65fad6a7708a57,2024_11_22,31.39261761368919,-81.26190520231917,Sapelo Island,0,0,0.11,21,21,"NIGHT_CLEAR,CLEAR","Offshore,Offshore",2
5842041f4e65fad6a7708a58,2024_11_22,34.42458783809001,-77.54492,Surf City Pier,0.5,0.015,0.311365,19,18,"NIGHT_CLEAR,CLEAR","Offshore,Offshore",2
5842041f4e65fad6a7708a59,2024_11_22,31.4231993614213,-81.24725340591522,Cabretta Island,0,0,0.13,21,21,"NIGHT_CLEAR,CLEAR","Offshore,Offshore",2
5842041f4e65fad6a7708a5a,2024_11_22,31.46684389030369,-81.2100056410468,Blackbeard Island,0,0,0.11,21,21,"NIGHT_CLEAR,CLEAR","Offshore,Offshore",2
5842041f4e65fad6a7708a5b,2024_11_22,31.85953587631629,-80.99031310336719,Wassaw Island/South End,0,0,0.08,20.5,20.5,"NIGHT_CLEAR,CLEAR","Offshore,Offshore",2
5842041f4e65fad6a7708a5c,2024_11_22,31.62535662342983,-81.13328352167974,St. Catherines Island,0,0,0.13,21,21,"NIGHT_CLEAR,CLEAR","Offshore,Offshore",2
5842041f4e65fad6a7708a5d,2024_11_22,31.76502169596568,-81.07655443806622,Ossabaw Island,0,0,0.095,21,21,"NIGHT_CLEAR,CLEAR","Offshore,Offshore",2
5842041f4e65fad6a7708a5e,2024_11_22,31.90593619092352,-80.93589231700857,Wassaw Island/North End,0,0,0.11499999999999999,21,21,"NIGHT_CLEAR,CLEAR","Offshore,Offshore",2
5842041f4e65fad6a7708a5f,2024_11_22,31.96738675414547,-80.86977980706155,Little Tybee Island,0,0,0.125,21,21,"NIGHT_CLEAR,CLEAR","Offshore,Offshore",2
5842041f4e65fad6a7708a60,2024_11_22,31.9812255780179,-80.84773973467009,South Tybee Sandbars,0,0,0.125,21,21,"NIGHT_CLEAR,CLEAR","Offshore,Offshore",2
5842041f4e65fad6a7708a61,2024_11_22,32.01226,-80.83983,Sugar Shack,0,0,0.095,21,21,"NIGHT_CLEAR,CLEAR","Offshore,Offshore",2
5842041f4e65fad6a7708a62,2024_11_22,31.98722842396969,-80.84773,18th St. Jetty,0,0,0.156565,21,21,"NIGHT_CLEAR,CLEAR","Offshore,Offshore",2
5842041f4e65fad6a7708a64,2024_11_22,34.013473721006676,-77.8991,"Alabama Ave., Kure Beach",1,0,0.22999999999999998,19,19,"NIGHT_CLEAR,CLEAR","Offshore,Offshore",2
5842041f4e65fad6a7708a65,2024_11_22,34.20859853336924,-77.79293,"C Street, Wrightsville Beach",-0.16666666666666669,-0.013335,0.14601,18,18,"NIGHT_CLEAR,CLEAR","Cross-shore,Onshore",2
5842041f4e65fad6a7708a66,2024_11_22,32.831,-79.71,Dewees Island,0,0,0.135,20,20,"NIGHT_CLEAR,CLEAR","Offshore,Offshore",2
5842041f4e65fad6a7708a67,2024_11_22,33.82924423172106,-78.62813,Cherry Grove Pier,0,0.154515,0.41473,19,19,"NIGHT_CLEAR,CLEAR","Offshore,Offshore",2
5842041f4e65fad6a7708a69,2024_11_22,34.27197439666496,-77.74050223196774,Figure Eight and Shell Islands,0,-0.02222,0.12365000000000001,18,18,"NIGHT_CLEAR,CLEAR","Offshore,Offshore",2
5842041f4e65fad6a7708a6b,2024_11_22,33.49041958261793,-79.07666070599386,North End,0.5,0,0.16999999999999998,19,19,"NIGHT_CLEAR,CLEAR","Offshore,Offshore",2
5842041f4e65fad6a7708a6c,2024_11_22,33.39537062495087,-79.13835037835189,The South End,0,0,0.12,19,19,"NIGHT_CLEAR,CLEAR","Offshore,Offshore",2
5842041f4e65fad6a7708a6d,2024_11_22,33.29001727666697,-79.17190003352977,North Island,1,0,0.195,19,19,"NIGHT_CLEAR,CLEAR","Offshore,Offshore",2
5842041f4e65fad6a7708a6e,2024_11_22,32.90929771158952,-79.57810400297359,Bull Island,1,0.035,0.33499999999999996,20,20,"NIGHT_CLEAR,CLEAR","Offshore,Offshore",2
5842041f4e65fad6a7708a6f,2024_11_22,31.99153112815895,-80.84543050470074,Tybee Island Pier,0,0,0.10500000000000001,21,21,"NIGHT_CLEAR,CLEAR","Offshore,Offshore",2
5842041f4e65fad6a7708a70,2024_11_22,33.03478144356316,-79.35021028265125,Cape Romain,1,0,0.225,20,20,"NIGHT_CLEAR,CLEAR","Offshore,Offshore",2
5842041f4e65fad6a7708a71,2024_11_22,33.43231073271028,-79.11789,The Pier,0,0,0.12406500000000001,19,19,"NIGHT_CLEAR,CLEAR","Offshore,Offshore",2
5842041f4e65fad6a7708a72,2024_11_22,33.45423621397969,-79.10497798178424,South Litchfield,0,0,0.11,19,19,"NIGHT_CLEAR,CLEAR","Offshore,Offshore",2
5842041f4e65fad6a7708a73,2024_11_22,34.19316590251396,-77.8045,Crystal Pier,0,0.13758,0.343565,18,18,"NIGHT_CLEAR,CLEAR","Cross-shore,Onshore",2
5842041f4e65fad6a7708a74,2024_11_22,33.68628680045124,-78.88346,Myrtle Beach,0.5,0,0.175,19,19,"NIGHT_CLEAR,CLEAR","Offshore,Offshore",2
5842041f4e65fad6a7708a75,2024_11_22,32.66166297145973,-79.91951806398808,10th Street,0.5,0,0.21000000000000002,20,20,"NIGHT_CLEAR,CLEAR","Offshore,Offshore",2
5842041f4e65fad6a7708a76,2024_11_22,33.16729555197199,-79.19829236867845,South Island,1,0.025,0.32,19.5,19.5,"NIGHT_CLEAR,CLEAR","Offshore,Offshore",2
5842041f4e65fad6a7708a77,2024_11_22,32.595,-80.088,Kiawah Island/Seabrook Island,0.5,0,0.16499999999999998,20,20,"NIGHT_CLEAR,CLEAR","Offshore,Offshore",2
5842041f4e65fad6a7708a78,2024_11_22,32.51356930575787,-80.28223,Edisto Beach,0.5,0,0.28523,20,20,"NIGHT_CLEAR,CLEAR","Offshore,Offshore",2
5842041f4e65fad6a7708a79,2024_11_22,32.366270751262,-80.43911,Hunting Island,1,0,0.17955,20,20,"NIGHT_CLEAR,CLEAR","Offshore,Offshore",2
5842041f4e65fad6a7708a7a,2024_11_22,32.65337734408365,-79.93983,Folly Beach Pier,0,0,0.21555000000000002,20,20,"NIGHT_CLEAR,CLEAR","Offshore,Offshore",2
5842041f4e65fad6a7708a7b,2024_11_22,33.41209545530049,-79.13026341393126,South Jetty,0,0,0.12,19,19,"NIGHT_CLEAR,CLEAR","Offshore,Offshore",2
5842041f4e65fad6a7708a7c,2024_11_22,32.31115640606869,-80.48564,Fripp Island,1,0,0.338035,20,20,"NIGHT_CLEAR,CLEAR","Offshore,Offshore",2
5842041f4e65fad6a7708a7d,2024_11_22,32.14365226036034,-80.74402,Hilton Head Island,0,0,0.02,21,21,"NIGHT_CLEAR,CLEAR","Offshore,Offshore",2
5842041f4e65fad6a7708a7e,2024_11_22,29.70405364733744,-81.22426,Matanzas Inlet,1,0.16906,0.476645,24,23,"NIGHT_CLEAR,CLEAR","Offshore,Offshore",2
5842041f4e65fad6a7708a81,2024_11_22,29.76878537149042,-81.25109,Crescent Beach,1,0.005,0.31,23.5,23.5,"NIGHT_CLEAR,CLEAR","Offshore,Offshore",2
5842041f4e65fad6a7708a82,2024_11_22,32.80251718689188,-79.73221919500764,Wild Dunes,1,0,0.21500000000000002,20,20,"NIGHT_CLEAR,CLEAR","Offshore,Offshore",2
5842041f4e65fad6a7708a84,2024_11_22,32.75733539419244,-79.83258856064796,Bert's Bar,1,0,0.19,20,20,"NIGHT_CLEAR,CLEAR","Offshore,Offshore",2
5842041f4e65fad6a7708a85,2024_11_22,32.66829212943039,-79.90735,Washout,0,0,0.23865000000000003,20,18,"NIGHT_CLEAR,CLEAR","Offshore,Offshore",2
5842041f4e65fad6a7708a86,2024_11_22,32.78452968219067,-79.7854,The Pier/Windjammer,0,0,0.19,20,20,"NIGHT_CLEAR,CLEAR","Offshore,Offshore",2
5842041f4e65fad6a7708a87,2024_11_22,29.86618162637438,-81.2662150259608,Anastasia Park (The Entrance),1,0.035,0.33999999999999997,23.5,23.5,"NIGHT_CLEAR,CLEAR","Offshore,Offshore",2
5842041f4e65fad6a7708a89,2024_11_22,29.89149785916623,-81.2723223244215,Blowholes,0.6666666666666666,0.03375,0.331365,26,24,"NIGHT_CLEAR,CLEAR","Offshore,Offshore",2
5842041f4e65fad6a7708a8a,2024_11_22,30.16227112983666,-81.35502907491218,Crossroads,0.6666666666666666,0,0.2747,26,24,"NIGHT_CLEAR,CLEAR","Offshore,Offshore",2
5842041f4e65fad6a7708a8b,2024_11_22,30.19308537587637,-81.36314247820911,Sawgrass,0.6666666666666666,0,0.257615,26,24,"NIGHT_CLEAR,CLEAR","Offshore,Offshore",2
5842041f4e65fad6a7708a8c,2024_11_22,30.34696027700899,-81.39451,18th Street,1,0.008465,0.22242499999999998,23,23,"NIGHT_CLEAR,CLEAR","Offshore,Offshore",2
5842041f4e65fad6a7708a8d,2024_11_22,30.381793,-81.39686,Mayport Poles,1,0,0.24,23,23,"NIGHT_CLEAR,CLEAR","Offshore,Offshore",2
5842041f4e65fad6a7708a8e,2024_11_22,30.390516,-81.395591,Blue Roofs,1,0,0.21000000000000002,23,23,"NIGHT_CLEAR,CLEAR","Offshore,Offshore",2
5842041f4e65fad6a7708a8f,2024_11_22,30.40517712722211,-81.40074116169004,Huguenot Park (North Jetty),1,0,0.185,23,23,"NIGHT_CLEAR,CLEAR","Offshore,Offshore",2
5842041f4e65fad6a7708a90,2024_11_22,30.47788918872762,-81.41055821335078,Talbot Island,0.7,0.22072999999999998,0.42043,24,23,"NIGHT_CLEAR,CLEAR","Offshore,Offshore",2
5842041f4e65fad6a7708a91,2024_11_22,30.66753984549761,-81.42983,Main Beach,0.5,0,0.15000000000000002,23,23,"NIGHT_CLEAR,CLEAR","Offshore,Offshore",2
5842041f4e65fad6a7708a92,2024_11_22,30.69983581209126,-81.42483,Ft. Clinch State Park,1,0,0.16999999999999998,23,23,"NIGHT_CLEAR,CLEAR","Offshore,Offshore",2
5842041f4e65fad6a7708a93,2024_11_22,30.62059700777582,-81.437252942757425,Amelia Pier,0,0,0.16999999999999998,23,23,"NIGHT_CLEAR,CLEAR","Offshore,Offshore",2
5842041f4e65fad6a7708a95,2024_11_22,28.95125170929067,-80.83837,Bethune Beach,2,0.365,0.665,25.5,25.5,"NIGHT_CLEAR,CLEAR","Offshore,Offshore",2
5842041f4e65fad6a7708a96,2024_11_22,29.03874288905362,-80.8933424949646,Flagler Ave.,1.1666666666666665,0.418985,0.7216,26,24,"NIGHT_CLEAR,CLEAR","Offshore,Offshore",2
5842041f4e65fad6a7708a98,2024_11_22,30.332297686992757,-81.39319,Atlantic Beach,1,0,0.214015,23,23,"NIGHT_CLEAR,CLEAR","Offshore,Offshore",2
5842041f4e65fad6a7708a99,2024_11_22,29.87530059952514,-81.26757958498874,Middles,0.6666666666666666,0.034165,0.336365,26,24,"NIGHT_CLEAR,CLEAR","Offshore,Offshore",2
5842041f4e65fad6a7708a9a,2024_11_22,29.146475528378218,-80.96347,Sunglow Pier,1,0.245,0.55,24.5,24.5,"NIGHT_CLEAR,CLEAR","Offshore,Offshore",2
5842041f4e65fad6a7708a9b,2024_11_22,30.02251238001095,-81.32183077344881,Gate Station,0.6666666666666666,0.007085,0.31428500000000004,26,24,"NIGHT_CLEAR,CLEAR","Offshore,Offshore",2
5842041f4e65fad6a7708a9c,2024_11_22,29.33976495417899,-81.0606,Bicentennial Park,1,0.22999999999999998,0.535,24,24,"NIGHT_CLEAR,CLEAR","Offshore,Offshore",2
5842041f4e65fad6a7708a9d,2024_11_22,29.08257353385602,-80.92137,Ponce Inlet,1.5,0.570235,0.882435,24,23,"NIGHT_CLEAR,CLEAR","Offshore,Offshore",2
5842041f4e65fad6a7708a9f,2024_11_22,27.862962005874696,-80.44668,Sebastian Inlet,0.6333333333333333,0.6383099999999999,0.932645,26,24,"NIGHT_CLEAR,CLEAR","Offshore,Offshore",2
5842041f4e65fad6a7708aa0,2024_11_22,30.292626880836885,-81.38579,Jacksonville Beach Pier,0.5,0,0.26344999999999996,24,23,"NIGHT_CLEAR,CLEAR","Cross-shore,Cross-shore",2
5842041f4e65fad6a7708aa2,2024_11_22,29.21860397328164,-81.0019,Daytona Beach,1,0.24,0.54,24,24,"NIGHT_CLEAR,CLEAR","Offshore,Offshore",2
5842041f4e65fad6a7708aa3,2024_11_22,27.47531255634912,-80.28914,Ft. Pierce Inlet,1.8,0.587735,0.89035,26,24,"NIGHT_CLEAR,CLEAR","Cross-shore,Cross-shore",2
5842041f4e65fad6a7708aa4,2024_11_22,29.29239875585548,-81.0386,Ormond Beach,1,0.125,0.42500000000000004,24,24,"NIGHT_CLEAR,CLEAR","Offshore,Offshore",2
5842041f4e65fad6a7708aa5,2024_11_22,29.91629441498523,-81.28801,Vilano,1,0.09,0.395,23.5,23.5,"NIGHT_CLEAR,CLEAR","Offshore,Offshore",2
5842041f4e65fad6a7708aa6,2024_11_22,27.876230736320828,-80.4551,Spanish House,1,0.5435650000000001,0.845765,25,24,"NIGHT_CLEAR,CLEAR","Offshore,Offshore",2
5842041f4e65fad6a7708aa7,2024_11_22,28.64397251741012,-80.62329,Playalinda,1.5,0.55,0.86,26,26,"NIGHT_CLEAR,CLEAR","Offshore,Offshore",2
5842041f4e65fad6a7708aa8,2024_11_22,28.406142,-80.58886,Jetty Park,1,0,0.24,26.5,26.5,"NIGHT_CLEAR,CLEAR","Offshore,Offshore",2
5842041f4e65fad6a7708aa9,2024_11_22,28.49083243010974,-80.58001715986319,Kennedy Space Center,2,0.505,0.8049999999999999,26.5,26.5,"NIGHT_CLEAR,CLEAR","Offshore,Offshore",2
5842041f4e65fad6a7708aab,2024_11_22,28.336757013024314,-80.60568,Lori Wilson Park,1,0,0.285535,24,24,"NIGHT_CLEAR,CLEAR","Offshore,Offshore",2
5842041f4e65fad6a7708aad,2024_11_22,27.76388821683801,-80.3962958234027,Wabasso,1.5,0.5349999999999999,0.835,26.5,26.5,"NIGHT_CLEAR,CLEAR","Offshore,Offshore",2
5842041f4e65fad6a7708aae,2024_11_22,27.521583322459,-80.30987620353699,P.V. Martin's,1.5,0.592735,0.90035,26,24,"NIGHT_CLEAR,CLEAR","Offshore,Offshore",2
5842041f4e65fad6a7708aaf,2024_11_22,27.644996047720046,-80.35242676734924,Riomar,1.5,0.609815,0.977285,26,24,"NIGHT_CLEAR,CLEAR","Offshore,Offshore",2
5842041f4e65fad6a7708ab1,2024_11_22,27.670121806659253,-80.36026954650879,Vero Pier,2,0.5893999999999999,0.96645,26,24,"NIGHT_CLEAR,CLEAR","Offshore,Offshore",2
5842041f4e65fad6a7708ab2,2024_11_22,28.047705032021486,-80.54680109024048,Spessard Holland,0.7,0.6281,0.901915,24,24,"NIGHT_CLEAR,CLEAR","Offshore,Onshore",2
5842041f4e65fad6a7708ab7,2024_11_22,28.135426226217064,-80.57895541191101,The Radisson,1,0.27344999999999997,0.576065,24,24,"NIGHT_CLEAR,CLEAR","Offshore,Offshore",2
5842041f4e65fad6a7708ab8,2024_11_22,28.26664623907351,-80.60448,Picnic Tables,1,0.08499999999999999,0.395,26.5,26.5,"NIGHT_CLEAR,CLEAR","Offshore,Offshore",2
5842041f4e65fad6a7708ab9,2024_11_22,28.200840983180232,-80.59493,Perkins,1,0.13,0.43000000000000005,26.5,26.5,"NIGHT_CLEAR,CLEAR","Offshore,Offshore",2
5842041f4e65fad6a7708aba,2024_11_22,28.185652556759443,-80.59154,RC's,1,0.22000000000000003,0.5249999999999999,26.5,26.5,"NIGHT_CLEAR,CLEAR","Offshore,Offshore",2
5842041f4e65fad6a7708abc,2024_11_22,28.252541991968208,-80.60269,2nd Light,1,0.08499999999999999,0.39,26.5,26.5,"NIGHT_CLEAR,CLEAR","Offshore,Offshore",2
5842041f4e65fad6a7708abd,2024_11_22,27.901611308716447,-80.4697,Bonsteel Park,1,0.618565,0.9211849999999999,25,24,"NIGHT_CLEAR,CLEAR","Offshore,Offshore",2
5842041f4e65fad6a7708abe,2024_11_22,28.2423394657007,-80.60104,Hangar's Beach,1.5,0.265,0.5700000000000001,26.5,26.5,"NIGHT_CLEAR,CLEAR","Offshore,Offshore",2
5842041f4e65fad6a7708abf,2024_11_22,27.34018197146798,-80.23278,Walton Rocks,0.8,0.6044,0.9768650000000001,27,26,"NIGHT_CLEAR,CLEAR","Cross-shore,Offshore",2
5842041f4e65fad6a7708ac0,2024_11_22,25.80407401902198,-80.1222227290161,30th Street,1,0.11,0.42000000000000004,27,27,"NIGHT_CLEAR,CLEAR","Offshore,Offshore",2
5842041f4e65fad6a7708ac1,2024_11_22,25.76570280215999,-80.12983,South Beach,1.75,0.307455,0.606425,28,28,"NIGHT_CLEAR,CLEAR","Offshore,Offshore",2
5842041f4e65fad6a7708ac2,2024_11_22,26.058022412197,-80.10873562327671,Dania Pier,1,0.125,0.435,27,27,"NIGHT_CLEAR,CLEAR","Offshore,Offshore",2
5842041f4e65fad6a7708ac3,2024_11_22,26.04825428257198,-80.11153150137932,Franklin Street,1.5,0.445,0.75,27,27,"NIGHT_CLEAR,CLEAR","Offshore,Offshore",2
5842041f4e65fad6a7708ac4,2024_11_22,26.09086461141498,-80.10728410144065,John Lloyd State Park,1,0.445,0.75,27,27,"NIGHT_CLEAR,CLEAR","Offshore,Offshore",2
5842041f4e65fad6a7708ac5,2024_11_22,26.0971397396683,-80.10298876028907,Spoils,1,0.155,0.46499999999999997,27,27,"NIGHT_CLEAR,CLEAR","Offshore,Offshore",2
5842041f4e65fad6a7708ac6,2024_11_22,26.18920557475824,-80.09224,Commercial Pier,1,0.18,0.49,27,27,"NIGHT_CLEAR,CLEAR","Offshore,Offshore",2
5842041f4e65fad6a7708ac7,2024_11_22,28.289851576629342,-80.6063,16th St. South,0.6666666666666666,0.0425,0.3497,26,25,"NIGHT_CLEAR,CLEAR","Offshore,Offshore",2
5842041f4e65fad6a7708ac8,2024_11_22,26.23467460139735,-80.0874,Pompano Pier,1.5,0.35187,0.65905,26.5,26.5,"NIGHT_CLEAR,CLEAR","Offshore,Offshore",2
5842041f4e65fad6a7708acb,2024_11_22,26.44179551370651,-80.05928855229453,Atlantic Dunes Park,3.033333333333333,0.56539,0.935835,27,26,"NIGHT_CLEAR,CLEAR","Offshore,Offshore",2
5842041f4e65fad6a7708acd,2024_11_22,26.62215707439298,-80.03599398392342,Hilton Hotel Backyard,2.333333333333333,0.609815,0.912015,26,26,"NIGHT_CLEAR,CLEAR","Offshore,Offshore",2
5842041f4e65fad6a7708ace,2024_11_22,26.96418190555367,-80.07769168113562,Coral Cove Park,1.5,0.616485,0.9240999999999999,26,25,"NIGHT_CLEAR,CLEAR","Offshore,Offshore",2
5842041f4e65fad6a7708acf,2024_11_22,26.7029496416037,-80.03184,Palm Beach,2.333333333333333,0.6456500000000001,0.943265,26,26,"NIGHT_CLEAR,CLEAR","Offshore,Offshore",2
5842041f4e65fad6a7708ad0,2024_11_22,26.97679878167375,-80.08141631388132,Blowing Rocks,1.5,0.643985,0.9466,26,25,"NIGHT_CLEAR,CLEAR","Offshore,Offshore",2
5842041f4e65fad6a7708ad2,2024_11_22,26.45661880078336,-80.057,Delray Beach,3.033333333333333,0.5292,0.9025000000000001,27,26,"NIGHT_CLEAR,CLEAR","Offshore,Offshore",2
5842041f4e65fad6a7708ad3,2024_11_22,27.205685534312778,-80.16826629638672,Fletcher's,1.5,0.63565,0.9378500000000001,26,25,"NIGHT_CLEAR,CLEAR","Offshore,Offshore",2
5842041f4e65fad6a7708ad5,2024_11_22,26.5848450388814,-80.03649735753257,Lantana Public Beach,1.3333333333333335,0.534285,0.8419000000000001,27,26,"NIGHT_CLEAR,CLEAR","Offshore,Offshore",2
5842041f4e65fad6a7708ad6,2024_11_22,25.77468432731322,-80.12884045797499,5th Street,1,0.31,0.615,27,27,"NIGHT_CLEAR,CLEAR","Offshore,Offshore",2
5842041f4e65fad6a7708ad7,2024_11_22,25.795157990715975,-80.12527585029602,21st Street,1,0.065,0.365,27,27,"NIGHT_CLEAR,CLEAR","Offshore,Offshore",2
5842041f4e65fad6a7708ad8,2024_11_22,25.897806453088073,-80.1211827993393,Haulover Inlet (South Jetty),1,0.255,0.56,27,27,"NIGHT_CLEAR,CLEAR","Offshore,Offshore",2
5842041f4e65fad6a7708ad9,2024_11_22,25.90147392328634,-80.12110769748688,Haulover Inlet (North Jetty),1,0.46499999999999997,0.7649999999999999,27,27,"NIGHT_CLEAR,CLEAR","Offshore,Offshore",2
5842041f4e65fad6a7708ada,2024_11_22,25.87049374242476,-80.11828560342356,85th Street,1,0.3,0.605,27,27,"NIGHT_CLEAR,CLEAR","Offshore,Offshore",2
5842041f4e65fad6a7708adb,2024_11_22,26.25486382031396,-80.0805,Hillsboro Inlet,1,0.18308999999999997,0.50219,26.5,26.5,"NIGHT_CLEAR,CLEAR","Offshore,Offshore",2
5842041f4e65fad6a7708add,2024_11_22,26.29705672965111,-80.07612,Hillsboro Beach,1,0.16999999999999998,0.475,26.5,26.5,"NIGHT_CLEAR,CLEAR","Offshore,Offshore",2
5842041f4e65fad6a7708ade,2024_11_22,26.36569956413266,-80.06717936869391,Red Reef Park,1.3333333333333335,0.280115,0.582735,27,27,"NIGHT_CLEAR,CLEAR","Offshore,Offshore",2
5842041f4e65fad6a7708adf,2024_11_22,26.54593873498907,-80.04104359585143,Boynton Beach Inlet (Northside),1.3333333333333335,0.2022,0.504815,27,26,"NIGHT_CLEAR,CLEAR","Offshore,Offshore",2
5842041f4e65fad6a7708ae0,2024_11_22,26.92746505629809,-80.06721138954163,Corners,2.466666666666667,0.831885,1.158485,26,26,"NIGHT_CLEAR,CLEAR","Offshore,Offshore",2
5842041f4e65fad6a7708ae1,2024_11_22,26.76983179886943,-80.03413481937037,The Cove,2.333333333333333,0.6093999999999999,0.9166,26,26,"NIGHT_CLEAR,CLEAR","Offshore,Offshore",2
5842041f4e65fad6a7708ae3,2024_11_22,26.39224485175123,-80.0650461233983,Japanese Rock,1.3333333333333335,0.2247,0.5319,27,27,"NIGHT_CLEAR,CLEAR","Offshore,Offshore",2
5842041f4e65fad6a7708ae4,2024_11_22,29.94810928551321,-85.42545434612366,Mexico Beach,1.5,0.45999999999999996,0.76,23,23,"NIGHT_CLEAR,CLEAR","Cross-shore,Cross-shore",2
5842041f4e65fad6a7708ae5,2024_11_22,30.11752500931267,-85.7306,Shell Island,1,0.36,0.6699999999999999,23.5,23.5,"NIGHT_CLEAR,CLEAR","Cross-shore,Cross-shore",2
5842041f4e65fad6a7708ae7,2024_11_22,29.94901514702268,-85.43042978529013,D.J.'s,2,0.44999999999999996,0.755,23,23,"NIGHT_CLEAR,CLEAR","Cross-shore,Cross-shore",2
5842041f4e65fad6a7708ae8,2024_11_22,30.12396111446713,-85.73637,St. Andrew's Park,1,0.5004,0.80315,21,21,"NIGHT_CLEAR,CLEAR","Cross-shore,Cross-shore",2
5842041f4e65fad6a7708ae9,2024_11_22,30.16781531760227,-85.79604918824084,Spinnaker,1,0.46740000000000004,0.77315,21,21,"NIGHT_CLEAR,CLEAR","Offshore,Offshore",2
5842041f4e65fad6a7708aea,2024_11_22,30.18877050526983,-85.83243530466363,Wood Pier,0.6666666666666666,0.263865,0.566485,21,21,"NIGHT_CLEAR,CLEAR","Cross-shore,Cross-shore",2
5842041f4e65fad6a7708aeb,2024_11_22,30.2676205895555,-85.9938578144113,Inlet Beach Pier,0.6666666666666666,0.24219999999999997,0.5494,21,21,"NIGHT_CLEAR,CLEAR","Offshore,Cross-shore",2
5842041f4e65fad6a7708aec,2024_11_22,30.31815542759119,-86.1383771867044,Bud and Alley's,0.6666666666666666,0.20386500000000002,0.506485,21,21,"NIGHT_CLEAR,CLEAR","Offshore,Offshore",2
5842041f4e65fad6a7708aed,2024_11_22,30.32686082481946,-86.16650590275447,Grayton Beach,0.6666666666666666,0.16053499999999998,0.46315,21,21,"NIGHT_CLEAR,CLEAR","Offshore,Offshore",2
5842041f4e65fad6a7708aee,2024_11_22,30.33661488976303,-86.20094,Blue Mountain Beach,0.6666666666666666,0.17720000000000002,0.4894,21,21,"NIGHT_CLEAR,CLEAR","Offshore,Offshore",2
5842041f4e65fad6a7708aef,2024_11_22,30.37677202831587,-86.38513,Pompano Joe's,0.6666666666666666,0.1397,0.4144,21,21,"NIGHT_CLEAR,CLEAR","Cross-shore,Offshore",2
5842041f4e65fad6a7708af0,2024_11_22,30.37429731725911,-86.36687,Seascape,0.6666666666666666,0.1547,0.447315,21,21,"NIGHT_CLEAR,CLEAR","Cross-shore,Offshore",2
5842041f4e65fad6a7708af1,2024_11_22,30.382815988547186,-86.45839,The Back Porch,0.6666666666666666,0.1397,0.408985,21,21,"NIGHT_CLEAR,CLEAR","Offshore,Offshore",2
5842041f4e65fad6a7708af2,2024_11_22,30.21207176798612,-85.87989730830542,Panama City Pier,0.6666666666666666,0.25345,0.5606500000000001,21,21,"NIGHT_CLEAR,CLEAR","Cross-shore,Cross-shore",2
5842041f4e65fad6a7708af3,2024_11_22,30.37521499110326,-86.3717,Whale's Tail,1.1666666666666667,0.1397,0.44065,21,21,"NIGHT_CLEAR,CLEAR","Cross-shore,Offshore",2
5842041f4e65fad6a7708af4,2024_11_22,30.38120596658251,-86.43046,Old Crystal Pier,0.6666666666666666,0.1397,0.44065,21,21,"NIGHT_CLEAR,CLEAR","Offshore,Offshore",2
5842041f4e65fad6a7708af5,2024_11_22,30.38090573159031,-86.50655,Jetty East,0.6666666666666666,0.1397,0.42523500000000003,21,21,"NIGHT_CLEAR,CLEAR","Offshore,Offshore",2
5842041f4e65fad6a7708af6,2024_11_22,30.37584509640838,-86.50563,HMO's,0.6666666666666666,0.1397,0.43565,21,21,"NIGHT_CLEAR,CLEAR","Offshore,Offshore",2
5842041f4e65fad6a7708af7,2024_11_22,30.38124006131522,-86.50052,Two By Fours,0.6666666666666666,0.1447,0.43606500000000004,21,21,"NIGHT_CLEAR,CLEAR","Offshore,Offshore",2
5842041f4e65fad6a7708af8,2024_11_22,30.38250751017554,-86.45776,The Pumphouse,0.6666666666666666,0.1447,0.44106500000000004,21,21,"NIGHT_CLEAR,CLEAR","Offshore,Offshore",2
5842041f4e65fad6a7708af9,2024_11_22,30.38655981578935,-86.52475,NCO Club,0.6666666666666666,0.1397,0.43065,21,21,"NIGHT_CLEAR,CLEAR","Offshore,Offshore",2
5842041f4e65fad6a7708afa,2024_11_22,30.39024516541047,-86.59341,Okaloosa Pier,0.6666666666666666,0.1397,0.4194,21,21,"NIGHT_CLEAR,CLEAR","Offshore,Offshore",2
5842041f4e65fad6a7708afb,2024_11_22,30.39281125722673,-86.59766,Dead Man's,0.6666666666666666,0.1397,0.408985,21,21,"NIGHT_CLEAR,CLEAR","Offshore,Offshore",2
5842041f4e65fad6a7708afc,2024_11_22,30.32703176167034,-87.14196,Pensacola Pier,0.5,0,0.155,23.5,23.5,"NIGHT_CLEAR,CLEAR","Offshore,Offshore",2
5842041f4e65fad6a7708afd,2024_11_22,30.37920054094992,-86.85583,Navarre Beach,0.5,0,0.16051500000000002,21,21,"NIGHT_CLEAR,CLEAR","Cross-shore,Offshore",2
5842041f4e65fad6a7708afe,2024_11_22,30.39491626029151,-86.61248,Blue Horizon Motel,0.6666666666666666,0.1397,0.413985,21,21,"NIGHT_CLEAR,CLEAR","Offshore,Offshore",2
5842041f4e65fad6a7708aff,2024_11_22,30.29345899260828,-87.43547,First Parking Lot,0,0,0.14,23.5,23.5,"NIGHT_CLEAR,CLEAR","Offshore,Offshore",2
5842041f4e65fad6a7708b00,2024_11_22,30.29767401311303,-87.41362,Johnsons Beach,0.5,0,0.14,23.5,23.5,"NIGHT_CLEAR,CLEAR","Offshore,Offshore",2
5842041f4e65fad6a7708b01,2024_11_22,30.29513397370759,-87.42642,Sandy Key,0,0,0.13,23.5,23.5,"NIGHT_CLEAR,CLEAR","Offshore,Offshore",2
5842041f4e65fad6a7708b03,2024_11_22,30.377504907388026,-86.86444,Navarre Pier,0.5,0,0.225685,21,21,"NIGHT_CLEAR,CLEAR","Offshore,Offshore",2
5842041f4e65fad6a7708b04,2024_11_22,30.31482647791307,-87.26164,Pickens Point Dunes,0.5,0,0.16,23.5,23.5,"NIGHT_CLEAR,CLEAR","Offshore,Offshore",2
5842041f4e65fad6a7708b05,2024_11_22,30.32632110836516,-87.16019503253068,Slabs,0.5,0,0.15,23.5,23.5,"NIGHT_CLEAR,CLEAR","Offshore,Offshore",2
5842041f4e65fad6a7708b06,2024_11_22,30.32739721382043,-87.30406515493348,Pickens Point,0.5,0,0.165,23.5,23.5,"NIGHT_CLEAR,CLEAR","Cross-shore,Cross-shore",2
5842041f4e65fad6a7708b07,2024_11_22,30.27406893266753,-87.54367,Bungalows,0.5,0,0.14,23.5,23.5,"NIGHT_CLEAR,CLEAR","Offshore,Offshore",2
5842041f4e65fad6a7708b08,2024_11_22,27.99627311846992,-82.82942,880,0,1.0517400000000001,1.393145,24,24,"NIGHT_CLEAR,CLEAR","Cross-shore,Cross-shore",2
5842041f4e65fad6a7708b09,2024_11_22,27.97779860371595,-82.83246509090527,Pier 60,0,1.105,1.41,24,24,"NIGHT_CLEAR,CLEAR","Onshore,Onshore",2
5842041f4e65fad6a7708b0a,2024_11_22,27.96296387618043,-82.8332635965418,Sand Key,0,1.105,1.41,24,24,"NIGHT_CLEAR,CLEAR","Onshore,Onshore",2
5842041f4e65fad6a7708b0b,2024_11_22,27.92492619212885,-82.8449122845279,Belleair,0,1.1150000000000002,1.4249999999999998,24,24,"NIGHT_CLEAR,CLEAR","Cross-shore,Onshore",2
5842041f4e65fad6a7708b0c,2024_11_22,27.882,-82.854,Indian Rocks Beach,0.5,1.22,1.525,24,24,"NIGHT_CLEAR,CLEAR","Cross-shore,Onshore",2
5842041f4e65fad6a7708b0d,2024_11_22,27.83106104966094,-82.83550218771384,Redington Breakwater,2,1.1349999999999998,1.44,24,24,"NIGHT_CLEAR,CLEAR","Cross-shore,Cross-shore",2
5842041f4e65fad6a7708b0e,2024_11_22,27.74369029906206,-82.76053473435867,Middle Jetty,1,1.0550000000000002,1.36,24,24,"NIGHT_CLEAR,CLEAR","Cross-shore,Cross-shore",2
5842041f4e65fad6a7708b0f,2024_11_22,27.82174178852146,-82.83148664631841,Redington Pier,2,1.1,1.4049999999999998,24,24,"NIGHT_CLEAR,CLEAR","Cross-shore,Cross-shore",2
5842041f4e65fad6a7708b10,2024_11_22,27.31496308261514,-82.5830466912004,Lido Beach,1,0.88,1.185,25,25,"NIGHT_CLEAR,CLEAR","Cross-shore,Cross-shore",2
5842041f4e65fad6a7708b11,2024_11_22,27.31122010159892,-82.57833234007632,Coolidge,1,0.87,1.18,25,25,"NIGHT_CLEAR,CLEAR","Cross-shore,Cross-shore",2
5842041f4e65fad6a7708b12,2024_11_22,27.26471672017615,-82.55464835167173,Siesta Key,1.5,0.47,0.78,26,25,"NIGHT_CLEAR,CLEAR","Cross-shore,Cross-shore",2
5842041f4e65fad6a7708b13,2024_11_22,27.24638693488133,-82.53809115716797,Stickney Point,1.5,0.79,1.0950000000000002,25,25,"NIGHT_CLEAR,CLEAR","Cross-shore,Cross-shore",2
5842041f4e65fad6a7708b14,2024_11_22,27.21907878229092,-82.51813937562073,Turtles,2,0.76,1.07,25,25,"NIGHT_CLEAR,CLEAR","Offshore,Cross-shore",2
5842041f4e65fad6a7708b15,2024_11_22,27.11375765852028,-82.47039,Venice Jetties North,1,0.9194,1.2192,26,25,"NIGHT_CLEAR,CLEAR","Cross-shore,Cross-shore",2
5842041f4e65fad6a7708b16,2024_11_22,27.111485758834025,-82.46757,Venice Jetties South,1.5,0.595,0.895,26,25,"NIGHT_CLEAR,CLEAR","Cross-shore,Cross-shore",2
5842041f4e65fad6a7708b17,2024_11_22,27.07249378831575,-82.4530285256104,Venice Pier,2.5,0.8200000000000001,1.13,26,25,"NIGHT_CLEAR,CLEAR","Offshore,Cross-shore",2
5842041f4e65fad6a7708b19,2024_11_22,27.49680446426314,-82.7140145455959,Holmes Beach Pier,0,0.87,1.17,24.5,24.5,"NIGHT_CLEAR,CLEAR","Cross-shore,Cross-shore",2
5842041f4e65fad6a7708b1a,2024_11_22,27.7390348493064,-82.75763,Sunset Beach,1.5,1.05,1.355,24,24,"NIGHT_CLEAR,CLEAR","Cross-shore,Cross-shore",2
5842041f4e65fad6a7708b1b,2024_11_22,26.80347307599041,-82.28564775623539,Gasparilla Point,2.5,0.705,1.005,24.5,24.5,"NIGHT_CLEAR,CLEAR","Offshore,Offshore",2
5842041f4e65fad6a7708b1c,2024_11_22,27.45365831548911,-82.69609,Coquina Jetties,0,0.82,1.125,25,25,"NIGHT_CLEAR,CLEAR","Cross-shore,Cross-shore",2
5842041f4e65fad6a7708b1d,2024_11_22,27.46077315206043,-82.69924,Twin Piers,1.3,0.8985650000000001,1.2112850000000002,26,25,"NIGHT_CLEAR,CLEAR","Cross-shore,Cross-shore",2
5842041f4e65fad6a7708b1e,2024_11_22,26.91007316019612,-82.35352,Englewood,2,0.47,0.78,24.5,24.5,"NIGHT_CLEAR,CLEAR","Offshore,Offshore",2
5842041f4e65fad6a7708b1f,2024_11_22,26.88221101560038,-82.3359828282636,Knight's Point,3,0.675,0.985,24.5,24.5,"NIGHT_CLEAR,CLEAR","Offshore,Offshore",2
5842041f4e65fad6a7708b20,2024_11_22,26.51219285784982,-82.1928203289264,Tween Waters,1.5,0.725,1.03,24.5,24.5,"NIGHT_CLEAR,CLEAR","Cross-shore,Offshore",2
5842041f4e65fad6a7708b21,2024_11_22,26.55130241615096,-82.20222762415648,Redfish Pass,1.5,0.735,1.04,24.5,24.5,"NIGHT_CLEAR,CLEAR","Cross-shore,Cross-shore",2
5842041f4e65fad6a7708b22,2024_11_22,26.71713432926596,-82.26287777058234,Boca Grande,1.5,0.675,0.985,24.5,24.5,"NIGHT_CLEAR,CLEAR","Cross-shore,Cross-shore",2
5842041f4e65fad6a7708b23,2024_11_22,26.47856785808584,-82.181288592828,Blind Pass,1.5,0.745,1.045,24.5,24.5,"NIGHT_CLEAR,CLEAR","Cross-shore,Offshore",2
5842041f4e65fad6a7708b24,2024_11_22,26.25358330618783,-81.82429246081317,The Wall,2,0.36,0.665,25.5,25.5,"NIGHT_CLEAR,CLEAR","Cross-shore,Offshore",2
5842041f4e65fad6a7708b25,2024_11_22,26.17456407516186,-81.81588575623482,Doctor's Pass,2,0.35,0.655,25.5,25.5,"NIGHT_CLEAR,CLEAR","Cross-shore,Offshore",2
5842041f4e65fad6a7708b26,2024_11_22,27.427134501874612,-82.68110766159296,Whitney Beach,0,0.97,1.28,25,25,"NIGHT_CLEAR,CLEAR","Cross-shore,Cross-shore",2
5842041f4e65fad6a7708b27,2024_11_22,26.17300183052463,-81.81515842430267,Doctor's Pass (South Jetty),2,0.35,0.655,25.5,25.5,"NIGHT_CLEAR,CLEAR","Cross-shore,Offshore",2
5842041f4e65fad6a7708b28,2024_11_22,27.73496421495629,-82.75268962468695,Upham Beach Park,1,1.05,1.35,24,24,"NIGHT_CLEAR,CLEAR","Cross-shore,Cross-shore",2
5842041f4e65fad6a7708b29,2024_11_22,26.13144856766723,-81.8090395116521,Naples Pier,1.5,0.26,0.56,25.5,25.5,"NIGHT_CLEAR,CLEAR","Cross-shore,Offshore",2
5842041f4e65fad6a7708b2a,2024_11_22,20.63474,-156.45211,Little Beach,2,0.025,0.335,26,26,"NIGHT_CLEAR,NIGHT_CLEAR","Offshore,Offshore",2
5842041f4e65fad6a7708b2b,2024_11_22,20.613,-156.438,Dumps,1,0,0.27,26,26,"NIGHT_CLEAR,NIGHT_CLEAR","Cross-shore,Offshore",2
5842041f4e65fad6a7708b2c,2024_11_22,22.216,-159.502,Hanalei Bay,3,1.355,1.615,26,26,"NIGHT_BRIEF_SHOWERS,NIGHT_CLEAR","Offshore,Offshore",2
5842041f4e65fad6a7708b2d,2024_11_22,22.225,-159.567,Ha'Ena Bay (Cannons/Tunnels),2.5,0.99,1.235,26,26,"NIGHT_MOSTLY_CLOUDY,NIGHT_CLEAR","Offshore,Offshore",2
5842041f4e65fad6a7708b2f,2024_11_22,22.148,-159.301,Anahola Bay,2,0.825,1.08,26,26,"NIGHT_CLEAR,NIGHT_MOSTLY_CLOUDY","Onshore,Cross-shore",2
5842041f4e65fad6a7708b30,2024_11_22,21.872,-159.462,Poipu Outer Reef,2,0.335,0.645,26,26,"NIGHT_MOSTLY_CLOUDY,NIGHT_CLEAR","Offshore,Offshore",2
5842041f4e65fad6a7708b31,2024_11_22,21.936,-159.652,Pakala,2,0.11,0.41,26,26,"NIGHT_CLEAR,NIGHT_CLEAR","Offshore,Offshore",2
5842041f4e65fad6a7708b32,2024_11_22,21.272,-157.832,Populars,1.5,0.11499999999999999,0.415,26,25,"NIGHT_CLEAR,NIGHT_MOSTLY_CLOUDY","Offshore,Offshore",2
5842041f4e65fad6a7708b33,2024_11_22,21.26841992117695,-157.82329,Publics,1.5,0.2,0.5,26,25,"NIGHT_CLEAR,NIGHT_MOSTLY_CLOUDY","Offshore,Offshore",2
5842041f4e65fad6a7708b34,2024_11_22,21.25460513357954,-157.79432,Black Point,2,0.48226,0.808885,26,26,"NIGHT_CLEAR,NIGHT_MOSTLY_CLOUDY","Offshore,Offshore",2
5842041f4e65fad6a7708b35,2024_11_22,21.27394674233747,-157.82777,Canoes,1.5,0.22,0.525,26,25,"NIGHT_CLEAR,NIGHT_MOSTLY_CLOUDY","Offshore,Offshore",2
5842041f4e65fad6a7708b36,2024_11_22,21.273658410008455,-157.8263,Queen's,1.5,0.17,0.47,26,25,"NIGHT_CLEAR,NIGHT_MOSTLY_CLOUDY","Offshore,Offshore",2
5842041f4e65fad6a7708b37,2024_11_22,20.869,-156.679,Lahaina Harbor - Breakwall,2,0.14500000000000002,0.455,26,26,"NIGHT_CLEAR,NIGHT_CLEAR","Offshore,Offshore",2
5842041f4e65fad6a7708b38,2024_11_22,21.277,-157.841,Kaiser's,1.5,0.20500000000000002,0.505,26,25,"NIGHT_CLEAR,NIGHT_MOSTLY_CLOUDY","Offshore,Offshore",2
5842041f4e65fad6a7708b39,2024_11_22,21.280537020769913,-157.84107,Rockpiles,2,0.288055,0.594725,26,25,"NIGHT_CLEAR,NIGHT_MOSTLY_CLOUDY","Offshore,Offshore",2
5842041f4e65fad6a7708b3a,2024_11_22,21.2745,-157.8395,Four's,1.5,0.26,0.565,26,26,"NIGHT_CLEAR,NIGHT_MOSTLY_CLOUDY","Offshore,Offshore",2
5842041f4e65fad6a7708b3b,2024_11_22,21.576,-158.282,Kaena Point,1.5,0.37,0.675,26,26,"NIGHT_CLEAR,NIGHT_CLEAR","Cross-shore,Cross-shore",2
5842041f4e65fad6a7708b3c,2024_11_22,21.31110306220024,-157.6590697786346,Makapu'u,1,0.64,0.95,25,25,"NIGHT_CLEAR,NIGHT_MOSTLY_CLOUDY","Onshore,Onshore",2
5842041f4e65fad6a7708b3d,2024_11_22,21.276618032562773,-157.83386,Three's,2,0.19767,0.501225,26,25,"NIGHT_CLEAR,NIGHT_MOSTLY_CLOUDY","Offshore,Offshore",2
5842041f4e65fad6a7708b3f,2024_11_22,39.63537452931482,-123.7858735430881,Westport,1,2.32,2.77,13,13,NIGHT_LIGHT_RAIN,Cross-shore,1
5842041f4e65fad6a7708b40,2024_11_22,39.47339314374171,-123.8053109861082,MacKerricher,1,2.64,3.15,13,13,NIGHT_HEAVY_RAIN,Cross-shore,1
5842041f4e65fad6a7708b41,2024_11_22,39.30271935445495,-123.79757,Mendocino Township,0,1.69,2.02,13,13,NIGHT_HEAVY_RAIN,Onshore,1
5842041f4e65fad6a7708b42,2024_11_22,21.281416779283845,-157.8457,Ala Moana Bowls,2,0.35486,0.6580550000000001,26,25,"NIGHT_CLEAR,NIGHT_MOSTLY_CLOUDY","Offshore,Offshore",2
5842041f4e65fad6a7708b43,2024_11_22,15.846,-97.06,Puerto Escondido,3.5,1.36,1.625,28.5,28.5,"NIGHT_CLEAR,CLEAR","Offshore,Offshore",2
5842041f4e65fad6a7708b44,2024_11_22,11.44175,-86.08519,Santana,3,0.955,1.145,27,27,"NIGHT_CLEAR,OVERCAST","Offshore,Offshore",2
5842041f4e65fad6a7708b46,2024_11_22,38.91444690804076,-123.7104245288878,Point Arena,0,2.76,3.23,13,13,NIGHT_RAIN,Cross-shore,1
5842041f4e65fad6a7708b47,2024_11_22,18.46,-66.07383728027,San Juan,3.7,0.992385,1.381365,27,26,"NIGHT_MIST,CLEAR","Offshore,Offshore",2
5842041f4e65fad6a7708b48,2024_11_22,13.21526058417982,-59.52183,Soup Bowl,2,0.911715,1.354035,29.5,29.5,"NIGHT_CLEAR,OVERCAST","Onshore,Onshore",2
5842041f4e65fad6a7708b49,2024_11_22,18.371581,-67.25941,Puntas,3,0.9326,1.22465,28,27,"NIGHT_CLEAR,CLEAR","Offshore,Cross-shore",2
5842041f4e65fad6a7708b4b,2024_11_22,-8.814,115.089,Uluwatu,4,1.417435,1.7273999999999998,28,28,"CLEAR,NIGHT_BRIEF_SHOWERS_POSSIBLE","Offshore,Offshore",2
5842041f4e65fad6a7708b4c,2024_11_22,-8.950192825865,115.12573242187,Kuta,3,1.615,1.935,30,30,"CLEAR,NIGHT_CLEAR","Onshore,Onshore",2
5842041f4e65fad6a7708b4d,2024_11_22,9.94,-85.668,Guiones,3,0.925,1.1,27,27,"NIGHT_LIGHT_SHOWERS_POSSIBLE,HEAVY_THUNDER_STORMS","Offshore,Offshore",2
5842041f4e65fad6a7708b4e,2024_11_22,9.56516,-84.59148,Playa Hermosa South,3,0.69843,1.0504799999999999,27,27,"NIGHT_BRIEF_SHOWERS_POSSIBLE,LIGHT_SHOWERS_POSSIBLE","Offshore,Offshore",2
5842041f4e65fad6a7708b4f,2024_11_22,9.526305556,-84.48822,Playa Esterillos,3,0.915,1.0950000000000002,27.5,27.5,"NIGHT_BRIEF_SHOWERS_POSSIBLE,LIGHT_SHOWERS_POSSIBLE","Cross-shore,Cross-shore",2
5842041f4e65fad6a7708b50,2024_11_22,9.576,-84.608,Playa Hermosa North,3,0.975,1.17,27,27,"NIGHT_BRIEF_SHOWERS_POSSIBLE,LIGHT_SHOWERS_POSSIBLE","Offshore,Offshore",2
5842041f4e65fad6a7708b53,2024_11_22,-12.337,-76.839,Pico Alto,2,0.77868,1.1077,18.5,18.5,"NIGHT_CLOUDY,CLOUDY","Onshore,Onshore",2
5842041f4e65fad6a7708b55,2024_11_22,-12.17155,-77.08515,Peruazul,1,0.66,0.97,18.5,18.5,"NIGHT_CLEAR,CLEAR","Cross-shore,Cross-shore",2
5842041f4e65fad6a7708b56,2024_11_22,-12.133164,-77.03916,Makaha,2,0.7873,1.12628,18.5,18.5,"NIGHT_CLEAR,CLEAR","Cross-shore,Cross-shore",2
5842041f4e65fad6a7708b57,2024_11_22,43.29,-2.1708,Zarautz,1.5,2.373005,2.6461550000000003,17,17,"LIGHT_RAIN,BRIEF_SHOWERS_POSSIBLE","Onshore,Onshore",2
5842041f4e65fad6a7708b58,2024_11_22,54.27129984804951,-8.60171,Strandhill,2.5,1.47505,2.30477,12,12,"LIGHT_SHOWERS_POSSIBLE,BRIEF_SHOWERS_POSSIBLE","Onshore,Onshore",2
5842041f4e65fad6a7708b5b,2024_11_22,39.276101,-74.56709,7th Street,1.5,0.25434999999999997,0.61517,13,13,"NIGHT_CLEAR,CLEAR","Offshore,Cross-shore",2
5842041f4e65fad6a7708b5d,2024_11_22,39.321896,-74.506191,Sumner Avenue,0,0,0.20500000000000002,16,16,"NIGHT_CLEAR,CLEAR","Cross-shore,Cross-shore",2
5842041f4e65fad6a7708b5e,2024_11_22,39.093673,-74.71653,26th to 30th Street Pier,0,0,0.22999999999999998,13,13,"NIGHT_CLEAR,CLEAR","Offshore,Offshore",2
5842041f4e65fad6a7708b5f,2024_11_22,39.039903,-74.76417,Nun's Beach,0.5,0.00633,0.39242,14,13,"NIGHT_CLEAR,CLEAR","Offshore,Cross-shore",2
5842041f4e65fad6a7708b60,2024_11_22,38.96768,-74.82565,Rambler Road,0,0,0.28,14,13,"NIGHT_CLEAR,CLEAR","Offshore,Cross-shore",2
5842041f4e65fad6a7708b61,2024_11_22,38.99931,-74.78814,2nd St. to 10th St.,0.5,0.075,0.375,14,13,"NIGHT_CLEAR,CLEAR","Offshore,Cross-shore",2
5842041f4e65fad6a7708b62,2024_11_22,38.929886,-74.91718,Stockton Avenue,0.5,0,0.26962,14,13,"NIGHT_CLEAR,CLEAR","Offshore,Offshore",2
5842041f4e65fad6a7708b63,2024_11_22,38.942988,-74.862452,The Rocks,0.5,0.035,0.33499999999999996,14,13,"NIGHT_CLEAR,CLEAR","Offshore,Cross-shore",2
5842041f4e65fad6a7708b64,2024_11_22,38.93036,-74.91257,Queen Street,0.5,0.015,0.30000000000000004,14,13,"NIGHT_CLEAR,CLEAR","Offshore,Cross-shore",2
5842041f4e65fad6a7708b65,2024_11_22,38.942757,-74.880791,Poverty Beach,0,0.02,0.305,14,13,"NIGHT_CLEAR,CLEAR","Cross-shore,Onshore",2
5842041f4e65fad6a7708b66,2024_11_22,38.929441,-74.93129,Broadway Beach,0.5,0.02,0.305,14,13,"NIGHT_CLEAR,CLEAR","Offshore,Cross-shore",2
5842041f4e65fad6a7708b67,2024_11_22,38.92870117926206,-74.92116,Grant Street Beach,0.5,0.02,0.315,14,13,"NIGHT_CLEAR,CLEAR","Offshore,Cross-shore",2
5842041f4e65fad6a7708b68,2024_11_22,38.928934874358276,-74.93582,The Cove,1,0.03635,0.32916,15,15,"NIGHT_CLEAR,CLEAR","Offshore,Cross-shore",2
5842041f4e65fad6a7708b69,2024_11_22,26.775154329102108,-80.03124833106995,Pumphouse,2,0.6799999999999999,0.99,26.5,26.5,"NIGHT_CLEAR,CLEAR","Offshore,Offshore",2
5842041f4e65fad6a7708b6a,2024_11_22,26.72114353296791,-80.03310374527736,Sunrise,2.333333333333333,0.5635650000000001,0.870765,26,26,"NIGHT_CLEAR,CLEAR","Offshore,Offshore",2
5842041f4e65fad6a7708b6b,2024_11_22,26.71306786153966,-80.03222170715443,Breakers,2,0.5960650000000001,0.8982650000000001,26,26,"NIGHT_CLEAR,CLEAR","Offshore,Offshore",2
5842041f4e65fad6a7708b6c,2024_11_22,26.699075556703683,-80.03263235092163,Charlie's Crab,2.333333333333333,0.6169,0.9240999999999999,26,26,"NIGHT_CLEAR,CLEAR","Offshore,Offshore",2
5842041f4e65fad6a7708b6d,2024_11_22,26.79441490392914,-80.0306161110009,Ocean Reef Park,1.8333333333333333,0.5577350000000001,0.8653500000000001,26,26,"NIGHT_CLEAR,CLEAR","Offshore,Offshore",2
5842041f4e65fad6a7708b6f,2024_11_22,26.93134670517399,-80.06760115579169,Civic Center,2.466666666666667,0.83504,1.15966,26,26,"NIGHT_CLEAR,CLEAR","Offshore,Offshore",2
5842041f4e65fad6a7708b70,2024_11_22,26.90524197396177,-80.0593609780092,Kite Beach,2.6333333333333333,0.84951,1.172525,26,26,"NIGHT_CLEAR,CLEAR","Offshore,Offshore",2
5842041f4e65fad6a7708b71,2024_11_22,26.54279208054373,-80.04292130470276,Boynton Beach Inlet (Southside),1.3333333333333335,0.2022,0.504815,27,26,"NIGHT_CLEAR,CLEAR","Offshore,Offshore",2
5842041f4e65fad6a7708b72,2024_11_22,26.613511029817357,-80.03534,Lake Worth Pier,3.5,0.693265,1.084365,26,26,"NIGHT_CLEAR,CLEAR","Offshore,Offshore",2
5842041f4e65fad6a7708b73,2024_11_22,27.06670219261476,-80.11447191238403,Hobe Sound Public Beach,1.3333333333333335,0.650235,0.962435,26,25,"NIGHT_CLEAR,CLEAR","Cross-shore,Offshore",2
5842041f4e65fad6a7708b75,2024_11_22,27.21467611230439,-80.17308,Stuart Public Beach,1.5,0.641065,0.948685,26,26,"NIGHT_CLEAR,CLEAR","Offshore,Offshore",2
5842041f4e65fad6a7708b76,2024_11_22,27.36627923374593,-80.24622,Blind Creek Park,1,0.587315,0.954785,27,26,"NIGHT_CLEAR,CLEAR","Offshore,Offshore",2
5842041f4e65fad6a7708b77,2024_11_22,26.94256932088346,-80.07057,Jupiter Inlet,2,0.66065,0.96285,26,25,"NIGHT_CLEAR,CLEAR","Offshore,Offshore",2
5842041f4e65fad6a7708b78,2024_11_22,26.89365359499372,-80.056,Juno Pier,2.6333333333333333,0.827985,1.156415,26,26,"NIGHT_CLEAR,CLEAR","Offshore,Offshore",2
5842041f4e65fad6a7708b7a,2024_11_22,29.67671206577928,-85.3689474172784,Cape San Blas,1,0.655,0.96,23,23,"NIGHT_CLEAR,CLEAR","Cross-shore,Cross-shore",2
5842041f4e65fad6a7708b7b,2024_11_22,26.706551543472415,-80.03280401229858,Flagpole,2,0.640235,0.947435,26,26,"NIGHT_CLEAR,CLEAR","Offshore,Offshore",2
5842041f4e65fad6a7708b7c,2024_11_22,29.94036477533054,-85.40953557392244,El Governor,1.5,0.47,0.78,23,23,"NIGHT_CLEAR,CLEAR","Cross-shore,Cross-shore",2
5842041f4e65fad6a7708b7d,2024_11_22,29.68231979841189,-85.30627194238092,Toilet Bowls,2,0.515,0.815,23,23,"NIGHT_CLEAR,CLEAR","Offshore,Offshore",2
5842041f4e65fad6a7708b7e,2024_11_22,29.6607153445246,-84.86361191991014,St. George Island,1,0.105,0.41500000000000004,23,23,"NIGHT_CLEAR,CLEAR","Offshore,Offshore",2
5842041f4e65fad6a7708b7f,2024_11_22,29.77441172865639,-84.65942657000329,Dog Island,1,0,0.29000000000000004,23,23,"NIGHT_CLEAR,CLEAR","Offshore,Offshore",2
5842041f4e65fad6a7708b80,2024_11_22,28.59674155718017,-95.97559,Matagorda,2,0.02,0.32,25,25,NIGHT_CLEAR,Offshore,1
5842041f4e65fad6a7708b81,2024_11_22,27.84601633294622,-97.04372701603208,St. Joe's Island,2,0.2,0.5,25,25,NIGHT_CLEAR,Offshore,1
5842041f4e65fad6a7708b82,2024_11_22,27.64327897922308,-97.18612,J.P. Luby Surf Park,2,0.12013,0.4805,25,25,NIGHT_CLEAR,Offshore,1
5842041f4e65fad6a7708b83,2024_11_22,27.82704888028459,-97.05277,Horace Caldwell Pier,2,0.07251,0.43506,25,25,NIGHT_CLEAR,Offshore,1
5842041f4e65fad6a7708b84,2024_11_22,27.67634780977739,-97.16473,Fish Pass,2,0.12013,0.4805,25,25,NIGHT_CLEAR,Offshore,1
5842041f4e65fad6a7708b85,2024_11_22,27.58118015227788,-97.2191,Bob Hall Pier,2,0.06131,0.44145,25,25,NIGHT_CLEAR,Offshore,1
5842041f4e65fad6a7708b86,2024_11_22,28.93236038480434,-95.30205,Quintana,1,0,0.30292,24,24,NIGHT_CLEAR,Offshore,1
5842041f4e65fad6a7708b87,2024_11_22,28.94367955201253,-95.28969,Octagon,1,0,0.30292,24,24,NIGHT_CLEAR,Offshore,1
5842041f4e65fad6a7708b88,2024_11_22,29.02647703020454,-95.18702498902157,Boilers,1,0,0.21,24,24,NIGHT_CLEAR,Offshore,1
5842041f4e65fad6a7708b89,2024_11_22,28.9653363517684,-95.26739753922841,Assholes,1,0,0.24,24,24,NIGHT_CLEAR,Offshore,1
5842041f4e65fad6a7708b8a,2024_11_22,29.27159138874912,-94.81532732168617,51st Street,1,0,0.18,24,24,NIGHT_CLEAR,Offshore,1
5842041f4e65fad6a7708b8b,2024_11_22,29.13902635892794,-95.04070493829546,West Galveston,1,0,0.17,24,24,NIGHT_CLEAR,Offshore,1
5842041f4e65fad6a7708b8c,2024_11_22,29.26596874354759,-94.82556,61st Street,1,0,0.15652,24,24,NIGHT_CLEAR,Offshore,1
5842041f4e65fad6a7708b8d,2024_11_22,29.279815639798642,-94.80146,37th Street,0,0,0.11994,24,24,NIGHT_CLEAR,Offshore,1
5842041f4e65fad6a7708b8e,2024_11_22,29.28680654948785,-94.79106,Flagship,0,0,0.13026,24,24,NIGHT_CLEAR,Offshore,1
5842041f4e65fad6a7708b8f,2024_11_22,29.4702751255731,-94.59146640261427,A-Frames,0,0,0.12,24,24,NIGHT_CLEAR,Offshore,1
5842041f4e65fad6a7708b90,2024_11_22,29.52172627288487,-94.45911,Meacom's Pier,0,0,0.10939,24,24,NIGHT_CLEAR,Offshore,1
5842041f4e65fad6a7708b91,2024_11_22,29.4510876813709,-94.63230467945758,Crystal Beach,0,0,0.12,24,24,NIGHT_CLEAR,Offshore,1
5842041f4e65fad6a7708b92,2024_11_22,26.06123118244004,-97.14769,Boca Chica,3,0.35491,0.70982,26,26,NIGHT_CLEAR,Offshore,1
5842041f4e65fad6a7708b93,2024_11_22,26.06961904983808,-97.15243,Isla Blanca State Park,2,0.38737,0.73046,26,26,NIGHT_CLEAR,Offshore,1
5842041f4e65fad6a7708b96,2024_11_22,26.56132001354785,-97.26967,Port Mansfield,2,0.17944,0.55027,26,26,NIGHT_CLEAR,Cross-shore,1
5842041f4e65fad6a7708b98,2024_11_22,10.85099440725964,-85.79981,Ollie's Point,2.5,0.48,0.79,27,27,"NIGHT_CLEAR,CLOUDY","Offshore,Offshore",2
5842041f4e65fad6a7708b99,2024_11_22,10.79489213393012,-85.68066,Witches Rock,2.5,0.53,0.835,27.5,27.5,"NIGHT_CLEAR,CLOUDY","Offshore,Offshore",2
5842041f4e65fad6a7708b9a,2024_11_22,9.570222044864844,-85.14184,Mal Pais,3,1.0899999999999999,1.3599999999999999,27,27,"NIGHT_LIGHT_SHOWERS_POSSIBLE,RAIN","Onshore,Offshore",2
5842041f4e65fad6a7708b9b,2024_11_22,10.29970304257365,-85.84398,Tamarindo,2.5,0.84,1.07,27,27,"NIGHT_CLEAR,CLEAR","Offshore,Offshore",2
5842041f4e65fad6a7708b9c,2024_11_22,9.250593929300813,-83.86522,Dominical,3,0.735,1.0350000000000001,28,28,"NIGHT_BRIEF_SHOWERS,BRIEF_SHOWERS_POSSIBLE","Offshore,Cross-shore",2
5842041f4e65fad6a7708b9d,2024_11_22,9.48278011021258,-84.28883991550364,Bejuco,3,0.72,1.025,27.5,27.5,"NIGHT_BRIEF_SHOWERS_POSSIBLE,BRIEF_SHOWERS","Offshore,Cross-shore",2
5842041f4e65fad6a7708ba1,2024_11_22,9.616940559391795,-84.63541,Playa Jaco,3,0.759295,1.10239,27.5,27.5,"NIGHT_BRIEF_SHOWERS_POSSIBLE,LIGHT_SHOWERS_POSSIBLE","Offshore,Offshore",2
5842041f4e65fad6a7708ba3,2024_11_22,9.661646156842439,-84.67316883195207,Playa Escondida,3,0.54,0.845,27.5,27.5,"NIGHT_CLEAR,CLEAR","Offshore,Offshore",2
5842041f4e65fad6a7708ba4,2024_11_22,9.635059578319176,-84.66159522794959,Herradura,3,0.56,0.865,27.5,27.5,"NIGHT_CLEAR,CLEAR","Offshore,Offshore",2
5842041f4e65fad6a7708ba5,2024_11_22,9.958235741436532,-84.74122,Boca Barranca,3,0.5961650000000001,0.95623,27.5,27.5,"NIGHT_CLEAR,CLEAR","Offshore,Offshore",2
5842041f4e65fad6a7708ba6,2024_11_22,9.922484732656224,-84.7158981889118,Caldera Jetty,3,0.645,0.95,27.5,27.5,"NIGHT_CLEAR,CLEAR","Offshore,Offshore",2
5842041f4e65fad6a7708ba7,2024_11_22,9.661180947362254,-82.75273,Salsa Brava,2,0.080205,0.429685,30,30,"NIGHT_LIGHT_SHOWERS_POSSIBLE,LIGHT_SHOWERS_POSSIBLE","Cross-shore,Cross-shore",2
5842041f4e65fad6a7708ba8,2024_11_22,8.38230022212565,-83.28332,Matapalo,3,0.945,1.125,27,27,"NIGHT_BRIEF_SHOWERS_POSSIBLE,LIGHT_SHOWERS_POSSIBLE","Offshore,Cross-shore",2
5842041f4e65fad6a7708ba9,2024_11_22,8.394937,-83.13952,Pavones,3,0.6599999999999999,0.96,28,28,"NIGHT_BRIEF_SHOWERS_POSSIBLE,LIGHT_SHOWERS_POSSIBLE","Offshore,Offshore",2
5842041f4e65fad6a7708baa,2024_11_22,13.47971255664387,-89.28610104791234,Playa San Diego,3,0.9,1.08,28.5,28.5,"NIGHT_CLEAR,CLEAR","Offshore,Offshore",2
5842041f4e65fad6a7708bab,2024_11_22,13.4834740494465,-89.32376,La Paz,1.5,0.28496,0.57474,28.5,28.5,"NIGHT_CLEAR,CLEAR","Offshore,Offshore",2
5842041f4e65fad6a7708bac,2024_11_22,13.48587874937462,-89.31998852531258,El Muelle (Pier),3,0.96,1.14,28.5,28.5,"NIGHT_CLEAR,CLEAR","Offshore,Offshore",2
5842041f4e65fad6a7708bad,2024_11_22,13.47973883183636,-89.32655,Punta Roca,3,0.95,1.14,28.5,28.5,"NIGHT_CLEAR,CLEAR","Cross-shore,Cross-shore",2
5842041f4e65fad6a7708bae,2024_11_22,13.491596878346689,-89.38104,La Bocana,3,0.728955,1.06877,28.5,28.5,"NIGHT_CLEAR,CLEAR","Offshore,Offshore",2
5842041f4e65fad6a7708baf,2024_11_22,13.48324995683858,-89.33946,Playa Conchalio,3,0.660885,0.9969300000000001,28.5,28.5,"NIGHT_CLEAR,CLEAR","Offshore,Offshore",2
5842041f4e65fad6a7708bb0,2024_11_22,13.49167561061991,-89.39,Sunzal,2,0.4,0.644,28.5,28.5,"NIGHT_CLEAR,CLEAR","Offshore,Offshore",2
5842041f4e65fad6a7708bb1,2024_11_22,35.92499624829542,-121.46957,Sand Dollar Beach,3,3.14,3.75,12,12,NIGHT_CLEAR,Cross-shore,1
5842041f4e65fad6a7708bb3,2024_11_22,36.55448900657569,-121.93114,Carmel Beach,3,1.67,1.99,13,13,NIGHT_CLEAR,Onshore,1
5842041f4e65fad6a7708bb4,2024_11_22,36.27968576518622,-121.85962,Big Sur Rivermouth,2,1.77,2.11,12,12,NIGHT_MOSTLY_CLOUDY,Cross-shore,1
5842041f4e65fad6a7708bb5,2024_11_22,36.60883280895963,-121.9603486684287,Mole Point,3,2.18,2.61,13,13,NIGHT_CLEAR,Offshore,1
5842041f4e65fad6a7708bb6,2024_11_22,36.63788026219399,-121.9311174079908,Boneyard,3,1.86,2.22,12,12,NIGHT_MIST,Cross-shore,1
5842041f4e65fad6a7708bb7,2024_11_22,36.61880091818895,-121.9422482210244,Asilomar,3,2.68,3.15,13,13,NIGHT_CLEAR,Cross-shore,1
5842041f4e65fad6a7708bb8,2024_11_22,36.56037685095311,-121.9516152313922,Ghost Tree,2,2.02,2.41,13,13,NIGHT_CLEAR,Onshore,1
5842041f4e65fad6a7708bbb,2024_11_22,35.89412279173619,-121.462380148047,Willow Creek,3,2.9,3.47,12,12,NIGHT_CLEAR,Offshore,1
5842041f4e65fad6a7708bbc,2024_11_22,36.6260658643635,-121.91548,Lovers Point,4,1.54,1.82,12,12,NIGHT_MIST,Onshore,1
5842041f4e65fad6a7708bbd,2024_11_22,38.945,-9.42,Foz de Lizandro,2,1.201235,1.4990649999999999,18,18,"CLEAR,CLEAR","Onshore,Onshore",2
5842041f4e65fad6a7708bbf,2024_11_22,36.80821791915616,-121.79055,Moss Landing,4,2.08,2.49,12,12,NIGHT_MIST,Offshore,1
5842041f4e65fad6a7708bc0,2024_11_22,38.67869246746279,-9.33685,Carcavelos,1,0.20995000000000003,0.5274300000000001,18,18,"CLEAR,CLEAR","Onshore,Onshore",2
5842041f4e65fad6a7708bc1,2024_11_22,38.983,-9.425,Reef,2.5,1.645,1.9649999999999999,18,18,"CLEAR,CLEAR","Onshore,Onshore",2
5842041f4e65fad6a7708bc2,2024_11_22,38.988,-9.424,Ribeira D'Ilhas,2,0.625035,1.0661,18,18,"CLEAR,CLEAR","Onshore,Onshore",2
5842041f4e65fad6a7708bc3,2024_11_22,39.34167968424256,-9.36331,Supertubos,1.5,0.5,0.81,17.5,17.5,"OVERCAST,CLEAR","Onshore,Onshore",2
5842041f4e65fad6a7708bc4,2024_11_22,39.001,-9.4284,Coxos,2.5,1.4071,1.7273749999999999,18,18,"CLEAR,CLEAR","Onshore,Onshore",2
5842041f4e65fad6a7708bc5,2024_11_22,40.13063921100635,-8.87044,Cabedelo,3,1.43018,1.7468650000000001,17,17,"DRIZZLE,CLOUDY","Offshore,Cross-shore",2
5842041f4e65fad6a7708bc6,2024_11_22,39.37397686060677,-9.33235,Baleal,3,0.9650000000000001,1.135,17.5,17.5,"OVERCAST,CLEAR","Cross-shore,Cross-shore",2
5842041f4e65fad6a7708bc7,2024_11_22,31.80902927937703,-116.8081979700041,Todos Santos / Killers,NA,2.79,3.27,16,16,NIGHT_CLEAR,Onshore,1
5842041f4e65fad6a7708bc8,2024_11_22,43.68220203786759,-1.44167,Les Culs Nus,1.5,3.24056,3.512875,16.5,16.5,"CLOUDY,CLOUDY","Onshore,Onshore",2
5842041f4e65fad6a7708bc9,2024_11_22,31.90016519474307,-116.73117,San Miguel,3,0.5,0.81,16,16,NIGHT_CLEAR,Onshore,1
5842041f4e65fad6a7708bca,2024_11_22,43.48469485823068,-1.56023,Biarritz,1.5,2.9736599999999997,3.23071,16.5,16.5,"LIGHT_SHOWERS,BRIEF_SHOWERS","Onshore,Onshore",2
5842041f4e65fad6a7708bcb,2024_11_22,39.0132,-9.424,Sao Lourenco,2,1.246795,1.5572149999999998,18,18,"CLEAR,CLEAR","Onshore,Onshore",2
5842041f4e65fad6a7708bcd,2024_11_22,43.64760422014503,-1.44721,Le Santocha,2.5,1.8344,2.01553,16.5,16.5,"CLOUDY,CLOUDY","Onshore,Onshore",2
5842041f4e65fad6a7708bce,2024_11_22,43.51401611768647,-1.53382,Anglet,1.5,2.5250000000000004,2.835,16.5,16.5,"LIGHT_SHOWERS,BRIEF_SHOWERS","Onshore,Onshore",2
5842041f4e65fad6a7708bcf,2024_11_22,43.479,-1.569,La Cote des Basques,1.5,3.050135,3.31379,16.5,16.5,"LIGHT_SHOWERS,BRIEF_SHOWERS","Onshore,Onshore",2
5842041f4e65fad6a7708bd0,2024_11_22,32.3489432986615,-117.0668043482785,Rosarito Beach,3,0.57,0.88,15,15,NIGHT_CLEAR,Offshore,1
5842041f4e65fad6a7708bd1,2024_11_22,23.44473573026049,-110.2452466338192,Todos Santos,3,0.61,0.92,24,24,NIGHT_CLEAR,Offshore,1
5842041f4e65fad6a7708bd2,2024_11_22,31.97636522717259,-116.7913888957552,Salsipuedes,2,0.25,0.55,16,16,NIGHT_CLEAR,Cross-shore,1
5842041f4e65fad6a7708bd3,2024_11_22,23.39151658553801,-110.2143952234506,Las Palmas,3,0.65,0.96,24,24,NIGHT_CLEAR,Offshore,1
5842041f4e65fad6a7708bd4,2024_11_22,23.02358192684975,-109.7147,Old Man's,3,0.52,0.82,25,25,NIGHT_CLEAR,Offshore,1
5842041f4e65fad6a7708bd5,2024_11_22,23.32877869857464,-110.17715,Cerritos,1,0.71,1.01,24,24,NIGHT_CLEAR,Cross-shore,1
5842041f4e65fad6a7708bd6,2024_11_22,23.36729303816202,-110.20268,San Pedrito,1,0.32,0.63,24,24,NIGHT_CLEAR,Cross-shore,1
5842041f4e65fad6a7708bd7,2024_11_22,23.02506324659338,-109.71456,The Rock,3,0.52,0.82,25,25,NIGHT_CLEAR,Offshore,1
5842041f4e65fad6a7708bd8,2024_11_22,22.896,-109.869,Monuments,3,0.91,1.08,26,26,NIGHT_CLEAR,Offshore,1
5842041f4e65fad6a7708bd9,2024_11_22,23.04871261564847,-109.6800082320905,The Estuary,3,0.92,1.1,25,25,NIGHT_CLEAR,Offshore,1
5842041f4e65fad6a7708bda,2024_11_22,23.029,-109.714,Zippers,3,0.52,0.82,25,25,NIGHT_CLEAR,Offshore,1
5842041f4e65fad6a7708bdb,2024_11_22,23.12,-109.527,Shipwreck,3,1.05,1.26,25,25,NIGHT_CLEAR,Cross-shore,1
5842041f4e65fad6a7708bdc,2024_11_22,23.174,-109.476,Nine Palms,4,1.16,1.38,25,25,NIGHT_CLEAR,Offshore,1
5842041f4e65fad6a7708bdd,2024_11_22,4.307463458457968,73.57742,Jailbreaks,3,0.575,0.875,30,30,"CLEAR,NIGHT_CLEAR","Cross-shore,Cross-shore",2
5842041f4e65fad6a7708bde,2024_11_22,4.31216545719424,73.58368,Honky's,3,0.39212,0.719785,30,30,"CLEAR,NIGHT_CLEAR","Offshore,Offshore",2
5842041f4e65fad6a7708bdf,2024_11_22,4.313574269102099,73.58541879522511,Sultans,3,0.39339,0.72211,30,30,"CLEAR,NIGHT_CLEAR","Cross-shore,Cross-shore",2
5842041f4e65fad6a7708be0,2024_11_22,4.343204315364438,73.6136,Ninja's,3,0.39285000000000003,0.721125,30,30,"CLEAR,NIGHT_CLEAR","Cross-shore,Cross-shore",2
5842041f4e65fad6a7708be1,2024_11_22,4.348032688767217,73.621,Lohi's,3,0.451315,0.77905,30,30,"CLEAR,NIGHT_CLEAR","Offshore,Offshore",2
5842041f4e65fad6a7708be2,2024_11_22,4.31537277405848,73.59171,Pasta Point,2,0.2613,0.58659,30,30,"CLEAR,NIGHT_CLEAR","Offshore,Offshore",2
5842041f4e65fad6a7708be3,2024_11_22,-28.3344521240417,153.57739,Cabarita,3,0.99885,1.340395,23,23,"NIGHT_BRIEF_SHOWERS,NIGHT_BRIEF_SHOWERS","Cross-shore,Offshore",2
5842041f4e65fad6a7708be4,2024_11_22,4.372896005883011,73.66323,Chickens,3,0.39204,0.719635,30,30,"CLEAR,NIGHT_CLEAR","Offshore,Cross-shore",2
5842041f4e65fad6a7708be5,2024_11_22,-28.16143481052803,153.55066,Snapper Rocks,3,1.14722,1.3936549999999999,24,24,"NIGHT_BRIEF_SHOWERS,NIGHT_BRIEF_SHOWERS","Offshore,Offshore",2
5842041f4e65fad6a7708be6,2024_11_22,4.370274672691539,73.65602,Colas,3,0.46553,0.7865850000000001,30,30,"CLEAR,NIGHT_CLEAR","Offshore,Offshore",2
5842041f4e65fad6a7708be8,2024_11_22,-28.08967141602908,153.45956,Burleigh Heads,2.5,1.1476549999999999,1.39289,24,24,"NIGHT_LIGHT_RAIN,NIGHT_BRIEF_SHOWERS","Cross-shore,Cross-shore",2
5842041f4e65fad6a7708be9,2024_11_22,-28.16436510036895,153.53589,Kirra,3,0.58277,0.942965,24,24,"NIGHT_BRIEF_SHOWERS,NIGHT_BRIEF_SHOWERS","Cross-shore,Offshore",2
5842041f4e65fad6a7708bea,2024_11_22,-26.809,153.136,Caloundra Bar,1,0.9724349999999999,1.274635,24,24,"NIGHT_BRIEF_SHOWERS,NIGHT_CLEAR","Onshore,Onshore",2
5842041f4e65fad6a7708beb,2024_11_22,-27.4488954777054,153.5383894760102,North Stradbroke Island,1.5,1.48,1.785,25,25,"NIGHT_THUNDER_SHOWERS,NIGHT_BRIEF_SHOWERS","Onshore,Onshore",2
5842041f4e65fad6a7708bec,2024_11_22,-26.68680536290502,153.13793,Mooloolaba,1.0833333333333335,0.579815,0.9956149999999999,24,24,"NIGHT_BRIEF_SHOWERS,NIGHT_CLEAR","Onshore,Onshore",2
5842041f4e65fad6a7708bed,2024_11_22,40.028403115215,-74.04837,Mantoloking,0.5,0.13363999999999998,0.443615,13,13,"NIGHT_CLEAR,CLEAR","Offshore,Offshore",2
5842041f4e65fad6a7708bee,2024_11_22,-26.38257,153.09668,Noosa Heads,2.9166666666666665,0.436905,0.74488,24,24,"NIGHT_LIGHT_RAIN,NIGHT_CLEAR","Offshore,Offshore",2
5842041f4e65fad6a7708bef,2024_11_22,-28.63764444,153.62803,"The Pass, Byron Bay",2.5,0.615515,0.920865,23,23,"NIGHT_CLEAR,NIGHT_MOSTLY_CLEAR","Cross-shore,Offshore",2
5842041f4e65fad6a7708bf0,2024_11_22,-32.171,152.512,Tuncurry Breakwall,1,0.5700000000000001,0.875,21,21,"NIGHT_CLEAR,NIGHT_CLEAR","Onshore,Onshore",2
5842041f4e65fad6a7708bf1,2024_11_22,-28.87513611,153.59244,Ballina North Wall,3,1.46,1.745,24.5,24.5,"NIGHT_CLEAR,NIGHT_MOSTLY_CLEAR","Cross-shore,Offshore",2
5842041f4e65fad6a7708bf2,2024_11_22,-28.80011944,153.59755,Lennox Head,2.5,1.5568499999999998,1.71075,23,23,"NIGHT_CLEAR,NIGHT_MOSTLY_CLEAR","Onshore,Cross-shore",2
5842041f4e65fad6a7708bf3,2024_11_22,-28.70581667,153.61983,Broken Head,3,1.24,1.48,24.5,24.5,"NIGHT_BRIEF_SHOWERS,NIGHT_LIGHT_SHOWERS","Onshore,Cross-shore",2
5842041f4e65fad6a7708bf4,2024_11_22,-29.44056667,153.3695194,Pippies/Yamba,2.5,1.0699999999999998,1.275,24,24,"NIGHT_CLEAR,NIGHT_CLEAR","Onshore,Cross-shore",2
5842041f4e65fad6a7708bf5,2024_11_22,-33.94857222,151.25722,Maroubra,1,0.65623,1.0718100000000002,20,20,"NIGHT_CLEAR,NIGHT_CLEAR","Onshore,Cross-shore",2
5842041f4e65fad6a7708bf6,2024_11_22,-34.05162704152385,151.15646,Cronulla,0.5,0.88548,1.15956,20,20,"NIGHT_CLEAR,NIGHT_CLEAR","Cross-shore,Cross-shore",2
5842041f4e65fad6a7708bf7,2024_11_22,-33.791855902720656,151.28878,Manly,1.5,0.7746649999999999,1.085665,20,20,"NIGHT_CLEAR,NIGHT_CLEAR","Onshore,Onshore",2
5842041f4e65fad6a7708bf8,2024_11_22,-33.892155707636114,151.27793,Bondi Beach,3,1.09251,1.60646,20,20,"NIGHT_CLEAR,NIGHT_CLEAR","Cross-shore,Offshore",2
5842041f4e65fad6a7708bf9,2024_11_22,-29.48278333,153.36727,Angourie,3,1.12,1.395,24,24,"NIGHT_CLEAR,NIGHT_CLEAR","Onshore,Offshore",2
5842041f4e65fad6a7708bfa,2024_11_22,-33.75169106295242,151.29855,Dee Why,2.5,1.07145,1.3708999999999998,20,20,"NIGHT_CLEAR,NIGHT_CLEAR","Onshore,Onshore",2
5842041f4e65fad6a7708bfb,2024_11_22,-33.77330556,151.29331,Curl Curl,2.5,1.026775,1.486925,20,20,"NIGHT_CLEAR,NIGHT_CLEAR","Cross-shore,Cross-shore",2
5842041f4e65fad6a7708bfc,2024_11_22,-33.70960382813077,151.30361,Narrabeen,1.5,0.6573100000000001,1.00494,20,20,"NIGHT_CLEAR,NIGHT_CLEAR","Cross-shore,Cross-shore",2
5842041f4e65fad6a7708bfd,2024_11_22,-33.63539722,151.33297,Avalon,2,0.961875,1.31833,20,20,"NIGHT_CLEAR,NIGHT_CLEAR","Onshore,Cross-shore",2
5842041f4e65fad6a7708bfe,2024_11_22,-33.65150556,151.32512,Newport,2,0.856085,1.155,20,20,"NIGHT_CLEAR,NIGHT_CLEAR","Onshore,Cross-shore",2
5842041f4e65fad6a7708bff,2024_11_22,-36.94544444,149.9151111,Pambula Rivermouth,2,0.445,0.75,17.5,17.5,"NIGHT_CLEAR,NIGHT_CLEAR","Onshore,Offshore",2
5842041f4e65fad6a7708c00,2024_11_22,-33.60841111,151.33339,Whale Beach,2,0.7955,1.165,20,20,"NIGHT_CLEAR,NIGHT_CLEAR","Onshore,Onshore",2
5842041f4e65fad6a7708c01,2024_11_22,-36.89662778,149.92144,Merimbula Bar,1.5,0.11499999999999999,0.415,18,18,"NIGHT_CLEAR,NIGHT_CLEAR","Offshore,Offshore",2
5842041f4e65fad6a7708c02,2024_11_22,-35.90458333,150.15191,Moruya,1.5,0.6799999999999999,0.98,19.5,19.5,"NIGHT_CLEAR,NIGHT_CLEAR","Onshore,Offshore",2
5842041f4e65fad6a7708c03,2024_11_22,-35.36742222,150.48575,Ulladulla Bommie,2,0.5549999999999999,0.865,19.5,19.5,"NIGHT_MOSTLY_CLOUDY,NIGHT_CLOUDY","Offshore,Offshore",2
