_id,date,lat,lon,name,daily_mean_swell_rating,daily_mean_wave_height_min,daily_mean_wave_height_max,daily_mean_water_temperature_max,daily_mean_water_temperature_min,weather_per_timestamp,wind_per_timestamp,n_samples_per_day
5842041f4e65fad6a77087f9,2024_03_12,37.741668,-122.51038,South Ocean Beach,1.832857142857143,3.8758809523809528,4.642366666666666,14,14,"CLOUDY,CLOUDY,CLEAR,CLEAR,NIGHT_MOSTLY_CLOUDY,NIGHT_MOSTLY_CLOUDY,NIGHT_OVERCAST","Onshore,Onshore,Onshore,Onshore,Onshore,Onshore,Cross-shore",7
5842041f4e65fad6a7708801,2024_03_12,37.49142,-122.50428,Maverick's,NA,3.7808809523809526,4.832880952380952,13,13,"OVERCAST,DRIZZLE,OVERCAST,MOSTLY_CLOUDY,NIGHT_MOSTLY_CLOUDY,NIGHT_MOSTLY_CLEAR,NIGHT_CLOUDY","Onshore,Onshore,Onshore,Onshore,Onshore,Onshore,Onshore",7
5842041f4e65fad6a7708804,2024_03_12,44.997,-124.018,Roads End,0.42857142857142855,3.822857142857143,4.5685714285714285,10,10,"RAIN,DRIZZLE,HEAVY_RAIN,SHOWERS,NIGHT_BRIEF_SHOWERS,NIGHT_OVERCAST,NIGHT_OVERCAST","Cross-shore,Cross-shore,Cross-shore,Cross-shore,Onshore,Onshore,Onshore",7
5842041f4e65fad6a7708805,2024_03_12,36.95188851423011,-122.02522,Steamer Lane,3.7142857142857144,2.3256285714285716,3.1523714285714286,14,14,"CLEAR,CLEAR,CLEAR,CLEAR,NIGHT_CLEAR,NIGHT_CLEAR,NIGHT_MOSTLY_CLOUDY","Offshore,Offshore,Offshore,Offshore,Offshore,Offshore,Offshore",7
5842041f4e65fad6a7708806,2024_03_12,36.95918781542251,-122.02489,Cowells,2.8328571428571427,0.4720809523809524,0.9261666666666667,14,14,"CLEAR,CLEAR,CLEAR,CLEAR,NIGHT_CLEAR,NIGHT_CLEAR,NIGHT_MOSTLY_CLOUDY","Offshore,Offshore,Offshore,Offshore,Offshore,Offshore,Offshore",7
5842041f4e65fad6a7708807,2024_03_12,36.95468082526536,-121.97234,Pleasure Point,3.4042857142857144,1.9042809523809523,2.707452380952381,14,14,"CLOUDY,CLOUDY,CLEAR,CLEAR,NIGHT_CLEAR,NIGHT_CLEAR,NIGHT_MOSTLY_CLEAR","Cross-shore,Cross-shore,Cross-shore,Cross-shore,Cross-shore,Cross-shore,Cross-shore",7
5842041f4e65fad6a770880a,2024_03_12,35.37815414378748,-120.86589,Morro Bay,2.8328571428571427,2.262971428571429,2.8284857142857143,14,14,"MOSTLY_CLOUDY,MOSTLY_CLOUDY,CLEAR,CLOUDY,NIGHT_CLEAR,NIGHT_CLEAR,NIGHT_CLEAR","Onshore,Onshore,Onshore,Onshore,Onshore,Onshore,Onshore",7
5842041f4e65fad6a770880b,2024_03_12,36.95782765000708,-121.9672887511276,Jack's,3.5714285714285716,1.0648380952380951,1.5030904761904762,14,14,"CLOUDY,CLOUDY,CLEAR,CLEAR,NIGHT_CLEAR,NIGHT_CLEAR,NIGHT_MOSTLY_CLEAR","Cross-shore,Offshore,Offshore,Cross-shore,Offshore,Offshore,Offshore",7
5842041f4e65fad6a770880d,2024_03_12,34.29982939936656,-119.3489016603669,Gold Coast Beachbreaks,1.5714285714285714,0.47000000000000003,0.7728571428571429,14,14,"CLEAR,CLEAR,MOSTLY_CLEAR,MIST,NIGHT_CLEAR,NIGHT_CLEAR,NIGHT_CLEAR","Onshore,Onshore,Onshore,Onshore,Onshore,Onshore,Onshore",7
5842041f4e65fad6a7708811,2024_03_12,34.245076,-119.26799,Ventura Harbor,2,1.3751421428571429,1.7661078571428572,14,14,"CLEAR,MOSTLY_CLEAR,CLEAR,MIST,NIGHT_MOSTLY_CLEAR,NIGHT_CLEAR,NIGHT_CLEAR","Onshore,Onshore,Onshore,Onshore,Onshore,Onshore,Onshore",7
5842041f4e65fad6a7708813,2024_03_12,34.051,-118.964,County Line,2.142857142857143,0.7549714285714285,1.1256047619047618,15,15,"MOSTLY_CLEAR,MOSTLY_CLEAR,MOSTLY_CLEAR,NIGHT_MOSTLY_CLEAR,NIGHT_MIST,NIGHT_MIST,NIGHT_OVERCAST","Onshore,Onshore,Onshore,Onshore,Cross-shore,Cross-shore,Cross-shore",7
5842041f4e65fad6a7708814,2024_03_12,34.37256264378892,-119.47797,Rincon,3,1.03,1.247142857142857,14,14,"CLEAR,MOSTLY_CLEAR,MOSTLY_CLEAR,CLEAR,NIGHT_CLEAR,NIGHT_CLEAR,NIGHT_CLEAR","Cross-shore,Cross-shore,Cross-shore,Cross-shore,Cross-shore,Cross-shore,Onshore",7
5842041f4e65fad6a7708817,2024_03_12,34.03096101876324,-118.68109,Malibu Third Point,2.5714285714285716,0.4357142857142857,0.7442857142857143,15,15,"MOSTLY_CLEAR,CLEAR,CLEAR,NIGHT_CLEAR,NIGHT_CLEAR,NIGHT_CLEAR,NIGHT_CLEAR","Cross-shore,Cross-shore,Offshore,Cross-shore,Offshore,Offshore,Cross-shore",7
5842041f4e65fad6a7708819,2024_03_12,33.984079047970035,-118.47381591796875,Venice Beach,1.4042857142857144,0.8273857142857143,1.0987571428571428,14,14,"CLEAR,CLEAR,CLEAR,NIGHT_CLEAR,NIGHT_CLEAR,NIGHT_CLEAR,NIGHT_CLEAR","Cross-shore,Cross-shore,Cross-shore,Cross-shore,Cross-shore,Cross-shore,Onshore",7
5842041f4e65fad6a770881e,2024_03_12,34.037508438646746,-118.58339846155594,Topanga Beach,2.2857142857142856,0.5612809523809524,0.8634095238095238,15,15,"MOSTLY_CLEAR,CLEAR,MOSTLY_CLEAR,NIGHT_CLEAR,NIGHT_MIST,NIGHT_CLEAR,NIGHT_CLEAR","Onshore,Onshore,Onshore,Onshore,Cross-shore,Cross-shore,Offshore",7
5842041f4e65fad6a7708820,2024_03_12,33.73954373690184,-118.11414,Seal Beach Jetty,2,0.46,0.7657142857142857,15,15,"CLEAR,CLEAR,CLEAR,NIGHT_MOSTLY_CLEAR,NIGHT_CLEAR,NIGHT_MOSTLY_CLEAR,NIGHT_CLEAR","Onshore,Onshore,Onshore,Onshore,Onshore,Onshore,Onshore",7
5842041f4e65fad6a7708822,2024_03_12,33.72309983348433,-118.08078,Anderson Street,1.5714285714285714,0.5914285714285714,0.8985714285714286,15,15,"CLEAR,CLEAR,CLEAR,NIGHT_MOSTLY_CLEAR,NIGHT_MOSTLY_CLOUDY,NIGHT_MOSTLY_CLOUDY,NIGHT_MOSTLY_CLEAR","Onshore,Onshore,Onshore,Onshore,Onshore,Onshore,Onshore",7
5842041f4e65fad6a7708827,2024_03_12,33.65574085629463,-118.00397,Huntington Beach Pier Northside,2,1.1150571428571427,1.4365142857142856,15,15,"CLEAR,CLEAR,CLEAR,NIGHT_MOSTLY_CLEAR,NIGHT_CLEAR,NIGHT_CLEAR,NIGHT_MOSTLY_CLOUDY","Onshore,Onshore,Onshore,Onshore,Onshore,Onshore,Onshore",7
5842041f4e65fad6a7708828,2024_03_12,34.272041739333,-119.2997646331,C St.,3,1.0333714285714286,1.3293428571428574,14,14,"MIST,MIST,CLEAR,MOSTLY_CLEAR,NIGHT_CLEAR,NIGHT_CLEAR,NIGHT_CLEAR","Cross-shore,Cross-shore,Cross-shore,Cross-shore,Cross-shore,Cross-shore,Cross-shore",7
5842041f4e65fad6a770882a,2024_03_12,33.61555743705257,-117.93676,Newport Lower Jetties,2,0.5459714285714287,0.8555142857142857,15,15,"CLEAR,CLEAR,MOSTLY_CLEAR,NIGHT_CLEAR,NIGHT_MOSTLY_CLOUDY,NIGHT_CLEAR,NIGHT_MOSTLY_CLOUDY","Onshore,Onshore,Cross-shore,Onshore,Cross-shore,Onshore,Onshore",7
5842041f4e65fad6a770882b,2024_03_12,33.5930302087,-117.88199,The Wedge,1.7142857142857142,0.7836707142857142,1.1450964285714287,17,17,"CLEAR,CLEAR,MOSTLY_CLEAR,NIGHT_CLEAR,NIGHT_CLEAR,NIGHT_MOSTLY_CLEAR,NIGHT_MOSTLY_CLOUDY","Onshore,Onshore,Cross-shore,Onshore,Onshore,Cross-shore,Onshore",7
5842041f4e65fad6a770882c,2024_03_12,33.60577342582,-117.9315376281,Newport Beach Pier,2,0.44382857142857146,0.7519428571428571,15,15,"CLEAR,CLEAR,CLEAR,NIGHT_CLEAR,NIGHT_CLEAR,NIGHT_CLEAR,NIGHT_FOG","Onshore,Onshore,Cross-shore,Cross-shore,Cross-shore,Cross-shore,Cross-shore",7
5842041f4e65fad6a770882e,2024_03_12,33.475793399792984,-117.72291,Salt Creek,3,1.0479142857142856,1.4522285714285714,15,15,"CLEAR,CLEAR,CLEAR,NIGHT_MOSTLY_CLOUDY,NIGHT_MOSTLY_CLOUDY,NIGHT_MOSTLY_CLOUDY,NIGHT_MOSTLY_CLOUDY","Onshore,Onshore,Onshore,Onshore,Onshore,Onshore,Onshore",7
5842041f4e65fad6a7708830,2024_03_12,33.41800974113613,-117.61952,T-Street,3,1.0793428571428572,1.3536571428571427,16,16,"CLEAR,CLEAR,MOSTLY_CLEAR,NIGHT_CLEAR,NIGHT_CLEAR,NIGHT_MOSTLY_CLOUDY,NIGHT_MOSTLY_CLOUDY","Onshore,Onshore,Onshore,Cross-shore,Cross-shore,Cross-shore,Cross-shore",7
5842041f4e65fad6a7708832,2024_03_12,33.202391008646,-117.39475,Oceanside Harbor,3,1.0112571428571429,1.397242857142857,16,16,"CLEAR,CLEAR,CLEAR,NIGHT_CLEAR,NIGHT_MOSTLY_CLOUDY,NIGHT_MOSTLY_CLOUDY,NIGHT_MOSTLY_CLOUDY","Onshore,Onshore,Onshore,Onshore,Onshore,Onshore,Onshore",7
5842041f4e65fad6a7708835,2024_03_12,33.19477795952803,-117.38667,Oceanside Pier,2.7142857142857144,1.057804761904762,1.2590571428571429,16,16,"MOSTLY_CLOUDY,MOSTLY_CLOUDY,CLEAR,NIGHT_CLEAR,NIGHT_MOSTLY_CLOUDY,NIGHT_CLEAR,NIGHT_MOSTLY_CLOUDY","Onshore,Onshore,Onshore,Onshore,Onshore,Onshore,Onshore",7
5842041f4e65fad6a7708837,2024_03_12,33.14948100706,-117.35029,Tamarack,2.2857142857142856,0.44571428571428573,0.75,15,15,"MOSTLY_CLOUDY,CLEAR,CLEAR,NIGHT_CLEAR,NIGHT_CLOUDY,NIGHT_MOSTLY_CLOUDY,NIGHT_MOSTLY_CLOUDY","Onshore,Onshore,Onshore,Cross-shore,Cross-shore,Cross-shore,Cross-shore",7
5842041f4e65fad6a7708839,2024_03_12,32.865777159358856,-117.25614295356122,Scripps,1.737142857142857,1.0399476190476191,1.359652380952381,16,16,"MOSTLY_CLOUDY,MOSTLY_CLOUDY,CLEAR,NIGHT_CLOUDY,NIGHT_CLOUDY,NIGHT_MOSTLY_CLOUDY,NIGHT_MOSTLY_CLOUDY","Onshore,Onshore,Onshore,Onshore,Onshore,Onshore,Onshore",7
5842041f4e65fad6a770883a,2024_03_12,32.813094,-117.27381,Birdrock,3,1.4128571428571428,1.6885714285714286,16,16,"MOSTLY_CLOUDY,MOSTLY_CLOUDY,MOSTLY_CLOUDY,NIGHT_OVERCAST,NIGHT_MOSTLY_CLOUDY,NIGHT_MOSTLY_CLOUDY,NIGHT_MOSTLY_CLOUDY","Onshore,Cross-shore,Onshore,Cross-shore,Cross-shore,Offshore,Offshore",7
5842041f4e65fad6a770883b,2024_03_12,32.877231,-117.25303,Blacks,2.5,1.3936380952380951,1.9118571428571427,16,16,"MOSTLY_CLOUDY,MOSTLY_CLOUDY,CLEAR,NIGHT_CLOUDY,NIGHT_CLOUDY,NIGHT_MOSTLY_CLOUDY,NIGHT_MOSTLY_CLOUDY","Onshore,Onshore,Onshore,Onshore,Onshore,Onshore,Onshore",7
5842041f4e65fad6a770883c,2024_03_12,32.82978974229765,-117.28161740727381,Windansea,2.737142857142857,1.2536380952380952,1.753404761904762,15,15,"MOSTLY_CLOUDY,CLEAR,CLEAR,NIGHT_OVERCAST,NIGHT_OVERCAST,NIGHT_MOSTLY_CLOUDY,NIGHT_MOSTLY_CLOUDY","Onshore,Onshore,Onshore,Onshore,Onshore,Onshore,Onshore",7
5842041f4e65fad6a770883d,2024_03_12,32.838278,-117.28396,Horseshoe,3,1.48,1.7714285714285714,16,16,"MOSTLY_CLOUDY,CLEAR,CLEAR,NIGHT_OVERCAST,NIGHT_MOSTLY_CLOUDY,NIGHT_MOSTLY_CLOUDY,NIGHT_MOSTLY_CLOUDY","Onshore,Onshore,Onshore,Onshore,Cross-shore,Offshore,Offshore",7
5842041f4e65fad6a770883f,2024_03_12,32.75034717673179,-117.25337,Ocean Beach,2.0228571428571427,1.2770904761904762,1.7778095238095237,15,15,"CLEAR,CLEAR,CLEAR,NIGHT_CLOUDY,NIGHT_CLOUDY,NIGHT_MOSTLY_CLOUDY,NIGHT_MOSTLY_CLOUDY","Onshore,Onshore,Onshore,Onshore,Onshore,Cross-shore,Cross-shore",7
5842041f4e65fad6a7708840,2024_03_12,32.73693,-117.25718,Sunset Cliffs,3,1.48,1.7742857142857142,15,15,"MOSTLY_CLEAR,CLEAR,CLEAR,NIGHT_OVERCAST,NIGHT_OVERCAST,NIGHT_MOSTLY_CLOUDY,NIGHT_OVERCAST","Onshore,Onshore,Onshore,Onshore,Onshore,Cross-shore,Cross-shore",7
5842041f4e65fad6a7708841,2024_03_12,32.796582258728826,-117.25779,Pacific Beach,2.5942857142857143,1.3034000000000001,1.7230761904761904,15,15,"MOSTLY_CLOUDY,CLEAR,CLEAR,NIGHT_CLOUDY,NIGHT_MOSTLY_CLOUDY,NIGHT_MOSTLY_CLOUDY,NIGHT_MOSTLY_CLOUDY","Onshore,Cross-shore,Onshore,Cross-shore,Cross-shore,Offshore,Offshore",7
5842041f4e65fad6a7708842,2024_03_12,32.776636,-117.25514,Mission Beach,2.427142857142857,1.3104238095238094,1.7271238095238095,15,15,"MOSTLY_CLOUDY,CLEAR,CLEAR,NIGHT_CLOUDY,NIGHT_CLOUDY,NIGHT_MOSTLY_CLOUDY,NIGHT_MOSTLY_CLOUDY","Onshore,Onshore,Onshore,Onshore,Onshore,Offshore,Offshore",7
5842041f4e65fad6a7708844,2024_03_12,32.577195519016,-117.13475,Imperial Beach Pier,2.2857142857142856,1.59,1.9,15,15,"MOSTLY_CLEAR,CLEAR,CLEAR,NIGHT_CLOUDY,NIGHT_CLOUDY,NIGHT_OVERCAST,NIGHT_OVERCAST","Onshore,Onshore,Onshore,Onshore,Onshore,Cross-shore,Cross-shore",7
5842041f4e65fad6a770884a,2024_03_12,42.88678181061,-70.80843,Seabrook,1.8571428571428572,0.54215,0.8375835714285714,4,3,"NIGHT_CLEAR,NIGHT_CLEAR,NIGHT_CLEAR,NIGHT_CLEAR,NIGHT_CLEAR,NIGHT_CLEAR,NIGHT_CLEAR","Offshore,Offshore,Offshore,Offshore,Offshore,Offshore,Offshore",7
5842041f4e65fad6a770884e,2024_03_12,41.434181432898335,-71.45312118111178,Narragansett,1.3814285714285715,0.047271428571428575,0.34454285714285715,6,4,"NIGHT_CLEAR,NIGHT_CLEAR,NIGHT_CLEAR,NIGHT_CLEAR,NIGHT_CLEAR,NIGHT_CLEAR,NIGHT_CLEAR","Offshore,Offshore,Offshore,Offshore,Offshore,Offshore,Offshore",7
5842041f4e65fad6a7708850,2024_03_12,40.582703230722,-73.65247,Lincoln Blvd,0.7142857142857143,0.027499999999999993,0.33727142857142856,7,6,"NIGHT_CLEAR,NIGHT_CLEAR,NIGHT_CLEAR,NIGHT_CLEAR,NIGHT_CLEAR,NIGHT_CLEAR,NIGHT_CLEAR","Onshore,Onshore,Onshore,Onshore,Onshore,Onshore,Onshore",7
5842041f4e65fad6a7708852,2024_03_12,40.58342841721757,-73.81182,Rockaways,0,-0.030000000000000002,0.23405714285714288,7,6,"NIGHT_CLEAR,NIGHT_CLEAR,NIGHT_CLEAR,NIGHT_CLEAR,NIGHT_CLEAR,NIGHT_CLEAR,NIGHT_CLEAR","Offshore,Cross-shore,Cross-shore,Cross-shore,Cross-shore,Cross-shore,Cross-shore",7
5842041f4e65fad6a7708853,2024_03_12,40.330474,-73.9734,Monmouth Beach,0.5714285714285714,-0.014642857142857147,0.2912,7,6,"NIGHT_CLEAR,NIGHT_CLEAR,NIGHT_CLEAR,NIGHT_CLEAR,NIGHT_CLEAR,NIGHT_CLEAR,NIGHT_CLEAR","Offshore,Offshore,Offshore,Offshore,Offshore,Offshore,Offshore",7
5842041f4e65fad6a7708856,2024_03_12,40.113,-74.028,Manasquan Inlet,1,-0.027500000000000004,0.23941428571428572,7,6,"NIGHT_CLEAR,NIGHT_CLEAR,NIGHT_CLEAR,NIGHT_CLEAR,NIGHT_CLEAR,NIGHT_CLEAR,NIGHT_CLEAR","Offshore,Offshore,Offshore,Offshore,Offshore,Offshore,Offshore",7
5842041f4e65fad6a7708857,2024_03_12,39.941519877445664,-74.06829,Casino Pier,1,-0.027500000000000004,0.24262857142857144,7,6,"NIGHT_CLEAR,NIGHT_CLEAR,NIGHT_CLEAR,NIGHT_CLEAR,NIGHT_CLEAR,NIGHT_CLEAR,NIGHT_CLEAR","Offshore,Offshore,Offshore,Offshore,Offshore,Offshore,Offshore",7
5842041f4e65fad6a7708858,2024_03_12,39.28223089949212,-74.55766,North End OC,1.3814285714285715,-0.0175,0.2551285714285714,8,6,"NIGHT_CLEAR,NIGHT_CLEAR,NIGHT_CLEAR,NIGHT_CLEAR,NIGHT_CLEAR,NIGHT_CLEAR,NIGHT_CLEAR","Offshore,Offshore,Offshore,Offshore,Offshore,Offshore,Offshore",7
5842041f4e65fad6a770885b,2024_03_12,39.65080599934257,-74.17146,Ship Bottom,1.3814285714285715,-0.031071428571428573,0.2504857142857143,8,6,"NIGHT_CLEAR,NIGHT_CLEAR,NIGHT_CLEAR,NIGHT_CLEAR,NIGHT_CLEAR,NIGHT_CLEAR,NIGHT_CLEAR","Offshore,Offshore,Offshore,Offshore,Offshore,Offshore,Offshore",7
5842041f4e65fad6a7708863,2024_03_12,36.034151543144,-75.66791,Third Street,3,0.47359999999999997,0.8026571428571428,9,8,"CLEAR,NIGHT_CLEAR,NIGHT_CLEAR,NIGHT_CLEAR,NIGHT_CLEAR,NIGHT_CLEAR,NIGHT_CLEAR","Offshore,Offshore,Offshore,Offshore,Offshore,Offshore,Offshore",7
5842041f4e65fad6a7708867,2024_03_12,35.605833221351425,-75.46303,S-Turns,1.6185714285714285,0.6894285714285714,1.0000952380952381,10,9,"CLEAR,NIGHT_CLEAR,NIGHT_CLEAR,NIGHT_CLEAR,NIGHT_CLEAR,NIGHT_CLEAR,NIGHT_CLEAR","Offshore,Offshore,Offshore,Offshore,Offshore,Offshore,Offshore",7
5842041f4e65fad6a770886d,2024_03_12,38.338461,-75.08117,Ocean City Boardwalk,1,-0.015000000000000001,0.25620000000000004,8,7,"CLEAR,NIGHT_CLEAR,NIGHT_CLEAR,NIGHT_CLEAR,NIGHT_CLEAR,NIGHT_CLEAR,NIGHT_CLEAR","Offshore,Offshore,Offshore,Offshore,Offshore,Offshore,Offshore",7
5842041f4e65fad6a770886f,2024_03_12,29.844757212379562,-81.26136,A St.,2,0.5514285714285715,0.8557142857142856,18,18,"CLEAR,NIGHT_CLEAR,NIGHT_CLEAR,NIGHT_CLEAR,NIGHT_CLEAR,NIGHT_CLEAR,NIGHT_CLEAR","Onshore,Onshore,Onshore,Onshore,Onshore,Onshore,Onshore",7
5842041f4e65fad6a7708871,2024_03_12,29.069417851135093,-80.90824,New Smyrna Beach,2,0.9520190476190475,1.4139809523809523,19,17,"CLEAR,NIGHT_CLEAR,NIGHT_CLEAR,NIGHT_CLEAR,NIGHT_CLEAR,NIGHT_CLEAR,NIGHT_CLEAR","Onshore,Onshore,Onshore,Onshore,Onshore,Onshore,Onshore",7
5842041f4e65fad6a7708872,2024_03_12,28.367707417566,-80.60171,Cocoa Beach Pier,2.0242857142857145,0.6229333333333333,0.9259476190476191,23,21,"MOSTLY_CLEAR,NIGHT_MOSTLY_CLEAR,NIGHT_CLEAR,NIGHT_MOSTLY_CLOUDY,NIGHT_MOSTLY_CLOUDY,NIGHT_CLEAR,NIGHT_MOSTLY_CLOUDY","Onshore,Onshore,Onshore,Onshore,Onshore,Onshore,Onshore",7
5842041f4e65fad6a7708873,2024_03_12,28.091782738658846,-80.56479,Indialantic,1.9757142857142858,0.6398666666666667,0.996552380952381,23,21,"MOSTLY_CLEAR,NIGHT_CLEAR,NIGHT_CLEAR,NIGHT_CLEAR,NIGHT_MOSTLY_CLEAR,NIGHT_CLEAR,NIGHT_CLEAR","Onshore,Onshore,Onshore,Onshore,Onshore,Onshore,Onshore",7
5842041f4e65fad6a7708876,2024_03_12,27.25392904143517,-80.19455,Jensen Beach,1.6428571428571428,0.8310666666666666,1.1409857142857143,23,22,"MOSTLY_CLOUDY,NIGHT_MOSTLY_CLOUDY,NIGHT_MOSTLY_CLOUDY,NIGHT_OVERCAST,NIGHT_MOSTLY_CLOUDY,NIGHT_OVERCAST,NIGHT_OVERCAST","Onshore,Onshore,Onshore,Onshore,Onshore,Onshore,Onshore",7
5842041f4e65fad6a7708879,2024_03_12,26.76346795333825,-80.0360655784607,Reef Road,2,0.46257619047619053,0.812852380952381,24,23,"OVERCAST,NIGHT_OVERCAST,NIGHT_MOSTLY_CLOUDY,NIGHT_CLOUDY,NIGHT_OVERCAST,NIGHT_OVERCAST,NIGHT_MOSTLY_CLOUDY","Onshore,Onshore,Onshore,Onshore,Onshore,Onshore,Onshore",7
5842041f4e65fad6a770887c,2024_03_12,26.336499228484,-80.06956100463,Boca Raton Inlet,0.9757142857142858,0.14666666666666664,0.44779047619047624,25,23,"OVERCAST,NIGHT_CLOUDY,NIGHT_MOSTLY_CLOUDY,NIGHT_MOSTLY_CLOUDY,NIGHT_MOSTLY_CLOUDY,NIGHT_MOSTLY_CLOUDY,NIGHT_MOSTLY_CLOUDY","Onshore,Onshore,Onshore,Onshore,Onshore,Onshore,Onshore",7
5842041f4e65fad6a770887d,2024_03_12,26.31719311695038,-80.07452525176168,Deerfield Beach Pier,1,0.18152285714285715,0.48747523809523813,25,23,"OVERCAST,NIGHT_CLOUDY,NIGHT_SHOWERS,NIGHT_MOSTLY_CLOUDY,NIGHT_OVERCAST,NIGHT_MOSTLY_CLOUDY,NIGHT_MOSTLY_CLOUDY","Onshore,Onshore,Onshore,Onshore,Onshore,Onshore,Onshore",7
5842041f4e65fad6a7708881,2024_03_12,30.20276320866628,-85.85626528676136,"Spyglass Dr., Panama City",0,0,0.15061428571428573,19,18,"CLEAR,NIGHT_CLEAR,NIGHT_CLEAR,NIGHT_CLEAR,NIGHT_CLEAR,NIGHT_CLEAR,NIGHT_CLEAR","Offshore,Offshore,Offshore,Offshore,Offshore,Offshore,Offshore",7
5842041f4e65fad6a7708884,2024_03_12,33.39000832738053,-117.59852,Cottons,3,1.0096,1.2812857142857141,16,16,"MOSTLY_CLEAR,CLEAR,CLEAR,NIGHT_MOSTLY_CLOUDY,NIGHT_MOSTLY_CLOUDY,NIGHT_MOSTLY_CLOUDY,NIGHT_MOSTLY_CLOUDY","Onshore,Onshore,Onshore,Onshore,Onshore,Cross-shore,Cross-shore",7
5842041f4e65fad6a7708885,2024_03_12,33.359416282661,-117.54167901405711,Trails,2.4285714285714284,0.6842857142857143,0.9928571428571429,15,15,"MOSTLY_CLEAR,CLEAR,CLEAR,NIGHT_BRIEF_SHOWERS,NIGHT_BRIEF_SHOWERS,NIGHT_CLEAR,NIGHT_MOSTLY_CLOUDY","Onshore,Onshore,Onshore,Cross-shore,Cross-shore,Offshore,Offshore",7
5842041f4e65fad6a7708886,2024_03_12,33.38042605929805,-117.58332,Middles,3,0.8757714285714285,1.2962857142857143,16,16,"MOSTLY_CLEAR,CLEAR,CLEAR,NIGHT_MOSTLY_CLOUDY,NIGHT_MOSTLY_CLOUDY,NIGHT_MOSTLY_CLOUDY,NIGHT_MOSTLY_CLOUDY","Onshore,Onshore,Onshore,Onshore,Cross-shore,Offshore,Offshore",7
5842041f4e65fad6a7708887,2024_03_12,33.38445596302903,-117.59445,Upper Trestles,3,1.1488857142857143,1.4662857142857144,16,16,"MOSTLY_CLEAR,CLEAR,CLEAR,NIGHT_MOSTLY_CLOUDY,NIGHT_MOSTLY_CLOUDY,NIGHT_MOSTLY_CLOUDY,NIGHT_MOSTLY_CLOUDY","Onshore,Onshore,Onshore,Cross-shore,Cross-shore,Offshore,Offshore",7
5842041f4e65fad6a7708889,2024_03_12,28.944414,-95.28883,Surfside,1,0.25665,0.4010142857142857,19,19,"CLEAR,CLEAR,NIGHT_CLEAR,NIGHT_CLEAR,NIGHT_CLEAR,NIGHT_CLEAR,NIGHT_CLEAR","Onshore,Onshore,Onshore,Onshore,Onshore,Onshore,Onshore",7
5842041f4e65fad6a770888a,2024_03_12,33.38143999849023,-117.58843,Lower Trestles,3,1.1224571428571428,1.636542857142857,16,16,"MOSTLY_CLEAR,CLEAR,CLEAR,NIGHT_MOSTLY_CLOUDY,NIGHT_MOSTLY_CLOUDY,NIGHT_MOSTLY_CLOUDY,NIGHT_MOSTLY_CLOUDY","Onshore,Onshore,Onshore,Cross-shore,Cross-shore,Offshore,Offshore",7
5842041f4e65fad6a770888b,2024_03_12,33.379622288757,-117.57894,Church,3,0.9022,1.292,16,16,"MOSTLY_CLEAR,CLEAR,CLEAR,NIGHT_MOSTLY_CLOUDY,NIGHT_CLEAR,NIGHT_MOSTLY_CLOUDY,NIGHT_MOSTLY_CLOUDY","Onshore,Onshore,Onshore,Onshore,Cross-shore,Offshore,Cross-shore",7
5842041f4e65fad6a770888d,2024_03_12,21.679,-158.042,Sunset Beach,4,2.057785714285714,2.5359000000000003,26,25,"BRIEF_SHOWERS,OVERCAST,BRIEF_SHOWERS,CLEAR,BRIEF_SHOWERS,MOSTLY_CLOUDY,NIGHT_CLEAR","Cross-shore,Offshore,Cross-shore,Offshore,Cross-shore,Cross-shore,Cross-shore",7
5842041f4e65fad6a770888e,2024_03_12,21.670550036401,-158.0482,Rocky Point,3,1.5673000000000001,2.003157142857143,26,25,"CLEAR,CLEAR,BRIEF_SHOWERS_POSSIBLE,CLEAR,CLEAR,BRIEF_SHOWERS,NIGHT_BRIEF_SHOWERS_POSSIBLE","Cross-shore,Cross-shore,Cross-shore,Cross-shore,Onshore,Cross-shore,Cross-shore",7
5842041f4e65fad6a770888f,2024_03_12,21.668,-158.05,Chambers,3,1.987142857142857,2.3771428571428572,24,24,"CLEAR,CLEAR,BRIEF_SHOWERS_POSSIBLE,CLEAR,BRIEF_SHOWERS_POSSIBLE,BRIEF_SHOWERS,NIGHT_BRIEF_SHOWERS_POSSIBLE","Cross-shore,Cross-shore,Cross-shore,Cross-shore,Onshore,Cross-shore,Offshore",7
5842041f4e65fad6a7708890,2024_03_12,21.66522,-158.0526,Pipeline,4,2.1955142857142858,2.6392142857142855,26,25,"CLEAR,CLEAR,BRIEF_SHOWERS_POSSIBLE,CLEAR,BRIEF_SHOWERS_POSSIBLE,BRIEF_SHOWERS,NIGHT_BRIEF_SHOWERS_POSSIBLE","Cross-shore,Cross-shore,Cross-shore,Cross-shore,Cross-shore,Cross-shore,Cross-shore",7
5842041f4e65fad6a7708891,2024_03_12,21.665,-158.054,Backdoor,3.857142857142857,2.1955142857142858,2.6392142857142855,26,25,"CLEAR,CLEAR,BRIEF_SHOWERS_POSSIBLE,CLEAR,BRIEF_SHOWERS_POSSIBLE,BRIEF_SHOWERS,NIGHT_BRIEF_SHOWERS_POSSIBLE","Cross-shore,Cross-shore,Cross-shore,Cross-shore,Cross-shore,Cross-shore,Cross-shore",7
5842041f4e65fad6a7708892,2024_03_12,21.662,-158.057,Rockpile,3,1.8214285714285714,2.1757142857142857,24,24,"CLEAR,CLEAR,BRIEF_SHOWERS_POSSIBLE,CLEAR,BRIEF_SHOWERS_POSSIBLE,BRIEF_SHOWERS,NIGHT_BRIEF_SHOWERS_POSSIBLE","Cross-shore,Cross-shore,Cross-shore,Cross-shore,Cross-shore,Cross-shore,Cross-shore",7
5842041f4e65fad6a7708893,2024_03_12,21.65870453806827,-158.06058,Log Cabins,3,1.57,1.88,24,24,"CLEAR,CLEAR,BRIEF_SHOWERS_POSSIBLE,CLEAR,BRIEF_SHOWERS_POSSIBLE,BRIEF_SHOWERS,NIGHT_BRIEF_SHOWERS_POSSIBLE","Cross-shore,Cross-shore,Cross-shore,Cross-shore,Cross-shore,Cross-shore,Cross-shore",7
5842041f4e65fad6a7708894,2024_03_12,21.66203493640557,-158.05495,Off-The-Wall,3,1.8585714285714285,2.22,24,24,"CLEAR,CLEAR,BRIEF_SHOWERS_POSSIBLE,CLEAR,CLEAR,BRIEF_SHOWERS,NIGHT_BRIEF_SHOWERS_POSSIBLE","Cross-shore,Cross-shore,Cross-shore,Cross-shore,Onshore,Cross-shore,Cross-shore",7
5842041f4e65fad6a7708895,2024_03_12,21.643,-158.067,Waimea Bay,NA,2.095871428571429,2.6367285714285713,26,25,"CLEAR,CLEAR,BRIEF_SHOWERS_POSSIBLE,CLEAR,BRIEF_SHOWERS_POSSIBLE,BRIEF_SHOWERS,NIGHT_BRIEF_SHOWERS_POSSIBLE","Offshore,Offshore,Offshore,Offshore,Cross-shore,Cross-shore,Cross-shore",7
5842041f4e65fad6a7708896,2024_03_12,21.622,-158.087,Hultin's,4,2.5890857142857144,3.2274428571428575,26,25,"CLEAR,CLEAR,CLEAR,CLEAR,CLEAR,MOSTLY_CLOUDY,NIGHT_CLEAR","Offshore,Offshore,Offshore,Offshore,Offshore,Offshore,Offshore",7
5842041f4e65fad6a7708897,2024_03_12,21.623,-158.085,Jocko's,3,1.6442857142857144,1.9642857142857142,24,24,"CLEAR,CLEAR,CLEAR,CLEAR,CLEAR,MOSTLY_CLOUDY,NIGHT_CLEAR","Cross-shore,Cross-shore,Cross-shore,Cross-shore,Cross-shore,Cross-shore,Cross-shore",7
5842041f4e65fad6a7708898,2024_03_12,21.62,-158.088,Laniakea,3.7142857142857144,1.4648,1.776357142857143,26,25,"CLEAR,CLEAR,CLEAR,CLEAR,CLEAR,MOSTLY_CLOUDY,NIGHT_CLEAR","Offshore,Offshore,Offshore,Offshore,Offshore,Offshore,Offshore",7
5842041f4e65fad6a7708899,2024_03_12,21.625,-158.083,Chun's,3.5714285714285716,1.727142857142857,2.0628571428571427,24,24,"CLEAR,CLEAR,CLEAR,CLEAR,CLEAR,MOSTLY_CLOUDY,NIGHT_CLEAR","Offshore,Offshore,Offshore,Offshore,Offshore,Offshore,Offshore",7
5842041f4e65fad6a770889c,2024_03_12,21.286357895152136,-157.8515,South Shore - Ala Moana Park,2,0.5028571428571429,0.8071428571428572,24,24,"CLEAR,CLEAR,SHOWERS,MOSTLY_CLOUDY,CLEAR,BRIEF_SHOWERS,NIGHT_MOSTLY_CLOUDY","Offshore,Offshore,Offshore,Offshore,Offshore,Offshore,Offshore",7
5842041f4e65fad6a770889d,2024_03_12,19.606,-155.978,Banyans,2,0.4320428571428572,0.7350285714285715,26,25,"OVERCAST,CLOUDY,CLEAR,CLEAR,CLEAR,MOSTLY_CLOUDY,NIGHT_MOSTLY_CLOUDY","Onshore,Onshore,Cross-shore,Onshore,Onshore,Cross-shore,Cross-shore",7
5842041f4e65fad6a770889e,2024_03_12,20.029,-155.831,Kawaihae,1.8571428571428572,0.4444,0.5652742857142857,24,24,"CLEAR,CLEAR,MOSTLY_CLOUDY,MOSTLY_CLOUDY,CLEAR,MOSTLY_CLOUDY,NIGHT_MOSTLY_CLOUDY","Onshore,Onshore,Onshore,Onshore,Onshore,Onshore,Cross-shore",7
5842041f4e65fad6a770889f,2024_03_12,33.07541383424675,-117.3105,Grandview,3,0.9328571428571428,1.1342857142857143,15,15,"MOSTLY_CLOUDY,CLEAR,CLEAR,NIGHT_CLEAR,NIGHT_CLEAR,NIGHT_MOSTLY_CLOUDY,NIGHT_OVERCAST","Onshore,Onshore,Onshore,Onshore,Onshore,Cross-shore,Cross-shore",7
5842041f4e65fad6a77088a0,2024_03_12,33.065267421296596,-117.30577,Beacons,2.5714285714285716,0.89,1.1157142857142857,15,15,"MOSTLY_CLOUDY,CLEAR,CLEAR,NIGHT_CLEAR,NIGHT_CLEAR,NIGHT_MOSTLY_CLOUDY,NIGHT_OVERCAST","Onshore,Onshore,Onshore,Onshore,Cross-shore,Onshore,Onshore",7
5842041f4e65fad6a77088a2,2024_03_12,21.252,-157.805,Diamond Head,3,0.9636603571428571,1.2793035714285714,26,25,"CLEAR,MOSTLY_CLOUDY,MOSTLY_CLOUDY,MOSTLY_CLOUDY,CLEAR,BRIEF_SHOWERS,NIGHT_MOSTLY_CLOUDY","Cross-shore,Cross-shore,Cross-shore,Cross-shore,Cross-shore,Cross-shore,Cross-shore",7
5842041f4e65fad6a77088a3,2024_03_12,33.04694255008896,-117.29966,Moonlight State Beach,2.2857142857142856,0.9771428571428571,1.1657142857142857,15,15,"MOSTLY_CLOUDY,MOSTLY_CLOUDY,CLEAR,NIGHT_CLEAR,NIGHT_CLEAR,NIGHT_MOSTLY_CLOUDY,NIGHT_OVERCAST","Onshore,Onshore,Onshore,Onshore,Onshore,Cross-shore,Offshore",7
5842041f4e65fad6a77088a5,2024_03_12,33.08685865930869,-117.31532,Ponto,2.142857142857143,1.0557142857142856,1.3385714285714285,15,15,"MOSTLY_CLOUDY,CLEAR,CLEAR,NIGHT_CLEAR,NIGHT_CLEAR,NIGHT_MOSTLY_CLOUDY,NIGHT_OVERCAST","Onshore,Onshore,Onshore,Onshore,Onshore,Onshore,Offshore",7
5842041f4e65fad6a77088a6,2024_03_12,33.130343587871906,-117.33667796442558,Terra Mar Point,3,0.8219714285714286,1.213552380952381,16,16,"MOSTLY_CLOUDY,MOSTLY_CLOUDY,CLEAR,NIGHT_CLEAR,NIGHT_CLEAR,NIGHT_MOSTLY_CLOUDY,NIGHT_MOSTLY_CLOUDY","Onshore,Onshore,Onshore,Onshore,Cross-shore,Onshore,Onshore",7
5842041f4e65fad6a77088af,2024_03_12,32.95916304183685,-117.26963,Del Mar,2.4285714285714284,1.2028571428571428,1.4414285714285715,16,16,"MOSTLY_CLOUDY,CLEAR,CLEAR,NIGHT_CLOUDY,NIGHT_CLEAR,NIGHT_MOSTLY_CLOUDY,NIGHT_MOSTLY_CLOUDY","Onshore,Onshore,Onshore,Onshore,Onshore,Offshore,Offshore",7
5842041f4e65fad6a77088b0,2024_03_12,32.97527261243354,-117.2721061331305,Del Mar Rivermouth,2.2857142857142856,1.1342857142857143,1.3971428571428572,15,15,"MOSTLY_CLOUDY,CLEAR,CLEAR,NIGHT_CLOUDY,NIGHT_MOSTLY_CLOUDY,NIGHT_MOSTLY_CLOUDY,NIGHT_MOSTLY_CLOUDY","Onshore,Onshore,Onshore,Onshore,Onshore,Cross-shore,Offshore",7
5842041f4e65fad6a77088b1,2024_03_12,33.01352178146273,-117.28219,Cardiff Reef,3,1.183757142857143,1.6651904761904763,16,16,"MOSTLY_CLOUDY,CLEAR,CLEAR,NIGHT_CLEAR,NIGHT_CLOUDY,NIGHT_MOSTLY_CLOUDY,NIGHT_OVERCAST","Onshore,Onshore,Onshore,Onshore,Cross-shore,Cross-shore,Cross-shore",7
5842041f4e65fad6a77088b3,2024_03_12,33.00211185876003,-117.2811,Seaside Reef,3,1.1784,1.6018571428571429,16,16,"MOSTLY_CLOUDY,CLEAR,CLEAR,NIGHT_CLOUDY,NIGHT_CLEAR,NIGHT_CLEAR,NIGHT_MOSTLY_CLOUDY","Onshore,Onshore,Onshore,Onshore,Cross-shore,Cross-shore,Cross-shore",7
5842041f4e65fad6a77088b4,2024_03_12,33.0341859796287,-117.29552,Swami's,2.857142857142857,1.240304761904762,1.5904571428571428,16,16,"MOSTLY_CLOUDY,CLEAR,CLEAR,NIGHT_CLEAR,NIGHT_CLOUDY,NIGHT_MOSTLY_CLOUDY,NIGHT_OVERCAST","Onshore,Onshore,Onshore,Onshore,Onshore,Cross-shore,Offshore",7
5842041f4e65fad6a77088b7,2024_03_12,33.04569760260221,-117.2994,D Street,2.142857142857143,1.0614285714285714,1.3142857142857143,15,15,"MOSTLY_CLOUDY,MOSTLY_CLOUDY,CLEAR,NIGHT_CLEAR,NIGHT_CLEAR,NIGHT_MOSTLY_CLOUDY,NIGHT_OVERCAST","Onshore,Onshore,Onshore,Onshore,Onshore,Cross-shore,Offshore",7
5842041f4e65fad6a77088b8,2024_03_12,33.02090944350196,-117.28535,San Elijo State Beach,3,1.0437571428571428,1.459952380952381,16,16,"MOSTLY_CLOUDY,CLEAR,CLEAR,NIGHT_CLEAR,NIGHT_CLOUDY,NIGHT_MOSTLY_CLOUDY,NIGHT_OVERCAST","Onshore,Onshore,Onshore,Onshore,Cross-shore,Cross-shore,Cross-shore",7
5842041f4e65fad6a77088c2,2024_03_12,32.80662846492798,-117.2688764333725,PB Point,3.142857142857143,1.3314285714285714,1.5985714285714285,16,16,"MOSTLY_CLOUDY,MOSTLY_CLOUDY,MOSTLY_CLOUDY,NIGHT_OVERCAST,NIGHT_OVERCAST,NIGHT_MOSTLY_CLOUDY,NIGHT_MOSTLY_CLOUDY","Cross-shore,Cross-shore,Cross-shore,Cross-shore,Offshore,Offshore,Offshore",7
5842041f4e65fad6a77088c4,2024_03_12,32.8060476681448,-117.26479,Old Man's at Tourmaline,3,1.01,1.24,16,16,"MOSTLY_CLOUDY,MOSTLY_CLOUDY,MOSTLY_CLOUDY,NIGHT_OVERCAST,NIGHT_OVERCAST,NIGHT_MOSTLY_CLOUDY,NIGHT_MOSTLY_CLOUDY","Cross-shore,Cross-shore,Cross-shore,Cross-shore,Offshore,Offshore,Offshore",7
5842041f4e65fad6a77088cb,2024_03_12,32.557056711256,-117.1327445020322,Tijuana Slough,2.4285714285714284,0.9585714285714285,1.1457142857142857,15,15,"MOSTLY_CLEAR,CLEAR,CLEAR,NIGHT_OVERCAST,NIGHT_MOSTLY_CLOUDY,NIGHT_CLOUDY,NIGHT_OVERCAST","Onshore,Onshore,Cross-shore,Cross-shore,Cross-shore,Cross-shore,Cross-shore",7
5842041f4e65fad6a77088cc,2024_03_12,32.863,-117.257,La Jolla Shores,2,0.9942857142857143,1.2042857142857142,16,16,"MOSTLY_CLOUDY,MOSTLY_CLOUDY,CLEAR,NIGHT_CLOUDY,NIGHT_CLOUDY,NIGHT_MOSTLY_CLOUDY,NIGHT_MOSTLY_CLOUDY","Onshore,Onshore,Onshore,Onshore,Onshore,Onshore,Onshore",7
5842041f4e65fad6a77088ce,2024_03_12,32.67443657790586,-117.17421316238693,Coronado Beach,2.5714285714285716,0.8185714285714286,1.0742857142857143,15,15,"CLEAR,CLEAR,CLEAR,NIGHT_CLOUDY,NIGHT_OVERCAST,NIGHT_CLOUDY,NIGHT_CLOUDY","Cross-shore,Cross-shore,Offshore,Offshore,Offshore,Offshore,Offshore",7
5842041f4e65fad6a77088cf,2024_03_12,33.40484417640326,-117.60749,San Clemente State Beach,2.2857142857142856,0.7485714285714286,1.0357142857142858,15,15,"MOSTLY_CLEAR,CLEAR,CLEAR,NIGHT_MOSTLY_CLOUDY,NIGHT_MOSTLY_CLOUDY,NIGHT_MOSTLY_CLOUDY,NIGHT_MOSTLY_CLOUDY","Onshore,Onshore,Onshore,Cross-shore,Cross-shore,Cross-shore,Offshore",7
5842041f4e65fad6a77088d5,2024_03_12,33.4663042002114,-117.7168352817103,Strands,3,0.9936285714285714,1.4165142857142856,15,15,"CLEAR,CLEAR,CLEAR,NIGHT_MOSTLY_CLOUDY,NIGHT_MOSTLY_CLOUDY,NIGHT_MOSTLY_CLOUDY,NIGHT_MOSTLY_CLOUDY","Onshore,Onshore,Onshore,Onshore,Cross-shore,Cross-shore,Onshore",7
5842041f4e65fad6a77088d7,2024_03_12,33.4609858001748,-117.68535,Doheny State Beach,2.1671428571428573,0.22382857142857143,0.5283714285714286,16,16,"CLEAR,CLEAR,MOSTLY_CLEAR,NIGHT_MOSTLY_CLOUDY,NIGHT_MOSTLY_CLOUDY,NIGHT_MOSTLY_CLOUDY,NIGHT_MOSTLY_CLOUDY","Onshore,Onshore,Onshore,Cross-shore,Cross-shore,Offshore,Offshore",7
5842041f4e65fad6a77088dc,2024_03_12,33.50894790083017,-117.75243,Aliso Creek,2,0.7014285714285714,1.0071428571428571,15,15,"CLEAR,CLEAR,MOSTLY_CLEAR,NIGHT_MOSTLY_CLOUDY,NIGHT_CLEAR,NIGHT_CLEAR,NIGHT_CLEAR","Onshore,Onshore,Onshore,Cross-shore,Cross-shore,Cross-shore,Cross-shore",7
5842041f4e65fad6a77088dd,2024_03_12,33.5326591767067,-117.77764,Brooks Street,2,0.44571428571428573,0.7485714285714286,15,15,"CLEAR,CLEAR,MOSTLY_CLEAR,NIGHT_CLEAR,NIGHT_MIST,NIGHT_CLEAR,NIGHT_CLEAR","Onshore,Onshore,Onshore,Cross-shore,Cross-shore,Cross-shore,Cross-shore",7
5842041f4e65fad6a77088de,2024_03_12,33.53561225884637,-117.7799,Thalia Street,2,0.49714285714285716,0.8,15,15,"CLEAR,CLEAR,MOSTLY_CLEAR,NIGHT_CLEAR,NIGHT_CLEAR,NIGHT_CLEAR,NIGHT_CLEAR","Onshore,Onshore,Onshore,Cross-shore,Cross-shore,Cross-shore,Cross-shore",7
5842041f4e65fad6a77088e3,2024_03_12,33.54268310353641,-117.7916,Rockpile,3,0.9357142857142857,1.1157142857142857,15,15,"CLEAR,CLEAR,MOSTLY_CLEAR,NIGHT_CLEAR,NIGHT_MIST,NIGHT_CLEAR,NIGHT_CLEAR","Onshore,Onshore,Cross-shore,Cross-shore,Cross-shore,Cross-shore,Cross-shore",7
5842041f4e65fad6a77088e4,2024_03_12,33.7368459504689,-118.10342,"Seal Beach Pier, Southside",1,0.20714285714285713,0.5142857142857143,15,15,"CLEAR,CLEAR,CLEAR,NIGHT_MOSTLY_CLEAR,NIGHT_MOSTLY_CLEAR,NIGHT_CLEAR,NIGHT_CLEAR","Onshore,Onshore,Onshore,Onshore,Onshore,Onshore,Onshore",7
5842041f4e65fad6a77088e5,2024_03_12,33.73933701820233,-118.117,Ray Bay,1.1428571428571428,0.2114285714285714,0.5142857142857143,15,15,"CLEAR,CLEAR,CLEAR,NIGHT_MOSTLY_CLEAR,NIGHT_CLEAR,NIGHT_MOSTLY_CLEAR,NIGHT_CLEAR","Onshore,Onshore,Onshore,Onshore,Onshore,Onshore,Onshore",7
5842041f4e65fad6a77088e7,2024_03_12,33.728733,-118.08982,Surfside,2,0.8914285714285715,1.1128571428571428,15,15,"CLEAR,CLEAR,CLEAR,NIGHT_MOSTLY_CLEAR,NIGHT_MOSTLY_CLOUDY,NIGHT_MOSTLY_CLOUDY,NIGHT_MOSTLY_CLEAR","Onshore,Onshore,Onshore,Onshore,Onshore,Onshore,Onshore",7
5842041f4e65fad6a77088e8,2024_03_12,33.68760321488161,-118.04236,Bolsa Chica State Beach,2.1185714285714288,1.094342857142857,1.397457142857143,15,15,"CLEAR,CLEAR,CLEAR,NIGHT_CLEAR,NIGHT_MOSTLY_CLOUDY,NIGHT_BRIEF_SHOWERS,NIGHT_MOSTLY_CLOUDY","Onshore,Onshore,Onshore,Onshore,Onshore,Onshore,Onshore",7
5842041f4e65fad6a77088ea,2024_03_12,33.66704400178788,-118.0192,North HB Streets,1.832857142857143,1.139342857142857,1.4507999999999999,15,15,"CLEAR,CLEAR,CLEAR,NIGHT_CLEAR,NIGHT_CLEAR,NIGHT_MOSTLY_CLEAR,NIGHT_MOSTLY_CLOUDY","Onshore,Onshore,Onshore,Onshore,Cross-shore,Cross-shore,Onshore",7
5842041f4e65fad6a77088ed,2024_03_12,33.65475101379567,-118.00291,Huntington Beach Pier Southside,2,1.1460285714285714,1.4762857142857144,15,15,"CLEAR,CLEAR,CLEAR,NIGHT_MOSTLY_CLEAR,NIGHT_CLEAR,NIGHT_CLEAR,NIGHT_MOSTLY_CLOUDY","Onshore,Onshore,Onshore,Onshore,Onshore,Onshore,Onshore",7
5842041f4e65fad6a77088ee,2024_03_12,33.62778647706099,-117.95939,River Jetties,2,0.9886285714285714,1.3808,15,15,"CLEAR,CLEAR,MOSTLY_CLEAR,NIGHT_CLEAR,NIGHT_MOSTLY_CLOUDY,NIGHT_CLEAR,NIGHT_MOSTLY_CLOUDY","Onshore,Onshore,Onshore,Onshore,Onshore,Onshore,Onshore",7
5842041f4e65fad6a77088f2,2024_03_12,33.605165797643664,-117.92500376701355,Newport Point,2,0.7,1.0042857142857142,15,15,"CLEAR,CLEAR,CLEAR,NIGHT_CLEAR,NIGHT_CLEAR,NIGHT_CLEAR,NIGHT_FOG","Onshore,Onshore,Cross-shore,Cross-shore,Cross-shore,Cross-shore,Onshore",7
5842041f4e65fad6a77088f3,2024_03_12,33.58982984726977,-117.87713,Corona del Mar,2,0.2694985714285714,0.42108999999999996,15,15,"CLEAR,CLEAR,MOSTLY_CLEAR,NIGHT_CLEAR,NIGHT_CLEAR,NIGHT_MOSTLY_CLEAR,NIGHT_FOG","Onshore,Onshore,Onshore,Onshore,Onshore,Onshore,Onshore",7
5842041f4e65fad6a77088f7,2024_03_12,34.00750300824362,-118.4971783496269,Santa Monica Pier,2,0.4057142857142857,0.7085714285714285,15,15,"MOSTLY_CLEAR,CLEAR,CLEAR,NIGHT_CLEAR,NIGHT_CLEAR,NIGHT_CLEAR,NIGHT_CLEAR","Onshore,Onshore,Onshore,Onshore,Onshore,Onshore,Onshore",7
5842041f4e65fad6a77088ff,2024_03_12,33.94070283102945,-118.44321,Dockweiler Beach,1.737142857142857,0.8179234523809524,1.151885595238095,14,14,"CLEAR,CLEAR,CLEAR,NIGHT_MOSTLY_CLOUDY,NIGHT_CLEAR,NIGHT_MOSTLY_CLEAR,NIGHT_MOSTLY_CLOUDY","Onshore,Onshore,Onshore,Onshore,Onshore,Onshore,Onshore",7
5842041f4e65fad6a7708900,2024_03_12,33.9231846937237,-118.4341465777908,Shitpipe,1.737142857142857,0.8332190476190476,1.1920619047619048,14,14,"CLEAR,CLEAR,CLEAR,NIGHT_CLEAR,NIGHT_CLEAR,NIGHT_CLEAR,NIGHT_BRIEF_SHOWERS","Onshore,Onshore,Onshore,Onshore,Onshore,Onshore,Onshore",7
5842041f4e65fad6a7708902,2024_03_12,33.9108528052242,-118.4279133138721,Hammerland,1.737142857142857,1.1144714285714286,1.4336714285714285,14,14,"CLEAR,CLEAR,CLEAR,NIGHT_CLEAR,NIGHT_CLEAR,NIGHT_CLEAR,NIGHT_BRIEF_SHOWERS","Onshore,Onshore,Onshore,Onshore,Onshore,Onshore,Onshore",7
5842041f4e65fad6a7708904,2024_03_12,33.87201368173932,-118.4075151286262,Hermosa Beach,1.4514285714285715,0.7331,1.0182809523809524,14,14,"CLEAR,CLEAR,MOSTLY_CLEAR,NIGHT_MOSTLY_CLOUDY,NIGHT_MOSTLY_CLEAR,NIGHT_MOSTLY_CLEAR,NIGHT_MOSTLY_CLOUDY","Onshore,Onshore,Onshore,Onshore,Onshore,Onshore,Onshore",7
5842041f4e65fad6a7708906,2024_03_12,33.90129336911256,-118.42184,El Porto,1.737142857142857,1.1711380952380952,1.556052380952381,14,14,"CLEAR,CLEAR,CLEAR,NIGHT_MOSTLY_CLOUDY,NIGHT_CLEAR,NIGHT_CLEAR,NIGHT_MOSTLY_CLOUDY","Onshore,Onshore,Onshore,Onshore,Onshore,Onshore,Onshore",7
5842041f4e65fad6a7708907,2024_03_12,33.87963506431794,-118.41102,Manhattan Beach Pier,1.737142857142857,1.1714952380952381,1.4095333333333333,14,14,"CLEAR,CLEAR,CLEAR,NIGHT_MOSTLY_CLOUDY,NIGHT_CLEAR,NIGHT_CLEAR,NIGHT_MOSTLY_CLOUDY","Onshore,Onshore,Onshore,Onshore,Onshore,Onshore,Onshore",7
5842041f4e65fad6a7708914,2024_03_12,34.038053387863464,-118.5532,Sunset Point,1.4285714285714286,0.2042857142857143,0.5085714285714286,15,15,"CLEAR,CLEAR,CLEAR,NIGHT_CLEAR,NIGHT_CLEAR,NIGHT_CLEAR,NIGHT_CLEAR","Onshore,Onshore,Onshore,Onshore,Offshore,Offshore,Offshore",7
5842041f4e65fad6a7708920,2024_03_12,33.80930828074364,-118.3933198342649,Haggerty's,1,0.2057142857142857,0.3874285714285714,15,15,"CLEAR,CLEAR,MOSTLY_CLEAR,NIGHT_MOSTLY_CLOUDY,NIGHT_MOSTLY_CLOUDY,NIGHT_MOSTLY_CLEAR,NIGHT_MOSTLY_CLOUDY","Onshore,Onshore,Onshore,Onshore,Onshore,Onshore,Onshore",7
5842041f4e65fad6a7708921,2024_03_12,33.85044519861206,-118.40048,Redondo Breakwater,2.5714285714285716,1.2042857142857142,1.4514285714285715,16,16,"CLEAR,CLEAR,MOSTLY_CLEAR,NIGHT_MOSTLY_CLOUDY,NIGHT_MOSTLY_CLEAR,NIGHT_MOSTLY_CLEAR,NIGHT_MOSTLY_CLOUDY","Onshore,Onshore,Onshore,Onshore,Onshore,Onshore,Onshore",7
5842041f4e65fad6a7708927,2024_03_12,33.70877301002487,-118.2840112858389,Cabrillo Beach,2,0.09571428571428571,0.39999999999999997,15,15,"CLEAR,CLEAR,CLEAR,NIGHT_MOSTLY_CLEAR,NIGHT_MOSTLY_CLOUDY,NIGHT_MOSTLY_CLEAR,NIGHT_CLEAR","Cross-shore,Offshore,Offshore,Offshore,Offshore,Offshore,Offshore",7
5842041f4e65fad6a770892c,2024_03_12,33.77209986806257,-118.4268428476672,Lunada Bay,1.4285714285714286,1.06,1.3171428571428572,15,15,"MOSTLY_CLEAR,CLEAR,CLEAR,NIGHT_MOSTLY_CLOUDY,NIGHT_MOSTLY_CLOUDY,NIGHT_MOSTLY_CLEAR,NIGHT_MOSTLY_CLOUDY","Onshore,Onshore,Onshore,Onshore,Onshore,Onshore,Onshore",7
5842041f4e65fad6a770892d,2024_03_12,33.79294656286144,-118.4070316699825,PV Cove,1.7142857142857142,0.7550471428571428,1.0104657142857143,15,15,"CLEAR,CLEAR,MOSTLY_CLEAR,NIGHT_MOSTLY_CLOUDY,NIGHT_MOSTLY_CLOUDY,NIGHT_MOSTLY_CLEAR,NIGHT_MOSTLY_CLOUDY","Onshore,Onshore,Onshore,Onshore,Onshore,Onshore,Onshore",7
5842041f4e65fad6a7708930,2024_03_12,34.03944902292561,-118.57539,Chart House,1,0.07142857142857142,0.3757142857142857,15,15,"MOSTLY_CLEAR,MOSTLY_CLEAR,MOSTLY_CLEAR,NIGHT_CLEAR,NIGHT_CLEAR,NIGHT_CLEAR,NIGHT_CLEAR","Cross-shore,Onshore,Onshore,Onshore,Offshore,Offshore,Offshore",7
5842041f4e65fad6a7708936,2024_03_12,34.0016731994772,-118.80456,Point Dume,2.3814285714285712,0.4983047619047619,0.8044809523809524,15,15,"CLEAR,CLEAR,CLEAR,NIGHT_CLEAR,NIGHT_CLEAR,NIGHT_CLEAR,NIGHT_MOSTLY_CLOUDY","Cross-shore,Cross-shore,Cross-shore,Offshore,Offshore,Offshore,Cross-shore",7
5842041f4e65fad6a7708937,2024_03_12,34.02587527588963,-118.7554939066114,Latigo Point,2,0.3314285714285714,0.6371428571428571,15,15,"CLEAR,CLEAR,CLEAR,NIGHT_CLEAR,NIGHT_CLEAR,NIGHT_CLEAR,NIGHT_CLEAR","Cross-shore,Cross-shore,Offshore,Offshore,Offshore,Offshore,Cross-shore",7
5842041f4e65fad6a770893f,2024_03_12,34.043762,-118.93294,Leo Carrillo,2.1185714285714288,0.6149714285714286,1.0254857142857143,15,15,"CLEAR,CLEAR,CLEAR,NIGHT_CLEAR,NIGHT_MOSTLY_CLEAR,NIGHT_MIST,NIGHT_MIST","Cross-shore,Cross-shore,Cross-shore,Offshore,Offshore,Offshore,Offshore",7
5842041f4e65fad6a7708941,2024_03_12,36.69388179265737,-121.81289,Marina State Beach,2,3.032857142857143,3.612857142857143,13,13,"MOSTLY_CLOUDY,MOSTLY_CLOUDY,BRIEF_SHOWERS,CLOUDY,NIGHT_MOSTLY_CLOUDY,NIGHT_OVERCAST,NIGHT_MOSTLY_CLOUDY","Onshore,Onshore,Onshore,Onshore,Onshore,Onshore,Onshore",7
5842041f4e65fad6a7708944,2024_03_12,34.34145077331085,-119.416999352654,Stanley's,2,0.6271428571428571,0.93,14,14,"CLEAR,CLEAR,MOSTLY_CLEAR,MOSTLY_CLEAR,NIGHT_CLOUDY,NIGHT_MIST,NIGHT_CLEAR","Onshore,Onshore,Onshore,Onshore,Onshore,Onshore,Onshore",7
5842041f4e65fad6a7708945,2024_03_12,34.35113017313915,-119.426921498899,Oil Piers,1.5714285714285714,0.5771428571428572,0.88,14,14,"CLEAR,CLEAR,MOSTLY_CLEAR,MOSTLY_CLEAR,NIGHT_CLEAR,NIGHT_MIST,NIGHT_CLEAR","Onshore,Onshore,Onshore,Onshore,Onshore,Cross-shore,Onshore",7
5842041f4e65fad6a770894c,2024_03_12,34.17876333306018,-119.2399483564372,Oxnard,2,1.04,1.3142857142857143,14,14,"CLEAR,CLEAR,CLEAR,CLEAR,NIGHT_MOSTLY_CLOUDY,NIGHT_CLEAR,NIGHT_CLEAR","Onshore,Onshore,Onshore,Onshore,Onshore,Onshore,Onshore",7
5842041f4e65fad6a7708957,2024_03_12,34.31720331100517,-119.3882324751725,Pitas Point,1.5714285714285714,0.6314285714285715,0.9371428571428572,14,14,"MIST,CLEAR,CLEAR,MOSTLY_CLEAR,NIGHT_OVERCAST,NIGHT_CLEAR,NIGHT_CLEAR","Onshore,Cross-shore,Cross-shore,Cross-shore,Cross-shore,Cross-shore,Cross-shore",7
5842041f4e65fad6a7708959,2024_03_12,34.27851754384724,-119.316202617226,Emma Wood,1.1428571428571428,0.5557142857142857,0.86,14,14,"MIST,MIST,MOSTLY_CLEAR,MOSTLY_CLEAR,NIGHT_CLEAR,NIGHT_CLEAR,NIGHT_CLEAR","Onshore,Onshore,Onshore,Onshore,Onshore,Onshore,Onshore",7
5842041f4e65fad6a770895a,2024_03_12,34.35513640390276,-119.4400589884255,Mussel Shoals (aka Little Rincon),2,0.8757142857142858,1.0942857142857143,14,14,"MIST,CLEAR,MOSTLY_CLEAR,CLEAR,NIGHT_CLEAR,NIGHT_CLEAR,NIGHT_CLEAR","Onshore,Cross-shore,Onshore,Onshore,Cross-shore,Cross-shore,Onshore",7
5842041f4e65fad6a770895e,2024_03_12,34.28991757054902,-119.3366646794652,Summer Beach,1.4285714285714286,0.3942857142857143,0.7,14,14,"MIST,MIST,MOSTLY_CLEAR,MOSTLY_CLEAR,NIGHT_MOSTLY_CLOUDY,NIGHT_CLEAR,NIGHT_CLEAR","Onshore,Onshore,Onshore,Onshore,Onshore,Onshore,Onshore",7
5842041f4e65fad6a770895f,2024_03_12,34.30897456105926,-119.3582501170116,Solimar,1.5714285714285714,0.43142857142857144,0.7357142857142858,14,14,"MIST,CLEAR,CLEAR,MOSTLY_CLEAR,NIGHT_OVERCAST,NIGHT_CLEAR,NIGHT_CLEAR","Onshore,Cross-shore,Cross-shore,Onshore,Cross-shore,Cross-shore,Cross-shore",7
5842041f4e65fad6a7708960,2024_03_12,34.39836265281686,-119.70213,Leadbetter Point,1.7142857142857142,0.11,0.41857142857142854,14,14,"CLEAR,CLEAR,CLEAR,CLEAR,NIGHT_CLEAR,NIGHT_CLEAR,NIGHT_CLEAR","Offshore,Offshore,Offshore,Offshore,Offshore,Cross-shore,Offshore",7
5842041f4e65fad6a7708961,2024_03_12,34.46052293893899,-120.07328,Refugio,1,0.13,0.43857142857142856,14,14,"CLEAR,CLEAR,CLEAR,CLEAR,NIGHT_CLEAR,NIGHT_CLEAR,NIGHT_CLEAR","Offshore,Offshore,Offshore,Offshore,Offshore,Offshore,Offshore",7
5842041f4e65fad6a7708962,2024_03_12,34.40754276777778,-119.87639,Devereux,2.2857142857142856,0.5914285714285714,0.8942857142857144,14,14,"MIST,CLEAR,CLEAR,CLEAR,NIGHT_CLEAR,NIGHT_CLEAR,NIGHT_CLEAR","Cross-shore,Offshore,Offshore,Offshore,Offshore,Offshore,Offshore",7
5842041f4e65fad6a7708963,2024_03_12,34.27479983305182,-119.3133222656776,Ventura Overhead,1.4285714285714286,0.6,0.9042857142857142,14,14,"MIST,MIST,CLEAR,MOSTLY_CLEAR,NIGHT_CLEAR,NIGHT_CLEAR,NIGHT_CLEAR","Onshore,Onshore,Onshore,Onshore,Onshore,Onshore,Onshore",7
5842041f4e65fad6a7708964,2024_03_12,34.41023236011655,-119.88261,Sands,1.4285714285714286,0.6585714285714286,0.9628571428571429,14,14,"MIST,CLEAR,CLEAR,CLEAR,NIGHT_CLEAR,NIGHT_CLEAR,NIGHT_CLEAR","Onshore,Onshore,Onshore,Cross-shore,Cross-shore,Cross-shore,Cross-shore",7
5842041f4e65fad6a7708966,2024_03_12,34.40450193869233,-119.68752,Sandspit,1,0,0.26857142857142857,14,14,"CLEAR,CLEAR,MOSTLY_CLEAR,CLEAR,NIGHT_CLEAR,NIGHT_CLEAR,NIGHT_CLEAR","Offshore,Offshore,Offshore,Offshore,Offshore,Cross-shore,Offshore",7
5842041f4e65fad6a7708967,2024_03_12,34.41549098334453,-119.6375149840203,Hammond's,2,0.16,0.46285714285714286,14,14,"CLEAR,CLEAR,MOSTLY_CLEAR,CLEAR,NIGHT_CLOUDY,NIGHT_CLEAR,NIGHT_CLEAR","Cross-shore,Cross-shore,Cross-shore,Offshore,Offshore,Offshore,Offshore",7
5842041f4e65fad6a7708968,2024_03_12,34.45759322742309,-120.0220251867315,El Capitan,1,0.24714285714285714,0.55,14,14,"CLEAR,CLEAR,CLEAR,CLEAR,NIGHT_CLEAR,NIGHT_CLEAR,NIGHT_CLEAR","Offshore,Offshore,Offshore,Offshore,Offshore,Offshore,Offshore",7
5842041f4e65fad6a770896c,2024_03_12,34.405117655616,-119.84317,Campus Point,1.7142857142857142,0.26,0.5657142857142857,14,14,"CLEAR,CLEAR,CLEAR,CLEAR,NIGHT_CLEAR,NIGHT_CLEAR,NIGHT_CLEAR","Cross-shore,Cross-shore,Offshore,Offshore,Offshore,Offshore,Offshore",7
5842041f4e65fad6a770896e,2024_03_12,34.38935162233354,-119.51955,Carpinteria State Beach,2.4285714285714284,0.9071428571428571,1.1057142857142859,14,14,"MOSTLY_CLEAR,MOSTLY_CLEAR,MOSTLY_CLEAR,CLEAR,NIGHT_CLEAR,NIGHT_CLEAR,NIGHT_CLEAR","Onshore,Onshore,Onshore,Onshore,Offshore,Offshore,Offshore",7
5842041f4e65fad6a770896f,2024_03_12,37.48296565175612,-122.4549300127824,Half Moon Bay,2.4285714285714284,2.1942857142857144,2.6228571428571428,13,13,"OVERCAST,LIGHT_RAIN,LIGHT_RAIN,BRIEF_SHOWERS,NIGHT_BRIEF_SHOWERS,NIGHT_BRIEF_SHOWERS,NIGHT_DRIZZLE","Onshore,Onshore,Onshore,Onshore,Onshore,Onshore,Onshore",7
5842041f4e65fad6a7708970,2024_03_12,37.499,-122.471,Princeton Jetty,2.7142857142857144,2.3257142857142856,2.7814285714285716,13,13,"OVERCAST,OVERCAST,MIST,MIST,NIGHT_OVERCAST,NIGHT_MOSTLY_CLEAR,NIGHT_OVERCAST","Onshore,Onshore,Onshore,Onshore,Onshore,Onshore,Onshore",7
5842041f4e65fad6a7708972,2024_03_12,37.35699547365155,-122.4069534707252,Tunitas Creek,2,3.772857142857143,4.508571428571429,13,13,"DRIZZLE,OVERCAST,OVERCAST,MOSTLY_CLOUDY,NIGHT_BRIEF_SHOWERS,NIGHT_MOSTLY_CLOUDY,NIGHT_MOSTLY_CLOUDY","Onshore,Onshore,Onshore,Onshore,Onshore,Onshore,Onshore",7
5842041f4e65fad6a7708974,2024_03_12,37.54735589428842,-122.5161090212687,Montara,2,2.822857142857143,3.374285714285714,13,13,"CLOUDY,CLOUDY,MIST,MOSTLY_CLOUDY,NIGHT_MOSTLY_CLOUDY,NIGHT_MOSTLY_CLOUDY,NIGHT_DRIZZLE","Cross-shore,Cross-shore,Cross-shore,Cross-shore,Cross-shore,Cross-shore,Cross-shore",7
5842041f4e65fad6a7708975,2024_03_12,34.3869373724559,-119.5142334209018,Tarpits,1.5714285714285714,0.6885714285714286,0.9928571428571429,14,14,"CLEAR,MOSTLY_CLEAR,MOSTLY_CLEAR,CLEAR,NIGHT_CLEAR,NIGHT_CLEAR,NIGHT_CLEAR","Cross-shore,Cross-shore,Cross-shore,Onshore,Cross-shore,Offshore,Offshore",7
5842041f4e65fad6a7708976,2024_03_12,37.59881852720143,-122.50463,Pacifica / Linda Mar,2.547142857142857,1.1959095238095239,1.7048857142857143,14,14,"MIST,MIST,CLOUDY,CLEAR,NIGHT_MOSTLY_CLOUDY,NIGHT_MOSTLY_CLOUDY,NIGHT_OVERCAST","Onshore,Onshore,Onshore,Cross-shore,Cross-shore,Cross-shore,Cross-shore",7
5842041f4e65fad6a7708978,2024_03_12,37.59883098461164,-122.5143843582282,Pedro Point,3,2.7928571428571427,3.3385714285714285,13,13,"CLOUDY,OVERCAST,CLOUDY,CLEAR,NIGHT_MOSTLY_CLOUDY,NIGHT_MOSTLY_CLOUDY,NIGHT_OVERCAST","Cross-shore,Cross-shore,Cross-shore,Cross-shore,Cross-shore,Cross-shore,Cross-shore",7
5842041f4e65fad6a7708979,2024_03_12,37.61081996647663,-122.4973287570634,Rockaway,2,2.7914285714285714,3.3342857142857145,13,13,"MIST,MIST,CLOUDY,CLEAR,NIGHT_MOSTLY_CLOUDY,NIGHT_MOSTLY_CLOUDY,NIGHT_OVERCAST","Onshore,Onshore,Onshore,Onshore,Onshore,Onshore,Cross-shore",7
5842041f4e65fad6a770897a,2024_03_12,37.809987384424446,-122.4751353263855,Fort Point,2.5714285714285716,1.77,2.117142857142857,13,13,"CLOUDY,OVERCAST,CLOUDY,CLEAR,NIGHT_MOSTLY_CLOUDY,NIGHT_MOSTLY_CLOUDY,NIGHT_OVERCAST","Cross-shore,Cross-shore,Onshore,Onshore,Cross-shore,Onshore,Onshore",7
5842041f4e65fad6a770897c,2024_03_12,37.63422542967464,-122.4951,Sharp Park,1.7142857142857142,3.007142857142857,3.592857142857143,13,13,"DRIZZLE,OVERCAST,CLOUDY,CLEAR,NIGHT_MOSTLY_CLOUDY,NIGHT_CLEAR,NIGHT_MOSTLY_CLOUDY","Onshore,Onshore,Onshore,Onshore,Onshore,Onshore,Onshore",7
5842041f4e65fad6a770897d,2024_03_12,37.27313605072472,-122.4127387912554,Pescadero,2.5714285714285716,3.6085714285714285,4.311428571428571,13,13,"CLOUDY,CLOUDY,CLOUDY,MOSTLY_CLOUDY,NIGHT_CLOUDY,NIGHT_CLEAR,NIGHT_MOSTLY_CLOUDY","Onshore,Onshore,Onshore,Cross-shore,Onshore,Cross-shore,Cross-shore",7
5842041f4e65fad6a770897e,2024_03_12,37.18140279972666,-122.3926685899327,Pigeon Point,2.7142857142857144,3.5357142857142856,4.225714285714286,13,13,"CLOUDY,CLOUDY,OVERCAST,MOSTLY_CLOUDY,NIGHT_MIST,NIGHT_BRIEF_SHOWERS,NIGHT_MOSTLY_CLEAR","Cross-shore,Cross-shore,Cross-shore,Onshore,Onshore,Onshore,Onshore",7
5842041f4e65fad6a770897f,2024_03_12,37.11578956919415,-122.314699271291,Ano Nuevo,3.7142857142857144,2.835714285714286,3.392857142857143,13,13,"MOSTLY_CLOUDY,CLEAR,CLOUDY,MOSTLY_CLOUDY,NIGHT_DRIZZLE,NIGHT_CLEAR,NIGHT_MOSTLY_CLEAR","Offshore,Offshore,Offshore,Cross-shore,Cross-shore,Cross-shore,Onshore",7
5842041f4e65fad6a7708980,2024_03_12,37.09520872681598,-122.2805474707768,Waddell Creek,3,2.802857142857143,3.347142857142857,13,13,"MOSTLY_CLOUDY,CLOUDY,CLOUDY,CLEAR,NIGHT_CLEAR,NIGHT_CLEAR,NIGHT_MOSTLY_CLEAR","Cross-shore,Cross-shore,Cross-shore,Onshore,Onshore,Onshore,Onshore",7
5842041f4e65fad6a7708981,2024_03_12,36.96512852130351,-122.1252825495626,Four Mile,3.5714285714285716,3.1685714285714286,3.775714285714286,13,13,"CLEAR,CLEAR,CLEAR,MOSTLY_CLOUDY,NIGHT_CLEAR,NIGHT_MOSTLY_CLEAR,NIGHT_MOSTLY_CLOUDY","Offshore,Offshore,Offshore,Offshore,Offshore,Cross-shore,Cross-shore",7
5842041f4e65fad6a7708982,2024_03_12,37.04122807048655,-122.2333684729756,Scott Creek,3,2.827142857142857,3.3785714285714286,13,13,"CLEAR,CLOUDY,CLEAR,CLEAR,NIGHT_OVERCAST,NIGHT_BRIEF_SHOWERS,NIGHT_BRIEF_SHOWERS","Cross-shore,Cross-shore,Cross-shore,Cross-shore,Onshore,Onshore,Onshore",7
5842041f4e65fad6a7708983,2024_03_12,37.02350229387179,-122.21908,Davenport,3,3.0914285714285716,3.6914285714285713,13,13,"CLEAR,CLEAR,CLEAR,CLEAR,NIGHT_OVERCAST,NIGHT_BRIEF_SHOWERS,NIGHT_MOSTLY_CLOUDY","Cross-shore,Cross-shore,Cross-shore,Cross-shore,Cross-shore,Onshore,Onshore",7
5842041f4e65fad6a7708986,2024_03_12,36.94905295955728,-122.0611823912244,Natural Bridges,3,2.53,3.0228571428571427,13,13,"CLEAR,CLEAR,CLEAR,CLEAR,NIGHT_CLEAR,NIGHT_MOSTLY_CLEAR,NIGHT_MOSTLY_CLOUDY","Cross-shore,Cross-shore,Cross-shore,Cross-shore,Cross-shore,Cross-shore,Cross-shore",7
5842041f4e65fad6a7708987,2024_03_12,36.95154854910425,-122.0420693940968,Mitchell's Cove,4,1.9628571428571429,2.342857142857143,13,13,"CLEAR,CLEAR,CLEAR,CLEAR,NIGHT_CLEAR,NIGHT_CLEAR,NIGHT_MOSTLY_CLOUDY","Cross-shore,Cross-shore,Cross-shore,Cross-shore,Cross-shore,Cross-shore,Cross-shore",7
5842041f4e65fad6a770898a,2024_03_12,36.9572312370203,-121.98177,26th Ave,3,2.3514285714285714,2.8114285714285714,13,13,"CLEAR,CLEAR,CLEAR,CLEAR,NIGHT_CLEAR,NIGHT_CLEAR,NIGHT_MOSTLY_CLEAR","Onshore,Onshore,Onshore,Onshore,Onshore,Onshore,Onshore",7
5842041f4e65fad6a770898e,2024_03_12,36.91899972819882,-121.85536,Manresa,2.2857142857142856,2.5714285714285716,3.0714285714285716,13,13,"CLEAR,CLEAR,CLEAR,CLEAR,NIGHT_CLEAR,NIGHT_CLEAR,NIGHT_CLEAR","Onshore,Onshore,Onshore,Onshore,Onshore,Onshore,Onshore",7
5842041f4e65fad6a7708990,2024_03_12,34.45747731928454,-120.34242,The Ranch,3,1.0242857142857142,1.2857142857142858,13,13,"CLEAR,CLEAR,CLEAR,CLEAR,NIGHT_CLEAR,NIGHT_CLEAR,NIGHT_CLEAR","Offshore,Offshore,Offshore,Offshore,Offshore,Offshore,Offshore",7
5842041f4e65fad6a7708991,2024_03_12,34.50875036590315,-120.50348,Jalama,2.7142857142857144,1.8785714285714286,2.242857142857143,13,13,"CLEAR,CLEAR,CLEAR,CLEAR,NIGHT_CLEAR,NIGHT_MOSTLY_CLOUDY,NIGHT_MOSTLY_CLOUDY","Cross-shore,Cross-shore,Cross-shore,Cross-shore,Cross-shore,Cross-shore,Cross-shore",7
5842041f4e65fad6a7708996,2024_03_12,34.68700870220497,-120.6111611019887,Surf Beach,1.5714285714285714,4.712857142857143,5.632857142857143,13,13,"CLEAR,MOSTLY_CLOUDY,MOSTLY_CLOUDY,CLOUDY,NIGHT_CLOUDY,NIGHT_MOSTLY_CLOUDY,NIGHT_MOSTLY_CLOUDY","Onshore,Onshore,Onshore,Onshore,Onshore,Onshore,Onshore",7
5842041f4e65fad6a770899c,2024_03_12,35.5730538161116,-121.1143362345574,Moonstone,3,3.49,4.168571428571429,13,13,"CLEAR,CLEAR,CLEAR,CLEAR,NIGHT_CLEAR,NIGHT_CLEAR,NIGHT_CLEAR","Onshore,Onshore,Onshore,Onshore,Cross-shore,Onshore,Cross-shore",7
5842041f4e65fad6a770899d,2024_03_12,35.61533716776573,-121.1502053073914,Pico Creek,3,2.43,2.902857142857143,13,13,"CLEAR,CLEAR,CLEAR,CLEAR,NIGHT_CLOUDY,NIGHT_CLEAR,NIGHT_CLEAR","Onshore,Onshore,Onshore,Onshore,Cross-shore,Cross-shore,Cross-shore",7
5842041f4e65fad6a770899e,2024_03_12,35.56829031927379,-121.1120653023953,Santa Rosa Creek,2.5714285714285716,3.49,4.168571428571429,13,13,"CLEAR,CLEAR,CLEAR,MIST,NIGHT_CLEAR,NIGHT_CLEAR,NIGHT_CLEAR","Cross-shore,Cross-shore,Cross-shore,Cross-shore,Cross-shore,Cross-shore,Cross-shore",7
5842041f4e65fad6a77089a2,2024_03_12,35.44820114936284,-120.90715,"Cayucos Pier, Southside ",3,1.7,2.0314285714285716,13,13,"MOSTLY_CLOUDY,CLEAR,CLEAR,MIST,NIGHT_CLEAR,NIGHT_CLEAR,NIGHT_CLEAR","Cross-shore,Cross-shore,Cross-shore,Cross-shore,Cross-shore,Offshore,Offshore",7
5842041f4e65fad6a77089a4,2024_03_12,35.30143372628852,-120.877819239902,Cable Landing,2,4.701428571428571,5.617142857142857,13,13,"MOSTLY_CLOUDY,MOSTLY_CLOUDY,CLEAR,CLOUDY,NIGHT_MOSTLY_CLEAR,NIGHT_MOSTLY_CLEAR,NIGHT_MOSTLY_CLOUDY","Onshore,Onshore,Onshore,Onshore,Onshore,Onshore,Onshore",7
5842041f4e65fad6a77089a9,2024_03_12,35.61269103500222,-121.1480725356606,San Simeon,3,1.69,2.02,13,13,"CLEAR,CLEAR,CLEAR,CLEAR,NIGHT_CLEAR,NIGHT_CLEAR,NIGHT_CLEAR","Cross-shore,Cross-shore,Cross-shore,Cross-shore,Cross-shore,Cross-shore,Cross-shore",7
5842041f4e65fad6a77089ab,2024_03_12,35.1775325966252,-120.7341125142258,Avila Beach,2,0.2042857142857143,0.5071428571428571,14,14,"CLEAR,MOSTLY_CLOUDY,CLEAR,CLEAR,NIGHT_CLEAR,NIGHT_CLEAR,NIGHT_CLEAR","Cross-shore,Cross-shore,Cross-shore,Cross-shore,Offshore,Offshore,Offshore",7
5842041f4e65fad6a77089ac,2024_03_12,35.13877877884115,-120.64535,Pismo Beach Pier,2.8328571428571427,1.9105714285714286,2.4425142857142856,14,14,"CLEAR,MOSTLY_CLOUDY,CLEAR,MOSTLY_CLOUDY,NIGHT_MIST,NIGHT_MOSTLY_CLEAR,NIGHT_CLEAR","Cross-shore,Cross-shore,Cross-shore,Cross-shore,Cross-shore,Cross-shore,Cross-shore",7
5842041f4e65fad6a77089ad,2024_03_12,46.8907710233147,-124.12964,Westport/Olympic Peninsula,0.5714285714285714,3.25,3.8842857142857143,9,9,"RAIN,LIGHT_RAIN,DRIZZLE,DRIZZLE,NIGHT_OVERCAST,NIGHT_OVERCAST,NIGHT_HEAVY_SHOWERS","Cross-shore,Cross-shore,Cross-shore,Onshore,Onshore,Onshore,Onshore",7
5842041f4e65fad6a77089ae,2024_03_12,46.35185177248545,-124.06747,Long Beach Peninsula,0,3.9585714285714286,4.73,9,9,"RAIN,RAIN,LIGHT_RAIN,MOSTLY_CLOUDY,NIGHT_OVERCAST,NIGHT_MOSTLY_CLOUDY,NIGHT_CLOUDY","Cross-shore,Cross-shore,Cross-shore,Onshore,Onshore,Onshore,Onshore",7
5842041f4e65fad6a77089af,2024_03_12,47.90649175554033,-124.6370864743483,La Push,0.14285714285714285,3.1157142857142857,3.7257142857142855,9,9,"RAIN,RAIN,LIGHT_RAIN,SHOWERS,NIGHT_OVERCAST,NIGHT_MOSTLY_CLOUDY,NIGHT_CLEAR","Cross-shore,Onshore,Cross-shore,Onshore,Onshore,Onshore,Onshore",7
5842041f4e65fad6a77089b0,2024_03_12,42.04368239985442,-124.26828,Brookings Jetty,0.14285714285714285,1.49057,2.329017142857143,11,11,"RAIN,RAIN,DRIZZLE,DRIZZLE,NIGHT_OVERCAST,NIGHT_LIGHT_RAIN,NIGHT_RAIN","Onshore,Onshore,Onshore,Onshore,Onshore,Onshore,Onshore",7
5842041f4e65fad6a77089b1,2024_03_12,42.74071837900346,-124.4983727491047,Port Orford,0.14285714285714285,3.597142857142857,4.035714285714286,10,10,"RAIN,SHOWERS,BRIEF_SHOWERS,CLEAR,NIGHT_RAIN,NIGHT_LIGHT_RAIN,NIGHT_BRIEF_SHOWERS","Onshore,Onshore,Onshore,Onshore,Onshore,Onshore,Onshore",7
5842041f4e65fad6a77089b2,2024_03_12,44.01532689312291,-124.13865,Florence South Jetty,0.2857142857142857,4.074285714285715,4.867142857142857,10,10,"LIGHT_RAIN,LIGHT_RAIN,DRIZZLE,DRIZZLE,NIGHT_DRIZZLE,NIGHT_BRIEF_SHOWERS,NIGHT_MIST","Cross-shore,Cross-shore,Cross-shore,Onshore,Onshore,Onshore,Onshore",7
5842041f4e65fad6a77089b3,2024_03_12,42.41812540774362,-124.42945,Gold Beach South Jetty,0,3.5914285714285716,4.291428571428571,11,11,"RAIN,DRIZZLE,BRIEF_SHOWERS,BRIEF_SHOWERS,NIGHT_BRIEF_SHOWERS,NIGHT_DRIZZLE,NIGHT_BRIEF_SHOWERS","Onshore,Onshore,Onshore,Onshore,Onshore,Onshore,Onshore",7
5842041f4e65fad6a77089b4,2024_03_12,44.95857310226525,-124.0219017690976,Lincoln City,0.42857142857142855,3.86,4.614285714285714,10,10,"RAIN,RAIN,LIGHT_RAIN,SHOWERS,NIGHT_MOSTLY_CLOUDY,NIGHT_DRIZZLE,NIGHT_OVERCAST","Cross-shore,Cross-shore,Cross-shore,Cross-shore,Onshore,Onshore,Onshore",7
5842041f4e65fad6a77089b5,2024_03_12,44.63792761362982,-124.0657,Newport,0,4.281428571428571,5.101428571428571,10,10,"LIGHT_RAIN,LIGHT_RAIN,DRIZZLE,RAIN,NIGHT_BRIEF_SHOWERS,NIGHT_MOSTLY_CLOUDY,NIGHT_CLOUDY","Cross-shore,Cross-shore,Cross-shore,Onshore,Onshore,Onshore,Onshore",7
5842041f4e65fad6a77089b6,2024_03_12,45.61468496266301,-123.94643,Rockaway Beach,1,3.98,4.755714285714286,9,9,"LIGHT_RAIN,LIGHT_RAIN,LIGHT_RAIN,MOSTLY_CLOUDY,NIGHT_CLEAR,NIGHT_MIST,NIGHT_DRIZZLE","Cross-shore,Cross-shore,Cross-shore,Cross-shore,Onshore,Onshore,Onshore",7
5842041f4e65fad6a77089b7,2024_03_12,45.20252914186085,-123.96975,Pacific City,0,3.855714285714286,4.6085714285714285,10,10,"LIGHT_RAIN,LIGHT_RAIN,DRIZZLE,RAIN,NIGHT_MOSTLY_CLOUDY,NIGHT_LIGHT_RAIN,NIGHT_OVERCAST","Cross-shore,Onshore,Onshore,Onshore,Onshore,Onshore,Onshore",7
5842041f4e65fad6a77089b8,2024_03_12,45.88179930310263,-123.96681,Cannon Beach,0,3.9442857142857144,4.714285714285714,9,9,"LIGHT_RAIN,OVERCAST,LIGHT_RAIN,SHOWERS,NIGHT_BRIEF_SHOWERS,NIGHT_MOSTLY_CLOUDY,NIGHT_MOSTLY_CLOUDY","Cross-shore,Cross-shore,Cross-shore,Onshore,Onshore,Onshore,Onshore",7
5842041f4e65fad6a77089ba,2024_03_12,40.02528754746774,-124.06372,Shelter Cove,0.7142857142857143,1.0368685714285715,1.6201085714285715,12,12,"RAIN,LIGHT_RAIN,LIGHT_RAIN,RAIN,NIGHT_RAIN,NIGHT_LIGHT_RAIN,NIGHT_OVERCAST","Onshore,Onshore,Onshore,Onshore,Onshore,Onshore,Onshore",7
5842041f4e65fad6a77089bb,2024_03_12,40.76816197136951,-124.24248,Humboldt Harbor Entrance,0.42857142857142855,3.6671428571428573,4.381428571428572,11,11,"LIGHT_RAIN,LIGHT_RAIN,LIGHT_RAIN,LIGHT_RAIN,NIGHT_LIGHT_RAIN,NIGHT_DRIZZLE,NIGHT_OVERCAST","Cross-shore,Cross-shore,Cross-shore,Cross-shore,Cross-shore,Cross-shore,Cross-shore",7
5842041f4e65fad6a77089bc,2024_03_12,40.76684246920174,-124.23107,North Jetty,2,3.98,4.758571428571428,11,11,"LIGHT_RAIN,LIGHT_RAIN,LIGHT_RAIN,LIGHT_RAIN,NIGHT_CLEAR,NIGHT_OVERCAST,NIGHT_DRIZZLE","Cross-shore,Cross-shore,Offshore,Offshore,Offshore,Cross-shore,Cross-shore",7
5842041f4e65fad6a77089bd,2024_03_12,41.02731183893966,-124.1149972888982,Westhaven,1,5.06,6.048571428571428,11,11,"LIGHT_RAIN,LIGHT_RAIN,DRIZZLE,OVERCAST,NIGHT_LIGHT_RAIN,NIGHT_OVERCAST,NIGHT_OVERCAST","Cross-shore,Cross-shore,Cross-shore,Cross-shore,Cross-shore,Cross-shore,Cross-shore",7
5842041f4e65fad6a77089be,2024_03_12,41.13016238153297,-124.16466,Sue-meg,2,3.3057142857142856,3.9442857142857144,11,11,"LIGHT_RAIN,LIGHT_RAIN,LIGHT_RAIN,OVERCAST,NIGHT_OVERCAST,NIGHT_DRIZZLE,NIGHT_LIGHT_RAIN","Offshore,Offshore,Offshore,Offshore,Offshore,Offshore,Cross-shore",7
5842041f4e65fad6a77089bf,2024_03_12,37.8289474958188,-122.5376795097543,Fort Cronkite/Rodeo Beach,2,3.4657142857142857,4.144285714285714,13,13,"CLOUDY,CLEAR,MOSTLY_CLOUDY,MOSTLY_CLOUDY,NIGHT_MOSTLY_CLOUDY,NIGHT_CLOUDY,NIGHT_OVERCAST","Onshore,Onshore,Onshore,Onshore,Onshore,Onshore,Onshore",7
5842041f4e65fad6a77089c0,2024_03_12,41.74415759876137,-124.17717,South Beach CA,1,2.487142857142857,2.96,11,11,"RAIN,LIGHT_RAIN,LIGHT_RAIN,OVERCAST,NIGHT_OVERCAST,NIGHT_LIGHT_RAIN,NIGHT_OVERCAST","Onshore,Onshore,Onshore,Onshore,Onshore,Onshore,Onshore",7
5842041f4e65fad6a77089c1,2024_03_12,37.89801283969752,-122.64519,Stinson Beach,3,0.9871428571428572,1.18,13,13,"MIST,MIST,MIST,MIST,NIGHT_MIST,NIGHT_OVERCAST,NIGHT_DRIZZLE","Offshore,Offshore,Offshore,Offshore,Offshore,Cross-shore,Cross-shore",7
5842041f4e65fad6a77089c2,2024_03_12,37.90514516176495,-122.68151,Bolinas,3,0.76617,1.1971399999999999,13,13,"OVERCAST,OVERCAST,MIST,MIST,NIGHT_MOSTLY_CLOUDY,NIGHT_OVERCAST,NIGHT_DRIZZLE","Offshore,Offshore,Offshore,Offshore,Offshore,Offshore,Offshore",7
5842041f4e65fad6a77089c3,2024_03_12,38.04892513158693,-122.9892494965416,Point Reyes (north),2,4.351428571428571,5.201428571428571,13,13,"CLOUDY,CLOUDY,MOSTLY_CLOUDY,MOSTLY_CLOUDY,NIGHT_DRIZZLE,NIGHT_OVERCAST,NIGHT_OVERCAST","Cross-shore,Cross-shore,Cross-shore,Cross-shore,Offshore,Cross-shore,Cross-shore",7
5842041f4e65fad6a77089c6,2024_03_12,38.31088736605785,-123.0496777333731,Doran Beach,2.7142857142857144,1.1114285714285714,1.3585714285714285,12,12,"DRIZZLE,OVERCAST,BRIEF_SHOWERS,OVERCAST,NIGHT_MOSTLY_CLOUDY,NIGHT_OVERCAST,NIGHT_MOSTLY_CLOUDY","Cross-shore,Cross-shore,Onshore,Onshore,Onshore,Onshore,Onshore",7
5842041f4e65fad6a77089c7,2024_03_12,38.45077228660809,-123.13008,Russian Rivermouth,2,3.282857142857143,3.92,12,12,"MIST,OVERCAST,BRIEF_SHOWERS,LIGHT_RAIN,NIGHT_BRIEF_SHOWERS,NIGHT_LIGHT_RAIN,NIGHT_BRIEF_SHOWERS","Onshore,Onshore,Onshore,Onshore,Onshore,Onshore,Onshore",7
5842041f4e65fad6a77089c8,2024_03_12,38.35329968518107,-123.06906,Salmon Creek,2,3.19,3.8042857142857143,12,12,"MIST,CLEAR,MOSTLY_CLOUDY,OVERCAST,NIGHT_MOSTLY_CLOUDY,NIGHT_DRIZZLE,NIGHT_BRIEF_SHOWERS","Onshore,Onshore,Onshore,Onshore,Cross-shore,Onshore,Cross-shore",7
5842041f4e65fad6a77089c9,2024_03_12,38.6845180197959,-123.4322714291198,Black Point Beach,3.857142857142857,2.3642857142857143,2.8242857142857143,12,12,"CLOUDY,CLOUDY,DRIZZLE,OVERCAST,NIGHT_LIGHT_RAIN,NIGHT_LIGHT_RAIN,NIGHT_RAIN","Cross-shore,Cross-shore,Cross-shore,Offshore,Offshore,Offshore,Offshore",7
5842041f4e65fad6a77089ca,2024_03_12,43.251076,-70.59144,Ogunquit,2,0.4059714285714286,0.7509857142857143,4,3,"NIGHT_CLEAR,NIGHT_CLEAR,NIGHT_CLEAR,NIGHT_CLEAR,NIGHT_CLEAR,NIGHT_CLEAR,NIGHT_CLEAR","Offshore,Offshore,Offshore,Offshore,Offshore,Offshore,Offshore",7
5842041f4e65fad6a77089cb,2024_03_12,41.362631366305415,-71.48006772942608,Point Judith,1.3814285714285715,0.04512857142857144,0.3334714285714286,6,4,"NIGHT_CLEAR,NIGHT_CLEAR,NIGHT_CLEAR,NIGHT_CLEAR,NIGHT_CLEAR,NIGHT_CLEAR,NIGHT_CLEAR","Offshore,Offshore,Offshore,Offshore,Offshore,Offshore,Offshore",7
5842041f4e65fad6a77089cd,2024_03_12,41.422678090954726,-71.45413,Monahan's - Narragansett,1,0.20972714285714286,0.3277,5,5,"NIGHT_CLEAR,NIGHT_CLEAR,NIGHT_CLEAR,NIGHT_CLEAR,NIGHT_CLEAR,NIGHT_CLEAR,NIGHT_CLEAR","Offshore,Offshore,Offshore,Offshore,Offshore,Offshore,Offshore",7
5842041f4e65fad6a77089ce,2024_03_12,41.469,-71.293,Ruggles - Newport,0.5714285714285714,0.26177142857142854,0.4090214285714286,5,5,"NIGHT_CLEAR,NIGHT_CLEAR,NIGHT_CLEAR,NIGHT_CLEAR,NIGHT_CLEAR,NIGHT_CLEAR,NIGHT_CLEAR","Offshore,Offshore,Offshore,Offshore,Offshore,Offshore,Cross-shore",7
5842041f4e65fad6a77089cf,2024_03_12,43.175394,-70.606351,Short Sands Beach,1,0.45142857142857146,0.7571428571428571,5,5,"NIGHT_CLEAR,NIGHT_CLEAR,NIGHT_CLEAR,NIGHT_CLEAR,NIGHT_CLEAR,NIGHT_CLEAR,NIGHT_CLEAR","Offshore,Offshore,Offshore,Offshore,Offshore,Offshore,Offshore",7
5842041f4e65fad6a77089d0,2024_03_12,41.487408,-71.29017,First Beach,1,0.012857142857142857,0.3,5,5,"NIGHT_CLEAR,NIGHT_CLEAR,NIGHT_CLEAR,NIGHT_CLEAR,NIGHT_CLEAR,NIGHT_CLEAR,NIGHT_CLEAR","Offshore,Offshore,Offshore,Offshore,Offshore,Offshore,Offshore",7
5842041f4e65fad6a77089d1,2024_03_12,42.27916830233153,-70.86498,Nantasket Beach,0,0.22870000000000001,0.5384714285714286,4,3,"NIGHT_CLEAR,NIGHT_CLEAR,NIGHT_CLEAR,NIGHT_CLEAR,NIGHT_CLEAR,NIGHT_CLEAR,NIGHT_CLEAR","Cross-shore,Cross-shore,Cross-shore,Cross-shore,Cross-shore,Cross-shore,Cross-shore",7
5842041f4e65fad6a77089d2,2024_03_12,41.817,-69.935,Cape Cod,1.5714285714285714,0.9299999999999999,1.2328571428571429,5,5,"NIGHT_CLEAR,NIGHT_CLEAR,NIGHT_CLEAR,NIGHT_CLEAR,NIGHT_CLEAR,NIGHT_CLEAR,NIGHT_CLEAR","Offshore,Offshore,Offshore,Offshore,Offshore,Offshore,Offshore",7
5842041f4e65fad6a77089d3,2024_03_12,42.22055448975661,-70.70634873403819,Egypt Beach,1,0.37285714285714283,0.6785714285714286,5,5,"NIGHT_CLEAR,NIGHT_CLEAR,NIGHT_CLEAR,NIGHT_CLEAR,NIGHT_CLEAR,NIGHT_CLEAR,NIGHT_CLEAR","Offshore,Offshore,Offshore,Offshore,Offshore,Offshore,Offshore",7
5842041f4e65fad6a77089d4,2024_03_12,41.48739647744607,-71.25723,Second Beach,0.7142857142857143,0.22395142857142858,0.3832625,6,4,"NIGHT_CLEAR,NIGHT_CLEAR,NIGHT_CLEAR,NIGHT_CLEAR,NIGHT_CLEAR,NIGHT_CLEAR,NIGHT_CLEAR","Cross-shore,Cross-shore,Cross-shore,Cross-shore,Cross-shore,Cross-shore,Cross-shore",7
5842041f4e65fad6a77089d5,2024_03_12,42.964,-70.769,Fox Hill,2,0.34704285714285715,0.6825285714285714,4,3,"NIGHT_CLEAR,NIGHT_CLEAR,NIGHT_CLEAR,NIGHT_CLEAR,NIGHT_CLEAR,NIGHT_CLEAR,NIGHT_CLEAR","Offshore,Offshore,Offshore,Offshore,Offshore,Offshore,Offshore",7
5842041f4e65fad6a77089d6,2024_03_12,42.991359,-70.75149,Straws Point,1.5714285714285714,0.35132857142857143,0.6543142857142857,4,3,"NIGHT_CLEAR,NIGHT_CLEAR,NIGHT_CLEAR,NIGHT_CLEAR,NIGHT_CLEAR,NIGHT_CLEAR,NIGHT_CLEAR","Offshore,Offshore,Offshore,Offshore,Offshore,Offshore,Offshore",7
5842041f4e65fad6a77089d7,2024_03_12,42.946,-70.786,Plaice Cove,2,0.34704285714285715,0.6811,4,3,"NIGHT_CLEAR,NIGHT_CLEAR,NIGHT_CLEAR,NIGHT_CLEAR,NIGHT_CLEAR,NIGHT_CLEAR,NIGHT_CLEAR","Offshore,Offshore,Offshore,Offshore,Offshore,Offshore,Offshore",7
5842041f4e65fad6a77089d9,2024_03_12,42.911574,-70.80831,The Main Beach,2.3814285714285712,0.48770166666666664,0.7810805952380953,4,3,"NIGHT_CLEAR,NIGHT_CLEAR,NIGHT_CLEAR,NIGHT_CLEAR,NIGHT_CLEAR,NIGHT_CLEAR,NIGHT_CLEAR","Offshore,Offshore,Offshore,Offshore,Offshore,Offshore,Offshore",7
5842041f4e65fad6a77089da,2024_03_12,42.97583846220203,-70.764,Sawyer's Beach,1.2857142857142858,0.2566857142857143,0.5611,4,3,"NIGHT_CLEAR,NIGHT_CLEAR,NIGHT_CLEAR,NIGHT_CLEAR,NIGHT_CLEAR,NIGHT_CLEAR,NIGHT_CLEAR","Offshore,Offshore,Offshore,Offshore,Offshore,Offshore,Offshore",7
5842041f4e65fad6a77089db,2024_03_12,42.97,-70.77,Rye on the Rocks / 5-0's,2.3814285714285712,0.4758233333333334,0.7796058333333333,4,3,"NIGHT_CLEAR,NIGHT_CLEAR,NIGHT_CLEAR,NIGHT_CLEAR,NIGHT_CLEAR,NIGHT_CLEAR,NIGHT_CLEAR","Offshore,Offshore,Offshore,Offshore,Offshore,Offshore,Offshore",7
5842041f4e65fad6a77089dc,2024_03_12,43.55902946610303,-70.27795,Higgins Beach,2.3328571428571427,0.3611619047619048,0.6695333333333333,4,3,"NIGHT_CLEAR,NIGHT_CLEAR,NIGHT_CLEAR,NIGHT_CLEAR,NIGHT_CLEAR,NIGHT_CLEAR,NIGHT_CLEAR","Offshore,Offshore,Offshore,Offshore,Offshore,Offshore,Offshore",7
5842041f4e65fad6a77089dd,2024_03_12,43.302676,-70.5652,Wells Beach,2,0.39775714285714286,0.7374142857142857,4,3,"NIGHT_CLEAR,NIGHT_CLEAR,NIGHT_CLEAR,NIGHT_CLEAR,NIGHT_CLEAR,NIGHT_CLEAR,NIGHT_CLEAR","Offshore,Offshore,Offshore,Offshore,Offshore,Offshore,Offshore",7
5842041f4e65fad6a77089de,2024_03_12,43.545359,-70.30479,Scarborough Beach State Park,2,0.5665553571428571,0.9138189285714285,4,3,"NIGHT_CLEAR,NIGHT_CLEAR,NIGHT_CLEAR,NIGHT_CLEAR,NIGHT_CLEAR,NIGHT_CLEAR,NIGHT_CLEAR","Offshore,Offshore,Offshore,Offshore,Offshore,Offshore,Offshore",7
5842041f4e65fad6a77089df,2024_03_12,43.514481,-70.372146,Old Orchard Beach,2.3328571428571427,0.38020952380952383,0.6814380952380952,4,3,"NIGHT_CLEAR,NIGHT_CLEAR,NIGHT_CLEAR,NIGHT_CLEAR,NIGHT_CLEAR,NIGHT_CLEAR,NIGHT_CLEAR","Offshore,Offshore,Offshore,Offshore,Offshore,Offshore,Offshore",7
5842041f4e65fad6a77089e0,2024_03_12,43.34711,-70.48165,Gooch's Beach,1,0.3832428571428571,0.6890857142857143,4,3,"NIGHT_CLEAR,NIGHT_CLEAR,NIGHT_CLEAR,NIGHT_CLEAR,NIGHT_CLEAR,NIGHT_CLEAR,NIGHT_CLEAR","Offshore,Offshore,Offshore,Offshore,Offshore,Offshore,Offshore",7
5842041f4e65fad6a77089e2,2024_03_12,40.58433,-73.62953,Lido Beach,0.42857142857142855,0.0014285714285714218,0.30584285714285714,7,6,"NIGHT_CLEAR,NIGHT_CLEAR,NIGHT_CLEAR,NIGHT_CLEAR,NIGHT_CLEAR,NIGHT_CLEAR,NIGHT_CLEAR","Cross-shore,Cross-shore,Cross-shore,Cross-shore,Cross-shore,Cross-shore,Cross-shore",7
5842041f4e65fad6a77089e3,2024_03_12,43.163135,-70.61689,Long Sands Beach,2.357142857142857,0.4152130952380953,0.7249579761904762,4,3,"NIGHT_CLEAR,NIGHT_CLEAR,NIGHT_CLEAR,NIGHT_CLEAR,NIGHT_CLEAR,NIGHT_CLEAR,NIGHT_CLEAR","Offshore,Offshore,Offshore,Offshore,Offshore,Offshore,Offshore",7
5842041f4e65fad6a77089e4,2024_03_12,40.61695351251805,-73.39376,Gilgo Beach,0.14285714285714285,0.06714285714285714,0.3754857142857143,5,4,"NIGHT_CLEAR,NIGHT_CLEAR,NIGHT_CLEAR,NIGHT_CLEAR,NIGHT_CLEAR,NIGHT_CLEAR,NIGHT_CLEAR","Cross-shore,Cross-shore,Cross-shore,Cross-shore,Cross-shore,Cross-shore,Cross-shore",7
5842041f4e65fad6a77089e5,2024_03_12,40.62530081928036,-73.23827,Robert Moses,0,0.16857142857142857,0.47285714285714286,6,6,"NIGHT_CLEAR,NIGHT_CLEAR,NIGHT_CLEAR,NIGHT_CLEAR,NIGHT_CLEAR,NIGHT_CLEAR,NIGHT_CLEAR","Cross-shore,Cross-shore,Cross-shore,Cross-shore,Cross-shore,Cross-shore,Cross-shore",7
5842041f4e65fad6a77089e6,2024_03_12,40.64313317632791,-73.15727,Fire Island,0.2857142857142857,0.12285714285714286,0.42857142857142855,6,6,"NIGHT_CLEAR,NIGHT_CLEAR,NIGHT_CLEAR,NIGHT_CLEAR,NIGHT_CLEAR,NIGHT_CLEAR,NIGHT_CLEAR","Cross-shore,Cross-shore,Cross-shore,Cross-shore,Cross-shore,Cross-shore,Cross-shore",7
5842041f4e65fad6a77089e8,2024_03_12,40.76653118828782,-72.74579619372713,Cupsogue,1,0.3557142857142857,0.6585714285714286,6,6,"NIGHT_CLEAR,NIGHT_CLEAR,NIGHT_CLEAR,NIGHT_CLEAR,NIGHT_CLEAR,NIGHT_CLEAR,NIGHT_CLEAR","Cross-shore,Cross-shore,Cross-shore,Cross-shore,Cross-shore,Cross-shore,Cross-shore",7
5842041f4e65fad6a77089e9,2024_03_12,42.9376373334092,-70.79141,The Wall ,2.12,0.4978369047619048,0.7969238095238095,4,3,"NIGHT_CLEAR,NIGHT_CLEAR,NIGHT_CLEAR,NIGHT_CLEAR,NIGHT_CLEAR,NIGHT_CLEAR,NIGHT_CLEAR","Offshore,Offshore,Offshore,Offshore,Offshore,Offshore,Offshore",7
5842041f4e65fad6a77089ea,2024_03_12,40.887088,-72.33856,Flys,1,0.2885714285714286,0.5928571428571429,6,6,"NIGHT_CLEAR,NIGHT_CLEAR,NIGHT_CLEAR,NIGHT_CLEAR,NIGHT_CLEAR,NIGHT_CLEAR,NIGHT_CLEAR","Cross-shore,Cross-shore,Cross-shore,Cross-shore,Cross-shore,Cross-shore,Cross-shore",7
5842041f4e65fad6a77089eb,2024_03_12,41.0389266436591,-71.91068529316958,Trailer Park,1,0.38889392857142857,0.6464778571428572,5,4,"NIGHT_CLEAR,NIGHT_CLEAR,NIGHT_CLEAR,NIGHT_CLEAR,NIGHT_CLEAR,NIGHT_CLEAR,NIGHT_CLEAR","Offshore,Offshore,Offshore,Offshore,Cross-shore,Cross-shore,Cross-shore",7
5842041f4e65fad6a77089ec,2024_03_12,41.039505402729105,-71.9142,Ditch Plains,0.42857142857142855,0.3125157142857143,0.48830142857142855,6,6,"NIGHT_CLEAR,NIGHT_CLEAR,NIGHT_CLEAR,NIGHT_CLEAR,NIGHT_CLEAR,NIGHT_CLEAR,NIGHT_CLEAR","Offshore,Offshore,Offshore,Offshore,Offshore,Offshore,Offshore",7
5842041f4e65fad6a77089ee,2024_03_12,40.57633275206492,-73.56895305108567,"West End, Jones Beach",0,0.10821428571428574,0.40977142857142856,7,6,"NIGHT_CLEAR,NIGHT_CLEAR,NIGHT_CLEAR,NIGHT_CLEAR,NIGHT_CLEAR,NIGHT_CLEAR,NIGHT_CLEAR","Cross-shore,Cross-shore,Cross-shore,Cross-shore,Cross-shore,Cross-shore,Cross-shore",7
5842041f4e65fad6a77089f1,2024_03_12,41.038286691230795,-71.91991567611694,Poles,0.2857142857142857,0.3854225,0.5994571428571429,5,4,"NIGHT_CLEAR,NIGHT_CLEAR,NIGHT_CLEAR,NIGHT_CLEAR,NIGHT_CLEAR,NIGHT_CLEAR,NIGHT_CLEAR","Offshore,Offshore,Offshore,Offshore,Cross-shore,Cross-shore,Cross-shore",7
5842041f4e65fad6a77089f3,2024_03_12,40.84077769766295,-72.47989493724765,The Bowl,1,0.37857142857142856,0.6857142857142857,6,6,"NIGHT_CLEAR,NIGHT_CLEAR,NIGHT_CLEAR,NIGHT_CLEAR,NIGHT_CLEAR,NIGHT_CLEAR,NIGHT_CLEAR","Cross-shore,Cross-shore,Cross-shore,Cross-shore,Cross-shore,Cross-shore,Cross-shore",7
5842041f4e65fad6a77089f4,2024_03_12,40.94235535243154,-72.19286,Main Beach,0.7142857142857143,0.24334285714285717,0.5516857142857143,13,12,"NIGHT_CLEAR,NIGHT_CLEAR,NIGHT_CLEAR,NIGHT_CLEAR,NIGHT_CLEAR,NIGHT_CLEAR,NIGHT_CLEAR","Cross-shore,Cross-shore,Cross-shore,Cross-shore,Cross-shore,Cross-shore,Cross-shore",7
5842041f4e65fad6a77089f5,2024_03_12,40.58270702399518,-73.67251552079799,Laurelton Blvd.,1,0.30402214285714285,0.5045071428571428,7,6,"NIGHT_CLEAR,NIGHT_CLEAR,NIGHT_CLEAR,NIGHT_CLEAR,NIGHT_CLEAR,NIGHT_CLEAR,NIGHT_CLEAR","Onshore,Onshore,Onshore,Onshore,Cross-shore,Onshore,Onshore",7
5842041f4e65fad6a77089f6,2024_03_12,41.033752854071416,-71.93695522488403,Terrace,0,0.19012857142857145,0.49561428571428573,5,4,"NIGHT_CLEAR,NIGHT_CLEAR,NIGHT_CLEAR,NIGHT_CLEAR,NIGHT_CLEAR,NIGHT_CLEAR,NIGHT_CLEAR","Offshore,Offshore,Offshore,Offshore,Cross-shore,Cross-shore,Cross-shore",7
5842041f4e65fad6a77089f7,2024_03_12,40.83372943645748,-72.50426173210144,K Road,1,0.4442857142857143,0.7485714285714286,6,6,"NIGHT_CLEAR,NIGHT_CLEAR,NIGHT_CLEAR,NIGHT_CLEAR,NIGHT_CLEAR,NIGHT_CLEAR,NIGHT_CLEAR","Offshore,Offshore,Offshore,Offshore,Offshore,Cross-shore,Cross-shore",7
5842041f4e65fad6a77089f8,2024_03_12,40.58456099581507,-73.80730032920837,84th Street,0.35714285714285715,-0.027500000000000004,0.21405714285714286,7,6,"NIGHT_CLEAR,NIGHT_CLEAR,NIGHT_CLEAR,NIGHT_CLEAR,NIGHT_CLEAR,NIGHT_CLEAR,NIGHT_CLEAR","Cross-shore,Cross-shore,Cross-shore,Cross-shore,Cross-shore,Cross-shore,Cross-shore",7
5842041f4e65fad6a77089fa,2024_03_12,40.1319,-74.02788,Sea Girt,1,-0.0325,0.23441428571428571,7,6,"NIGHT_CLEAR,NIGHT_CLEAR,NIGHT_CLEAR,NIGHT_CLEAR,NIGHT_CLEAR,NIGHT_CLEAR,NIGHT_CLEAR","Offshore,Offshore,Offshore,Offshore,Offshore,Offshore,Offshore",7
5842041f4e65fad6a77089fb,2024_03_12,40.54698301868125,-73.9268,Breezy Point,0,0,0.26857142857142857,7,7,"NIGHT_CLEAR,NIGHT_CLEAR,NIGHT_CLEAR,NIGHT_CLEAR,NIGHT_CLEAR,NIGHT_CLEAR,NIGHT_CLEAR","Cross-shore,Cross-shore,Cross-shore,Cross-shore,Cross-shore,Cross-shore,Cross-shore",7
5842041f4e65fad6a77089fc,2024_03_12,40.152504,-74.021383,Spring Lake,1,-0.03357142857142857,0.24655714285714286,7,6,"NIGHT_CLEAR,NIGHT_CLEAR,NIGHT_CLEAR,NIGHT_CLEAR,NIGHT_CLEAR,NIGHT_CLEAR,NIGHT_CLEAR","Offshore,Offshore,Offshore,Offshore,Offshore,Offshore,Offshore",7
5842041f4e65fad6a77089fd,2024_03_12,40.591277,-73.770792,30th - 39th Streets,1,-0.012500000000000002,0.19870000000000002,7,6,"NIGHT_CLEAR,NIGHT_CLEAR,NIGHT_CLEAR,NIGHT_CLEAR,NIGHT_CLEAR,NIGHT_CLEAR,NIGHT_CLEAR","Cross-shore,Cross-shore,Cross-shore,Cross-shore,Cross-shore,Cross-shore,Cross-shore",7
5842041f4e65fad6a77089fe,2024_03_12,40.18834955871439,-74.00860982500222,Avon,1,-0.03142857142857143,0.2615571428571429,7,6,"NIGHT_CLEAR,NIGHT_CLEAR,NIGHT_CLEAR,NIGHT_CLEAR,NIGHT_CLEAR,NIGHT_CLEAR,NIGHT_CLEAR","Offshore,Offshore,Offshore,Offshore,Offshore,Offshore,Offshore",7
5842041f4e65fad6a77089ff,2024_03_12,40.1974229100932,-74.00650533798255,Bradley Beach,1,-0.031071428571428573,0.2501285714285714,7,6,"NIGHT_CLEAR,NIGHT_CLEAR,NIGHT_CLEAR,NIGHT_CLEAR,NIGHT_CLEAR,NIGHT_CLEAR,NIGHT_CLEAR","Offshore,Offshore,Offshore,Offshore,Offshore,Offshore,Offshore",7
5842041f4e65fad6a7708a01,2024_03_12,40.17202,-74.01503,"16th Ave., Belmar",1,-0.0175,0.22691428571428574,7,6,"NIGHT_CLEAR,NIGHT_CLEAR,NIGHT_CLEAR,NIGHT_CLEAR,NIGHT_CLEAR,NIGHT_CLEAR,NIGHT_CLEAR","Offshore,Offshore,Offshore,Offshore,Offshore,Offshore,Offshore",7
5842041f4e65fad6a7708a02,2024_03_12,40.217443,-73.99982,Asbury Park,1,-0.03357142857142857,0.24334285714285717,7,6,"NIGHT_CLEAR,NIGHT_CLEAR,NIGHT_CLEAR,NIGHT_CLEAR,NIGHT_CLEAR,NIGHT_CLEAR,NIGHT_CLEAR","Offshore,Offshore,Offshore,Offshore,Offshore,Offshore,Offshore",7
5842041f4e65fad6a7708a03,2024_03_12,40.229841,-73.996782,Loch Arbour and Deal,1,-0.030000000000000002,0.22834285714285715,7,6,"NIGHT_CLEAR,NIGHT_CLEAR,NIGHT_CLEAR,NIGHT_CLEAR,NIGHT_CLEAR,NIGHT_CLEAR,NIGHT_CLEAR","Offshore,Offshore,Offshore,Offshore,Offshore,Offshore,Offshore",7
5842041f4e65fad6a7708a05,2024_03_12,40.41754,-73.97935,Sandy Hook,0,0,0.1,7,7,"NIGHT_CLEAR,NIGHT_CLEAR,NIGHT_CLEAR,NIGHT_CLEAR,NIGHT_CLEAR,NIGHT_CLEAR,NIGHT_CLEAR","Offshore,Offshore,Offshore,Offshore,Offshore,Offshore,Offshore",7
5842041f4e65fad6a7708a06,2024_03_12,39.36353,-74.40873,Crystals,0.42857142857142855,0.14852428571428572,0.30826857142857145,8,6,"NIGHT_CLEAR,NIGHT_CLEAR,NIGHT_CLEAR,NIGHT_CLEAR,NIGHT_CLEAR,NIGHT_CLEAR,NIGHT_CLEAR","Offshore,Offshore,Offshore,Offshore,Offshore,Offshore,Offshore",7
5842041f4e65fad6a7708a07,2024_03_12,39.31443,-74.51863,32nd Street,1.3814285714285715,0.17243535714285715,0.3456289285714286,8,6,"NIGHT_CLEAR,NIGHT_CLEAR,NIGHT_CLEAR,NIGHT_CLEAR,NIGHT_CLEAR,NIGHT_CLEAR,NIGHT_CLEAR","Offshore,Offshore,Offshore,Offshore,Offshore,Offshore,Offshore",7
5842041f4e65fad6a7708a08,2024_03_12,39.327688,-74.49524,Margate Pier Northside,1.3814285714285715,0.17243535714285715,0.3456289285714286,8,6,"NIGHT_CLEAR,NIGHT_CLEAR,NIGHT_CLEAR,NIGHT_CLEAR,NIGHT_CLEAR,NIGHT_CLEAR,NIGHT_CLEAR","Offshore,Offshore,Offshore,Offshore,Offshore,Offshore,Offshore",7
5842041f4e65fad6a7708a09,2024_03_12,39.336276,-74.47782,Ventnor Pier,0.7142857142857143,0.16540285714285713,0.33464357142857143,8,6,"NIGHT_CLEAR,NIGHT_CLEAR,NIGHT_CLEAR,NIGHT_CLEAR,NIGHT_CLEAR,NIGHT_CLEAR,NIGHT_CLEAR","Offshore,Offshore,Offshore,Offshore,Offshore,Offshore,Offshore",7
5842041f4e65fad6a7708a0a,2024_03_12,39.35929751441085,-74.41683,States Avenue,0.42857142857142855,0.14852428571428572,0.30826857142857145,8,6,"NIGHT_CLEAR,NIGHT_CLEAR,NIGHT_CLEAR,NIGHT_CLEAR,NIGHT_CLEAR,NIGHT_CLEAR,NIGHT_CLEAR","Offshore,Offshore,Offshore,Offshore,Offshore,Offshore,Offshore",7
5842041f4e65fad6a7708a0b,2024_03_12,39.37274173278517,-74.40454,Brigantine Jetty,0,0.11554214285714284,0.2567332142857143,8,6,"NIGHT_CLEAR,NIGHT_CLEAR,NIGHT_CLEAR,NIGHT_CLEAR,NIGHT_CLEAR,NIGHT_CLEAR,NIGHT_CLEAR","Offshore,Offshore,Offshore,Offshore,Offshore,Offshore,Offshore",7
5842041f4e65fad6a7708a0c,2024_03_12,39.356505,-74.42263,South Carolina Avenue,0,0.11553357142857142,0.2567189285714286,8,6,"NIGHT_CLEAR,NIGHT_CLEAR,NIGHT_CLEAR,NIGHT_CLEAR,NIGHT_CLEAR,NIGHT_CLEAR,NIGHT_CLEAR","Offshore,Offshore,Offshore,Offshore,Offshore,Offshore,Offshore",7
5842041f4e65fad6a7708a0d,2024_03_12,39.413485,-74.35476,14th Street North,1,0.010714285714285706,0.3190571428571429,8,6,"NIGHT_CLEAR,NIGHT_CLEAR,NIGHT_CLEAR,NIGHT_CLEAR,NIGHT_CLEAR,NIGHT_CLEAR,NIGHT_CLEAR","Offshore,Offshore,Offshore,Offshore,Offshore,Offshore,Offshore",7
5842041f4e65fad6a7708a0e,2024_03_12,39.531319,-74.263252,The Wooden Jetty,1.3814285714285715,0.18876999999999997,0.39777535714285717,8,6,"NIGHT_CLEAR,NIGHT_CLEAR,NIGHT_CLEAR,NIGHT_CLEAR,NIGHT_CLEAR,NIGHT_CLEAR,NIGHT_CLEAR","Offshore,Offshore,Offshore,Offshore,Offshore,Offshore,Offshore",7
5842041f4e65fad6a7708a0f,2024_03_12,39.552472,-74.24344,Holyoke,1.3814285714285715,0.17124071428571427,0.34376964285714284,8,6,"NIGHT_CLEAR,NIGHT_CLEAR,NIGHT_CLEAR,NIGHT_CLEAR,NIGHT_CLEAR,NIGHT_CLEAR,NIGHT_CLEAR","Offshore,Offshore,Offshore,Offshore,Offshore,Offshore,Offshore",7
5842041f4e65fad6a7708a10,2024_03_12,39.692364,-74.14068,Hudson Ave.,1.3814285714285715,-0.036071428571428574,0.24262857142857144,8,6,"NIGHT_CLEAR,NIGHT_CLEAR,NIGHT_CLEAR,NIGHT_CLEAR,NIGHT_CLEAR,NIGHT_CLEAR,NIGHT_CLEAR","Offshore,Offshore,Offshore,Offshore,Offshore,Offshore,Offshore",7
5842041f4e65fad6a7708a11,2024_03_12,39.79614,-74.09248,Island Beach State Park,1,0.006071428571428572,0.30870000000000003,7,6,"NIGHT_CLEAR,NIGHT_CLEAR,NIGHT_CLEAR,NIGHT_CLEAR,NIGHT_CLEAR,NIGHT_CLEAR,NIGHT_CLEAR","Offshore,Offshore,Offshore,Offshore,Offshore,Offshore,Offshore",7
5842041f4e65fad6a7708a12,2024_03_12,39.91813588078152,-74.07527,Seaside Park,1,-0.03321428571428572,0.2551285714285714,7,6,"NIGHT_CLEAR,NIGHT_CLEAR,NIGHT_CLEAR,NIGHT_CLEAR,NIGHT_CLEAR,NIGHT_CLEAR,NIGHT_CLEAR","Offshore,Offshore,Offshore,Offshore,Offshore,Offshore,Offshore",7
5842041f4e65fad6a7708a14,2024_03_12,39.946638,-74.06884,Seaside Heights,1,3.5714285714284955e-4,0.3044142857142857,7,6,"NIGHT_CLEAR,NIGHT_CLEAR,NIGHT_CLEAR,NIGHT_CLEAR,NIGHT_CLEAR,NIGHT_CLEAR,NIGHT_CLEAR","Offshore,Offshore,Offshore,Offshore,Offshore,Offshore,Offshore",7
5842041f4e65fad6a7708a15,2024_03_12,39.95745637606704,-74.06736,Ortley Beach,1,-0.027500000000000004,0.24262857142857144,7,6,"NIGHT_CLEAR,NIGHT_CLEAR,NIGHT_CLEAR,NIGHT_CLEAR,NIGHT_CLEAR,NIGHT_CLEAR,NIGHT_CLEAR","Offshore,Offshore,Offshore,Offshore,Offshore,Offshore,Offshore",7
5842041f4e65fad6a7708a16,2024_03_12,39.98313468342945,-74.06265685577506,Lavallette,1,-0.03178571428571429,0.2569142857142857,7,6,"NIGHT_CLEAR,NIGHT_CLEAR,NIGHT_CLEAR,NIGHT_CLEAR,NIGHT_CLEAR,NIGHT_CLEAR,NIGHT_CLEAR","Offshore,Offshore,Offshore,Offshore,Offshore,Offshore,Offshore",7
5842041f4e65fad6a7708a17,2024_03_12,40.0699319967757,-74.04144910856634,Bay Head,1,-0.032857142857142856,0.26262857142857143,7,6,"NIGHT_CLEAR,NIGHT_CLEAR,NIGHT_CLEAR,NIGHT_CLEAR,NIGHT_CLEAR,NIGHT_CLEAR,NIGHT_CLEAR","Offshore,Offshore,Offshore,Offshore,Offshore,Offshore,Offshore",7
5842041f4e65fad6a7708a18,2024_03_12,40.094041,-74.034859,Jenkinson's,1,-0.03499999999999999,0.2590571428571429,7,6,"NIGHT_CLEAR,NIGHT_CLEAR,NIGHT_CLEAR,NIGHT_CLEAR,NIGHT_CLEAR,NIGHT_CLEAR,NIGHT_CLEAR","Offshore,Offshore,Offshore,Offshore,Offshore,Offshore,Offshore",7
5842041f4e65fad6a7708a1a,2024_03_12,38.148058,-75.17704,Assateague,1,0.01607142857142856,0.3190571428571429,8,7,"CLEAR,NIGHT_CLEAR,NIGHT_CLEAR,NIGHT_CLEAR,NIGHT_CLEAR,NIGHT_CLEAR,NIGHT_CLEAR","Offshore,Offshore,Offshore,Offshore,Offshore,Offshore,Offshore",7
5842041f4e65fad6a7708a1b,2024_03_12,38.33889038664497,-75.08017670566352,North End to Ocean City Inlet,1,0.0024999999999999974,0.3026285714285714,8,7,"CLEAR,NIGHT_CLEAR,NIGHT_CLEAR,NIGHT_CLEAR,NIGHT_CLEAR,NIGHT_CLEAR,NIGHT_CLEAR","Offshore,Offshore,Offshore,Offshore,Offshore,Offshore,Offshore",7
5842041f4e65fad6a7708a1c,2024_03_12,38.603993,-75.06271,Indian River Inlet,0.8571428571428571,0.23530964285714284,0.4438728571428572,8,7,"CLEAR,NIGHT_CLEAR,NIGHT_CLEAR,NIGHT_CLEAR,NIGHT_CLEAR,NIGHT_CLEAR,NIGHT_CLEAR","Offshore,Offshore,Offshore,Offshore,Offshore,Offshore,Offshore",7
5842041f4e65fad6a7708a1d,2024_03_12,38.460477,-75.052069,Fenwick Island,1,-0.025714285714285717,0.2554857142857143,8,7,"CLEAR,NIGHT_CLEAR,NIGHT_CLEAR,NIGHT_CLEAR,NIGHT_CLEAR,NIGHT_CLEAR,NIGHT_CLEAR","Offshore,Offshore,Offshore,Offshore,Offshore,Offshore,Offshore",7
5842041f4e65fad6a7708a1e,2024_03_12,38.538767,-75.05619,Bethany Beach,1,0.23425357142857145,0.4422207142857143,8,7,"CLEAR,NIGHT_CLEAR,NIGHT_CLEAR,NIGHT_CLEAR,NIGHT_CLEAR,NIGHT_CLEAR,NIGHT_CLEAR","Offshore,Offshore,Offshore,Offshore,Offshore,Offshore,Offshore",7
5842041f4e65fad6a7708a1f,2024_03_12,38.697657,-75.075951,Dewey Beach,1,-0.007500000000000001,0.2294142857142857,8,7,"CLEAR,NIGHT_CLEAR,NIGHT_CLEAR,NIGHT_CLEAR,NIGHT_CLEAR,NIGHT_CLEAR,NIGHT_CLEAR","Offshore,Offshore,Offshore,Offshore,Offshore,Offshore,Offshore",7
5842041f4e65fad6a7708a20,2024_03_12,38.75034741676525,-75.08194,Gordons Pond,0.8571428571428571,0.1584882142857143,0.3238378571428571,8,7,"CLEAR,NIGHT_CLEAR,NIGHT_CLEAR,NIGHT_CLEAR,NIGHT_CLEAR,NIGHT_CLEAR,NIGHT_CLEAR","Offshore,Offshore,Offshore,Offshore,Offshore,Offshore,Offshore",7
5842041f4e65fad6a7708a21,2024_03_12,38.767837,-75.082841,Naval Jetties,1,-0.0175,0.2497714285714286,8,7,"CLEAR,NIGHT_CLEAR,NIGHT_CLEAR,NIGHT_CLEAR,NIGHT_CLEAR,NIGHT_CLEAR,NIGHT_CLEAR","Offshore,Offshore,Offshore,Offshore,Offshore,Offshore,Offshore",7
5842041f4e65fad6a7708a22,2024_03_12,36.81735875786576,-75.96624,Camp Pendleton,0.3585714285714286,0.033333333333333305,0.3383190476190477,9,8,"CLEAR,NIGHT_CLEAR,NIGHT_CLEAR,NIGHT_CLEAR,NIGHT_CLEAR,NIGHT_CLEAR,NIGHT_CLEAR","Offshore,Offshore,Offshore,Offshore,Offshore,Offshore,Offshore",7
5842041f4e65fad6a7708a23,2024_03_12,36.9102212316428,-75.98732471466064,North End,0,-0.0325,0.26224761904761906,9,8,"CLEAR,NIGHT_CLEAR,NIGHT_CLEAR,NIGHT_CLEAR,NIGHT_CLEAR,NIGHT_CLEAR,NIGHT_CLEAR","Offshore,Offshore,Offshore,Offshore,Offshore,Offshore,Offshore",7
5842041f4e65fad6a7708a24,2024_03_12,36.737117517621314,-75.93923719853362,Sandbridge Beach,1.5714285714285714,0.012142857142857136,0.31655714285714287,9,8,"CLEAR,NIGHT_CLEAR,NIGHT_CLEAR,NIGHT_CLEAR,NIGHT_CLEAR,NIGHT_CLEAR,NIGHT_CLEAR","Offshore,Offshore,Offshore,Offshore,Offshore,Offshore,Offshore",7
5842041f4e65fad6a7708a26,2024_03_12,36.818257440557794,-75.96666,Croatan to Pendleton,0.38142857142857145,-0.038690476190476185,0.27308095238095237,9,8,"CLEAR,NIGHT_CLEAR,NIGHT_CLEAR,NIGHT_CLEAR,NIGHT_CLEAR,NIGHT_CLEAR,NIGHT_CLEAR","Offshore,Offshore,Offshore,Offshore,Offshore,Offshore,Offshore",7
5842041f4e65fad6a7708a27,2024_03_12,36.84318777204769,-75.9719,South End,1,-0.014642857142857154,0.28691428571428573,9,8,"CLEAR,NIGHT_CLEAR,NIGHT_CLEAR,NIGHT_CLEAR,NIGHT_CLEAR,NIGHT_CLEAR,NIGHT_CLEAR","Offshore,Offshore,Offshore,Offshore,Offshore,Offshore,Offshore",7
5842041f4e65fad6a7708a28,2024_03_12,37.08612627584661,-75.976121638199,Fishermans Island,0,0,0.06742857142857143,10,10,"CLEAR,NIGHT_CLEAR,NIGHT_CLEAR,NIGHT_CLEAR,NIGHT_CLEAR,NIGHT_CLEAR,NIGHT_CLEAR","Offshore,Offshore,Offshore,Offshore,Offshore,Offshore,Offshore",7
5842041f4e65fad6a7708a38,2024_03_12,35.254619418229026,-75.52074,Cape Hatteras Lighthouse,2.737142857142857,0.6548846428571429,1.0518321428571429,11,9,"CLEAR,NIGHT_CLEAR,NIGHT_CLEAR,NIGHT_CLEAR,NIGHT_CLEAR,NIGHT_CLEAR,NIGHT_CLEAR","Offshore,Offshore,Offshore,Offshore,Offshore,Offshore,Offshore",7
5842041f4e65fad6a7708a3a,2024_03_12,35.54572934093336,-75.46477,Waves and Salvo,3,0.9511,1.2361142857142857,10,9,"CLEAR,NIGHT_CLEAR,NIGHT_CLEAR,NIGHT_CLEAR,NIGHT_CLEAR,NIGHT_CLEAR,NIGHT_CLEAR","Offshore,Offshore,Offshore,Offshore,Offshore,Offshore,Offshore",7
5842041f4e65fad6a7708a3b,2024_03_12,35.22565892751075,-75.63606,Frisco,1,0.1806857142857143,0.47955714285714285,13,11,"CLEAR,NIGHT_CLEAR,NIGHT_CLEAR,NIGHT_CLEAR,NIGHT_CLEAR,NIGHT_CLEAR,NIGHT_CLEAR","Offshore,Cross-shore,Cross-shore,Cross-shore,Cross-shore,Cross-shore,Cross-shore",7
5842041f4e65fad6a7708a3c,2024_03_12,35.13086,-75.90591,Ocracoke,0.5714285714285714,0.21639142857142857,0.33811285714285716,15,15,"CLEAR,NIGHT_CLEAR,NIGHT_CLEAR,NIGHT_CLEAR,NIGHT_CLEAR,NIGHT_CLEAR,NIGHT_CLEAR","Offshore,Offshore,Offshore,Offshore,Offshore,Offshore,Offshore",7
5842041f4e65fad6a7708a3d,2024_03_12,35.34721340158342,-75.50084,Avon Pier,3,0.8676333333333334,1.1970714285714286,10,9,"CLEAR,NIGHT_CLEAR,NIGHT_CLEAR,NIGHT_CLEAR,NIGHT_CLEAR,NIGHT_CLEAR,NIGHT_CLEAR","Offshore,Offshore,Offshore,Offshore,Offshore,Offshore,Offshore",7
5842041f4e65fad6a7708a3f,2024_03_12,35.71680821253768,-75.49243,Pea Island,2.857142857142857,0.7257142857142858,0.9942857142857143,11,11,"CLEAR,NIGHT_CLEAR,NIGHT_CLEAR,NIGHT_CLEAR,NIGHT_CLEAR,NIGHT_CLEAR,NIGHT_CLEAR","Offshore,Offshore,Offshore,Offshore,Offshore,Offshore,Offshore",7
5842041f4e65fad6a7708a40,2024_03_12,35.97427620657821,-75.62984,Nags Head Pier,1.6428571428571428,0.618704761904762,0.9499571428571428,9,8,"CLEAR,NIGHT_CLEAR,NIGHT_CLEAR,NIGHT_CLEAR,NIGHT_CLEAR,NIGHT_CLEAR,NIGHT_CLEAR","Offshore,Offshore,Offshore,Offshore,Offshore,Offshore,Offshore",7
5842041f4e65fad6a7708a41,2024_03_12,36.0439998039079,-75.67288,Avalon Pier,2,0.5221714285714286,0.8305142857142858,9,8,"CLEAR,NIGHT_CLEAR,NIGHT_CLEAR,NIGHT_CLEAR,NIGHT_CLEAR,NIGHT_CLEAR,NIGHT_CLEAR","Offshore,Offshore,Offshore,Offshore,Offshore,Offshore,Offshore",7
5842041f4e65fad6a7708a42,2024_03_12,36.03043116489792,-75.66413,First Street,1.6185714285714285,0.5010761904761906,0.8729285714285714,9,8,"CLEAR,NIGHT_CLEAR,NIGHT_CLEAR,NIGHT_CLEAR,NIGHT_CLEAR,NIGHT_CLEAR,NIGHT_CLEAR","Offshore,Offshore,Offshore,Offshore,Offshore,Offshore,Offshore",7
5842041f4e65fad6a7708a43,2024_03_12,36.06829910590498,-75.6899,Old Station/Laundromats,2,0.47788571428571425,0.8083714285714286,9,8,"CLEAR,NIGHT_CLEAR,NIGHT_CLEAR,NIGHT_CLEAR,NIGHT_CLEAR,NIGHT_CLEAR,NIGHT_CLEAR","Offshore,Offshore,Offshore,Offshore,Offshore,Offshore,Offshore",7
5842041f4e65fad6a7708a44,2024_03_12,36.10126676607491,-75.71107462163894,Kitty Hawk Pier,1.6185714285714285,0.6204904761904763,0.9246,9,8,"CLEAR,NIGHT_CLEAR,NIGHT_CLEAR,NIGHT_CLEAR,NIGHT_CLEAR,NIGHT_CLEAR,NIGHT_CLEAR","Offshore,Offshore,Offshore,Offshore,Offshore,Offshore,Offshore",7
5842041f4e65fad6a7708a45,2024_03_12,36.18220630068973,-75.75013580649097,Duck Pier,1.1428571428571428,0.20441428571428572,0.5099,9,8,"CLEAR,NIGHT_CLEAR,NIGHT_CLEAR,NIGHT_CLEAR,NIGHT_CLEAR,NIGHT_CLEAR,NIGHT_CLEAR","Offshore,Offshore,Offshore,Offshore,Offshore,Offshore,Offshore",7
5842041f4e65fad6a7708a46,2024_03_12,36.37660668125033,-75.82409701687456,Corolla,1,0.1847714285714286,0.49168571428571434,9,8,"CLEAR,NIGHT_CLEAR,NIGHT_CLEAR,NIGHT_CLEAR,NIGHT_CLEAR,NIGHT_CLEAR,NIGHT_CLEAR","Offshore,Offshore,Offshore,Offshore,Offshore,Offshore,Offshore",7
5842041f4e65fad6a7708a47,2024_03_12,33.90373404124834,-78.08241431707907,Oak Island,1,0,0.24571428571428572,14,14,"CLEAR,NIGHT_CLEAR,NIGHT_CLEAR,NIGHT_CLEAR,NIGHT_CLEAR,NIGHT_CLEAR,NIGHT_CLEAR","Cross-shore,Cross-shore,Cross-shore,Cross-shore,Cross-shore,Cross-shore,Cross-shore",7
5842041f4e65fad6a7708a48,2024_03_12,33.91108837766468,-78.29653,South Brunswick Beaches,1,0.16057714285714286,0.25090142857142855,15,15,"CLEAR,NIGHT_CLEAR,NIGHT_CLEAR,NIGHT_CLEAR,NIGHT_CLEAR,NIGHT_CLEAR,NIGHT_CLEAR","Offshore,Cross-shore,Offshore,Cross-shore,Cross-shore,Cross-shore,Cross-shore",7
5842041f4e65fad6a7708a49,2024_03_12,34.05683595651973,-77.88128,Carolina Beach Pier,1.9757142857142858,0.20986666666666667,0.5137142857142858,14,13,"CLEAR,NIGHT_CLEAR,NIGHT_CLEAR,NIGHT_CLEAR,NIGHT_CLEAR,NIGHT_CLEAR,NIGHT_CLEAR","Offshore,Offshore,Offshore,Offshore,Offshore,Offshore,Offshore",7
5842041f4e65fad6a7708a4a,2024_03_12,33.96841191816696,-77.9180242565498,Fort Fisher,1.9514285714285715,0.20320000000000002,0.5113333333333333,14,13,"CLEAR,NIGHT_CLEAR,NIGHT_CLEAR,NIGHT_CLEAR,NIGHT_CLEAR,NIGHT_CLEAR,NIGHT_CLEAR","Offshore,Offshore,Offshore,Offshore,Offshore,Offshore,Offshore",7
5842041f4e65fad6a7708a4b,2024_03_12,34.46776662988774,-77.47083191635772,Topsail Beach,0.5714285714285714,0,0.26477142857142855,14,13,"CLEAR,NIGHT_CLEAR,NIGHT_CLEAR,NIGHT_CLEAR,NIGHT_CLEAR,NIGHT_CLEAR,NIGHT_CLEAR","Offshore,Offshore,Offshore,Cross-shore,Cross-shore,Cross-shore,Cross-shore",7
5842041f4e65fad6a7708a4c,2024_03_12,34.69270354752445,-76.82854854446575,Iron Steamer,0,-0.006666666666666666,0.25161904761904763,14,13,"CLEAR,NIGHT_CLEAR,NIGHT_CLEAR,NIGHT_CLEAR,NIGHT_CLEAR,NIGHT_CLEAR,NIGHT_CLEAR","Cross-shore,Cross-shore,Cross-shore,Cross-shore,Cross-shore,Cross-shore,Cross-shore",7
5842041f4e65fad6a7708a4f,2024_03_12,30.85132684893727,-81.42283496231143,Cumberland Island,1.4285714285714286,0.2542857142857143,0.5614285714285714,17,17,"CLEAR,NIGHT_CLEAR,NIGHT_CLEAR,NIGHT_CLEAR,NIGHT_CLEAR,NIGHT_CLEAR,NIGHT_CLEAR","Cross-shore,Onshore,Onshore,Onshore,Onshore,Onshore,Onshore",7
5842041f4e65fad6a7708a50,2024_03_12,34.686741128540874,-76.47516712138378,Cape Lookout National Seashore,1,0.07142857142857142,0.38,16,16,"CLEAR,NIGHT_CLEAR,NIGHT_CLEAR,NIGHT_CLEAR,NIGHT_CLEAR,NIGHT_CLEAR,NIGHT_CLEAR","Offshore,Offshore,Offshore,Offshore,Offshore,Offshore,Offshore",7
5842041f4e65fad6a7708a51,2024_03_12,31.10585419260024,-81.40422767604812,Jekyll Island,1,0.06571428571428571,0.37285714285714283,16,16,"CLEAR,NIGHT_CLEAR,NIGHT_CLEAR,NIGHT_CLEAR,NIGHT_CLEAR,NIGHT_CLEAR,NIGHT_MOSTLY_CLEAR","Onshore,Onshore,Onshore,Onshore,Onshore,Cross-shore,Cross-shore",7
5842041f4e65fad6a7708a52,2024_03_12,31.16212806376699,-81.32512426500224,Harbor Marker Buoys,1.7142857142857142,0.08,0.38571428571428573,16,16,"CLEAR,NIGHT_CLEAR,NIGHT_CLEAR,NIGHT_CLOUDY,NIGHT_CLEAR,NIGHT_CLEAR,NIGHT_CLEAR","Cross-shore,Cross-shore,Onshore,Onshore,Onshore,Onshore,Onshore",7
5842041f4e65fad6a7708a53,2024_03_12,31.20076299997009,-81.32629,Sea Island,1.2857142857142858,0.15857142857142859,0.4657142857142857,16,16,"CLEAR,NIGHT_CLEAR,NIGHT_CLEAR,NIGHT_CLEAR,NIGHT_CLEAR,NIGHT_CLEAR,NIGHT_CLEAR","Cross-shore,Cross-shore,Onshore,Onshore,Onshore,Onshore,Onshore",7
5842041f4e65fad6a7708a54,2024_03_12,31.13553222995767,-81.38457634790909,St. Simons Island,1.2857142857142858,0.12428571428571429,0.42857142857142855,16,16,"CLEAR,NIGHT_CLEAR,NIGHT_CLEAR,NIGHT_CLEAR,NIGHT_MOSTLY_CLOUDY,NIGHT_CLEAR,NIGHT_MOSTLY_CLEAR","Cross-shore,Cross-shore,Cross-shore,Onshore,Onshore,Onshore,Onshore",7
5842041f4e65fad6a7708a55,2024_03_12,31.33550077186516,-81.28383377408417,Wolf Island,1,0.015714285714285715,0.31857142857142856,16,16,"CLEAR,NIGHT_CLEAR,NIGHT_CLEAR,NIGHT_MOSTLY_CLOUDY,NIGHT_CLEAR,NIGHT_CLEAR,NIGHT_CLEAR","Onshore,Onshore,Onshore,Onshore,Onshore,Cross-shore,Cross-shore",7
5842041f4e65fad6a7708a56,2024_03_12,31.2704493877174,-81.27324039152315,Little St. Simons Island,1,0.08714285714285715,0.3914285714285714,16,16,"CLEAR,NIGHT_CLEAR,NIGHT_CLEAR,NIGHT_MOSTLY_CLOUDY,NIGHT_CLEAR,NIGHT_CLEAR,NIGHT_CLEAR","Onshore,Onshore,Onshore,Onshore,Onshore,Cross-shore,Cross-shore",7
5842041f4e65fad6a7708a57,2024_03_12,31.39261761368919,-81.26190520231917,Sapelo Island,1.2857142857142858,0.07142857142857142,0.3757142857142857,16,16,"CLEAR,NIGHT_CLEAR,NIGHT_CLEAR,NIGHT_CLEAR,NIGHT_CLEAR,NIGHT_CLEAR,NIGHT_CLEAR","Onshore,Onshore,Onshore,Onshore,Onshore,Cross-shore,Cross-shore",7
5842041f4e65fad6a7708a58,2024_03_12,34.42458783809001,-77.54492,Surf City Pier,1,0,0.27298571428571433,14,13,"CLEAR,NIGHT_CLEAR,NIGHT_CLEAR,NIGHT_CLEAR,NIGHT_CLEAR,NIGHT_CLEAR,NIGHT_CLEAR","Offshore,Offshore,Offshore,Offshore,Offshore,Offshore,Offshore",7
5842041f4e65fad6a7708a59,2024_03_12,31.4231993614213,-81.24725340591522,Cabretta Island,1.4285714285714286,0.06571428571428571,0.37285714285714283,16,16,"CLEAR,NIGHT_CLEAR,NIGHT_CLEAR,NIGHT_CLEAR,NIGHT_CLEAR,NIGHT_MOSTLY_CLEAR,NIGHT_CLEAR","Onshore,Onshore,Onshore,Onshore,Onshore,Cross-shore,Cross-shore",7
5842041f4e65fad6a7708a5a,2024_03_12,31.46684389030369,-81.2100056410468,Blackbeard Island,1.2857142857142858,0.07142857142857142,0.3757142857142857,16,16,"CLEAR,NIGHT_CLEAR,NIGHT_CLEAR,NIGHT_CLEAR,NIGHT_CLEAR,NIGHT_MOSTLY_CLOUDY,NIGHT_MOSTLY_CLOUDY","Onshore,Onshore,Onshore,Onshore,Onshore,Onshore,Onshore",7
5842041f4e65fad6a7708a5b,2024_03_12,31.85953587631629,-80.99031310336719,Wassaw Island/South End,0.2857142857142857,0,0.15,16,16,"CLEAR,NIGHT_CLEAR,NIGHT_CLEAR,NIGHT_CLEAR,NIGHT_CLEAR,NIGHT_MOSTLY_CLOUDY,NIGHT_CLEAR","Onshore,Onshore,Cross-shore,Cross-shore,Cross-shore,Cross-shore,Cross-shore",7
5842041f4e65fad6a7708a5c,2024_03_12,31.62535662342983,-81.13328352167974,St. Catherines Island,1.2857142857142858,0.03571428571428571,0.3414285714285714,16,16,"CLEAR,NIGHT_CLEAR,NIGHT_CLEAR,NIGHT_CLEAR,NIGHT_CLEAR,NIGHT_MOSTLY_CLOUDY,NIGHT_OVERCAST","Onshore,Onshore,Cross-shore,Cross-shore,Cross-shore,Cross-shore,Cross-shore",7
5842041f4e65fad6a7708a5d,2024_03_12,31.76502169596568,-81.07655443806622,Ossabaw Island,1,0.01,0.3142857142857143,16,16,"CLEAR,NIGHT_CLEAR,NIGHT_CLEAR,NIGHT_CLEAR,NIGHT_MOSTLY_CLEAR,NIGHT_CLEAR,NIGHT_CLEAR","Onshore,Onshore,Cross-shore,Cross-shore,Cross-shore,Cross-shore,Cross-shore",7
5842041f4e65fad6a7708a5e,2024_03_12,31.90593619092352,-80.93589231700857,Wassaw Island/North End,1,0.07857142857142857,0.3842857142857143,16,16,"CLEAR,NIGHT_CLEAR,NIGHT_CLEAR,NIGHT_CLEAR,NIGHT_CLEAR,NIGHT_CLEAR,NIGHT_CLEAR","Onshore,Onshore,Cross-shore,Cross-shore,Cross-shore,Cross-shore,Cross-shore",7
5842041f4e65fad6a7708a5f,2024_03_12,31.96738675414547,-80.86977980706155,Little Tybee Island,1,0,0.28714285714285714,16,16,"CLEAR,NIGHT_CLEAR,NIGHT_CLEAR,NIGHT_CLEAR,NIGHT_CLEAR,NIGHT_CLEAR,NIGHT_MOSTLY_CLEAR","Onshore,Onshore,Cross-shore,Cross-shore,Cross-shore,Cross-shore,Cross-shore",7
5842041f4e65fad6a7708a60,2024_03_12,31.9812255780179,-80.84773973467009,South Tybee Sandbars,1,0,0.25,16,16,"CLEAR,NIGHT_CLEAR,NIGHT_CLEAR,NIGHT_CLEAR,NIGHT_CLEAR,NIGHT_CLEAR,NIGHT_MOSTLY_CLEAR","Cross-shore,Cross-shore,Cross-shore,Cross-shore,Cross-shore,Offshore,Offshore",7
5842041f4e65fad6a7708a61,2024_03_12,32.01226,-80.83983,Sugar Shack,1,0,0.21,16,16,"CLEAR,NIGHT_CLEAR,NIGHT_CLEAR,NIGHT_CLEAR,NIGHT_CLEAR,NIGHT_CLEAR,NIGHT_MOSTLY_CLOUDY","Offshore,Offshore,Offshore,Offshore,Offshore,Offshore,Offshore",7
5842041f4e65fad6a7708a62,2024_03_12,31.98722842396969,-80.84773,18th St. Jetty,1,0.18392142857142857,0.2873742857142857,16,16,"CLEAR,NIGHT_CLEAR,NIGHT_CLEAR,NIGHT_CLEAR,NIGHT_CLEAR,NIGHT_CLEAR,NIGHT_MOSTLY_CLOUDY","Cross-shore,Cross-shore,Cross-shore,Offshore,Offshore,Offshore,Offshore",7
5842041f4e65fad6a7708a64,2024_03_12,34.013473721006676,-77.8991,"Alabama Ave., Kure Beach",1.7142857142857142,0.04285714285714286,0.3457142857142857,14,14,"CLEAR,NIGHT_CLEAR,NIGHT_CLEAR,NIGHT_CLEAR,NIGHT_CLEAR,NIGHT_CLEAR,NIGHT_CLEAR","Cross-shore,Cross-shore,Cross-shore,Cross-shore,Cross-shore,Cross-shore,Cross-shore",7
5842041f4e65fad6a7708a65,2024_03_12,34.20859853336924,-77.79293,"C Street, Wrightsville Beach",1.9757142857142858,0.20320000000000002,0.5108571428571429,14,13,"CLEAR,NIGHT_CLEAR,NIGHT_CLEAR,NIGHT_CLEAR,NIGHT_CLEAR,NIGHT_CLEAR,NIGHT_CLEAR","Offshore,Offshore,Offshore,Offshore,Offshore,Offshore,Offshore",7
5842041f4e65fad6a7708a66,2024_03_12,32.831,-79.71,Dewees Island,1,0,0.17857142857142858,16,16,"CLEAR,NIGHT_CLEAR,NIGHT_CLEAR,NIGHT_CLEAR,NIGHT_CLEAR,NIGHT_CLEAR,NIGHT_CLEAR","Offshore,Offshore,Offshore,Offshore,Offshore,Offshore,Offshore",7
5842041f4e65fad6a7708a67,2024_03_12,33.82924423172106,-78.62813,Cherry Grove Pier,0,0,0.31479999999999997,15,15,"CLEAR,NIGHT_CLEAR,NIGHT_CLEAR,NIGHT_CLEAR,NIGHT_CLEAR,NIGHT_CLEAR,NIGHT_CLEAR","Offshore,Offshore,Offshore,Offshore,Cross-shore,Offshore,Offshore",7
5842041f4e65fad6a7708a69,2024_03_12,34.27197439666496,-77.74050223196774,Figure Eight and Shell Islands,1.9757142857142858,0.2155809523809524,0.5132380952380953,14,13,"CLEAR,NIGHT_CLEAR,NIGHT_CLEAR,NIGHT_CLEAR,NIGHT_CLEAR,NIGHT_CLEAR,NIGHT_CLEAR","Offshore,Offshore,Offshore,Offshore,Offshore,Offshore,Offshore",7
5842041f4e65fad6a7708a6b,2024_03_12,33.49041958261793,-79.07666070599386,North End,1,0,0.17,16,16,"CLEAR,NIGHT_CLEAR,NIGHT_CLEAR,NIGHT_CLEAR,NIGHT_CLEAR,NIGHT_CLEAR,NIGHT_CLEAR","Offshore,Offshore,Offshore,Offshore,Offshore,Offshore,Offshore",7
5842041f4e65fad6a7708a6c,2024_03_12,33.39537062495087,-79.13835037835189,The South End,1,0,0.19,16,16,"CLEAR,NIGHT_CLEAR,NIGHT_CLEAR,NIGHT_CLEAR,NIGHT_CLEAR,NIGHT_CLEAR,NIGHT_CLEAR","Offshore,Offshore,Offshore,Offshore,Offshore,Offshore,Offshore",7
5842041f4e65fad6a7708a6d,2024_03_12,33.29001727666697,-79.17190003352977,North Island,1,0,0.19428571428571428,16,16,"CLEAR,NIGHT_CLEAR,NIGHT_CLEAR,NIGHT_CLEAR,NIGHT_CLEAR,NIGHT_CLEAR,NIGHT_CLEAR","Offshore,Offshore,Offshore,Offshore,Offshore,Offshore,Offshore",7
5842041f4e65fad6a7708a6e,2024_03_12,32.90929771158952,-79.57810400297359,Bull Island,1,0,0.2342857142857143,17,17,"CLEAR,NIGHT_CLEAR,NIGHT_CLEAR,NIGHT_CLEAR,NIGHT_CLEAR,NIGHT_CLEAR,NIGHT_CLEAR","Offshore,Offshore,Offshore,Offshore,Offshore,Offshore,Offshore",7
5842041f4e65fad6a7708a6f,2024_03_12,31.99153112815895,-80.84543050470074,Tybee Island Pier,0,0,0.14,16,16,"CLEAR,NIGHT_CLEAR,NIGHT_CLEAR,NIGHT_CLEAR,NIGHT_CLEAR,NIGHT_CLEAR,NIGHT_MOSTLY_CLOUDY","Cross-shore,Cross-shore,Cross-shore,Cross-shore,Cross-shore,Offshore,Offshore",7
5842041f4e65fad6a7708a70,2024_03_12,33.03478144356316,-79.35021028265125,Cape Romain,1,0,0.23,17,17,"CLEAR,NIGHT_CLEAR,NIGHT_CLEAR,NIGHT_CLEAR,NIGHT_CLEAR,NIGHT_CLEAR,NIGHT_CLEAR","Offshore,Offshore,Offshore,Offshore,Offshore,Offshore,Offshore",7
5842041f4e65fad6a7708a71,2024_03_12,33.43231073271028,-79.11789,The Pier,1,0.18569857142857144,0.29015285714285716,16,16,"CLEAR,NIGHT_CLEAR,NIGHT_CLEAR,NIGHT_CLEAR,NIGHT_CLEAR,NIGHT_CLEAR,NIGHT_CLEAR","Offshore,Offshore,Offshore,Offshore,Offshore,Offshore,Offshore",7
5842041f4e65fad6a7708a72,2024_03_12,33.45423621397969,-79.10497798178424,South Litchfield,1,0,0.2357142857142857,16,16,"CLEAR,NIGHT_CLEAR,NIGHT_CLEAR,NIGHT_CLEAR,NIGHT_CLEAR,NIGHT_CLEAR,NIGHT_CLEAR","Offshore,Offshore,Offshore,Offshore,Offshore,Offshore,Offshore",7
5842041f4e65fad6a7708a73,2024_03_12,34.19316590251396,-77.8045,Crystal Pier,1.9757142857142858,0.20320000000000002,0.5105,14,13,"CLEAR,NIGHT_CLEAR,NIGHT_CLEAR,NIGHT_CLEAR,NIGHT_CLEAR,NIGHT_CLEAR,NIGHT_CLEAR","Offshore,Offshore,Offshore,Offshore,Offshore,Offshore,Offshore",7
5842041f4e65fad6a7708a74,2024_03_12,33.68628680045124,-78.883460274301,Myrtle Beach,0,0,0.3048,15,15,"CLEAR,NIGHT_CLEAR,NIGHT_CLEAR,NIGHT_CLEAR,NIGHT_CLEAR,NIGHT_CLEAR,NIGHT_CLEAR","Offshore,Offshore,Offshore,Offshore,Offshore,Offshore,Offshore",7
5842041f4e65fad6a7708a75,2024_03_12,32.66166297145973,-79.91951806398808,10th Street,1,0,0.2357142857142857,16,16,"CLEAR,NIGHT_CLEAR,NIGHT_CLEAR,NIGHT_CLEAR,NIGHT_CLEAR,NIGHT_CLEAR,NIGHT_CLEAR","Offshore,Cross-shore,Cross-shore,Offshore,Cross-shore,Offshore,Offshore",7
5842041f4e65fad6a7708a76,2024_03_12,33.16729555197199,-79.19829236867845,South Island,1,0,0.22714285714285715,17,17,"CLEAR,NIGHT_CLEAR,NIGHT_CLEAR,NIGHT_CLEAR,NIGHT_CLEAR,NIGHT_CLEAR,NIGHT_CLEAR","Offshore,Offshore,Offshore,Offshore,Offshore,Offshore,Offshore",7
5842041f4e65fad6a7708a77,2024_03_12,32.595,-80.088,Kiawah Island/Seabrook Island,1,0,0.16714285714285715,16,16,"CLEAR,NIGHT_CLEAR,NIGHT_CLEAR,NIGHT_CLEAR,NIGHT_CLEAR,NIGHT_CLEAR,NIGHT_CLEAR","Onshore,Onshore,Onshore,Cross-shore,Cross-shore,Cross-shore,Cross-shore",7
5842041f4e65fad6a7708a78,2024_03_12,32.51356930575787,-80.28223,Edisto Beach,1,0.1502457142857143,0.23476,16,16,"CLEAR,NIGHT_CLEAR,NIGHT_CLEAR,NIGHT_CLEAR,NIGHT_CLEAR,NIGHT_CLEAR,NIGHT_CLEAR","Cross-shore,Cross-shore,Cross-shore,Cross-shore,Cross-shore,Cross-shore,Cross-shore",7
5842041f4e65fad6a7708a79,2024_03_12,32.366270751262,-80.43911,Hunting Island,1,0.16480857142857144,0.25751285714285715,16,16,"CLEAR,NIGHT_CLEAR,NIGHT_CLEAR,NIGHT_CLEAR,NIGHT_CLEAR,NIGHT_CLEAR,NIGHT_OVERCAST","Offshore,Offshore,Offshore,Offshore,Offshore,Offshore,Offshore",7
5842041f4e65fad6a7708a7a,2024_03_12,32.65337734408365,-79.93983,Folly Beach Pier,0,0,0.30813333333333337,16,14,"CLEAR,NIGHT_CLEAR,NIGHT_CLEAR,NIGHT_CLEAR,NIGHT_CLEAR,NIGHT_MOSTLY_CLOUDY,NIGHT_CLEAR","Cross-shore,Onshore,Onshore,Cross-shore,Onshore,Cross-shore,Cross-shore",7
5842041f4e65fad6a7708a7b,2024_03_12,33.41209545530049,-79.13026341393126,South Jetty,1,0,0.19,16,16,"CLEAR,NIGHT_CLEAR,NIGHT_CLEAR,NIGHT_CLEAR,NIGHT_CLEAR,NIGHT_CLEAR,NIGHT_CLEAR","Offshore,Offshore,Offshore,Offshore,Offshore,Offshore,Offshore",7
5842041f4e65fad6a7708a7c,2024_03_12,32.31115640606869,-80.48564,Fripp Island,1,0.15846714285714286,0.2476057142857143,16,16,"CLEAR,NIGHT_CLEAR,NIGHT_CLEAR,NIGHT_CLEAR,NIGHT_CLEAR,NIGHT_CLEAR,NIGHT_OVERCAST","Onshore,Onshore,Onshore,Cross-shore,Cross-shore,Cross-shore,Cross-shore",7
