_id,date,lat,lon,name,daily_mean_swell_rating,daily_mean_wave_height_min,daily_mean_wave_height_max,daily_mean_water_temperature_max,daily_mean_water_temperature_min,weather_per_timestamp,wind_per_timestamp,n_samples_per_day
5842041f4e65fad6a77087f9,2024_03_12,37.741668,-122.51038,South Ocean Beach,1.85375,3.8108125,4.5636624999999995,14,14,"CLOUDY,CLOUDY,CLEAR,CLEAR,NIGHT_MOSTLY_CLOUDY,NIGHT_MOSTLY_CLOUDY,NIGHT_OVERCAST,NIGHT_DRIZZLE","Onshore,Onshore,Onshore,Onshore,Onshore,Onshore,Cross-shore,Cross-shore",8
5842041f4e65fad6a7708801,2024_03_12,37.49142,-122.50428,Maverick's,NA,3.6970625,4.696395833333334,13,13,"OVERCAST,DRIZZLE,OVERCAST,MOSTLY_CLOUDY,NIGHT_MOSTLY_CLOUDY,NIGHT_MOSTLY_CLEAR,NIGHT_CLOUDY,NIGHT_OVERCAST","Onshore,Onshore,Onshore,Onshore,Onshore,Onshore,Onshore,Onshore",8
5842041f4e65fad6a7708804,2024_03_12,44.997,-124.018,Roads End,0.5,3.77625,4.5125,10,10,"RAIN,DRIZZLE,HEAVY_RAIN,SHOWERS,NIGHT_BRIEF_SHOWERS,NIGHT_OVERCAST,NIGHT_OVERCAST,NIGHT_OVERCAST","Cross-shore,Cross-shore,Cross-shore,Cross-shore,Onshore,Onshore,Onshore,Onshore",8
5842041f4e65fad6a7708805,2024_03_12,36.95188851423011,-122.02522,Steamer Lane,3.75,2.3128083333333334,3.1068166666666666,14,14,"CLEAR,CLEAR,CLEAR,CLEAR,NIGHT_CLEAR,NIGHT_CLEAR,NIGHT_MOSTLY_CLOUDY,NIGHT_MOSTLY_CLOUDY","Offshore,Offshore,Offshore,Offshore,Offshore,Offshore,Offshore,Offshore",8
5842041f4e65fad6a7708806,2024_03_12,36.95918781542251,-122.02489,Cowells,2.72875,0.4385791666666667,0.8796458333333333,14,14,"CLEAR,CLEAR,CLEAR,CLEAR,NIGHT_CLEAR,NIGHT_CLEAR,NIGHT_MOSTLY_CLOUDY,NIGHT_MOSTLY_CLOUDY","Offshore,Offshore,Offshore,Offshore,Offshore,Offshore,Offshore,Cross-shore",8
5842041f4e65fad6a7708807,2024_03_12,36.95468082526536,-121.97234,Pleasure Point,3.47875,1.9030958333333332,2.6698125,14,14,"CLOUDY,CLOUDY,CLEAR,CLEAR,NIGHT_CLEAR,NIGHT_CLEAR,NIGHT_MOSTLY_CLEAR,NIGHT_MOSTLY_CLOUDY","Cross-shore,Cross-shore,Cross-shore,Cross-shore,Cross-shore,Cross-shore,Cross-shore,Cross-shore",8
5842041f4e65fad6a770880a,2024_03_12,35.37815414378748,-120.86589,Morro Bay,2.85375,2.2834083333333335,2.841975,14,14,"MOSTLY_CLOUDY,MOSTLY_CLOUDY,CLEAR,CLOUDY,NIGHT_CLEAR,NIGHT_CLEAR,NIGHT_CLEAR,NIGHT_CLEAR","Onshore,Onshore,Onshore,Onshore,Onshore,Onshore,Onshore,Offshore",8
5842041f4e65fad6a770880b,2024_03_12,36.95782765000708,-121.9672887511276,Jack's,3.5,1.0590083333333333,1.4745541666666666,14,14,"CLOUDY,CLOUDY,CLEAR,CLEAR,NIGHT_CLEAR,NIGHT_CLEAR,NIGHT_MOSTLY_CLEAR,NIGHT_MOSTLY_CLOUDY","Cross-shore,Offshore,Offshore,Cross-shore,Offshore,Offshore,Offshore,Offshore",8
5842041f4e65fad6a770880d,2024_03_12,34.29982939936656,-119.3489016603669,Gold Coast Beachbreaks,1.625,0.46875,0.7725,14,14,"CLEAR,CLEAR,MOSTLY_CLEAR,MIST,NIGHT_CLEAR,NIGHT_CLEAR,NIGHT_CLEAR,NIGHT_CLEAR","Onshore,Onshore,Onshore,Onshore,Onshore,Onshore,Onshore,Cross-shore",8
5842041f4e65fad6a7708811,2024_03_12,34.245076,-119.26799,Ventura Harbor,2,1.3903591666666666,1.766035625,14,14,"CLEAR,MOSTLY_CLEAR,CLEAR,MIST,NIGHT_MOSTLY_CLEAR,NIGHT_CLEAR,NIGHT_CLEAR,NIGHT_CLEAR","Onshore,Onshore,Onshore,Onshore,Onshore,Onshore,Onshore,Onshore",8
5842041f4e65fad6a7708813,2024_03_12,34.051,-118.964,County Line,2.25,0.7685,1.1276875,15,15,"MOSTLY_CLEAR,MOSTLY_CLEAR,MOSTLY_CLEAR,NIGHT_MOSTLY_CLEAR,NIGHT_MIST,NIGHT_MIST,NIGHT_OVERCAST,NIGHT_MOSTLY_CLOUDY","Onshore,Onshore,Onshore,Onshore,Cross-shore,Cross-shore,Cross-shore,Cross-shore",8
5842041f4e65fad6a7708814,2024_03_12,34.37256264378892,-119.47797,Rincon,3,1.02375,1.23875,14,14,"CLEAR,MOSTLY_CLEAR,MOSTLY_CLEAR,CLEAR,NIGHT_CLEAR,NIGHT_CLEAR,NIGHT_CLEAR,NIGHT_CLEAR","Cross-shore,Cross-shore,Cross-shore,Cross-shore,Cross-shore,Cross-shore,Onshore,Onshore",8
5842041f4e65fad6a7708817,2024_03_12,34.03096101876324,-118.68109,Malibu Third Point,2.625,0.4325,0.74125,15,15,"MOSTLY_CLEAR,CLEAR,CLEAR,NIGHT_CLEAR,NIGHT_CLEAR,NIGHT_CLEAR,NIGHT_CLEAR,NIGHT_MIST","Cross-shore,Cross-shore,Offshore,Cross-shore,Offshore,Offshore,Cross-shore,Offshore",8
5842041f4e65fad6a7708819,2024_03_12,33.984079047970035,-118.47381591796875,Venice Beach,1.47875,0.84645,1.11405,14,14,"CLEAR,CLEAR,CLEAR,NIGHT_CLEAR,NIGHT_CLEAR,NIGHT_CLEAR,NIGHT_CLEAR,NIGHT_CLEAR","Cross-shore,Cross-shore,Cross-shore,Cross-shore,Cross-shore,Cross-shore,Onshore,Cross-shore",8
5842041f4e65fad6a770881e,2024_03_12,34.037508438646746,-118.58339846155594,Topanga Beach,2.375,0.5544375,0.8565,15,15,"MOSTLY_CLEAR,CLEAR,MOSTLY_CLEAR,NIGHT_CLEAR,NIGHT_MIST,NIGHT_CLEAR,NIGHT_CLEAR,NIGHT_MIST","Onshore,Onshore,Onshore,Onshore,Cross-shore,Cross-shore,Offshore,Cross-shore",8
5842041f4e65fad6a7708820,2024_03_12,33.73954373690184,-118.11414,Seal Beach Jetty,2,0.4625,0.7675000000000001,15,15,"CLEAR,CLEAR,CLEAR,NIGHT_MOSTLY_CLEAR,NIGHT_CLEAR,NIGHT_MOSTLY_CLEAR,NIGHT_CLEAR,NIGHT_MOSTLY_CLOUDY","Onshore,Onshore,Onshore,Onshore,Onshore,Onshore,Onshore,Onshore",8
5842041f4e65fad6a7708822,2024_03_12,33.72309983348433,-118.08078,Anderson Street,1.75,0.6025,0.91,15,15,"CLEAR,CLEAR,CLEAR,NIGHT_MOSTLY_CLEAR,NIGHT_MOSTLY_CLOUDY,NIGHT_MOSTLY_CLOUDY,NIGHT_MOSTLY_CLEAR,NIGHT_CLEAR","Onshore,Onshore,Onshore,Onshore,Onshore,Onshore,Onshore,Onshore",8
5842041f4e65fad6a7708827,2024_03_12,33.65574085629463,-118.00397,Huntington Beach Pier Northside,2,1.1311833333333332,1.445733333333333,15,15,"CLEAR,CLEAR,CLEAR,NIGHT_MOSTLY_CLEAR,NIGHT_CLEAR,NIGHT_CLEAR,NIGHT_MOSTLY_CLOUDY,NIGHT_MOSTLY_CLOUDY","Onshore,Onshore,Onshore,Onshore,Onshore,Onshore,Onshore,Onshore",8
5842041f4e65fad6a7708828,2024_03_12,34.272041739333,-119.2997646331,C St.,3,1.0523166666666668,1.3441,14,14,"MIST,MIST,CLEAR,MOSTLY_CLEAR,NIGHT_CLEAR,NIGHT_CLEAR,NIGHT_CLEAR,NIGHT_CLEAR","Cross-shore,Cross-shore,Cross-shore,Cross-shore,Cross-shore,Cross-shore,Cross-shore,Offshore",8
5842041f4e65fad6a770882a,2024_03_12,33.61555743705257,-117.93676,Newport Lower Jetties,2,0.55345,0.8619,15,15,"CLEAR,CLEAR,MOSTLY_CLEAR,NIGHT_CLEAR,NIGHT_MOSTLY_CLOUDY,NIGHT_CLEAR,NIGHT_MOSTLY_CLOUDY,NIGHT_MOSTLY_CLOUDY","Onshore,Onshore,Cross-shore,Onshore,Cross-shore,Onshore,Onshore,Cross-shore",8
5842041f4e65fad6a770882b,2024_03_12,33.5930302087,-117.88199,The Wedge,1.75,0.78098375,1.1504779166666668,17,17,"CLEAR,CLEAR,MOSTLY_CLEAR,NIGHT_CLEAR,NIGHT_CLEAR,NIGHT_MOSTLY_CLEAR,NIGHT_MOSTLY_CLOUDY,NIGHT_FOG","Onshore,Onshore,Cross-shore,Onshore,Onshore,Cross-shore,Onshore,Cross-shore",8
5842041f4e65fad6a770882c,2024_03_12,33.60577342582,-117.9315376281,Newport Beach Pier,2,0.45595,0.7644000000000001,15,15,"CLEAR,CLEAR,CLEAR,NIGHT_CLEAR,NIGHT_CLEAR,NIGHT_CLEAR,NIGHT_FOG,NIGHT_MOSTLY_CLOUDY","Onshore,Onshore,Cross-shore,Cross-shore,Cross-shore,Cross-shore,Cross-shore,Cross-shore",8
5842041f4e65fad6a770882e,2024_03_12,33.475793399792984,-117.72291,Salt Creek,3,1.0686833333333332,1.4578166666666665,15,15,"CLEAR,CLEAR,CLEAR,NIGHT_MOSTLY_CLOUDY,NIGHT_MOSTLY_CLOUDY,NIGHT_MOSTLY_CLOUDY,NIGHT_MOSTLY_CLOUDY,NIGHT_FOG","Onshore,Onshore,Onshore,Onshore,Onshore,Onshore,Onshore,Onshore",8
5842041f4e65fad6a7708830,2024_03_12,33.41800974113613,-117.61952,T-Street,3,1.0791,1.34865,16,16,"CLEAR,CLEAR,MOSTLY_CLEAR,NIGHT_CLEAR,NIGHT_CLEAR,NIGHT_MOSTLY_CLOUDY,NIGHT_MOSTLY_CLOUDY,NIGHT_MOSTLY_CLOUDY","Onshore,Onshore,Onshore,Cross-shore,Cross-shore,Cross-shore,Cross-shore,Onshore",8
5842041f4e65fad6a7708832,2024_03_12,33.202391008646,-117.39475,Oceanside Harbor,3,1.0153,1.3992,16,16,"CLEAR,CLEAR,CLEAR,NIGHT_CLEAR,NIGHT_MOSTLY_CLOUDY,NIGHT_MOSTLY_CLOUDY,NIGHT_MOSTLY_CLOUDY,NIGHT_OVERCAST","Onshore,Onshore,Onshore,Onshore,Onshore,Onshore,Onshore,Cross-shore",8
5842041f4e65fad6a7708835,2024_03_12,33.19477795952803,-117.38667,Oceanside Pier,2.75,1.0657166666666666,1.26665,16,16,"MOSTLY_CLOUDY,MOSTLY_CLOUDY,CLEAR,NIGHT_CLEAR,NIGHT_MOSTLY_CLOUDY,NIGHT_CLEAR,NIGHT_MOSTLY_CLOUDY,NIGHT_OVERCAST","Onshore,Onshore,Onshore,Onshore,Onshore,Onshore,Onshore,Cross-shore",8
5842041f4e65fad6a7708837,2024_03_12,33.14948100706,-117.35029,Tamarack,2.375,0.4475,0.7525,15,15,"MOSTLY_CLOUDY,CLEAR,CLEAR,NIGHT_CLEAR,NIGHT_CLOUDY,NIGHT_MOSTLY_CLOUDY,NIGHT_MOSTLY_CLOUDY,NIGHT_OVERCAST","Onshore,Onshore,Onshore,Cross-shore,Cross-shore,Cross-shore,Cross-shore,Cross-shore",8
5842041f4e65fad6a7708839,2024_03_12,32.865777159358856,-117.25614295356122,Scripps,1.77,1.0569666666666666,1.3687333333333334,16,16,"MOSTLY_CLOUDY,MOSTLY_CLOUDY,CLEAR,NIGHT_CLOUDY,NIGHT_CLOUDY,NIGHT_MOSTLY_CLOUDY,NIGHT_MOSTLY_CLOUDY,NIGHT_OVERCAST","Onshore,Onshore,Onshore,Onshore,Onshore,Onshore,Onshore,Onshore",8
5842041f4e65fad6a770883a,2024_03_12,32.813094,-117.27381,Birdrock,3.125,1.43125,1.71,16,16,"MOSTLY_CLOUDY,MOSTLY_CLOUDY,MOSTLY_CLOUDY,NIGHT_OVERCAST,NIGHT_MOSTLY_CLOUDY,NIGHT_MOSTLY_CLOUDY,NIGHT_MOSTLY_CLOUDY,NIGHT_MOSTLY_CLOUDY","Onshore,Cross-shore,Onshore,Cross-shore,Cross-shore,Offshore,Offshore,Offshore",8
5842041f4e65fad6a770883b,2024_03_12,32.877231,-117.25303,Blacks,2.5625,1.4311333333333334,1.938,16,16,"MOSTLY_CLOUDY,MOSTLY_CLOUDY,CLEAR,NIGHT_CLOUDY,NIGHT_CLOUDY,NIGHT_MOSTLY_CLOUDY,NIGHT_MOSTLY_CLOUDY,NIGHT_OVERCAST","Onshore,Onshore,Onshore,Onshore,Onshore,Onshore,Onshore,Onshore",8
5842041f4e65fad6a770883c,2024_03_12,32.82978974229765,-117.28161740727381,Windansea,2.77,1.2836333333333332,1.7709166666666667,15,15,"MOSTLY_CLOUDY,CLEAR,CLEAR,NIGHT_OVERCAST,NIGHT_OVERCAST,NIGHT_MOSTLY_CLOUDY,NIGHT_MOSTLY_CLOUDY,NIGHT_MOSTLY_CLOUDY","Onshore,Onshore,Onshore,Onshore,Onshore,Onshore,Onshore,Onshore",8
5842041f4e65fad6a770883d,2024_03_12,32.838278,-117.28396,Horseshoe,3,1.49375,1.7875,16,16,"MOSTLY_CLOUDY,CLEAR,CLEAR,NIGHT_OVERCAST,NIGHT_MOSTLY_CLOUDY,NIGHT_MOSTLY_CLOUDY,NIGHT_MOSTLY_CLOUDY,NIGHT_MOSTLY_CLOUDY","Onshore,Onshore,Onshore,Onshore,Cross-shore,Offshore,Offshore,Offshore",8
5842041f4e65fad6a770883f,2024_03_12,32.75034717673179,-117.25337,Ocean Beach,2.145,1.3207166666666668,1.8125833333333334,15,15,"CLEAR,CLEAR,CLEAR,NIGHT_CLOUDY,NIGHT_CLOUDY,NIGHT_MOSTLY_CLOUDY,NIGHT_MOSTLY_CLOUDY,NIGHT_OVERCAST","Onshore,Onshore,Onshore,Onshore,Onshore,Cross-shore,Cross-shore,Onshore",8
5842041f4e65fad6a7708840,2024_03_12,32.73693,-117.25718,Sunset Cliffs,3,1.49625,1.7925,15,15,"MOSTLY_CLEAR,CLEAR,CLEAR,NIGHT_OVERCAST,NIGHT_OVERCAST,NIGHT_MOSTLY_CLOUDY,NIGHT_OVERCAST,NIGHT_OVERCAST","Onshore,Onshore,Onshore,Onshore,Onshore,Cross-shore,Cross-shore,Onshore",8
5842041f4e65fad6a7708841,2024_03_12,32.796582258728826,-117.25779,Pacific Beach,2.645,1.3328,1.7471166666666667,15,15,"MOSTLY_CLOUDY,CLEAR,CLEAR,NIGHT_CLOUDY,NIGHT_MOSTLY_CLOUDY,NIGHT_MOSTLY_CLOUDY,NIGHT_MOSTLY_CLOUDY,NIGHT_DRIZZLE","Onshore,Cross-shore,Onshore,Cross-shore,Cross-shore,Offshore,Offshore,Offshore",8
5842041f4e65fad6a7708842,2024_03_12,32.776636,-117.25514,Mission Beach,2.4987500000000002,1.3398833333333333,1.7512833333333333,15,15,"MOSTLY_CLOUDY,CLEAR,CLEAR,NIGHT_CLOUDY,NIGHT_CLOUDY,NIGHT_MOSTLY_CLOUDY,NIGHT_MOSTLY_CLOUDY,NIGHT_DRIZZLE","Onshore,Onshore,Onshore,Onshore,Onshore,Offshore,Offshore,Offshore",8
5842041f4e65fad6a7708844,2024_03_12,32.577195519016,-117.13475,Imperial Beach Pier,2.375,1.6099999999999999,1.925,15,15,"MOSTLY_CLEAR,CLEAR,CLEAR,NIGHT_CLOUDY,NIGHT_CLOUDY,NIGHT_OVERCAST,NIGHT_OVERCAST,NIGHT_MOSTLY_CLOUDY","Onshore,Onshore,Onshore,Onshore,Onshore,Cross-shore,Cross-shore,Cross-shore",8
5842041f4e65fad6a770884a,2024_03_12,42.88678181061,-70.80843,Seabrook,1.875,0.5383450000000001,0.832829375,4,3,"NIGHT_CLEAR,NIGHT_CLEAR,NIGHT_CLEAR,NIGHT_CLEAR,NIGHT_CLEAR,NIGHT_CLEAR,NIGHT_CLEAR,NIGHT_CLEAR","Offshore,Offshore,Offshore,Offshore,Offshore,Offshore,Offshore,Offshore",8
5842041f4e65fad6a770884e,2024_03_12,41.434181432898335,-71.45312118111178,Narragansett,1.33375,0.0413625,0.336475,6,4,"NIGHT_CLEAR,NIGHT_CLEAR,NIGHT_CLEAR,NIGHT_CLEAR,NIGHT_CLEAR,NIGHT_CLEAR,NIGHT_CLEAR,NIGHT_CLEAR","Offshore,Offshore,Offshore,Offshore,Offshore,Offshore,Offshore,Offshore",8
5842041f4e65fad6a7708850,2024_03_12,40.582703230722,-73.65247,Lincoln Blvd,0.75,0.032812499999999994,0.3413625,7,6,"NIGHT_CLEAR,NIGHT_CLEAR,NIGHT_CLEAR,NIGHT_CLEAR,NIGHT_CLEAR,NIGHT_CLEAR,NIGHT_CLEAR,NIGHT_CLEAR","Onshore,Onshore,Onshore,Onshore,Onshore,Onshore,Onshore,Onshore",8
5842041f4e65fad6a7708852,2024_03_12,40.58342841721757,-73.81182,Rockaways,0,-0.026250000000000002,0.23355,7,6,"NIGHT_CLEAR,NIGHT_CLEAR,NIGHT_CLEAR,NIGHT_CLEAR,NIGHT_CLEAR,NIGHT_CLEAR,NIGHT_CLEAR,NIGHT_CLEAR","Offshore,Cross-shore,Cross-shore,Cross-shore,Cross-shore,Cross-shore,Cross-shore,Cross-shore",8
5842041f4e65fad6a7708853,2024_03_12,40.330474,-73.9734,Monmouth Beach,0.625,-0.012812500000000004,0.2898,7,6,"NIGHT_CLEAR,NIGHT_CLEAR,NIGHT_CLEAR,NIGHT_CLEAR,NIGHT_CLEAR,NIGHT_CLEAR,NIGHT_CLEAR,NIGHT_CLEAR","Offshore,Offshore,Offshore,Offshore,Offshore,Offshore,Offshore,Offshore",8
5842041f4e65fad6a7708856,2024_03_12,40.113,-74.028,Manasquan Inlet,1,-0.024062500000000004,0.23948750000000002,7,6,"NIGHT_CLEAR,NIGHT_CLEAR,NIGHT_CLEAR,NIGHT_CLEAR,NIGHT_CLEAR,NIGHT_CLEAR,NIGHT_CLEAR,NIGHT_CLEAR","Offshore,Offshore,Offshore,Offshore,Offshore,Offshore,Offshore,Offshore",8
5842041f4e65fad6a7708857,2024_03_12,39.941519877445664,-74.06829,Casino Pier,1,-0.024062500000000004,0.24230000000000002,7,6,"NIGHT_CLEAR,NIGHT_CLEAR,NIGHT_CLEAR,NIGHT_CLEAR,NIGHT_CLEAR,NIGHT_CLEAR,NIGHT_CLEAR,NIGHT_CLEAR","Offshore,Offshore,Offshore,Offshore,Offshore,Offshore,Offshore,Offshore",8
5842041f4e65fad6a7708858,2024_03_12,39.28223089949212,-74.55766,North End OC,1.33375,-0.0153125,0.2532375,8,6,"NIGHT_CLEAR,NIGHT_CLEAR,NIGHT_CLEAR,NIGHT_CLEAR,NIGHT_CLEAR,NIGHT_CLEAR,NIGHT_CLEAR,NIGHT_CLEAR","Offshore,Offshore,Offshore,Offshore,Offshore,Offshore,Offshore,Offshore",8
5842041f4e65fad6a770885b,2024_03_12,39.65080599934257,-74.17146,Ship Bottom,1.33375,-0.0271875,0.250425,8,6,"NIGHT_CLEAR,NIGHT_CLEAR,NIGHT_CLEAR,NIGHT_CLEAR,NIGHT_CLEAR,NIGHT_CLEAR,NIGHT_CLEAR,NIGHT_CLEAR","Offshore,Offshore,Offshore,Offshore,Offshore,Offshore,Offshore,Offshore",8
5842041f4e65fad6a7708863,2024_03_12,36.034151543144,-75.66791,Third Street,2.875,0.45565,0.782325,9,8,"CLEAR,NIGHT_CLEAR,NIGHT_CLEAR,NIGHT_CLEAR,NIGHT_CLEAR,NIGHT_CLEAR,NIGHT_CLEAR,NIGHT_CLEAR","Offshore,Offshore,Offshore,Offshore,Offshore,Offshore,Offshore,Offshore",8
5842041f4e65fad6a7708867,2024_03_12,35.605833221351425,-75.46303,S-Turns,1.625,0.667825,0.97705,10,9,"CLEAR,NIGHT_CLEAR,NIGHT_CLEAR,NIGHT_CLEAR,NIGHT_CLEAR,NIGHT_CLEAR,NIGHT_CLEAR,NIGHT_CLEAR","Offshore,Offshore,Offshore,Offshore,Offshore,Offshore,Offshore,Offshore",8
5842041f4e65fad6a770886d,2024_03_12,38.338461,-75.08117,Ocean City Boardwalk,1,-0.013125000000000001,0.255425,8,7,"CLEAR,NIGHT_CLEAR,NIGHT_CLEAR,NIGHT_CLEAR,NIGHT_CLEAR,NIGHT_CLEAR,NIGHT_CLEAR,NIGHT_CLEAR","Offshore,Offshore,Offshore,Offshore,Offshore,Offshore,Offshore,Offshore",8
5842041f4e65fad6a770886f,2024_03_12,29.844757212379562,-81.26136,A St.,2,0.5475000000000001,0.8525,18,18,"CLEAR,NIGHT_CLEAR,NIGHT_CLEAR,NIGHT_CLEAR,NIGHT_CLEAR,NIGHT_CLEAR,NIGHT_CLEAR,NIGHT_CLEAR","Onshore,Onshore,Onshore,Onshore,Onshore,Onshore,Onshore,Onshore",8
5842041f4e65fad6a7708871,2024_03_12,29.069417851135093,-80.90824,New Smyrna Beach,2,0.9531499999999999,1.4153499999999999,19,17,"CLEAR,NIGHT_CLEAR,NIGHT_CLEAR,NIGHT_CLEAR,NIGHT_CLEAR,NIGHT_CLEAR,NIGHT_CLEAR,NIGHT_CLEAR","Onshore,Onshore,Onshore,Onshore,Onshore,Onshore,Onshore,Onshore",8
5842041f4e65fad6a7708872,2024_03_12,28.367707417566,-80.60171,Cocoa Beach Pier,2.0625,0.6246,0.9265875,23,21,"MOSTLY_CLEAR,NIGHT_MOSTLY_CLEAR,NIGHT_CLEAR,NIGHT_MOSTLY_CLOUDY,NIGHT_MOSTLY_CLOUDY,NIGHT_CLEAR,NIGHT_MOSTLY_CLOUDY,NIGHT_CLEAR","Onshore,Onshore,Onshore,Onshore,Onshore,Onshore,Onshore,Onshore",8
5842041f4e65fad6a7708873,2024_03_12,28.091782738658846,-80.56479,Indialantic,1.97875,0.6486333333333334,0.9994833333333333,23,21,"MOSTLY_CLEAR,NIGHT_CLEAR,NIGHT_CLEAR,NIGHT_CLEAR,NIGHT_MOSTLY_CLEAR,NIGHT_CLEAR,NIGHT_CLEAR,NIGHT_MOSTLY_CLOUDY","Onshore,Onshore,Onshore,Onshore,Onshore,Onshore,Onshore,Onshore",8
5842041f4e65fad6a7708876,2024_03_12,27.25392904143517,-80.19455,Jensen Beach,1.72875,0.8443999999999999,1.1482625,23,22,"MOSTLY_CLOUDY,NIGHT_MOSTLY_CLOUDY,NIGHT_MOSTLY_CLOUDY,NIGHT_OVERCAST,NIGHT_MOSTLY_CLOUDY,NIGHT_OVERCAST,NIGHT_OVERCAST,NIGHT_OVERCAST","Onshore,Onshore,Onshore,Onshore,Onshore,Onshore,Onshore,Onshore",8
5842041f4e65fad6a7708879,2024_03_12,26.76346795333825,-80.0360655784607,Reef Road,2,0.4617875,0.8172125,24,23,"OVERCAST,NIGHT_OVERCAST,NIGHT_MOSTLY_CLOUDY,NIGHT_CLOUDY,NIGHT_OVERCAST,NIGHT_OVERCAST,NIGHT_MOSTLY_CLOUDY,NIGHT_CLEAR","Onshore,Onshore,Onshore,Onshore,Onshore,Onshore,Onshore,Onshore",8
5842041f4e65fad6a770887c,2024_03_12,26.336499228484,-80.06956100463,Boca Raton Inlet,0.97875,0.1595833333333333,0.4618166666666667,25,23,"OVERCAST,NIGHT_CLOUDY,NIGHT_MOSTLY_CLOUDY,NIGHT_MOSTLY_CLOUDY,NIGHT_MOSTLY_CLOUDY,NIGHT_MOSTLY_CLOUDY,NIGHT_MOSTLY_CLOUDY,NIGHT_DRIZZLE","Onshore,Onshore,Onshore,Onshore,Onshore,Onshore,Onshore,Onshore",8
5842041f4e65fad6a770887d,2024_03_12,26.31719311695038,-80.07452525176168,Deerfield Beach Pier,1,0.16805041666666667,0.47440875000000005,25,23,"OVERCAST,NIGHT_CLOUDY,NIGHT_SHOWERS,NIGHT_MOSTLY_CLOUDY,NIGHT_OVERCAST,NIGHT_MOSTLY_CLOUDY,NIGHT_MOSTLY_CLOUDY,NIGHT_OVERCAST","Onshore,Onshore,Onshore,Onshore,Onshore,Onshore,Onshore,Onshore",8
5842041f4e65fad6a7708881,2024_03_12,30.20276320866628,-85.85626528676136,"Spyglass Dr., Panama City",0,0,0.15115000000000003,19,18,"CLEAR,NIGHT_CLEAR,NIGHT_CLEAR,NIGHT_CLEAR,NIGHT_CLEAR,NIGHT_CLEAR,NIGHT_CLEAR,NIGHT_CLEAR","Offshore,Offshore,Offshore,Offshore,Offshore,Offshore,Offshore,Offshore",8
5842041f4e65fad6a7708884,2024_03_12,33.39000832738053,-117.59852,Cottons,3,0.9842166666666667,1.2593333333333332,16,16,"MOSTLY_CLEAR,CLEAR,CLEAR,NIGHT_MOSTLY_CLOUDY,NIGHT_MOSTLY_CLOUDY,NIGHT_MOSTLY_CLOUDY,NIGHT_MOSTLY_CLOUDY,NIGHT_FOG","Onshore,Onshore,Onshore,Onshore,Onshore,Cross-shore,Cross-shore,Cross-shore",8
5842041f4e65fad6a7708885,2024_03_12,33.359416282661,-117.54167901405711,Trails,2.5,0.69125,0.99875,15,15,"MOSTLY_CLEAR,CLEAR,CLEAR,NIGHT_BRIEF_SHOWERS,NIGHT_BRIEF_SHOWERS,NIGHT_CLEAR,NIGHT_MOSTLY_CLOUDY,NIGHT_BRIEF_SHOWERS","Onshore,Onshore,Onshore,Cross-shore,Cross-shore,Offshore,Offshore,Offshore",8
5842041f4e65fad6a7708886,2024_03_12,33.38042605929805,-117.58332,Middles,3,0.8824333333333333,1.2793333333333334,16,16,"MOSTLY_CLEAR,CLEAR,CLEAR,NIGHT_MOSTLY_CLOUDY,NIGHT_MOSTLY_CLOUDY,NIGHT_MOSTLY_CLOUDY,NIGHT_MOSTLY_CLOUDY,NIGHT_FOG","Onshore,Onshore,Onshore,Onshore,Cross-shore,Offshore,Offshore,Offshore",8
5842041f4e65fad6a7708887,2024_03_12,33.38445596302903,-117.59445,Upper Trestles,3,1.1392166666666668,1.4580833333333334,16,16,"MOSTLY_CLEAR,CLEAR,CLEAR,NIGHT_MOSTLY_CLOUDY,NIGHT_MOSTLY_CLOUDY,NIGHT_MOSTLY_CLOUDY,NIGHT_MOSTLY_CLOUDY,NIGHT_FOG","Onshore,Onshore,Onshore,Cross-shore,Cross-shore,Offshore,Offshore,Offshore",8
5842041f4e65fad6a7708889,2024_03_12,28.944414,-95.28883,Surfside,1,0.25701875,0.40159,19,19,"CLEAR,CLEAR,NIGHT_CLEAR,NIGHT_CLEAR,NIGHT_CLEAR,NIGHT_CLEAR,NIGHT_CLEAR,NIGHT_CLEAR","Onshore,Onshore,Onshore,Onshore,Onshore,Onshore,Onshore,Onshore",8
5842041f4e65fad6a770888a,2024_03_12,33.38143999849023,-117.58843,Lower Trestles,3,1.11505,1.6123666666666667,16,16,"MOSTLY_CLEAR,CLEAR,CLEAR,NIGHT_MOSTLY_CLOUDY,NIGHT_MOSTLY_CLOUDY,NIGHT_MOSTLY_CLOUDY,NIGHT_MOSTLY_CLOUDY,NIGHT_FOG","Onshore,Onshore,Onshore,Cross-shore,Cross-shore,Offshore,Offshore,Offshore",8
5842041f4e65fad6a770888b,2024_03_12,33.379622288757,-117.57894,Church,3,0.9070166666666667,1.2793333333333334,16,16,"MOSTLY_CLEAR,CLEAR,CLEAR,NIGHT_MOSTLY_CLOUDY,NIGHT_CLEAR,NIGHT_MOSTLY_CLOUDY,NIGHT_MOSTLY_CLOUDY,NIGHT_FOG","Onshore,Onshore,Onshore,Onshore,Cross-shore,Offshore,Cross-shore,Offshore",8
5842041f4e65fad6a770888d,2024_03_12,21.679,-158.042,Sunset Beach,4,2.0893125,2.5639125,26,25,"BRIEF_SHOWERS,OVERCAST,BRIEF_SHOWERS,CLEAR,BRIEF_SHOWERS,MOSTLY_CLOUDY,NIGHT_CLEAR,NIGHT_BRIEF_SHOWERS","Cross-shore,Offshore,Cross-shore,Offshore,Cross-shore,Cross-shore,Cross-shore,Offshore",8
5842041f4e65fad6a770888e,2024_03_12,21.670550036401,-158.0482,Rocky Point,3.125,1.6063875,2.0340125000000002,26,25,"CLEAR,CLEAR,BRIEF_SHOWERS_POSSIBLE,CLEAR,CLEAR,BRIEF_SHOWERS,NIGHT_BRIEF_SHOWERS_POSSIBLE,NIGHT_BRIEF_SHOWERS_POSSIBLE","Cross-shore,Cross-shore,Cross-shore,Cross-shore,Onshore,Cross-shore,Cross-shore,Cross-shore",8
5842041f4e65fad6a770888f,2024_03_12,21.668,-158.05,Chambers,3,1.9874999999999998,2.37625,24,24,"CLEAR,CLEAR,BRIEF_SHOWERS_POSSIBLE,CLEAR,BRIEF_SHOWERS_POSSIBLE,BRIEF_SHOWERS,NIGHT_BRIEF_SHOWERS_POSSIBLE,NIGHT_BRIEF_SHOWERS_POSSIBLE","Cross-shore,Cross-shore,Cross-shore,Cross-shore,Onshore,Cross-shore,Offshore,Offshore",8
5842041f4e65fad6a7708890,2024_03_12,21.66522,-158.0526,Pipeline,4,2.236075,2.6868125,26,25,"CLEAR,CLEAR,BRIEF_SHOWERS_POSSIBLE,CLEAR,BRIEF_SHOWERS_POSSIBLE,BRIEF_SHOWERS,NIGHT_BRIEF_SHOWERS_POSSIBLE,NIGHT_BRIEF_SHOWERS_POSSIBLE","Cross-shore,Cross-shore,Cross-shore,Cross-shore,Cross-shore,Cross-shore,Cross-shore,Offshore",8
5842041f4e65fad6a7708891,2024_03_12,21.665,-158.054,Backdoor,3.875,2.236075,2.6868125,26,25,"CLEAR,CLEAR,BRIEF_SHOWERS_POSSIBLE,CLEAR,BRIEF_SHOWERS_POSSIBLE,BRIEF_SHOWERS,NIGHT_BRIEF_SHOWERS_POSSIBLE,NIGHT_BRIEF_SHOWERS_POSSIBLE","Cross-shore,Cross-shore,Cross-shore,Cross-shore,Cross-shore,Cross-shore,Cross-shore,Offshore",8
5842041f4e65fad6a7708892,2024_03_12,21.662,-158.057,Rockpile,3,1.85625,2.2175,24,24,"CLEAR,CLEAR,BRIEF_SHOWERS_POSSIBLE,CLEAR,BRIEF_SHOWERS_POSSIBLE,BRIEF_SHOWERS,NIGHT_BRIEF_SHOWERS_POSSIBLE,NIGHT_BRIEF_SHOWERS_POSSIBLE","Cross-shore,Cross-shore,Cross-shore,Cross-shore,Cross-shore,Cross-shore,Cross-shore,Cross-shore",8
5842041f4e65fad6a7708893,2024_03_12,21.65870453806827,-158.06058,Log Cabins,3,1.58625,1.89875,24,24,"CLEAR,CLEAR,BRIEF_SHOWERS_POSSIBLE,CLEAR,BRIEF_SHOWERS_POSSIBLE,BRIEF_SHOWERS,NIGHT_BRIEF_SHOWERS_POSSIBLE,NIGHT_BRIEF_SHOWERS_POSSIBLE","Cross-shore,Cross-shore,Cross-shore,Cross-shore,Cross-shore,Cross-shore,Cross-shore,Cross-shore",8
5842041f4e65fad6a7708894,2024_03_12,21.66203493640557,-158.05495,Off-The-Wall,3,1.8924999999999998,2.2600000000000002,24,24,"CLEAR,CLEAR,BRIEF_SHOWERS_POSSIBLE,CLEAR,CLEAR,BRIEF_SHOWERS,NIGHT_BRIEF_SHOWERS_POSSIBLE,NIGHT_BRIEF_SHOWERS_POSSIBLE","Cross-shore,Cross-shore,Cross-shore,Cross-shore,Onshore,Cross-shore,Cross-shore,Offshore",8
5842041f4e65fad6a7708895,2024_03_12,21.643,-158.067,Waimea Bay,NA,2.1338875,2.6646375,26,25,"CLEAR,CLEAR,BRIEF_SHOWERS_POSSIBLE,CLEAR,BRIEF_SHOWERS_POSSIBLE,BRIEF_SHOWERS,NIGHT_BRIEF_SHOWERS_POSSIBLE,NIGHT_BRIEF_SHOWERS_POSSIBLE","Offshore,Offshore,Offshore,Offshore,Cross-shore,Cross-shore,Cross-shore,Offshore",8
5842041f4e65fad6a7708896,2024_03_12,21.622,-158.087,Hultin's,4,2.63795,3.2690125,26,25,"CLEAR,CLEAR,CLEAR,CLEAR,CLEAR,MOSTLY_CLOUDY,NIGHT_CLEAR,NIGHT_CLEAR","Offshore,Offshore,Offshore,Offshore,Offshore,Offshore,Offshore,Offshore",8
5842041f4e65fad6a7708897,2024_03_12,21.623,-158.085,Jocko's,3,1.65875,1.98125,24,24,"CLEAR,CLEAR,CLEAR,CLEAR,CLEAR,MOSTLY_CLOUDY,NIGHT_CLEAR,NIGHT_CLEAR","Cross-shore,Cross-shore,Cross-shore,Cross-shore,Cross-shore,Cross-shore,Cross-shore,Cross-shore",8
5842041f4e65fad6a7708898,2024_03_12,21.62,-158.088,Laniakea,3.75,1.4817,1.7943125,26,25,"CLEAR,CLEAR,CLEAR,CLEAR,CLEAR,MOSTLY_CLOUDY,NIGHT_CLEAR,NIGHT_CLEAR","Offshore,Offshore,Offshore,Offshore,Offshore,Offshore,Offshore,Offshore",8
5842041f4e65fad6a7708899,2024_03_12,21.625,-158.083,Chun's,3.625,1.7325,2.06875,24,24,"CLEAR,CLEAR,CLEAR,CLEAR,CLEAR,MOSTLY_CLOUDY,NIGHT_CLEAR,NIGHT_CLEAR","Offshore,Offshore,Offshore,Offshore,Offshore,Offshore,Offshore,Offshore",8
5842041f4e65fad6a770889c,2024_03_12,21.286357895152136,-157.8515,South Shore - Ala Moana Park,2,0.5075000000000001,0.8125,24,24,"CLEAR,CLEAR,SHOWERS,MOSTLY_CLOUDY,CLEAR,BRIEF_SHOWERS,NIGHT_MOSTLY_CLOUDY,NIGHT_MOSTLY_CLOUDY","Offshore,Offshore,Offshore,Offshore,Offshore,Offshore,Offshore,Offshore",8
5842041f4e65fad6a770889d,2024_03_12,19.606,-155.978,Banyans,2,0.4230375,0.7269,26,25,"OVERCAST,CLOUDY,CLEAR,CLEAR,CLEAR,MOSTLY_CLOUDY,NIGHT_MOSTLY_CLOUDY,NIGHT_OVERCAST","Onshore,Onshore,Cross-shore,Onshore,Onshore,Cross-shore,Cross-shore,Cross-shore",8
5842041f4e65fad6a770889e,2024_03_12,20.029,-155.831,Kawaihae,1.875,0.4444,0.5693950000000001,24,24,"CLEAR,CLEAR,MOSTLY_CLOUDY,MOSTLY_CLOUDY,CLEAR,MOSTLY_CLOUDY,NIGHT_MOSTLY_CLOUDY,NIGHT_CLEAR","Onshore,Onshore,Onshore,Onshore,Onshore,Onshore,Cross-shore,Offshore",8
5842041f4e65fad6a770889f,2024_03_12,33.07541383424675,-117.3105,Grandview,3,0.9425,1.14375,15,15,"MOSTLY_CLOUDY,CLEAR,CLEAR,NIGHT_CLEAR,NIGHT_CLEAR,NIGHT_MOSTLY_CLOUDY,NIGHT_OVERCAST,NIGHT_OVERCAST","Onshore,Onshore,Onshore,Onshore,Onshore,Cross-shore,Cross-shore,Cross-shore",8
5842041f4e65fad6a77088a0,2024_03_12,33.065267421296596,-117.30577,Beacons,2.625,0.90375,1.125,15,15,"MOSTLY_CLOUDY,CLEAR,CLEAR,NIGHT_CLEAR,NIGHT_CLEAR,NIGHT_MOSTLY_CLOUDY,NIGHT_OVERCAST,NIGHT_OVERCAST","Onshore,Onshore,Onshore,Onshore,Cross-shore,Onshore,Onshore,Onshore",8
5842041f4e65fad6a77088a2,2024_03_12,21.252,-157.805,Diamond Head,3,0.9617778124999999,1.2773106250000001,26,25,"CLEAR,MOSTLY_CLOUDY,MOSTLY_CLOUDY,MOSTLY_CLOUDY,CLEAR,BRIEF_SHOWERS,NIGHT_MOSTLY_CLOUDY,NIGHT_MOSTLY_CLOUDY","Cross-shore,Cross-shore,Cross-shore,Cross-shore,Cross-shore,Cross-shore,Cross-shore,Cross-shore",8
5842041f4e65fad6a77088a3,2024_03_12,33.04694255008896,-117.29966,Moonlight State Beach,2.375,0.985,1.175,15,15,"MOSTLY_CLOUDY,MOSTLY_CLOUDY,CLEAR,NIGHT_CLEAR,NIGHT_CLEAR,NIGHT_MOSTLY_CLOUDY,NIGHT_OVERCAST,NIGHT_OVERCAST","Onshore,Onshore,Onshore,Onshore,Onshore,Cross-shore,Offshore,Offshore",8
5842041f4e65fad6a77088a5,2024_03_12,33.08685865930869,-117.31532,Ponto,2.25,1.08,1.3575,15,15,"MOSTLY_CLOUDY,CLEAR,CLEAR,NIGHT_CLEAR,NIGHT_CLEAR,NIGHT_MOSTLY_CLOUDY,NIGHT_OVERCAST,NIGHT_OVERCAST","Onshore,Onshore,Onshore,Onshore,Onshore,Onshore,Offshore,Offshore",8
5842041f4e65fad6a77088a6,2024_03_12,33.130343587871906,-117.33667796442558,Terra Mar Point,3,0.8078000000000001,1.1925333333333332,16,16,"MOSTLY_CLOUDY,MOSTLY_CLOUDY,CLEAR,NIGHT_CLEAR,NIGHT_CLEAR,NIGHT_MOSTLY_CLOUDY,NIGHT_MOSTLY_CLOUDY,NIGHT_OVERCAST","Onshore,Onshore,Onshore,Onshore,Cross-shore,Onshore,Onshore,Onshore",8
5842041f4e65fad6a77088af,2024_03_12,32.95916304183685,-117.26963,Del Mar,2.5,1.22125,1.4625,16,16,"MOSTLY_CLOUDY,CLEAR,CLEAR,NIGHT_CLOUDY,NIGHT_CLEAR,NIGHT_MOSTLY_CLOUDY,NIGHT_MOSTLY_CLOUDY,NIGHT_CLOUDY","Onshore,Onshore,Onshore,Onshore,Onshore,Offshore,Offshore,Offshore",8
5842041f4e65fad6a77088b0,2024_03_12,32.97527261243354,-117.2721061331305,Del Mar Rivermouth,2.375,1.15375,1.415,15,15,"MOSTLY_CLOUDY,CLEAR,CLEAR,NIGHT_CLOUDY,NIGHT_MOSTLY_CLOUDY,NIGHT_MOSTLY_CLOUDY,NIGHT_MOSTLY_CLOUDY,NIGHT_OVERCAST","Onshore,Onshore,Onshore,Onshore,Onshore,Cross-shore,Offshore,Offshore",8
5842041f4e65fad6a77088b1,2024_03_12,33.01352178146273,-117.28219,Cardiff Reef,3,1.21405,1.6846666666666668,16,16,"MOSTLY_CLOUDY,CLEAR,CLEAR,NIGHT_CLEAR,NIGHT_CLOUDY,NIGHT_MOSTLY_CLOUDY,NIGHT_OVERCAST,NIGHT_OVERCAST","Onshore,Onshore,Onshore,Onshore,Cross-shore,Cross-shore,Cross-shore,Cross-shore",8
5842041f4e65fad6a77088b3,2024_03_12,33.00211185876003,-117.2811,Seaside Reef,3,1.1978,1.6105,16,16,"MOSTLY_CLOUDY,CLEAR,CLEAR,NIGHT_CLOUDY,NIGHT_CLEAR,NIGHT_CLEAR,NIGHT_MOSTLY_CLOUDY,NIGHT_CLOUDY","Onshore,Onshore,Onshore,Onshore,Cross-shore,Cross-shore,Cross-shore,Cross-shore",8
5842041f4e65fad6a77088b4,2024_03_12,33.0341859796287,-117.29552,Swami's,2.875,1.2619666666666667,1.60795,16,16,"MOSTLY_CLOUDY,CLEAR,CLEAR,NIGHT_CLEAR,NIGHT_CLOUDY,NIGHT_MOSTLY_CLOUDY,NIGHT_OVERCAST,NIGHT_OVERCAST","Onshore,Onshore,Onshore,Onshore,Onshore,Cross-shore,Offshore,Offshore",8
5842041f4e65fad6a77088b7,2024_03_12,33.04569760260221,-117.2994,D Street,2.25,1.08375,1.33625,15,15,"MOSTLY_CLOUDY,MOSTLY_CLOUDY,CLEAR,NIGHT_CLEAR,NIGHT_CLEAR,NIGHT_MOSTLY_CLOUDY,NIGHT_OVERCAST,NIGHT_OVERCAST","Onshore,Onshore,Onshore,Onshore,Onshore,Cross-shore,Offshore,Offshore",8
5842041f4e65fad6a77088b8,2024_03_12,33.02090944350196,-117.28535,San Elijo State Beach,3,1.0428,1.4550833333333333,16,16,"MOSTLY_CLOUDY,CLEAR,CLEAR,NIGHT_CLEAR,NIGHT_CLOUDY,NIGHT_MOSTLY_CLOUDY,NIGHT_OVERCAST,NIGHT_OVERCAST","Onshore,Onshore,Onshore,Onshore,Cross-shore,Cross-shore,Cross-shore,Cross-shore",8
5842041f4e65fad6a77088c2,2024_03_12,32.80662846492798,-117.2688764333725,PB Point,3.25,1.35,1.6199999999999999,16,16,"MOSTLY_CLOUDY,MOSTLY_CLOUDY,MOSTLY_CLOUDY,NIGHT_OVERCAST,NIGHT_OVERCAST,NIGHT_MOSTLY_CLOUDY,NIGHT_MOSTLY_CLOUDY,NIGHT_MOSTLY_CLOUDY","Cross-shore,Cross-shore,Cross-shore,Cross-shore,Offshore,Offshore,Offshore,Offshore",8
5842041f4e65fad6a77088c4,2024_03_12,32.8060476681448,-117.26479,Old Man's at Tourmaline,3.125,1.0425,1.275,16,16,"MOSTLY_CLOUDY,MOSTLY_CLOUDY,MOSTLY_CLOUDY,NIGHT_OVERCAST,NIGHT_OVERCAST,NIGHT_MOSTLY_CLOUDY,NIGHT_MOSTLY_CLOUDY,NIGHT_MOSTLY_CLOUDY","Cross-shore,Cross-shore,Cross-shore,Cross-shore,Offshore,Offshore,Offshore,Offshore",8
5842041f4e65fad6a77088cb,2024_03_12,32.557056711256,-117.1327445020322,Tijuana Slough,2.5,0.96875,1.1575,15,15,"MOSTLY_CLEAR,CLEAR,CLEAR,NIGHT_OVERCAST,NIGHT_MOSTLY_CLOUDY,NIGHT_CLOUDY,NIGHT_OVERCAST,NIGHT_MOSTLY_CLOUDY","Onshore,Onshore,Cross-shore,Cross-shore,Cross-shore,Cross-shore,Cross-shore,Cross-shore",8
5842041f4e65fad6a77088cc,2024_03_12,32.863,-117.257,La Jolla Shores,2,0.995,1.2175,16,16,"MOSTLY_CLOUDY,MOSTLY_CLOUDY,CLEAR,NIGHT_CLOUDY,NIGHT_CLOUDY,NIGHT_MOSTLY_CLOUDY,NIGHT_MOSTLY_CLOUDY,NIGHT_OVERCAST","Onshore,Onshore,Onshore,Onshore,Onshore,Onshore,Onshore,Onshore",8
5842041f4e65fad6a77088ce,2024_03_12,32.67443657790586,-117.17421316238693,Coronado Beach,2.625,0.845,1.1075,15,15,"CLEAR,CLEAR,CLEAR,NIGHT_CLOUDY,NIGHT_OVERCAST,NIGHT_CLOUDY,NIGHT_CLOUDY,NIGHT_CLOUDY","Cross-shore,Cross-shore,Offshore,Offshore,Offshore,Offshore,Offshore,Offshore",8
5842041f4e65fad6a77088cf,2024_03_12,33.40484417640326,-117.60749,San Clemente State Beach,2.375,0.7675,1.04125,15,15,"MOSTLY_CLEAR,CLEAR,CLEAR,NIGHT_MOSTLY_CLOUDY,NIGHT_MOSTLY_CLOUDY,NIGHT_MOSTLY_CLOUDY,NIGHT_MOSTLY_CLOUDY,NIGHT_MOSTLY_CLOUDY","Onshore,Onshore,Onshore,Cross-shore,Cross-shore,Cross-shore,Offshore,Cross-shore",8
5842041f4e65fad6a77088d5,2024_03_12,33.4663042002114,-117.7168352817103,Strands,3,1.0141,1.4182333333333332,15,15,"CLEAR,CLEAR,CLEAR,NIGHT_MOSTLY_CLOUDY,NIGHT_MOSTLY_CLOUDY,NIGHT_MOSTLY_CLOUDY,NIGHT_MOSTLY_CLOUDY,NIGHT_FOG","Onshore,Onshore,Onshore,Onshore,Cross-shore,Cross-shore,Onshore,Onshore",8
5842041f4e65fad6a77088d7,2024_03_12,33.4609858001748,-117.68535,Doheny State Beach,2.14625,0.21886666666666665,0.5227333333333334,16,16,"CLEAR,CLEAR,MOSTLY_CLEAR,NIGHT_MOSTLY_CLOUDY,NIGHT_MOSTLY_CLOUDY,NIGHT_MOSTLY_CLOUDY,NIGHT_MOSTLY_CLOUDY,NIGHT_MOSTLY_CLOUDY","Onshore,Onshore,Onshore,Cross-shore,Cross-shore,Offshore,Offshore,Offshore",8
5842041f4e65fad6a77088dc,2024_03_12,33.50894790083017,-117.75243,Aliso Creek,2,0.70625,1.01125,15,15,"CLEAR,CLEAR,MOSTLY_CLEAR,NIGHT_MOSTLY_CLOUDY,NIGHT_CLEAR,NIGHT_CLEAR,NIGHT_CLEAR,NIGHT_FOG","Onshore,Onshore,Onshore,Cross-shore,Cross-shore,Cross-shore,Cross-shore,Onshore",8
5842041f4e65fad6a77088dd,2024_03_12,33.5326591767067,-117.77764,Brooks Street,2,0.44625000000000004,0.74875,15,15,"CLEAR,CLEAR,MOSTLY_CLEAR,NIGHT_CLEAR,NIGHT_MIST,NIGHT_CLEAR,NIGHT_CLEAR,NIGHT_FOG","Onshore,Onshore,Onshore,Cross-shore,Cross-shore,Cross-shore,Cross-shore,Onshore",8
5842041f4e65fad6a77088de,2024_03_12,33.53561225884637,-117.7799,Thalia Street,2,0.4975,0.80125,15,15,"CLEAR,CLEAR,MOSTLY_CLEAR,NIGHT_CLEAR,NIGHT_CLEAR,NIGHT_CLEAR,NIGHT_CLEAR,NIGHT_FOG","Onshore,Onshore,Onshore,Cross-shore,Cross-shore,Cross-shore,Cross-shore,Onshore",8
5842041f4e65fad6a77088e3,2024_03_12,33.54268310353641,-117.7916,Rockpile,3,0.93125,1.11125,15,15,"CLEAR,CLEAR,MOSTLY_CLEAR,NIGHT_CLEAR,NIGHT_MIST,NIGHT_CLEAR,NIGHT_CLEAR,NIGHT_FOG","Onshore,Onshore,Cross-shore,Cross-shore,Cross-shore,Cross-shore,Cross-shore,Cross-shore",8
5842041f4e65fad6a77088e4,2024_03_12,33.7368459504689,-118.10342,"Seal Beach Pier, Southside",1.125,0.20875,0.515,15,15,"CLEAR,CLEAR,CLEAR,NIGHT_MOSTLY_CLEAR,NIGHT_MOSTLY_CLEAR,NIGHT_CLEAR,NIGHT_CLEAR,NIGHT_CLEAR","Onshore,Onshore,Onshore,Onshore,Onshore,Onshore,Onshore,Cross-shore",8
5842041f4e65fad6a77088e5,2024_03_12,33.73933701820233,-118.117,Ray Bay,1.25,0.21125,0.515,15,15,"CLEAR,CLEAR,CLEAR,NIGHT_MOSTLY_CLEAR,NIGHT_CLEAR,NIGHT_MOSTLY_CLEAR,NIGHT_CLEAR,NIGHT_MOSTLY_CLOUDY","Onshore,Onshore,Onshore,Onshore,Onshore,Onshore,Onshore,Onshore",8
5842041f4e65fad6a77088e7,2024_03_12,33.728733,-118.08982,Surfside,2.125,0.90125,1.11875,15,15,"CLEAR,CLEAR,CLEAR,NIGHT_MOSTLY_CLEAR,NIGHT_MOSTLY_CLOUDY,NIGHT_MOSTLY_CLOUDY,NIGHT_MOSTLY_CLEAR,NIGHT_CLEAR","Onshore,Onshore,Onshore,Onshore,Onshore,Onshore,Onshore,Onshore",8
5842041f4e65fad6a77088e8,2024_03_12,33.68760321488161,-118.04236,Bolsa Chica State Beach,2.22875,1.1120166666666667,1.4092166666666668,15,15,"CLEAR,CLEAR,CLEAR,NIGHT_CLEAR,NIGHT_MOSTLY_CLOUDY,NIGHT_BRIEF_SHOWERS,NIGHT_MOSTLY_CLOUDY,NIGHT_MOSTLY_CLOUDY","Onshore,Onshore,Onshore,Onshore,Onshore,Onshore,Onshore,Onshore",8
5842041f4e65fad6a77088ea,2024_03_12,33.66704400178788,-118.0192,North HB Streets,1.97875,1.1516,1.4586499999999998,15,15,"CLEAR,CLEAR,CLEAR,NIGHT_CLEAR,NIGHT_CLEAR,NIGHT_MOSTLY_CLEAR,NIGHT_MOSTLY_CLOUDY,NIGHT_CLEAR","Onshore,Onshore,Onshore,Onshore,Cross-shore,Cross-shore,Onshore,Onshore",8
5842041f4e65fad6a77088ed,2024_03_12,33.65475101379567,-118.00291,Huntington Beach Pier Southside,2,1.1513,1.4697500000000001,15,15,"CLEAR,CLEAR,CLEAR,NIGHT_MOSTLY_CLEAR,NIGHT_CLEAR,NIGHT_CLEAR,NIGHT_MOSTLY_CLOUDY,NIGHT_MOSTLY_CLOUDY","Onshore,Onshore,Onshore,Onshore,Onshore,Onshore,Onshore,Onshore",8
5842041f4e65fad6a77088ee,2024_03_12,33.62778647706099,-117.95939,River Jetties,2,0.9911833333333334,1.3774,15,15,"CLEAR,CLEAR,MOSTLY_CLEAR,NIGHT_CLEAR,NIGHT_MOSTLY_CLOUDY,NIGHT_CLEAR,NIGHT_MOSTLY_CLOUDY,NIGHT_MOSTLY_CLOUDY","Onshore,Onshore,Onshore,Onshore,Onshore,Onshore,Onshore,Onshore",8
5842041f4e65fad6a77088f2,2024_03_12,33.605165797643664,-117.92500376701355,Newport Point,2,0.69375,0.9975,15,15,"CLEAR,CLEAR,CLEAR,NIGHT_CLEAR,NIGHT_CLEAR,NIGHT_CLEAR,NIGHT_FOG,NIGHT_MOSTLY_CLOUDY","Onshore,Onshore,Cross-shore,Cross-shore,Cross-shore,Cross-shore,Onshore,Cross-shore",8
5842041f4e65fad6a77088f3,2024_03_12,33.58982984726977,-117.87713,Corona del Mar,2,0.26813375,0.4189575,15,15,"CLEAR,CLEAR,MOSTLY_CLEAR,NIGHT_CLEAR,NIGHT_CLEAR,NIGHT_MOSTLY_CLEAR,NIGHT_FOG,NIGHT_MOSTLY_CLOUDY","Onshore,Onshore,Onshore,Onshore,Onshore,Onshore,Onshore,Onshore",8
5842041f4e65fad6a77088f7,2024_03_12,34.00750300824362,-118.4971783496269,Santa Monica Pier,2,0.405,0.7075,15,15,"MOSTLY_CLEAR,CLEAR,CLEAR,NIGHT_CLEAR,NIGHT_CLEAR,NIGHT_CLEAR,NIGHT_CLEAR,NIGHT_MIST","Onshore,Onshore,Onshore,Onshore,Onshore,Onshore,Onshore,Onshore",8
5842041f4e65fad6a77088ff,2024_03_12,33.94070283102945,-118.44321,Dockweiler Beach,1.77,0.8307345833333334,1.1556270833333333,14,14,"CLEAR,CLEAR,CLEAR,NIGHT_MOSTLY_CLOUDY,NIGHT_CLEAR,NIGHT_MOSTLY_CLEAR,NIGHT_MOSTLY_CLOUDY,NIGHT_CLOUDY","Onshore,Onshore,Onshore,Onshore,Onshore,Onshore,Onshore,Onshore",8
5842041f4e65fad6a7708900,2024_03_12,33.9231846937237,-118.4341465777908,Shitpipe,1.77,0.8493666666666667,1.1970166666666666,14,14,"CLEAR,CLEAR,CLEAR,NIGHT_CLEAR,NIGHT_CLEAR,NIGHT_CLEAR,NIGHT_BRIEF_SHOWERS,NIGHT_CLOUDY","Onshore,Onshore,Onshore,Onshore,Onshore,Onshore,Onshore,Onshore",8
5842041f4e65fad6a7708902,2024_03_12,33.9108528052242,-118.4279133138721,Hammerland,1.77,1.1090499999999999,1.4317,14,14,"CLEAR,CLEAR,CLEAR,NIGHT_CLEAR,NIGHT_CLEAR,NIGHT_CLEAR,NIGHT_BRIEF_SHOWERS,NIGHT_CLOUDY","Onshore,Onshore,Onshore,Onshore,Onshore,Onshore,Onshore,Onshore",8
5842041f4e65fad6a7708904,2024_03_12,33.87201368173932,-118.4075151286262,Hermosa Beach,1.395,0.7302,1.0173833333333333,14,14,"CLEAR,CLEAR,MOSTLY_CLEAR,NIGHT_MOSTLY_CLOUDY,NIGHT_MOSTLY_CLEAR,NIGHT_MOSTLY_CLEAR,NIGHT_MOSTLY_CLOUDY,NIGHT_CLEAR","Onshore,Onshore,Onshore,Onshore,Onshore,Onshore,Onshore,Onshore",8
5842041f4e65fad6a7708906,2024_03_12,33.90129336911256,-118.42184,El Porto,1.77,1.1986333333333332,1.5775333333333332,14,14,"CLEAR,CLEAR,CLEAR,NIGHT_MOSTLY_CLOUDY,NIGHT_CLEAR,NIGHT_CLEAR,NIGHT_MOSTLY_CLOUDY,NIGHT_OVERCAST","Onshore,Onshore,Onshore,Onshore,Onshore,Onshore,Onshore,Onshore",8
5842041f4e65fad6a7708907,2024_03_12,33.87963506431794,-118.41102,Manhattan Beach Pier,1.77,1.1823833333333333,1.4220666666666666,14,14,"CLEAR,CLEAR,CLEAR,NIGHT_MOSTLY_CLOUDY,NIGHT_CLEAR,NIGHT_CLEAR,NIGHT_MOSTLY_CLOUDY,NIGHT_OVERCAST","Onshore,Onshore,Onshore,Onshore,Onshore,Onshore,Onshore,Onshore",8
5842041f4e65fad6a7708914,2024_03_12,34.038053387863464,-118.5532,Sunset Point,1.5,0.20375000000000001,0.5075000000000001,15,15,"CLEAR,CLEAR,CLEAR,NIGHT_CLEAR,NIGHT_CLEAR,NIGHT_CLEAR,NIGHT_CLEAR,NIGHT_MIST","Onshore,Onshore,Onshore,Onshore,Offshore,Offshore,Offshore,Cross-shore",8
5842041f4e65fad6a7708920,2024_03_12,33.80930828074364,-118.3933198342649,Haggerty's,1,0.20925,0.39075,15,15,"CLEAR,CLEAR,MOSTLY_CLEAR,NIGHT_MOSTLY_CLOUDY,NIGHT_MOSTLY_CLOUDY,NIGHT_MOSTLY_CLEAR,NIGHT_MOSTLY_CLOUDY,NIGHT_CLOUDY","Onshore,Onshore,Onshore,Onshore,Onshore,Onshore,Onshore,Onshore",8
5842041f4e65fad6a7708921,2024_03_12,33.85044519861206,-118.40048,Redondo Breakwater,2.5,1.21,1.4575,16,16,"CLEAR,CLEAR,MOSTLY_CLEAR,NIGHT_MOSTLY_CLOUDY,NIGHT_MOSTLY_CLEAR,NIGHT_MOSTLY_CLEAR,NIGHT_MOSTLY_CLOUDY,NIGHT_CLEAR","Onshore,Onshore,Onshore,Onshore,Onshore,Onshore,Onshore,Onshore",8
5842041f4e65fad6a7708927,2024_03_12,33.70877301002487,-118.2840112858389,Cabrillo Beach,2,0.0975,0.40249999999999997,15,15,"CLEAR,CLEAR,CLEAR,NIGHT_MOSTLY_CLEAR,NIGHT_MOSTLY_CLOUDY,NIGHT_MOSTLY_CLEAR,NIGHT_CLEAR,NIGHT_MIST","Cross-shore,Offshore,Offshore,Offshore,Offshore,Offshore,Offshore,Cross-shore",8
5842041f4e65fad6a770892c,2024_03_12,33.77209986806257,-118.4268428476672,Lunada Bay,1.375,1.0775,1.3325,15,15,"MOSTLY_CLEAR,CLEAR,CLEAR,NIGHT_MOSTLY_CLOUDY,NIGHT_MOSTLY_CLOUDY,NIGHT_MOSTLY_CLEAR,NIGHT_MOSTLY_CLOUDY,NIGHT_MOSTLY_CLOUDY","Onshore,Onshore,Onshore,Onshore,Onshore,Onshore,Onshore,Onshore",8
5842041f4e65fad6a770892d,2024_03_12,33.79294656286144,-118.4070316699825,PV Cove,1.625,0.75786875,1.012545,15,15,"CLEAR,CLEAR,MOSTLY_CLEAR,NIGHT_MOSTLY_CLOUDY,NIGHT_MOSTLY_CLOUDY,NIGHT_MOSTLY_CLEAR,NIGHT_MOSTLY_CLOUDY,NIGHT_CLOUDY","Onshore,Onshore,Onshore,Onshore,Onshore,Onshore,Onshore,Onshore",8
5842041f4e65fad6a7708930,2024_03_12,34.03944902292561,-118.57539,Chart House,1.125,0.07125000000000001,0.375,15,15,"MOSTLY_CLEAR,MOSTLY_CLEAR,MOSTLY_CLEAR,NIGHT_CLEAR,NIGHT_CLEAR,NIGHT_CLEAR,NIGHT_CLEAR,NIGHT_CLEAR","Cross-shore,Onshore,Onshore,Onshore,Offshore,Offshore,Offshore,Cross-shore",8
5842041f4e65fad6a7708936,2024_03_12,34.0016731994772,-118.80456,Point Dume,2.33375,0.4835,0.7886875,15,15,"CLEAR,CLEAR,CLEAR,NIGHT_CLEAR,NIGHT_CLEAR,NIGHT_CLEAR,NIGHT_MOSTLY_CLOUDY,NIGHT_BRIEF_SHOWERS","Cross-shore,Cross-shore,Cross-shore,Offshore,Offshore,Offshore,Cross-shore,Cross-shore",8
5842041f4e65fad6a7708937,2024_03_12,34.02587527588963,-118.7554939066114,Latigo Point,2,0.32875,0.63375,15,15,"CLEAR,CLEAR,CLEAR,NIGHT_CLEAR,NIGHT_CLEAR,NIGHT_CLEAR,NIGHT_CLEAR,NIGHT_CLEAR","Cross-shore,Cross-shore,Offshore,Offshore,Offshore,Offshore,Cross-shore,Cross-shore",8
5842041f4e65fad6a770893f,2024_03_12,34.043762,-118.93294,Leo Carrillo,2.22875,0.616,1.01925,15,15,"CLEAR,CLEAR,CLEAR,NIGHT_CLEAR,NIGHT_MOSTLY_CLEAR,NIGHT_MIST,NIGHT_MIST,NIGHT_CLEAR","Cross-shore,Cross-shore,Cross-shore,Offshore,Offshore,Offshore,Offshore,Offshore",8
5842041f4e65fad6a7708941,2024_03_12,36.69388179265737,-121.81289,Marina State Beach,2,2.9925,3.55625,13,13,"MOSTLY_CLOUDY,MOSTLY_CLOUDY,BRIEF_SHOWERS,CLOUDY,NIGHT_MOSTLY_CLOUDY,NIGHT_OVERCAST,NIGHT_MOSTLY_CLOUDY,NIGHT_MOSTLY_CLOUDY","Onshore,Onshore,Onshore,Onshore,Onshore,Onshore,Onshore,Onshore",8
5842041f4e65fad6a7708944,2024_03_12,34.34145077331085,-119.416999352654,Stanley's,2,0.62125,0.925,14,14,"CLEAR,CLEAR,MOSTLY_CLEAR,MOSTLY_CLEAR,NIGHT_CLOUDY,NIGHT_MIST,NIGHT_CLEAR,NIGHT_CLEAR","Onshore,Onshore,Onshore,Onshore,Onshore,Onshore,Onshore,Onshore",8
5842041f4e65fad6a7708945,2024_03_12,34.35113017313915,-119.426921498899,Oil Piers,1.75,0.5725,0.875,14,14,"CLEAR,CLEAR,MOSTLY_CLEAR,MOSTLY_CLEAR,NIGHT_CLEAR,NIGHT_MIST,NIGHT_CLEAR,NIGHT_CLEAR","Onshore,Onshore,Onshore,Onshore,Onshore,Cross-shore,Onshore,Onshore",8
5842041f4e65fad6a770894c,2024_03_12,34.17876333306018,-119.2399483564372,Oxnard,2,1.03875,1.3175000000000001,14,14,"CLEAR,CLEAR,CLEAR,CLEAR,NIGHT_MOSTLY_CLOUDY,NIGHT_CLEAR,NIGHT_CLEAR,NIGHT_CLEAR","Onshore,Onshore,Onshore,Onshore,Onshore,Onshore,Onshore,Onshore",8
5842041f4e65fad6a7708957,2024_03_12,34.31720331100517,-119.3882324751725,Pitas Point,1.75,0.62875,0.93375,14,14,"MIST,CLEAR,CLEAR,MOSTLY_CLEAR,NIGHT_OVERCAST,NIGHT_CLEAR,NIGHT_CLEAR,NIGHT_CLEAR","Onshore,Cross-shore,Cross-shore,Cross-shore,Cross-shore,Cross-shore,Cross-shore,Cross-shore",8
5842041f4e65fad6a7708959,2024_03_12,34.27851754384724,-119.316202617226,Emma Wood,1.25,0.5549999999999999,0.85875,14,14,"MIST,MIST,MOSTLY_CLEAR,MOSTLY_CLEAR,NIGHT_CLEAR,NIGHT_CLEAR,NIGHT_CLEAR,NIGHT_CLEAR","Onshore,Onshore,Onshore,Onshore,Onshore,Onshore,Onshore,Offshore",8
5842041f4e65fad6a770895a,2024_03_12,34.35513640390276,-119.4400589884255,Mussel Shoals (aka Little Rincon),2.125,0.85875,1.08875,14,14,"MIST,CLEAR,MOSTLY_CLEAR,CLEAR,NIGHT_CLEAR,NIGHT_CLEAR,NIGHT_CLEAR,NIGHT_CLEAR","Onshore,Cross-shore,Onshore,Onshore,Cross-shore,Cross-shore,Onshore,Onshore",8
5842041f4e65fad6a770895e,2024_03_12,34.28991757054902,-119.3366646794652,Summer Beach,1.5,0.39375,0.69875,14,14,"MIST,MIST,MOSTLY_CLEAR,MOSTLY_CLEAR,NIGHT_MOSTLY_CLOUDY,NIGHT_CLEAR,NIGHT_CLEAR,NIGHT_CLEAR","Onshore,Onshore,Onshore,Onshore,Onshore,Onshore,Onshore,Offshore",8
5842041f4e65fad6a770895f,2024_03_12,34.30897456105926,-119.3582501170116,Solimar,1.625,0.43,0.735,14,14,"MIST,CLEAR,CLEAR,MOSTLY_CLEAR,NIGHT_OVERCAST,NIGHT_CLEAR,NIGHT_CLEAR,NIGHT_CLEAR","Onshore,Cross-shore,Cross-shore,Onshore,Cross-shore,Cross-shore,Cross-shore,Cross-shore",8
5842041f4e65fad6a7708960,2024_03_12,34.39836265281686,-119.70213,Leadbetter Point,1.75,0.10625,0.415,14,14,"CLEAR,CLEAR,CLEAR,CLEAR,NIGHT_CLEAR,NIGHT_CLEAR,NIGHT_CLEAR,NIGHT_CLEAR","Offshore,Offshore,Offshore,Offshore,Offshore,Cross-shore,Offshore,Offshore",8
5842041f4e65fad6a7708961,2024_03_12,34.46052293893899,-120.07328,Refugio,1,0.1275,0.43625,14,14,"CLEAR,CLEAR,CLEAR,CLEAR,NIGHT_CLEAR,NIGHT_CLEAR,NIGHT_CLEAR,NIGHT_CLEAR","Offshore,Offshore,Offshore,Offshore,Offshore,Offshore,Offshore,Offshore",8
5842041f4e65fad6a7708962,2024_03_12,34.40754276777778,-119.87639,Devereux,2.375,0.585,0.88875,14,14,"MIST,CLEAR,CLEAR,CLEAR,NIGHT_CLEAR,NIGHT_CLEAR,NIGHT_CLEAR,NIGHT_CLEAR","Cross-shore,Offshore,Offshore,Offshore,Offshore,Offshore,Offshore,Offshore",8
5842041f4e65fad6a7708963,2024_03_12,34.27479983305182,-119.3133222656776,Ventura Overhead,1.625,0.6,0.90375,14,14,"MIST,MIST,CLEAR,MOSTLY_CLEAR,NIGHT_CLEAR,NIGHT_CLEAR,NIGHT_CLEAR,NIGHT_CLEAR","Onshore,Onshore,Onshore,Onshore,Onshore,Onshore,Onshore,Offshore",8
5842041f4e65fad6a7708964,2024_03_12,34.41023236011655,-119.88261,Sands,1.5,0.66,0.965,14,14,"MIST,CLEAR,CLEAR,CLEAR,NIGHT_CLEAR,NIGHT_CLEAR,NIGHT_CLEAR,NIGHT_CLEAR","Onshore,Onshore,Onshore,Cross-shore,Cross-shore,Cross-shore,Cross-shore,Cross-shore",8
5842041f4e65fad6a7708966,2024_03_12,34.40450193869233,-119.68752,Sandspit,1,0,0.26625,14,14,"CLEAR,CLEAR,MOSTLY_CLEAR,CLEAR,NIGHT_CLEAR,NIGHT_CLEAR,NIGHT_CLEAR,NIGHT_CLEAR","Offshore,Offshore,Offshore,Offshore,Offshore,Cross-shore,Offshore,Offshore",8
5842041f4e65fad6a7708967,2024_03_12,34.41549098334453,-119.6375149840203,Hammond's,2,0.15125,0.455,14,14,"CLEAR,CLEAR,MOSTLY_CLEAR,CLEAR,NIGHT_CLOUDY,NIGHT_CLEAR,NIGHT_CLEAR,NIGHT_CLEAR","Cross-shore,Cross-shore,Cross-shore,Offshore,Offshore,Offshore,Offshore,Offshore",8
5842041f4e65fad6a7708968,2024_03_12,34.45759322742309,-120.0220251867315,El Capitan,1,0.245,0.5475000000000001,14,14,"CLEAR,CLEAR,CLEAR,CLEAR,NIGHT_CLEAR,NIGHT_CLEAR,NIGHT_CLEAR,NIGHT_CLEAR","Offshore,Offshore,Offshore,Offshore,Offshore,Offshore,Offshore,Offshore",8
5842041f4e65fad6a770896c,2024_03_12,34.405117655616,-119.84317,Campus Point,1.75,0.255,0.56125,14,14,"CLEAR,CLEAR,CLEAR,CLEAR,NIGHT_CLEAR,NIGHT_CLEAR,NIGHT_CLEAR,NIGHT_CLEAR","Cross-shore,Cross-shore,Offshore,Offshore,Offshore,Offshore,Offshore,Offshore",8
5842041f4e65fad6a770896e,2024_03_12,34.38935162233354,-119.51955,Carpinteria State Beach,2.5,0.88125,1.09375,14,14,"MOSTLY_CLEAR,MOSTLY_CLEAR,MOSTLY_CLEAR,CLEAR,NIGHT_CLEAR,NIGHT_CLEAR,NIGHT_CLEAR,NIGHT_CLEAR","Onshore,Onshore,Onshore,Onshore,Offshore,Offshore,Offshore,Offshore",8
5842041f4e65fad6a770896f,2024_03_12,37.48296565175612,-122.4549300127824,Half Moon Bay,2.375,2.1475,2.5625,13,13,"OVERCAST,LIGHT_RAIN,LIGHT_RAIN,BRIEF_SHOWERS,NIGHT_BRIEF_SHOWERS,NIGHT_BRIEF_SHOWERS,NIGHT_DRIZZLE,NIGHT_DRIZZLE","Onshore,Onshore,Onshore,Onshore,Onshore,Onshore,Onshore,Onshore",8
5842041f4e65fad6a7708970,2024_03_12,37.499,-122.471,Princeton Jetty,2.625,2.27875,2.72,13,13,"OVERCAST,OVERCAST,MIST,MIST,NIGHT_OVERCAST,NIGHT_MOSTLY_CLEAR,NIGHT_OVERCAST,NIGHT_LIGHT_RAIN","Onshore,Onshore,Onshore,Onshore,Onshore,Onshore,Onshore,Onshore",8
5842041f4e65fad6a7708972,2024_03_12,37.35699547365155,-122.4069534707252,Tunitas Creek,2,3.715,4.44,13,13,"DRIZZLE,OVERCAST,OVERCAST,MOSTLY_CLOUDY,NIGHT_BRIEF_SHOWERS,NIGHT_MOSTLY_CLOUDY,NIGHT_MOSTLY_CLOUDY,NIGHT_OVERCAST","Onshore,Onshore,Onshore,Onshore,Onshore,Onshore,Onshore,Onshore",8
5842041f4e65fad6a7708974,2024_03_12,37.54735589428842,-122.5161090212687,Montara,2.125,2.77,3.305,13,13,"CLOUDY,CLOUDY,MIST,MOSTLY_CLOUDY,NIGHT_MOSTLY_CLOUDY,NIGHT_MOSTLY_CLOUDY,NIGHT_DRIZZLE,NIGHT_DRIZZLE","Cross-shore,Cross-shore,Cross-shore,Cross-shore,Cross-shore,Cross-shore,Cross-shore,Cross-shore",8
5842041f4e65fad6a7708975,2024_03_12,34.3869373724559,-119.5142334209018,Tarpits,1.75,0.66875,0.9725,14,14,"CLEAR,MOSTLY_CLEAR,MOSTLY_CLEAR,CLEAR,NIGHT_CLEAR,NIGHT_CLEAR,NIGHT_CLEAR,NIGHT_CLEAR","Cross-shore,Cross-shore,Cross-shore,Onshore,Cross-shore,Offshore,Offshore,Onshore",8
5842041f4e65fad6a7708976,2024_03_12,37.59881852720143,-122.50463,Pacifica / Linda Mar,2.47875,1.1932791666666667,1.6772166666666668,14,14,"MIST,MIST,CLOUDY,CLEAR,NIGHT_MOSTLY_CLOUDY,NIGHT_MOSTLY_CLOUDY,NIGHT_OVERCAST,NIGHT_OVERCAST","Onshore,Onshore,Onshore,Cross-shore,Cross-shore,Cross-shore,Cross-shore,Cross-shore",8
5842041f4e65fad6a7708978,2024_03_12,37.59883098461164,-122.5143843582282,Pedro Point,3,2.7425,3.27,13,13,"CLOUDY,OVERCAST,CLOUDY,CLEAR,NIGHT_MOSTLY_CLOUDY,NIGHT_MOSTLY_CLOUDY,NIGHT_OVERCAST,NIGHT_OVERCAST","Cross-shore,Cross-shore,Cross-shore,Cross-shore,Cross-shore,Cross-shore,Cross-shore,Cross-shore",8
5842041f4e65fad6a7708979,2024_03_12,37.61081996647663,-122.4973287570634,Rockaway,2,2.7399999999999998,3.265,13,13,"MIST,MIST,CLOUDY,CLEAR,NIGHT_MOSTLY_CLOUDY,NIGHT_MOSTLY_CLOUDY,NIGHT_OVERCAST,NIGHT_OVERCAST","Onshore,Onshore,Onshore,Onshore,Onshore,Onshore,Cross-shore,Cross-shore",8
5842041f4e65fad6a770897a,2024_03_12,37.809987384424446,-122.4751353263855,Fort Point,2.5,1.73625,2.07625,13,13,"CLOUDY,OVERCAST,CLOUDY,CLEAR,NIGHT_MOSTLY_CLOUDY,NIGHT_MOSTLY_CLOUDY,NIGHT_OVERCAST,NIGHT_DRIZZLE","Cross-shore,Cross-shore,Onshore,Onshore,Cross-shore,Onshore,Onshore,Onshore",8
5842041f4e65fad6a770897c,2024_03_12,37.63422542967464,-122.4951,Sharp Park,1.75,2.95,3.5175,13,13,"DRIZZLE,OVERCAST,CLOUDY,CLEAR,NIGHT_MOSTLY_CLOUDY,NIGHT_CLEAR,NIGHT_MOSTLY_CLOUDY,NIGHT_OVERCAST","Onshore,Onshore,Onshore,Onshore,Onshore,Onshore,Onshore,Onshore",8
5842041f4e65fad6a770897d,2024_03_12,37.27313605072472,-122.4127387912554,Pescadero,2.5,3.555,4.24875,13,13,"CLOUDY,CLOUDY,CLOUDY,MOSTLY_CLOUDY,NIGHT_CLOUDY,NIGHT_CLEAR,NIGHT_MOSTLY_CLOUDY,NIGHT_MOSTLY_CLOUDY","Onshore,Onshore,Onshore,Cross-shore,Onshore,Cross-shore,Cross-shore,Cross-shore",8
5842041f4e65fad6a770897e,2024_03_12,37.18140279972666,-122.3926685899327,Pigeon Point,2.625,3.48375,4.16375,13,13,"CLOUDY,CLOUDY,OVERCAST,MOSTLY_CLOUDY,NIGHT_MIST,NIGHT_BRIEF_SHOWERS,NIGHT_MOSTLY_CLEAR,NIGHT_MOSTLY_CLOUDY","Cross-shore,Cross-shore,Cross-shore,Onshore,Onshore,Onshore,Onshore,Onshore",8
5842041f4e65fad6a770897f,2024_03_12,37.11578956919415,-122.314699271291,Ano Nuevo,3.625,2.79125,3.33875,13,13,"MOSTLY_CLOUDY,CLEAR,CLOUDY,MOSTLY_CLOUDY,NIGHT_DRIZZLE,NIGHT_CLEAR,NIGHT_MOSTLY_CLEAR,NIGHT_MOSTLY_CLEAR","Offshore,Offshore,Offshore,Cross-shore,Cross-shore,Cross-shore,Onshore,Onshore",8
5842041f4e65fad6a7708980,2024_03_12,37.09520872681598,-122.2805474707768,Waddell Creek,3,2.7525,3.2875,13,13,"MOSTLY_CLOUDY,CLOUDY,CLOUDY,CLEAR,NIGHT_CLEAR,NIGHT_CLEAR,NIGHT_MOSTLY_CLEAR,NIGHT_CLEAR","Cross-shore,Cross-shore,Cross-shore,Onshore,Onshore,Onshore,Onshore,Onshore",8
5842041f4e65fad6a7708981,2024_03_12,36.96512852130351,-122.1252825495626,Four Mile,3.5,3.11375,3.705,13,13,"CLEAR,CLEAR,CLEAR,MOSTLY_CLOUDY,NIGHT_CLEAR,NIGHT_MOSTLY_CLEAR,NIGHT_MOSTLY_CLOUDY,NIGHT_MOSTLY_CLOUDY","Offshore,Offshore,Offshore,Offshore,Offshore,Cross-shore,Cross-shore,Cross-shore",8
5842041f4e65fad6a7708982,2024_03_12,37.04122807048655,-122.2333684729756,Scott Creek,3,2.78,3.32125,13,13,"CLEAR,CLOUDY,CLEAR,CLEAR,NIGHT_OVERCAST,NIGHT_BRIEF_SHOWERS,NIGHT_BRIEF_SHOWERS,NIGHT_SHOWERS","Cross-shore,Cross-shore,Cross-shore,Cross-shore,Onshore,Onshore,Onshore,Onshore",8
5842041f4e65fad6a7708983,2024_03_12,37.02350229387179,-122.21908,Davenport,3,3.04,3.63,13,13,"CLEAR,CLEAR,CLEAR,CLEAR,NIGHT_OVERCAST,NIGHT_BRIEF_SHOWERS,NIGHT_MOSTLY_CLOUDY,NIGHT_MOSTLY_CLOUDY","Cross-shore,Cross-shore,Cross-shore,Cross-shore,Cross-shore,Onshore,Onshore,Onshore",8
5842041f4e65fad6a7708986,2024_03_12,36.94905295955728,-122.0611823912244,Natural Bridges,3,2.49625,2.9825,13,13,"CLEAR,CLEAR,CLEAR,CLEAR,NIGHT_CLEAR,NIGHT_MOSTLY_CLEAR,NIGHT_MOSTLY_CLOUDY,NIGHT_MOSTLY_CLOUDY","Cross-shore,Cross-shore,Cross-shore,Cross-shore,Cross-shore,Cross-shore,Cross-shore,Onshore",8
5842041f4e65fad6a7708987,2024_03_12,36.95154854910425,-122.0420693940968,Mitchell's Cove,4,1.93125,2.30625,13,13,"CLEAR,CLEAR,CLEAR,CLEAR,NIGHT_CLEAR,NIGHT_CLEAR,NIGHT_MOSTLY_CLOUDY,NIGHT_MOSTLY_CLOUDY","Cross-shore,Cross-shore,Cross-shore,Cross-shore,Cross-shore,Cross-shore,Cross-shore,Cross-shore",8
5842041f4e65fad6a770898a,2024_03_12,36.9572312370203,-121.98177,26th Ave,3,2.31875,2.7725,13,13,"CLEAR,CLEAR,CLEAR,CLEAR,NIGHT_CLEAR,NIGHT_CLEAR,NIGHT_MOSTLY_CLEAR,NIGHT_CLEAR","Onshore,Onshore,Onshore,Onshore,Onshore,Onshore,Onshore,Onshore",8
5842041f4e65fad6a770898e,2024_03_12,36.91899972819882,-121.85536,Manresa,2.375,2.5300000000000002,3.0225,13,13,"CLEAR,CLEAR,CLEAR,CLEAR,NIGHT_CLEAR,NIGHT_CLEAR,NIGHT_CLEAR,NIGHT_MOSTLY_CLOUDY","Onshore,Onshore,Onshore,Onshore,Onshore,Onshore,Onshore,Onshore",8
5842041f4e65fad6a7708990,2024_03_12,34.45747731928454,-120.34242,The Ranch,3,1.0175,1.26875,13,13,"CLEAR,CLEAR,CLEAR,CLEAR,NIGHT_CLEAR,NIGHT_CLEAR,NIGHT_CLEAR,NIGHT_CLEAR","Offshore,Offshore,Offshore,Offshore,Offshore,Offshore,Offshore,Offshore",8
5842041f4e65fad6a7708991,2024_03_12,34.50875036590315,-120.50348,Jalama,2.75,1.87875,2.2425,13,13,"CLEAR,CLEAR,CLEAR,CLEAR,NIGHT_CLEAR,NIGHT_MOSTLY_CLOUDY,NIGHT_MOSTLY_CLOUDY,NIGHT_MOSTLY_CLOUDY","Cross-shore,Cross-shore,Cross-shore,Cross-shore,Cross-shore,Cross-shore,Cross-shore,Cross-shore",8
5842041f4e65fad6a7708996,2024_03_12,34.68700870220497,-120.6111611019887,Surf Beach,1.5,4.67375,5.58625,13,13,"CLEAR,MOSTLY_CLOUDY,MOSTLY_CLOUDY,CLOUDY,NIGHT_CLOUDY,NIGHT_MOSTLY_CLOUDY,NIGHT_MOSTLY_CLOUDY,NIGHT_CLOUDY","Onshore,Onshore,Onshore,Onshore,Onshore,Onshore,Onshore,Onshore",8
5842041f4e65fad6a770899c,2024_03_12,35.5730538161116,-121.1143362345574,Moonstone,3,3.4525,4.12375,13,13,"CLEAR,CLEAR,CLEAR,CLEAR,NIGHT_CLEAR,NIGHT_CLEAR,NIGHT_CLEAR,NIGHT_CLEAR","Onshore,Onshore,Onshore,Onshore,Cross-shore,Onshore,Cross-shore,Cross-shore",8
5842041f4e65fad6a770899d,2024_03_12,35.61533716776573,-121.1502053073914,Pico Creek,3,2.405,2.87375,13,13,"CLEAR,CLEAR,CLEAR,CLEAR,NIGHT_CLOUDY,NIGHT_CLEAR,NIGHT_CLEAR,NIGHT_CLEAR","Onshore,Onshore,Onshore,Onshore,Cross-shore,Cross-shore,Cross-shore,Cross-shore",8
5842041f4e65fad6a770899e,2024_03_12,35.56829031927379,-121.1120653023953,Santa Rosa Creek,2.625,3.4525,4.12375,13,13,"CLEAR,CLEAR,CLEAR,MIST,NIGHT_CLEAR,NIGHT_CLEAR,NIGHT_CLEAR,NIGHT_CLEAR","Cross-shore,Cross-shore,Cross-shore,Cross-shore,Cross-shore,Cross-shore,Cross-shore,Cross-shore",8
5842041f4e65fad6a77089a2,2024_03_12,35.44820114936284,-120.90715,"Cayucos Pier, Southside ",3,1.6875,2.01625,13,13,"MOSTLY_CLOUDY,CLEAR,CLEAR,MIST,NIGHT_CLEAR,NIGHT_CLEAR,NIGHT_CLEAR,NIGHT_CLEAR","Cross-shore,Cross-shore,Cross-shore,Cross-shore,Cross-shore,Offshore,Offshore,Offshore",8
5842041f4e65fad6a77089a4,2024_03_12,35.30143372628852,-120.877819239902,Cable Landing,2,4.65625,5.5625,13,13,"MOSTLY_CLOUDY,MOSTLY_CLOUDY,CLEAR,CLOUDY,NIGHT_MOSTLY_CLEAR,NIGHT_MOSTLY_CLEAR,NIGHT_MOSTLY_CLOUDY,NIGHT_MOSTLY_CLOUDY","Onshore,Onshore,Onshore,Onshore,Onshore,Onshore,Onshore,Onshore",8
5842041f4e65fad6a77089a9,2024_03_12,35.61269103500222,-121.1480725356606,San Simeon,3,1.6721249999999999,1.999375,13,13,"CLEAR,CLEAR,CLEAR,CLEAR,NIGHT_CLEAR,NIGHT_CLEAR,NIGHT_CLEAR,NIGHT_CLEAR","Cross-shore,Cross-shore,Cross-shore,Cross-shore,Cross-shore,Cross-shore,Cross-shore,Cross-shore",8
5842041f4e65fad6a77089ab,2024_03_12,35.1775325966252,-120.7341125142258,Avila Beach,2,0.19625,0.5,14,14,"CLEAR,MOSTLY_CLOUDY,CLEAR,CLEAR,NIGHT_CLEAR,NIGHT_CLEAR,NIGHT_CLEAR,NIGHT_CLEAR","Cross-shore,Cross-shore,Cross-shore,Cross-shore,Offshore,Offshore,Offshore,Offshore",8
5842041f4e65fad6a77089ac,2024_03_12,35.13877877884115,-120.64535,Pismo Beach Pier,2.85375,1.9199583333333332,2.437275,14,14,"CLEAR,MOSTLY_CLOUDY,CLEAR,MOSTLY_CLOUDY,NIGHT_MIST,NIGHT_MOSTLY_CLEAR,NIGHT_CLEAR,NIGHT_MOSTLY_CLEAR","Cross-shore,Cross-shore,Cross-shore,Cross-shore,Cross-shore,Cross-shore,Cross-shore,Cross-shore",8
5842041f4e65fad6a77089ad,2024_03_12,46.8907710233147,-124.12964,Westport/Olympic Peninsula,0.625,3.2,3.825,9,9,"RAIN,LIGHT_RAIN,DRIZZLE,DRIZZLE,NIGHT_OVERCAST,NIGHT_OVERCAST,NIGHT_HEAVY_SHOWERS,NIGHT_BRIEF_SHOWERS","Cross-shore,Cross-shore,Cross-shore,Onshore,Onshore,Onshore,Onshore,Onshore",8
5842041f4e65fad6a77089ae,2024_03_12,46.35185177248545,-124.06747,Long Beach Peninsula,0,3.9075,4.66875,9,9,"RAIN,RAIN,LIGHT_RAIN,MOSTLY_CLOUDY,NIGHT_OVERCAST,NIGHT_MOSTLY_CLOUDY,NIGHT_CLOUDY,NIGHT_MOSTLY_CLOUDY","Cross-shore,Cross-shore,Cross-shore,Onshore,Onshore,Onshore,Onshore,Onshore",8
5842041f4e65fad6a77089af,2024_03_12,47.90649175554033,-124.6370864743483,La Push,0.125,3.0975,3.70375,9,9,"RAIN,RAIN,LIGHT_RAIN,SHOWERS,NIGHT_OVERCAST,NIGHT_MOSTLY_CLOUDY,NIGHT_CLEAR,NIGHT_CLOUDY","Cross-shore,Onshore,Cross-shore,Onshore,Onshore,Onshore,Onshore,Onshore",8
5842041f4e65fad6a77089b0,2024_03_12,42.04368239985442,-124.26828,Brookings Jetty,0.25,1.50013625,2.343965,11,11,"RAIN,RAIN,DRIZZLE,DRIZZLE,NIGHT_OVERCAST,NIGHT_LIGHT_RAIN,NIGHT_RAIN,NIGHT_OVERCAST","Onshore,Onshore,Onshore,Onshore,Onshore,Onshore,Onshore,Onshore",8
5842041f4e65fad6a77089b1,2024_03_12,42.74071837900346,-124.4983727491047,Port Orford,0.25,3.50125,3.95375,10,10,"RAIN,SHOWERS,BRIEF_SHOWERS,CLEAR,NIGHT_RAIN,NIGHT_LIGHT_RAIN,NIGHT_BRIEF_SHOWERS,NIGHT_MOSTLY_CLOUDY","Onshore,Onshore,Onshore,Onshore,Onshore,Onshore,Onshore,Onshore",8
5842041f4e65fad6a77089b2,2024_03_12,44.01532689312291,-124.13865,Florence South Jetty,0.375,4.0275,4.81125,10,10,"LIGHT_RAIN,LIGHT_RAIN,DRIZZLE,DRIZZLE,NIGHT_DRIZZLE,NIGHT_BRIEF_SHOWERS,NIGHT_MIST,NIGHT_OVERCAST","Cross-shore,Cross-shore,Cross-shore,Onshore,Onshore,Onshore,Onshore,Onshore",8
5842041f4e65fad6a77089b3,2024_03_12,42.41812540774362,-124.42945,Gold Beach South Jetty,0,3.6075,4.31,11,11,"RAIN,DRIZZLE,BRIEF_SHOWERS,BRIEF_SHOWERS,NIGHT_BRIEF_SHOWERS,NIGHT_DRIZZLE,NIGHT_BRIEF_SHOWERS,NIGHT_MOSTLY_CLOUDY","Onshore,Onshore,Onshore,Onshore,Onshore,Onshore,Onshore,Onshore",8
5842041f4e65fad6a77089b4,2024_03_12,44.95857310226525,-124.0219017690976,Lincoln City,0.5,3.81875,4.56375,10,10,"RAIN,RAIN,LIGHT_RAIN,SHOWERS,NIGHT_MOSTLY_CLOUDY,NIGHT_DRIZZLE,NIGHT_OVERCAST,NIGHT_OVERCAST","Cross-shore,Cross-shore,Cross-shore,Cross-shore,Onshore,Onshore,Onshore,Onshore",8
5842041f4e65fad6a77089b5,2024_03_12,44.63792761362982,-124.0657,Newport,0,4.2375,5.0512500000000005,10,10,"LIGHT_RAIN,LIGHT_RAIN,DRIZZLE,RAIN,NIGHT_BRIEF_SHOWERS,NIGHT_MOSTLY_CLOUDY,NIGHT_CLOUDY,NIGHT_CLOUDY","Cross-shore,Cross-shore,Cross-shore,Onshore,Onshore,Onshore,Onshore,Onshore",8
5842041f4e65fad6a77089b6,2024_03_12,45.61468496266301,-123.94643,Rockaway Beach,1,3.94,4.7075000000000005,9,9,"LIGHT_RAIN,LIGHT_RAIN,LIGHT_RAIN,MOSTLY_CLOUDY,NIGHT_CLEAR,NIGHT_MIST,NIGHT_DRIZZLE,NIGHT_CLEAR","Cross-shore,Cross-shore,Cross-shore,Cross-shore,Onshore,Onshore,Onshore,Onshore",8
5842041f4e65fad6a77089b7,2024_03_12,45.20252914186085,-123.96975,Pacific City,0,3.79875,4.54,10,10,"LIGHT_RAIN,LIGHT_RAIN,DRIZZLE,RAIN,NIGHT_MOSTLY_CLOUDY,NIGHT_LIGHT_RAIN,NIGHT_OVERCAST,NIGHT_RAIN","Cross-shore,Onshore,Onshore,Onshore,Onshore,Onshore,Onshore,Onshore",8
5842041f4e65fad6a77089b8,2024_03_12,45.88179930310263,-123.96681,Cannon Beach,0,3.8875,4.64625,9,9,"LIGHT_RAIN,OVERCAST,LIGHT_RAIN,SHOWERS,NIGHT_BRIEF_SHOWERS,NIGHT_MOSTLY_CLOUDY,NIGHT_MOSTLY_CLOUDY,NIGHT_OVERCAST","Cross-shore,Cross-shore,Cross-shore,Onshore,Onshore,Onshore,Onshore,Onshore",8
5842041f4e65fad6a77089ba,2024_03_12,40.02528754746774,-124.06372,Shelter Cove,0.625,1.03519625,1.617495,12,12,"RAIN,LIGHT_RAIN,LIGHT_RAIN,RAIN,NIGHT_RAIN,NIGHT_LIGHT_RAIN,NIGHT_OVERCAST,NIGHT_LIGHT_RAIN","Onshore,Onshore,Onshore,Onshore,Onshore,Onshore,Onshore,Onshore",8
5842041f4e65fad6a77089bb,2024_03_12,40.76816197136951,-124.24248,Humboldt Harbor Entrance,0.5,3.665,4.37875,11,11,"LIGHT_RAIN,LIGHT_RAIN,LIGHT_RAIN,LIGHT_RAIN,NIGHT_LIGHT_RAIN,NIGHT_DRIZZLE,NIGHT_OVERCAST,NIGHT_OVERCAST","Cross-shore,Cross-shore,Cross-shore,Cross-shore,Cross-shore,Cross-shore,Cross-shore,Cross-shore",8
5842041f4e65fad6a77089bc,2024_03_12,40.76684246920174,-124.23107,North Jetty,2,3.9925,4.77375,11,11,"LIGHT_RAIN,LIGHT_RAIN,LIGHT_RAIN,LIGHT_RAIN,NIGHT_CLEAR,NIGHT_OVERCAST,NIGHT_DRIZZLE,NIGHT_HEAVY_RAIN","Cross-shore,Cross-shore,Offshore,Offshore,Offshore,Cross-shore,Cross-shore,Cross-shore",8
5842041f4e65fad6a77089bd,2024_03_12,41.02731183893966,-124.1149972888982,Westhaven,1,5.07,6.06125,11,11,"LIGHT_RAIN,LIGHT_RAIN,DRIZZLE,OVERCAST,NIGHT_LIGHT_RAIN,NIGHT_OVERCAST,NIGHT_OVERCAST,NIGHT_OVERCAST","Cross-shore,Cross-shore,Cross-shore,Cross-shore,Cross-shore,Cross-shore,Cross-shore,Cross-shore",8
5842041f4e65fad6a77089be,2024_03_12,41.13016238153297,-124.16466,Sue-meg,2,3.28875,3.925,11,11,"LIGHT_RAIN,LIGHT_RAIN,LIGHT_RAIN,OVERCAST,NIGHT_OVERCAST,NIGHT_DRIZZLE,NIGHT_LIGHT_RAIN,NIGHT_LIGHT_RAIN","Offshore,Offshore,Offshore,Offshore,Offshore,Offshore,Cross-shore,Cross-shore",8
5842041f4e65fad6a77089bf,2024_03_12,37.8289474958188,-122.5376795097543,Fort Cronkite/Rodeo Beach,2,3.39625,4.0525,13,13,"CLOUDY,CLEAR,MOSTLY_CLOUDY,MOSTLY_CLOUDY,NIGHT_MOSTLY_CLOUDY,NIGHT_CLOUDY,NIGHT_OVERCAST,NIGHT_OVERCAST","Onshore,Onshore,Onshore,Onshore,Onshore,Onshore,Onshore,Onshore",8
5842041f4e65fad6a77089c0,2024_03_12,41.74415759876137,-124.17717,South Beach CA,1,2.50375,2.9825,11,11,"RAIN,LIGHT_RAIN,LIGHT_RAIN,OVERCAST,NIGHT_OVERCAST,NIGHT_LIGHT_RAIN,NIGHT_OVERCAST,NIGHT_LIGHT_RAIN","Onshore,Onshore,Onshore,Onshore,Onshore,Onshore,Onshore,Onshore",8
5842041f4e65fad6a77089c1,2024_03_12,37.89801283969752,-122.64519,Stinson Beach,2.875,0.9550000000000001,1.16125,13,13,"MIST,MIST,MIST,MIST,NIGHT_MIST,NIGHT_OVERCAST,NIGHT_DRIZZLE,NIGHT_BRIEF_SHOWERS","Offshore,Offshore,Offshore,Offshore,Offshore,Cross-shore,Cross-shore,Cross-shore",8
5842041f4e65fad6a77089c2,2024_03_12,37.90514516176495,-122.68151,Bolinas,2.875,0.75257375,1.175895,13,13,"OVERCAST,OVERCAST,MIST,MIST,NIGHT_MOSTLY_CLOUDY,NIGHT_OVERCAST,NIGHT_DRIZZLE,NIGHT_SHOWERS","Offshore,Offshore,Offshore,Offshore,Offshore,Offshore,Offshore,Cross-shore",8
5842041f4e65fad6a77089c3,2024_03_12,38.04892513158693,-122.9892494965416,Point Reyes (north),2,4.25875,5.07875,13,13,"CLOUDY,CLOUDY,MOSTLY_CLOUDY,MOSTLY_CLOUDY,NIGHT_DRIZZLE,NIGHT_OVERCAST,NIGHT_OVERCAST,NIGHT_CLOUDY","Cross-shore,Cross-shore,Cross-shore,Cross-shore,Offshore,Cross-shore,Cross-shore,Offshore",8
5842041f4e65fad6a77089c6,2024_03_12,38.31088736605785,-123.0496777333731,Doran Beach,2.625,1.085,1.32375,12,12,"DRIZZLE,OVERCAST,BRIEF_SHOWERS,OVERCAST,NIGHT_MOSTLY_CLOUDY,NIGHT_OVERCAST,NIGHT_MOSTLY_CLOUDY,NIGHT_MOSTLY_CLOUDY","Cross-shore,Cross-shore,Onshore,Onshore,Onshore,Onshore,Onshore,Onshore",8
5842041f4e65fad6a77089c7,2024_03_12,38.45077228660809,-123.13008,Russian Rivermouth,2,3.20875,3.82875,12,12,"MIST,OVERCAST,BRIEF_SHOWERS,LIGHT_RAIN,NIGHT_BRIEF_SHOWERS,NIGHT_LIGHT_RAIN,NIGHT_BRIEF_SHOWERS,NIGHT_RAIN","Onshore,Onshore,Onshore,Onshore,Onshore,Onshore,Onshore,Onshore",8
5842041f4e65fad6a77089c8,2024_03_12,38.35329968518107,-123.06906,Salmon Creek,2,3.1275,3.72375,12,12,"MIST,CLEAR,MOSTLY_CLOUDY,OVERCAST,NIGHT_MOSTLY_CLOUDY,NIGHT_DRIZZLE,NIGHT_BRIEF_SHOWERS,NIGHT_BRIEF_SHOWERS","Onshore,Onshore,Onshore,Onshore,Cross-shore,Onshore,Cross-shore,Cross-shore",8
5842041f4e65fad6a77089c9,2024_03_12,38.6845180197959,-123.4322714291198,Black Point Beach,3.75,2.315,2.765,12,12,"CLOUDY,CLOUDY,DRIZZLE,OVERCAST,NIGHT_LIGHT_RAIN,NIGHT_LIGHT_RAIN,NIGHT_RAIN,NIGHT_RAIN","Cross-shore,Cross-shore,Cross-shore,Offshore,Offshore,Offshore,Offshore,Offshore",8
5842041f4e65fad6a77089ca,2024_03_12,43.251076,-70.59144,Ogunquit,2,0.396475,0.7358625,4,3,"NIGHT_CLEAR,NIGHT_CLEAR,NIGHT_CLEAR,NIGHT_CLEAR,NIGHT_CLEAR,NIGHT_CLEAR,NIGHT_CLEAR,NIGHT_CLEAR","Offshore,Offshore,Offshore,Offshore,Offshore,Offshore,Offshore,Offshore",8
5842041f4e65fad6a77089cb,2024_03_12,41.362631366305415,-71.48006772942608,Point Judith,1.33375,0.03948750000000001,0.32553750000000004,6,4,"NIGHT_CLEAR,NIGHT_CLEAR,NIGHT_CLEAR,NIGHT_CLEAR,NIGHT_CLEAR,NIGHT_CLEAR,NIGHT_CLEAR,NIGHT_CLEAR","Offshore,Offshore,Offshore,Offshore,Offshore,Offshore,Offshore,Offshore",8
5842041f4e65fad6a77089cd,2024_03_12,41.422678090954726,-71.45413,Monahan's - Narragansett,1,0.2073325,0.3239575,5,5,"NIGHT_CLEAR,NIGHT_CLEAR,NIGHT_CLEAR,NIGHT_CLEAR,NIGHT_CLEAR,NIGHT_CLEAR,NIGHT_CLEAR,NIGHT_CLEAR","Offshore,Offshore,Offshore,Offshore,Offshore,Offshore,Offshore,Offshore",8
5842041f4e65fad6a77089ce,2024_03_12,41.469,-71.293,Ruggles - Newport,0.625,0.25947875,0.40543875,5,5,"NIGHT_CLEAR,NIGHT_CLEAR,NIGHT_CLEAR,NIGHT_CLEAR,NIGHT_CLEAR,NIGHT_CLEAR,NIGHT_CLEAR,NIGHT_CLEAR","Offshore,Offshore,Offshore,Offshore,Offshore,Offshore,Cross-shore,Cross-shore",8
5842041f4e65fad6a77089cf,2024_03_12,43.175394,-70.606351,Short Sands Beach,1,0.4325,0.7375,5,5,"NIGHT_CLEAR,NIGHT_CLEAR,NIGHT_CLEAR,NIGHT_CLEAR,NIGHT_CLEAR,NIGHT_CLEAR,NIGHT_CLEAR,NIGHT_CLEAR","Offshore,Offshore,Offshore,Offshore,Offshore,Offshore,Offshore,Offshore",8
5842041f4e65fad6a77089d0,2024_03_12,41.487408,-71.29017,First Beach,1,0.01125,0.29375,5,5,"NIGHT_CLEAR,NIGHT_CLEAR,NIGHT_CLEAR,NIGHT_CLEAR,NIGHT_CLEAR,NIGHT_CLEAR,NIGHT_CLEAR,NIGHT_CLEAR","Offshore,Offshore,Offshore,Offshore,Offshore,Offshore,Offshore,Offshore",8
5842041f4e65fad6a77089d1,2024_03_12,42.27916830233153,-70.86498,Nantasket Beach,0.125,0.22261250000000002,0.5311625,4,3,"NIGHT_CLEAR,NIGHT_CLEAR,NIGHT_CLEAR,NIGHT_CLEAR,NIGHT_CLEAR,NIGHT_CLEAR,NIGHT_CLEAR,NIGHT_CLEAR","Cross-shore,Cross-shore,Cross-shore,Cross-shore,Cross-shore,Cross-shore,Cross-shore,Cross-shore",8
5842041f4e65fad6a77089d2,2024_03_12,41.817,-69.935,Cape Cod,1.625,0.9075,1.21125,5,5,"NIGHT_CLEAR,NIGHT_CLEAR,NIGHT_CLEAR,NIGHT_CLEAR,NIGHT_CLEAR,NIGHT_CLEAR,NIGHT_CLEAR,NIGHT_CLEAR","Offshore,Offshore,Offshore,Offshore,Offshore,Offshore,Offshore,Offshore",8
5842041f4e65fad6a77089d3,2024_03_12,42.22055448975661,-70.70634873403819,Egypt Beach,1,0.36,0.665,5,5,"NIGHT_CLEAR,NIGHT_CLEAR,NIGHT_CLEAR,NIGHT_CLEAR,NIGHT_CLEAR,NIGHT_CLEAR,NIGHT_CLEAR,NIGHT_CLEAR","Offshore,Offshore,Offshore,Offshore,Offshore,Offshore,Offshore,Offshore",8
5842041f4e65fad6a77089d4,2024_03_12,41.48739647744607,-71.25723,Second Beach,0.75,0.2184975,0.3705734375,6,4,"NIGHT_CLEAR,NIGHT_CLEAR,NIGHT_CLEAR,NIGHT_CLEAR,NIGHT_CLEAR,NIGHT_CLEAR,NIGHT_CLEAR,NIGHT_CLEAR","Cross-shore,Cross-shore,Cross-shore,Cross-shore,Cross-shore,Cross-shore,Cross-shore,Cross-shore",8
5842041f4e65fad6a77089d5,2024_03_12,42.964,-70.769,Fox Hill,1.875,0.3411625,0.6722125,4,3,"NIGHT_CLEAR,NIGHT_CLEAR,NIGHT_CLEAR,NIGHT_CLEAR,NIGHT_CLEAR,NIGHT_CLEAR,NIGHT_CLEAR,NIGHT_CLEAR","Offshore,Offshore,Offshore,Offshore,Offshore,Offshore,Offshore,Offshore",8
5842041f4e65fad6a77089d6,2024_03_12,42.991359,-70.75149,Straws Point,1.5,0.3399125,0.642525,4,3,"NIGHT_CLEAR,NIGHT_CLEAR,NIGHT_CLEAR,NIGHT_CLEAR,NIGHT_CLEAR,NIGHT_CLEAR,NIGHT_CLEAR,NIGHT_CLEAR","Offshore,Offshore,Offshore,Offshore,Offshore,Offshore,Offshore,Offshore",8
5842041f4e65fad6a77089d7,2024_03_12,42.946,-70.786,Plaice Cove,1.875,0.3411625,0.6709625,4,3,"NIGHT_CLEAR,NIGHT_CLEAR,NIGHT_CLEAR,NIGHT_CLEAR,NIGHT_CLEAR,NIGHT_CLEAR,NIGHT_CLEAR,NIGHT_CLEAR","Offshore,Offshore,Offshore,Offshore,Offshore,Offshore,Offshore,Offshore",8
5842041f4e65fad6a77089d9,2024_03_12,42.911574,-70.80831,The Main Beach,2.33375,0.475019375,0.7684084375000001,4,3,"NIGHT_CLEAR,NIGHT_CLEAR,NIGHT_CLEAR,NIGHT_CLEAR,NIGHT_CLEAR,NIGHT_CLEAR,NIGHT_CLEAR,NIGHT_CLEAR","Offshore,Offshore,Offshore,Offshore,Offshore,Offshore,Offshore,Offshore",8
5842041f4e65fad6a77089da,2024_03_12,42.97583846220203,-70.764,Sawyer's Beach,1.25,0.24335,0.5472125,4,3,"NIGHT_CLEAR,NIGHT_CLEAR,NIGHT_CLEAR,NIGHT_CLEAR,NIGHT_CLEAR,NIGHT_CLEAR,NIGHT_CLEAR,NIGHT_CLEAR","Offshore,Offshore,Offshore,Offshore,Offshore,Offshore,Offshore,Offshore",8
5842041f4e65fad6a77089db,2024_03_12,42.97,-70.77,Rye on the Rocks / 5-0's,2.33375,0.46229125000000004,0.7668471875,4,3,"NIGHT_CLEAR,NIGHT_CLEAR,NIGHT_CLEAR,NIGHT_CLEAR,NIGHT_CLEAR,NIGHT_CLEAR,NIGHT_CLEAR,NIGHT_CLEAR","Offshore,Offshore,Offshore,Offshore,Offshore,Offshore,Offshore,Offshore",8
5842041f4e65fad6a77089dc,2024_03_12,43.55902946610303,-70.27795,Higgins Beach,2.25,0.336,0.6435083333333333,4,3,"NIGHT_CLEAR,NIGHT_CLEAR,NIGHT_CLEAR,NIGHT_CLEAR,NIGHT_CLEAR,NIGHT_CLEAR,NIGHT_CLEAR,NIGHT_CLEAR","Offshore,Offshore,Offshore,Offshore,Offshore,Offshore,Offshore,Offshore",8
5842041f4e65fad6a77089dd,2024_03_12,43.302676,-70.5652,Wells Beach,2,0.3880375,0.7227375,4,3,"NIGHT_CLEAR,NIGHT_CLEAR,NIGHT_CLEAR,NIGHT_CLEAR,NIGHT_CLEAR,NIGHT_CLEAR,NIGHT_CLEAR,NIGHT_CLEAR","Offshore,Offshore,Offshore,Offshore,Offshore,Offshore,Offshore,Offshore",8
5842041f4e65fad6a77089de,2024_03_12,43.545359,-70.30479,Scarborough Beach State Park,2,0.5630771875,0.9048115625,4,3,"NIGHT_CLEAR,NIGHT_CLEAR,NIGHT_CLEAR,NIGHT_CLEAR,NIGHT_CLEAR,NIGHT_CLEAR,NIGHT_CLEAR,NIGHT_CLEAR","Offshore,Offshore,Offshore,Offshore,Offshore,Offshore,Offshore,Offshore",8
5842041f4e65fad6a77089df,2024_03_12,43.514481,-70.372146,Old Orchard Beach,2.25,0.35475,0.6560083333333333,4,3,"NIGHT_CLEAR,NIGHT_CLEAR,NIGHT_CLEAR,NIGHT_CLEAR,NIGHT_CLEAR,NIGHT_CLEAR,NIGHT_CLEAR,NIGHT_CLEAR","Offshore,Offshore,Offshore,Offshore,Offshore,Offshore,Offshore,Offshore",8
5842041f4e65fad6a77089e0,2024_03_12,43.34711,-70.48165,Gooch's Beach,1,0.36158749999999995,0.6667,4,3,"NIGHT_CLEAR,NIGHT_CLEAR,NIGHT_CLEAR,NIGHT_CLEAR,NIGHT_CLEAR,NIGHT_CLEAR,NIGHT_CLEAR,NIGHT_CLEAR","Offshore,Offshore,Offshore,Offshore,Offshore,Offshore,Offshore,Offshore",8
5842041f4e65fad6a77089e2,2024_03_12,40.58433,-73.62953,Lido Beach,0.5,0.006249999999999994,0.3101125,7,6,"NIGHT_CLEAR,NIGHT_CLEAR,NIGHT_CLEAR,NIGHT_CLEAR,NIGHT_CLEAR,NIGHT_CLEAR,NIGHT_CLEAR,NIGHT_CLEAR","Cross-shore,Cross-shore,Cross-shore,Cross-shore,Cross-shore,Cross-shore,Cross-shore,Onshore",8
5842041f4e65fad6a77089e3,2024_03_12,43.163135,-70.61689,Long Sands Beach,2.27125,0.39113812500000006,0.7016303125000001,4,3,"NIGHT_CLEAR,NIGHT_CLEAR,NIGHT_CLEAR,NIGHT_CLEAR,NIGHT_CLEAR,NIGHT_CLEAR,NIGHT_CLEAR,NIGHT_CLEAR","Offshore,Offshore,Offshore,Offshore,Offshore,Offshore,Offshore,Offshore",8
5842041f4e65fad6a77089e4,2024_03_12,40.61695351251805,-73.39376,Gilgo Beach,0.25,0.075,0.38230000000000003,5,4,"NIGHT_CLEAR,NIGHT_CLEAR,NIGHT_CLEAR,NIGHT_CLEAR,NIGHT_CLEAR,NIGHT_CLEAR,NIGHT_CLEAR,NIGHT_CLEAR","Cross-shore,Cross-shore,Cross-shore,Cross-shore,Cross-shore,Cross-shore,Cross-shore,Cross-shore",8
5842041f4e65fad6a77089e5,2024_03_12,40.62530081928036,-73.23827,Robert Moses,0,0.165,0.47,6,6,"NIGHT_CLEAR,NIGHT_CLEAR,NIGHT_CLEAR,NIGHT_CLEAR,NIGHT_CLEAR,NIGHT_CLEAR,NIGHT_CLEAR,NIGHT_CLEAR","Cross-shore,Cross-shore,Cross-shore,Cross-shore,Cross-shore,Cross-shore,Cross-shore,Cross-shore",8
5842041f4e65fad6a77089e6,2024_03_12,40.64313317632791,-73.15727,Fire Island,0.375,0.12,0.425,6,6,"NIGHT_CLEAR,NIGHT_CLEAR,NIGHT_CLEAR,NIGHT_CLEAR,NIGHT_CLEAR,NIGHT_CLEAR,NIGHT_CLEAR,NIGHT_CLEAR","Cross-shore,Cross-shore,Cross-shore,Cross-shore,Cross-shore,Cross-shore,Cross-shore,Cross-shore",8
5842041f4e65fad6a77089e8,2024_03_12,40.76653118828782,-72.74579619372713,Cupsogue,1,0.34375,0.6475,6,6,"NIGHT_CLEAR,NIGHT_CLEAR,NIGHT_CLEAR,NIGHT_CLEAR,NIGHT_CLEAR,NIGHT_CLEAR,NIGHT_CLEAR,NIGHT_CLEAR","Cross-shore,Cross-shore,Cross-shore,Cross-shore,Cross-shore,Cross-shore,Cross-shore,Cross-shore",8
5842041f4e65fad6a77089e9,2024_03_12,42.9376373334092,-70.79141,The Wall ,2.105,0.48540479166666667,0.7846429166666666,4,3,"NIGHT_CLEAR,NIGHT_CLEAR,NIGHT_CLEAR,NIGHT_CLEAR,NIGHT_CLEAR,NIGHT_CLEAR,NIGHT_CLEAR,NIGHT_CLEAR","Offshore,Offshore,Offshore,Offshore,Offshore,Offshore,Offshore,Offshore",8
5842041f4e65fad6a77089ea,2024_03_12,40.887088,-72.33856,Flys,1,0.27875,0.5825,6,6,"NIGHT_CLEAR,NIGHT_CLEAR,NIGHT_CLEAR,NIGHT_CLEAR,NIGHT_CLEAR,NIGHT_CLEAR,NIGHT_CLEAR,NIGHT_CLEAR","Cross-shore,Cross-shore,Cross-shore,Cross-shore,Cross-shore,Cross-shore,Cross-shore,Cross-shore",8
5842041f4e65fad6a77089eb,2024_03_12,41.0389266436591,-71.91068529316958,Trailer Park,1,0.3944321875,0.6496231250000001,5,4,"NIGHT_CLEAR,NIGHT_CLEAR,NIGHT_CLEAR,NIGHT_CLEAR,NIGHT_CLEAR,NIGHT_CLEAR,NIGHT_CLEAR,NIGHT_CLEAR","Offshore,Offshore,Offshore,Offshore,Cross-shore,Cross-shore,Cross-shore,Cross-shore",8
5842041f4e65fad6a77089ec,2024_03_12,41.039505402729105,-71.9142,Ditch Plains,0.5,0.30918375,0.48309625,6,6,"NIGHT_CLEAR,NIGHT_CLEAR,NIGHT_CLEAR,NIGHT_CLEAR,NIGHT_CLEAR,NIGHT_CLEAR,NIGHT_CLEAR,NIGHT_CLEAR","Offshore,Offshore,Offshore,Offshore,Offshore,Offshore,Offshore,Offshore",8
5842041f4e65fad6a77089ee,2024_03_12,40.57633275206492,-73.56895305108567,"West End, Jones Beach",0.125,0.11718750000000001,0.41855,7,6,"NIGHT_CLEAR,NIGHT_CLEAR,NIGHT_CLEAR,NIGHT_CLEAR,NIGHT_CLEAR,NIGHT_CLEAR,NIGHT_CLEAR,NIGHT_CLEAR","Cross-shore,Cross-shore,Cross-shore,Cross-shore,Cross-shore,Cross-shore,Cross-shore,Cross-shore",8
5842041f4e65fad6a77089f1,2024_03_12,41.038286691230795,-71.91991567611694,Poles,0.375,0.3900446875,0.60132,5,4,"NIGHT_CLEAR,NIGHT_CLEAR,NIGHT_CLEAR,NIGHT_CLEAR,NIGHT_CLEAR,NIGHT_CLEAR,NIGHT_CLEAR,NIGHT_CLEAR","Offshore,Offshore,Offshore,Offshore,Cross-shore,Cross-shore,Cross-shore,Cross-shore",8
5842041f4e65fad6a77089f3,2024_03_12,40.84077769766295,-72.47989493724765,The Bowl,1,0.3675,0.67375,6,6,"NIGHT_CLEAR,NIGHT_CLEAR,NIGHT_CLEAR,NIGHT_CLEAR,NIGHT_CLEAR,NIGHT_CLEAR,NIGHT_CLEAR,NIGHT_CLEAR","Cross-shore,Cross-shore,Cross-shore,Cross-shore,Cross-shore,Cross-shore,Cross-shore,Cross-shore",8
5842041f4e65fad6a77089f4,2024_03_12,40.94235535243154,-72.19286,Main Beach,0.75,0.242925,0.550225,13,12,"NIGHT_CLEAR,NIGHT_CLEAR,NIGHT_CLEAR,NIGHT_CLEAR,NIGHT_CLEAR,NIGHT_CLEAR,NIGHT_CLEAR,NIGHT_CLEAR","Cross-shore,Cross-shore,Cross-shore,Cross-shore,Cross-shore,Cross-shore,Cross-shore,Cross-shore",8
5842041f4e65fad6a77089f5,2024_03_12,40.58270702399518,-73.67251552079799,Laurelton Blvd.,1,0.319348125,0.515195,7,6,"NIGHT_CLEAR,NIGHT_CLEAR,NIGHT_CLEAR,NIGHT_CLEAR,NIGHT_CLEAR,NIGHT_CLEAR,NIGHT_CLEAR,NIGHT_CLEAR","Onshore,Onshore,Onshore,Onshore,Cross-shore,Onshore,Onshore,Onshore",8
5842041f4e65fad6a77089f6,2024_03_12,41.033752854071416,-71.93695522488403,Terrace,0,0.19136250000000002,0.4961625,5,4,"NIGHT_CLEAR,NIGHT_CLEAR,NIGHT_CLEAR,NIGHT_CLEAR,NIGHT_CLEAR,NIGHT_CLEAR,NIGHT_CLEAR,NIGHT_CLEAR","Offshore,Offshore,Offshore,Offshore,Cross-shore,Cross-shore,Cross-shore,Cross-shore",8
5842041f4e65fad6a77089f7,2024_03_12,40.83372943645748,-72.50426173210144,K Road,1,0.43375,0.7375,6,6,"NIGHT_CLEAR,NIGHT_CLEAR,NIGHT_CLEAR,NIGHT_CLEAR,NIGHT_CLEAR,NIGHT_CLEAR,NIGHT_CLEAR,NIGHT_CLEAR","Offshore,Offshore,Offshore,Offshore,Offshore,Cross-shore,Cross-shore,Cross-shore",8
5842041f4e65fad6a77089f8,2024_03_12,40.58456099581507,-73.80730032920837,84th Street,0.3125,-0.024062500000000004,0.21355000000000002,7,6,"NIGHT_CLEAR,NIGHT_CLEAR,NIGHT_CLEAR,NIGHT_CLEAR,NIGHT_CLEAR,NIGHT_CLEAR,NIGHT_CLEAR,NIGHT_CLEAR","Cross-shore,Cross-shore,Cross-shore,Cross-shore,Cross-shore,Cross-shore,Cross-shore,Cross-shore",8
5842041f4e65fad6a77089fa,2024_03_12,40.1319,-74.02788,Sea Girt,1,-0.0284375,0.2338625,7,6,"NIGHT_CLEAR,NIGHT_CLEAR,NIGHT_CLEAR,NIGHT_CLEAR,NIGHT_CLEAR,NIGHT_CLEAR,NIGHT_CLEAR,NIGHT_CLEAR","Offshore,Offshore,Offshore,Offshore,Offshore,Offshore,Offshore,Offshore",8
5842041f4e65fad6a77089fb,2024_03_12,40.54698301868125,-73.9268,Breezy Point,0,0,0.26625,7,7,"NIGHT_CLEAR,NIGHT_CLEAR,NIGHT_CLEAR,NIGHT_CLEAR,NIGHT_CLEAR,NIGHT_CLEAR,NIGHT_CLEAR,NIGHT_CLEAR","Cross-shore,Cross-shore,Cross-shore,Cross-shore,Cross-shore,Cross-shore,Cross-shore,Cross-shore",8
5842041f4e65fad6a77089fc,2024_03_12,40.152504,-74.021383,Spring Lake,1,-0.029375000000000002,0.2469875,7,6,"NIGHT_CLEAR,NIGHT_CLEAR,NIGHT_CLEAR,NIGHT_CLEAR,NIGHT_CLEAR,NIGHT_CLEAR,NIGHT_CLEAR,NIGHT_CLEAR","Offshore,Offshore,Offshore,Offshore,Offshore,Offshore,Offshore,Offshore",8
5842041f4e65fad6a77089fd,2024_03_12,40.591277,-73.770792,30th - 39th Streets,1,-0.010937500000000003,0.19761250000000002,7,6,"NIGHT_CLEAR,NIGHT_CLEAR,NIGHT_CLEAR,NIGHT_CLEAR,NIGHT_CLEAR,NIGHT_CLEAR,NIGHT_CLEAR,NIGHT_CLEAR","Cross-shore,Cross-shore,Cross-shore,Cross-shore,Cross-shore,Cross-shore,Cross-shore,Cross-shore",8
5842041f4e65fad6a77089fe,2024_03_12,40.18834955871439,-74.00860982500222,Avon,1,-0.0275,0.2626125,7,6,"NIGHT_CLEAR,NIGHT_CLEAR,NIGHT_CLEAR,NIGHT_CLEAR,NIGHT_CLEAR,NIGHT_CLEAR,NIGHT_CLEAR,NIGHT_CLEAR","Offshore,Offshore,Offshore,Offshore,Offshore,Offshore,Offshore,Offshore",8
5842041f4e65fad6a77089ff,2024_03_12,40.1974229100932,-74.00650533798255,Bradley Beach,1,-0.0271875,0.2501125,7,6,"NIGHT_CLEAR,NIGHT_CLEAR,NIGHT_CLEAR,NIGHT_CLEAR,NIGHT_CLEAR,NIGHT_CLEAR,NIGHT_CLEAR,NIGHT_CLEAR","Offshore,Offshore,Offshore,Offshore,Offshore,Offshore,Offshore,Offshore",8
5842041f4e65fad6a7708a01,2024_03_12,40.17202,-74.01503,"16th Ave., Belmar",1,-0.0153125,0.22605,7,6,"NIGHT_CLEAR,NIGHT_CLEAR,NIGHT_CLEAR,NIGHT_CLEAR,NIGHT_CLEAR,NIGHT_CLEAR,NIGHT_CLEAR,NIGHT_CLEAR","Offshore,Offshore,Offshore,Offshore,Offshore,Offshore,Offshore,Offshore",8
5842041f4e65fad6a7708a02,2024_03_12,40.217443,-73.99982,Asbury Park,1,-0.029375000000000002,0.242925,7,6,"NIGHT_CLEAR,NIGHT_CLEAR,NIGHT_CLEAR,NIGHT_CLEAR,NIGHT_CLEAR,NIGHT_CLEAR,NIGHT_CLEAR,NIGHT_CLEAR","Offshore,Offshore,Offshore,Offshore,Offshore,Offshore,Offshore,Offshore",8
5842041f4e65fad6a7708a03,2024_03_12,40.229841,-73.996782,Loch Arbour and Deal,1,-0.026250000000000002,0.2273,7,6,"NIGHT_CLEAR,NIGHT_CLEAR,NIGHT_CLEAR,NIGHT_CLEAR,NIGHT_CLEAR,NIGHT_CLEAR,NIGHT_CLEAR,NIGHT_CLEAR","Offshore,Offshore,Offshore,Offshore,Offshore,Offshore,Offshore,Offshore",8
5842041f4e65fad6a7708a05,2024_03_12,40.41754,-73.97935,Sandy Hook,0,0,0.09875,7,7,"NIGHT_CLEAR,NIGHT_CLEAR,NIGHT_CLEAR,NIGHT_CLEAR,NIGHT_CLEAR,NIGHT_CLEAR,NIGHT_CLEAR,NIGHT_CLEAR","Offshore,Offshore,Offshore,Offshore,Offshore,Offshore,Offshore,Offshore",8
5842041f4e65fad6a7708a06,2024_03_12,39.36353,-74.40873,Crystals,0.5,0.1581425,0.3137725,8,6,"NIGHT_CLEAR,NIGHT_CLEAR,NIGHT_CLEAR,NIGHT_CLEAR,NIGHT_CLEAR,NIGHT_CLEAR,NIGHT_CLEAR,NIGHT_CLEAR","Offshore,Offshore,Offshore,Offshore,Offshore,Offshore,Offshore,Offshore",8
5842041f4e65fad6a7708a07,2024_03_12,39.31443,-74.51863,32nd Street,1.33375,0.1817246875,0.3506178125,8,6,"NIGHT_CLEAR,NIGHT_CLEAR,NIGHT_CLEAR,NIGHT_CLEAR,NIGHT_CLEAR,NIGHT_CLEAR,NIGHT_CLEAR,NIGHT_CLEAR","Offshore,Offshore,Offshore,Offshore,Offshore,Offshore,Offshore,Offshore",8
5842041f4e65fad6a7708a08,2024_03_12,39.327688,-74.49524,Margate Pier Northside,1.33375,0.1817246875,0.3506178125,8,6,"NIGHT_CLEAR,NIGHT_CLEAR,NIGHT_CLEAR,NIGHT_CLEAR,NIGHT_CLEAR,NIGHT_CLEAR,NIGHT_CLEAR,NIGHT_CLEAR","Offshore,Offshore,Offshore,Offshore,Offshore,Offshore,Offshore,Offshore",8
5842041f4e65fad6a7708a09,2024_03_12,39.336276,-74.47782,Ventnor Pier,0.75,0.17441874999999998,0.339204375,8,6,"NIGHT_CLEAR,NIGHT_CLEAR,NIGHT_CLEAR,NIGHT_CLEAR,NIGHT_CLEAR,NIGHT_CLEAR,NIGHT_CLEAR,NIGHT_CLEAR","Offshore,Offshore,Offshore,Offshore,Offshore,Offshore,Offshore,Offshore",8
5842041f4e65fad6a7708a0a,2024_03_12,39.35929751441085,-74.41683,States Avenue,0.5,0.1581425,0.3137725,8,6,"NIGHT_CLEAR,NIGHT_CLEAR,NIGHT_CLEAR,NIGHT_CLEAR,NIGHT_CLEAR,NIGHT_CLEAR,NIGHT_CLEAR,NIGHT_CLEAR","Offshore,Offshore,Offshore,Offshore,Offshore,Offshore,Offshore,Offshore",8
5842041f4e65fad6a7708a0b,2024_03_12,39.37274173278517,-74.40454,Brigantine Jetty,0,0.122788125,0.2585303125,8,6,"NIGHT_CLEAR,NIGHT_CLEAR,NIGHT_CLEAR,NIGHT_CLEAR,NIGHT_CLEAR,NIGHT_CLEAR,NIGHT_CLEAR,NIGHT_CLEAR","Offshore,Offshore,Offshore,Offshore,Offshore,Offshore,Offshore,Cross-shore",8
5842041f4e65fad6a7708a0c,2024_03_12,39.356505,-74.42263,South Carolina Avenue,0,0.12278062499999999,0.2585178125,8,6,"NIGHT_CLEAR,NIGHT_CLEAR,NIGHT_CLEAR,NIGHT_CLEAR,NIGHT_CLEAR,NIGHT_CLEAR,NIGHT_CLEAR,NIGHT_CLEAR","Offshore,Offshore,Offshore,Offshore,Offshore,Offshore,Offshore,Cross-shore",8
5842041f4e65fad6a7708a0d,2024_03_12,39.413485,-74.35476,14th Street North,1,0.010624999999999994,0.319175,8,6,"NIGHT_CLEAR,NIGHT_CLEAR,NIGHT_CLEAR,NIGHT_CLEAR,NIGHT_CLEAR,NIGHT_CLEAR,NIGHT_CLEAR,NIGHT_CLEAR","Offshore,Offshore,Offshore,Offshore,Offshore,Offshore,Offshore,Offshore",8
5842041f4e65fad6a7708a0e,2024_03_12,39.531319,-74.263252,The Wooden Jetty,1.33375,0.20027374999999997,0.4031646875,8,6,"NIGHT_CLEAR,NIGHT_CLEAR,NIGHT_CLEAR,NIGHT_CLEAR,NIGHT_CLEAR,NIGHT_CLEAR,NIGHT_CLEAR,NIGHT_CLEAR","Offshore,Offshore,Offshore,Offshore,Offshore,Offshore,Offshore,Offshore",8
5842041f4e65fad6a7708a0f,2024_03_12,39.552472,-74.24344,Holyoke,1.33375,0.178763125,0.3459984375,8,6,"NIGHT_CLEAR,NIGHT_CLEAR,NIGHT_CLEAR,NIGHT_CLEAR,NIGHT_CLEAR,NIGHT_CLEAR,NIGHT_CLEAR,NIGHT_CLEAR","Offshore,Offshore,Offshore,Offshore,Offshore,Offshore,Offshore,Offshore",8
5842041f4e65fad6a7708a10,2024_03_12,39.692364,-74.14068,Hudson Ave.,1.33375,-0.03156250000000001,0.24355,8,6,"NIGHT_CLEAR,NIGHT_CLEAR,NIGHT_CLEAR,NIGHT_CLEAR,NIGHT_CLEAR,NIGHT_CLEAR,NIGHT_CLEAR,NIGHT_CLEAR","Offshore,Offshore,Offshore,Offshore,Offshore,Offshore,Offshore,Offshore",8
5842041f4e65fad6a7708a11,2024_03_12,39.79614,-74.09248,Island Beach State Park,1,0.0078125,0.3113625,7,6,"NIGHT_CLEAR,NIGHT_CLEAR,NIGHT_CLEAR,NIGHT_CLEAR,NIGHT_CLEAR,NIGHT_CLEAR,NIGHT_CLEAR,NIGHT_CLEAR","Offshore,Offshore,Offshore,Offshore,Offshore,Offshore,Offshore,Offshore",8
5842041f4e65fad6a7708a12,2024_03_12,39.91813588078152,-74.07527,Seaside Park,1,-0.0290625,0.2557375,7,6,"NIGHT_CLEAR,NIGHT_CLEAR,NIGHT_CLEAR,NIGHT_CLEAR,NIGHT_CLEAR,NIGHT_CLEAR,NIGHT_CLEAR,NIGHT_CLEAR","Offshore,Offshore,Offshore,Offshore,Offshore,Offshore,Offshore,Offshore",8
5842041f4e65fad6a7708a14,2024_03_12,39.946638,-74.06884,Seaside Heights,1,0.0028124999999999934,0.3076125,7,6,"NIGHT_CLEAR,NIGHT_CLEAR,NIGHT_CLEAR,NIGHT_CLEAR,NIGHT_CLEAR,NIGHT_CLEAR,NIGHT_CLEAR,NIGHT_CLEAR","Offshore,Offshore,Offshore,Offshore,Offshore,Offshore,Offshore,Offshore",8
5842041f4e65fad6a7708a15,2024_03_12,39.95745637606704,-74.06736,Ortley Beach,1,-0.024062500000000004,0.24230000000000002,7,6,"NIGHT_CLEAR,NIGHT_CLEAR,NIGHT_CLEAR,NIGHT_CLEAR,NIGHT_CLEAR,NIGHT_CLEAR,NIGHT_CLEAR,NIGHT_CLEAR","Offshore,Offshore,Offshore,Offshore,Offshore,Offshore,Offshore,Offshore",8
5842041f4e65fad6a7708a16,2024_03_12,39.98313468342945,-74.06265685577506,Lavallette,1,-0.027812500000000004,0.2573,7,6,"NIGHT_CLEAR,NIGHT_CLEAR,NIGHT_CLEAR,NIGHT_CLEAR,NIGHT_CLEAR,NIGHT_CLEAR,NIGHT_CLEAR,NIGHT_CLEAR","Offshore,Offshore,Offshore,Offshore,Offshore,Offshore,Offshore,Offshore",8
5842041f4e65fad6a7708a17,2024_03_12,40.0699319967757,-74.04144910856634,Bay Head,1,-0.02875,0.26355,7,6,"NIGHT_CLEAR,NIGHT_CLEAR,NIGHT_CLEAR,NIGHT_CLEAR,NIGHT_CLEAR,NIGHT_CLEAR,NIGHT_CLEAR,NIGHT_CLEAR","Offshore,Offshore,Offshore,Offshore,Offshore,Offshore,Offshore,Offshore",8
5842041f4e65fad6a7708a18,2024_03_12,40.094041,-74.034859,Jenkinson's,1,-0.03062499999999999,0.25917500000000004,7,6,"NIGHT_CLEAR,NIGHT_CLEAR,NIGHT_CLEAR,NIGHT_CLEAR,NIGHT_CLEAR,NIGHT_CLEAR,NIGHT_CLEAR,NIGHT_CLEAR","Offshore,Offshore,Offshore,Offshore,Offshore,Offshore,Offshore,Offshore",8
5842041f4e65fad6a7708a1a,2024_03_12,38.148058,-75.17704,Assateague,1,0.016562499999999987,0.319175,8,7,"CLEAR,NIGHT_CLEAR,NIGHT_CLEAR,NIGHT_CLEAR,NIGHT_CLEAR,NIGHT_CLEAR,NIGHT_CLEAR,NIGHT_CLEAR","Offshore,Offshore,Offshore,Offshore,Offshore,Offshore,Offshore,Offshore",8
5842041f4e65fad6a7708a1b,2024_03_12,38.33889038664497,-75.08017670566352,North End to Ocean City Inlet,1,0.0021874999999999976,0.30355,8,7,"CLEAR,NIGHT_CLEAR,NIGHT_CLEAR,NIGHT_CLEAR,NIGHT_CLEAR,NIGHT_CLEAR,NIGHT_CLEAR,NIGHT_CLEAR","Offshore,Offshore,Offshore,Offshore,Offshore,Offshore,Offshore,Offshore",8
5842041f4e65fad6a7708a1c,2024_03_12,38.603993,-75.06271,Indian River Inlet,0.875,0.23889093749999998,0.43994375,8,7,"CLEAR,NIGHT_CLEAR,NIGHT_CLEAR,NIGHT_CLEAR,NIGHT_CLEAR,NIGHT_CLEAR,NIGHT_CLEAR,NIGHT_CLEAR","Offshore,Offshore,Offshore,Offshore,Offshore,Offshore,Offshore,Offshore",8
5842041f4e65fad6a7708a1d,2024_03_12,38.460477,-75.052069,Fenwick Island,1,-0.022500000000000003,0.25355,8,7,"CLEAR,NIGHT_CLEAR,NIGHT_CLEAR,NIGHT_CLEAR,NIGHT_CLEAR,NIGHT_CLEAR,NIGHT_CLEAR,NIGHT_CLEAR","Offshore,Offshore,Offshore,Offshore,Offshore,Offshore,Offshore,Offshore",8
5842041f4e65fad6a7708a1e,2024_03_12,38.538767,-75.05619,Bethany Beach,1,0.237819375,0.438266875,8,7,"CLEAR,NIGHT_CLEAR,NIGHT_CLEAR,NIGHT_CLEAR,NIGHT_CLEAR,NIGHT_CLEAR,NIGHT_CLEAR,NIGHT_CLEAR","Offshore,Offshore,Offshore,Offshore,Offshore,Offshore,Offshore,Offshore",8
5842041f4e65fad6a7708a1f,2024_03_12,38.697657,-75.075951,Dewey Beach,1,-0.006562500000000001,0.2269875,8,7,"CLEAR,NIGHT_CLEAR,NIGHT_CLEAR,NIGHT_CLEAR,NIGHT_CLEAR,NIGHT_CLEAR,NIGHT_CLEAR,NIGHT_CLEAR","Offshore,Offshore,Offshore,Offshore,Offshore,Offshore,Offshore,Offshore",8
5842041f4e65fad6a7708a20,2024_03_12,38.75034741676525,-75.08194,Gordons Pond,0.875,0.16200468750000002,0.319808125,8,7,"CLEAR,NIGHT_CLEAR,NIGHT_CLEAR,NIGHT_CLEAR,NIGHT_CLEAR,NIGHT_CLEAR,NIGHT_CLEAR,NIGHT_CLEAR","Offshore,Offshore,Offshore,Offshore,Offshore,Offshore,Offshore,Offshore",8
5842041f4e65fad6a7708a21,2024_03_12,38.767837,-75.082841,Naval Jetties,1,-0.0153125,0.24855000000000002,8,7,"CLEAR,NIGHT_CLEAR,NIGHT_CLEAR,NIGHT_CLEAR,NIGHT_CLEAR,NIGHT_CLEAR,NIGHT_CLEAR,NIGHT_CLEAR","Offshore,Offshore,Offshore,Offshore,Offshore,Offshore,Offshore,Offshore",8
5842041f4e65fad6a7708a22,2024_03_12,36.81735875786576,-75.96624,Camp Pendleton,0.31375000000000003,0.03749999999999997,0.3433125000000001,9,8,"CLEAR,NIGHT_CLEAR,NIGHT_CLEAR,NIGHT_CLEAR,NIGHT_CLEAR,NIGHT_CLEAR,NIGHT_CLEAR,NIGHT_CLEAR","Offshore,Offshore,Offshore,Offshore,Offshore,Offshore,Offshore,Offshore",8
5842041f4e65fad6a7708a23,2024_03_12,36.9102212316428,-75.98732471466064,North End,0,-0.030937500000000003,0.258,9,8,"CLEAR,NIGHT_CLEAR,NIGHT_CLEAR,NIGHT_CLEAR,NIGHT_CLEAR,NIGHT_CLEAR,NIGHT_CLEAR,NIGHT_CLEAR","Offshore,Offshore,Offshore,Offshore,Offshore,Offshore,Offshore,Offshore",8
5842041f4e65fad6a7708a24,2024_03_12,36.737117517621314,-75.93923719853362,Sandbridge Beach,1.5,0.010624999999999994,0.3157375,9,8,"CLEAR,NIGHT_CLEAR,NIGHT_CLEAR,NIGHT_CLEAR,NIGHT_CLEAR,NIGHT_CLEAR,NIGHT_CLEAR,NIGHT_CLEAR","Offshore,Offshore,Offshore,Offshore,Offshore,Offshore,Offshore,Offshore",8
5842041f4e65fad6a7708a26,2024_03_12,36.818257440557794,-75.96666,Croatan to Pendleton,0.33375,-0.0396875,0.26956250000000004,9,8,"CLEAR,NIGHT_CLEAR,NIGHT_CLEAR,NIGHT_CLEAR,NIGHT_CLEAR,NIGHT_CLEAR,NIGHT_CLEAR,NIGHT_CLEAR","Offshore,Offshore,Offshore,Offshore,Offshore,Offshore,Offshore,Offshore",8
5842041f4e65fad6a7708a27,2024_03_12,36.84318777204769,-75.9719,South End,1,-0.012812500000000008,0.28605,9,8,"CLEAR,NIGHT_CLEAR,NIGHT_CLEAR,NIGHT_CLEAR,NIGHT_CLEAR,NIGHT_CLEAR,NIGHT_CLEAR,NIGHT_CLEAR","Offshore,Offshore,Offshore,Offshore,Offshore,Offshore,Offshore,Offshore",8
5842041f4e65fad6a7708a28,2024_03_12,37.08612627584661,-75.976121638199,Fishermans Island,0,0,0.0665,10,10,"CLEAR,NIGHT_CLEAR,NIGHT_CLEAR,NIGHT_CLEAR,NIGHT_CLEAR,NIGHT_CLEAR,NIGHT_CLEAR,NIGHT_CLEAR","Offshore,Offshore,Offshore,Offshore,Offshore,Offshore,Offshore,Offshore",8
5842041f4e65fad6a7708a38,2024_03_12,35.254619418229026,-75.52074,Cape Hatteras Lighthouse,2.77,0.6528103125,1.0450193749999999,11,9,"CLEAR,NIGHT_CLEAR,NIGHT_CLEAR,NIGHT_CLEAR,NIGHT_CLEAR,NIGHT_CLEAR,NIGHT_CLEAR,NIGHT_CLEAR","Offshore,Offshore,Offshore,Offshore,Offshore,Offshore,Offshore,Offshore",8
5842041f4e65fad6a7708a3a,2024_03_12,35.54572934093336,-75.46477,Waves and Salvo,3,0.9522125,1.22285,10,9,"CLEAR,NIGHT_CLEAR,NIGHT_CLEAR,NIGHT_CLEAR,NIGHT_CLEAR,NIGHT_CLEAR,NIGHT_CLEAR,NIGHT_CLEAR","Offshore,Offshore,Offshore,Offshore,Offshore,Offshore,Offshore,Offshore",8
5842041f4e65fad6a7708a3b,2024_03_12,35.22565892751075,-75.63606,Frisco,1,0.16810000000000003,0.4596125,13,11,"CLEAR,NIGHT_CLEAR,NIGHT_CLEAR,NIGHT_CLEAR,NIGHT_CLEAR,NIGHT_CLEAR,NIGHT_CLEAR,NIGHT_CLEAR","Offshore,Cross-shore,Cross-shore,Cross-shore,Cross-shore,Cross-shore,Cross-shore,Cross-shore",8
5842041f4e65fad6a7708a3c,2024_03_12,35.13086,-75.90591,Ocracoke,0.625,0.21706,0.3391575,15,15,"CLEAR,NIGHT_CLEAR,NIGHT_CLEAR,NIGHT_CLEAR,NIGHT_CLEAR,NIGHT_CLEAR,NIGHT_CLEAR,NIGHT_CLEAR","Offshore,Offshore,Offshore,Offshore,Offshore,Offshore,Offshore,Offshore",8
5842041f4e65fad6a7708a3d,2024_03_12,35.34721340158342,-75.50084,Avon Pier,3,0.8533125,1.1925875000000001,10,9,"CLEAR,NIGHT_CLEAR,NIGHT_CLEAR,NIGHT_CLEAR,NIGHT_CLEAR,NIGHT_CLEAR,NIGHT_CLEAR,NIGHT_CLEAR","Offshore,Offshore,Offshore,Offshore,Offshore,Offshore,Offshore,Offshore",8
5842041f4e65fad6a7708a3f,2024_03_12,35.71680821253768,-75.49243,Pea Island,2.75,0.69,0.9625,11,11,"CLEAR,NIGHT_CLEAR,NIGHT_CLEAR,NIGHT_CLEAR,NIGHT_CLEAR,NIGHT_CLEAR,NIGHT_CLEAR,NIGHT_CLEAR","Offshore,Offshore,Offshore,Offshore,Offshore,Offshore,Offshore,Offshore",8
5842041f4e65fad6a7708a40,2024_03_12,35.97427620657821,-75.62984,Nags Head Pier,1.72875,0.6155,0.9424125,9,8,"CLEAR,NIGHT_CLEAR,NIGHT_CLEAR,NIGHT_CLEAR,NIGHT_CLEAR,NIGHT_CLEAR,NIGHT_CLEAR,NIGHT_CLEAR","Offshore,Offshore,Offshore,Offshore,Offshore,Offshore,Offshore,Offshore",8
5842041f4e65fad6a7708a41,2024_03_12,36.0439998039079,-75.67288,Avalon Pier,2,0.4994,0.8079500000000001,9,8,"CLEAR,NIGHT_CLEAR,NIGHT_CLEAR,NIGHT_CLEAR,NIGHT_CLEAR,NIGHT_CLEAR,NIGHT_CLEAR,NIGHT_CLEAR","Offshore,Offshore,Offshore,Offshore,Offshore,Offshore,Offshore,Offshore",8
5842041f4e65fad6a7708a42,2024_03_12,36.03043116489792,-75.66413,First Street,1.66625,0.511325,0.8758458333333333,9,8,"CLEAR,NIGHT_CLEAR,NIGHT_CLEAR,NIGHT_CLEAR,NIGHT_CLEAR,NIGHT_CLEAR,NIGHT_CLEAR,NIGHT_CLEAR","Offshore,Offshore,Offshore,Offshore,Offshore,Offshore,Offshore,Offshore",8
5842041f4e65fad6a7708a43,2024_03_12,36.06829910590498,-75.6899,Old Station/Laundromats,2,0.4619,0.788575,9,8,"CLEAR,NIGHT_CLEAR,NIGHT_CLEAR,NIGHT_CLEAR,NIGHT_CLEAR,NIGHT_CLEAR,NIGHT_CLEAR,NIGHT_CLEAR","Offshore,Offshore,Offshore,Offshore,Offshore,Offshore,Offshore,Offshore",8
5842041f4e65fad6a7708a44,2024_03_12,36.10126676607491,-75.71107462163894,Kitty Hawk Pier,1.66625,0.6183125,0.9227249999999999,9,8,"CLEAR,NIGHT_CLEAR,NIGHT_CLEAR,NIGHT_CLEAR,NIGHT_CLEAR,NIGHT_CLEAR,NIGHT_CLEAR,NIGHT_CLEAR","Offshore,Offshore,Offshore,Offshore,Offshore,Offshore,Offshore,Offshore",8
5842041f4e65fad6a7708a45,2024_03_12,36.18220630068973,-75.75013580649097,Duck Pier,1.25,0.19761250000000002,0.5036625,9,8,"CLEAR,NIGHT_CLEAR,NIGHT_CLEAR,NIGHT_CLEAR,NIGHT_CLEAR,NIGHT_CLEAR,NIGHT_CLEAR,NIGHT_CLEAR","Offshore,Offshore,Offshore,Offshore,Offshore,Offshore,Offshore,Offshore",8
5842041f4e65fad6a7708a46,2024_03_12,36.37660668125033,-75.82409701687456,Corolla,1,0.17792500000000003,0.485225,9,8,"CLEAR,NIGHT_CLEAR,NIGHT_CLEAR,NIGHT_CLEAR,NIGHT_CLEAR,NIGHT_CLEAR,NIGHT_CLEAR,NIGHT_CLEAR","Offshore,Offshore,Offshore,Offshore,Offshore,Offshore,Offshore,Offshore",8
5842041f4e65fad6a7708a47,2024_03_12,33.90373404124834,-78.08241431707907,Oak Island,1,0,0.24375,14,14,"CLEAR,NIGHT_CLEAR,NIGHT_CLEAR,NIGHT_CLEAR,NIGHT_CLEAR,NIGHT_CLEAR,NIGHT_CLEAR,NIGHT_CLEAR","Cross-shore,Cross-shore,Cross-shore,Cross-shore,Cross-shore,Cross-shore,Cross-shore,Cross-shore",8
5842041f4e65fad6a7708a48,2024_03_12,33.91108837766468,-78.29653,South Brunswick Beaches,1,0.1607525,0.251175,15,15,"CLEAR,NIGHT_CLEAR,NIGHT_CLEAR,NIGHT_CLEAR,NIGHT_CLEAR,NIGHT_CLEAR,NIGHT_CLEAR,NIGHT_CLEAR","Offshore,Cross-shore,Offshore,Cross-shore,Cross-shore,Cross-shore,Cross-shore,Cross-shore",8
5842041f4e65fad6a7708a49,2024_03_12,34.05683595651973,-77.88128,Carolina Beach Pier,1.9375,0.19675,0.50155,14,13,"CLEAR,NIGHT_CLEAR,NIGHT_CLEAR,NIGHT_CLEAR,NIGHT_CLEAR,NIGHT_CLEAR,NIGHT_CLEAR,NIGHT_CLEAR","Offshore,Offshore,Offshore,Offshore,Offshore,Offshore,Offshore,Offshore",8
5842041f4e65fad6a7708a4a,2024_03_12,33.96841191816696,-77.9180242565498,Fort Fisher,1.91625,0.1905,0.49905,14,13,"CLEAR,NIGHT_CLEAR,NIGHT_CLEAR,NIGHT_CLEAR,NIGHT_CLEAR,NIGHT_CLEAR,NIGHT_CLEAR,NIGHT_CLEAR","Offshore,Offshore,Offshore,Offshore,Offshore,Offshore,Offshore,Offshore",8
5842041f4e65fad6a7708a4b,2024_03_12,34.46776662988774,-77.47083191635772,Topsail Beach,0.625,0,0.26292499999999996,14,13,"CLEAR,NIGHT_CLEAR,NIGHT_CLEAR,NIGHT_CLEAR,NIGHT_CLEAR,NIGHT_CLEAR,NIGHT_CLEAR,NIGHT_CLEAR","Offshore,Offshore,Offshore,Cross-shore,Cross-shore,Cross-shore,Cross-shore,Cross-shore",8
5842041f4e65fad6a7708a4c,2024_03_12,34.69270354752445,-76.82854854446575,Iron Steamer,0,-0.00625,0.24515000000000003,14,13,"CLEAR,NIGHT_CLEAR,NIGHT_CLEAR,NIGHT_CLEAR,NIGHT_CLEAR,NIGHT_CLEAR,NIGHT_CLEAR,NIGHT_CLEAR","Cross-shore,Cross-shore,Cross-shore,Cross-shore,Cross-shore,Cross-shore,Cross-shore,Cross-shore",8
5842041f4e65fad6a7708a4f,2024_03_12,30.85132684893727,-81.42283496231143,Cumberland Island,1.5,0.25,0.5575,17,17,"CLEAR,NIGHT_CLEAR,NIGHT_CLEAR,NIGHT_CLEAR,NIGHT_CLEAR,NIGHT_CLEAR,NIGHT_CLEAR,NIGHT_CLEAR","Cross-shore,Onshore,Onshore,Onshore,Onshore,Onshore,Onshore,Onshore",8
5842041f4e65fad6a7708a50,2024_03_12,34.686741128540874,-76.47516712138378,Cape Lookout National Seashore,1,0.0675,0.375,16,16,"CLEAR,NIGHT_CLEAR,NIGHT_CLEAR,NIGHT_CLEAR,NIGHT_CLEAR,NIGHT_CLEAR,NIGHT_CLEAR,NIGHT_CLEAR","Offshore,Offshore,Offshore,Offshore,Offshore,Offshore,Offshore,Offshore",8
5842041f4e65fad6a7708a51,2024_03_12,31.10585419260024,-81.40422767604812,Jekyll Island,1,0.0625,0.36875,16,16,"CLEAR,NIGHT_CLEAR,NIGHT_CLEAR,NIGHT_CLEAR,NIGHT_CLEAR,NIGHT_CLEAR,NIGHT_MOSTLY_CLEAR,NIGHT_MOSTLY_CLEAR","Onshore,Onshore,Onshore,Onshore,Onshore,Cross-shore,Cross-shore,Cross-shore",8
5842041f4e65fad6a7708a52,2024_03_12,31.16212806376699,-81.32512426500224,Harbor Marker Buoys,1.75,0.07875,0.385,16,16,"CLEAR,NIGHT_CLEAR,NIGHT_CLEAR,NIGHT_CLOUDY,NIGHT_CLEAR,NIGHT_CLEAR,NIGHT_CLEAR,NIGHT_CLEAR","Cross-shore,Cross-shore,Onshore,Onshore,Onshore,Onshore,Onshore,Cross-shore",8
5842041f4e65fad6a7708a53,2024_03_12,31.20076299997009,-81.32629,Sea Island,1.375,0.15625,0.4625,16,16,"CLEAR,NIGHT_CLEAR,NIGHT_CLEAR,NIGHT_CLEAR,NIGHT_CLEAR,NIGHT_CLEAR,NIGHT_CLEAR,NIGHT_MOSTLY_CLOUDY","Cross-shore,Cross-shore,Onshore,Onshore,Onshore,Onshore,Onshore,Onshore",8
5842041f4e65fad6a7708a54,2024_03_12,31.13553222995767,-81.38457634790909,St. Simons Island,1.375,0.12125,0.425,16,16,"CLEAR,NIGHT_CLEAR,NIGHT_CLEAR,NIGHT_CLEAR,NIGHT_MOSTLY_CLOUDY,NIGHT_CLEAR,NIGHT_MOSTLY_CLEAR,NIGHT_MOSTLY_CLOUDY","Cross-shore,Cross-shore,Cross-shore,Onshore,Onshore,Onshore,Onshore,Onshore",8
5842041f4e65fad6a7708a55,2024_03_12,31.33550077186516,-81.28383377408417,Wolf Island,1,0.01375,0.31625000000000003,16,16,"CLEAR,NIGHT_CLEAR,NIGHT_CLEAR,NIGHT_MOSTLY_CLOUDY,NIGHT_CLEAR,NIGHT_CLEAR,NIGHT_CLEAR,NIGHT_MOSTLY_CLOUDY","Onshore,Onshore,Onshore,Onshore,Onshore,Cross-shore,Cross-shore,Cross-shore",8
5842041f4e65fad6a7708a56,2024_03_12,31.2704493877174,-81.27324039152315,Little St. Simons Island,1.125,0.08375,0.3875,16,16,"CLEAR,NIGHT_CLEAR,NIGHT_CLEAR,NIGHT_MOSTLY_CLOUDY,NIGHT_CLEAR,NIGHT_CLEAR,NIGHT_CLEAR,NIGHT_MOSTLY_CLOUDY","Onshore,Onshore,Onshore,Onshore,Onshore,Cross-shore,Cross-shore,Cross-shore",8
5842041f4e65fad6a7708a57,2024_03_12,31.39261761368919,-81.26190520231917,Sapelo Island,1.375,0.06875,0.3725,16,16,"CLEAR,NIGHT_CLEAR,NIGHT_CLEAR,NIGHT_CLEAR,NIGHT_CLEAR,NIGHT_CLEAR,NIGHT_CLEAR,NIGHT_CLOUDY","Onshore,Onshore,Onshore,Onshore,Onshore,Cross-shore,Cross-shore,Cross-shore",8
5842041f4e65fad6a7708a58,2024_03_12,34.42458783809001,-77.54492,Surf City Pier,1,0,0.2713625,14,13,"CLEAR,NIGHT_CLEAR,NIGHT_CLEAR,NIGHT_CLEAR,NIGHT_CLEAR,NIGHT_CLEAR,NIGHT_CLEAR,NIGHT_CLEAR","Offshore,Offshore,Offshore,Offshore,Offshore,Offshore,Offshore,Offshore",8
5842041f4e65fad6a7708a59,2024_03_12,31.4231993614213,-81.24725340591522,Cabretta Island,1.5,0.0625,0.37,16,16,"CLEAR,NIGHT_CLEAR,NIGHT_CLEAR,NIGHT_CLEAR,NIGHT_CLEAR,NIGHT_MOSTLY_CLEAR,NIGHT_CLEAR,NIGHT_CLOUDY","Onshore,Onshore,Onshore,Onshore,Onshore,Cross-shore,Cross-shore,Cross-shore",8
5842041f4e65fad6a7708a5a,2024_03_12,31.46684389030369,-81.2100056410468,Blackbeard Island,1.375,0.06875,0.3725,16,16,"CLEAR,NIGHT_CLEAR,NIGHT_CLEAR,NIGHT_CLEAR,NIGHT_CLEAR,NIGHT_MOSTLY_CLOUDY,NIGHT_MOSTLY_CLOUDY,NIGHT_CLEAR","Onshore,Onshore,Onshore,Onshore,Onshore,Onshore,Onshore,Cross-shore",8
5842041f4e65fad6a7708a5b,2024_03_12,31.85953587631629,-80.99031310336719,Wassaw Island/South End,0.25,0,0.14875,16,16,"CLEAR,NIGHT_CLEAR,NIGHT_CLEAR,NIGHT_CLEAR,NIGHT_CLEAR,NIGHT_MOSTLY_CLOUDY,NIGHT_CLEAR,NIGHT_CLEAR","Onshore,Onshore,Cross-shore,Cross-shore,Cross-shore,Cross-shore,Cross-shore,Cross-shore",8
5842041f4e65fad6a7708a5c,2024_03_12,31.62535662342983,-81.13328352167974,St. Catherines Island,1.25,0.0325,0.3375,16,16,"CLEAR,NIGHT_CLEAR,NIGHT_CLEAR,NIGHT_CLEAR,NIGHT_CLEAR,NIGHT_MOSTLY_CLOUDY,NIGHT_OVERCAST,NIGHT_MOSTLY_CLOUDY","Onshore,Onshore,Cross-shore,Cross-shore,Cross-shore,Cross-shore,Cross-shore,Offshore",8
5842041f4e65fad6a7708a5d,2024_03_12,31.76502169596568,-81.07655443806622,Ossabaw Island,1,0.00875,0.31125,16,16,"CLEAR,NIGHT_CLEAR,NIGHT_CLEAR,NIGHT_CLEAR,NIGHT_MOSTLY_CLEAR,NIGHT_CLEAR,NIGHT_CLEAR,NIGHT_CLEAR","Onshore,Onshore,Cross-shore,Cross-shore,Cross-shore,Cross-shore,Cross-shore,Offshore",8
5842041f4e65fad6a7708a5e,2024_03_12,31.90593619092352,-80.93589231700857,Wassaw Island/North End,1,0.0775,0.3825,16,16,"CLEAR,NIGHT_CLEAR,NIGHT_CLEAR,NIGHT_CLEAR,NIGHT_CLEAR,NIGHT_CLEAR,NIGHT_CLEAR,NIGHT_CLEAR","Onshore,Onshore,Cross-shore,Cross-shore,Cross-shore,Cross-shore,Cross-shore,Cross-shore",8
5842041f4e65fad6a7708a5f,2024_03_12,31.96738675414547,-80.86977980706155,Little Tybee Island,1,0,0.28625,16,16,"CLEAR,NIGHT_CLEAR,NIGHT_CLEAR,NIGHT_CLEAR,NIGHT_CLEAR,NIGHT_CLEAR,NIGHT_MOSTLY_CLEAR,NIGHT_CLEAR","Onshore,Onshore,Cross-shore,Cross-shore,Cross-shore,Cross-shore,Cross-shore,Cross-shore",8
5842041f4e65fad6a7708a60,2024_03_12,31.9812255780179,-80.84773973467009,South Tybee Sandbars,1,0,0.24875,16,16,"CLEAR,NIGHT_CLEAR,NIGHT_CLEAR,NIGHT_CLEAR,NIGHT_CLEAR,NIGHT_CLEAR,NIGHT_MOSTLY_CLEAR,NIGHT_CLEAR","Cross-shore,Cross-shore,Cross-shore,Cross-shore,Cross-shore,Offshore,Offshore,Offshore",8
5842041f4e65fad6a7708a61,2024_03_12,32.01226,-80.83983,Sugar Shack,1,0,0.20875,16,16,"CLEAR,NIGHT_CLEAR,NIGHT_CLEAR,NIGHT_CLEAR,NIGHT_CLEAR,NIGHT_CLEAR,NIGHT_MOSTLY_CLOUDY,NIGHT_CLEAR","Offshore,Offshore,Offshore,Offshore,Offshore,Offshore,Offshore,Offshore",8
5842041f4e65fad6a7708a62,2024_03_12,31.98722842396969,-80.84773,18th St. Jetty,1,0.18474625,0.28866375,16,16,"CLEAR,NIGHT_CLEAR,NIGHT_CLEAR,NIGHT_CLEAR,NIGHT_CLEAR,NIGHT_CLEAR,NIGHT_MOSTLY_CLOUDY,NIGHT_CLEAR","Cross-shore,Cross-shore,Cross-shore,Offshore,Offshore,Offshore,Offshore,Offshore",8
5842041f4e65fad6a7708a64,2024_03_12,34.013473721006676,-77.8991,"Alabama Ave., Kure Beach",1.75,0.04125,0.34375,14,14,"CLEAR,NIGHT_CLEAR,NIGHT_CLEAR,NIGHT_CLEAR,NIGHT_CLEAR,NIGHT_CLEAR,NIGHT_CLEAR,NIGHT_CLEAR","Cross-shore,Cross-shore,Cross-shore,Cross-shore,Cross-shore,Cross-shore,Cross-shore,Cross-shore",8
5842041f4e65fad6a7708a65,2024_03_12,34.20859853336924,-77.79293,"C Street, Wrightsville Beach",1.9375,0.1905,0.4978,14,13,"CLEAR,NIGHT_CLEAR,NIGHT_CLEAR,NIGHT_CLEAR,NIGHT_CLEAR,NIGHT_CLEAR,NIGHT_CLEAR,NIGHT_CLEAR","Offshore,Offshore,Offshore,Offshore,Offshore,Offshore,Offshore,Offshore",8
5842041f4e65fad6a7708a66,2024_03_12,32.831,-79.71,Dewees Island,1,0,0.1775,16,16,"CLEAR,NIGHT_CLEAR,NIGHT_CLEAR,NIGHT_CLEAR,NIGHT_CLEAR,NIGHT_CLEAR,NIGHT_CLEAR,NIGHT_CLEAR","Offshore,Offshore,Offshore,Offshore,Offshore,Offshore,Offshore,Offshore",8
5842041f4e65fad6a7708a67,2024_03_12,33.82924423172106,-78.62813,Cherry Grove Pier,0,0,0.31479999999999997,15,15,"CLEAR,NIGHT_CLEAR,NIGHT_CLEAR,NIGHT_CLEAR,NIGHT_CLEAR,NIGHT_CLEAR,NIGHT_CLEAR,NIGHT_CLEAR","Offshore,Offshore,Offshore,Offshore,Cross-shore,Offshore,Offshore,Offshore",8
5842041f4e65fad6a7708a69,2024_03_12,34.27197439666496,-77.74050223196774,Figure Eight and Shell Islands,1.9375,0.203,0.5003,14,13,"CLEAR,NIGHT_CLEAR,NIGHT_CLEAR,NIGHT_CLEAR,NIGHT_CLEAR,NIGHT_CLEAR,NIGHT_CLEAR,NIGHT_CLEAR","Offshore,Offshore,Offshore,Offshore,Offshore,Offshore,Offshore,Offshore",8
5842041f4e65fad6a7708a6b,2024_03_12,33.49041958261793,-79.07666070599386,North End,1,0,0.17,16,16,"CLEAR,NIGHT_CLEAR,NIGHT_CLEAR,NIGHT_CLEAR,NIGHT_CLEAR,NIGHT_CLEAR,NIGHT_CLEAR,NIGHT_CLEAR","Offshore,Offshore,Offshore,Offshore,Offshore,Offshore,Offshore,Offshore",8
5842041f4e65fad6a7708a6c,2024_03_12,33.39537062495087,-79.13835037835189,The South End,1,0,0.19,16,16,"CLEAR,NIGHT_CLEAR,NIGHT_CLEAR,NIGHT_CLEAR,NIGHT_CLEAR,NIGHT_CLEAR,NIGHT_CLEAR,NIGHT_CLEAR","Offshore,Offshore,Offshore,Offshore,Offshore,Offshore,Offshore,Offshore",8
5842041f4e65fad6a7708a6d,2024_03_12,33.29001727666697,-79.17190003352977,North Island,1,0,0.19375,16,16,"CLEAR,NIGHT_CLEAR,NIGHT_CLEAR,NIGHT_CLEAR,NIGHT_CLEAR,NIGHT_CLEAR,NIGHT_CLEAR,NIGHT_CLEAR","Offshore,Offshore,Offshore,Offshore,Offshore,Offshore,Offshore,Offshore",8
5842041f4e65fad6a7708a6e,2024_03_12,32.90929771158952,-79.57810400297359,Bull Island,1,0,0.23375,17,17,"CLEAR,NIGHT_CLEAR,NIGHT_CLEAR,NIGHT_CLEAR,NIGHT_CLEAR,NIGHT_CLEAR,NIGHT_CLEAR,NIGHT_CLEAR","Offshore,Offshore,Offshore,Offshore,Offshore,Offshore,Offshore,Offshore",8
5842041f4e65fad6a7708a6f,2024_03_12,31.99153112815895,-80.84543050470074,Tybee Island Pier,0,0,0.13875,16,16,"CLEAR,NIGHT_CLEAR,NIGHT_CLEAR,NIGHT_CLEAR,NIGHT_CLEAR,NIGHT_CLEAR,NIGHT_MOSTLY_CLOUDY,NIGHT_CLEAR","Cross-shore,Cross-shore,Cross-shore,Cross-shore,Cross-shore,Offshore,Offshore,Offshore",8
5842041f4e65fad6a7708a70,2024_03_12,33.03478144356316,-79.35021028265125,Cape Romain,1,0,0.23,17,17,"CLEAR,NIGHT_CLEAR,NIGHT_CLEAR,NIGHT_CLEAR,NIGHT_CLEAR,NIGHT_CLEAR,NIGHT_CLEAR,NIGHT_CLEAR","Offshore,Offshore,Offshore,Offshore,Offshore,Offshore,Offshore,Offshore",8
5842041f4e65fad6a7708a71,2024_03_12,33.43231073271028,-79.11789,The Pier,1,0.18560625,0.29000875,16,16,"CLEAR,NIGHT_CLEAR,NIGHT_CLEAR,NIGHT_CLEAR,NIGHT_CLEAR,NIGHT_CLEAR,NIGHT_CLEAR,NIGHT_CLEAR","Offshore,Offshore,Offshore,Offshore,Offshore,Offshore,Offshore,Offshore",8
5842041f4e65fad6a7708a72,2024_03_12,33.45423621397969,-79.10497798178424,South Litchfield,1,0,0.235,16,16,"CLEAR,NIGHT_CLEAR,NIGHT_CLEAR,NIGHT_CLEAR,NIGHT_CLEAR,NIGHT_CLEAR,NIGHT_CLEAR,NIGHT_CLEAR","Offshore,Offshore,Offshore,Offshore,Offshore,Offshore,Offshore,Offshore",8
5842041f4e65fad6a7708a73,2024_03_12,34.19316590251396,-77.8045,Crystal Pier,1.9375,0.1905,0.4987375,14,13,"CLEAR,NIGHT_CLEAR,NIGHT_CLEAR,NIGHT_CLEAR,NIGHT_CLEAR,NIGHT_CLEAR,NIGHT_CLEAR,NIGHT_CLEAR","Offshore,Offshore,Offshore,Offshore,Offshore,Offshore,Offshore,Offshore",8
5842041f4e65fad6a7708a74,2024_03_12,33.68628680045124,-78.883460274301,Myrtle Beach,0,0,0.3048,15,15,"CLEAR,NIGHT_CLEAR,NIGHT_CLEAR,NIGHT_CLEAR,NIGHT_CLEAR,NIGHT_CLEAR,NIGHT_CLEAR,NIGHT_CLEAR","Offshore,Offshore,Offshore,Offshore,Offshore,Offshore,Offshore,Offshore",8
5842041f4e65fad6a7708a75,2024_03_12,32.66166297145973,-79.91951806398808,10th Street,1,0,0.23625,16,16,"CLEAR,NIGHT_CLEAR,NIGHT_CLEAR,NIGHT_CLEAR,NIGHT_CLEAR,NIGHT_CLEAR,NIGHT_CLEAR,NIGHT_CLEAR","Offshore,Cross-shore,Cross-shore,Offshore,Cross-shore,Offshore,Offshore,Offshore",8
