_id,date,lat,lon,name,daily_mean_swell_rating,daily_mean_wave_height_min,daily_mean_wave_height_max,daily_mean_water_temperature_max,daily_mean_water_temperature_min,weather_per_timestamp,wind_per_timestamp,n_samples_per_day
5842041f4e65fad6a77087f9,2024_01_22,37.741668,-122.51038,South Ocean Beach,2.09375,1.5705583333333333,2.11519375,14,14,"NIGHT_LIGHT_SHOWERS_POSSIBLE,NIGHT_LIGHT_RAIN,NIGHT_HEAVY_SHOWERS_POSSIBLE,NIGHT_LIGHT_RAIN,NIGHT_MIST,NIGHT_MIST,NIGHT_MIST,NIGHT_MIST,NIGHT_MIST,MIST,MIST,MIST,LIGHT_SHOWERS_POSSIBLE,MIST,MIST,MIST","Offshore,Cross-shore,Offshore,Offshore,Cross-shore,Cross-shore,Cross-shore,Onshore,Onshore,Onshore,Onshore,Onshore,Onshore,Onshore,Onshore,Onshore",16
5842041f4e65fad6a7708801,2024_01_22,37.49142,-122.50428,Maverick's,NA,1.24296875,1.5057416666666668,13,13,"NIGHT_DRIZZLE,NIGHT_LIGHT_RAIN,NIGHT_RAIN,NIGHT_RAIN,NIGHT_MIST,NIGHT_MIST,NIGHT_BRIEF_SHOWERS,NIGHT_BRIEF_SHOWERS,NIGHT_MIST,MIST,MIST,MIST,MIST,MIST,MIST,MIST","Onshore,Onshore,Onshore,Onshore,Onshore,Onshore,Onshore,Onshore,Onshore,Onshore,Onshore,Cross-shore,Offshore,Offshore,Cross-shore,Cross-shore",16
5842041f4e65fad6a7708804,2024_01_22,44.997,-124.018,Roads End,0.9375,2.4675,2.781875,11,11,"NIGHT_OVERCAST,NIGHT_DRIZZLE,NIGHT_LIGHT_RAIN,NIGHT_OVERCAST,NIGHT_OVERCAST,NIGHT_DRIZZLE,NIGHT_LIGHT_RAIN,NIGHT_DRIZZLE,NIGHT_OVERCAST,LIGHT_RAIN,MOSTLY_CLOUDY,BRIEF_SHOWERS,LIGHT_RAIN,LIGHT_RAIN,MIST,MOSTLY_CLOUDY","Cross-shore,Cross-shore,Cross-shore,Cross-shore,Onshore,Cross-shore,Onshore,Onshore,Onshore,Cross-shore,Onshore,Cross-shore,Cross-shore,Cross-shore,Cross-shore,Cross-shore",16
5842041f4e65fad6a7708805,2024_01_22,36.95188851423011,-122.02522,Steamer Lane,1.979375,1.1722770833333334,1.6211729166666666,14,14,"NIGHT_LIGHT_RAIN,NIGHT_MIST,NIGHT_LIGHT_RAIN_AND_FOG,NIGHT_FOG,NIGHT_RAIN,NIGHT_OVERCAST,NIGHT_OVERCAST,NIGHT_OVERCAST,NIGHT_OVERCAST,OVERCAST,MIST,MIST,MIST,MOSTLY_CLOUDY,CLEAR,CLEAR","Offshore,Offshore,Onshore,Onshore,Cross-shore,Onshore,Onshore,Cross-shore,Cross-shore,Cross-shore,Offshore,Offshore,Offshore,Offshore,Cross-shore,Offshore",16
5842041f4e65fad6a7708806,2024_01_22,36.95918781542251,-122.02489,Cowells,1.6875,0.27033958333333336,0.5362229166666667,14,14,"NIGHT_LIGHT_RAIN,NIGHT_MIST,NIGHT_LIGHT_RAIN_AND_FOG,NIGHT_FOG,NIGHT_RAIN,NIGHT_OVERCAST,NIGHT_OVERCAST,NIGHT_OVERCAST,NIGHT_OVERCAST,OVERCAST,MIST,MIST,MIST,MOSTLY_CLOUDY,CLEAR,CLEAR","Offshore,Cross-shore,Onshore,Onshore,Cross-shore,Cross-shore,Cross-shore,Cross-shore,Cross-shore,Offshore,Offshore,Offshore,Offshore,Offshore,Offshore,Offshore",16
5842041f4e65fad6a7708807,2024_01_22,36.95468082526536,-121.97234,Pleasure Point,2.395625,1.0675625,1.4702145833333333,14,14,"NIGHT_RAIN_AND_FOG,NIGHT_OVERCAST,NIGHT_FOG,NIGHT_FOG,NIGHT_FOG,NIGHT_OVERCAST,NIGHT_OVERCAST,NIGHT_OVERCAST,NIGHT_OVERCAST,MIST,MIST,HEAVY_SHOWERS,MIST,MIST,MOSTLY_CLOUDY,MOSTLY_CLOUDY","Cross-shore,Onshore,Onshore,Onshore,Cross-shore,Onshore,Onshore,Onshore,Onshore,Onshore,Onshore,Onshore,Cross-shore,Cross-shore,Cross-shore,Cross-shore",16
5842041f4e65fad6a770880a,2024_01_22,35.37815414378748,-120.86589,Morro Bay,2.78125,1.0872583333333334,1.5386604166666666,12,12,"NIGHT_FOG,NIGHT_MIST,NIGHT_LIGHT_RAIN,NIGHT_HEAVY_SHOWERS_POSSIBLE,NIGHT_MOSTLY_CLOUDY,NIGHT_BRIEF_SHOWERS,NIGHT_MOSTLY_CLOUDY,NIGHT_BRIEF_SHOWERS,NIGHT_FOG,MIST,BRIEF_SHOWERS,MIST,MIST,MIST,MIST,MIST","Offshore,Offshore,Offshore,Offshore,Offshore,Offshore,Offshore,Offshore,Offshore,Offshore,Offshore,Cross-shore,Onshore,Onshore,Onshore,Onshore",16
5842041f4e65fad6a770880b,2024_01_22,36.95782765000708,-121.9672887511276,Jack's,1.823125,0.4589083333333333,0.7619791666666667,14,14,"NIGHT_RAIN_AND_FOG,NIGHT_OVERCAST,NIGHT_FOG,NIGHT_FOG,NIGHT_FOG,NIGHT_OVERCAST,NIGHT_OVERCAST,NIGHT_OVERCAST,NIGHT_OVERCAST,MIST,MIST,HEAVY_SHOWERS,MIST,MIST,MOSTLY_CLOUDY,MOSTLY_CLOUDY","Cross-shore,Onshore,Onshore,Onshore,Cross-shore,Cross-shore,Cross-shore,Cross-shore,Cross-shore,Cross-shore,Cross-shore,Cross-shore,Cross-shore,Offshore,Cross-shore,Offshore",16
5842041f4e65fad6a770880d,2024_01_22,34.29982939936656,-119.3489016603669,Gold Coast Beachbreaks,2.8125,0.463125,0.769375,14,14,"NIGHT_LIGHT_RAIN,NIGHT_OVERCAST,NIGHT_FOG,NIGHT_LIGHT_RAIN_AND_FOG,NIGHT_RAIN_AND_FOG,NIGHT_RAIN,NIGHT_LIGHT_RAIN_AND_FOG,NIGHT_HEAVY_RAIN,NIGHT_RAIN_AND_FOG,LIGHT_RAIN,RAIN,CLOUDY,MOSTLY_CLOUDY,MOSTLY_CLOUDY,LIGHT_RAIN,MOSTLY_CLOUDY","Offshore,Offshore,Offshore,Offshore,Offshore,Offshore,Offshore,Offshore,Offshore,Offshore,Offshore,Onshore,Onshore,Onshore,Onshore,Onshore",16
5842041f4e65fad6a7708811,2024_01_22,34.245076,-119.26799,Ventura Harbor,3.4375,1.3778230208333333,1.61287125,13,13,"NIGHT_BRIEF_SHOWERS,NIGHT_OVERCAST,NIGHT_CLOUDY,NIGHT_LIGHT_RAIN_AND_FOG,NIGHT_RAIN_AND_FOG,NIGHT_HEAVY_RAIN,NIGHT_RAIN,NIGHT_FOG,LIGHT_RAIN_AND_FOG,LIGHT_RAIN,LIGHT_RAIN,DRIZZLE,MOSTLY_CLOUDY,MOSTLY_CLOUDY,LIGHT_RAIN,OVERCAST","Offshore,Offshore,Offshore,Offshore,Offshore,Offshore,Offshore,Offshore,Offshore,Offshore,Offshore,Offshore,Onshore,Cross-shore,Onshore,Onshore",16
5842041f4e65fad6a7708813,2024_01_22,34.051,-118.964,County Line,2.645625,0.8370375,1.1171270833333333,14.0625,14.0625,"NIGHT_SHOWERS,NIGHT_LIGHT_RAIN_AND_FOG,NIGHT_DRIZZLE,NIGHT_RAIN,NIGHT_LIGHT_RAIN,NIGHT_DRIZZLE,NIGHT_LIGHT_RAIN,NIGHT_RAIN,RAIN,MIST,LIGHT_RAIN,LIGHT_RAIN,CLEAR,MOSTLY_CLOUDY,BRIEF_SHOWERS,BRIEF_SHOWERS","Offshore,Offshore,Offshore,Offshore,Offshore,Offshore,Offshore,Offshore,Offshore,Offshore,Offshore,Offshore,Cross-shore,Offshore,Offshore,Offshore",16
5842041f4e65fad6a7708814,2024_01_22,34.37256264378892,-119.47797,Rincon,3,1.048125,1.2575,14,14,"NIGHT_CLOUDY,NIGHT_LIGHT_RAIN,NIGHT_DRIZZLE,NIGHT_LIGHT_RAIN,NIGHT_HEAVY_SHOWERS_POSSIBLE,NIGHT_LIGHT_RAIN,NIGHT_HEAVY_RAIN,NIGHT_BRIEF_SHOWERS,NIGHT_RAIN,HEAVY_RAIN,LIGHT_SHOWERS_POSSIBLE,CLEAR,MOSTLY_CLOUDY,MOSTLY_CLEAR,MOSTLY_CLOUDY,MOSTLY_CLOUDY","Cross-shore,Cross-shore,Cross-shore,Cross-shore,Cross-shore,Onshore,Cross-shore,Cross-shore,Onshore,Cross-shore,Cross-shore,Cross-shore,Cross-shore,Onshore,Cross-shore,Onshore",16
5842041f4e65fad6a7708817,2024_01_22,34.03096101876324,-118.68109,Malibu Third Point,1.875,0.409375,0.7162499999999999,15,15,"NIGHT_BRIEF_SHOWERS,NIGHT_RAIN,NIGHT_DRIZZLE,NIGHT_OVERCAST,NIGHT_DRIZZLE,NIGHT_FOG,NIGHT_RAIN,NIGHT_HEAVY_RAIN,LIGHT_RAIN_AND_FOG,LIGHT_RAIN,RAIN,RAIN,BRIEF_SHOWERS_POSSIBLE,MOSTLY_CLOUDY,MOSTLY_CLOUDY,SHOWERS","Onshore,Cross-shore,Onshore,Onshore,Onshore,Onshore,Onshore,Onshore,Onshore,Onshore,Onshore,Onshore,Cross-shore,Cross-shore,Cross-shore,Offshore",16
5842041f4e65fad6a7708819,2024_01_22,33.984079047970035,-118.47381591796875,Venice Beach,3.114375,1.2483645833333332,1.5533166666666667,14.125,14.125,"NIGHT_MOSTLY_CLOUDY,NIGHT_OVERCAST,NIGHT_CLEAR,NIGHT_RAIN_AND_FOG,NIGHT_CLOUDY,NIGHT_OVERCAST,NIGHT_RAIN_AND_FOG,NIGHT_LIGHT_RAIN_AND_FOG,LIGHT_SHOWERS_POSSIBLE,LIGHT_SHOWERS_POSSIBLE,RAIN,LIGHT_RAIN,HEAVY_RAIN,LIGHT_SHOWERS_POSSIBLE,CLEAR,MOSTLY_CLOUDY","Cross-shore,Cross-shore,Cross-shore,Cross-shore,Cross-shore,Cross-shore,Cross-shore,Offshore,Cross-shore,Cross-shore,Cross-shore,Cross-shore,Cross-shore,Cross-shore,Cross-shore,Cross-shore",16
5842041f4e65fad6a770881e,2024_01_22,34.037508438646746,-118.58339846155594,Topanga Beach,2.5,0.89875625,1.15191875,14.0625,14.0625,"NIGHT_MIST,NIGHT_LIGHT_RAIN,NIGHT_FOG,NIGHT_FOG,NIGHT_FOG,NIGHT_FOG,NIGHT_RAIN_AND_FOG,NIGHT_HEAVY_RAIN,LIGHT_RAIN_AND_FOG,RAIN,RAIN,RAIN,LIGHT_RAIN,MOSTLY_CLOUDY,MOSTLY_CLOUDY,BRIEF_SHOWERS","Cross-shore,Cross-shore,Cross-shore,Cross-shore,Cross-shore,Cross-shore,Onshore,Cross-shore,Onshore,Cross-shore,Cross-shore,Cross-shore,Cross-shore,Onshore,Cross-shore,Cross-shore",16
5842041f4e65fad6a7708820,2024_01_22,33.73954373690184,-118.11414,Seal Beach Jetty,2.6875,0.563125,0.8674999999999999,15,15,"NIGHT_FOG,NIGHT_MOSTLY_CLOUDY,NIGHT_OVERCAST,NIGHT_OVERCAST,NIGHT_FOG,NIGHT_BRIEF_SHOWERS,NIGHT_LIGHT_RAIN_AND_FOG,NIGHT_LIGHT_SHOWERS_POSSIBLE,FOG,LIGHT_RAIN,RAIN,RAIN,MOSTLY_CLOUDY,HEAVY_RAIN,OVERCAST,OVERCAST","Offshore,Cross-shore,Offshore,Offshore,Offshore,Cross-shore,Cross-shore,Cross-shore,Cross-shore,Offshore,Offshore,Offshore,Offshore,Cross-shore,Offshore,Cross-shore",16
5842041f4e65fad6a7708822,2024_01_22,33.72309983348433,-118.08078,Anderson Street,2.5,0.763125,1.008125,15,15,"NIGHT_FOG,NIGHT_MOSTLY_CLOUDY,NIGHT_OVERCAST,NIGHT_OVERCAST,NIGHT_FOG,NIGHT_FOG,NIGHT_FOG,NIGHT_LIGHT_RAIN,FOG,LIGHT_SHOWERS_POSSIBLE,RAIN,LIGHT_SHOWERS_POSSIBLE,MOSTLY_CLOUDY,LIGHT_RAIN,OVERCAST,OVERCAST","Offshore,Cross-shore,Offshore,Offshore,Offshore,Cross-shore,Cross-shore,Cross-shore,Cross-shore,Offshore,Offshore,Offshore,Offshore,Cross-shore,Cross-shore,Cross-shore",16
5842041f4e65fad6a7708827,2024_01_22,33.65574085629463,-118.00397,Huntington Beach Pier Northside,2.64625,1.6232625,2.03169375,14,14,"NIGHT_FOG,NIGHT_MOSTLY_CLOUDY,NIGHT_CLOUDY,NIGHT_LIGHT_RAIN_AND_FOG,NIGHT_FOG,NIGHT_FOG,NIGHT_LIGHT_RAIN_AND_FOG,NIGHT_LIGHT_RAIN,MIST,LIGHT_SHOWERS_POSSIBLE,LIGHT_RAIN,RAIN,BRIEF_SHOWERS,OVERCAST,OVERCAST,OVERCAST","Cross-shore,Cross-shore,Cross-shore,Cross-shore,Cross-shore,Cross-shore,Cross-shore,Cross-shore,Cross-shore,Offshore,Offshore,Cross-shore,Offshore,Offshore,Offshore,Onshore",16
5842041f4e65fad6a7708828,2024_01_22,34.272041739333,-119.2997646331,C St.,3,0.8781979166666667,1.14129375,13,13,"NIGHT_LIGHT_RAIN,NIGHT_CLEAR,NIGHT_DRIZZLE,NIGHT_LIGHT_RAIN,NIGHT_LIGHT_SHOWERS_POSSIBLE,NIGHT_HEAVY_RAIN,NIGHT_LIGHT_RAIN,NIGHT_MIST,LIGHT_RAIN,LIGHT_RAIN,RAIN,DRIZZLE,MOSTLY_CLOUDY,MOSTLY_CLOUDY,LIGHT_RAIN,OVERCAST","Cross-shore,Cross-shore,Offshore,Cross-shore,Cross-shore,Offshore,Onshore,Cross-shore,Cross-shore,Offshore,Cross-shore,Onshore,Onshore,Cross-shore,Offshore,Onshore",16
5842041f4e65fad6a770882a,2024_01_22,33.61555743705257,-117.93676,Newport Lower Jetties,2.25,0.9987895833333333,1.2681958333333334,14,14,"NIGHT_MOSTLY_CLOUDY,NIGHT_BRIEF_SHOWERS,NIGHT_MIST,NIGHT_MIST,NIGHT_MIST,NIGHT_MOSTLY_CLOUDY,NIGHT_DRIZZLE,NIGHT_LIGHT_RAIN,OVERCAST,RAIN,LIGHT_RAIN,LIGHT_RAIN,OVERCAST,OVERCAST,OVERCAST,OVERCAST","Cross-shore,Cross-shore,Cross-shore,Cross-shore,Cross-shore,Cross-shore,Cross-shore,Cross-shore,Cross-shore,Offshore,Offshore,Offshore,Offshore,Offshore,Cross-shore,Cross-shore",16
5842041f4e65fad6a770882b,2024_01_22,33.5930302087,-117.88199,The Wedge,1.4375,0.55973,0.991473125,15,15,"NIGHT_MOSTLY_CLOUDY,NIGHT_FOG,NIGHT_MIST,NIGHT_MIST,NIGHT_FOG,NIGHT_MOSTLY_CLOUDY,NIGHT_DRIZZLE,NIGHT_LIGHT_RAIN,OVERCAST,RAIN,RAIN,LIGHT_RAIN,CLOUDY,OVERCAST,OVERCAST,OVERCAST","Cross-shore,Cross-shore,Cross-shore,Cross-shore,Cross-shore,Cross-shore,Cross-shore,Cross-shore,Cross-shore,Cross-shore,Offshore,Cross-shore,Cross-shore,Cross-shore,Cross-shore,Cross-shore",16
5842041f4e65fad6a770882c,2024_01_22,33.60577342582,-117.9315376281,Newport Beach Pier,2.176875,1.1920708333333334,1.4504875,14,14,"NIGHT_MIST,NIGHT_MOSTLY_CLOUDY,NIGHT_CLOUDY,NIGHT_MIST,NIGHT_BRIEF_SHOWERS,NIGHT_MIST,NIGHT_LIGHT_RAIN,NIGHT_RAIN,OVERCAST,RAIN,LIGHT_RAIN,LIGHT_RAIN,OVERCAST,OVERCAST,OVERCAST,OVERCAST","Offshore,Offshore,Cross-shore,Onshore,Onshore,Onshore,Onshore,Onshore,Onshore,Onshore,Onshore,Onshore,Cross-shore,Cross-shore,Offshore,Offshore",16
5842041f4e65fad6a770882e,2024_01_22,33.475793399792984,-117.72291,Salt Creek,3.125,1.1547645833333333,1.5125958333333334,14,14,"NIGHT_MOSTLY_CLOUDY,NIGHT_MIST,NIGHT_MIST,NIGHT_MIST,NIGHT_MIST,NIGHT_LIGHT_RAIN,NIGHT_MIST,NIGHT_DRIZZLE,MIST,LIGHT_RAIN,LIGHT_RAIN,HEAVY_RAIN,CLOUDY,BRIEF_SHOWERS,MOSTLY_CLOUDY,OVERCAST","Offshore,Offshore,Cross-shore,Cross-shore,Cross-shore,Cross-shore,Cross-shore,Cross-shore,Cross-shore,Cross-shore,Cross-shore,Offshore,Offshore,Offshore,Offshore,Offshore",16
5842041f4e65fad6a7708830,2024_01_22,33.41800974113613,-117.61952,T-Street,2.25,0.9513041666666666,1.2387645833333332,14,14,"NIGHT_MIST,NIGHT_BRIEF_SHOWERS,NIGHT_MIST,NIGHT_MIST,NIGHT_MIST,NIGHT_MIST,NIGHT_MIST,NIGHT_LIGHT_RAIN,MIST,LIGHT_SHOWERS_POSSIBLE,RAIN,LIGHT_SHOWERS_POSSIBLE,CLOUDY,MOSTLY_CLOUDY,MOSTLY_CLOUDY,OVERCAST","Offshore,Cross-shore,Onshore,Onshore,Onshore,Onshore,Onshore,Onshore,Onshore,Onshore,Cross-shore,Cross-shore,Offshore,Cross-shore,Offshore,Offshore",16
5842041f4e65fad6a7708832,2024_01_22,33.202391008646,-117.39475,Oceanside Harbor,2.4275,1.21076875,1.4757625,14,14,"NIGHT_DRIZZLE,NIGHT_MIST,NIGHT_MIST,NIGHT_LIGHT_RAIN,NIGHT_DRIZZLE,NIGHT_RAIN,NIGHT_DRIZZLE,NIGHT_CLOUDY,LIGHT_RAIN,OVERCAST,DRIZZLE,LIGHT_RAIN,HEAVY_RAIN,MOSTLY_CLOUDY,OVERCAST,OVERCAST","Offshore,Offshore,Cross-shore,Cross-shore,Cross-shore,Cross-shore,Cross-shore,Cross-shore,Cross-shore,Cross-shore,Offshore,Offshore,Offshore,Offshore,Offshore,Offshore",16
5842041f4e65fad6a7708835,2024_01_22,33.19477795952803,-117.38667,Oceanside Pier,2.3025,1.0509125,1.4006875,14,14,"NIGHT_LIGHT_RAIN_AND_FOG,NIGHT_FOG,NIGHT_FOG,NIGHT_LIGHT_RAIN_AND_FOG,NIGHT_OVERCAST,NIGHT_OVERCAST,NIGHT_OVERCAST,NIGHT_OVERCAST,LIGHT_RAIN,OVERCAST,OVERCAST,LIGHT_RAIN,LIGHT_SHOWERS_POSSIBLE,MOSTLY_CLOUDY,OVERCAST,OVERCAST","Offshore,Cross-shore,Cross-shore,Cross-shore,Cross-shore,Onshore,Onshore,Cross-shore,Onshore,Cross-shore,Cross-shore,Offshore,Offshore,Offshore,Offshore,Offshore",16
5842041f4e65fad6a7708837,2024_01_22,33.14948100706,-117.35029,Tamarack,1.6875,0.65,0.95625,15,15,"NIGHT_MIST,NIGHT_BRIEF_SHOWERS,NIGHT_MIST,NIGHT_LIGHT_RAIN,NIGHT_CLOUDY,NIGHT_LIGHT_RAIN,NIGHT_CLOUDY,NIGHT_DRIZZLE,LIGHT_SHOWERS_POSSIBLE,CLOUDY,DRIZZLE,LIGHT_RAIN,RAIN,LIGHT_RAIN,OVERCAST,OVERCAST","Cross-shore,Cross-shore,Cross-shore,Cross-shore,Cross-shore,Onshore,Onshore,Cross-shore,Onshore,Cross-shore,Cross-shore,Offshore,Offshore,Offshore,Offshore,Cross-shore",16
5842041f4e65fad6a7708839,2024_01_22,32.865777159358856,-117.25614295356122,Scripps,2.9375,1.1262375,1.38654375,14,14,"NIGHT_MIST,NIGHT_RAIN,NIGHT_CLEAR,NIGHT_DRIZZLE,NIGHT_CLEAR,NIGHT_DRIZZLE,NIGHT_DRIZZLE,NIGHT_OVERCAST,BRIEF_SHOWERS_POSSIBLE,LIGHT_SHOWERS_POSSIBLE,CLOUDY,HEAVY_RAIN,RAIN,DRIZZLE,CLOUDY,CLOUDY","Offshore,Cross-shore,Offshore,Offshore,Offshore,Offshore,Offshore,Offshore,Offshore,Offshore,Offshore,Offshore,Offshore,Offshore,Offshore,Cross-shore",16
5842041f4e65fad6a770883a,2024_01_22,32.813094,-117.27381,Birdrock,2.875,1.06,1.29,15,15,"NIGHT_OVERCAST,NIGHT_LIGHT_RAIN,NIGHT_OVERCAST,NIGHT_LIGHT_RAIN,NIGHT_OVERCAST,NIGHT_DRIZZLE,NIGHT_OVERCAST,NIGHT_OVERCAST,LIGHT_RAIN,LIGHT_SHOWERS_POSSIBLE,DRIZZLE,RAIN,LIGHT_RAIN,RAIN,MIST,OVERCAST","Cross-shore,Cross-shore,Cross-shore,Cross-shore,Cross-shore,Cross-shore,Cross-shore,Cross-shore,Cross-shore,Cross-shore,Cross-shore,Cross-shore,Offshore,Onshore,Onshore,Onshore",16
5842041f4e65fad6a770883b,2024_01_22,32.877231,-117.25303,Blacks,2.104375,1.49279375,2.01795,14,14,"NIGHT_MIST,NIGHT_RAIN,NIGHT_CLEAR,NIGHT_DRIZZLE,NIGHT_CLEAR,NIGHT_DRIZZLE,NIGHT_DRIZZLE,NIGHT_OVERCAST,BRIEF_SHOWERS_POSSIBLE,LIGHT_SHOWERS_POSSIBLE,CLOUDY,HEAVY_RAIN,RAIN,DRIZZLE,CLOUDY,CLOUDY","Onshore,Onshore,Onshore,Onshore,Onshore,Onshore,Cross-shore,Cross-shore,Cross-shore,Onshore,Onshore,Onshore,Cross-shore,Onshore,Onshore,Onshore",16
5842041f4e65fad6a770883c,2024_01_22,32.82978974229765,-117.28161740727381,Windansea,2.375,1.10975,1.42215,14,14,"NIGHT_FOG,NIGHT_RAIN,NIGHT_DRIZZLE,NIGHT_LIGHT_RAIN,NIGHT_OVERCAST,NIGHT_LIGHT_RAIN,NIGHT_OVERCAST,NIGHT_DRIZZLE,LIGHT_RAIN,LIGHT_RAIN,DRIZZLE,HEAVY_RAIN,RAIN,LIGHT_RAIN,DRIZZLE,OVERCAST","Cross-shore,Cross-shore,Cross-shore,Cross-shore,Cross-shore,Cross-shore,Cross-shore,Cross-shore,Cross-shore,Offshore,Offshore,Offshore,Offshore,Offshore,Cross-shore,Onshore",16
5842041f4e65fad6a770883d,2024_01_22,32.838278,-117.28396,Horseshoe,2.875,1.0325,1.3175000000000001,15,15,"NIGHT_FOG,NIGHT_RAIN,NIGHT_DRIZZLE,NIGHT_LIGHT_RAIN,NIGHT_OVERCAST,NIGHT_LIGHT_RAIN,NIGHT_OVERCAST,NIGHT_DRIZZLE,LIGHT_RAIN,LIGHT_RAIN,DRIZZLE,HEAVY_RAIN,RAIN,LIGHT_RAIN,DRIZZLE,OVERCAST","Offshore,Offshore,Cross-shore,Offshore,Offshore,Cross-shore,Cross-shore,Offshore,Cross-shore,Offshore,Offshore,Offshore,Offshore,Onshore,Onshore,Onshore",16
5842041f4e65fad6a770883f,2024_01_22,32.75034717673179,-117.25337,Ocean Beach,2.375,1.18896875,1.62919375,14,14,"NIGHT_MIST,NIGHT_MIST,NIGHT_MIST,NIGHT_OVERCAST,NIGHT_CLOUDY,NIGHT_CLEAR,NIGHT_CLEAR,NIGHT_CLOUDY,LIGHT_RAIN,LIGHT_RAIN,RAIN,RAIN,RAIN,OVERCAST,MIST,CLOUDY","Cross-shore,Cross-shore,Cross-shore,Cross-shore,Cross-shore,Cross-shore,Cross-shore,Cross-shore,Cross-shore,Offshore,Offshore,Offshore,Offshore,Offshore,Cross-shore,Onshore",16
5842041f4e65fad6a7708840,2024_01_22,32.73693,-117.25718,Sunset Cliffs,2.8125,1.023125,1.268125,15,15,"NIGHT_OVERCAST,NIGHT_OVERCAST,NIGHT_OVERCAST,NIGHT_OVERCAST,NIGHT_OVERCAST,NIGHT_OVERCAST,NIGHT_LIGHT_RAIN,NIGHT_OVERCAST,LIGHT_RAIN,LIGHT_RAIN,HEAVY_RAIN,RAIN,RAIN,RAIN,OVERCAST,OVERCAST","Cross-shore,Cross-shore,Cross-shore,Cross-shore,Cross-shore,Cross-shore,Cross-shore,Cross-shore,Cross-shore,Offshore,Offshore,Offshore,Offshore,Offshore,Onshore,Onshore",16
5842041f4e65fad6a7708841,2024_01_22,32.796582258728826,-117.25779,Pacific Beach,2.375,1.16084375,1.4317625,14,14,"NIGHT_MIST,NIGHT_DRIZZLE,NIGHT_MIST,NIGHT_LIGHT_RAIN,NIGHT_OVERCAST,NIGHT_OVERCAST,NIGHT_CLOUDY,NIGHT_OVERCAST,LIGHT_RAIN,LIGHT_RAIN,RAIN,RAIN,LIGHT_RAIN,RAIN,MIST,OVERCAST","Cross-shore,Cross-shore,Cross-shore,Cross-shore,Cross-shore,Cross-shore,Cross-shore,Cross-shore,Cross-shore,Cross-shore,Cross-shore,Cross-shore,Offshore,Onshore,Onshore,Onshore",16
5842041f4e65fad6a7708842,2024_01_22,32.776636,-117.25514,Mission Beach,2.375,1.1050625,1.41348125,14,14,"NIGHT_MIST,NIGHT_DRIZZLE,NIGHT_MIST,NIGHT_LIGHT_RAIN,NIGHT_OVERCAST,NIGHT_OVERCAST,NIGHT_CLOUDY,NIGHT_OVERCAST,LIGHT_RAIN,LIGHT_RAIN,RAIN,RAIN,LIGHT_RAIN,RAIN,MIST,OVERCAST","Offshore,Offshore,Offshore,Offshore,Offshore,Offshore,Offshore,Offshore,Offshore,Offshore,Offshore,Offshore,Offshore,Cross-shore,Onshore,Onshore",16
5842041f4e65fad6a7708844,2024_01_22,32.577195519016,-117.13475,Imperial Beach Pier,2.625,1.276875,1.5275,15,15,"NIGHT_MIST,NIGHT_DRIZZLE,NIGHT_MIST,NIGHT_DRIZZLE,NIGHT_OVERCAST,NIGHT_OVERCAST,NIGHT_MOSTLY_CLOUDY,NIGHT_OVERCAST,LIGHT_SHOWERS_POSSIBLE,LIGHT_RAIN,DRIZZLE,LIGHT_RAIN,HEAVY_RAIN,LIGHT_RAIN,MOSTLY_CLOUDY,CLOUDY","Cross-shore,Cross-shore,Cross-shore,Cross-shore,Cross-shore,Cross-shore,Cross-shore,Cross-shore,Cross-shore,Offshore,Offshore,Offshore,Cross-shore,Offshore,Onshore,Onshore",16
5842041f4e65fad6a770884a,2024_01_22,42.88678181061,-70.80843,Seabrook,0.145625,0.019194739583333335,0.19985541666666667,5,4,"NIGHT_CLEAR,NIGHT_CLEAR,NIGHT_CLEAR,NIGHT_CLEAR,NIGHT_CLEAR,NIGHT_CLEAR,CLEAR,CLEAR,CLEAR,CLEAR,CLEAR,CLEAR,CLEAR,CLEAR,CLEAR,NIGHT_CLEAR","Offshore,Offshore,Offshore,Offshore,Offshore,Offshore,Offshore,Offshore,Offshore,Offshore,Offshore,Offshore,Offshore,Offshore,Offshore,Offshore",16
5842041f4e65fad6a770884e,2024_01_22,41.434181432898335,-71.45312118111178,Narragansett,0.1125,0,0.13224621212121213,7,6,"NIGHT_CLEAR,NIGHT_CLEAR,NIGHT_CLEAR,NIGHT_CLEAR,NIGHT_CLEAR,NIGHT_CLEAR,CLEAR,CLEAR,CLEAR,CLEAR,CLEAR,CLEAR,CLEAR,CLEAR,CLEAR,NIGHT_CLEAR","Offshore,Offshore,Offshore,Offshore,Offshore,Offshore,Offshore,Offshore,Cross-shore,Cross-shore,Cross-shore,Cross-shore,Cross-shore,Cross-shore,Cross-shore,Cross-shore",16
5842041f4e65fad6a7708850,2024_01_22,40.582703230722,-73.65247,Lincoln Blvd,0,-0.0048125,0.15164166666666667,7,6,"NIGHT_CLEAR,NIGHT_CLEAR,NIGHT_CLEAR,NIGHT_CLEAR,NIGHT_CLEAR,NIGHT_CLEAR,CLEAR,CLEAR,CLEAR,CLEAR,CLEAR,CLEAR,CLEAR,CLEAR,CLEAR,NIGHT_CLEAR","Cross-shore,Cross-shore,Offshore,Offshore,Cross-shore,Cross-shore,Onshore,Offshore,Offshore,Cross-shore,Cross-shore,Cross-shore,Onshore,Onshore,Onshore,Onshore",16
5842041f4e65fad6a7708852,2024_01_22,40.58342841721757,-73.81182,Rockaways,0,0,0.13866791666666667,7,6,"NIGHT_CLEAR,NIGHT_CLEAR,NIGHT_CLEAR,NIGHT_CLEAR,NIGHT_CLEAR,NIGHT_CLEAR,CLEAR,CLEAR,CLEAR,CLEAR,CLEAR,CLEAR,CLEAR,CLEAR,CLEAR,NIGHT_CLEAR","Offshore,Offshore,Offshore,Offshore,Offshore,Cross-shore,Cross-shore,Cross-shore,Cross-shore,Cross-shore,Cross-shore,Onshore,Onshore,Onshore,Onshore,Onshore",16
5842041f4e65fad6a7708853,2024_01_22,40.330474,-73.9734,Monmouth Beach,0,0,0.14583333333333334,6,4,"NIGHT_CLEAR,NIGHT_CLEAR,NIGHT_CLEAR,NIGHT_CLEAR,NIGHT_CLEAR,NIGHT_CLEAR,CLEAR,CLEAR,CLEAR,CLEAR,CLEAR,CLEAR,CLEAR,CLEAR,CLEAR,NIGHT_CLEAR","Offshore,Offshore,Offshore,Offshore,Offshore,Offshore,Offshore,Offshore,Offshore,Offshore,Offshore,Offshore,Offshore,Offshore,Offshore,Offshore",16
5842041f4e65fad6a7708856,2024_01_22,40.113,-74.028,Manasquan Inlet,0,0,0.1153125,6,4,"NIGHT_CLEAR,NIGHT_CLEAR,NIGHT_CLEAR,NIGHT_CLEAR,NIGHT_CLEAR,NIGHT_CLEAR,CLEAR,CLEAR,CLEAR,CLEAR,CLEAR,CLEAR,CLEAR,CLEAR,CLEAR,CLEAR","Offshore,Offshore,Offshore,Offshore,Offshore,Offshore,Offshore,Offshore,Offshore,Offshore,Offshore,Offshore,Offshore,Offshore,Offshore,Offshore",16
5842041f4e65fad6a7708857,2024_01_22,39.941519877445664,-74.06829,Casino Pier,0,0,0.1196875,6,4,"NIGHT_CLEAR,NIGHT_CLEAR,NIGHT_CLEAR,NIGHT_CLEAR,NIGHT_CLEAR,NIGHT_CLEAR,CLEAR,CLEAR,CLEAR,CLEAR,CLEAR,CLEAR,CLEAR,CLEAR,CLEAR,CLEAR","Offshore,Offshore,Offshore,Offshore,Offshore,Offshore,Offshore,Offshore,Offshore,Offshore,Offshore,Offshore,Offshore,Offshore,Offshore,Offshore",16
5842041f4e65fad6a7708858,2024_01_22,39.28223089949212,-74.55766,North End OC,0,0,0.1281607142857143,5,3,"NIGHT_CLEAR,NIGHT_CLEAR,NIGHT_CLEAR,NIGHT_CLEAR,NIGHT_CLEAR,NIGHT_CLEAR,CLEAR,CLEAR,CLEAR,CLEAR,CLEAR,CLEAR,CLEAR,CLEAR,CLEAR,CLEAR","Offshore,Offshore,Offshore,Offshore,Offshore,Offshore,Offshore,Offshore,Offshore,Offshore,Cross-shore,Cross-shore,Cross-shore,Cross-shore,Cross-shore,Cross-shore",16
5842041f4e65fad6a770885b,2024_01_22,39.65080599934257,-74.17146,Ship Bottom,0,0,0.14687857142857144,5,3,"NIGHT_CLEAR,NIGHT_CLEAR,NIGHT_CLEAR,NIGHT_CLEAR,NIGHT_CLEAR,NIGHT_CLEAR,CLEAR,CLEAR,CLEAR,CLEAR,CLEAR,CLEAR,CLEAR,CLEAR,CLEAR,CLEAR","Offshore,Offshore,Offshore,Offshore,Offshore,Offshore,Offshore,Offshore,Offshore,Cross-shore,Cross-shore,Cross-shore,Cross-shore,Cross-shore,Cross-shore,Cross-shore",16
5842041f4e65fad6a7708863,2024_01_22,36.034151543144,-75.66791,Third Street,1.84375,0.4060416666666667,0.7122916666666667,9,8,"NIGHT_CLEAR,NIGHT_CLEAR,NIGHT_CLEAR,NIGHT_CLEAR,NIGHT_CLEAR,NIGHT_CLEAR,CLEAR,CLEAR,CLEAR,CLEAR,CLEAR,CLEAR,CLEAR,CLEAR,CLEAR,CLEAR","Onshore,Onshore,Cross-shore,Cross-shore,Onshore,Onshore,Onshore,Onshore,Onshore,Onshore,Onshore,Onshore,Offshore,Offshore,Offshore,Offshore",16
5842041f4e65fad6a7708867,2024_01_22,35.605833221351425,-75.46303,S-Turns,1.119375,0.5859791666666667,0.8878,10,9,"NIGHT_CLEAR,NIGHT_CLEAR,NIGHT_CLEAR,NIGHT_CLEAR,NIGHT_CLEAR,NIGHT_CLEAR,CLEAR,CLEAR,CLEAR,CLEAR,CLEAR,CLEAR,CLEAR,CLEAR,CLEAR,CLEAR","Cross-shore,Cross-shore,Cross-shore,Cross-shore,Cross-shore,Cross-shore,Cross-shore,Onshore,Cross-shore,Onshore,Onshore,Onshore,Offshore,Offshore,Onshore,Onshore",16
5842041f4e65fad6a770886d,2024_01_22,38.338461,-75.08117,Ocean City Boardwalk,0.1875,0.00625,0.295625,7,6,"NIGHT_CLEAR,NIGHT_CLEAR,NIGHT_CLEAR,NIGHT_CLEAR,NIGHT_CLEAR,NIGHT_CLEAR,CLEAR,CLEAR,CLEAR,CLEAR,CLEAR,CLEAR,CLEAR,CLEAR,CLEAR,CLEAR","Offshore,Offshore,Offshore,Cross-shore,Offshore,Offshore,Cross-shore,Offshore,Cross-shore,Offshore,Offshore,Offshore,Offshore,Offshore,Offshore,Offshore",16
5842041f4e65fad6a770886f,2024_01_22,29.844757212379562,-81.26136,A St.,1,0.633125,0.93875,14,14,"NIGHT_MOSTLY_CLOUDY,NIGHT_CLOUDY,NIGHT_BRIEF_SHOWERS,NIGHT_MOSTLY_CLOUDY,NIGHT_MOSTLY_CLOUDY,NIGHT_CLEAR,CLEAR,MOSTLY_CLOUDY,CLEAR,CLEAR,CLEAR,CLEAR,CLEAR,MOSTLY_CLOUDY,MOSTLY_CLEAR,MOSTLY_CLOUDY","Onshore,Onshore,Onshore,Onshore,Onshore,Onshore,Onshore,Onshore,Onshore,Onshore,Onshore,Onshore,Onshore,Onshore,Onshore,Onshore",16
5842041f4e65fad6a7708871,2024_01_22,29.069417851135093,-80.90824,New Smyrna Beach,1,0.9038291666666667,1.2508479166666666,17.125,15.125,"NIGHT_CLEAR,NIGHT_MOSTLY_CLOUDY,NIGHT_MOSTLY_CLOUDY,NIGHT_MOSTLY_CLEAR,NIGHT_CLOUDY,NIGHT_MOSTLY_CLOUDY,CLEAR,MOSTLY_CLEAR,MOSTLY_CLOUDY,MOSTLY_CLOUDY,MOSTLY_CLOUDY,MOSTLY_CLOUDY,MOSTLY_CLOUDY,CLOUDY,BRIEF_SHOWERS,MOSTLY_CLOUDY","Onshore,Onshore,Onshore,Onshore,Onshore,Onshore,Onshore,Onshore,Onshore,Onshore,Onshore,Onshore,Onshore,Onshore,Onshore,Onshore",16
5842041f4e65fad6a7708872,2024_01_22,28.367707417566,-80.60171,Cocoa Beach Pier,1.3125,0.5800354166666667,0.8836729166666667,18.125,17.5625,"NIGHT_CLEAR,NIGHT_CLEAR,NIGHT_MOSTLY_CLOUDY,NIGHT_CLEAR,NIGHT_CLEAR,NIGHT_MOSTLY_CLOUDY,MOSTLY_CLOUDY,CLEAR,MOSTLY_CLOUDY,MOSTLY_CLEAR,BRIEF_SHOWERS,MOSTLY_CLOUDY,MOSTLY_CLEAR,CLEAR,CLEAR,MOSTLY_CLOUDY","Onshore,Onshore,Onshore,Onshore,Onshore,Onshore,Onshore,Onshore,Onshore,Onshore,Onshore,Onshore,Onshore,Onshore,Onshore,Onshore",16
5842041f4e65fad6a7708873,2024_01_22,28.091782738658846,-80.56479,Indialantic,1,0.7550958333333333,1.0565458333333333,18.5625,18.5625,"NIGHT_MOSTLY_CLOUDY,NIGHT_CLEAR,NIGHT_CLEAR,NIGHT_BRIEF_SHOWERS,NIGHT_BRIEF_SHOWERS,NIGHT_MOSTLY_CLOUDY,MOSTLY_CLOUDY,MOSTLY_CLOUDY,MOSTLY_CLOUDY,CLEAR,CLEAR,CLEAR,CLEAR,OVERCAST,CLEAR,MOSTLY_CLOUDY","Onshore,Onshore,Onshore,Onshore,Onshore,Onshore,Onshore,Onshore,Onshore,Onshore,Onshore,Onshore,Onshore,Onshore,Onshore,Onshore",16
5842041f4e65fad6a7708876,2024_01_22,27.25392904143517,-80.19455,Jensen Beach,0.95875,0.82521875,1.0541,24,22,"NIGHT_CLOUDY,NIGHT_OVERCAST,NIGHT_CLOUDY,NIGHT_OVERCAST,NIGHT_OVERCAST,NIGHT_OVERCAST,CLOUDY,MOSTLY_CLOUDY,CLOUDY,LIGHT_RAIN,MOSTLY_CLOUDY,MOSTLY_CLOUDY,CLEAR,MOSTLY_CLOUDY,CLEAR,CLEAR","Onshore,Onshore,Onshore,Onshore,Onshore,Onshore,Onshore,Onshore,Onshore,Onshore,Onshore,Onshore,Onshore,Onshore,Onshore,Onshore",16
5842041f4e65fad6a7708879,2024_01_22,26.76346795333825,-80.0360655784607,Reef Road,1,1.0043520833333335,1.3452166666666665,25,23,"NIGHT_OVERCAST,NIGHT_MOSTLY_CLOUDY,NIGHT_OVERCAST,NIGHT_OVERCAST,NIGHT_MOSTLY_CLOUDY,NIGHT_MOSTLY_CLOUDY,MOSTLY_CLOUDY,MOSTLY_CLOUDY,OVERCAST,OVERCAST,MOSTLY_CLOUDY,CLOUDY,MOSTLY_CLOUDY,MOSTLY_CLOUDY,MOSTLY_CLOUDY,MOSTLY_CLOUDY","Onshore,Onshore,Onshore,Onshore,Onshore,Onshore,Onshore,Onshore,Onshore,Onshore,Onshore,Onshore,Onshore,Onshore,Onshore,Onshore",16
5842041f4e65fad6a770887c,2024_01_22,26.336499228484,-80.06956100463,Boca Raton Inlet,1,0.6054791666666667,0.9863270833333333,25,23,"NIGHT_CLOUDY,NIGHT_MOSTLY_CLOUDY,NIGHT_CLEAR,NIGHT_BRIEF_SHOWERS,NIGHT_BRIEF_SHOWERS,NIGHT_LIGHT_RAIN,MOSTLY_CLOUDY,MOSTLY_CLOUDY,OVERCAST,OVERCAST,OVERCAST,DRIZZLE,CLOUDY,MOSTLY_CLOUDY,MOSTLY_CLOUDY,CLEAR","Onshore,Onshore,Onshore,Onshore,Onshore,Onshore,Onshore,Onshore,Onshore,Onshore,Onshore,Onshore,Onshore,Onshore,Onshore,Onshore",16
5842041f4e65fad6a770887d,2024_01_22,26.31719311695038,-80.07452525176168,Deerfield Beach Pier,1,0.5726146354166667,0.8724422916666666,25,23,"NIGHT_CLOUDY,NIGHT_MOSTLY_CLOUDY,NIGHT_MOSTLY_CLOUDY,NIGHT_BRIEF_SHOWERS,NIGHT_MOSTLY_CLOUDY,NIGHT_LIGHT_RAIN,CLEAR,MOSTLY_CLOUDY,OVERCAST,OVERCAST,OVERCAST,OVERCAST,CLEAR,MOSTLY_CLOUDY,MOSTLY_CLOUDY,CLEAR","Onshore,Onshore,Onshore,Onshore,Onshore,Onshore,Onshore,Onshore,Onshore,Onshore,Onshore,Onshore,Onshore,Onshore,Onshore,Onshore",16
5842041f4e65fad6a7708881,2024_01_22,30.20276320866628,-85.85626528676136,"Spyglass Dr., Panama City",0.520625,0.0475,0.26416666666666666,13,12,"NIGHT_CLEAR,NIGHT_CLEAR,NIGHT_CLEAR,NIGHT_CLEAR,NIGHT_CLEAR,NIGHT_CLEAR,CLEAR,CLEAR,CLEAR,CLEAR,CLEAR,CLEAR,CLEAR,CLEAR,CLEAR,CLEAR","Offshore,Offshore,Offshore,Offshore,Offshore,Offshore,Offshore,Offshore,Offshore,Offshore,Offshore,Offshore,Offshore,Offshore,Offshore,Offshore",16
5842041f4e65fad6a7708884,2024_01_22,33.39000832738053,-117.59852,Cottons,3.260625,1.24018125,1.5554833333333333,14,14,"NIGHT_MIST,NIGHT_BRIEF_SHOWERS,NIGHT_OVERCAST,NIGHT_OVERCAST,NIGHT_OVERCAST,NIGHT_OVERCAST,NIGHT_OVERCAST,NIGHT_LIGHT_RAIN,OVERCAST,LIGHT_SHOWERS_POSSIBLE,RAIN,LIGHT_SHOWERS_POSSIBLE,LIGHT_SHOWERS_POSSIBLE,MOSTLY_CLOUDY,MOSTLY_CLOUDY,MOSTLY_CLOUDY","Offshore,Offshore,Offshore,Offshore,Offshore,Offshore,Offshore,Offshore,Offshore,Offshore,Offshore,Offshore,Offshore,Offshore,Offshore,Offshore",16
5842041f4e65fad6a7708885,2024_01_22,33.359416282661,-117.54167901405711,Trails,2.75,0.905625,1.0987500000000001,15,15,"NIGHT_FOG,NIGHT_SHOWERS,NIGHT_LIGHT_RAIN,NIGHT_OVERCAST,NIGHT_OVERCAST,NIGHT_LIGHT_RAIN,NIGHT_OVERCAST,NIGHT_LIGHT_RAIN,OVERCAST,LIGHT_RAIN,RAIN,LIGHT_SHOWERS_POSSIBLE,LIGHT_SHOWERS_POSSIBLE,MOSTLY_CLOUDY,MOSTLY_CLOUDY,MOSTLY_CLOUDY","Offshore,Cross-shore,Cross-shore,Cross-shore,Cross-shore,Cross-shore,Cross-shore,Cross-shore,Offshore,Offshore,Offshore,Offshore,Offshore,Offshore,Cross-shore,Cross-shore",16
5842041f4e65fad6a7708886,2024_01_22,33.38042605929805,-117.58332,Middles,2.145625,0.7501583333333334,1.1137125,14,14,"NIGHT_MIST,NIGHT_BRIEF_SHOWERS,NIGHT_OVERCAST,NIGHT_OVERCAST,NIGHT_OVERCAST,NIGHT_OVERCAST,NIGHT_OVERCAST,NIGHT_LIGHT_RAIN,OVERCAST,LIGHT_SHOWERS_POSSIBLE,RAIN,LIGHT_SHOWERS_POSSIBLE,LIGHT_SHOWERS_POSSIBLE,MOSTLY_CLOUDY,MOSTLY_CLOUDY,MOSTLY_CLOUDY","Offshore,Offshore,Offshore,Offshore,Offshore,Offshore,Offshore,Offshore,Offshore,Offshore,Offshore,Offshore,Offshore,Offshore,Offshore,Offshore",16
5842041f4e65fad6a7708887,2024_01_22,33.38445596302903,-117.59445,Upper Trestles,3.1875,1.0365354166666667,1.36261875,14,14,"NIGHT_MIST,NIGHT_BRIEF_SHOWERS,NIGHT_OVERCAST,NIGHT_OVERCAST,NIGHT_OVERCAST,NIGHT_OVERCAST,NIGHT_OVERCAST,NIGHT_LIGHT_RAIN,OVERCAST,LIGHT_SHOWERS_POSSIBLE,RAIN,LIGHT_SHOWERS_POSSIBLE,LIGHT_SHOWERS_POSSIBLE,MOSTLY_CLOUDY,MOSTLY_CLOUDY,MOSTLY_CLOUDY","Offshore,Cross-shore,Offshore,Offshore,Offshore,Offshore,Offshore,Offshore,Offshore,Offshore,Offshore,Offshore,Offshore,Offshore,Offshore,Offshore",16
5842041f4e65fad6a7708889,2024_01_22,28.944414,-95.28883,Surfside,1.0625,1.47716875,2.3080775,12.3125,12.3125,"NIGHT_OVERCAST,NIGHT_MIST,NIGHT_OVERCAST,NIGHT_OVERCAST,NIGHT_OVERCAST,NIGHT_OVERCAST,NIGHT_OVERCAST,DRIZZLE,MIST,MIST,RAIN,MIST,MIST,CLOUDY,DRIZZLE,OVERCAST","Onshore,Onshore,Onshore,Onshore,Onshore,Onshore,Onshore,Onshore,Onshore,Onshore,Onshore,Onshore,Onshore,Onshore,Offshore,Cross-shore",16
5842041f4e65fad6a770888a,2024_01_22,33.38143999849023,-117.58843,Lower Trestles,2.875,0.97354375,1.2756916666666667,14,14,"NIGHT_MIST,NIGHT_BRIEF_SHOWERS,NIGHT_OVERCAST,NIGHT_OVERCAST,NIGHT_OVERCAST,NIGHT_OVERCAST,NIGHT_OVERCAST,NIGHT_LIGHT_RAIN,OVERCAST,LIGHT_SHOWERS_POSSIBLE,RAIN,LIGHT_SHOWERS_POSSIBLE,LIGHT_SHOWERS_POSSIBLE,MOSTLY_CLOUDY,MOSTLY_CLOUDY,MOSTLY_CLOUDY","Offshore,Cross-shore,Offshore,Offshore,Offshore,Offshore,Offshore,Offshore,Offshore,Offshore,Offshore,Offshore,Offshore,Offshore,Offshore,Offshore",16
5842041f4e65fad6a770888b,2024_01_22,33.379622288757,-117.57894,Church,2.645625,0.84698125,1.1550666666666667,14,14,"NIGHT_MIST,NIGHT_BRIEF_SHOWERS,NIGHT_OVERCAST,NIGHT_OVERCAST,NIGHT_OVERCAST,NIGHT_OVERCAST,NIGHT_OVERCAST,NIGHT_LIGHT_RAIN,OVERCAST,LIGHT_SHOWERS_POSSIBLE,RAIN,LIGHT_SHOWERS_POSSIBLE,LIGHT_SHOWERS_POSSIBLE,MOSTLY_CLOUDY,MOSTLY_CLOUDY,MOSTLY_CLOUDY","Offshore,Offshore,Offshore,Offshore,Offshore,Offshore,Offshore,Offshore,Offshore,Offshore,Offshore,Offshore,Offshore,Offshore,Offshore,Offshore",16
5842041f4e65fad6a770888d,2024_01_22,21.679,-158.042,Sunset Beach,3.64625,2.9355729166666666,3.69984375,26,25,"NIGHT_CLEAR,NIGHT_CLEAR,NIGHT_CLEAR,NIGHT_CLEAR,NIGHT_CLEAR,NIGHT_MOSTLY_CLEAR,NIGHT_MOSTLY_CLEAR,NIGHT_CLEAR,NIGHT_CLEAR,NIGHT_CLEAR,NIGHT_CLEAR,CLEAR,CLEAR,CLEAR,CLEAR,CLEAR","Offshore,Offshore,Offshore,Offshore,Offshore,Offshore,Offshore,Offshore,Offshore,Offshore,Offshore,Offshore,Offshore,Cross-shore,Onshore,Onshore",16
5842041f4e65fad6a770888e,2024_01_22,21.670550036401,-158.0482,Rocky Point,3.448125,2.68484375,3.4015104166666665,26,25,"NIGHT_CLEAR,NIGHT_MOSTLY_CLEAR,NIGHT_FOG,NIGHT_CLEAR,NIGHT_MOSTLY_CLEAR,NIGHT_MOSTLY_CLEAR,NIGHT_MOSTLY_CLEAR,NIGHT_CLEAR,NIGHT_CLEAR,NIGHT_CLEAR,NIGHT_CLEAR,CLEAR,CLEAR,CLEAR,CLEAR,CLEAR","Offshore,Offshore,Offshore,Offshore,Offshore,Offshore,Offshore,Offshore,Offshore,Offshore,Offshore,Offshore,Offshore,Offshore,Onshore,Onshore",16
5842041f4e65fad6a770888f,2024_01_22,21.668,-158.05,Chambers,3.5625,2.62375,3.13375,24,24,"NIGHT_CLEAR,NIGHT_MOSTLY_CLEAR,NIGHT_CLEAR,NIGHT_CLEAR,NIGHT_MOSTLY_CLEAR,NIGHT_MOSTLY_CLEAR,NIGHT_MOSTLY_CLEAR,NIGHT_CLEAR,NIGHT_CLEAR,NIGHT_CLEAR,NIGHT_CLEAR,CLEAR,CLEAR,CLEAR,CLEAR,CLEAR","Offshore,Offshore,Offshore,Offshore,Offshore,Offshore,Offshore,Offshore,Offshore,Offshore,Offshore,Offshore,Offshore,Cross-shore,Onshore,Onshore",16
5842041f4e65fad6a7708890,2024_01_22,21.66522,-158.0526,Pipeline,3.78125,2.849947916666667,3.60015625,26,25,"NIGHT_CLEAR,NIGHT_MOSTLY_CLEAR,NIGHT_FOG,NIGHT_CLEAR,NIGHT_MOSTLY_CLEAR,NIGHT_MOSTLY_CLEAR,NIGHT_MOSTLY_CLEAR,NIGHT_CLEAR,NIGHT_CLEAR,NIGHT_CLEAR,NIGHT_CLEAR,CLEAR,CLEAR,CLEAR,CLEAR,CLEAR","Offshore,Offshore,Offshore,Offshore,Offshore,Offshore,Offshore,Offshore,Offshore,Offshore,Offshore,Offshore,Onshore,Cross-shore,Onshore,Onshore",16
5842041f4e65fad6a7708891,2024_01_22,21.665,-158.054,Backdoor,3.5625,2.91875,3.488125,24,24,"NIGHT_CLEAR,NIGHT_MOSTLY_CLEAR,NIGHT_CLEAR,NIGHT_CLEAR,NIGHT_MOSTLY_CLEAR,NIGHT_MOSTLY_CLEAR,NIGHT_MOSTLY_CLEAR,NIGHT_CLEAR,NIGHT_CLEAR,NIGHT_CLEAR,NIGHT_CLEAR,CLEAR,CLEAR,CLEAR,CLEAR,CLEAR","Offshore,Offshore,Offshore,Offshore,Offshore,Offshore,Offshore,Offshore,Offshore,Offshore,Offshore,Offshore,Offshore,Cross-shore,Onshore,Onshore",16
5842041f4e65fad6a7708892,2024_01_22,21.662,-158.057,Rockpile,3.3125,3.023125,3.61375,24,24,"NIGHT_CLEAR,NIGHT_MOSTLY_CLEAR,NIGHT_CLEAR,NIGHT_CLEAR,NIGHT_MOSTLY_CLEAR,NIGHT_MOSTLY_CLEAR,NIGHT_MOSTLY_CLEAR,NIGHT_CLEAR,NIGHT_CLEAR,NIGHT_CLEAR,NIGHT_CLEAR,CLEAR,CLEAR,CLEAR,CLEAR,CLEAR","Offshore,Offshore,Offshore,Offshore,Offshore,Offshore,Offshore,Offshore,Offshore,Offshore,Offshore,Offshore,Offshore,Offshore,Onshore,Onshore",16
5842041f4e65fad6a7708893,2024_01_22,21.65870453806827,-158.06058,Log Cabins,3.5,2.381875,2.846875,24,24,"NIGHT_CLEAR,NIGHT_MOSTLY_CLEAR,NIGHT_FOG,NIGHT_CLEAR,NIGHT_MOSTLY_CLEAR,NIGHT_MOSTLY_CLEAR,NIGHT_MOSTLY_CLEAR,NIGHT_CLEAR,NIGHT_CLEAR,NIGHT_CLEAR,NIGHT_CLEAR,CLEAR,CLEAR,CLEAR,CLEAR,CLEAR","Offshore,Offshore,Offshore,Offshore,Offshore,Offshore,Offshore,Offshore,Offshore,Offshore,Offshore,Offshore,Offshore,Cross-shore,Onshore,Onshore",16
5842041f4e65fad6a7708894,2024_01_22,21.66203493640557,-158.05495,Off-The-Wall,3.3125,3.0775,3.67875,24,24,"NIGHT_CLEAR,NIGHT_MOSTLY_CLEAR,NIGHT_FOG,NIGHT_CLEAR,NIGHT_MOSTLY_CLEAR,NIGHT_MOSTLY_CLEAR,NIGHT_MOSTLY_CLEAR,NIGHT_CLEAR,NIGHT_CLEAR,NIGHT_CLEAR,NIGHT_CLEAR,CLEAR,CLEAR,CLEAR,CLEAR,CLEAR","Offshore,Offshore,Offshore,Offshore,Offshore,Offshore,Offshore,Offshore,Offshore,Offshore,Offshore,Offshore,Offshore,Offshore,Onshore,Onshore",16
5842041f4e65fad6a7708895,2024_01_22,21.643,-158.067,Waimea Bay,NA,2.837552083333333,3.63296875,26,25,"NIGHT_CLEAR,NIGHT_MOSTLY_CLEAR,NIGHT_FOG,NIGHT_CLEAR,NIGHT_MOSTLY_CLEAR,NIGHT_MOSTLY_CLEAR,NIGHT_MOSTLY_CLEAR,NIGHT_CLEAR,NIGHT_CLEAR,NIGHT_CLEAR,NIGHT_CLEAR,CLEAR,CLEAR,CLEAR,CLEAR,CLEAR","Offshore,Offshore,Offshore,Offshore,Offshore,Offshore,Offshore,Offshore,Offshore,Offshore,Offshore,Offshore,Offshore,Offshore,Onshore,Onshore",16
5842041f4e65fad6a7708896,2024_01_22,21.622,-158.087,Hultin's,3.375,2.798958333333333,3.525260416666667,26,25,"NIGHT_CLEAR,NIGHT_MOSTLY_CLEAR,NIGHT_CLEAR,NIGHT_CLEAR,NIGHT_SHOWERS,NIGHT_CLEAR,NIGHT_MOSTLY_CLEAR,NIGHT_CLEAR,NIGHT_CLEAR,NIGHT_CLEAR,NIGHT_CLEAR,CLEAR,CLEAR,CLEAR,CLEAR,CLEAR","Cross-shore,Cross-shore,Offshore,Offshore,Offshore,Offshore,Offshore,Offshore,Offshore,Offshore,Cross-shore,Offshore,Cross-shore,Cross-shore,Cross-shore,Cross-shore",16
5842041f4e65fad6a7708897,2024_01_22,21.623,-158.085,Jocko's,4,2.53625,3.029375,24,24,"NIGHT_CLEAR,NIGHT_MOSTLY_CLEAR,NIGHT_CLEAR,NIGHT_CLEAR,NIGHT_SHOWERS,NIGHT_CLEAR,NIGHT_MOSTLY_CLEAR,NIGHT_CLEAR,NIGHT_CLEAR,NIGHT_CLEAR,NIGHT_CLEAR,CLEAR,CLEAR,CLEAR,CLEAR,CLEAR","Offshore,Offshore,Offshore,Offshore,Offshore,Offshore,Offshore,Offshore,Offshore,Offshore,Offshore,Offshore,Offshore,Offshore,Offshore,Offshore",16
5842041f4e65fad6a7708898,2024_01_22,21.62,-158.088,Laniakea,3.71875,2.5842187500000002,3.1236979166666665,26,25,"NIGHT_CLEAR,NIGHT_MOSTLY_CLEAR,NIGHT_MOSTLY_CLOUDY,NIGHT_CLEAR,NIGHT_SHOWERS,NIGHT_CLEAR,NIGHT_MOSTLY_CLEAR,NIGHT_CLEAR,NIGHT_CLEAR,NIGHT_CLEAR,NIGHT_CLEAR,CLEAR,CLEAR,CLEAR,CLEAR,CLEAR","Offshore,Offshore,Offshore,Offshore,Offshore,Offshore,Offshore,Offshore,Offshore,Offshore,Offshore,Offshore,Offshore,Offshore,Offshore,Offshore",16
5842041f4e65fad6a7708899,2024_01_22,21.625,-158.083,Chun's,3.25,2.68625,3.21,24,24,"NIGHT_CLEAR,NIGHT_MOSTLY_CLEAR,NIGHT_CLEAR,NIGHT_CLEAR,NIGHT_SHOWERS,NIGHT_CLEAR,NIGHT_MOSTLY_CLEAR,NIGHT_CLEAR,NIGHT_CLEAR,NIGHT_CLEAR,NIGHT_CLEAR,CLEAR,CLEAR,CLEAR,CLEAR,CLEAR","Offshore,Cross-shore,Offshore,Offshore,Offshore,Offshore,Offshore,Offshore,Offshore,Offshore,Offshore,Offshore,Offshore,Offshore,Offshore,Offshore",16
5842041f4e65fad6a770889c,2024_01_22,21.286357895152136,-157.8515,South Shore - Ala Moana Park,1.6875,0.7675,1.0425,24,24,"NIGHT_MOSTLY_CLOUDY,NIGHT_BRIEF_SHOWERS,NIGHT_MOSTLY_CLOUDY,NIGHT_MOSTLY_CLEAR,NIGHT_MOSTLY_CLOUDY,NIGHT_MOSTLY_CLOUDY,NIGHT_MOSTLY_CLOUDY,NIGHT_SHOWERS,NIGHT_CLEAR,NIGHT_CLEAR,NIGHT_MOSTLY_CLEAR,MOSTLY_CLEAR,MOSTLY_CLEAR,MOSTLY_CLEAR,MOSTLY_CLEAR,MOSTLY_CLOUDY","Onshore,Onshore,Onshore,Onshore,Onshore,Onshore,Onshore,Onshore,Onshore,Onshore,Onshore,Onshore,Onshore,Onshore,Onshore,Onshore",16
5842041f4e65fad6a770889d,2024_01_22,19.606,-155.978,Banyans,3.604375,2.2741666666666664,2.7753125,26,25,"NIGHT_CLEAR,NIGHT_CLEAR,NIGHT_CLEAR,NIGHT_CLEAR,NIGHT_CLEAR,NIGHT_CLEAR,NIGHT_CLEAR,NIGHT_CLEAR,NIGHT_CLEAR,NIGHT_CLEAR,CLEAR,CLEAR,CLEAR,CLEAR,CLEAR,CLEAR","Offshore,Cross-shore,Cross-shore,Cross-shore,Offshore,Cross-shore,Offshore,Cross-shore,Cross-shore,Offshore,Cross-shore,Cross-shore,Onshore,Onshore,Onshore,Onshore",16
5842041f4e65fad6a770889e,2024_01_22,20.029,-155.831,Kawaihae,3.875,2.1254225,2.45794125,25,25,"NIGHT_CLEAR,NIGHT_CLEAR,NIGHT_CLEAR,NIGHT_CLEAR,NIGHT_MOSTLY_CLEAR,NIGHT_CLEAR,NIGHT_MOSTLY_CLEAR,NIGHT_CLEAR,NIGHT_CLEAR,NIGHT_CLEAR,NIGHT_CLEAR,CLEAR,CLEAR,CLEAR,CLEAR,CLEAR","Cross-shore,Cross-shore,Cross-shore,Offshore,Offshore,Offshore,Offshore,Offshore,Offshore,Offshore,Cross-shore,Offshore,Cross-shore,Onshore,Onshore,Onshore",16
5842041f4e65fad6a770889f,2024_01_22,33.07541383424675,-117.3105,Grandview,3.875,1.32375,1.571875,15,15,"NIGHT_LIGHT_RAIN,NIGHT_RAIN,NIGHT_MIST,NIGHT_DRIZZLE,NIGHT_CLOUDY,NIGHT_CLOUDY,NIGHT_CLEAR,NIGHT_OVERCAST,LIGHT_SHOWERS_POSSIBLE,CLOUDY,CLOUDY,RAIN,LIGHT_RAIN,LIGHT_RAIN,OVERCAST,OVERCAST","Offshore,Offshore,Offshore,Offshore,Offshore,Offshore,Offshore,Offshore,Offshore,Offshore,Offshore,Offshore,Offshore,Offshore,Offshore,Cross-shore",16
5842041f4e65fad6a77088a0,2024_01_22,33.065267421296596,-117.30577,Beacons,3.875,1.275625,1.5175,15,15,"NIGHT_LIGHT_RAIN,NIGHT_RAIN,NIGHT_MIST,NIGHT_DRIZZLE,NIGHT_CLOUDY,NIGHT_CLOUDY,NIGHT_CLEAR,NIGHT_OVERCAST,LIGHT_SHOWERS_POSSIBLE,CLOUDY,CLOUDY,RAIN,LIGHT_RAIN,LIGHT_RAIN,OVERCAST,OVERCAST","Offshore,Offshore,Offshore,Offshore,Offshore,Offshore,Offshore,Offshore,Offshore,Offshore,Offshore,Offshore,Offshore,Offshore,Offshore,Cross-shore",16
5842041f4e65fad6a77088a2,2024_01_22,21.252,-157.805,Diamond Head,1.65625,0.7625055729166667,1.1182936979166667,26,25,"NIGHT_MOSTLY_CLOUDY,NIGHT_CLEAR,NIGHT_MOSTLY_CLOUDY,NIGHT_CLEAR,NIGHT_CLEAR,NIGHT_MOSTLY_CLOUDY,NIGHT_MOSTLY_CLOUDY,NIGHT_CLEAR,NIGHT_CLEAR,NIGHT_CLEAR,NIGHT_CLEAR,CLEAR,CLEAR,CLEAR,CLEAR,CLEAR","Onshore,Onshore,Onshore,Onshore,Onshore,Onshore,Onshore,Onshore,Onshore,Onshore,Onshore,Onshore,Onshore,Onshore,Onshore,Onshore",16
5842041f4e65fad6a77088a3,2024_01_22,33.04694255008896,-117.29966,Moonlight State Beach,2.875,1.286875,1.528125,15,15,"NIGHT_DRIZZLE,NIGHT_DRIZZLE,NIGHT_DRIZZLE,NIGHT_OVERCAST,NIGHT_OVERCAST,NIGHT_CLOUDY,NIGHT_CLOUDY,NIGHT_OVERCAST,LIGHT_SHOWERS_POSSIBLE,CLOUDY,CLOUDY,RAIN,LIGHT_RAIN,LIGHT_RAIN,DRIZZLE,OVERCAST","Onshore,Offshore,Offshore,Onshore,Onshore,Onshore,Onshore,Cross-shore,Cross-shore,Cross-shore,Cross-shore,Offshore,Offshore,Onshore,Onshore,Onshore",16
5842041f4e65fad6a77088a5,2024_01_22,33.08685865930869,-117.31532,Ponto,3.4375,1.453125,1.6925,15,15,"NIGHT_LIGHT_RAIN,NIGHT_RAIN,NIGHT_MIST,NIGHT_DRIZZLE,NIGHT_CLOUDY,NIGHT_CLOUDY,NIGHT_CLEAR,NIGHT_OVERCAST,LIGHT_SHOWERS_POSSIBLE,CLOUDY,CLOUDY,RAIN,LIGHT_RAIN,LIGHT_RAIN,OVERCAST,OVERCAST","Offshore,Offshore,Offshore,Offshore,Offshore,Offshore,Offshore,Offshore,Offshore,Offshore,Offshore,Cross-shore,Offshore,Offshore,Offshore,Cross-shore",16
5842041f4e65fad6a77088a6,2024_01_22,33.130343587871906,-117.33667796442558,Terra Mar Point,2.4375,1.08889375,1.33529375,14,14,"NIGHT_FOG,NIGHT_BRIEF_SHOWERS,NIGHT_FOG,NIGHT_LIGHT_RAIN_AND_FOG,NIGHT_OVERCAST,NIGHT_OVERCAST,NIGHT_CLOUDY,NIGHT_OVERCAST,LIGHT_SHOWERS_POSSIBLE,OVERCAST,DRIZZLE,LIGHT_RAIN,RAIN_AND_FOG,LIGHT_RAIN,OVERCAST,DRIZZLE","Cross-shore,Cross-shore,Onshore,Cross-shore,Cross-shore,Cross-shore,Cross-shore,Cross-shore,Onshore,Cross-shore,Cross-shore,Offshore,Offshore,Offshore,Offshore,Cross-shore",16
5842041f4e65fad6a77088af,2024_01_22,32.95916304183685,-117.26963,Del Mar,2.9375,1.044375,1.288125,15,15,"NIGHT_MIST,NIGHT_DRIZZLE,NIGHT_DRIZZLE,NIGHT_CLOUDY,NIGHT_CLOUDY,NIGHT_OVERCAST,NIGHT_OVERCAST,NIGHT_OVERCAST,LIGHT_RAIN,LIGHT_RAIN,DRIZZLE,HEAVY_RAIN,RAIN,LIGHT_RAIN,OVERCAST,MIST","Cross-shore,Cross-shore,Cross-shore,Offshore,Offshore,Offshore,Offshore,Offshore,Offshore,Cross-shore,Offshore,Offshore,Offshore,Offshore,Offshore,Onshore",16
5842041f4e65fad6a77088b0,2024_01_22,32.97527261243354,-117.2721061331305,Del Mar Rivermouth,3,1.22625,1.4481249999999999,15,15,"NIGHT_MIST,NIGHT_MIST,NIGHT_MIST,NIGHT_CLOUDY,NIGHT_OVERCAST,NIGHT_OVERCAST,NIGHT_CLOUDY,NIGHT_CLOUDY,LIGHT_RAIN,OVERCAST,BRIEF_SHOWERS_POSSIBLE,HEAVY_RAIN,RAIN,HEAVY_SHOWERS_POSSIBLE,OVERCAST,MIST","Cross-shore,Cross-shore,Offshore,Offshore,Offshore,Offshore,Offshore,Offshore,Offshore,Cross-shore,Offshore,Offshore,Offshore,Offshore,Offshore,Onshore",16
5842041f4e65fad6a77088b1,2024_01_22,33.01352178146273,-117.28219,Cardiff Reef,2.84375,1.38928125,1.66349375,14,14,"NIGHT_MIST,NIGHT_MIST,NIGHT_LIGHT_RAIN,NIGHT_OVERCAST,NIGHT_MIST,NIGHT_CLOUDY,NIGHT_CLOUDY,NIGHT_CLOUDY,LIGHT_SHOWERS_POSSIBLE,OVERCAST,CLOUDY,HEAVY_RAIN,LIGHT_RAIN,RAIN,DRIZZLE,OVERCAST","Cross-shore,Onshore,Cross-shore,Cross-shore,Cross-shore,Cross-shore,Cross-shore,Cross-shore,Cross-shore,Cross-shore,Cross-shore,Offshore,Offshore,Offshore,Offshore,Cross-shore",16
5842041f4e65fad6a77088b3,2024_01_22,33.00211185876003,-117.281101957955,Seaside Reef,2.708125,1.38115625,1.6495875,14,14,"NIGHT_MIST,NIGHT_MIST,NIGHT_MIST,NIGHT_OVERCAST,NIGHT_OVERCAST,NIGHT_OVERCAST,NIGHT_CLOUDY,NIGHT_CLOUDY,LIGHT_RAIN,OVERCAST,CLOUDY,HEAVY_RAIN,LIGHT_RAIN,HEAVY_SHOWERS_POSSIBLE,OVERCAST,OVERCAST","Cross-shore,Onshore,Onshore,Cross-shore,Cross-shore,Cross-shore,Cross-shore,Cross-shore,Cross-shore,Cross-shore,Offshore,Offshore,Offshore,Offshore,Offshore,Cross-shore",16
5842041f4e65fad6a77088b4,2024_01_22,33.0341859796287,-117.29552,Swami's,2.770625,1.25740625,1.53411875,14,14,"NIGHT_MIST,NIGHT_MIST,NIGHT_LIGHT_RAIN,NIGHT_OVERCAST,NIGHT_MIST,NIGHT_CLOUDY,NIGHT_CLOUDY,NIGHT_CLOUDY,LIGHT_SHOWERS_POSSIBLE,OVERCAST,CLOUDY,HEAVY_RAIN,LIGHT_RAIN,RAIN,DRIZZLE,OVERCAST","Onshore,Onshore,Offshore,Onshore,Onshore,Onshore,Cross-shore,Cross-shore,Cross-shore,Cross-shore,Cross-shore,Offshore,Offshore,Onshore,Onshore,Onshore",16
5842041f4e65fad6a77088b7,2024_01_22,33.04569760260221,-117.2994,D Street,2.875,1.39125,1.636875,15,15,"NIGHT_DRIZZLE,NIGHT_DRIZZLE,NIGHT_DRIZZLE,NIGHT_OVERCAST,NIGHT_OVERCAST,NIGHT_CLOUDY,NIGHT_CLOUDY,NIGHT_OVERCAST,LIGHT_SHOWERS_POSSIBLE,CLOUDY,CLOUDY,RAIN,LIGHT_RAIN,LIGHT_RAIN,DRIZZLE,OVERCAST","Onshore,Offshore,Offshore,Onshore,Onshore,Onshore,Onshore,Cross-shore,Cross-shore,Cross-shore,Cross-shore,Offshore,Offshore,Onshore,Onshore,Onshore",16
5842041f4e65fad6a77088b8,2024_01_22,33.02090944350196,-117.28535,San Elijo State Beach,2.458125,1.08475,1.35536875,14,14,"NIGHT_MIST,NIGHT_MIST,NIGHT_LIGHT_RAIN,NIGHT_OVERCAST,NIGHT_MIST,NIGHT_CLOUDY,NIGHT_CLOUDY,NIGHT_CLOUDY,LIGHT_SHOWERS_POSSIBLE,OVERCAST,CLOUDY,HEAVY_RAIN,LIGHT_RAIN,RAIN,DRIZZLE,OVERCAST","Cross-shore,Onshore,Cross-shore,Cross-shore,Cross-shore,Cross-shore,Cross-shore,Cross-shore,Cross-shore,Cross-shore,Cross-shore,Offshore,Offshore,Offshore,Offshore,Cross-shore",16
5842041f4e65fad6a77088c2,2024_01_22,32.80662846492798,-117.2688764333725,PB Point,2.75,1.01,1.211875,15,15,"NIGHT_OVERCAST,NIGHT_LIGHT_RAIN,NIGHT_OVERCAST,NIGHT_LIGHT_RAIN,NIGHT_OVERCAST,NIGHT_DRIZZLE,NIGHT_OVERCAST,NIGHT_OVERCAST,LIGHT_RAIN,LIGHT_SHOWERS_POSSIBLE,DRIZZLE,RAIN,LIGHT_RAIN,RAIN,MIST,OVERCAST","Cross-shore,Cross-shore,Cross-shore,Cross-shore,Cross-shore,Onshore,Onshore,Cross-shore,Onshore,Cross-shore,Cross-shore,Cross-shore,Offshore,Onshore,Onshore,Cross-shore",16
5842041f4e65fad6a77088c4,2024_01_22,32.8060476681448,-117.26479,Old Man's at Tourmaline,2,0.725625,1.031875,15,15,"NIGHT_OVERCAST,NIGHT_LIGHT_RAIN,NIGHT_OVERCAST,NIGHT_LIGHT_RAIN,NIGHT_OVERCAST,NIGHT_DRIZZLE,NIGHT_OVERCAST,NIGHT_OVERCAST,LIGHT_RAIN,LIGHT_SHOWERS_POSSIBLE,DRIZZLE,RAIN,LIGHT_RAIN,RAIN,MIST,OVERCAST","Cross-shore,Cross-shore,Cross-shore,Cross-shore,Cross-shore,Onshore,Onshore,Cross-shore,Onshore,Cross-shore,Cross-shore,Cross-shore,Cross-shore,Onshore,Onshore,Cross-shore",16
5842041f4e65fad6a77088cb,2024_01_22,32.557056711256,-117.1327445020322,Tijuana Slough,2.1875,0.91875,1.10125,15,15,"NIGHT_MIST,NIGHT_RAIN,NIGHT_CLOUDY,NIGHT_DRIZZLE,NIGHT_CLOUDY,NIGHT_OVERCAST,NIGHT_MOSTLY_CLOUDY,NIGHT_OVERCAST,LIGHT_SHOWERS_POSSIBLE,LIGHT_RAIN,DRIZZLE,LIGHT_RAIN,HEAVY_RAIN,RAIN,MIST,CLOUDY","Onshore,Onshore,Cross-shore,Cross-shore,Cross-shore,Cross-shore,Cross-shore,Cross-shore,Cross-shore,Offshore,Cross-shore,Offshore,Cross-shore,Offshore,Onshore,Onshore",16
5842041f4e65fad6a77088cc,2024_01_22,32.863,-117.257,La Jolla Shores,2.9375,0.9456249999999999,1.129375,15,15,"NIGHT_MIST,NIGHT_RAIN,NIGHT_CLEAR,NIGHT_DRIZZLE,NIGHT_CLEAR,NIGHT_DRIZZLE,NIGHT_DRIZZLE,NIGHT_OVERCAST,BRIEF_SHOWERS_POSSIBLE,LIGHT_SHOWERS_POSSIBLE,CLOUDY,HEAVY_RAIN,RAIN,DRIZZLE,CLOUDY,CLOUDY","Offshore,Cross-shore,Offshore,Offshore,Offshore,Offshore,Offshore,Offshore,Offshore,Offshore,Offshore,Offshore,Offshore,Offshore,Offshore,Cross-shore",16
5842041f4e65fad6a77088ce,2024_01_22,32.67443657790586,-117.17421316238693,Coronado Beach,2.0625,1.04,1.2575,15,15,"NIGHT_MIST,NIGHT_MIST,NIGHT_MIST,NIGHT_CLOUDY,NIGHT_CLOUDY,NIGHT_CLOUDY,NIGHT_MOSTLY_CLOUDY,NIGHT_OVERCAST,LIGHT_RAIN,LIGHT_SHOWERS_POSSIBLE,LIGHT_RAIN,LIGHT_RAIN,HEAVY_RAIN,RAIN,MIST,CLOUDY","Onshore,Onshore,Onshore,Onshore,Onshore,Onshore,Onshore,Onshore,Onshore,Cross-shore,Cross-shore,Cross-shore,Offshore,Offshore,Onshore,Onshore",16
5842041f4e65fad6a77088cf,2024_01_22,33.40484417640326,-117.60749,San Clemente State Beach,2.3125,0.94875,1.1343750000000001,15,15,"NIGHT_MIST,NIGHT_SHOWERS,NIGHT_FOG,NIGHT_OVERCAST,NIGHT_OVERCAST,NIGHT_LIGHT_RAIN,NIGHT_OVERCAST,NIGHT_RAIN,OVERCAST,LIGHT_SHOWERS_POSSIBLE,RAIN,LIGHT_SHOWERS_POSSIBLE,BRIEF_SHOWERS_POSSIBLE,MOSTLY_CLOUDY,MOSTLY_CLOUDY,MOSTLY_CLOUDY","Offshore,Offshore,Offshore,Onshore,Onshore,Onshore,Onshore,Onshore,Onshore,Onshore,Onshore,Cross-shore,Offshore,Cross-shore,Offshore,Offshore",16
5842041f4e65fad6a77088d5,2024_01_22,33.4663042002114,-117.7168352817103,Strands,2.739375,1.1535145833333333,1.5002520833333333,14,14,"NIGHT_MOSTLY_CLOUDY,NIGHT_MIST,NIGHT_MIST,NIGHT_MIST,NIGHT_MIST,NIGHT_LIGHT_RAIN,NIGHT_MIST,NIGHT_DRIZZLE,MIST,LIGHT_RAIN,LIGHT_RAIN,HEAVY_RAIN,CLOUDY,BRIEF_SHOWERS,MOSTLY_CLOUDY,OVERCAST","Offshore,Offshore,Cross-shore,Cross-shore,Cross-shore,Cross-shore,Cross-shore,Cross-shore,Cross-shore,Cross-shore,Cross-shore,Offshore,Offshore,Offshore,Offshore,Offshore",16
5842041f4e65fad6a77088d7,2024_01_22,33.4609858001748,-117.68535,Doheny State Beach,1.76,0.17005208333333335,0.4732645833333333,14,14,"NIGHT_MOSTLY_CLOUDY,NIGHT_FOG,NIGHT_FOG,NIGHT_OVERCAST,NIGHT_OVERCAST,NIGHT_DRIZZLE,NIGHT_OVERCAST,NIGHT_LIGHT_RAIN,OVERCAST,LIGHT_RAIN,RAIN,HEAVY_RAIN,CLEAR,MOSTLY_CLOUDY,MOSTLY_CLOUDY,OVERCAST","Offshore,Cross-shore,Offshore,Cross-shore,Cross-shore,Cross-shore,Cross-shore,Onshore,Onshore,Onshore,Onshore,Cross-shore,Offshore,Offshore,Offshore,Cross-shore",16
5842041f4e65fad6a77088dc,2024_01_22,33.50894790083017,-117.75243,Aliso Creek,2.0625,0.805,1.054375,15,15,"NIGHT_MOSTLY_CLOUDY,NIGHT_MOSTLY_CLOUDY,NIGHT_MIST,NIGHT_MIST,NIGHT_MIST,NIGHT_MIST,NIGHT_DRIZZLE,NIGHT_MIST,MIST,LIGHT_RAIN,LIGHT_RAIN,RAIN,CLEAR,MOSTLY_CLOUDY,OVERCAST,OVERCAST","Offshore,Cross-shore,Onshore,Onshore,Cross-shore,Onshore,Onshore,Onshore,Onshore,Onshore,Onshore,Cross-shore,Offshore,Cross-shore,Offshore,Offshore",16
5842041f4e65fad6a77088dd,2024_01_22,33.5326591767067,-117.77764,Brooks Street,1.625,0.55625,0.861875,15,15,"NIGHT_MOSTLY_CLOUDY,NIGHT_MOSTLY_CLOUDY,NIGHT_MIST,NIGHT_LIGHT_RAIN,NIGHT_MIST,NIGHT_RAIN,NIGHT_DRIZZLE,NIGHT_MIST,MIST,LIGHT_RAIN,LIGHT_RAIN,RAIN,OVERCAST,CLEAR,OVERCAST,OVERCAST","Offshore,Offshore,Onshore,Onshore,Onshore,Onshore,Onshore,Onshore,Onshore,Onshore,Onshore,Cross-shore,Cross-shore,Cross-shore,Offshore,Offshore",16
5842041f4e65fad6a77088de,2024_01_22,33.53561225884637,-117.7799,Thalia Street,1.5625,0.5650000000000001,0.87,15,15,"NIGHT_MOSTLY_CLOUDY,NIGHT_MOSTLY_CLOUDY,NIGHT_MIST,NIGHT_LIGHT_RAIN,NIGHT_MIST,NIGHT_RAIN,NIGHT_DRIZZLE,NIGHT_MIST,MIST,LIGHT_RAIN,LIGHT_RAIN,RAIN,OVERCAST,CLEAR,OVERCAST,OVERCAST","Offshore,Offshore,Cross-shore,Onshore,Onshore,Onshore,Onshore,Onshore,Onshore,Onshore,Onshore,Cross-shore,Cross-shore,Cross-shore,Offshore,Offshore",16
5842041f4e65fad6a77088e3,2024_01_22,33.54268310353641,-117.7916,Rockpile,1.5625,0.653125,0.95875,15,15,"NIGHT_MOSTLY_CLOUDY,NIGHT_MOSTLY_CLOUDY,NIGHT_MIST,NIGHT_LIGHT_RAIN,NIGHT_MIST,NIGHT_RAIN,NIGHT_DRIZZLE,NIGHT_MIST,MIST,LIGHT_RAIN,LIGHT_RAIN,RAIN,OVERCAST,CLEAR,OVERCAST,OVERCAST","Offshore,Cross-shore,Onshore,Onshore,Onshore,Onshore,Onshore,Onshore,Onshore,Onshore,Onshore,Cross-shore,Cross-shore,Cross-shore,Cross-shore,Offshore",16
5842041f4e65fad6a77088e4,2024_01_22,33.7368459504689,-118.10342,"Seal Beach Pier, Southside",2.1875,0.435,0.739375,15,15,"NIGHT_MIST,NIGHT_MOSTLY_CLOUDY,NIGHT_MIST,NIGHT_CLOUDY,NIGHT_BRIEF_SHOWERS,NIGHT_FOG,NIGHT_LIGHT_RAIN,NIGHT_RAIN,MIST,LIGHT_SHOWERS_POSSIBLE,LIGHT_SHOWERS_POSSIBLE,LIGHT_SHOWERS_POSSIBLE,MOSTLY_CLOUDY,HEAVY_RAIN,OVERCAST,OVERCAST","Cross-shore,Cross-shore,Cross-shore,Offshore,Offshore,Cross-shore,Cross-shore,Cross-shore,Cross-shore,Offshore,Offshore,Offshore,Offshore,Offshore,Cross-shore,Cross-shore",16
5842041f4e65fad6a77088e5,2024_01_22,33.73933701820233,-118.117,Ray Bay,1.875,0.30625,0.609375,15,15,"NIGHT_FOG,NIGHT_MOSTLY_CLOUDY,NIGHT_OVERCAST,NIGHT_OVERCAST,NIGHT_FOG,NIGHT_BRIEF_SHOWERS,NIGHT_LIGHT_RAIN_AND_FOG,NIGHT_LIGHT_SHOWERS_POSSIBLE,FOG,LIGHT_RAIN,RAIN,RAIN,MOSTLY_CLOUDY,HEAVY_RAIN,OVERCAST,OVERCAST","Offshore,Cross-shore,Offshore,Offshore,Offshore,Cross-shore,Cross-shore,Cross-shore,Cross-shore,Offshore,Offshore,Offshore,Offshore,Cross-shore,Cross-shore,Cross-shore",16
5842041f4e65fad6a77088e7,2024_01_22,33.728733,-118.08982,Surfside,2.5625,0.711875,0.9825,15,15,"NIGHT_FOG,NIGHT_MOSTLY_CLOUDY,NIGHT_OVERCAST,NIGHT_OVERCAST,NIGHT_FOG,NIGHT_FOG,NIGHT_FOG,NIGHT_LIGHT_RAIN,FOG,LIGHT_SHOWERS_POSSIBLE,RAIN,LIGHT_SHOWERS_POSSIBLE,MOSTLY_CLOUDY,LIGHT_RAIN,OVERCAST,OVERCAST","Cross-shore,Cross-shore,Cross-shore,Offshore,Offshore,Cross-shore,Cross-shore,Cross-shore,Cross-shore,Offshore,Offshore,Offshore,Offshore,Offshore,Offshore,Cross-shore",16
5842041f4e65fad6a77088e8,2024_01_22,33.68760321488161,-118.04236,Bolsa Chica State Beach,2.74,1.36038125,1.64490625,14,14,"NIGHT_FOG,NIGHT_MOSTLY_CLOUDY,NIGHT_FOG,NIGHT_FOG,NIGHT_BRIEF_SHOWERS,NIGHT_FOG,NIGHT_LIGHT_RAIN_AND_FOG,NIGHT_LIGHT_RAIN,MIST,LIGHT_SHOWERS_POSSIBLE,LIGHT_RAIN,LIGHT_SHOWERS_POSSIBLE,MOSTLY_CLOUDY,RAIN,OVERCAST,OVERCAST","Offshore,Offshore,Offshore,Cross-shore,Cross-shore,Onshore,Onshore,Onshore,Onshore,Onshore,Onshore,Cross-shore,Offshore,Offshore,Offshore,Offshore",16
5842041f4e65fad6a77088ea,2024_01_22,33.66704400178788,-118.0192,North HB Streets,2.729375,1.3919958333333333,1.8841770833333333,14,14,"NIGHT_MIST,NIGHT_CLEAR,NIGHT_FOG,NIGHT_MIST,NIGHT_MIST,NIGHT_BRIEF_SHOWERS,NIGHT_LIGHT_SHOWERS_POSSIBLE,NIGHT_RAIN,OVERCAST,LIGHT_SHOWERS_POSSIBLE,LIGHT_RAIN,LIGHT_SHOWERS_POSSIBLE,MOSTLY_CLOUDY,OVERCAST,OVERCAST,OVERCAST","Offshore,Offshore,Offshore,Cross-shore,Onshore,Onshore,Onshore,Onshore,Onshore,Onshore,Onshore,Cross-shore,Offshore,Offshore,Offshore,Offshore",16
5842041f4e65fad6a77088ed,2024_01_22,33.65475101379567,-118.00291,Huntington Beach Pier Southside,2.64625,1.4253979166666668,1.8575791666666666,14,14,"NIGHT_FOG,NIGHT_MOSTLY_CLOUDY,NIGHT_FOG,NIGHT_LIGHT_RAIN_AND_FOG,NIGHT_FOG,NIGHT_FOG,NIGHT_LIGHT_RAIN_AND_FOG,NIGHT_LIGHT_RAIN,MIST,LIGHT_SHOWERS_POSSIBLE,LIGHT_RAIN,RAIN,BRIEF_SHOWERS,OVERCAST,OVERCAST,OVERCAST","Offshore,Cross-shore,Cross-shore,Offshore,Cross-shore,Cross-shore,Cross-shore,Cross-shore,Cross-shore,Offshore,Offshore,Cross-shore,Offshore,Offshore,Offshore,Onshore",16
5842041f4e65fad6a77088ee,2024_01_22,33.62778647706099,-117.95939,River Jetties,2.375,1.196475,1.5963416666666668,14,14,"NIGHT_MOSTLY_CLOUDY,NIGHT_BRIEF_SHOWERS,NIGHT_MIST,NIGHT_MIST,NIGHT_MIST,NIGHT_MOSTLY_CLOUDY,NIGHT_DRIZZLE,NIGHT_LIGHT_RAIN,OVERCAST,RAIN,LIGHT_RAIN,LIGHT_RAIN,OVERCAST,OVERCAST,OVERCAST,OVERCAST","Offshore,Cross-shore,Cross-shore,Cross-shore,Cross-shore,Cross-shore,Cross-shore,Cross-shore,Cross-shore,Offshore,Offshore,Offshore,Offshore,Offshore,Cross-shore,Offshore",16
5842041f4e65fad6a77088f2,2024_01_22,33.605165797643664,-117.92500376701355,Newport Point,1.6875,0.46875,0.77375,15,15,"NIGHT_MIST,NIGHT_MOSTLY_CLOUDY,NIGHT_FOG,NIGHT_MIST,NIGHT_BRIEF_SHOWERS,NIGHT_MIST,NIGHT_LIGHT_RAIN,NIGHT_RAIN,OVERCAST,RAIN,LIGHT_RAIN,LIGHT_RAIN,OVERCAST,OVERCAST,OVERCAST,OVERCAST","Offshore,Offshore,Cross-shore,Onshore,Onshore,Onshore,Onshore,Onshore,Onshore,Onshore,Onshore,Cross-shore,Cross-shore,Cross-shore,Offshore,Offshore",16
5842041f4e65fad6a77088f3,2024_01_22,33.58982984726977,-117.87713,Corona del Mar,1,0.200005,0.312508125,15,15,"NIGHT_MIST,NIGHT_MIST,NIGHT_MIST,NIGHT_MIST,NIGHT_MIST,NIGHT_MIST,NIGHT_DRIZZLE,NIGHT_DRIZZLE,MIST,LIGHT_RAIN,RAIN,LIGHT_RAIN,OVERCAST,MOSTLY_CLOUDY,OVERCAST,OVERCAST","Offshore,Cross-shore,Offshore,Cross-shore,Cross-shore,Cross-shore,Cross-shore,Cross-shore,Cross-shore,Offshore,Offshore,Offshore,Offshore,Offshore,Cross-shore,Cross-shore",16
5842041f4e65fad6a77088f7,2024_01_22,34.00750300824362,-118.4971783496269,Santa Monica Pier,2.125,0.519375,0.82375,14.6875,14.6875,"NIGHT_MOSTLY_CLOUDY,NIGHT_OVERCAST,NIGHT_CLOUDY,NIGHT_RAIN_AND_FOG,NIGHT_CLOUDY,NIGHT_OVERCAST,NIGHT_RAIN_AND_FOG,NIGHT_LIGHT_RAIN_AND_FOG,LIGHT_SHOWERS_POSSIBLE,LIGHT_SHOWERS_POSSIBLE,RAIN_AND_FOG,LIGHT_RAIN,HEAVY_RAIN,LIGHT_SHOWERS_POSSIBLE,MOSTLY_CLOUDY,MOSTLY_CLOUDY","Offshore,Offshore,Offshore,Offshore,Offshore,Offshore,Offshore,Cross-shore,Onshore,Onshore,Onshore,Offshore,Offshore,Offshore,Offshore,Offshore",16
5842041f4e65fad6a77088ff,2024_01_22,33.94070283102945,-118.44321,Dockweiler Beach,3,1.1978135416666666,1.46318359375,14.125,14.125,"NIGHT_FOG,NIGHT_CLOUDY,NIGHT_CLEAR,NIGHT_LIGHT_RAIN,NIGHT_OVERCAST,NIGHT_FOG,NIGHT_LIGHT_SHOWERS_POSSIBLE,NIGHT_DRIZZLE,LIGHT_RAIN,LIGHT_SHOWERS_POSSIBLE,DRIZZLE,OVERCAST,HEAVY_RAIN,LIGHT_SHOWERS_POSSIBLE,MOSTLY_CLOUDY,DRIZZLE","Offshore,Offshore,Offshore,Offshore,Offshore,Offshore,Offshore,Cross-shore,Onshore,Onshore,Cross-shore,Offshore,Offshore,Offshore,Offshore,Offshore",16
5842041f4e65fad6a7708900,2024_01_22,33.9231846937237,-118.4341465777908,Shitpipe,3.426875,1.17665625,1.4978395833333333,14.125,14.125,"NIGHT_MOSTLY_CLOUDY,NIGHT_OVERCAST,NIGHT_OVERCAST,NIGHT_MIST,NIGHT_MOSTLY_CLOUDY,NIGHT_OVERCAST,NIGHT_LIGHT_SHOWERS_POSSIBLE,NIGHT_RAIN,LIGHT_RAIN,LIGHT_SHOWERS_POSSIBLE,MIST,OVERCAST,HEAVY_RAIN,LIGHT_SHOWERS_POSSIBLE,MOSTLY_CLOUDY,OVERCAST","Offshore,Offshore,Offshore,Offshore,Offshore,Offshore,Offshore,Cross-shore,Onshore,Onshore,Cross-shore,Offshore,Offshore,Offshore,Offshore,Offshore",16
5842041f4e65fad6a7708902,2024_01_22,33.9108528052242,-118.4279133138721,Hammerland,2.989375,1.2257729166666667,1.6365708333333333,14.125,14.125,"NIGHT_MOSTLY_CLOUDY,NIGHT_OVERCAST,NIGHT_OVERCAST,NIGHT_MIST,NIGHT_MOSTLY_CLOUDY,NIGHT_OVERCAST,NIGHT_LIGHT_SHOWERS_POSSIBLE,NIGHT_RAIN,LIGHT_RAIN,LIGHT_SHOWERS_POSSIBLE,MIST,OVERCAST,HEAVY_RAIN,LIGHT_SHOWERS_POSSIBLE,MOSTLY_CLOUDY,OVERCAST","Offshore,Offshore,Offshore,Offshore,Offshore,Offshore,Offshore,Cross-shore,Onshore,Onshore,Cross-shore,Offshore,Offshore,Offshore,Offshore,Offshore",16
5842041f4e65fad6a7708904,2024_01_22,33.87201368173932,-118.4075151286262,Hermosa Beach,2.989375,1.0296666666666667,1.4273729166666667,14.125,14.125,"NIGHT_FOG,NIGHT_CLOUDY,NIGHT_DRIZZLE,NIGHT_CLOUDY,NIGHT_CLEAR,NIGHT_MOSTLY_CLOUDY,NIGHT_LIGHT_RAIN_AND_FOG,NIGHT_RAIN,LIGHT_RAIN,RAIN,LIGHT_RAIN,OVERCAST,HEAVY_RAIN,LIGHT_RAIN,CLOUDY,OVERCAST","Offshore,Offshore,Offshore,Offshore,Offshore,Offshore,Offshore,Cross-shore,Onshore,Onshore,Cross-shore,Offshore,Offshore,Offshore,Offshore,Offshore",16
5842041f4e65fad6a7708906,2024_01_22,33.90129336911256,-118.42184,El Porto,2.989375,1.6034291666666667,1.9991229166666666,14.125,14.125,"NIGHT_CLEAR,NIGHT_CLOUDY,NIGHT_CLEAR,NIGHT_MIST,NIGHT_CLEAR,NIGHT_OVERCAST,NIGHT_LIGHT_SHOWERS_POSSIBLE,NIGHT_RAIN,LIGHT_RAIN,RAIN,DRIZZLE,OVERCAST,HEAVY_RAIN,RAIN,MOSTLY_CLOUDY,OVERCAST","Offshore,Offshore,Offshore,Offshore,Offshore,Offshore,Offshore,Cross-shore,Onshore,Onshore,Cross-shore,Offshore,Offshore,Offshore,Offshore,Offshore",16
5842041f4e65fad6a7708907,2024_01_22,33.87963506431794,-118.41102,Manhattan Beach Pier,3.176875,1.3980104166666667,1.7093229166666666,14.125,14.125,"NIGHT_CLEAR,NIGHT_CLOUDY,NIGHT_CLEAR,NIGHT_MIST,NIGHT_CLEAR,NIGHT_OVERCAST,NIGHT_LIGHT_SHOWERS_POSSIBLE,NIGHT_RAIN,LIGHT_RAIN,RAIN,DRIZZLE,OVERCAST,HEAVY_RAIN,RAIN,MOSTLY_CLOUDY,OVERCAST","Offshore,Offshore,Offshore,Offshore,Offshore,Offshore,Offshore,Cross-shore,Onshore,Onshore,Cross-shore,Offshore,Offshore,Offshore,Offshore,Offshore",16
5842041f4e65fad6a7708914,2024_01_22,34.038053387863464,-118.5532,Sunset Point,2.5625,0.4825,0.7887500000000001,14.6875,14.6875,"NIGHT_MOSTLY_CLOUDY,NIGHT_OVERCAST,NIGHT_CLOUDY,NIGHT_MIST,NIGHT_CLOUDY,NIGHT_MIST,NIGHT_RAIN,NIGHT_RAIN_AND_FOG,LIGHT_SHOWERS_POSSIBLE,RAIN,RAIN,DRIZZLE,RAIN,CLEAR,MOSTLY_CLOUDY,MOSTLY_CLOUDY","Onshore,Cross-shore,Onshore,Onshore,Onshore,Onshore,Onshore,Cross-shore,Onshore,Onshore,Onshore,Cross-shore,Cross-shore,Onshore,Cross-shore,Cross-shore",16
5842041f4e65fad6a7708920,2024_01_22,33.80930828074364,-118.3933198342649,Haggerty's,2.625,0.552,0.682875,15,15,"NIGHT_CLEAR,NIGHT_CLEAR,NIGHT_DRIZZLE,NIGHT_CLEAR,NIGHT_MOSTLY_CLOUDY,NIGHT_BRIEF_SHOWERS,NIGHT_LIGHT_SHOWERS_POSSIBLE,NIGHT_RAIN,LIGHT_RAIN,LIGHT_RAIN,LIGHT_SHOWERS_POSSIBLE,DRIZZLE,HEAVY_RAIN,DRIZZLE,OVERCAST,OVERCAST","Offshore,Offshore,Offshore,Offshore,Offshore,Offshore,Offshore,Offshore,Onshore,Offshore,Offshore,Offshore,Offshore,Offshore,Offshore,Cross-shore",16
5842041f4e65fad6a7708921,2024_01_22,33.85044519861206,-118.40048,Redondo Breakwater,3.3125,1.2281250000000001,1.4737500000000001,15,15,"NIGHT_FOG,NIGHT_CLOUDY,NIGHT_CLOUDY,NIGHT_CLOUDY,NIGHT_CLEAR,NIGHT_MOSTLY_CLOUDY,NIGHT_LIGHT_RAIN_AND_FOG,NIGHT_RAIN,LIGHT_RAIN,RAIN,LIGHT_RAIN,OVERCAST,HEAVY_RAIN,LIGHT_RAIN,CLOUDY,OVERCAST","Offshore,Offshore,Offshore,Offshore,Offshore,Offshore,Offshore,Cross-shore,Onshore,Onshore,Cross-shore,Offshore,Offshore,Offshore,Offshore,Offshore",16
5842041f4e65fad6a7708927,2024_01_22,33.70877301002487,-118.2840112858389,Cabrillo Beach,1.6875,0.35625,0.660625,15,15,"NIGHT_MOSTLY_CLOUDY,NIGHT_FOG,NIGHT_DRIZZLE,NIGHT_OVERCAST,NIGHT_FOG,NIGHT_FOG,NIGHT_RAIN_AND_FOG,NIGHT_HEAVY_RAIN,LIGHT_RAIN_AND_FOG,LIGHT_RAIN,LIGHT_RAIN,RAIN,OVERCAST,HEAVY_RAIN,OVERCAST,OVERCAST","Cross-shore,Cross-shore,Onshore,Onshore,Onshore,Onshore,Onshore,Onshore,Onshore,Onshore,Onshore,Onshore,Onshore,Offshore,Cross-shore,Offshore",16
5842041f4e65fad6a770892c,2024_01_22,33.77209986806257,-118.4268428476672,Lunada Bay,2.6875,1.79875,2.048125,15,15,"NIGHT_BRIEF_SHOWERS,NIGHT_CLEAR,NIGHT_DRIZZLE,NIGHT_LIGHT_RAIN,NIGHT_FOG,NIGHT_OVERCAST,NIGHT_RAIN,NIGHT_RAIN,LIGHT_RAIN,LIGHT_RAIN,RAIN,LIGHT_RAIN,HEAVY_RAIN,LIGHT_RAIN,DRIZZLE,DRIZZLE","Offshore,Offshore,Offshore,Cross-shore,Cross-shore,Cross-shore,Cross-shore,Cross-shore,Onshore,Onshore,Cross-shore,Cross-shore,Offshore,Offshore,Offshore,Offshore",16
5842041f4e65fad6a770892d,2024_01_22,33.79294656286144,-118.4070316699825,PV Cove,3.4375,1.158074375,1.343625,15,15,"NIGHT_CLEAR,NIGHT_CLEAR,NIGHT_DRIZZLE,NIGHT_CLEAR,NIGHT_MOSTLY_CLOUDY,NIGHT_BRIEF_SHOWERS,NIGHT_LIGHT_SHOWERS_POSSIBLE,NIGHT_RAIN,LIGHT_RAIN,LIGHT_RAIN,LIGHT_SHOWERS_POSSIBLE,DRIZZLE,HEAVY_RAIN,DRIZZLE,OVERCAST,OVERCAST","Offshore,Offshore,Offshore,Offshore,Offshore,Offshore,Offshore,Offshore,Onshore,Offshore,Offshore,Offshore,Offshore,Offshore,Offshore,Cross-shore",16
5842041f4e65fad6a7708930,2024_01_22,34.03944902292561,-118.57539,Chart House,1.5,0.24375,0.5493750000000001,14.6875,14.6875,"NIGHT_MIST,NIGHT_LIGHT_RAIN_AND_FOG,NIGHT_OVERCAST,NIGHT_FOG,NIGHT_FOG,NIGHT_FOG,NIGHT_RAIN_AND_FOG,NIGHT_RAIN_AND_FOG,LIGHT_RAIN_AND_FOG,RAIN,RAIN,LIGHT_RAIN,RAIN,CLEAR,MOSTLY_CLOUDY,BRIEF_SHOWERS","Onshore,Cross-shore,Onshore,Onshore,Onshore,Onshore,Onshore,Onshore,Onshore,Onshore,Onshore,Onshore,Cross-shore,Onshore,Onshore,Cross-shore",16
5842041f4e65fad6a7708936,2024_01_22,34.0016731994772,-118.80456,Point Dume,0.78125,0.41185208333333334,0.7163083333333333,14.0625,14.0625,"NIGHT_BRIEF_SHOWERS,NIGHT_CLOUDY,NIGHT_MIST,NIGHT_MIST,NIGHT_CLEAR,NIGHT_OVERCAST,NIGHT_RAIN,NIGHT_RAIN,LIGHT_SHOWERS_POSSIBLE,LIGHT_RAIN,OVERCAST,HEAVY_RAIN,LIGHT_SHOWERS_POSSIBLE,CLEAR,MOSTLY_CLOUDY,MOSTLY_CLOUDY","Cross-shore,Cross-shore,Onshore,Onshore,Cross-shore,Cross-shore,Onshore,Onshore,Onshore,Onshore,Onshore,Cross-shore,Cross-shore,Cross-shore,Cross-shore,Offshore",16
5842041f4e65fad6a7708937,2024_01_22,34.02587527588963,-118.7554939066114,Latigo Point,1.1875,0.264375,0.566875,15,15,"NIGHT_BRIEF_SHOWERS,NIGHT_LIGHT_RAIN,NIGHT_MIST,NIGHT_MIST,NIGHT_CLOUDY,NIGHT_OVERCAST,NIGHT_RAIN,NIGHT_HEAVY_RAIN,LIGHT_RAIN,RAIN,LIGHT_RAIN,RAIN,LIGHT_SHOWERS_POSSIBLE,MOSTLY_CLOUDY,MOSTLY_CLOUDY,LIGHT_SHOWERS_POSSIBLE","Cross-shore,Cross-shore,Onshore,Onshore,Onshore,Onshore,Onshore,Onshore,Onshore,Onshore,Onshore,Onshore,Cross-shore,Cross-shore,Cross-shore,Offshore",16
5842041f4e65fad6a770893f,2024_01_22,34.043762,-118.93294,Leo Carrillo,1.198125,0.6685708333333333,1.0720125,14.0625,14.0625,"NIGHT_BRIEF_SHOWERS,NIGHT_MIST,NIGHT_MIST,NIGHT_MIST,NIGHT_DRIZZLE,NIGHT_CLOUDY,NIGHT_LIGHT_RAIN,NIGHT_RAIN,RAIN,DRIZZLE,MIST,LIGHT_SHOWERS_POSSIBLE,BRIEF_SHOWERS_POSSIBLE,MOSTLY_CLOUDY,MOSTLY_CLOUDY,BRIEF_SHOWERS","Cross-shore,Cross-shore,Cross-shore,Cross-shore,Cross-shore,Cross-shore,Cross-shore,Cross-shore,Cross-shore,Cross-shore,Cross-shore,Cross-shore,Onshore,Cross-shore,Cross-shore,Cross-shore",16
5842041f4e65fad6a7708941,2024_01_22,36.69388179265737,-121.81289,Marina State Beach,3.4375,1.595625,1.795625,13,13,"NIGHT_LIGHT_RAIN,NIGHT_OVERCAST,NIGHT_OVERCAST,NIGHT_LIGHT_RAIN,NIGHT_MIST,NIGHT_MIST,NIGHT_SHOWERS,NIGHT_FOG,NIGHT_FOG,MIST,MOSTLY_CLOUDY,MIST,BRIEF_SHOWERS,MIST,MOSTLY_CLOUDY,BRIEF_SHOWERS","Offshore,Offshore,Offshore,Offshore,Offshore,Offshore,Offshore,Offshore,Offshore,Offshore,Cross-shore,Onshore,Onshore,Onshore,Onshore,Onshore",16
5842041f4e65fad6a7708944,2024_01_22,34.34145077331085,-119.416999352654,Stanley's,3,0.565625,0.87125,14,14,"NIGHT_CLEAR,NIGHT_CLEAR,NIGHT_DRIZZLE,NIGHT_LIGHT_RAIN_AND_FOG,NIGHT_HEAVY_RAIN,NIGHT_RAIN,NIGHT_HEAVY_RAIN,NIGHT_RAIN,NIGHT_RAIN_AND_FOG,RAIN,LIGHT_SHOWERS_POSSIBLE,MOSTLY_CLOUDY,MOSTLY_CLOUDY,CLEAR,DRIZZLE,MOSTLY_CLOUDY","Offshore,Offshore,Offshore,Offshore,Offshore,Cross-shore,Cross-shore,Offshore,Cross-shore,Cross-shore,Offshore,Offshore,Offshore,Offshore,Offshore,Offshore",16
5842041f4e65fad6a7708945,2024_01_22,34.35113017313915,-119.426921498899,Oil Piers,2.5625,0.62375,0.930625,14,14,"NIGHT_CLEAR,NIGHT_CLEAR,NIGHT_DRIZZLE,NIGHT_LIGHT_RAIN_AND_FOG,NIGHT_HEAVY_RAIN,NIGHT_RAIN,NIGHT_HEAVY_RAIN,NIGHT_RAIN,NIGHT_RAIN_AND_FOG,RAIN,LIGHT_SHOWERS_POSSIBLE,MOSTLY_CLOUDY,MOSTLY_CLOUDY,CLEAR,DRIZZLE,MOSTLY_CLOUDY","Offshore,Offshore,Offshore,Offshore,Cross-shore,Cross-shore,Onshore,Offshore,Onshore,Cross-shore,Offshore,Offshore,Offshore,Offshore,Offshore,Offshore",16
5842041f4e65fad6a770894c,2024_01_22,34.17876333306018,-119.2399483564372,Oxnard,3,0.97875,1.17,14.6875,14.6875,"NIGHT_MIST,NIGHT_OVERCAST,NIGHT_FOG,NIGHT_RAIN_AND_FOG,NIGHT_LIGHT_SHOWERS_POSSIBLE,NIGHT_RAIN,NIGHT_LIGHT_RAIN,NIGHT_BRIEF_SHOWERS,HEAVY_RAIN,OVERCAST,MIST,FOG,MOSTLY_CLOUDY,MOSTLY_CLOUDY,LIGHT_RAIN,LIGHT_RAIN","Offshore,Offshore,Offshore,Offshore,Cross-shore,Cross-shore,Cross-shore,Cross-shore,Onshore,Cross-shore,Offshore,Offshore,Offshore,Offshore,Offshore,Offshore",16
5842041f4e65fad6a7708957,2024_01_22,34.31720331100517,-119.3882324751725,Pitas Point,2.8125,0.655625,0.949375,14,14,"NIGHT_RAIN,NIGHT_CLOUDY,NIGHT_LIGHT_RAIN,NIGHT_RAIN,NIGHT_RAIN,NIGHT_RAIN,NIGHT_LIGHT_RAIN,NIGHT_HEAVY_RAIN,NIGHT_RAIN,RAIN,RAIN,CLOUDY,MOSTLY_CLOUDY,CLEAR,OVERCAST,MOSTLY_CLOUDY","Offshore,Offshore,Offshore,Offshore,Offshore,Offshore,Offshore,Offshore,Offshore,Offshore,Offshore,Onshore,Onshore,Cross-shore,Onshore,Onshore",16
5842041f4e65fad6a7708959,2024_01_22,34.27851754384724,-119.316202617226,Emma Wood,2.9375,0.5525,0.858125,14,14,"NIGHT_LIGHT_RAIN,NIGHT_CLOUDY,NIGHT_DRIZZLE,NIGHT_LIGHT_RAIN,NIGHT_RAIN,NIGHT_RAIN,NIGHT_LIGHT_RAIN,NIGHT_HEAVY_RAIN,RAIN,LIGHT_RAIN,RAIN,CLOUDY,MOSTLY_CLOUDY,CLEAR,LIGHT_RAIN,MOSTLY_CLOUDY","Offshore,Offshore,Offshore,Offshore,Offshore,Offshore,Cross-shore,Offshore,Offshore,Offshore,Offshore,Cross-shore,Cross-shore,Offshore,Cross-shore,Onshore",16
5842041f4e65fad6a770895a,2024_01_22,34.35513640390276,-119.4400589884255,Mussel Shoals (aka Little Rincon),3,0.878125,1.1,14,14,"NIGHT_CLEAR,NIGHT_CLOUDY,NIGHT_OVERCAST,NIGHT_LIGHT_RAIN,NIGHT_LIGHT_SHOWERS_POSSIBLE,NIGHT_RAIN,NIGHT_HEAVY_RAIN,NIGHT_LIGHT_SHOWERS_POSSIBLE,NIGHT_RAIN,HEAVY_RAIN,LIGHT_SHOWERS_POSSIBLE,MOSTLY_CLOUDY,CLEAR,CLEAR,OVERCAST,CLEAR","Offshore,Offshore,Offshore,Cross-shore,Cross-shore,Cross-shore,Cross-shore,Offshore,Cross-shore,Cross-shore,Offshore,Cross-shore,Cross-shore,Offshore,Offshore,Cross-shore",16
5842041f4e65fad6a770895e,2024_01_22,34.28991757054902,-119.3366646794652,Summer Beach,2.875,0.38375000000000004,0.688125,14,14,"NIGHT_LIGHT_RAIN,NIGHT_CLOUDY,NIGHT_DRIZZLE,NIGHT_LIGHT_RAIN,NIGHT_RAIN,NIGHT_RAIN,NIGHT_LIGHT_RAIN,NIGHT_HEAVY_RAIN,RAIN,LIGHT_RAIN,RAIN,CLOUDY,MOSTLY_CLOUDY,CLEAR,LIGHT_RAIN,MOSTLY_CLOUDY","Offshore,Offshore,Offshore,Offshore,Offshore,Offshore,Cross-shore,Offshore,Offshore,Offshore,Offshore,Cross-shore,Offshore,Offshore,Onshore,Onshore",16
5842041f4e65fad6a770895f,2024_01_22,34.30897456105926,-119.3582501170116,Solimar,2.8125,0.423125,0.72875,14,14,"NIGHT_RAIN,NIGHT_CLOUDY,NIGHT_LIGHT_RAIN,NIGHT_RAIN,NIGHT_RAIN,NIGHT_RAIN,NIGHT_LIGHT_RAIN,NIGHT_HEAVY_RAIN,NIGHT_RAIN,RAIN,RAIN,CLOUDY,MOSTLY_CLOUDY,CLEAR,OVERCAST,MOSTLY_CLOUDY","Offshore,Offshore,Offshore,Offshore,Offshore,Offshore,Offshore,Offshore,Offshore,Offshore,Offshore,Onshore,Onshore,Cross-shore,Onshore,Onshore",16
5842041f4e65fad6a7708960,2024_01_22,34.39836265281686,-119.70213,Leadbetter Point,1.625,0.194375,0.49875,14,14,"NIGHT_OVERCAST,NIGHT_OVERCAST,NIGHT_OVERCAST,NIGHT_BRIEF_SHOWERS,NIGHT_LIGHT_RAIN,NIGHT_LIGHT_RAIN,NIGHT_HEAVY_RAIN,NIGHT_LIGHT_SHOWERS_POSSIBLE,NIGHT_LIGHT_RAIN,HEAVY_SHOWERS_POSSIBLE,BRIEF_SHOWERS_POSSIBLE,CLEAR,MOSTLY_CLOUDY,MOSTLY_CLEAR,BRIEF_SHOWERS,BRIEF_SHOWERS","Onshore,Onshore,Onshore,Onshore,Onshore,Onshore,Cross-shore,Onshore,Onshore,Cross-shore,Offshore,Cross-shore,Onshore,Onshore,Onshore,Cross-shore",16
5842041f4e65fad6a7708961,2024_01_22,34.46052293893899,-120.07328,Refugio,1.4375,0.200625,0.503125,14,14,"NIGHT_OVERCAST,NIGHT_OVERCAST,NIGHT_BRIEF_SHOWERS,NIGHT_MOSTLY_CLOUDY,NIGHT_BRIEF_SHOWERS,NIGHT_LIGHT_RAIN,NIGHT_SHOWERS,NIGHT_MOSTLY_CLOUDY,NIGHT_RAIN_AND_FOG,DRIZZLE,MOSTLY_CLEAR,CLEAR,MOSTLY_CLOUDY,MIST,BRIEF_SHOWERS,MOSTLY_CLOUDY","Onshore,Onshore,Onshore,Onshore,Onshore,Onshore,Onshore,Onshore,Onshore,Onshore,Onshore,Onshore,Onshore,Onshore,Onshore,Onshore",16
5842041f4e65fad6a7708962,2024_01_22,34.40754276777778,-119.87639,Devereux,1.875,0.79,1.01,14,14,"NIGHT_LIGHT_RAIN,NIGHT_CLOUDY,NIGHT_OVERCAST,NIGHT_MOSTLY_CLOUDY,NIGHT_HEAVY_RAIN,NIGHT_LIGHT_RAIN,NIGHT_LIGHT_RAIN,NIGHT_BRIEF_SHOWERS,NIGHT_OVERCAST,LIGHT_SHOWERS_POSSIBLE,CLEAR,CLEAR,MOSTLY_CLEAR,MOSTLY_CLEAR,RAIN,BRIEF_SHOWERS","Onshore,Onshore,Onshore,Onshore,Onshore,Onshore,Onshore,Cross-shore,Cross-shore,Onshore,Cross-shore,Onshore,Onshore,Onshore,Cross-shore,Cross-shore",16
5842041f4e65fad6a7708963,2024_01_22,34.27479983305182,-119.3133222656776,Ventura Overhead,3,0.620625,0.92625,14,14,"NIGHT_LIGHT_RAIN,NIGHT_CLEAR,NIGHT_DRIZZLE,NIGHT_LIGHT_RAIN,NIGHT_LIGHT_SHOWERS_POSSIBLE,NIGHT_HEAVY_RAIN,NIGHT_LIGHT_RAIN,NIGHT_MIST,LIGHT_RAIN,LIGHT_RAIN,RAIN,DRIZZLE,MOSTLY_CLOUDY,MOSTLY_CLOUDY,LIGHT_RAIN,OVERCAST","Offshore,Offshore,Offshore,Offshore,Offshore,Offshore,Offshore,Offshore,Offshore,Offshore,Offshore,Cross-shore,Cross-shore,Offshore,Onshore,Onshore",16
5842041f4e65fad6a7708964,2024_01_22,34.41023236011655,-119.88261,Sands,2.9375,0.86875,1.09875,14,14,"NIGHT_LIGHT_RAIN,NIGHT_CLOUDY,NIGHT_OVERCAST,NIGHT_MOSTLY_CLOUDY,NIGHT_HEAVY_RAIN,NIGHT_LIGHT_RAIN,NIGHT_LIGHT_RAIN,NIGHT_BRIEF_SHOWERS,NIGHT_OVERCAST,LIGHT_SHOWERS_POSSIBLE,CLEAR,CLEAR,MOSTLY_CLEAR,MOSTLY_CLEAR,RAIN,BRIEF_SHOWERS","Offshore,Offshore,Cross-shore,Cross-shore,Cross-shore,Cross-shore,Offshore,Offshore,Offshore,Cross-shore,Offshore,Offshore,Cross-shore,Cross-shore,Offshore,Offshore",16
5842041f4e65fad6a7708966,2024_01_22,34.40450193869233,-119.68752,Sandspit,1.625,0.061875000000000006,0.366875,14,14,"NIGHT_CLEAR,NIGHT_OVERCAST,NIGHT_OVERCAST,NIGHT_DRIZZLE,NIGHT_LIGHT_RAIN,NIGHT_LIGHT_RAIN,NIGHT_LIGHT_SHOWERS_POSSIBLE,NIGHT_LIGHT_SHOWERS_POSSIBLE,NIGHT_LIGHT_RAIN,HEAVY_SHOWERS_POSSIBLE,BRIEF_SHOWERS_POSSIBLE,CLEAR,MOSTLY_CLOUDY,CLEAR,MIST,BRIEF_SHOWERS","Onshore,Cross-shore,Onshore,Onshore,Onshore,Onshore,Cross-shore,Onshore,Onshore,Cross-shore,Offshore,Onshore,Onshore,Onshore,Onshore,Onshore",16
5842041f4e65fad6a7708967,2024_01_22,34.41549098334453,-119.6375149840203,Hammond's,1.625,0.33875,0.643125,14,14,"NIGHT_OVERCAST,NIGHT_CLEAR,NIGHT_DRIZZLE,NIGHT_DRIZZLE,NIGHT_LIGHT_RAIN,NIGHT_RAIN,NIGHT_RAIN,NIGHT_LIGHT_SHOWERS_POSSIBLE,NIGHT_LIGHT_RAIN,HEAVY_RAIN,LIGHT_SHOWERS_POSSIBLE,CLEAR,MOSTLY_CLEAR,CLEAR,MIST,BRIEF_SHOWERS","Cross-shore,Cross-shore,Onshore,Onshore,Onshore,Onshore,Onshore,Onshore,Onshore,Onshore,Cross-shore,Onshore,Onshore,Cross-shore,Onshore,Onshore",16
5842041f4e65fad6a7708968,2024_01_22,34.45759322742309,-120.0220251867315,El Capitan,1.25,0.291875,0.595,14,14,"NIGHT_OVERCAST,NIGHT_OVERCAST,NIGHT_MOSTLY_CLOUDY,NIGHT_BRIEF_SHOWERS,NIGHT_BRIEF_SHOWERS,NIGHT_RAIN,NIGHT_HEAVY_SHOWERS,NIGHT_MOSTLY_CLOUDY,NIGHT_RAIN_AND_FOG,CLOUDY,CLEAR,CLEAR,MOSTLY_CLEAR,MOSTLY_CLEAR,BRIEF_SHOWERS,MIST","Onshore,Onshore,Onshore,Onshore,Onshore,Onshore,Onshore,Onshore,Cross-shore,Onshore,Onshore,Onshore,Onshore,Onshore,Cross-shore,Cross-shore",16
5842041f4e65fad6a770896c,2024_01_22,34.405117655616,-119.84317,Campus Point,1.5,0.36,0.663125,14,14,"NIGHT_LIGHT_RAIN,NIGHT_OVERCAST,NIGHT_OVERCAST,NIGHT_BRIEF_SHOWERS,NIGHT_RAIN,NIGHT_RAIN,NIGHT_LIGHT_RAIN,NIGHT_BRIEF_SHOWERS,NIGHT_OVERCAST,LIGHT_SHOWERS_POSSIBLE,CLEAR,MOSTLY_CLEAR,MOSTLY_CLEAR,CLEAR,SHOWERS,BRIEF_SHOWERS","Onshore,Onshore,Cross-shore,Onshore,Onshore,Onshore,Onshore,Onshore,Cross-shore,Onshore,Onshore,Onshore,Onshore,Onshore,Onshore,Cross-shore",16
5842041f4e65fad6a770896e,2024_01_22,34.38935162233354,-119.51955,Carpinteria State Beach,2.5,0.33625,0.64125,14,14,"NIGHT_OVERCAST,NIGHT_OVERCAST,NIGHT_DRIZZLE,NIGHT_LIGHT_RAIN,NIGHT_RAIN,NIGHT_HEAVY_RAIN,NIGHT_HEAVY_RAIN,NIGHT_HEAVY_SHOWERS,NIGHT_LIGHT_RAIN,LIGHT_SHOWERS_POSSIBLE,BRIEF_SHOWERS_POSSIBLE,CLEAR,CLEAR,MOSTLY_CLEAR,BRIEF_SHOWERS,MIST","Offshore,Offshore,Offshore,Offshore,Offshore,Offshore,Offshore,Cross-shore,Offshore,Offshore,Cross-shore,Onshore,Onshore,Onshore,Onshore,Onshore",16
5842041f4e65fad6a770896f,2024_01_22,37.48296565175612,-122.4549300127824,Half Moon Bay,1.6875,1.6025,1.8675,12,12,"NIGHT_LIGHT_RAIN,NIGHT_RAIN,NIGHT_HEAVY_RAIN,NIGHT_HEAVY_RAIN,NIGHT_MIST,NIGHT_BRIEF_SHOWERS,NIGHT_SHOWERS,NIGHT_MIST,NIGHT_BRIEF_SHOWERS,MIST,MIST,MIST,MIST,MIST,MIST,MIST","Cross-shore,Onshore,Onshore,Onshore,Onshore,Onshore,Onshore,Onshore,Onshore,Onshore,Onshore,Onshore,Cross-shore,Cross-shore,Onshore,Onshore",16
5842041f4e65fad6a7708970,2024_01_22,37.499,-122.471,Princeton Jetty,1.9375,1.265625,1.506875,12,12,"NIGHT_OVERCAST,NIGHT_RAIN,NIGHT_HEAVY_RAIN,NIGHT_HEAVY_RAIN,NIGHT_BRIEF_SHOWERS,NIGHT_BRIEF_SHOWERS,NIGHT_BRIEF_SHOWERS,NIGHT_MOSTLY_CLOUDY,NIGHT_MIST,MIST,MIST,MIST,MIST,CLEAR,MIST,MIST","Onshore,Onshore,Onshore,Onshore,Onshore,Onshore,Onshore,Onshore,Onshore,Onshore,Onshore,Onshore,Cross-shore,Cross-shore,Onshore,Cross-shore",16
5842041f4e65fad6a7708972,2024_01_22,37.35699547365155,-122.4069534707252,Tunitas Creek,1.6875,1.954375,2.23625,12,12,"NIGHT_RAIN,NIGHT_RAIN,NIGHT_RAIN,NIGHT_RAIN,NIGHT_MIST,NIGHT_MIST,NIGHT_BRIEF_SHOWERS,NIGHT_MIST,NIGHT_MIST,SHOWERS,MIST,MIST,MIST,MIST,MIST,MIST","Cross-shore,Cross-shore,Onshore,Onshore,Onshore,Onshore,Onshore,Onshore,Onshore,Onshore,Onshore,Onshore,Onshore,Cross-shore,Onshore,Onshore",16
5842041f4e65fad6a7708974,2024_01_22,37.54735589428842,-122.5161090212687,Montara,2.125,1.715625,1.9962499999999999,12,12,"NIGHT_RAIN,NIGHT_OVERCAST,NIGHT_LIGHT_RAIN,NIGHT_LIGHT_RAIN,NIGHT_MIST,NIGHT_MIST,NIGHT_SHOWERS,NIGHT_MIST,NIGHT_MIST,MIST,MIST,BRIEF_SHOWERS,MIST,MIST,MIST,MIST","Offshore,Offshore,Cross-shore,Cross-shore,Cross-shore,Cross-shore,Cross-shore,Cross-shore,Cross-shore,Cross-shore,Onshore,Onshore,Onshore,Onshore,Onshore,Onshore",16
5842041f4e65fad6a7708975,2024_01_22,34.3869373724559,-119.5142334209018,Tarpits,2.375,0.388125,0.69125,14,14,"NIGHT_CLEAR,NIGHT_OVERCAST,NIGHT_DRIZZLE,NIGHT_LIGHT_RAIN,NIGHT_LIGHT_SHOWERS_POSSIBLE,NIGHT_RAIN,NIGHT_HEAVY_RAIN,NIGHT_BRIEF_SHOWERS,NIGHT_RAIN_AND_FOG,LIGHT_SHOWERS_POSSIBLE,LIGHT_SHOWERS_POSSIBLE,CLEAR,CLEAR,MOSTLY_CLEAR,BRIEF_SHOWERS,MOSTLY_CLOUDY","Cross-shore,Cross-shore,Cross-shore,Cross-shore,Cross-shore,Cross-shore,Cross-shore,Cross-shore,Cross-shore,Cross-shore,Cross-shore,Onshore,Onshore,Cross-shore,Onshore,Cross-shore",16
5842041f4e65fad6a7708976,2024_01_22,37.59881852720143,-122.50463,Pacifica / Linda Mar,1.125,0.34361458333333333,0.6479104166666667,14,14,"NIGHT_RAIN,NIGHT_BRIEF_SHOWERS,NIGHT_DRIZZLE,NIGHT_RAIN,NIGHT_BRIEF_SHOWERS_POSSIBLE,NIGHT_MOSTLY_CLOUDY,NIGHT_BRIEF_SHOWERS,NIGHT_BRIEF_SHOWERS,NIGHT_MIST,MIST,BRIEF_SHOWERS,BRIEF_SHOWERS,SHOWERS,MIST,MIST,MIST","Offshore,Cross-shore,Cross-shore,Cross-shore,Cross-shore,Cross-shore,Cross-shore,Onshore,Cross-shore,Onshore,Onshore,Onshore,Onshore,Onshore,Onshore,Onshore",16
5842041f4e65fad6a7708978,2024_01_22,37.59883098461164,-122.5143843582282,Pedro Point,2.5,1.55125,1.85375,12,12,"NIGHT_RAIN,NIGHT_DRIZZLE,NIGHT_LIGHT_RAIN,NIGHT_HEAVY_RAIN,NIGHT_BRIEF_SHOWERS,NIGHT_MIST,NIGHT_BRIEF_SHOWERS,NIGHT_MIST,NIGHT_MIST,MIST,BRIEF_SHOWERS,MIST,MIST,MIST,MIST,MIST","Offshore,Offshore,Cross-shore,Cross-shore,Cross-shore,Cross-shore,Cross-shore,Cross-shore,Cross-shore,Cross-shore,Cross-shore,Onshore,Onshore,Onshore,Onshore,Onshore",16
5842041f4e65fad6a7708979,2024_01_22,37.61081996647663,-122.4973287570634,Rockaway,2.125,1.7275,1.975625,12,12,"NIGHT_RAIN,NIGHT_BRIEF_SHOWERS,NIGHT_RAIN,NIGHT_RAIN,NIGHT_BRIEF_SHOWERS_POSSIBLE,NIGHT_MOSTLY_CLOUDY,NIGHT_BRIEF_SHOWERS,NIGHT_BRIEF_SHOWERS,NIGHT_MIST,MIST,BRIEF_SHOWERS,BRIEF_SHOWERS,SHOWERS,MIST,MIST,MIST","Cross-shore,Cross-shore,Cross-shore,Cross-shore,Cross-shore,Cross-shore,Cross-shore,Onshore,Onshore,Onshore,Onshore,Onshore,Onshore,Onshore,Onshore,Onshore",16
5842041f4e65fad6a770897a,2024_01_22,37.809987384424446,-122.4751353263855,Fort Point,2.25,0.97375,1.23,12,12,"NIGHT_RAIN,NIGHT_LIGHT_RAIN,NIGHT_LIGHT_SHOWERS_POSSIBLE,NIGHT_RAIN,NIGHT_MOSTLY_CLOUDY,NIGHT_LIGHT_RAIN,NIGHT_MIST,NIGHT_MIST,NIGHT_MIST,MIST,MIST,MIST,LIGHT_SHOWERS_POSSIBLE,MIST,MIST,MIST","Onshore,Onshore,Onshore,Onshore,Onshore,Onshore,Onshore,Cross-shore,Onshore,Cross-shore,Cross-shore,Cross-shore,Cross-shore,Cross-shore,Cross-shore,Cross-shore",16
5842041f4e65fad6a770897c,2024_01_22,37.63422542967464,-122.4951,Sharp Park,1.625,1.8475,2.11625,12,12,"NIGHT_LIGHT_RAIN,NIGHT_MOSTLY_CLOUDY,NIGHT_RAIN,NIGHT_RAIN,NIGHT_MIST,NIGHT_MIST,NIGHT_BRIEF_SHOWERS,NIGHT_MIST,NIGHT_MIST,MIST,BRIEF_SHOWERS,BRIEF_SHOWERS,MIST,MIST,MIST,MIST","Cross-shore,Cross-shore,Cross-shore,Cross-shore,Cross-shore,Onshore,Onshore,Onshore,Onshore,Onshore,Onshore,Onshore,Onshore,Onshore,Onshore,Onshore",16
5842041f4e65fad6a770897d,2024_01_22,37.27313605072472,-122.4127387912554,Pescadero,1.875,1.766875,2.049375,13,13,"NIGHT_RAIN,NIGHT_RAIN,NIGHT_RAIN,NIGHT_RAIN,NIGHT_MIST,NIGHT_MIST,NIGHT_MIST,NIGHT_MIST,NIGHT_MIST,MIST,HEAVY_RAIN,MIST,MIST,MIST,MIST,MIST","Offshore,Cross-shore,Cross-shore,Cross-shore,Cross-shore,Cross-shore,Cross-shore,Onshore,Cross-shore,Cross-shore,Onshore,Onshore,Onshore,Onshore,Onshore,Onshore",16
5842041f4e65fad6a770897e,2024_01_22,37.18140279972666,-122.3926685899327,Pigeon Point,1.75,1.855625,2.16125,13,13,"NIGHT_LIGHT_RAIN,NIGHT_LIGHT_RAIN,NIGHT_MIST,NIGHT_OVERCAST,NIGHT_MIST,NIGHT_OVERCAST,NIGHT_MIST,NIGHT_MIST,NIGHT_MIST,HEAVY_RAIN,LIGHT_RAIN,MIST,MIST,MIST,MIST,MIST","Onshore,Onshore,Onshore,Onshore,Onshore,Onshore,Onshore,Onshore,Onshore,Onshore,Onshore,Cross-shore,Cross-shore,Offshore,Cross-shore,Offshore",16
5842041f4e65fad6a770897f,2024_01_22,37.11578956919415,-122.314699271291,Ano Nuevo,1.875,1.45125,1.73125,12,12,"NIGHT_DRIZZLE,NIGHT_HEAVY_RAIN,NIGHT_MIST,NIGHT_LIGHT_RAIN,NIGHT_OVERCAST,NIGHT_LIGHT_RAIN,NIGHT_LIGHT_RAIN,NIGHT_MIST,NIGHT_MIST,MIST,MIST,MIST,MIST,MIST,MIST,MIST","Onshore,Onshore,Onshore,Onshore,Onshore,Onshore,Onshore,Onshore,Onshore,Onshore,Onshore,Cross-shore,Offshore,Offshore,Offshore,Offshore",16
5842041f4e65fad6a7708980,2024_01_22,37.09520872681598,-122.2805474707768,Waddell Creek,1.8125,1.6775,1.9762499999999998,12,12,"NIGHT_RAIN,NIGHT_HEAVY_RAIN,NIGHT_RAIN,NIGHT_LIGHT_RAIN,NIGHT_MIST,NIGHT_MIST,NIGHT_MIST,NIGHT_DRIZZLE,NIGHT_MIST,MIST,MIST,MIST,MIST,MIST,MIST,MIST","Cross-shore,Onshore,Onshore,Onshore,Onshore,Onshore,Onshore,Onshore,Onshore,Onshore,Onshore,Onshore,Cross-shore,Cross-shore,Onshore,Cross-shore",16
5842041f4e65fad6a7708981,2024_01_22,36.96512852130351,-122.1252825495626,Four Mile,2.1875,1.56375,1.830625,12,12,"NIGHT_LIGHT_RAIN,NIGHT_RAIN,NIGHT_RAIN,NIGHT_DRIZZLE,NIGHT_LIGHT_RAIN,NIGHT_OVERCAST,NIGHT_OVERCAST,NIGHT_LIGHT_RAIN,NIGHT_LIGHT_RAIN,MIST,RAIN,RAIN,MIST,MIST,MIST,CLEAR","Onshore,Onshore,Onshore,Onshore,Onshore,Onshore,Onshore,Onshore,Onshore,Onshore,Onshore,Cross-shore,Cross-shore,Offshore,Cross-shore,Offshore",16
5842041f4e65fad6a7708982,2024_01_22,37.04122807048655,-122.2333684729756,Scott Creek,2.0625,1.425,1.7125,12,12,"NIGHT_RAIN,NIGHT_RAIN,NIGHT_LIGHT_SHOWERS_POSSIBLE,NIGHT_MIST,NIGHT_MIST,NIGHT_LIGHT_RAIN,NIGHT_MIST,NIGHT_DRIZZLE,NIGHT_MIST,MIST,MIST,MIST,MIST,MIST,MIST,MIST","Cross-shore,Onshore,Cross-shore,Onshore,Onshore,Onshore,Onshore,Onshore,Onshore,Onshore,Onshore,Onshore,Cross-shore,Cross-shore,Onshore,Cross-shore",16
5842041f4e65fad6a7708983,2024_01_22,37.02350229387179,-122.21908,Davenport,2.25,1.600625,1.909375,12,12,"NIGHT_RAIN,NIGHT_DRIZZLE,NIGHT_HEAVY_SHOWERS_POSSIBLE,NIGHT_MOSTLY_CLOUDY,NIGHT_MIST,NIGHT_OVERCAST,NIGHT_DRIZZLE,NIGHT_MIST,NIGHT_MIST,MIST,MIST,MIST,MIST,MIST,MIST,MIST","Cross-shore,Onshore,Cross-shore,Onshore,Onshore,Onshore,Onshore,Onshore,Onshore,Onshore,Onshore,Onshore,Cross-shore,Cross-shore,Cross-shore,Cross-shore",16
5842041f4e65fad6a7708986,2024_01_22,36.94905295955728,-122.0611823912244,Natural Bridges,1.9375,1.565,1.87375,12.3125,12.3125,"NIGHT_LIGHT_RAIN,NIGHT_OVERCAST,NIGHT_RAIN_AND_FOG,NIGHT_OVERCAST,NIGHT_RAIN,NIGHT_OVERCAST,NIGHT_OVERCAST,NIGHT_LIGHT_RAIN,NIGHT_OVERCAST,MIST,MIST,MIST,MIST,MIST,CLEAR,CLEAR","Onshore,Onshore,Cross-shore,Onshore,Onshore,Onshore,Onshore,Onshore,Onshore,Onshore,Onshore,Onshore,Cross-shore,Cross-shore,Cross-shore,Cross-shore",16
5842041f4e65fad6a7708987,2024_01_22,36.95154854910425,-122.0420693940968,Mitchell's Cove,1.875,1.02125,1.245625,12.3125,12.3125,"NIGHT_LIGHT_RAIN,NIGHT_MIST,NIGHT_LIGHT_RAIN_AND_FOG,NIGHT_FOG,NIGHT_RAIN,NIGHT_OVERCAST,NIGHT_OVERCAST,NIGHT_OVERCAST,NIGHT_OVERCAST,OVERCAST,MIST,MIST,MIST,MOSTLY_CLOUDY,CLEAR,CLEAR","Onshore,Onshore,Onshore,Onshore,Onshore,Onshore,Onshore,Onshore,Onshore,Onshore,Onshore,Onshore,Cross-shore,Cross-shore,Cross-shore,Offshore",16
5842041f4e65fad6a770898a,2024_01_22,36.9572312370203,-121.98177,26th Ave,2.4375,1.2962500000000001,1.549375,13,13,"NIGHT_LIGHT_RAIN,NIGHT_MIST,NIGHT_HEAVY_SHOWERS_POSSIBLE,NIGHT_FOG,NIGHT_DRIZZLE,NIGHT_OVERCAST,NIGHT_OVERCAST,NIGHT_LIGHT_RAIN,NIGHT_OVERCAST,OVERCAST,MIST,LIGHT_SHOWERS_POSSIBLE,MIST,MOSTLY_CLOUDY,CLEAR,CLEAR","Cross-shore,Offshore,Offshore,Cross-shore,Onshore,Onshore,Onshore,Onshore,Onshore,Onshore,Onshore,Onshore,Onshore,Onshore,Onshore,Onshore",16
5842041f4e65fad6a770898e,2024_01_22,36.91899972819882,-121.85536,Manresa,2.5625,1.454375,1.73375,13,13,"NIGHT_LIGHT_SHOWERS_POSSIBLE,NIGHT_OVERCAST,NIGHT_LIGHT_RAIN,NIGHT_RAIN,NIGHT_RAIN,NIGHT_MIST,NIGHT_OVERCAST,NIGHT_MIST,NIGHT_MIST,MIST,MIST,HEAVY_SHOWERS,MIST,BRIEF_SHOWERS,MIST,MIST","Offshore,Cross-shore,Cross-shore,Onshore,Cross-shore,Offshore,Offshore,Onshore,Onshore,Onshore,Onshore,Onshore,Onshore,Onshore,Onshore,Onshore",16
5842041f4e65fad6a7708990,2024_01_22,34.45747731928454,-120.34242,The Ranch,2.125,0.86875,1.095,13.6875,13.6875,"NIGHT_DRIZZLE,NIGHT_OVERCAST,NIGHT_LIGHT_RAIN,NIGHT_HEAVY_RAIN,NIGHT_HEAVY_RAIN,NIGHT_RAIN,NIGHT_BRIEF_SHOWERS,NIGHT_MOSTLY_CLOUDY,NIGHT_LIGHT_RAIN,MIST,MIST,MOSTLY_CLEAR,MOSTLY_CLOUDY,MOSTLY_CLOUDY,MIST,CLEAR","Onshore,Onshore,Onshore,Onshore,Onshore,Onshore,Onshore,Onshore,Onshore,Onshore,Onshore,Onshore,Onshore,Onshore,Cross-shore,Cross-shore",16
5842041f4e65fad6a7708991,2024_01_22,34.50875036590315,-120.50348,Jalama,2.5625,1.291875,1.534375,13.6875,13.6875,"NIGHT_MIST,NIGHT_DRIZZLE,NIGHT_RAIN,NIGHT_DRIZZLE,NIGHT_HEAVY_RAIN,NIGHT_MIST,NIGHT_MOSTLY_CLOUDY,NIGHT_BRIEF_SHOWERS,NIGHT_BRIEF_SHOWERS,MOSTLY_CLEAR,CLEAR,MOSTLY_CLEAR,CLEAR,MOSTLY_CLOUDY,MIST,MIST","Cross-shore,Cross-shore,Cross-shore,Cross-shore,Cross-shore,Cross-shore,Cross-shore,Cross-shore,Cross-shore,Cross-shore,Offshore,Cross-shore,Cross-shore,Cross-shore,Onshore,Cross-shore",16
5842041f4e65fad6a7708996,2024_01_22,34.68700870220497,-120.6111611019887,Surf Beach,3.125,1.85,2.1350000000000002,13.6875,13.6875,"NIGHT_CLEAR,NIGHT_CLEAR,NIGHT_DRIZZLE,NIGHT_DRIZZLE,NIGHT_LIGHT_RAIN,NIGHT_BRIEF_SHOWERS,NIGHT_OVERCAST,NIGHT_MOSTLY_CLOUDY,NIGHT_SHOWERS,MOSTLY_CLOUDY,MOSTLY_CLOUDY,MOSTLY_CLOUDY,MOSTLY_CLOUDY,CLEAR,MIST,MIST","Offshore,Offshore,Offshore,Cross-shore,Offshore,Offshore,Offshore,Offshore,Offshore,Offshore,Offshore,Onshore,Onshore,Onshore,Onshore,Onshore",16
5842041f4e65fad6a770899c,2024_01_22,35.5730538161116,-121.1143362345574,Moonstone,2.375,1.63875,1.896875,13,13,"NIGHT_LIGHT_RAIN,NIGHT_LIGHT_RAIN,NIGHT_RAIN,NIGHT_HEAVY_RAIN,NIGHT_RAIN,NIGHT_LIGHT_RAIN,NIGHT_MIST,NIGHT_MIST,NIGHT_BRIEF_SHOWERS,MIST,MIST,MIST,MIST,MIST,BRIEF_SHOWERS,MIST","Cross-shore,Cross-shore,Cross-shore,Cross-shore,Cross-shore,Cross-shore,Onshore,Onshore,Offshore,Offshore,Cross-shore,Onshore,Onshore,Onshore,Onshore,Onshore",16
5842041f4e65fad6a770899d,2024_01_22,35.61533716776573,-121.1502053073914,Pico Creek,2.4375,1.39875,1.660625,13,13,"NIGHT_DRIZZLE,NIGHT_LIGHT_RAIN,NIGHT_RAIN,NIGHT_HEAVY_RAIN,NIGHT_RAIN,NIGHT_LIGHT_RAIN,NIGHT_MIST,NIGHT_MIST,NIGHT_MIST,MIST,MIST,MIST,MIST,MIST,MIST,MIST","Cross-shore,Cross-shore,Cross-shore,Cross-shore,Cross-shore,Cross-shore,Cross-shore,Onshore,Offshore,Offshore,Cross-shore,Cross-shore,Onshore,Onshore,Onshore,Onshore",16
5842041f4e65fad6a770899e,2024_01_22,35.56829031927379,-121.1120653023953,Santa Rosa Creek,2.375,1.6400000000000001,1.898125,13,13,"NIGHT_MIST,NIGHT_LIGHT_SHOWERS_POSSIBLE,NIGHT_HEAVY_RAIN,NIGHT_HEAVY_RAIN,NIGHT_LIGHT_RAIN,NIGHT_OVERCAST,NIGHT_MIST,NIGHT_MIST,NIGHT_DRIZZLE,MIST,MIST,MIST,MIST,MIST,MIST,MIST","Onshore,Cross-shore,Cross-shore,Cross-shore,Onshore,Onshore,Onshore,Onshore,Offshore,Cross-shore,Cross-shore,Onshore,Onshore,Onshore,Onshore,Onshore",16
5842041f4e65fad6a77089a2,2024_01_22,35.44820114936284,-120.90715,"Cayucos Pier, Southside ",1.75,0.665625,0.970625,12.6875,12.6875,"NIGHT_FOG,NIGHT_FOG,NIGHT_LIGHT_RAIN,NIGHT_RAIN,NIGHT_OVERCAST,NIGHT_DRIZZLE,NIGHT_OVERCAST,NIGHT_DRIZZLE,NIGHT_LIGHT_RAIN_AND_FOG,MIST,MIST,DRIZZLE,MIST,MIST,MIST,BRIEF_SHOWERS","Onshore,Onshore,Onshore,Onshore,Onshore,Onshore,Onshore,Onshore,Offshore,Cross-shore,Onshore,Onshore,Onshore,Onshore,Onshore,Cross-shore",16
5842041f4e65fad6a77089a4,2024_01_22,35.30143372628852,-120.877819239902,Cable Landing,2.4375,1.965625,2.228125,12.6875,12.6875,"NIGHT_CLEAR,NIGHT_CLOUDY,NIGHT_LIGHT_RAIN,NIGHT_HEAVY_RAIN,NIGHT_CLEAR,NIGHT_LIGHT_RAIN,NIGHT_LIGHT_RAIN,NIGHT_LIGHT_RAIN,NIGHT_CLOUDY,OVERCAST,DRIZZLE,MIST,DRIZZLE,MIST,MIST,BRIEF_SHOWERS","Cross-shore,Cross-shore,Cross-shore,Cross-shore,Cross-shore,Cross-shore,Cross-shore,Cross-shore,Onshore,Offshore,Onshore,Onshore,Onshore,Onshore,Onshore,Onshore",16
5842041f4e65fad6a77089a9,2024_01_22,35.61269103500222,-121.1480725356606,San Simeon,2.375,0.9541875,1.1239375,13,13,"NIGHT_DRIZZLE,NIGHT_LIGHT_RAIN_AND_FOG,NIGHT_HEAVY_RAIN,NIGHT_HEAVY_RAIN,NIGHT_LIGHT_RAIN,NIGHT_LIGHT_RAIN,NIGHT_SHOWERS,NIGHT_MOSTLY_CLOUDY,NIGHT_FOG,MIST,MIST,MIST,MIST,MIST,MIST,MOSTLY_CLOUDY","Onshore,Cross-shore,Onshore,Cross-shore,Onshore,Onshore,Onshore,Onshore,Offshore,Cross-shore,Onshore,Onshore,Onshore,Onshore,Onshore,Cross-shore",16
5842041f4e65fad6a77089ab,2024_01_22,35.1775325966252,-120.7341125142258,Avila Beach,1.5,0.20125,0.50625,13,13,"NIGHT_FOG,NIGHT_MIST,NIGHT_RAIN_AND_FOG,NIGHT_HEAVY_RAIN,NIGHT_BRIEF_SHOWERS,NIGHT_OVERCAST,NIGHT_LIGHT_RAIN,NIGHT_DRIZZLE,NIGHT_BRIEF_SHOWERS,DRIZZLE,LIGHT_RAIN,MIST,DRIZZLE,MIST,MIST,MIST","Onshore,Cross-shore,Cross-shore,Onshore,Onshore,Onshore,Onshore,Onshore,Onshore,Cross-shore,Onshore,Onshore,Onshore,Onshore,Onshore,Onshore",16
5842041f4e65fad6a77089ac,2024_01_22,35.13877877884115,-120.64535,Pismo Beach Pier,3.010625,1.08845625,1.4362125,12,12,"NIGHT_FOG,NIGHT_CLEAR,NIGHT_RAIN_AND_FOG,NIGHT_RAIN,NIGHT_LIGHT_SHOWERS_POSSIBLE,NIGHT_LIGHT_RAIN,NIGHT_DRIZZLE,NIGHT_OVERCAST,NIGHT_FOG,FOG,DRIZZLE,DRIZZLE,MIST,MIST,MIST,MIST","Offshore,Offshore,Offshore,Onshore,Offshore,Offshore,Offshore,Offshore,Onshore,Offshore,Offshore,Cross-shore,Cross-shore,Onshore,Onshore,Onshore",16
5842041f4e65fad6a77089ad,2024_01_22,46.8907710233147,-124.12964,Westport/Olympic Peninsula,2.5625,1.58,1.89,9,9,"NIGHT_DRIZZLE,NIGHT_DRIZZLE,NIGHT_RAIN,NIGHT_OVERCAST,NIGHT_OVERCAST,NIGHT_OVERCAST,NIGHT_OVERCAST,NIGHT_LIGHT_RAIN,NIGHT_OVERCAST,FOG,RAIN,RAIN,LIGHT_RAIN,LIGHT_RAIN,LIGHT_RAIN,OVERCAST","Offshore,Offshore,Offshore,Offshore,Offshore,Offshore,Offshore,Cross-shore,Cross-shore,Cross-shore,Onshore,Onshore,Onshore,Onshore,Onshore,Onshore",16
5842041f4e65fad6a77089ae,2024_01_22,46.35185177248545,-124.06747,Long Beach Peninsula,1.75,1.879375,2.238125,9,9,"NIGHT_DRIZZLE,NIGHT_DRIZZLE,NIGHT_OVERCAST,NIGHT_OVERCAST,NIGHT_OVERCAST,NIGHT_LIGHT_RAIN,NIGHT_LIGHT_RAIN,NIGHT_OVERCAST,NIGHT_OVERCAST,LIGHT_RAIN,LIGHT_RAIN,LIGHT_RAIN,LIGHT_RAIN,LIGHT_RAIN,MIST,MIST","Offshore,Offshore,Offshore,Offshore,Offshore,Cross-shore,Cross-shore,Onshore,Onshore,Onshore,Onshore,Onshore,Onshore,Onshore,Onshore,Onshore",16
5842041f4e65fad6a77089af,2024_01_22,47.90649175554033,-124.6370864743483,La Push,2.3125,1.56375,1.870625,8.6875,8.6875,"NIGHT_BRIEF_SHOWERS_POSSIBLE,NIGHT_LIGHT_RAIN,NIGHT_LIGHT_RAIN,NIGHT_RAIN,NIGHT_LIGHT_RAIN,NIGHT_DRIZZLE,NIGHT_OVERCAST,NIGHT_OVERCAST,NIGHT_OVERCAST,OVERCAST,OVERCAST,OVERCAST,LIGHT_RAIN,OVERCAST,MIST,MIST","Cross-shore,Cross-shore,Offshore,Offshore,Offshore,Offshore,Cross-shore,Cross-shore,Cross-shore,Cross-shore,Cross-shore,Cross-shore,Onshore,Onshore,Onshore,Onshore",16
5842041f4e65fad6a77089b0,2024_01_22,42.04368239985442,-124.26828,Brookings Jetty,2,1.470475625,2.297618125,12,12,"NIGHT_LIGHT_RAIN,NIGHT_OVERCAST,NIGHT_MIST,NIGHT_MIST,NIGHT_MIST,NIGHT_MIST,NIGHT_MIST,NIGHT_MIST,NIGHT_MOSTLY_CLOUDY,MIST,OVERCAST,MIST,MIST,MIST,MIST,SHOWERS","Onshore,Onshore,Onshore,Onshore,Onshore,Onshore,Onshore,Onshore,Onshore,Onshore,Onshore,Onshore,Onshore,Onshore,Onshore,Onshore",16
5842041f4e65fad6a77089b1,2024_01_22,42.74071837900346,-124.4983727491047,Port Orford,0.9375,2.259375,2.61125,11,11,"NIGHT_LIGHT_RAIN,NIGHT_MIST,NIGHT_LIGHT_RAIN,NIGHT_MIST,NIGHT_MIST,NIGHT_MIST,NIGHT_MIST,NIGHT_MIST,NIGHT_OVERCAST,RAIN,LIGHT_RAIN,BRIEF_SHOWERS,RAIN,MIST,MIST,MIST","Onshore,Onshore,Onshore,Onshore,Onshore,Onshore,Onshore,Onshore,Onshore,Onshore,Onshore,Onshore,Onshore,Onshore,Onshore,Onshore",16
5842041f4e65fad6a77089b2,2024_01_22,44.01532689312291,-124.13865,Florence South Jetty,1.9375,2.518125,2.771875,12,12,"NIGHT_LIGHT_RAIN,NIGHT_CLOUDY,NIGHT_OVERCAST,NIGHT_LIGHT_RAIN,NIGHT_LIGHT_RAIN,NIGHT_LIGHT_RAIN,NIGHT_OVERCAST,NIGHT_OVERCAST,NIGHT_DRIZZLE,LIGHT_RAIN,LIGHT_RAIN,OVERCAST,OVERCAST,CLOUDY,BRIEF_SHOWERS,MIST","Onshore,Onshore,Onshore,Onshore,Onshore,Onshore,Onshore,Onshore,Onshore,Onshore,Onshore,Cross-shore,Onshore,Cross-shore,Onshore,Onshore",16
5842041f4e65fad6a77089b3,2024_01_22,42.41812540774362,-124.42945,Gold Beach South Jetty,1.0625,2.5125,2.901875,11.3125,11.3125,"NIGHT_BRIEF_SHOWERS,NIGHT_MIST,NIGHT_MIST,NIGHT_MIST,NIGHT_MIST,NIGHT_DRIZZLE,NIGHT_DRIZZLE,NIGHT_MIST,NIGHT_MOSTLY_CLOUDY,MOSTLY_CLOUDY,BRIEF_SHOWERS,BRIEF_SHOWERS,OVERCAST,SHOWERS,MIST,MIST","Onshore,Onshore,Onshore,Onshore,Onshore,Onshore,Onshore,Onshore,Onshore,Onshore,Onshore,Onshore,Onshore,Onshore,Onshore,Onshore",16
5842041f4e65fad6a77089b4,2024_01_22,44.95857310226525,-124.0219017690976,Lincoln City,1.375,2.238125,2.50625,11,11,"NIGHT_OVERCAST,NIGHT_DRIZZLE,NIGHT_LIGHT_RAIN,NIGHT_DRIZZLE,NIGHT_DRIZZLE,NIGHT_LIGHT_RAIN,NIGHT_LIGHT_RAIN,NIGHT_MIST,NIGHT_OVERCAST,LIGHT_RAIN,MOSTLY_CLOUDY,SHOWERS,OVERCAST,DRIZZLE,MIST,MOSTLY_CLOUDY","Cross-shore,Cross-shore,Cross-shore,Onshore,Onshore,Onshore,Onshore,Onshore,Onshore,Cross-shore,Onshore,Cross-shore,Cross-shore,Cross-shore,Cross-shore,Cross-shore",16
5842041f4e65fad6a77089b5,2024_01_22,44.63792761362982,-124.0657,Newport,0.8125,2.455,2.765,11,11,"NIGHT_OVERCAST,NIGHT_OVERCAST,NIGHT_LIGHT_RAIN,NIGHT_LIGHT_RAIN,NIGHT_DRIZZLE,NIGHT_CLOUDY,NIGHT_DRIZZLE,NIGHT_LIGHT_RAIN,NIGHT_OVERCAST,CLOUDY,BRIEF_SHOWERS,OVERCAST,LIGHT_RAIN,MIST,HEAVY_RAIN,MOSTLY_CLOUDY","Cross-shore,Cross-shore,Onshore,Onshore,Onshore,Onshore,Onshore,Onshore,Onshore,Onshore,Onshore,Onshore,Onshore,Onshore,Onshore,Onshore",16
5842041f4e65fad6a77089b6,2024_01_22,45.61468496266301,-123.94643,Rockaway Beach,1.9375,2.123125,2.415625,10,10,"NIGHT_DRIZZLE,NIGHT_OVERCAST,NIGHT_LIGHT_RAIN,NIGHT_LIGHT_RAIN,NIGHT_RAIN,NIGHT_LIGHT_RAIN,NIGHT_LIGHT_RAIN,NIGHT_LIGHT_RAIN,NIGHT_DRIZZLE,DRIZZLE,MIST,MIST,CLOUDY,MOSTLY_CLOUDY,MIST,DRIZZLE","Offshore,Offshore,Cross-shore,Cross-shore,Cross-shore,Cross-shore,Cross-shore,Onshore,Onshore,Cross-shore,Onshore,Onshore,Onshore,Cross-shore,Onshore,Cross-shore",16
5842041f4e65fad6a77089b7,2024_01_22,45.20252914186085,-123.96975,Pacific City,1.3125,2.279375,2.540625,10,10,"NIGHT_OVERCAST,NIGHT_OVERCAST,NIGHT_DRIZZLE,NIGHT_LIGHT_RAIN,NIGHT_OVERCAST,NIGHT_LIGHT_RAIN,NIGHT_RAIN,NIGHT_LIGHT_RAIN,NIGHT_OVERCAST,OVERCAST,DRIZZLE,MOSTLY_CLOUDY,MOSTLY_CLOUDY,RAIN,MIST,MIST","Cross-shore,Cross-shore,Onshore,Onshore,Onshore,Onshore,Onshore,Onshore,Onshore,Onshore,Onshore,Onshore,Onshore,Onshore,Onshore,Onshore",16
5842041f4e65fad6a77089b8,2024_01_22,45.88179930310263,-123.96681,Cannon Beach,1.375,1.985625,2.328125,10,10,"NIGHT_LIGHT_RAIN,NIGHT_DRIZZLE,NIGHT_LIGHT_RAIN,NIGHT_BRIEF_SHOWERS,NIGHT_MOSTLY_CLOUDY,NIGHT_RAIN,NIGHT_RAIN,NIGHT_RAIN,NIGHT_DRIZZLE,OVERCAST,MIST,LIGHT_RAIN,LIGHT_RAIN,MIST,MIST,MIST","Cross-shore,Cross-shore,Cross-shore,Cross-shore,Onshore,Onshore,Onshore,Onshore,Onshore,Onshore,Onshore,Onshore,Onshore,Onshore,Onshore,Onshore",16
5842041f4e65fad6a77089ba,2024_01_22,40.02528754746774,-124.06372,Shelter Cove,2.5,0.825570625,1.2899568750000001,12.3125,12.3125,"NIGHT_OVERCAST,NIGHT_MIST,NIGHT_MIST,NIGHT_MIST,NIGHT_MIST,NIGHT_MIST,NIGHT_MIST,NIGHT_MIST,NIGHT_CLOUDY,CLOUDY,MIST,MOSTLY_CLOUDY,MIST,MIST,MIST,MIST","Onshore,Onshore,Onshore,Onshore,Onshore,Onshore,Onshore,Onshore,Onshore,Onshore,Onshore,Onshore,Onshore,Onshore,Onshore,Offshore",16
5842041f4e65fad6a77089bb,2024_01_22,40.76816197136951,-124.24248,Humboldt Harbor Entrance,2.375,2.073125,2.46875,12,12,"NIGHT_MOSTLY_CLOUDY,NIGHT_BRIEF_SHOWERS,NIGHT_DRIZZLE,NIGHT_MIST,NIGHT_MIST,NIGHT_MOSTLY_CLOUDY,NIGHT_MOSTLY_CLOUDY,NIGHT_MOSTLY_CLOUDY,NIGHT_MIST,MIST,MIST,MIST,MIST,MIST,MIST,MIST","Cross-shore,Cross-shore,Cross-shore,Cross-shore,Onshore,Onshore,Onshore,Onshore,Onshore,Onshore,Onshore,Cross-shore,Onshore,Onshore,Cross-shore,Onshore",16
5842041f4e65fad6a77089bc,2024_01_22,40.76684246920174,-124.23107,North Jetty,3,1.9475,2.2575,12,12,"NIGHT_MOSTLY_CLOUDY,NIGHT_MOSTLY_CLOUDY,NIGHT_LIGHT_RAIN,NIGHT_MIST,NIGHT_MIST,NIGHT_MIST,NIGHT_MIST,NIGHT_CLEAR,NIGHT_MIST,MIST,MIST,MIST,MOSTLY_CLOUDY,MIST,MOSTLY_CLOUDY,CLEAR","Cross-shore,Cross-shore,Cross-shore,Cross-shore,Onshore,Onshore,Onshore,Onshore,Onshore,Onshore,Onshore,Cross-shore,Onshore,Onshore,Cross-shore,Onshore",16
5842041f4e65fad6a77089bd,2024_01_22,41.02731183893966,-124.1149972888982,Westhaven,2.375,2.60125,3.021875,12,12,"NIGHT_OVERCAST,NIGHT_OVERCAST,NIGHT_RAIN,NIGHT_MIST,NIGHT_MIST,NIGHT_MIST,NIGHT_BRIEF_SHOWERS,NIGHT_MIST,NIGHT_DRIZZLE,MIST,MIST,MIST,MIST,MIST,CLEAR,CLOUDY","Cross-shore,Cross-shore,Onshore,Onshore,Onshore,Onshore,Onshore,Onshore,Onshore,Onshore,Onshore,Onshore,Cross-shore,Onshore,Cross-shore,Onshore",16
5842041f4e65fad6a77089be,2024_01_22,41.13016238153297,-124.16466,Sue-meg,2.8125,2.246875,2.536875,12,12,"NIGHT_LIGHT_RAIN,NIGHT_CLOUDY,NIGHT_LIGHT_RAIN,NIGHT_LIGHT_RAIN,NIGHT_MIST,NIGHT_MIST,NIGHT_BRIEF_SHOWERS,NIGHT_BRIEF_SHOWERS,NIGHT_MIST,MIST,MIST,MIST,MIST,MIST,CLEAR,LIGHT_RAIN","Cross-shore,Cross-shore,Cross-shore,Cross-shore,Cross-shore,Cross-shore,Cross-shore,Cross-shore,Cross-shore,Cross-shore,Cross-shore,Cross-shore,Cross-shore,Cross-shore,Cross-shore,Cross-shore",16
5842041f4e65fad6a77089bf,2024_01_22,37.8289474958188,-122.5376795097543,Fort Cronkite/Rodeo Beach,1.625,2.035625,2.34125,12,12,"NIGHT_LIGHT_RAIN,NIGHT_LIGHT_RAIN,NIGHT_RAIN,NIGHT_DRIZZLE,NIGHT_MOSTLY_CLOUDY,NIGHT_LIGHT_RAIN,NIGHT_MIST,NIGHT_MIST,NIGHT_MIST,MIST,MIST,MIST,MIST,MIST,MIST,MIST","Onshore,Onshore,Onshore,Onshore,Onshore,Onshore,Onshore,Onshore,Onshore,Onshore,Onshore,Cross-shore,Cross-shore,Cross-shore,Cross-shore,Cross-shore",16
5842041f4e65fad6a77089c0,2024_01_22,41.74415759876137,-124.1771718063073,South Beach CA,1.9375,1.99875,2.259375,12,12,"NIGHT_OVERCAST,NIGHT_OVERCAST,NIGHT_LIGHT_RAIN,NIGHT_OVERCAST,NIGHT_FOG,NIGHT_FOG,NIGHT_FOG,NIGHT_FOG,NIGHT_FOG,FOG,MIST,DRIZZLE,MIST,MIST,MIST,MIST","Onshore,Onshore,Onshore,Onshore,Onshore,Onshore,Onshore,Onshore,Onshore,Onshore,Onshore,Onshore,Onshore,Onshore,Onshore,Onshore",16
5842041f4e65fad6a77089c1,2024_01_22,37.89801283969752,-122.64519,Stinson Beach,2.5625,0.820625,1.09125,12,12,"NIGHT_HEAVY_RAIN,NIGHT_HEAVY_RAIN,NIGHT_RAIN,NIGHT_RAIN,NIGHT_BRIEF_SHOWERS,NIGHT_BRIEF_SHOWERS,NIGHT_BRIEF_SHOWERS,NIGHT_BRIEF_SHOWERS,NIGHT_SHOWERS,BRIEF_SHOWERS,BRIEF_SHOWERS,MIST,SHOWERS,MIST,MIST,BRIEF_SHOWERS","Onshore,Onshore,Onshore,Onshore,Offshore,Offshore,Offshore,Offshore,Onshore,Cross-shore,Offshore,Offshore,Cross-shore,Offshore,Offshore,Offshore",16
5842041f4e65fad6a77089c2,2024_01_22,37.90514516176495,-122.68151,Bolinas,3.3125,0.9975225,1.558629375,12,12,"NIGHT_RAIN,NIGHT_HEAVY_RAIN,NIGHT_OVERCAST,NIGHT_OVERCAST,NIGHT_BRIEF_SHOWERS,NIGHT_BRIEF_SHOWERS,NIGHT_MIST,NIGHT_BRIEF_SHOWERS,NIGHT_BRIEF_SHOWERS,MIST,BRIEF_SHOWERS,BRIEF_SHOWERS,MIST,MOSTLY_CLEAR,MIST,MIST","Cross-shore,Cross-shore,Cross-shore,Cross-shore,Cross-shore,Offshore,Offshore,Offshore,Cross-shore,Offshore,Offshore,Offshore,Offshore,Offshore,Offshore,Offshore",16
5842041f4e65fad6a77089c3,2024_01_22,38.04892513158693,-122.9892494965416,Point Reyes (north),2.0625,2.09125,2.363125,12,12,"NIGHT_OVERCAST,NIGHT_LIGHT_RAIN,NIGHT_DRIZZLE,NIGHT_OVERCAST,NIGHT_MIST,NIGHT_MIST,NIGHT_MIST,NIGHT_MIST,NIGHT_LIGHT_SHOWERS_POSSIBLE,MIST,MIST,MIST,MIST,MIST,MIST,MIST","Offshore,Cross-shore,Cross-shore,Cross-shore,Cross-shore,Cross-shore,Onshore,Onshore,Cross-shore,Onshore,Onshore,Onshore,Onshore,Onshore,Cross-shore,Onshore",16
5842041f4e65fad6a77089c6,2024_01_22,38.31088736605785,-123.0496777333731,Doran Beach,1.9375,0.438125,0.741875,12,12,"NIGHT_DRIZZLE,NIGHT_LIGHT_RAIN,NIGHT_OVERCAST,NIGHT_OVERCAST,NIGHT_OVERCAST,NIGHT_FOG,NIGHT_BRIEF_SHOWERS,NIGHT_FOG,NIGHT_BRIEF_SHOWERS,MIST,MIST,MIST,BRIEF_SHOWERS,BRIEF_SHOWERS,DRIZZLE,MIST","Onshore,Onshore,Onshore,Onshore,Cross-shore,Cross-shore,Offshore,Offshore,Cross-shore,Offshore,Offshore,Offshore,Offshore,Offshore,Cross-shore,Offshore",16
5842041f4e65fad6a77089c7,2024_01_22,38.45077228660809,-123.13008,Russian Rivermouth,2.25,1.855625,2.16375,12,12,"NIGHT_RAIN,NIGHT_LIGHT_RAIN,NIGHT_RAIN,NIGHT_LIGHT_RAIN,NIGHT_LIGHT_RAIN,NIGHT_BRIEF_SHOWERS,NIGHT_MIST,NIGHT_MIST,NIGHT_MOSTLY_CLOUDY,MOSTLY_CLOUDY,CLEAR,CLEAR,CLEAR,MOSTLY_CLEAR,MIST,MIST","Onshore,Onshore,Onshore,Onshore,Onshore,Onshore,Onshore,Onshore,Cross-shore,Cross-shore,Onshore,Onshore,Onshore,Onshore,Onshore,Onshore",16
5842041f4e65fad6a77089c8,2024_01_22,38.35329968518107,-123.06906,Salmon Creek,2,1.879375,2.125,12,12,"NIGHT_DRIZZLE,NIGHT_LIGHT_RAIN,NIGHT_MIST,NIGHT_MIST,NIGHT_MIST,NIGHT_MIST,NIGHT_BRIEF_SHOWERS,NIGHT_MIST,NIGHT_BRIEF_SHOWERS,MIST,MIST,MIST,MIST,MIST,MIST,MIST","Cross-shore,Cross-shore,Onshore,Onshore,Onshore,Onshore,Onshore,Onshore,Onshore,Onshore,Onshore,Onshore,Onshore,Onshore,Onshore,Onshore",16
5842041f4e65fad6a77089c9,2024_01_22,38.6845180197959,-123.4322714291198,Black Point Beach,3,1.67,1.9793749999999999,12,12,"NIGHT_LIGHT_RAIN,NIGHT_LIGHT_RAIN,NIGHT_MIST,NIGHT_MIST,NIGHT_MIST,NIGHT_MIST,NIGHT_BRIEF_SHOWERS,NIGHT_DRIZZLE,NIGHT_MIST,CLEAR,MIST,MIST,MIST,MIST,MIST,MIST","Cross-shore,Cross-shore,Cross-shore,Cross-shore,Onshore,Onshore,Onshore,Onshore,Onshore,Onshore,Onshore,Onshore,Onshore,Onshore,Onshore,Onshore",16
5842041f4e65fad6a77089ca,2024_01_22,43.251076,-70.59144,Ogunquit,0.145625,0,0.23012291666666668,5,4,"NIGHT_CLEAR,NIGHT_CLEAR,NIGHT_CLEAR,NIGHT_CLEAR,NIGHT_CLEAR,NIGHT_CLEAR,CLEAR,CLEAR,CLEAR,CLEAR,CLEAR,CLEAR,CLEAR,CLEAR,CLEAR,NIGHT_CLEAR","Offshore,Offshore,Offshore,Offshore,Offshore,Offshore,Offshore,Offshore,Offshore,Offshore,Offshore,Offshore,Offshore,Offshore,Offshore,Offshore",16
5842041f4e65fad6a77089cb,2024_01_22,41.362631366305415,-71.48006772942608,Point Judith,0.12375,0,0.14032348484848486,7,6,"NIGHT_CLEAR,NIGHT_CLEAR,NIGHT_CLEAR,NIGHT_CLEAR,NIGHT_CLEAR,NIGHT_CLEAR,CLEAR,CLEAR,CLEAR,CLEAR,CLEAR,CLEAR,CLEAR,CLEAR,CLEAR,NIGHT_CLEAR","Offshore,Offshore,Offshore,Offshore,Offshore,Offshore,Offshore,Offshore,Offshore,Offshore,Offshore,Offshore,Offshore,Offshore,Offshore,Offshore",16
5842041f4e65fad6a77089cd,2024_01_22,41.422678090954726,-71.45413,Monahan's - Narragansett,0,0.0389125,0.06080125,6,6,"NIGHT_CLEAR,NIGHT_CLEAR,NIGHT_CLEAR,NIGHT_CLEAR,NIGHT_CLEAR,NIGHT_CLEAR,CLEAR,CLEAR,CLEAR,CLEAR,CLEAR,CLEAR,CLEAR,CLEAR,CLEAR,NIGHT_CLEAR","Offshore,Offshore,Offshore,Offshore,Offshore,Offshore,Offshore,Offshore,Offshore,Offshore,Offshore,Offshore,Offshore,Offshore,Offshore,Offshore",16
5842041f4e65fad6a77089ce,2024_01_22,41.469,-71.293,Ruggles - Newport,0.3125,0.10222125,0.15972125,5.3125,5.3125,"NIGHT_CLEAR,NIGHT_CLEAR,NIGHT_CLEAR,NIGHT_CLEAR,NIGHT_CLEAR,NIGHT_CLEAR,CLEAR,CLEAR,CLEAR,CLEAR,CLEAR,CLEAR,CLEAR,CLEAR,CLEAR,NIGHT_CLEAR","Offshore,Offshore,Offshore,Offshore,Offshore,Offshore,Offshore,Offshore,Cross-shore,Cross-shore,Onshore,Onshore,Onshore,Cross-shore,Cross-shore,Cross-shore",16
5842041f4e65fad6a77089cf,2024_01_22,43.175394,-70.606351,Short Sands Beach,0,0,0.10187500000000001,4.3125,4.3125,"NIGHT_CLEAR,NIGHT_CLEAR,NIGHT_CLEAR,NIGHT_CLEAR,NIGHT_CLEAR,NIGHT_CLEAR,CLEAR,CLEAR,CLEAR,CLEAR,CLEAR,CLEAR,CLEAR,CLEAR,CLEAR,NIGHT_CLEAR","Offshore,Offshore,Offshore,Offshore,Offshore,Offshore,Offshore,Offshore,Offshore,Offshore,Offshore,Offshore,Offshore,Offshore,Offshore,Offshore",16
