_id,date,lat,lon,name,daily_mean_swell_rating,daily_mean_wave_height_min,daily_mean_wave_height_max,daily_mean_water_temperature_max,daily_mean_water_temperature_min,weather_per_timestamp,wind_per_timestamp,n_samples_per_day
5842041f4e65fad6a77087f9,2024_03_12,37.741668,-122.51038,South Ocean Beach,1.766,4.000500000000001,4.791399999999999,14,14,"CLOUDY,CLOUDY,CLEAR,CLEAR,NIGHT_MOSTLY_CLOUDY","Onshore,Onshore,Onshore,Onshore,Onshore",5
5842041f4e65fad6a7708801,2024_03_12,37.49142,-122.50428,Maverick's,NA,3.9250000000000003,5.057333333333333,13,13,"OVERCAST,DRIZZLE,OVERCAST,MOSTLY_CLOUDY,NIGHT_MOSTLY_CLOUDY","Onshore,Onshore,Onshore,Onshore,Onshore",5
5842041f4e65fad6a7708804,2024_03_12,44.997,-124.018,Roads End,0.2,3.9659999999999997,4.7379999999999995,10,10,"RAIN,DRIZZLE,HEAVY_RAIN,SHOWERS,NIGHT_BRIEF_SHOWERS","Cross-shore,Cross-shore,Cross-shore,Cross-shore,Onshore",5
5842041f4e65fad6a7708805,2024_03_12,36.95188851423011,-122.02522,Steamer Lane,3.6,2.3417333333333334,3.2357666666666667,14,14,"CLEAR,CLEAR,CLEAR,CLEAR,NIGHT_CLEAR","Offshore,Offshore,Offshore,Offshore,Offshore",5
5842041f4e65fad6a7708806,2024_03_12,36.95918781542251,-122.02489,Cowells,2.766,0.5390666666666667,1.0198333333333334,14,14,"CLEAR,CLEAR,CLEAR,CLEAR,NIGHT_CLEAR","Offshore,Offshore,Offshore,Offshore,Offshore",5
5842041f4e65fad6a7708807,2024_03_12,36.95468082526536,-121.97234,Pleasure Point,3.166,1.9006333333333334,2.774,14,14,"CLOUDY,CLOUDY,CLEAR,CLEAR,NIGHT_CLEAR","Cross-shore,Cross-shore,Cross-shore,Cross-shore,Cross-shore",5
5842041f4e65fad6a770880a,2024_03_12,35.37815414378748,-120.86589,Morro Bay,2.766,2.2146333333333335,2.7914,14,14,"MOSTLY_CLOUDY,MOSTLY_CLOUDY,CLEAR,CLOUDY,NIGHT_CLEAR","Onshore,Onshore,Onshore,Onshore,Onshore",5
5842041f4e65fad6a770880b,2024_03_12,36.95782765000708,-121.9672887511276,Jack's,3.6,1.1100333333333332,1.5599666666666667,14,14,"CLOUDY,CLOUDY,CLEAR,CLEAR,NIGHT_CLEAR","Cross-shore,Offshore,Offshore,Cross-shore,Offshore",5
5842041f4e65fad6a770880d,2024_03_12,34.29982939936656,-119.3489016603669,Gold Coast Beachbreaks,1.4,0.456,0.758,14,14,"CLEAR,CLEAR,MOSTLY_CLEAR,MIST,NIGHT_CLEAR","Onshore,Onshore,Onshore,Onshore,Onshore",5
5842041f4e65fad6a7708811,2024_03_12,34.245076,-119.26799,Ventura Harbor,2,1.3244971666666667,1.742335,14,14,"CLEAR,MOSTLY_CLEAR,CLEAR,MIST,NIGHT_MOSTLY_CLEAR","Onshore,Onshore,Onshore,Onshore,Onshore",5
5842041f4e65fad6a7708813,2024_03_12,34.051,-118.964,County Line,2,0.7236999999999999,1.1176,15,15,"MOSTLY_CLEAR,MOSTLY_CLEAR,MOSTLY_CLEAR,NIGHT_MOSTLY_CLEAR,NIGHT_MIST","Onshore,Onshore,Onshore,Onshore,Cross-shore",5
5842041f4e65fad6a7708814,2024_03_12,34.37256264378892,-119.47797,Rincon,3,1.028,1.25,14,14,"CLEAR,MOSTLY_CLEAR,MOSTLY_CLEAR,CLEAR,NIGHT_CLEAR","Cross-shore,Cross-shore,Cross-shore,Cross-shore,Cross-shore",5
5842041f4e65fad6a7708817,2024_03_12,34.03096101876324,-118.68109,Malibu Third Point,2.4,0.444,0.752,15,15,"MOSTLY_CLEAR,CLEAR,CLEAR,NIGHT_CLEAR,NIGHT_CLEAR","Cross-shore,Cross-shore,Offshore,Cross-shore,Offshore",5
5842041f4e65fad6a7708819,2024_03_12,33.984079047970035,-118.47381591796875,Venice Beach,1.366,0.7824,1.0595999999999999,14,14,"CLEAR,CLEAR,CLEAR,NIGHT_CLEAR,NIGHT_CLEAR","Cross-shore,Cross-shore,Cross-shore,Cross-shore,Cross-shore",5
5842041f4e65fad6a770881e,2024_03_12,34.037508438646746,-118.58339846155594,Topanga Beach,2,0.5712,0.8713,15,15,"MOSTLY_CLEAR,CLEAR,MOSTLY_CLEAR,NIGHT_CLEAR,NIGHT_MIST","Onshore,Onshore,Onshore,Onshore,Cross-shore",5
5842041f4e65fad6a7708820,2024_03_12,33.73954373690184,-118.11414,Seal Beach Jetty,2,0.454,0.76,15,15,"CLEAR,CLEAR,CLEAR,NIGHT_MOSTLY_CLEAR,NIGHT_CLEAR","Onshore,Onshore,Onshore,Onshore,Onshore",5
5842041f4e65fad6a7708822,2024_03_12,33.72309983348433,-118.08078,Anderson Street,1.4,0.552,0.858,15,15,"CLEAR,CLEAR,CLEAR,NIGHT_MOSTLY_CLEAR,NIGHT_MOSTLY_CLOUDY","Onshore,Onshore,Onshore,Onshore,Onshore",5
5842041f4e65fad6a7708827,2024_03_12,33.65574085629463,-118.00397,Huntington Beach Pier Northside,2,1.0942333333333332,1.431933333333333,15,15,"CLEAR,CLEAR,CLEAR,NIGHT_MOSTLY_CLEAR,NIGHT_CLEAR","Onshore,Onshore,Onshore,Onshore,Onshore",5
5842041f4e65fad6a7708828,2024_03_12,34.272041739333,-119.2997646331,C St.,3,0.9892666666666667,1.2909000000000002,14,14,"MIST,MIST,CLEAR,MOSTLY_CLEAR,NIGHT_CLEAR","Cross-shore,Cross-shore,Cross-shore,Cross-shore,Cross-shore",5
5842041f4e65fad6a770882a,2024_03_12,33.61555743705257,-117.93676,Newport Lower Jetties,2,0.5253,0.8361,15,15,"CLEAR,CLEAR,MOSTLY_CLEAR,NIGHT_CLEAR,NIGHT_MOSTLY_CLOUDY","Onshore,Onshore,Cross-shore,Onshore,Cross-shore",5
5842041f4e65fad6a770882b,2024_03_12,33.5930302087,-117.88199,The Wedge,1.6,0.8129615,1.1445831666666668,17,17,"CLEAR,CLEAR,MOSTLY_CLEAR,NIGHT_CLEAR,NIGHT_CLEAR","Onshore,Onshore,Cross-shore,Onshore,Onshore",5
5842041f4e65fad6a770882c,2024_03_12,33.60577342582,-117.9315376281,Newport Beach Pier,2,0.41580000000000006,0.7226,15,15,"CLEAR,CLEAR,CLEAR,NIGHT_CLEAR,NIGHT_CLEAR","Onshore,Onshore,Cross-shore,Cross-shore,Cross-shore",5
5842041f4e65fad6a770882e,2024_03_12,33.475793399792984,-117.72291,Salt Creek,3,0.9962333333333333,1.4362666666666666,15,15,"CLEAR,CLEAR,CLEAR,NIGHT_MOSTLY_CLOUDY,NIGHT_MOSTLY_CLOUDY","Onshore,Onshore,Onshore,Onshore,Onshore",5
5842041f4e65fad6a7708830,2024_03_12,33.41800974113613,-117.61952,T-Street,3,1.0779,1.3616,16,16,"CLEAR,CLEAR,MOSTLY_CLEAR,NIGHT_CLEAR,NIGHT_CLEAR","Onshore,Onshore,Onshore,Cross-shore,Cross-shore",5
5842041f4e65fad6a7708832,2024_03_12,33.202391008646,-117.39475,Oceanside Harbor,3,1.0136,1.3923999999999999,16,16,"CLEAR,CLEAR,CLEAR,NIGHT_CLEAR,NIGHT_MOSTLY_CLOUDY","Onshore,Onshore,Onshore,Onshore,Onshore",5
5842041f4e65fad6a7708835,2024_03_12,33.19477795952803,-117.38667,Oceanside Pier,2.6,1.0342666666666667,1.2368000000000001,16,16,"MOSTLY_CLOUDY,MOSTLY_CLOUDY,CLEAR,NIGHT_CLEAR,NIGHT_MOSTLY_CLOUDY","Onshore,Onshore,Onshore,Onshore,Onshore",5
5842041f4e65fad6a7708837,2024_03_12,33.14948100706,-117.35029,Tamarack,2,0.442,0.748,15,15,"MOSTLY_CLOUDY,CLEAR,CLEAR,NIGHT_CLEAR,NIGHT_CLOUDY","Onshore,Onshore,Onshore,Cross-shore,Cross-shore",5
5842041f4e65fad6a7708839,2024_03_12,32.865777159358856,-117.25614295356122,Scripps,1.6320000000000001,1.0002666666666666,1.3401333333333334,16,16,"MOSTLY_CLOUDY,MOSTLY_CLOUDY,CLEAR,NIGHT_CLOUDY,NIGHT_CLOUDY","Onshore,Onshore,Onshore,Onshore,Onshore",5
5842041f4e65fad6a770883a,2024_03_12,32.813094,-117.27381,Birdrock,3,1.368,1.636,16,16,"MOSTLY_CLOUDY,MOSTLY_CLOUDY,MOSTLY_CLOUDY,NIGHT_OVERCAST,NIGHT_MOSTLY_CLOUDY","Onshore,Cross-shore,Onshore,Cross-shore,Cross-shore",5
5842041f4e65fad6a770883b,2024_03_12,32.877231,-117.25303,Blacks,2.3,1.3149333333333333,1.8519999999999999,16,16,"MOSTLY_CLOUDY,MOSTLY_CLOUDY,CLEAR,NIGHT_CLOUDY,NIGHT_CLOUDY","Onshore,Onshore,Onshore,Onshore,Onshore",5
5842041f4e65fad6a770883c,2024_03_12,32.82978974229765,-117.28161740727381,Windansea,2.632,1.1929333333333332,1.7166666666666666,15,15,"MOSTLY_CLOUDY,CLEAR,CLEAR,NIGHT_OVERCAST,NIGHT_OVERCAST","Onshore,Onshore,Onshore,Onshore,Onshore",5
5842041f4e65fad6a770883d,2024_03_12,32.838278,-117.28396,Horseshoe,3,1.452,1.738,16,16,"MOSTLY_CLOUDY,CLEAR,CLEAR,NIGHT_OVERCAST,NIGHT_MOSTLY_CLOUDY","Onshore,Onshore,Onshore,Onshore,Cross-shore",5
5842041f4e65fad6a770883f,2024_03_12,32.75034717673179,-117.25337,Ocean Beach,1.6320000000000001,1.1802666666666666,1.6973333333333334,15,15,"CLEAR,CLEAR,CLEAR,NIGHT_CLOUDY,NIGHT_CLOUDY","Onshore,Onshore,Onshore,Onshore,Onshore",5
5842041f4e65fad6a7708840,2024_03_12,32.73693,-117.25718,Sunset Cliffs,3,1.442,1.73,15,15,"MOSTLY_CLEAR,CLEAR,CLEAR,NIGHT_OVERCAST,NIGHT_OVERCAST","Onshore,Onshore,Onshore,Onshore,Onshore",5
5842041f4e65fad6a7708841,2024_03_12,32.796582258728826,-117.25779,Pacific Beach,2.432,1.2356,1.6670666666666667,15,15,"MOSTLY_CLOUDY,CLEAR,CLEAR,NIGHT_CLOUDY,NIGHT_MOSTLY_CLOUDY","Onshore,Cross-shore,Onshore,Cross-shore,Cross-shore",5
5842041f4e65fad6a7708842,2024_03_12,32.776636,-117.25514,Mission Beach,2.198,1.2409333333333332,1.6657333333333333,15,15,"MOSTLY_CLOUDY,CLEAR,CLEAR,NIGHT_CLOUDY,NIGHT_CLOUDY","Onshore,Onshore,Onshore,Onshore,Onshore",5
5842041f4e65fad6a7708844,2024_03_12,32.577195519016,-117.13475,Imperial Beach Pier,2,1.542,1.842,15,15,"MOSTLY_CLEAR,CLEAR,CLEAR,NIGHT_CLOUDY,NIGHT_CLOUDY","Onshore,Onshore,Onshore,Onshore,Onshore",5
5842041f4e65fad6a770884a,2024_03_12,42.88678181061,-70.80843,Seabrook,1.8,0.5476393333333334,0.8429826666666667,4,3,"NIGHT_CLEAR,NIGHT_CLEAR,NIGHT_CLEAR,NIGHT_CLEAR,NIGHT_CLEAR","Offshore,Offshore,Offshore,Offshore,Offshore",5
5842041f4e65fad6a770884e,2024_03_12,41.434181432898335,-71.45312118111178,Narragansett,1.534,0.0636,0.36386666666666667,6,4,"NIGHT_CLEAR,NIGHT_CLEAR,NIGHT_CLEAR,NIGHT_CLEAR,NIGHT_CLEAR","Offshore,Offshore,Offshore,Offshore,Offshore",5
5842041f4e65fad6a7708850,2024_03_12,40.582703230722,-73.65247,Lincoln Blvd,0.6,0.0046666666666666575,0.31426666666666664,7,6,"NIGHT_CLEAR,NIGHT_CLEAR,NIGHT_CLEAR,NIGHT_CLEAR,NIGHT_CLEAR","Onshore,Onshore,Onshore,Onshore,Onshore",5
5842041f4e65fad6a7708852,2024_03_12,40.58342841721757,-73.81182,Rockaways,0,-0.04,0.23360000000000003,7,6,"NIGHT_CLEAR,NIGHT_CLEAR,NIGHT_CLEAR,NIGHT_CLEAR,NIGHT_CLEAR","Offshore,Cross-shore,Cross-shore,Cross-shore,Cross-shore",5
5842041f4e65fad6a7708853,2024_03_12,40.330474,-73.9734,Monmouth Beach,0.4,-0.01933333333333334,0.2849333333333333,7,6,"NIGHT_CLEAR,NIGHT_CLEAR,NIGHT_CLEAR,NIGHT_CLEAR,NIGHT_CLEAR","Offshore,Offshore,Offshore,Offshore,Offshore",5
5842041f4e65fad6a7708856,2024_03_12,40.113,-74.028,Manasquan Inlet,1,-0.036666666666666674,0.23893333333333336,7,6,"NIGHT_CLEAR,NIGHT_CLEAR,NIGHT_CLEAR,NIGHT_CLEAR,NIGHT_CLEAR","Offshore,Offshore,Offshore,Offshore,Offshore",5
5842041f4e65fad6a7708857,2024_03_12,39.941519877445664,-74.06829,Casino Pier,1,-0.036666666666666674,0.2416,7,6,"NIGHT_CLEAR,NIGHT_CLEAR,NIGHT_CLEAR,NIGHT_CLEAR,NIGHT_CLEAR","Offshore,Offshore,Offshore,Offshore,Offshore",5
5842041f4e65fad6a7708858,2024_03_12,39.28223089949212,-74.55766,North End OC,1.534,-0.023333333333333334,0.25826666666666664,8,6,"NIGHT_CLEAR,NIGHT_CLEAR,NIGHT_CLEAR,NIGHT_CLEAR,NIGHT_CLEAR","Offshore,Offshore,Offshore,Offshore,Offshore",5
5842041f4e65fad6a770885b,2024_03_12,39.65080599934257,-74.17146,Ship Bottom,1.534,-0.04133333333333333,0.24693333333333334,8,6,"NIGHT_CLEAR,NIGHT_CLEAR,NIGHT_CLEAR,NIGHT_CLEAR,NIGHT_CLEAR","Offshore,Offshore,Offshore,Offshore,Offshore",5
5842041f4e65fad6a7708863,2024_03_12,36.034151543144,-75.66791,Third Street,3,0.5101333333333333,0.8470666666666667,9,8,"CLEAR,NIGHT_CLEAR,NIGHT_CLEAR,NIGHT_CLEAR,NIGHT_CLEAR","Offshore,Offshore,Offshore,Offshore,Offshore",5
5842041f4e65fad6a7708867,2024_03_12,35.605833221351425,-75.46303,S-Turns,1.466,0.7408,1.0492,10,9,"CLEAR,NIGHT_CLEAR,NIGHT_CLEAR,NIGHT_CLEAR,NIGHT_CLEAR","Offshore,Offshore,Offshore,Offshore,Offshore",5
5842041f4e65fad6a770886d,2024_03_12,38.338461,-75.08117,Ocean City Boardwalk,1,-0.02,0.2576,8,7,"CLEAR,NIGHT_CLEAR,NIGHT_CLEAR,NIGHT_CLEAR,NIGHT_CLEAR","Offshore,Offshore,Offshore,Offshore,Offshore",5
5842041f4e65fad6a770886f,2024_03_12,29.844757212379562,-81.26136,A St.,2,0.558,0.864,18,18,"CLEAR,NIGHT_CLEAR,NIGHT_CLEAR,NIGHT_CLEAR,NIGHT_CLEAR","Onshore,Onshore,Onshore,Onshore,Onshore",5
5842041f4e65fad6a7708871,2024_03_12,29.069417851135093,-80.90824,New Smyrna Beach,2,0.9463999999999999,1.4065999999999999,19,17,"CLEAR,NIGHT_CLEAR,NIGHT_CLEAR,NIGHT_CLEAR,NIGHT_CLEAR","Onshore,Onshore,Onshore,Onshore,Onshore",5
5842041f4e65fad6a7708872,2024_03_12,28.367707417566,-80.60171,Cocoa Beach Pier,2,0.6181000000000001,0.9244000000000001,23,21,"MOSTLY_CLEAR,NIGHT_MOSTLY_CLEAR,NIGHT_CLEAR,NIGHT_MOSTLY_CLOUDY,NIGHT_MOSTLY_CLOUDY","Onshore,Onshore,Onshore,Onshore,Onshore",5
5842041f4e65fad6a7708873,2024_03_12,28.091782738658846,-80.56479,Indialantic,1.966,0.6193333333333334,0.9888333333333333,23,21,"MOSTLY_CLEAR,NIGHT_CLEAR,NIGHT_CLEAR,NIGHT_CLEAR,NIGHT_MOSTLY_CLEAR","Onshore,Onshore,Onshore,Onshore,Onshore",5
5842041f4e65fad6a7708876,2024_03_12,27.25392904143517,-80.19455,Jensen Beach,1.466,0.7954,1.1317000000000002,23,22,"MOSTLY_CLOUDY,NIGHT_MOSTLY_CLOUDY,NIGHT_MOSTLY_CLOUDY,NIGHT_OVERCAST,NIGHT_MOSTLY_CLOUDY","Onshore,Onshore,Onshore,Onshore,Onshore",5
5842041f4e65fad6a7708879,2024_03_12,26.76346795333825,-80.0360655784607,Reef Road,2,0.48260000000000003,0.8189,24,23,"OVERCAST,NIGHT_OVERCAST,NIGHT_MOSTLY_CLOUDY,NIGHT_CLOUDY,NIGHT_OVERCAST","Onshore,Onshore,Onshore,Onshore,Onshore",5
5842041f4e65fad6a770887c,2024_03_12,26.336499228484,-80.06956100463,Boca Raton Inlet,0.966,0.12233333333333332,0.4241666666666667,25,23,"OVERCAST,NIGHT_CLOUDY,NIGHT_MOSTLY_CLOUDY,NIGHT_MOSTLY_CLOUDY,NIGHT_MOSTLY_CLOUDY","Onshore,Onshore,Onshore,Onshore,Onshore",5
5842041f4e65fad6a770887d,2024_03_12,26.31719311695038,-80.07452525176168,Deerfield Beach Pier,1,0.2098346666666667,0.515368,25,23,"OVERCAST,NIGHT_CLOUDY,NIGHT_SHOWERS,NIGHT_MOSTLY_CLOUDY,NIGHT_OVERCAST","Onshore,Onshore,Onshore,Onshore,Onshore",5
5842041f4e65fad6a7708881,2024_03_12,30.20276320866628,-85.85626528676136,"Spyglass Dr., Panama City",0,0,0.15140000000000003,19,18,"CLEAR,NIGHT_CLEAR,NIGHT_CLEAR,NIGHT_CLEAR,NIGHT_CLEAR","Offshore,Offshore,Offshore,Offshore,Offshore",5
5842041f4e65fad6a7708884,2024_03_12,33.39000832738053,-117.59852,Cottons,3,1.0718666666666667,1.3288333333333333,16,16,"MOSTLY_CLEAR,CLEAR,CLEAR,NIGHT_MOSTLY_CLOUDY,NIGHT_MOSTLY_CLOUDY","Onshore,Onshore,Onshore,Onshore,Onshore",5
5842041f4e65fad6a7708885,2024_03_12,33.359416282661,-117.54167901405711,Trails,2.2,0.67,0.98,15,15,"MOSTLY_CLEAR,CLEAR,CLEAR,NIGHT_BRIEF_SHOWERS,NIGHT_BRIEF_SHOWERS","Onshore,Onshore,Onshore,Cross-shore,Cross-shore",5
5842041f4e65fad6a7708886,2024_03_12,33.38042605929805,-117.58332,Middles,3,0.8457333333333333,1.3303333333333334,16,16,"MOSTLY_CLEAR,CLEAR,CLEAR,NIGHT_MOSTLY_CLOUDY,NIGHT_MOSTLY_CLOUDY","Onshore,Onshore,Onshore,Onshore,Cross-shore",5
5842041f4e65fad6a7708887,2024_03_12,33.38445596302903,-117.59445,Upper Trestles,3,1.1733666666666667,1.4843333333333335,16,16,"MOSTLY_CLEAR,CLEAR,CLEAR,NIGHT_MOSTLY_CLOUDY,NIGHT_MOSTLY_CLOUDY","Onshore,Onshore,Onshore,Cross-shore,Cross-shore",5
5842041f4e65fad6a7708889,2024_03_12,28.944414,-95.28883,Surfside,1,0.259168,0.404948,19,19,"CLEAR,CLEAR,NIGHT_CLEAR,NIGHT_CLEAR,NIGHT_CLEAR","Onshore,Onshore,Onshore,Onshore,Onshore",5
5842041f4e65fad6a770888a,2024_03_12,33.38143999849023,-117.58843,Lower Trestles,3,1.1372,1.6859666666666666,16,16,"MOSTLY_CLEAR,CLEAR,CLEAR,NIGHT_MOSTLY_CLOUDY,NIGHT_MOSTLY_CLOUDY","Onshore,Onshore,Onshore,Cross-shore,Cross-shore",5
5842041f4e65fad6a770888b,2024_03_12,33.379622288757,-117.57894,Church,3,0.8935666666666667,1.3183333333333336,16,16,"MOSTLY_CLEAR,CLEAR,CLEAR,NIGHT_MOSTLY_CLOUDY,NIGHT_CLEAR","Onshore,Onshore,Onshore,Onshore,Cross-shore",5
5842041f4e65fad6a770888d,2024_03_12,21.679,-158.042,Sunset Beach,4,1.98,2.4692000000000003,26,25,"BRIEF_SHOWERS,OVERCAST,BRIEF_SHOWERS,CLEAR,BRIEF_SHOWERS","Cross-shore,Offshore,Cross-shore,Offshore,Cross-shore",5
5842041f4e65fad6a770888e,2024_03_12,21.670550036401,-158.0482,Rocky Point,3,1.4684,1.9290666666666667,26,25,"CLEAR,CLEAR,BRIEF_SHOWERS_POSSIBLE,CLEAR,CLEAR","Cross-shore,Cross-shore,Cross-shore,Cross-shore,Onshore",5
5842041f4e65fad6a770888f,2024_03_12,21.668,-158.05,Chambers,3,1.948,2.33,24,24,"CLEAR,CLEAR,BRIEF_SHOWERS_POSSIBLE,CLEAR,BRIEF_SHOWERS_POSSIBLE","Cross-shore,Cross-shore,Cross-shore,Cross-shore,Onshore",5
5842041f4e65fad6a7708890,2024_03_12,21.66522,-158.0526,Pipeline,4,2.0684,2.4926666666666666,26,25,"CLEAR,CLEAR,BRIEF_SHOWERS_POSSIBLE,CLEAR,BRIEF_SHOWERS_POSSIBLE","Cross-shore,Cross-shore,Cross-shore,Cross-shore,Cross-shore",5
5842041f4e65fad6a7708891,2024_03_12,21.665,-158.054,Backdoor,4,2.0684,2.4926666666666666,26,25,"CLEAR,CLEAR,BRIEF_SHOWERS_POSSIBLE,CLEAR,BRIEF_SHOWERS_POSSIBLE","Cross-shore,Cross-shore,Cross-shore,Cross-shore,Cross-shore",5
5842041f4e65fad6a7708892,2024_03_12,21.662,-158.057,Rockpile,3,1.732,2.07,24,24,"CLEAR,CLEAR,BRIEF_SHOWERS_POSSIBLE,CLEAR,BRIEF_SHOWERS_POSSIBLE","Cross-shore,Cross-shore,Cross-shore,Cross-shore,Cross-shore",5
5842041f4e65fad6a7708893,2024_03_12,21.65870453806827,-158.06058,Log Cabins,3,1.516,1.816,24,24,"CLEAR,CLEAR,BRIEF_SHOWERS_POSSIBLE,CLEAR,BRIEF_SHOWERS_POSSIBLE","Cross-shore,Cross-shore,Cross-shore,Cross-shore,Cross-shore",5
5842041f4e65fad6a7708894,2024_03_12,21.66203493640557,-158.05495,Off-The-Wall,3,1.778,2.122,24,24,"CLEAR,CLEAR,BRIEF_SHOWERS_POSSIBLE,CLEAR,CLEAR","Cross-shore,Cross-shore,Cross-shore,Cross-shore,Onshore",5
5842041f4e65fad6a7708895,2024_03_12,21.643,-158.067,Waimea Bay,NA,1.9524000000000001,2.5084,26,25,"CLEAR,CLEAR,BRIEF_SHOWERS_POSSIBLE,CLEAR,BRIEF_SHOWERS_POSSIBLE","Offshore,Offshore,Offshore,Offshore,Cross-shore",5
5842041f4e65fad6a7708896,2024_03_12,21.622,-158.087,Hultin's,4,2.3944,3.0377333333333336,26,25,"CLEAR,CLEAR,CLEAR,CLEAR,CLEAR","Offshore,Offshore,Offshore,Offshore,Offshore",5
5842041f4e65fad6a7708897,2024_03_12,21.623,-158.085,Jocko's,3,1.6,1.912,24,24,"CLEAR,CLEAR,CLEAR,CLEAR,CLEAR","Cross-shore,Cross-shore,Cross-shore,Cross-shore,Cross-shore",5
5842041f4e65fad6a7708898,2024_03_12,21.62,-158.088,Laniakea,3.6,1.4064,1.7153333333333334,26,25,"CLEAR,CLEAR,CLEAR,CLEAR,CLEAR","Offshore,Offshore,Offshore,Offshore,Offshore",5
5842041f4e65fad6a7708899,2024_03_12,21.625,-158.083,Chun's,3.4,1.676,2.002,24,24,"CLEAR,CLEAR,CLEAR,CLEAR,CLEAR","Offshore,Offshore,Offshore,Offshore,Offshore",5
5842041f4e65fad6a770889c,2024_03_12,21.286357895152136,-157.8515,South Shore - Ala Moana Park,2,0.506,0.81,24,24,"CLEAR,CLEAR,SHOWERS,MOSTLY_CLOUDY,CLEAR","Offshore,Offshore,Offshore,Offshore,Offshore",5
5842041f4e65fad6a770889d,2024_03_12,19.606,-155.978,Banyans,2,0.45920000000000005,0.7614666666666666,26,25,"OVERCAST,CLOUDY,CLEAR,CLEAR,CLEAR","Onshore,Onshore,Cross-shore,Onshore,Onshore",5
5842041f4e65fad6a770889e,2024_03_12,20.029,-155.831,Kawaihae,1.8,0.4444,0.55978000000000006,24,24,"CLEAR,CLEAR,MOSTLY_CLOUDY,MOSTLY_CLOUDY,CLEAR","Onshore,Onshore,Onshore,Onshore,Onshore",5
5842041f4e65fad6a770889f,2024_03_12,33.07541383424675,-117.3105,Grandview,3,0.908,1.114,15,15,"MOSTLY_CLOUDY,CLEAR,CLEAR,NIGHT_CLEAR,NIGHT_CLEAR","Onshore,Onshore,Onshore,Onshore,Onshore",5
5842041f4e65fad6a77088a0,2024_03_12,33.065267421296596,-117.30577,Beacons,2.4,0.846,1.0819999999999999,15,15,"MOSTLY_CLOUDY,CLEAR,CLEAR,NIGHT_CLEAR,NIGHT_CLEAR","Onshore,Onshore,Onshore,Onshore,Cross-shore",5
5842041f4e65fad6a77088a2,2024_03_12,21.252,-157.805,Diamond Head,3,0.9693786666666666,1.281518,26,25,"CLEAR,MOSTLY_CLOUDY,MOSTLY_CLOUDY,MOSTLY_CLOUDY,CLEAR","Cross-shore,Cross-shore,Cross-shore,Cross-shore,Cross-shore",5
5842041f4e65fad6a77088a3,2024_03_12,33.04694255008896,-117.29966,Moonlight State Beach,2,0.962,1.148,15,15,"MOSTLY_CLOUDY,MOSTLY_CLOUDY,CLEAR,NIGHT_CLEAR,NIGHT_CLEAR","Onshore,Onshore,Onshore,Onshore,Onshore",5
5842041f4e65fad6a77088a5,2024_03_12,33.08685865930869,-117.31532,Ponto,2,1,1.302,15,15,"MOSTLY_CLOUDY,CLEAR,CLEAR,NIGHT_CLEAR,NIGHT_CLEAR","Onshore,Onshore,Onshore,Onshore,Onshore",5
5842041f4e65fad6a77088a6,2024_03_12,33.130343587871906,-117.33667796442558,Terra Mar Point,3,0.8496,1.2557333333333331,16,16,"MOSTLY_CLOUDY,MOSTLY_CLOUDY,CLEAR,NIGHT_CLEAR,NIGHT_CLEAR","Onshore,Onshore,Onshore,Onshore,Cross-shore",5
5842041f4e65fad6a77088af,2024_03_12,32.95916304183685,-117.26963,Del Mar,2.2,1.158,1.388,16,16,"MOSTLY_CLOUDY,CLEAR,CLEAR,NIGHT_CLOUDY,NIGHT_CLEAR","Onshore,Onshore,Onshore,Onshore,Onshore",5
5842041f4e65fad6a77088b0,2024_03_12,32.97527261243354,-117.2721061331305,Del Mar Rivermouth,2,1.098,1.372,15,15,"MOSTLY_CLOUDY,CLEAR,CLEAR,NIGHT_CLOUDY,NIGHT_MOSTLY_CLOUDY","Onshore,Onshore,Onshore,Onshore,Onshore",5
5842041f4e65fad6a77088b1,2024_03_12,33.01352178146273,-117.28219,Cardiff Reef,3,1.1336000000000002,1.6426666666666667,16,16,"MOSTLY_CLOUDY,CLEAR,CLEAR,NIGHT_CLEAR,NIGHT_CLOUDY","Onshore,Onshore,Onshore,Onshore,Cross-shore",5
5842041f4e65fad6a77088b3,2024_03_12,33.00211185876003,-117.2811,Seaside Reef,3,1.1356,1.5779999999999998,16,16,"MOSTLY_CLOUDY,CLEAR,CLEAR,NIGHT_CLOUDY,NIGHT_CLEAR","Onshore,Onshore,Onshore,Onshore,Cross-shore",5
5842041f4e65fad6a77088b4,2024_03_12,33.0341859796287,-117.29552,Swami's,2.8,1.1902666666666668,1.5504,16,16,"MOSTLY_CLOUDY,CLEAR,CLEAR,NIGHT_CLEAR,NIGHT_CLOUDY","Onshore,Onshore,Onshore,Onshore,Onshore",5
5842041f4e65fad6a77088b7,2024_03_12,33.04569760260221,-117.2994,D Street,1.8,1.004,1.264,15,15,"MOSTLY_CLOUDY,MOSTLY_CLOUDY,CLEAR,NIGHT_CLEAR,NIGHT_CLEAR","Onshore,Onshore,Onshore,Onshore,Onshore",5
5842041f4e65fad6a77088b8,2024_03_12,33.02090944350196,-117.28535,San Elijo State Beach,3,1.0216,1.4553333333333334,16,16,"MOSTLY_CLOUDY,CLEAR,CLEAR,NIGHT_CLEAR,NIGHT_CLOUDY","Onshore,Onshore,Onshore,Onshore,Cross-shore",5
5842041f4e65fad6a77088c2,2024_03_12,32.80662846492798,-117.2688764333725,PB Point,3,1.284,1.544,16,16,"MOSTLY_CLOUDY,MOSTLY_CLOUDY,MOSTLY_CLOUDY,NIGHT_OVERCAST,NIGHT_OVERCAST","Cross-shore,Cross-shore,Cross-shore,Cross-shore,Offshore",5
5842041f4e65fad6a77088c4,2024_03_12,32.8060476681448,-117.26479,Old Man's at Tourmaline,3,1.014,1.212,16,16,"MOSTLY_CLOUDY,MOSTLY_CLOUDY,MOSTLY_CLOUDY,NIGHT_OVERCAST,NIGHT_OVERCAST","Cross-shore,Cross-shore,Cross-shore,Cross-shore,Offshore",5
5842041f4e65fad6a77088cb,2024_03_12,32.557056711256,-117.1327445020322,Tijuana Slough,2.2,0.938,1.12,15,15,"MOSTLY_CLEAR,CLEAR,CLEAR,NIGHT_OVERCAST,NIGHT_MOSTLY_CLOUDY","Onshore,Onshore,Cross-shore,Cross-shore,Cross-shore",5
5842041f4e65fad6a77088cc,2024_03_12,32.863,-117.257,La Jolla Shores,2,0.984,1.174,16,16,"MOSTLY_CLOUDY,MOSTLY_CLOUDY,CLEAR,NIGHT_CLOUDY,NIGHT_CLOUDY","Onshore,Onshore,Onshore,Onshore,Onshore",5
5842041f4e65fad6a77088ce,2024_03_12,32.67443657790586,-117.17421316238693,Coronado Beach,2.4,0.736,0.99,15,15,"CLEAR,CLEAR,CLEAR,NIGHT_CLOUDY,NIGHT_OVERCAST","Cross-shore,Cross-shore,Offshore,Offshore,Offshore",5
5842041f4e65fad6a77088cf,2024_03_12,33.40484417640326,-117.60749,San Clemente State Beach,2,0.718,1.024,15,15,"MOSTLY_CLEAR,CLEAR,CLEAR,NIGHT_MOSTLY_CLOUDY,NIGHT_MOSTLY_CLOUDY","Onshore,Onshore,Onshore,Cross-shore,Cross-shore",5
5842041f4e65fad6a77088d5,2024_03_12,33.4663042002114,-117.7168352817103,Strands,3,0.9559,1.4119333333333333,15,15,"CLEAR,CLEAR,CLEAR,NIGHT_MOSTLY_CLOUDY,NIGHT_MOSTLY_CLOUDY","Onshore,Onshore,Onshore,Onshore,Cross-shore",5
5842041f4e65fad6a77088d7,2024_03_12,33.4609858001748,-117.68535,Doheny State Beach,2.234,0.23646666666666666,0.5394333333333333,16,16,"CLEAR,CLEAR,MOSTLY_CLEAR,NIGHT_MOSTLY_CLOUDY,NIGHT_MOSTLY_CLOUDY","Onshore,Onshore,Onshore,Cross-shore,Cross-shore",5
5842041f4e65fad6a77088dc,2024_03_12,33.50894790083017,-117.75243,Aliso Creek,2,0.688,0.994,15,15,"CLEAR,CLEAR,MOSTLY_CLEAR,NIGHT_MOSTLY_CLOUDY,NIGHT_CLEAR","Onshore,Onshore,Onshore,Cross-shore,Cross-shore",5
5842041f4e65fad6a77088dd,2024_03_12,33.5326591767067,-117.77764,Brooks Street,2,0.444,0.746,15,15,"CLEAR,CLEAR,MOSTLY_CLEAR,NIGHT_CLEAR,NIGHT_MIST","Onshore,Onshore,Onshore,Cross-shore,Cross-shore",5
5842041f4e65fad6a77088de,2024_03_12,33.53561225884637,-117.7799,Thalia Street,2,0.494,0.796,15,15,"CLEAR,CLEAR,MOSTLY_CLEAR,NIGHT_CLEAR,NIGHT_CLEAR","Onshore,Onshore,Onshore,Cross-shore,Cross-shore",5
5842041f4e65fad6a77088e3,2024_03_12,33.54268310353641,-117.7916,Rockpile,3,0.9359999999999999,1.116,15,15,"CLEAR,CLEAR,MOSTLY_CLEAR,NIGHT_CLEAR,NIGHT_MIST","Onshore,Onshore,Cross-shore,Cross-shore,Cross-shore",5
5842041f4e65fad6a77088e4,2024_03_12,33.7368459504689,-118.10342,"Seal Beach Pier, Southside",1,0.206,0.512,15,15,"CLEAR,CLEAR,CLEAR,NIGHT_MOSTLY_CLEAR,NIGHT_MOSTLY_CLEAR","Onshore,Onshore,Onshore,Onshore,Onshore",5
5842041f4e65fad6a77088e5,2024_03_12,33.73933701820233,-118.117,Ray Bay,1,0.212,0.516,15,15,"CLEAR,CLEAR,CLEAR,NIGHT_MOSTLY_CLEAR,NIGHT_CLEAR","Onshore,Onshore,Onshore,Onshore,Onshore",5
5842041f4e65fad6a77088e7,2024_03_12,33.728733,-118.08982,Surfside,2,0.846,1.078,15,15,"CLEAR,CLEAR,CLEAR,NIGHT_MOSTLY_CLEAR,NIGHT_MOSTLY_CLOUDY","Onshore,Onshore,Onshore,Onshore,Onshore",5
5842041f4e65fad6a77088e8,2024_03_12,33.68760321488161,-118.04236,Bolsa Chica State Beach,1.766,1.0470666666666666,1.3623666666666667,15,15,"CLEAR,CLEAR,CLEAR,NIGHT_CLEAR,NIGHT_MOSTLY_CLOUDY","Onshore,Onshore,Onshore,Onshore,Onshore",5
5842041f4e65fad6a77088ea,2024_03_12,33.66704400178788,-118.0192,North HB Streets,1.766,1.1089,1.4305999999999999,15,15,"CLEAR,CLEAR,CLEAR,NIGHT_CLEAR,NIGHT_CLEAR","Onshore,Onshore,Onshore,Onshore,Cross-shore",5
5842041f4e65fad6a77088ed,2024_03_12,33.65475101379567,-118.00291,Huntington Beach Pier Southside,2,1.1247,1.486,15,15,"CLEAR,CLEAR,CLEAR,NIGHT_MOSTLY_CLEAR,NIGHT_CLEAR","Onshore,Onshore,Onshore,Onshore,Onshore",5
5842041f4e65fad6a77088ee,2024_03_12,33.62778647706099,-117.95939,River Jetties,2,0.9797333333333333,1.3776,15,15,"CLEAR,CLEAR,MOSTLY_CLEAR,NIGHT_CLEAR,NIGHT_MOSTLY_CLOUDY","Onshore,Onshore,Onshore,Onshore,Onshore",5
5842041f4e65fad6a77088f2,2024_03_12,33.605165797643664,-117.92500376701355,Newport Point,2,0.718,1.022,15,15,"CLEAR,CLEAR,CLEAR,NIGHT_CLEAR,NIGHT_CLEAR","Onshore,Onshore,Cross-shore,Cross-shore,Cross-shore",5
5842041f4e65fad6a77088f3,2024_03_12,33.58982984726977,-117.87713,Corona del Mar,2,0.273854,0.427898,15,15,"CLEAR,CLEAR,MOSTLY_CLEAR,NIGHT_CLEAR,NIGHT_CLEAR","Onshore,Onshore,Onshore,Onshore,Onshore",5
5842041f4e65fad6a77088f7,2024_03_12,34.00750300824362,-118.4971783496269,Santa Monica Pier,2,0.406,0.71,15,15,"MOSTLY_CLEAR,CLEAR,CLEAR,NIGHT_CLEAR,NIGHT_CLEAR","Onshore,Onshore,Onshore,Onshore,Onshore",5
5842041f4e65fad6a77088ff,2024_03_12,33.94070283102945,-118.44321,Dockweiler Beach,1.6320000000000001,0.7883693333333334,1.1408333333333331,14,14,"CLEAR,CLEAR,CLEAR,NIGHT_MOSTLY_CLOUDY,NIGHT_CLEAR","Onshore,Onshore,Onshore,Onshore,Onshore",5
5842041f4e65fad6a7708900,2024_03_12,33.9231846937237,-118.4341465777908,Shitpipe,1.6320000000000001,0.7910666666666667,1.1678666666666666,14,14,"CLEAR,CLEAR,CLEAR,NIGHT_CLEAR,NIGHT_CLEAR","Onshore,Onshore,Onshore,Onshore,Onshore",5
5842041f4e65fad6a7708902,2024_03_12,33.9108528052242,-118.4279133138721,Hammerland,1.6320000000000001,1.0956,1.4143999999999999,14,14,"CLEAR,CLEAR,CLEAR,NIGHT_CLEAR,NIGHT_CLEAR","Onshore,Onshore,Onshore,Onshore,Onshore",5
5842041f4e65fad6a7708904,2024_03_12,33.87201368173932,-118.4075151286262,Hermosa Beach,1.6320000000000001,0.6864,0.9889333333333332,14,14,"CLEAR,CLEAR,MOSTLY_CLEAR,NIGHT_MOSTLY_CLOUDY,NIGHT_MOSTLY_CLEAR","Onshore,Onshore,Onshore,Onshore,Onshore",5
5842041f4e65fad6a7708906,2024_03_12,33.90129336911256,-118.42184,El Porto,1.6320000000000001,1.0989333333333333,1.4897333333333334,14,14,"CLEAR,CLEAR,CLEAR,NIGHT_MOSTLY_CLOUDY,NIGHT_CLEAR","Onshore,Onshore,Onshore,Onshore,Onshore",5
5842041f4e65fad6a7708907,2024_03_12,33.87963506431794,-118.41102,Manhattan Beach Pier,1.6320000000000001,1.1389333333333334,1.3694666666666666,14,14,"CLEAR,CLEAR,CLEAR,NIGHT_MOSTLY_CLOUDY,NIGHT_CLEAR","Onshore,Onshore,Onshore,Onshore,Onshore",5
5842041f4e65fad6a7708914,2024_03_12,34.038053387863464,-118.5532,Sunset Point,1.2,0.208,0.512,15,15,"CLEAR,CLEAR,CLEAR,NIGHT_CLEAR,NIGHT_CLEAR","Onshore,Onshore,Onshore,Onshore,Offshore",5
5842041f4e65fad6a7708920,2024_03_12,33.80930828074364,-118.3933198342649,Haggerty's,1,0.198,0.3792,15,15,"CLEAR,CLEAR,MOSTLY_CLEAR,NIGHT_MOSTLY_CLOUDY,NIGHT_MOSTLY_CLOUDY","Onshore,Onshore,Onshore,Onshore,Onshore",5
5842041f4e65fad6a7708921,2024_03_12,33.85044519861206,-118.40048,Redondo Breakwater,2.8,1.18,1.428,16,16,"CLEAR,CLEAR,MOSTLY_CLEAR,NIGHT_MOSTLY_CLOUDY,NIGHT_MOSTLY_CLEAR","Onshore,Onshore,Onshore,Onshore,Onshore",5
5842041f4e65fad6a7708927,2024_03_12,33.70877301002487,-118.2840112858389,Cabrillo Beach,2,0.08600000000000001,0.392,15,15,"CLEAR,CLEAR,CLEAR,NIGHT_MOSTLY_CLEAR,NIGHT_MOSTLY_CLOUDY","Cross-shore,Offshore,Offshore,Offshore,Offshore",5
5842041f4e65fad6a770892c,2024_03_12,33.77209986806257,-118.4268428476672,Lunada Bay,1.6,1.002,1.268,15,15,"MOSTLY_CLEAR,CLEAR,CLEAR,NIGHT_MOSTLY_CLOUDY,NIGHT_MOSTLY_CLOUDY","Onshore,Onshore,Onshore,Onshore,Onshore",5
5842041f4e65fad6a770892d,2024_03_12,33.79294656286144,-118.4070316699825,PV Cove,2,0.746018,1.000488,15,15,"CLEAR,CLEAR,MOSTLY_CLEAR,NIGHT_MOSTLY_CLOUDY,NIGHT_MOSTLY_CLOUDY","Onshore,Onshore,Onshore,Onshore,Onshore",5
5842041f4e65fad6a7708930,2024_03_12,34.03944902292561,-118.57539,Chart House,1,0.07,0.376,15,15,"MOSTLY_CLEAR,MOSTLY_CLEAR,MOSTLY_CLEAR,NIGHT_CLEAR,NIGHT_CLEAR","Cross-shore,Onshore,Onshore,Onshore,Offshore",5
5842041f4e65fad6a7708936,2024_03_12,34.0016731994772,-118.80456,Point Dume,2.534,0.5272,0.8348,15,15,"CLEAR,CLEAR,CLEAR,NIGHT_CLEAR,NIGHT_CLEAR","Cross-shore,Cross-shore,Cross-shore,Offshore,Offshore",5
5842041f4e65fad6a7708937,2024_03_12,34.02587527588963,-118.7554939066114,Latigo Point,2,0.34,0.648,15,15,"CLEAR,CLEAR,CLEAR,NIGHT_CLEAR,NIGHT_CLEAR","Cross-shore,Cross-shore,Offshore,Offshore,Offshore",5
5842041f4e65fad6a770893f,2024_03_12,34.043762,-118.93294,Leo Carrillo,1.766,0.6142000000000001,1.0381,15,15,"CLEAR,CLEAR,CLEAR,NIGHT_CLEAR,NIGHT_MOSTLY_CLEAR","Cross-shore,Cross-shore,Cross-shore,Offshore,Offshore",5
5842041f4e65fad6a7708941,2024_03_12,36.69388179265737,-121.81289,Marina State Beach,2,3.102,3.708,13,13,"MOSTLY_CLOUDY,MOSTLY_CLOUDY,BRIEF_SHOWERS,CLOUDY,NIGHT_MOSTLY_CLOUDY","Onshore,Onshore,Onshore,Onshore,Onshore",5
5842041f4e65fad6a7708944,2024_03_12,34.34145077331085,-119.416999352654,Stanley's,2,0.622,0.926,14,14,"CLEAR,CLEAR,MOSTLY_CLEAR,MOSTLY_CLEAR,NIGHT_CLOUDY","Onshore,Onshore,Onshore,Onshore,Onshore",5
5842041f4e65fad6a7708945,2024_03_12,34.35113017313915,-119.426921498899,Oil Piers,1.4,0.574,0.878,14,14,"CLEAR,CLEAR,MOSTLY_CLEAR,MOSTLY_CLEAR,NIGHT_CLEAR","Onshore,Onshore,Onshore,Onshore,Onshore",5
5842041f4e65fad6a770894c,2024_03_12,34.17876333306018,-119.2399483564372,Oxnard,2,1.036,1.318,14,14,"CLEAR,CLEAR,CLEAR,CLEAR,NIGHT_MOSTLY_CLOUDY","Onshore,Onshore,Onshore,Onshore,Onshore",5
5842041f4e65fad6a7708957,2024_03_12,34.31720331100517,-119.3882324751725,Pitas Point,1.4,0.62,0.928,14,14,"MIST,CLEAR,CLEAR,MOSTLY_CLEAR,NIGHT_OVERCAST","Onshore,Cross-shore,Cross-shore,Cross-shore,Cross-shore",5
5842041f4e65fad6a7708959,2024_03_12,34.27851754384724,-119.316202617226,Emma Wood,1,0.54,0.844,14,14,"MIST,MIST,MOSTLY_CLEAR,MOSTLY_CLEAR,NIGHT_CLEAR","Onshore,Onshore,Onshore,Onshore,Onshore",5
5842041f4e65fad6a770895a,2024_03_12,34.35513640390276,-119.4400589884255,Mussel Shoals (aka Little Rincon),2,0.862,1.096,14,14,"MIST,CLEAR,MOSTLY_CLEAR,CLEAR,NIGHT_CLEAR","Onshore,Cross-shore,Onshore,Onshore,Cross-shore",5
5842041f4e65fad6a770895e,2024_03_12,34.28991757054902,-119.3366646794652,Summer Beach,1.2,0.384,0.688,14,14,"MIST,MIST,MOSTLY_CLEAR,MOSTLY_CLEAR,NIGHT_MOSTLY_CLOUDY","Onshore,Onshore,Onshore,Onshore,Onshore",5
5842041f4e65fad6a770895f,2024_03_12,34.30897456105926,-119.3582501170116,Solimar,1.4,0.42,0.722,14,14,"MIST,CLEAR,CLEAR,MOSTLY_CLEAR,NIGHT_OVERCAST","Onshore,Cross-shore,Cross-shore,Onshore,Cross-shore",5
5842041f4e65fad6a7708960,2024_03_12,34.39836265281686,-119.70213,Leadbetter Point,1.6,0.112,0.422,14,14,"CLEAR,CLEAR,CLEAR,CLEAR,NIGHT_CLEAR","Offshore,Offshore,Offshore,Offshore,Offshore",5
5842041f4e65fad6a7708961,2024_03_12,34.46052293893899,-120.07328,Refugio,1,0.132,0.44,14,14,"CLEAR,CLEAR,CLEAR,CLEAR,NIGHT_CLEAR","Offshore,Offshore,Offshore,Offshore,Offshore",5
5842041f4e65fad6a7708962,2024_03_12,34.40754276777778,-119.87639,Devereux,2,0.59,0.894,14,14,"MIST,CLEAR,CLEAR,CLEAR,NIGHT_CLEAR","Cross-shore,Offshore,Offshore,Offshore,Offshore",5
5842041f4e65fad6a7708963,2024_03_12,34.27479983305182,-119.3133222656776,Ventura Overhead,1.2,0.59,0.894,14,14,"MIST,MIST,CLEAR,MOSTLY_CLEAR,NIGHT_CLEAR","Onshore,Onshore,Onshore,Onshore,Onshore",5
5842041f4e65fad6a7708964,2024_03_12,34.41023236011655,-119.88261,Sands,1.2,0.648,0.95,14,14,"MIST,CLEAR,CLEAR,CLEAR,NIGHT_CLEAR","Onshore,Onshore,Onshore,Cross-shore,Cross-shore",5
5842041f4e65fad6a7708966,2024_03_12,34.40450193869233,-119.68752,Sandspit,1,0,0.27,14,14,"CLEAR,CLEAR,MOSTLY_CLEAR,CLEAR,NIGHT_CLEAR","Offshore,Offshore,Offshore,Offshore,Offshore",5
5842041f4e65fad6a7708967,2024_03_12,34.41549098334453,-119.6375149840203,Hammond's,2,0.17,0.474,14,14,"CLEAR,CLEAR,MOSTLY_CLEAR,CLEAR,NIGHT_CLOUDY","Cross-shore,Cross-shore,Cross-shore,Offshore,Offshore",5
5842041f4e65fad6a7708968,2024_03_12,34.45759322742309,-120.0220251867315,El Capitan,1,0.246,0.548,14,14,"CLEAR,CLEAR,CLEAR,CLEAR,NIGHT_CLEAR","Offshore,Offshore,Offshore,Offshore,Offshore",5
5842041f4e65fad6a770896c,2024_03_12,34.405117655616,-119.84317,Campus Point,1.6,0.264,0.572,14,14,"CLEAR,CLEAR,CLEAR,CLEAR,NIGHT_CLEAR","Cross-shore,Cross-shore,Offshore,Offshore,Offshore",5
5842041f4e65fad6a770896e,2024_03_12,34.38935162233354,-119.51955,Carpinteria State Beach,2.2,0.9319999999999999,1.112,14,14,"MOSTLY_CLEAR,MOSTLY_CLEAR,MOSTLY_CLEAR,CLEAR,NIGHT_CLEAR","Onshore,Onshore,Onshore,Onshore,Offshore",5
5842041f4e65fad6a770896f,2024_03_12,37.48296565175612,-122.4549300127824,Half Moon Bay,2.6,2.2720000000000002,2.716,13,13,"OVERCAST,LIGHT_RAIN,LIGHT_RAIN,BRIEF_SHOWERS,NIGHT_BRIEF_SHOWERS","Onshore,Onshore,Onshore,Onshore,Onshore",5
5842041f4e65fad6a7708970,2024_03_12,37.499,-122.471,Princeton Jetty,3,2.404,2.874,13,13,"OVERCAST,OVERCAST,MIST,MIST,NIGHT_OVERCAST","Onshore,Onshore,Onshore,Onshore,Onshore",5
5842041f4e65fad6a7708972,2024_03_12,37.35699547365155,-122.4069534707252,Tunitas Creek,2,3.884,4.642,13,13,"DRIZZLE,OVERCAST,OVERCAST,MOSTLY_CLOUDY,NIGHT_BRIEF_SHOWERS","Onshore,Onshore,Onshore,Onshore,Onshore",5
5842041f4e65fad6a7708974,2024_03_12,37.54735589428842,-122.5161090212687,Montara,2,2.906,3.474,13,13,"CLOUDY,CLOUDY,MIST,MOSTLY_CLOUDY,NIGHT_MOSTLY_CLOUDY","Cross-shore,Cross-shore,Cross-shore,Cross-shore,Cross-shore",5
5842041f4e65fad6a7708975,2024_03_12,34.3869373724559,-119.5142334209018,Tarpits,1.2,0.702,1.008,14,14,"CLEAR,MOSTLY_CLEAR,MOSTLY_CLEAR,CLEAR,NIGHT_CLEAR","Cross-shore,Cross-shore,Cross-shore,Onshore,Cross-shore",5
5842041f4e65fad6a7708976,2024_03_12,37.59881852720143,-122.50463,Pacifica / Linda Mar,2.766,1.2078666666666669,1.7553666666666667,14,14,"MIST,MIST,CLOUDY,CLEAR,NIGHT_MOSTLY_CLOUDY","Onshore,Onshore,Onshore,Cross-shore,Cross-shore",5
5842041f4e65fad6a7708978,2024_03_12,37.59883098461164,-122.5143843582282,Pedro Point,3,2.876,3.44,13,13,"CLOUDY,OVERCAST,CLOUDY,CLEAR,NIGHT_MOSTLY_CLOUDY","Cross-shore,Cross-shore,Cross-shore,Cross-shore,Cross-shore",5
5842041f4e65fad6a7708979,2024_03_12,37.61081996647663,-122.4973287570634,Rockaway,2,2.874,3.434,13,13,"MIST,MIST,CLOUDY,CLEAR,NIGHT_MOSTLY_CLOUDY","Onshore,Onshore,Onshore,Onshore,Onshore",5
5842041f4e65fad6a770897a,2024_03_12,37.809987384424446,-122.4751353263855,Fort Point,2.8,1.822,2.18,13,13,"CLOUDY,OVERCAST,CLOUDY,CLEAR,NIGHT_MOSTLY_CLOUDY","Cross-shore,Cross-shore,Onshore,Onshore,Cross-shore",5
5842041f4e65fad6a770897c,2024_03_12,37.63422542967464,-122.4951,Sharp Park,2,3.098,3.702,13,13,"DRIZZLE,OVERCAST,CLOUDY,CLEAR,NIGHT_MOSTLY_CLOUDY","Onshore,Onshore,Onshore,Onshore,Onshore",5
5842041f4e65fad6a770897d,2024_03_12,37.27313605072472,-122.4127387912554,Pescadero,2.8,3.71,4.434,13,13,"CLOUDY,CLOUDY,CLOUDY,MOSTLY_CLOUDY,NIGHT_CLOUDY","Onshore,Onshore,Onshore,Cross-shore,Onshore",5
5842041f4e65fad6a770897e,2024_03_12,37.18140279972666,-122.3926685899327,Pigeon Point,3,3.632,4.342,13,13,"CLOUDY,CLOUDY,OVERCAST,MOSTLY_CLOUDY,NIGHT_MIST","Cross-shore,Cross-shore,Cross-shore,Onshore,Onshore",5
5842041f4e65fad6a770897f,2024_03_12,37.11578956919415,-122.314699271291,Ano Nuevo,4,2.918,3.49,13,13,"MOSTLY_CLOUDY,CLEAR,CLOUDY,MOSTLY_CLOUDY,NIGHT_DRIZZLE","Offshore,Offshore,Offshore,Cross-shore,Cross-shore",5
5842041f4e65fad6a7708980,2024_03_12,37.09520872681598,-122.2805474707768,Waddell Creek,3,2.916,3.4819999999999998,13,13,"MOSTLY_CLOUDY,CLOUDY,CLOUDY,CLEAR,NIGHT_CLEAR","Cross-shore,Cross-shore,Cross-shore,Onshore,Onshore",5
5842041f4e65fad6a7708981,2024_03_12,36.96512852130351,-122.1252825495626,Four Mile,3.8,3.29,3.932,13,13,"CLEAR,CLEAR,CLEAR,MOSTLY_CLOUDY,NIGHT_CLEAR","Offshore,Offshore,Offshore,Offshore,Offshore",5
5842041f4e65fad6a7708982,2024_03_12,37.04122807048655,-122.2333684729756,Scott Creek,3,2.9299999999999997,3.502,13,13,"CLEAR,CLOUDY,CLEAR,CLEAR,NIGHT_OVERCAST","Cross-shore,Cross-shore,Cross-shore,Cross-shore,Onshore",5
5842041f4e65fad6a7708983,2024_03_12,37.02350229387179,-122.21908,Davenport,3,3.202,3.824,13,13,"CLEAR,CLEAR,CLEAR,CLEAR,NIGHT_OVERCAST","Cross-shore,Cross-shore,Cross-shore,Cross-shore,Cross-shore",5
5842041f4e65fad6a7708986,2024_03_12,36.94905295955728,-122.0611823912244,Natural Bridges,3,2.59,3.096,13,13,"CLEAR,CLEAR,CLEAR,CLEAR,NIGHT_CLEAR","Cross-shore,Cross-shore,Cross-shore,Cross-shore,Cross-shore",5
5842041f4e65fad6a7708987,2024_03_12,36.95154854910425,-122.0420693940968,Mitchell's Cove,4,2.018,2.4099999999999997,13,13,"CLEAR,CLEAR,CLEAR,CLEAR,NIGHT_CLEAR","Cross-shore,Cross-shore,Cross-shore,Cross-shore,Cross-shore",5
5842041f4e65fad6a770898a,2024_03_12,36.9572312370203,-121.98177,26th Ave,3,2.414,2.884,13,13,"CLEAR,CLEAR,CLEAR,CLEAR,NIGHT_CLEAR","Onshore,Onshore,Onshore,Onshore,Onshore",5
5842041f4e65fad6a770898e,2024_03_12,36.91899972819882,-121.85536,Manresa,2,2.632,3.144,13,13,"CLEAR,CLEAR,CLEAR,CLEAR,NIGHT_CLEAR","Onshore,Onshore,Onshore,Onshore,Onshore",5
5842041f4e65fad6a7708990,2024_03_12,34.45747731928454,-120.34242,The Ranch,3,1.022,1.306,13,13,"CLEAR,CLEAR,CLEAR,CLEAR,NIGHT_CLEAR","Offshore,Offshore,Offshore,Offshore,Offshore",5
5842041f4e65fad6a7708991,2024_03_12,34.50875036590315,-120.50348,Jalama,2.6,1.86,2.22,13,13,"CLEAR,CLEAR,CLEAR,CLEAR,NIGHT_CLEAR","Cross-shore,Cross-shore,Cross-shore,Cross-shore,Cross-shore",5
5842041f4e65fad6a7708996,2024_03_12,34.68700870220497,-120.6111611019887,Surf Beach,1.8,4.76,5.688,13,13,"CLEAR,MOSTLY_CLOUDY,MOSTLY_CLOUDY,CLOUDY,NIGHT_CLOUDY","Onshore,Onshore,Onshore,Onshore,Onshore",5
5842041f4e65fad6a770899c,2024_03_12,35.5730538161116,-121.1143362345574,Moonstone,3,3.556,4.246,13,13,"CLEAR,CLEAR,CLEAR,CLEAR,NIGHT_CLEAR","Onshore,Onshore,Onshore,Onshore,Cross-shore",5
5842041f4e65fad6a770899d,2024_03_12,35.61533716776573,-121.1502053073914,Pico Creek,3,2.468,2.948,13,13,"CLEAR,CLEAR,CLEAR,CLEAR,NIGHT_CLOUDY","Onshore,Onshore,Onshore,Onshore,Cross-shore",5
5842041f4e65fad6a770899e,2024_03_12,35.56829031927379,-121.1120653023953,Santa Rosa Creek,2.4,3.556,4.246,13,13,"CLEAR,CLEAR,CLEAR,MIST,NIGHT_CLEAR","Cross-shore,Cross-shore,Cross-shore,Cross-shore,Cross-shore",5
5842041f4e65fad6a77089a2,2024_03_12,35.44820114936284,-120.90715,"Cayucos Pier, Southside ",3,1.718,2.052,13,13,"MOSTLY_CLOUDY,CLEAR,CLEAR,MIST,NIGHT_CLEAR","Cross-shore,Cross-shore,Cross-shore,Cross-shore,Cross-shore",5
5842041f4e65fad6a77089a4,2024_03_12,35.30143372628852,-120.877819239902,Cable Landing,2,4.7780000000000005,5.708,13,13,"MOSTLY_CLOUDY,MOSTLY_CLOUDY,CLEAR,CLOUDY,NIGHT_MOSTLY_CLEAR","Onshore,Onshore,Onshore,Onshore,Onshore",5
5842041f4e65fad6a77089a9,2024_03_12,35.61269103500222,-121.1480725356606,San Simeon,3,1.7178,2.0538,13,13,"CLEAR,CLEAR,CLEAR,CLEAR,NIGHT_CLEAR","Cross-shore,Cross-shore,Cross-shore,Cross-shore,Cross-shore",5
5842041f4e65fad6a77089ab,2024_03_12,35.1775325966252,-120.7341125142258,Avila Beach,2,0.218,0.522,14,14,"CLEAR,MOSTLY_CLOUDY,CLEAR,CLEAR,NIGHT_CLEAR","Cross-shore,Cross-shore,Cross-shore,Cross-shore,Offshore",5
5842041f4e65fad6a77089ac,2024_03_12,35.13877877884115,-120.64535,Pismo Beach Pier,2.766,1.8638333333333335,2.4131,14,14,"CLEAR,MOSTLY_CLOUDY,CLEAR,MOSTLY_CLOUDY,NIGHT_MIST","Cross-shore,Cross-shore,Cross-shore,Cross-shore,Cross-shore",5
5842041f4e65fad6a77089ad,2024_03_12,46.8907710233147,-124.12964,Westport/Olympic Peninsula,0.4,3.344,3.9979999999999998,9,9,"RAIN,LIGHT_RAIN,DRIZZLE,DRIZZLE,NIGHT_OVERCAST","Cross-shore,Cross-shore,Cross-shore,Onshore,Onshore",5
5842041f4e65fad6a77089ae,2024_03_12,46.35185177248545,-124.06747,Long Beach Peninsula,0,4.09,4.888,9,9,"RAIN,RAIN,LIGHT_RAIN,MOSTLY_CLOUDY,NIGHT_OVERCAST","Cross-shore,Cross-shore,Cross-shore,Onshore,Onshore",5
5842041f4e65fad6a77089af,2024_03_12,47.90649175554033,-124.6370864743483,La Push,0,3.166,3.786,9,9,"RAIN,RAIN,LIGHT_RAIN,SHOWERS,NIGHT_OVERCAST","Cross-shore,Onshore,Cross-shore,Onshore,Onshore",5
5842041f4e65fad6a77089b0,2024_03_12,42.04368239985442,-124.26828,Brookings Jetty,0,1.469022,2.295348,11,11,"RAIN,RAIN,DRIZZLE,DRIZZLE,NIGHT_OVERCAST","Onshore,Onshore,Onshore,Onshore,Onshore",5
5842041f4e65fad6a77089b1,2024_03_12,42.74071837900346,-124.4983727491047,Port Orford,0,3.778,4.164,10,10,"RAIN,SHOWERS,BRIEF_SHOWERS,CLEAR,NIGHT_RAIN","Onshore,Onshore,Onshore,Onshore,Onshore",5
5842041f4e65fad6a77089b2,2024_03_12,44.01532689312291,-124.13865,Florence South Jetty,0,4.178,4.99,10,10,"LIGHT_RAIN,LIGHT_RAIN,DRIZZLE,DRIZZLE,NIGHT_DRIZZLE","Cross-shore,Cross-shore,Cross-shore,Onshore,Onshore",5
5842041f4e65fad6a77089b3,2024_03_12,42.41812540774362,-124.42945,Gold Beach South Jetty,0,3.572,4.268,11,11,"RAIN,DRIZZLE,BRIEF_SHOWERS,BRIEF_SHOWERS,NIGHT_BRIEF_SHOWERS","Onshore,Onshore,Onshore,Onshore,Onshore",5
5842041f4e65fad6a77089b4,2024_03_12,44.95857310226525,-124.0219017690976,Lincoln City,0.2,3.97,4.7459999999999996,10,10,"RAIN,RAIN,LIGHT_RAIN,SHOWERS,NIGHT_MOSTLY_CLOUDY","Cross-shore,Cross-shore,Cross-shore,Cross-shore,Onshore",5
5842041f4e65fad6a77089b5,2024_03_12,44.63792761362982,-124.0657,Newport,0,4.368,5.22,10,10,"LIGHT_RAIN,LIGHT_RAIN,DRIZZLE,RAIN,NIGHT_BRIEF_SHOWERS","Cross-shore,Cross-shore,Cross-shore,Onshore,Onshore",5
5842041f4e65fad6a77089b6,2024_03_12,45.61468496266301,-123.94643,Rockaway Beach,1,4.078,4.872,9,9,"LIGHT_RAIN,LIGHT_RAIN,LIGHT_RAIN,MOSTLY_CLOUDY,NIGHT_CLEAR","Cross-shore,Cross-shore,Cross-shore,Cross-shore,Onshore",5
5842041f4e65fad6a77089b7,2024_03_12,45.20252914186085,-123.96975,Pacific City,0,3.9899999999999998,4.7700000000000005,10,10,"LIGHT_RAIN,LIGHT_RAIN,DRIZZLE,RAIN,NIGHT_MOSTLY_CLOUDY","Cross-shore,Onshore,Onshore,Onshore,Onshore",5
5842041f4e65fad6a77089b8,2024_03_12,45.88179930310263,-123.96681,Cannon Beach,0,4.056,4.848,9,9,"LIGHT_RAIN,OVERCAST,LIGHT_RAIN,SHOWERS,NIGHT_BRIEF_SHOWERS","Cross-shore,Cross-shore,Cross-shore,Onshore,Onshore",5
5842041f4e65fad6a77089ba,2024_03_12,40.02528754746774,-124.06372,Shelter Cove,1,1.041352,1.627114,12,12,"RAIN,LIGHT_RAIN,LIGHT_RAIN,RAIN,NIGHT_RAIN","Onshore,Onshore,Onshore,Onshore,Onshore",5
5842041f4e65fad6a77089bb,2024_03_12,40.76816197136951,-124.24248,Humboldt Harbor Entrance,0.2,3.744,4.4719999999999995,11,11,"LIGHT_RAIN,LIGHT_RAIN,LIGHT_RAIN,LIGHT_RAIN,NIGHT_LIGHT_RAIN","Cross-shore,Cross-shore,Cross-shore,Cross-shore,Cross-shore",5
5842041f4e65fad6a77089bc,2024_03_12,40.76684246920174,-124.23107,North Jetty,2,4.036,4.824,11,11,"LIGHT_RAIN,LIGHT_RAIN,LIGHT_RAIN,LIGHT_RAIN,NIGHT_CLEAR","Cross-shore,Cross-shore,Offshore,Offshore,Offshore",5
5842041f4e65fad6a77089bd,2024_03_12,41.02731183893966,-124.1149972888982,Westhaven,1,5.15,6.156,11,11,"LIGHT_RAIN,LIGHT_RAIN,DRIZZLE,OVERCAST,NIGHT_LIGHT_RAIN","Cross-shore,Cross-shore,Cross-shore,Cross-shore,Cross-shore",5
5842041f4e65fad6a77089be,2024_03_12,41.13016238153297,-124.16466,Sue-meg,2,3.308,3.954,11,11,"LIGHT_RAIN,LIGHT_RAIN,LIGHT_RAIN,OVERCAST,NIGHT_OVERCAST","Offshore,Offshore,Offshore,Offshore,Offshore",5
5842041f4e65fad6a77089bf,2024_03_12,37.8289474958188,-122.5376795097543,Fort Cronkite/Rodeo Beach,2,3.58,4.282,13,13,"CLOUDY,CLEAR,MOSTLY_CLOUDY,MOSTLY_CLOUDY,NIGHT_MOSTLY_CLOUDY","Onshore,Onshore,Onshore,Onshore,Onshore",5
5842041f4e65fad6a77089c0,2024_03_12,41.74415759876137,-124.17717,South Beach CA,1,2.43,2.886,11,11,"RAIN,LIGHT_RAIN,LIGHT_RAIN,OVERCAST,NIGHT_OVERCAST","Onshore,Onshore,Onshore,Onshore,Onshore",5
5842041f4e65fad6a77089c1,2024_03_12,37.89801283969752,-122.64519,Stinson Beach,3,1.016,1.214,13,13,"MIST,MIST,MIST,MIST,NIGHT_MIST","Offshore,Offshore,Offshore,Offshore,Offshore",5
5842041f4e65fad6a77089c2,2024_03_12,37.90514516176495,-122.68151,Bolinas,3.2,0.796908,1.245168,13,13,"OVERCAST,OVERCAST,MIST,MIST,NIGHT_MOSTLY_CLOUDY","Offshore,Offshore,Offshore,Offshore,Offshore",5
5842041f4e65fad6a77089c3,2024_03_12,38.04892513158693,-122.9892494965416,Point Reyes (north),2,4.516,5.398,13,13,"CLOUDY,CLOUDY,MOSTLY_CLOUDY,MOSTLY_CLOUDY,NIGHT_DRIZZLE","Cross-shore,Cross-shore,Cross-shore,Cross-shore,Offshore",5
5842041f4e65fad6a77089c6,2024_03_12,38.31088736605785,-123.0496777333731,Doran Beach,3,1.158,1.426,12,12,"DRIZZLE,OVERCAST,BRIEF_SHOWERS,OVERCAST,NIGHT_MOSTLY_CLOUDY","Cross-shore,Cross-shore,Onshore,Onshore,Onshore",5
5842041f4e65fad6a77089c7,2024_03_12,38.45077228660809,-123.13008,Russian Rivermouth,2,3.428,4.098,12,12,"MIST,OVERCAST,BRIEF_SHOWERS,LIGHT_RAIN,NIGHT_BRIEF_SHOWERS","Onshore,Onshore,Onshore,Onshore,Onshore",5
5842041f4e65fad6a77089c8,2024_03_12,38.35329968518107,-123.06906,Salmon Creek,2,3.314,3.96,12,12,"MIST,CLEAR,MOSTLY_CLOUDY,OVERCAST,NIGHT_MOSTLY_CLOUDY","Onshore,Onshore,Onshore,Onshore,Cross-shore",5
5842041f4e65fad6a77089c9,2024_03_12,38.6845180197959,-123.4322714291198,Black Point Beach,4,2.452,2.928,12,12,"CLOUDY,CLOUDY,DRIZZLE,OVERCAST,NIGHT_LIGHT_RAIN","Cross-shore,Cross-shore,Cross-shore,Offshore,Offshore",5
5842041f4e65fad6a77089ca,2024_03_12,43.251076,-70.59144,Ogunquit,2,0.4232,0.7816,4,3,"NIGHT_CLEAR,NIGHT_CLEAR,NIGHT_CLEAR,NIGHT_CLEAR,NIGHT_CLEAR","Offshore,Offshore,Offshore,Offshore,Offshore",5
5842041f4e65fad6a77089cb,2024_03_12,41.362631366305415,-71.48006772942608,Point Judith,1.534,0.06026666666666668,0.3538666666666667,6,4,"NIGHT_CLEAR,NIGHT_CLEAR,NIGHT_CLEAR,NIGHT_CLEAR,NIGHT_CLEAR","Offshore,Offshore,Offshore,Offshore,Offshore",5
5842041f4e65fad6a77089cd,2024_03_12,41.422678090954726,-71.45413,Monahan's - Narragansett,1,0.214012,0.334396,5,5,"NIGHT_CLEAR,NIGHT_CLEAR,NIGHT_CLEAR,NIGHT_CLEAR,NIGHT_CLEAR","Offshore,Offshore,Offshore,Offshore,Offshore",5
5842041f4e65fad6a77089ce,2024_03_12,41.469,-71.293,Ruggles - Newport,0.4,0.262414,0.410024,5,5,"NIGHT_CLEAR,NIGHT_CLEAR,NIGHT_CLEAR,NIGHT_CLEAR,NIGHT_CLEAR","Offshore,Offshore,Offshore,Offshore,Offshore",5
5842041f4e65fad6a77089cf,2024_03_12,43.175394,-70.606351,Short Sands Beach,1,0.494,0.8,5,5,"NIGHT_CLEAR,NIGHT_CLEAR,NIGHT_CLEAR,NIGHT_CLEAR,NIGHT_CLEAR","Offshore,Offshore,Offshore,Offshore,Offshore",5
5842041f4e65fad6a77089d0,2024_03_12,41.487408,-71.29017,First Beach,1,0.018000000000000002,0.318,5,5,"NIGHT_CLEAR,NIGHT_CLEAR,NIGHT_CLEAR,NIGHT_CLEAR,NIGHT_CLEAR","Offshore,Offshore,Offshore,Offshore,Offshore",5
5842041f4e65fad6a77089d1,2024_03_12,42.27916830233153,-70.86498,Nantasket Beach,0,0.2416,0.5512,4,3,"NIGHT_CLEAR,NIGHT_CLEAR,NIGHT_CLEAR,NIGHT_CLEAR,NIGHT_CLEAR","Cross-shore,Cross-shore,Cross-shore,Cross-shore,Cross-shore",5
5842041f4e65fad6a77089d2,2024_03_12,41.817,-69.935,Cape Cod,1.4,0.952,1.254,5,5,"NIGHT_CLEAR,NIGHT_CLEAR,NIGHT_CLEAR,NIGHT_CLEAR,NIGHT_CLEAR","Offshore,Offshore,Offshore,Offshore,Offshore",5
5842041f4e65fad6a77089d3,2024_03_12,42.22055448975661,-70.70634873403819,Egypt Beach,1,0.39999999999999997,0.706,5,5,"NIGHT_CLEAR,NIGHT_CLEAR,NIGHT_CLEAR,NIGHT_CLEAR,NIGHT_CLEAR","Offshore,Offshore,Offshore,Offshore,Offshore",5
5842041f4e65fad6a77089d4,2024_03_12,41.48739647744607,-71.25723,Second Beach,0.6,0.235788,0.41287066666666666,6,4,"NIGHT_CLEAR,NIGHT_CLEAR,NIGHT_CLEAR,NIGHT_CLEAR,NIGHT_CLEAR","Cross-shore,Cross-shore,Cross-shore,Cross-shore,Cross-shore",5
5842041f4e65fad6a77089d5,2024_03_12,42.964,-70.769,Fox Hill,2,0.3532,0.7008,4,3,"NIGHT_CLEAR,NIGHT_CLEAR,NIGHT_CLEAR,NIGHT_CLEAR,NIGHT_CLEAR","Offshore,Offshore,Offshore,Offshore,Offshore",5
5842041f4e65fad6a77089d6,2024_03_12,42.991359,-70.75149,Straws Point,1.8,0.37653333333333333,0.6768,4,3,"NIGHT_CLEAR,NIGHT_CLEAR,NIGHT_CLEAR,NIGHT_CLEAR,NIGHT_CLEAR","Offshore,Offshore,Offshore,Offshore,Offshore",5
5842041f4e65fad6a77089d7,2024_03_12,42.946,-70.786,Plaice Cove,2,0.3532,0.6988,4,3,"NIGHT_CLEAR,NIGHT_CLEAR,NIGHT_CLEAR,NIGHT_CLEAR,NIGHT_CLEAR","Offshore,Offshore,Offshore,Offshore,Offshore",5
5842041f4e65fad6a77089d9,2024_03_12,42.911574,-70.80831,The Main Beach,2.534,0.516215,0.8113475,4,3,"NIGHT_CLEAR,NIGHT_CLEAR,NIGHT_CLEAR,NIGHT_CLEAR,NIGHT_CLEAR","Offshore,Offshore,Offshore,Offshore,Offshore",5
5842041f4e65fad6a77089da,2024_03_12,42.97583846220203,-70.764,Sawyer's Beach,1.4,0.2872,0.5894666666666667,4,3,"NIGHT_CLEAR,NIGHT_CLEAR,NIGHT_CLEAR,NIGHT_CLEAR,NIGHT_CLEAR","Offshore,Offshore,Offshore,Offshore,Offshore",5
5842041f4e65fad6a77089db,2024_03_12,42.97,-70.77,Rye on the Rocks / 5-0's,2.534,0.5042735,0.8090735,4,3,"NIGHT_CLEAR,NIGHT_CLEAR,NIGHT_CLEAR,NIGHT_CLEAR,NIGHT_CLEAR","Offshore,Offshore,Offshore,Offshore,Offshore",5
5842041f4e65fad6a77089dc,2024_03_12,43.55902946610303,-70.27795,Higgins Beach,2.5,0.4172,0.7248333333333333,4,3,"NIGHT_CLEAR,NIGHT_CLEAR,NIGHT_CLEAR,NIGHT_CLEAR,NIGHT_CLEAR","Offshore,Offshore,Offshore,Offshore,Offshore",5
5842041f4e65fad6a77089dd,2024_03_12,43.302676,-70.5652,Wells Beach,2,0.41586666666666666,0.7669333333333334,4,3,"NIGHT_CLEAR,NIGHT_CLEAR,NIGHT_CLEAR,NIGHT_CLEAR,NIGHT_CLEAR","Offshore,Offshore,Offshore,Offshore,Offshore",5
5842041f4e65fad6a77089de,2024_03_12,43.545359,-70.30479,Scarborough Beach State Park,2,0.569492,0.9279333333333334,4,3,"NIGHT_CLEAR,NIGHT_CLEAR,NIGHT_CLEAR,NIGHT_CLEAR,NIGHT_CLEAR","Offshore,Offshore,Offshore,Offshore,Offshore",5
5842041f4e65fad6a77089df,2024_03_12,43.514481,-70.372146,Old Orchard Beach,2.5,0.43520000000000003,0.7348333333333333,4,3,"NIGHT_CLEAR,NIGHT_CLEAR,NIGHT_CLEAR,NIGHT_CLEAR,NIGHT_CLEAR","Offshore,Offshore,Offshore,Offshore,Offshore",5
5842041f4e65fad6a77089e0,2024_03_12,43.34711,-70.48165,Gooch's Beach,1,0.43279999999999996,0.7390666666666666,4,3,"NIGHT_CLEAR,NIGHT_CLEAR,NIGHT_CLEAR,NIGHT_CLEAR,NIGHT_CLEAR","Offshore,Offshore,Offshore,Offshore,Offshore",5
5842041f4e65fad6a77089e2,2024_03_12,40.58433,-73.62953,Lido Beach,0.2,-0.016000000000000007,0.28626666666666667,7,6,"NIGHT_CLEAR,NIGHT_CLEAR,NIGHT_CLEAR,NIGHT_CLEAR,NIGHT_CLEAR","Cross-shore,Cross-shore,Cross-shore,Cross-shore,Cross-shore",5
5842041f4e65fad6a77089e3,2024_03_12,43.163135,-70.61689,Long Sands Beach,2.534,0.456969,0.7616250000000001,4,3,"NIGHT_CLEAR,NIGHT_CLEAR,NIGHT_CLEAR,NIGHT_CLEAR,NIGHT_CLEAR","Offshore,Offshore,Offshore,Offshore,Offshore",5
5842041f4e65fad6a77089e4,2024_03_12,40.61695351251805,-73.39376,Gilgo Beach,0,0.03666666666666666,0.34426666666666667,5,4,"NIGHT_CLEAR,NIGHT_CLEAR,NIGHT_CLEAR,NIGHT_CLEAR,NIGHT_CLEAR","Cross-shore,Cross-shore,Cross-shore,Cross-shore,Cross-shore",5
5842041f4e65fad6a77089e5,2024_03_12,40.62530081928036,-73.23827,Robert Moses,0,0.17200000000000001,0.476,6,6,"NIGHT_CLEAR,NIGHT_CLEAR,NIGHT_CLEAR,NIGHT_CLEAR,NIGHT_CLEAR","Cross-shore,Cross-shore,Cross-shore,Cross-shore,Cross-shore",5
5842041f4e65fad6a77089e6,2024_03_12,40.64313317632791,-73.15727,Fire Island,0,0.126,0.432,6,6,"NIGHT_CLEAR,NIGHT_CLEAR,NIGHT_CLEAR,NIGHT_CLEAR,NIGHT_CLEAR","Cross-shore,Cross-shore,Cross-shore,Cross-shore,Cross-shore",5
5842041f4e65fad6a77089e8,2024_03_12,40.76653118828782,-72.74579619372713,Cupsogue,1,0.386,0.69,6,6,"NIGHT_CLEAR,NIGHT_CLEAR,NIGHT_CLEAR,NIGHT_CLEAR,NIGHT_CLEAR","Cross-shore,Cross-shore,Cross-shore,Cross-shore,Cross-shore",5
5842041f4e65fad6a77089e9,2024_03_12,42.9376373334092,-70.79141,The Wall ,2.168,0.5237336666666667,0.8230981666666667,4,3,"NIGHT_CLEAR,NIGHT_CLEAR,NIGHT_CLEAR,NIGHT_CLEAR,NIGHT_CLEAR","Offshore,Offshore,Offshore,Offshore,Offshore",5
5842041f4e65fad6a77089ea,2024_03_12,40.887088,-72.33856,Flys,1,0.314,0.618,6,6,"NIGHT_CLEAR,NIGHT_CLEAR,NIGHT_CLEAR,NIGHT_CLEAR,NIGHT_CLEAR","Cross-shore,Cross-shore,Cross-shore,Cross-shore,Cross-shore",5
5842041f4e65fad6a77089eb,2024_03_12,41.0389266436591,-71.91068529316958,Trailer Park,1,0.37450333333333335,0.6371813333333334,5,4,"NIGHT_CLEAR,NIGHT_CLEAR,NIGHT_CLEAR,NIGHT_CLEAR,NIGHT_CLEAR","Offshore,Offshore,Offshore,Offshore,Cross-shore",5
5842041f4e65fad6a77089ec,2024_03_12,41.039505402729105,-71.9142,Ditch Plains,0.2,0.319548,0.49929,6,6,"NIGHT_CLEAR,NIGHT_CLEAR,NIGHT_CLEAR,NIGHT_CLEAR,NIGHT_CLEAR","Offshore,Offshore,Offshore,Offshore,Offshore",5
5842041f4e65fad6a77089ee,2024_03_12,40.57633275206492,-73.56895305108567,"West End, Jones Beach",0,0.07133333333333336,0.37359999999999993,7,6,"NIGHT_CLEAR,NIGHT_CLEAR,NIGHT_CLEAR,NIGHT_CLEAR,NIGHT_CLEAR","Cross-shore,Cross-shore,Cross-shore,Cross-shore,Cross-shore",5
5842041f4e65fad6a77089f1,2024_03_12,41.038286691230795,-71.91991567611694,Poles,0,0.3730966666666667,0.5939126666666666,5,4,"NIGHT_CLEAR,NIGHT_CLEAR,NIGHT_CLEAR,NIGHT_CLEAR,NIGHT_CLEAR","Offshore,Offshore,Offshore,Offshore,Cross-shore",5
5842041f4e65fad6a77089f3,2024_03_12,40.84077769766295,-72.47989493724765,The Bowl,1,0.41,0.716,6,6,"NIGHT_CLEAR,NIGHT_CLEAR,NIGHT_CLEAR,NIGHT_CLEAR,NIGHT_CLEAR","Cross-shore,Cross-shore,Cross-shore,Cross-shore,Cross-shore",5
5842041f4e65fad6a77089f4,2024_03_12,40.94235535243154,-72.19286,Main Beach,0.6,0.2456,0.5552,13,12,"NIGHT_CLEAR,NIGHT_CLEAR,NIGHT_CLEAR,NIGHT_CLEAR,NIGHT_CLEAR","Cross-shore,Cross-shore,Cross-shore,Cross-shore,Cross-shore",5
5842041f4e65fad6a77089f5,2024_03_12,40.58270702399518,-73.67251552079799,Laurelton Blvd.,1,0.25609933333333335,0.46916,7,6,"NIGHT_CLEAR,NIGHT_CLEAR,NIGHT_CLEAR,NIGHT_CLEAR,NIGHT_CLEAR","Onshore,Onshore,Onshore,Onshore,Cross-shore",5
5842041f4e65fad6a77089f6,2024_03_12,41.033752854071416,-71.93695522488403,Terrace,0,0.19093333333333334,0.4965333333333333,5,4,"NIGHT_CLEAR,NIGHT_CLEAR,NIGHT_CLEAR,NIGHT_CLEAR,NIGHT_CLEAR","Offshore,Offshore,Offshore,Offshore,Cross-shore",5
5842041f4e65fad6a77089f7,2024_03_12,40.83372943645748,-72.50426173210144,K Road,1,0.47400000000000003,0.778,6,6,"NIGHT_CLEAR,NIGHT_CLEAR,NIGHT_CLEAR,NIGHT_CLEAR,NIGHT_CLEAR","Offshore,Offshore,Offshore,Offshore,Offshore",5
5842041f4e65fad6a77089f8,2024_03_12,40.58456099581507,-73.80730032920837,84th Street,0.5,-0.036666666666666674,0.2136,7,6,"NIGHT_CLEAR,NIGHT_CLEAR,NIGHT_CLEAR,NIGHT_CLEAR,NIGHT_CLEAR","Cross-shore,Cross-shore,Cross-shore,Cross-shore,Cross-shore",5
5842041f4e65fad6a77089fa,2024_03_12,40.1319,-74.02788,Sea Girt,1,-0.043333333333333335,0.23226666666666668,7,6,"NIGHT_CLEAR,NIGHT_CLEAR,NIGHT_CLEAR,NIGHT_CLEAR,NIGHT_CLEAR","Offshore,Offshore,Offshore,Offshore,Offshore",5
5842041f4e65fad6a77089fb,2024_03_12,40.54698301868125,-73.9268,Breezy Point,0,0,0.274,7,7,"NIGHT_CLEAR,NIGHT_CLEAR,NIGHT_CLEAR,NIGHT_CLEAR,NIGHT_CLEAR","Cross-shore,Cross-shore,Cross-shore,Cross-shore,Cross-shore",5
5842041f4e65fad6a77089fc,2024_03_12,40.152504,-74.021383,Spring Lake,1,-0.04466666666666667,0.2436,7,6,"NIGHT_CLEAR,NIGHT_CLEAR,NIGHT_CLEAR,NIGHT_CLEAR,NIGHT_CLEAR","Offshore,Offshore,Offshore,Offshore,Offshore",5
5842041f4e65fad6a77089fd,2024_03_12,40.591277,-73.770792,30th - 39th Streets,1,-0.01666666666666667,0.20093333333333335,7,6,"NIGHT_CLEAR,NIGHT_CLEAR,NIGHT_CLEAR,NIGHT_CLEAR,NIGHT_CLEAR","Cross-shore,Cross-shore,Cross-shore,Cross-shore,Cross-shore",5
5842041f4e65fad6a77089fe,2024_03_12,40.18834955871439,-74.00860982500222,Avon,1,-0.04133333333333333,0.25693333333333335,7,6,"NIGHT_CLEAR,NIGHT_CLEAR,NIGHT_CLEAR,NIGHT_CLEAR,NIGHT_CLEAR","Offshore,Offshore,Offshore,Offshore,Offshore",5
5842041f4e65fad6a77089ff,2024_03_12,40.1974229100932,-74.00650533798255,Bradley Beach,1,-0.04133333333333333,0.2482666666666667,7,6,"NIGHT_CLEAR,NIGHT_CLEAR,NIGHT_CLEAR,NIGHT_CLEAR,NIGHT_CLEAR","Offshore,Offshore,Offshore,Offshore,Offshore",5
5842041f4e65fad6a7708a01,2024_03_12,40.17202,-74.01503,"16th Ave., Belmar",1,-0.023333333333333334,0.22693333333333335,7,6,"NIGHT_CLEAR,NIGHT_CLEAR,NIGHT_CLEAR,NIGHT_CLEAR,NIGHT_CLEAR","Offshore,Offshore,Offshore,Offshore,Offshore",5
5842041f4e65fad6a7708a02,2024_03_12,40.217443,-73.99982,Asbury Park,1,-0.04466666666666667,0.24093333333333333,7,6,"NIGHT_CLEAR,NIGHT_CLEAR,NIGHT_CLEAR,NIGHT_CLEAR,NIGHT_CLEAR","Offshore,Offshore,Offshore,Offshore,Offshore",5
5842041f4e65fad6a7708a03,2024_03_12,40.229841,-73.996782,Loch Arbour and Deal,1,-0.04,0.22760000000000002,7,6,"NIGHT_CLEAR,NIGHT_CLEAR,NIGHT_CLEAR,NIGHT_CLEAR,NIGHT_CLEAR","Offshore,Offshore,Offshore,Offshore,Offshore",5
5842041f4e65fad6a7708a05,2024_03_12,40.41754,-73.97935,Sandy Hook,0,0,0.10400000000000001,7,7,"NIGHT_CLEAR,NIGHT_CLEAR,NIGHT_CLEAR,NIGHT_CLEAR,NIGHT_CLEAR","Offshore,Offshore,Offshore,Offshore,Offshore",5
5842041f4e65fad6a7708a06,2024_03_12,39.36353,-74.40873,Crystals,0.2,0.12405933333333333,0.295444,8,6,"NIGHT_CLEAR,NIGHT_CLEAR,NIGHT_CLEAR,NIGHT_CLEAR,NIGHT_CLEAR","Offshore,Offshore,Offshore,Offshore,Offshore",5
5842041f4e65fad6a7708a07,2024_03_12,39.31443,-74.51863,32nd Street,1.534,0.14602466666666666,0.32976066666666665,8,6,"NIGHT_CLEAR,NIGHT_CLEAR,NIGHT_CLEAR,NIGHT_CLEAR,NIGHT_CLEAR","Offshore,Offshore,Offshore,Offshore,Offshore",5
5842041f4e65fad6a7708a08,2024_03_12,39.327688,-74.49524,Margate Pier Northside,1.534,0.14602466666666666,0.32976066666666665,8,6,"NIGHT_CLEAR,NIGHT_CLEAR,NIGHT_CLEAR,NIGHT_CLEAR,NIGHT_CLEAR","Offshore,Offshore,Offshore,Offshore,Offshore",5
5842041f4e65fad6a7708a09,2024_03_12,39.336276,-74.47782,Ventnor Pier,0.6,0.13977533333333333,0.32,8,6,"NIGHT_CLEAR,NIGHT_CLEAR,NIGHT_CLEAR,NIGHT_CLEAR,NIGHT_CLEAR","Offshore,Offshore,Offshore,Offshore,Offshore",5
5842041f4e65fad6a7708a0a,2024_03_12,39.35929751441085,-74.41683,States Avenue,0.2,0.12405933333333333,0.295444,8,6,"NIGHT_CLEAR,NIGHT_CLEAR,NIGHT_CLEAR,NIGHT_CLEAR,NIGHT_CLEAR","Offshore,Offshore,Offshore,Offshore,Offshore",5
5842041f4e65fad6a7708a0b,2024_03_12,39.37274173278517,-74.40454,Brigantine Jetty,0,0.09737933333333332,0.2537526666666666,8,6,"NIGHT_CLEAR,NIGHT_CLEAR,NIGHT_CLEAR,NIGHT_CLEAR,NIGHT_CLEAR","Offshore,Offshore,Offshore,Offshore,Offshore",5
5842041f4e65fad6a7708a0c,2024_03_12,39.356505,-74.42263,South Carolina Avenue,0,0.09736733333333332,0.25373266666666666,8,6,"NIGHT_CLEAR,NIGHT_CLEAR,NIGHT_CLEAR,NIGHT_CLEAR,NIGHT_CLEAR","Offshore,Offshore,Offshore,Offshore,Offshore",5
5842041f4e65fad6a7708a0d,2024_03_12,39.413485,-74.35476,14th Street North,1,0.006666666666666657,0.31626666666666664,8,6,"NIGHT_CLEAR,NIGHT_CLEAR,NIGHT_CLEAR,NIGHT_CLEAR,NIGHT_CLEAR","Offshore,Offshore,Offshore,Offshore,Offshore",5
5842041f4e65fad6a7708a0e,2024_03_12,39.531319,-74.263252,The Wooden Jetty,1.534,0.1580933333333333,0.3809766666666667,8,6,"NIGHT_CLEAR,NIGHT_CLEAR,NIGHT_CLEAR,NIGHT_CLEAR,NIGHT_CLEAR","Offshore,Offshore,Offshore,Offshore,Offshore",5
5842041f4e65fad6a7708a0f,2024_03_12,39.552472,-74.24344,Holyoke,1.534,0.150854,0.33731666666666665,8,6,"NIGHT_CLEAR,NIGHT_CLEAR,NIGHT_CLEAR,NIGHT_CLEAR,NIGHT_CLEAR","Offshore,Offshore,Offshore,Offshore,Offshore",5
5842041f4e65fad6a7708a10,2024_03_12,39.692364,-74.14068,Hudson Ave.,1.534,-0.048,0.24026666666666666,8,6,"NIGHT_CLEAR,NIGHT_CLEAR,NIGHT_CLEAR,NIGHT_CLEAR,NIGHT_CLEAR","Offshore,Offshore,Offshore,Offshore,Offshore",5
5842041f4e65fad6a7708a11,2024_03_12,39.79614,-74.09248,Island Beach State Park,1,-0.004666666666666666,0.29893333333333333,7,6,"NIGHT_CLEAR,NIGHT_CLEAR,NIGHT_CLEAR,NIGHT_CLEAR,NIGHT_CLEAR","Offshore,Offshore,Offshore,Offshore,Offshore",5
5842041f4e65fad6a7708a12,2024_03_12,39.91813588078152,-74.07527,Seaside Park,1,-0.044000000000000004,0.2536,7,6,"NIGHT_CLEAR,NIGHT_CLEAR,NIGHT_CLEAR,NIGHT_CLEAR,NIGHT_CLEAR","Offshore,Offshore,Offshore,Offshore,Offshore",5
5842041f4e65fad6a7708a14,2024_03_12,39.946638,-74.06884,Seaside Heights,1,-0.009333333333333343,0.2962666666666667,7,6,"NIGHT_CLEAR,NIGHT_CLEAR,NIGHT_CLEAR,NIGHT_CLEAR,NIGHT_CLEAR","Offshore,Offshore,Offshore,Offshore,Offshore",5
5842041f4e65fad6a7708a15,2024_03_12,39.95745637606704,-74.06736,Ortley Beach,1,-0.036666666666666674,0.2416,7,6,"NIGHT_CLEAR,NIGHT_CLEAR,NIGHT_CLEAR,NIGHT_CLEAR,NIGHT_CLEAR","Offshore,Offshore,Offshore,Offshore,Offshore",5
5842041f4e65fad6a7708a16,2024_03_12,39.98313468342945,-74.06265685577506,Lavallette,1,-0.042,0.25226666666666664,7,6,"NIGHT_CLEAR,NIGHT_CLEAR,NIGHT_CLEAR,NIGHT_CLEAR,NIGHT_CLEAR","Offshore,Offshore,Offshore,Offshore,Offshore",5
5842041f4e65fad6a7708a17,2024_03_12,40.0699319967757,-74.04144910856634,Bay Head,1,-0.043333333333333335,0.26026666666666665,7,6,"NIGHT_CLEAR,NIGHT_CLEAR,NIGHT_CLEAR,NIGHT_CLEAR,NIGHT_CLEAR","Offshore,Offshore,Offshore,Offshore,Offshore",5
5842041f4e65fad6a7708a18,2024_03_12,40.094041,-74.034859,Jenkinson's,1,-0.045999999999999985,0.25560000000000005,7,6,"NIGHT_CLEAR,NIGHT_CLEAR,NIGHT_CLEAR,NIGHT_CLEAR,NIGHT_CLEAR","Offshore,Offshore,Offshore,Offshore,Offshore",5
5842041f4e65fad6a7708a1a,2024_03_12,38.148058,-75.17704,Assateague,1,0.011333333333333319,0.3156,8,7,"CLEAR,NIGHT_CLEAR,NIGHT_CLEAR,NIGHT_CLEAR,NIGHT_CLEAR","Offshore,Offshore,Offshore,Offshore,Offshore",5
5842041f4e65fad6a7708a1b,2024_03_12,38.33889038664497,-75.08017670566352,North End to Ocean City Inlet,1,-1.3876940774867202e-18,0.3002666666666667,8,7,"CLEAR,NIGHT_CLEAR,NIGHT_CLEAR,NIGHT_CLEAR,NIGHT_CLEAR","Offshore,Offshore,Offshore,Offshore,Offshore",5
5842041f4e65fad6a7708a1c,2024_03_12,38.603993,-75.06271,Indian River Inlet,0.8,0.22546599999999997,0.45389333333333337,8,7,"CLEAR,NIGHT_CLEAR,NIGHT_CLEAR,NIGHT_CLEAR,NIGHT_CLEAR","Offshore,Offshore,Offshore,Offshore,Offshore",5
5842041f4e65fad6a7708a1d,2024_03_12,38.460477,-75.052069,Fenwick Island,1,-0.034,0.2576,8,7,"CLEAR,NIGHT_CLEAR,NIGHT_CLEAR,NIGHT_CLEAR,NIGHT_CLEAR","Offshore,Offshore,Offshore,Offshore,Offshore",5
5842041f4e65fad6a7708a1e,2024_03_12,38.538767,-75.05619,Bethany Beach,1,0.2244546666666667,0.4523126666666667,8,7,"CLEAR,NIGHT_CLEAR,NIGHT_CLEAR,NIGHT_CLEAR,NIGHT_CLEAR","Offshore,Offshore,Offshore,Offshore,Offshore",5
5842041f4e65fad6a7708a1f,2024_03_12,38.697657,-75.075951,Dewey Beach,1,-0.01,0.2336,8,7,"CLEAR,NIGHT_CLEAR,NIGHT_CLEAR,NIGHT_CLEAR,NIGHT_CLEAR","Offshore,Offshore,Offshore,Offshore,Offshore",5
5842041f4e65fad6a7708a20,2024_03_12,38.75034741676525,-75.08194,Gordons Pond,0.8,0.14904066666666668,0.334476,8,7,"CLEAR,NIGHT_CLEAR,NIGHT_CLEAR,NIGHT_CLEAR,NIGHT_CLEAR","Offshore,Offshore,Offshore,Offshore,Offshore",5
5842041f4e65fad6a7708a21,2024_03_12,38.767837,-75.082841,Naval Jetties,1,-0.023333333333333334,0.24893333333333334,8,7,"CLEAR,NIGHT_CLEAR,NIGHT_CLEAR,NIGHT_CLEAR,NIGHT_CLEAR","Offshore,Offshore,Offshore,Offshore,Offshore",5
5842041f4e65fad6a7708a22,2024_03_12,36.81735875786576,-75.96624,Camp Pendleton,0.502,0.02399999999999996,0.32810000000000006,9,8,"CLEAR,NIGHT_CLEAR,NIGHT_CLEAR,NIGHT_CLEAR,NIGHT_CLEAR","Offshore,Offshore,Offshore,Offshore,Offshore",5
5842041f4e65fad6a7708a23,2024_03_12,36.9102212316428,-75.98732471466064,North End,0,-0.0345,0.2711,9,8,"CLEAR,NIGHT_CLEAR,NIGHT_CLEAR,NIGHT_CLEAR,NIGHT_CLEAR","Offshore,Offshore,Offshore,Offshore,Offshore",5
5842041f4e65fad6a7708a24,2024_03_12,36.737117517621314,-75.93923719853362,Sandbridge Beach,1.8,0.010666666666666658,0.31493333333333334,9,8,"CLEAR,NIGHT_CLEAR,NIGHT_CLEAR,NIGHT_CLEAR,NIGHT_CLEAR","Offshore,Offshore,Offshore,Offshore,Offshore",5
5842041f4e65fad6a7708a26,2024_03_12,36.818257440557794,-75.96666,Croatan to Pendleton,0.534,-0.032499999999999994,0.2791,9,8,"CLEAR,NIGHT_CLEAR,NIGHT_CLEAR,NIGHT_CLEAR,NIGHT_CLEAR","Offshore,Offshore,Offshore,Offshore,Offshore",5
5842041f4e65fad6a7708a27,2024_03_12,36.84318777204769,-75.9719,South End,1,-0.017333333333333346,0.2869333333333333,9,8,"CLEAR,NIGHT_CLEAR,NIGHT_CLEAR,NIGHT_CLEAR,NIGHT_CLEAR","Offshore,Offshore,Offshore,Offshore,Offshore",5
5842041f4e65fad6a7708a28,2024_03_12,37.08612627584661,-75.976121638199,Fishermans Island,0,0,0.0688,10,10,"CLEAR,NIGHT_CLEAR,NIGHT_CLEAR,NIGHT_CLEAR,NIGHT_CLEAR","Offshore,Offshore,Offshore,Offshore,Offshore",5
5842041f4e65fad6a7708a38,2024_03_12,35.254619418229026,-75.52074,Cape Hatteras Lighthouse,2.632,0.6534226666666667,1.0590726666666666,11,9,"CLEAR,NIGHT_CLEAR,NIGHT_CLEAR,NIGHT_CLEAR,NIGHT_CLEAR","Offshore,Offshore,Offshore,Offshore,Offshore",5
5842041f4e65fad6a7708a3a,2024_03_12,35.54572934093336,-75.46477,Waves and Salvo,3,0.9328,1.2552,10,9,"CLEAR,NIGHT_CLEAR,NIGHT_CLEAR,NIGHT_CLEAR,NIGHT_CLEAR","Offshore,Offshore,Offshore,Offshore,Offshore",5
5842041f4e65fad6a7708a3b,2024_03_12,35.22565892751075,-75.63606,Frisco,1,0.2138666666666667,0.5310666666666667,13,11,"CLEAR,NIGHT_CLEAR,NIGHT_CLEAR,NIGHT_CLEAR,NIGHT_CLEAR","Offshore,Cross-shore,Cross-shore,Cross-shore,Cross-shore",5
5842041f4e65fad6a7708a3c,2024_03_12,35.13086,-75.90591,Ocracoke,0.4,0.213948,0.334296,15,15,"CLEAR,NIGHT_CLEAR,NIGHT_CLEAR,NIGHT_CLEAR,NIGHT_CLEAR","Offshore,Offshore,Offshore,Offshore,Offshore",5
5842041f4e65fad6a7708a3d,2024_03_12,35.34721340158342,-75.50084,Avon Pier,3,0.9033666666666667,1.2070666666666667,10,9,"CLEAR,NIGHT_CLEAR,NIGHT_CLEAR,NIGHT_CLEAR,NIGHT_CLEAR","Offshore,Offshore,Offshore,Offshore,Offshore",5
5842041f4e65fad6a7708a3f,2024_03_12,35.71680821253768,-75.49243,Pea Island,3,0.796,1.05,11,11,"CLEAR,NIGHT_CLEAR,NIGHT_CLEAR,NIGHT_CLEAR,NIGHT_CLEAR","Offshore,Offshore,Offshore,Offshore,Offshore",5
5842041f4e65fad6a7708a40,2024_03_12,35.97427620657821,-75.62984,Nags Head Pier,1.466,0.6290333333333334,0.9700000000000001,9,8,"CLEAR,NIGHT_CLEAR,NIGHT_CLEAR,NIGHT_CLEAR,NIGHT_CLEAR","Offshore,Offshore,Offshore,Offshore,Offshore",5
5842041f4e65fad6a7708a41,2024_03_12,36.0439998039079,-75.67288,Avalon Pier,2,0.5741333333333334,0.8837333333333334,9,8,"CLEAR,NIGHT_CLEAR,NIGHT_CLEAR,NIGHT_CLEAR,NIGHT_CLEAR","Offshore,Offshore,Offshore,Offshore,Offshore",5
5842041f4e65fad6a7708a42,2024_03_12,36.03043116489792,-75.66413,First Street,1.466,0.4756000000000001,0.8668666666666667,9,8,"CLEAR,NIGHT_CLEAR,NIGHT_CLEAR,NIGHT_CLEAR,NIGHT_CLEAR","Offshore,Offshore,Offshore,Offshore,Offshore",5
5842041f4e65fad6a7708a43,2024_03_12,36.06829910590498,-75.6899,Old Station/Laundromats,2,0.5107999999999999,0.8497333333333333,9,8,"CLEAR,NIGHT_CLEAR,NIGHT_CLEAR,NIGHT_CLEAR,NIGHT_CLEAR","Offshore,Offshore,Offshore,Offshore,Offshore",5
5842041f4e65fad6a7708a44,2024_03_12,36.10126676607491,-75.71107462163894,Kitty Hawk Pier,1.466,0.6245333333333334,0.9313333333333332,9,8,"CLEAR,NIGHT_CLEAR,NIGHT_CLEAR,NIGHT_CLEAR,NIGHT_CLEAR","Offshore,Offshore,Offshore,Offshore,Offshore",5
5842041f4e65fad6a7708a45,2024_03_12,36.18220630068973,-75.75013580649097,Duck Pier,1,0.2162666666666667,0.5198666666666667,9,8,"CLEAR,NIGHT_CLEAR,NIGHT_CLEAR,NIGHT_CLEAR,NIGHT_CLEAR","Offshore,Offshore,Offshore,Offshore,Offshore",5
5842041f4e65fad6a7708a46,2024_03_12,36.37660668125033,-75.82409701687456,Corolla,1,0.19760000000000003,0.5032000000000001,9,8,"CLEAR,NIGHT_CLEAR,NIGHT_CLEAR,NIGHT_CLEAR,NIGHT_CLEAR","Offshore,Offshore,Offshore,Offshore,Offshore",5
5842041f4e65fad6a7708a47,2024_03_12,33.90373404124834,-78.08241431707907,Oak Island,1,0,0.248,14,14,"CLEAR,NIGHT_CLEAR,NIGHT_CLEAR,NIGHT_CLEAR,NIGHT_CLEAR","Cross-shore,Cross-shore,Cross-shore,Cross-shore,Cross-shore",5
5842041f4e65fad6a7708a48,2024_03_12,33.91108837766468,-78.29653,South Brunswick Beaches,1,0.159512,0.249238,15,15,"CLEAR,NIGHT_CLEAR,NIGHT_CLEAR,NIGHT_CLEAR,NIGHT_CLEAR","Offshore,Cross-shore,Offshore,Cross-shore,Cross-shore",5
5842041f4e65fad6a7708a49,2024_03_12,34.05683595651973,-77.88128,Carolina Beach Pier,2,0.23510000000000003,0.5384,14,13,"CLEAR,NIGHT_CLEAR,NIGHT_CLEAR,NIGHT_CLEAR,NIGHT_CLEAR","Offshore,Offshore,Offshore,Offshore,Offshore",5
5842041f4e65fad6a7708a4a,2024_03_12,33.96841191816696,-77.9180242565498,Fort Fisher,1.966,0.22860000000000003,0.5374,14,13,"CLEAR,NIGHT_CLEAR,NIGHT_CLEAR,NIGHT_CLEAR,NIGHT_CLEAR","Offshore,Offshore,Offshore,Offshore,Offshore",5
5842041f4e65fad6a7708a4b,2024_03_12,34.46776662988774,-77.47083191635772,Topsail Beach,0.6,0,0.26826666666666665,14,13,"CLEAR,NIGHT_CLEAR,NIGHT_CLEAR,NIGHT_CLEAR,NIGHT_CLEAR","Offshore,Offshore,Offshore,Cross-shore,Cross-shore",5
5842041f4e65fad6a7708a4c,2024_03_12,34.69270354752445,-76.82854854446575,Iron Steamer,0,-0.0075,0.26370000000000005,14,13,"CLEAR,NIGHT_CLEAR,NIGHT_CLEAR,NIGHT_CLEAR,NIGHT_CLEAR","Cross-shore,Cross-shore,Cross-shore,Cross-shore,Cross-shore",5
5842041f4e65fad6a7708a4f,2024_03_12,30.85132684893727,-81.42283496231143,Cumberland Island,1.2,0.262,0.57,17,17,"CLEAR,NIGHT_CLEAR,NIGHT_CLEAR,NIGHT_CLEAR,NIGHT_CLEAR","Cross-shore,Onshore,Onshore,Onshore,Onshore",5
5842041f4e65fad6a7708a50,2024_03_12,34.686741128540874,-76.47516712138378,Cape Lookout National Seashore,1,0.08,0.39,16,16,"CLEAR,NIGHT_CLEAR,NIGHT_CLEAR,NIGHT_CLEAR,NIGHT_CLEAR","Offshore,Offshore,Offshore,Offshore,Offshore",5
5842041f4e65fad6a7708a51,2024_03_12,31.10585419260024,-81.40422767604812,Jekyll Island,1,0.074,0.38,16,16,"CLEAR,NIGHT_CLEAR,NIGHT_CLEAR,NIGHT_CLEAR,NIGHT_CLEAR","Onshore,Onshore,Onshore,Onshore,Onshore",5
5842041f4e65fad6a7708a52,2024_03_12,31.16212806376699,-81.32512426500224,Harbor Marker Buoys,1.6,0.084,0.388,16,16,"CLEAR,NIGHT_CLEAR,NIGHT_CLEAR,NIGHT_CLOUDY,NIGHT_CLEAR","Cross-shore,Cross-shore,Onshore,Onshore,Onshore",5
5842041f4e65fad6a7708a53,2024_03_12,31.20076299997009,-81.32629,Sea Island,1,0.164,0.472,16,16,"CLEAR,NIGHT_CLEAR,NIGHT_CLEAR,NIGHT_CLEAR,NIGHT_CLEAR","Cross-shore,Cross-shore,Onshore,Onshore,Onshore",5
5842041f4e65fad6a7708a54,2024_03_12,31.13553222995767,-81.38457634790909,St. Simons Island,1,0.132,0.434,16,16,"CLEAR,NIGHT_CLEAR,NIGHT_CLEAR,NIGHT_CLEAR,NIGHT_MOSTLY_CLOUDY","Cross-shore,Cross-shore,Cross-shore,Onshore,Onshore",5
5842041f4e65fad6a7708a55,2024_03_12,31.33550077186516,-81.28383377408417,Wolf Island,1,0.022,0.324,16,16,"CLEAR,NIGHT_CLEAR,NIGHT_CLEAR,NIGHT_MOSTLY_CLOUDY,NIGHT_CLEAR","Onshore,Onshore,Onshore,Onshore,Onshore",5
5842041f4e65fad6a7708a56,2024_03_12,31.2704493877174,-81.27324039152315,Little St. Simons Island,1,0.096,0.4,16,16,"CLEAR,NIGHT_CLEAR,NIGHT_CLEAR,NIGHT_MOSTLY_CLOUDY,NIGHT_CLEAR","Onshore,Onshore,Onshore,Onshore,Onshore",5
5842041f4e65fad6a7708a57,2024_03_12,31.39261761368919,-81.26190520231917,Sapelo Island,1,0.078,0.382,16,16,"CLEAR,NIGHT_CLEAR,NIGHT_CLEAR,NIGHT_CLEAR,NIGHT_CLEAR","Onshore,Onshore,Onshore,Onshore,Onshore",5
5842041f4e65fad6a7708a58,2024_03_12,34.42458783809001,-77.54492,Surf City Pier,1,0,0.2742666666666667,14,13,"CLEAR,NIGHT_CLEAR,NIGHT_CLEAR,NIGHT_CLEAR,NIGHT_CLEAR","Offshore,Offshore,Offshore,Offshore,Offshore",5
5842041f4e65fad6a7708a59,2024_03_12,31.4231993614213,-81.24725340591522,Cabretta Island,1.2,0.074,0.38,16,16,"CLEAR,NIGHT_CLEAR,NIGHT_CLEAR,NIGHT_CLEAR,NIGHT_CLEAR","Onshore,Onshore,Onshore,Onshore,Onshore",5
5842041f4e65fad6a7708a5a,2024_03_12,31.46684389030369,-81.2100056410468,Blackbeard Island,1,0.078,0.382,16,16,"CLEAR,NIGHT_CLEAR,NIGHT_CLEAR,NIGHT_CLEAR,NIGHT_CLEAR","Onshore,Onshore,Onshore,Onshore,Onshore",5
5842041f4e65fad6a7708a5b,2024_03_12,31.85953587631629,-80.99031310336719,Wassaw Island/South End,0.4,0,0.154,16,16,"CLEAR,NIGHT_CLEAR,NIGHT_CLEAR,NIGHT_CLEAR,NIGHT_CLEAR","Onshore,Onshore,Cross-shore,Cross-shore,Cross-shore",5
5842041f4e65fad6a7708a5c,2024_03_12,31.62535662342983,-81.13328352167974,St. Catherines Island,1.4,0.044,0.35,16,16,"CLEAR,NIGHT_CLEAR,NIGHT_CLEAR,NIGHT_CLEAR,NIGHT_CLEAR","Onshore,Onshore,Cross-shore,Cross-shore,Cross-shore",5
5842041f4e65fad6a7708a5d,2024_03_12,31.76502169596568,-81.07655443806622,Ossabaw Island,1,0.014,0.322,16,16,"CLEAR,NIGHT_CLEAR,NIGHT_CLEAR,NIGHT_CLEAR,NIGHT_MOSTLY_CLEAR","Onshore,Onshore,Cross-shore,Cross-shore,Cross-shore",5
5842041f4e65fad6a7708a5e,2024_03_12,31.90593619092352,-80.93589231700857,Wassaw Island/North End,1,0.082,0.388,16,16,"CLEAR,NIGHT_CLEAR,NIGHT_CLEAR,NIGHT_CLEAR,NIGHT_CLEAR","Onshore,Onshore,Cross-shore,Cross-shore,Cross-shore",5
5842041f4e65fad6a7708a5f,2024_03_12,31.96738675414547,-80.86977980706155,Little Tybee Island,1,0,0.29,16,16,"CLEAR,NIGHT_CLEAR,NIGHT_CLEAR,NIGHT_CLEAR,NIGHT_CLEAR","Onshore,Onshore,Cross-shore,Cross-shore,Cross-shore",5
5842041f4e65fad6a7708a60,2024_03_12,31.9812255780179,-80.84773973467009,South Tybee Sandbars,1,0,0.254,16,16,"CLEAR,NIGHT_CLEAR,NIGHT_CLEAR,NIGHT_CLEAR,NIGHT_CLEAR","Cross-shore,Cross-shore,Cross-shore,Cross-shore,Cross-shore",5
5842041f4e65fad6a7708a61,2024_03_12,32.01226,-80.83983,Sugar Shack,1,0,0.214,16,16,"CLEAR,NIGHT_CLEAR,NIGHT_CLEAR,NIGHT_CLEAR,NIGHT_CLEAR","Offshore,Offshore,Offshore,Offshore,Offshore",5
5842041f4e65fad6a7708a62,2024_03_12,31.98722842396969,-80.84773,18th St. Jetty,1,0.18118599999999999,0.283102,16,16,"CLEAR,NIGHT_CLEAR,NIGHT_CLEAR,NIGHT_CLEAR,NIGHT_CLEAR","Cross-shore,Cross-shore,Cross-shore,Offshore,Offshore",5
5842041f4e65fad6a7708a64,2024_03_12,34.013473721006676,-77.8991,"Alabama Ave., Kure Beach",1.6,0.046,0.348,14,14,"CLEAR,NIGHT_CLEAR,NIGHT_CLEAR,NIGHT_CLEAR,NIGHT_CLEAR","Cross-shore,Cross-shore,Cross-shore,Cross-shore,Cross-shore",5
5842041f4e65fad6a7708a65,2024_03_12,34.20859853336924,-77.79293,"C Street, Wrightsville Beach",2,0.22860000000000003,0.5349,14,13,"CLEAR,NIGHT_CLEAR,NIGHT_CLEAR,NIGHT_CLEAR,NIGHT_CLEAR","Offshore,Offshore,Offshore,Offshore,Offshore",5
5842041f4e65fad6a7708a66,2024_03_12,32.831,-79.71,Dewees Island,1,0,0.18,16,16,"CLEAR,NIGHT_CLEAR,NIGHT_CLEAR,NIGHT_CLEAR,NIGHT_CLEAR","Offshore,Offshore,Offshore,Offshore,Offshore",5
5842041f4e65fad6a7708a67,2024_03_12,33.82924423172106,-78.62813,Cherry Grove Pier,0,0,0.31479999999999997,15,15,"CLEAR,NIGHT_CLEAR,NIGHT_CLEAR,NIGHT_CLEAR,NIGHT_CLEAR","Offshore,Offshore,Offshore,Offshore,Cross-shore",5
5842041f4e65fad6a7708a69,2024_03_12,34.27197439666496,-77.74050223196774,Figure Eight and Shell Islands,2,0.2406,0.5374,14,13,"CLEAR,NIGHT_CLEAR,NIGHT_CLEAR,NIGHT_CLEAR,NIGHT_CLEAR","Offshore,Offshore,Offshore,Offshore,Offshore",5
5842041f4e65fad6a7708a6b,2024_03_12,33.49041958261793,-79.07666070599386,North End,1,0,0.17,16,16,"CLEAR,NIGHT_CLEAR,NIGHT_CLEAR,NIGHT_CLEAR,NIGHT_CLEAR","Offshore,Offshore,Offshore,Offshore,Offshore",5
5842041f4e65fad6a7708a6c,2024_03_12,33.39537062495087,-79.13835037835189,The South End,1,0,0.19,16,16,"CLEAR,NIGHT_CLEAR,NIGHT_CLEAR,NIGHT_CLEAR,NIGHT_CLEAR","Offshore,Offshore,Offshore,Offshore,Offshore",5
5842041f4e65fad6a7708a6d,2024_03_12,33.29001727666697,-79.17190003352977,North Island,1,0,0.196,16,16,"CLEAR,NIGHT_CLEAR,NIGHT_CLEAR,NIGHT_CLEAR,NIGHT_CLEAR","Offshore,Offshore,Offshore,Offshore,Offshore",5
5842041f4e65fad6a7708a6e,2024_03_12,32.90929771158952,-79.57810400297359,Bull Island,1,0,0.236,17,17,"CLEAR,NIGHT_CLEAR,NIGHT_CLEAR,NIGHT_CLEAR,NIGHT_CLEAR","Offshore,Offshore,Offshore,Offshore,Offshore",5
5842041f4e65fad6a7708a6f,2024_03_12,31.99153112815895,-80.84543050470074,Tybee Island Pier,0,0,0.14400000000000002,16,16,"CLEAR,NIGHT_CLEAR,NIGHT_CLEAR,NIGHT_CLEAR,NIGHT_CLEAR","Cross-shore,Cross-shore,Cross-shore,Cross-shore,Cross-shore",5
5842041f4e65fad6a7708a70,2024_03_12,33.03478144356316,-79.35021028265125,Cape Romain,1,0,0.23,17,17,"CLEAR,NIGHT_CLEAR,NIGHT_CLEAR,NIGHT_CLEAR,NIGHT_CLEAR","Offshore,Offshore,Offshore,Offshore,Offshore",5
5842041f4e65fad6a7708a71,2024_03_12,33.43231073271028,-79.11789,The Pier,1,0.187296,0.292648,16,16,"CLEAR,NIGHT_CLEAR,NIGHT_CLEAR,NIGHT_CLEAR,NIGHT_CLEAR","Offshore,Offshore,Offshore,Offshore,Offshore",5
5842041f4e65fad6a7708a72,2024_03_12,33.45423621397969,-79.10497798178424,South Litchfield,1,0,0.238,16,16,"CLEAR,NIGHT_CLEAR,NIGHT_CLEAR,NIGHT_CLEAR,NIGHT_CLEAR","Offshore,Offshore,Offshore,Offshore,Offshore",5
5842041f4e65fad6a7708a73,2024_03_12,34.19316590251396,-77.8045,Crystal Pier,2,0.22860000000000003,0.5344,14,13,"CLEAR,NIGHT_CLEAR,NIGHT_CLEAR,NIGHT_CLEAR,NIGHT_CLEAR","Offshore,Offshore,Offshore,Offshore,Offshore",5
5842041f4e65fad6a7708a74,2024_03_12,33.68628680045124,-78.883460274301,Myrtle Beach,0,0,0.3048,15,15,"CLEAR,NIGHT_CLEAR,NIGHT_CLEAR,NIGHT_CLEAR,NIGHT_CLEAR","Offshore,Offshore,Offshore,Offshore,Offshore",5
5842041f4e65fad6a7708a75,2024_03_12,32.66166297145973,-79.91951806398808,10th Street,1,0,0.234,16,16,"CLEAR,NIGHT_CLEAR,NIGHT_CLEAR,NIGHT_CLEAR,NIGHT_CLEAR","Offshore,Cross-shore,Cross-shore,Offshore,Cross-shore",5
5842041f4e65fad6a7708a76,2024_03_12,33.16729555197199,-79.19829236867845,South Island,1,0,0.23,17,17,"CLEAR,NIGHT_CLEAR,NIGHT_CLEAR,NIGHT_CLEAR,NIGHT_CLEAR","Offshore,Offshore,Offshore,Offshore,Offshore",5
5842041f4e65fad6a7708a77,2024_03_12,32.595,-80.088,Kiawah Island/Seabrook Island,1,0,0.17,16,16,"CLEAR,NIGHT_CLEAR,NIGHT_CLEAR,NIGHT_CLEAR,NIGHT_CLEAR","Onshore,Onshore,Onshore,Cross-shore,Cross-shore",5
5842041f4e65fad6a7708a78,2024_03_12,32.51356930575787,-80.28223,Edisto Beach,1,0.147006,0.2297,16,16,"CLEAR,NIGHT_CLEAR,NIGHT_CLEAR,NIGHT_CLEAR,NIGHT_CLEAR","Cross-shore,Cross-shore,Cross-shore,Cross-shore,Cross-shore",5
5842041f4e65fad6a7708a79,2024_03_12,32.366270751262,-80.43911,Hunting Island,1,0.162904,0.254538,16,16,"CLEAR,NIGHT_CLEAR,NIGHT_CLEAR,NIGHT_CLEAR,NIGHT_CLEAR","Offshore,Offshore,Offshore,Offshore,Offshore",5
5842041f4e65fad6a7708a7a,2024_03_12,32.65337734408365,-79.93983,Folly Beach Pier,0,0,0.3073,16,14,"CLEAR,NIGHT_CLEAR,NIGHT_CLEAR,NIGHT_CLEAR,NIGHT_CLEAR","Cross-shore,Onshore,Onshore,Cross-shore,Onshore",5
5842041f4e65fad6a7708a7b,2024_03_12,33.41209545530049,-79.13026341393126,South Jetty,1,0,0.19,16,16,"CLEAR,NIGHT_CLEAR,NIGHT_CLEAR,NIGHT_CLEAR,NIGHT_CLEAR","Offshore,Offshore,Offshore,Offshore,Offshore",5
5842041f4e65fad6a7708a7c,2024_03_12,32.31115640606869,-80.48564,Fripp Island,1,0.155702,0.243284,16,16,"CLEAR,NIGHT_CLEAR,NIGHT_CLEAR,NIGHT_CLEAR,NIGHT_CLEAR","Onshore,Onshore,Onshore,Cross-shore,Cross-shore",5
5842041f4e65fad6a7708a7d,2024_03_12,32.14365226036034,-80.74402,Hilton Head Island,0,0,0.08,16,16,"CLEAR,NIGHT_CLEAR,NIGHT_CLEAR,NIGHT_CLEAR,NIGHT_CLEAR","Onshore,Cross-shore,Cross-shore,Cross-shore,Cross-shore",5
5842041f4e65fad6a7708a7e,2024_03_12,29.70405364733744,-81.22426004725459,Matanzas Inlet,2,0.408,0.712,18,18,"CLEAR,NIGHT_CLEAR,NIGHT_CLEAR,NIGHT_CLEAR,NIGHT_CLEAR","Onshore,Onshore,Onshore,Onshore,Onshore",5
5842041f4e65fad6a7708a81,2024_03_12,29.76878537149042,-81.25109,Crescent Beach,2,0.416,0.722,18,18,"CLEAR,NIGHT_CLEAR,NIGHT_CLEAR,NIGHT_CLEAR,NIGHT_CLEAR","Onshore,Onshore,Onshore,Onshore,Onshore",5
5842041f4e65fad6a7708a82,2024_03_12,32.80251718689188,-79.73221919500764,Wild Dunes,1,0,0.21,16,16,"CLEAR,NIGHT_CLEAR,NIGHT_CLEAR,NIGHT_CLEAR,NIGHT_CLEAR","Offshore,Offshore,Cross-shore,Cross-shore,Cross-shore",5
5842041f4e65fad6a7708a84,2024_03_12,32.75733539419244,-79.83258856064796,Bert's Bar,1,0,0.17,16,16,"CLEAR,NIGHT_CLEAR,NIGHT_CLEAR,NIGHT_CLEAR,NIGHT_CLEAR","Offshore,Offshore,Cross-shore,Cross-shore,Offshore",5
5842041f4e65fad6a7708a85,2024_03_12,32.66829212943039,-79.90735,Washout,0,0,0.2998,16,14,"CLEAR,NIGHT_CLEAR,NIGHT_CLEAR,NIGHT_CLEAR,NIGHT_CLEAR","Offshore,Cross-shore,Cross-shore,Cross-shore,Cross-shore",5
5842041f4e65fad6a7708a86,2024_03_12,32.78452968219067,-79.78540233488354,The Pier/Windjammer,1,0,0.184,16,16,"CLEAR,NIGHT_CLEAR,NIGHT_CLEAR,NIGHT_CLEAR,NIGHT_CLEAR","Offshore,Cross-shore,Cross-shore,Cross-shore,Cross-shore",5
5842041f4e65fad6a7708a87,2024_03_12,29.86618162637438,-81.2662150259608,Anastasia Park (The Entrance),1.8,0.378,0.6859999999999999,18,18,"CLEAR,NIGHT_CLEAR,NIGHT_CLEAR,NIGHT_CLEAR,NIGHT_CLEAR","Onshore,Onshore,Onshore,Onshore,Onshore",5
5842041f4e65fad6a7708a89,2024_03_12,29.89149785916623,-81.2723223244215,Blowholes,1.766,0.37700000000000006,0.6788333333333333,23,21,"CLEAR,NIGHT_CLEAR,NIGHT_CLEAR,NIGHT_CLEAR,NIGHT_CLEAR","Onshore,Onshore,Onshore,Onshore,Onshore",5
5842041f4e65fad6a7708a8a,2024_03_12,30.16227112983666,-81.35502907491218,Crossroads,1.934,0.3535,0.6595,23,21,"CLEAR,NIGHT_CLEAR,NIGHT_CLEAR,NIGHT_CLEAR,NIGHT_CLEAR","Onshore,Onshore,Onshore,Onshore,Onshore",5
5842041f4e65fad6a7708a8b,2024_03_12,30.19308537587637,-81.36314247820911,Sawgrass,1.934,0.3501666666666667,0.65,23,21,"CLEAR,NIGHT_CLEAR,NIGHT_CLEAR,NIGHT_CLEAR,NIGHT_CLEAR","Onshore,Onshore,Onshore,Onshore,Onshore",5
5842041f4e65fad6a7708a8c,2024_03_12,30.34696027700899,-81.39451,18th Street,1.6,0.35762,0.5587840000000001,17,17,"CLEAR,NIGHT_CLEAR,NIGHT_CLEAR,NIGHT_CLEAR,NIGHT_CLEAR","Onshore,Onshore,Onshore,Onshore,Onshore",5
5842041f4e65fad6a7708a8d,2024_03_12,30.381793,-81.39686,Mayport Poles,2,0.452,0.76,17,17,"CLEAR,NIGHT_CLEAR,NIGHT_CLEAR,NIGHT_CLEAR,NIGHT_CLEAR","Onshore,Onshore,Onshore,Onshore,Onshore",5
5842041f4e65fad6a7708a8e,2024_03_12,30.390516,-81.395591,Blue Roofs,2,0.36,0.664,17,17,"CLEAR,NIGHT_CLEAR,NIGHT_CLEAR,NIGHT_CLEAR,NIGHT_CLEAR","Cross-shore,Onshore,Onshore,Onshore,Onshore",5
5842041f4e65fad6a7708a8f,2024_03_12,30.40517712722211,-81.40074116169004,Huguenot Park (North Jetty),2,0.384,0.692,17,17,"CLEAR,NIGHT_CLEAR,NIGHT_CLEAR,NIGHT_CLEAR,NIGHT_CLEAR","Onshore,Onshore,Onshore,Onshore,Onshore",5
5842041f4e65fad6a7708a90,2024_03_12,30.47788918872762,-81.41055821335078,Talbot Island,2,0.604821,0.911747,18,16,"CLEAR,NIGHT_CLEAR,NIGHT_CLEAR,NIGHT_CLEAR,NIGHT_CLEAR","Onshore,Onshore,Onshore,Onshore,Onshore",5
5842041f4e65fad6a7708a91,2024_03_12,30.66753984549761,-81.42983,Main Beach,1,0.21,0.516,17,17,"CLEAR,NIGHT_CLEAR,NIGHT_CLEAR,NIGHT_CLEAR,NIGHT_CLEAR","Cross-shore,Onshore,Onshore,Onshore,Onshore",5
5842041f4e65fad6a7708a92,2024_03_12,30.69983581209126,-81.42483,Ft. Clinch State Park,2,0.392,0.694,17,17,"CLEAR,NIGHT_CLEAR,NIGHT_CLEAR,NIGHT_CLEAR,NIGHT_CLEAR","Onshore,Onshore,Onshore,Onshore,Onshore",5
5842041f4e65fad6a7708a93,2024_03_12,30.62059700777582,-81.437252942757425,Amelia Pier,1.2,0.228,0.534,17,17,"CLEAR,NIGHT_CLEAR,NIGHT_CLEAR,NIGHT_CLEAR,NIGHT_CLEAR","Onshore,Onshore,Onshore,Onshore,Onshore",5
5842041f4e65fad6a7708a95,2024_03_12,28.95125170929067,-80.83837,Bethune Beach,1.4,0.756,1.034,20,20,"CLEAR,NIGHT_CLEAR,NIGHT_CLEAR,NIGHT_CLEAR,NIGHT_CLEAR","Onshore,Onshore,Onshore,Onshore,Onshore",5
5842041f4e65fad6a7708a96,2024_03_12,29.03874288905362,-80.8933424949646,Flagler Ave.,1.966,0.803,1.1088333333333333,23,22,"CLEAR,NIGHT_CLEAR,NIGHT_CLEAR,NIGHT_CLEAR,NIGHT_CLEAR","Onshore,Onshore,Onshore,Onshore,Onshore",5
5842041f4e65fad6a7708a98,2024_03_12,30.332297686992757,-81.39319,Atlantic Beach,2,0.36092199999999997,0.563944,17,17,"CLEAR,NIGHT_CLEAR,NIGHT_CLEAR,NIGHT_CLEAR,NIGHT_CLEAR","Onshore,Onshore,Onshore,Onshore,Onshore",5
5842041f4e65fad6a7708a99,2024_03_12,29.87530059952514,-81.26757958498874,Middles,1.766,0.3551666666666667,0.6591666666666667,23,21,"CLEAR,NIGHT_CLEAR,NIGHT_CLEAR,NIGHT_CLEAR,NIGHT_CLEAR","Onshore,Onshore,Onshore,Onshore,Onshore",5
5842041f4e65fad6a7708a9a,2024_03_12,29.146475528378218,-80.96347,Sunglow Pier,1.8,0.646,0.95,19,19,"CLEAR,NIGHT_CLEAR,NIGHT_CLEAR,NIGHT_CLEAR,NIGHT_CLEAR","Onshore,Onshore,Onshore,Onshore,Onshore",5
5842041f4e65fad6a7708a9b,2024_03_12,30.02251238001095,-81.32183077344881,Gate Station,1.934,0.3438333333333334,0.6496666666666666,23,21,"CLEAR,NIGHT_CLEAR,NIGHT_CLEAR,NIGHT_CLEAR,NIGHT_CLEAR","Onshore,Onshore,Onshore,Onshore,Onshore",5
5842041f4e65fad6a7708a9c,2024_03_12,29.33976495417899,-81.0606,Bicentennial Park,1.4,0.556,0.858,19,19,"CLEAR,NIGHT_CLEAR,NIGHT_CLEAR,NIGHT_CLEAR,NIGHT_CLEAR","Onshore,Onshore,Onshore,Onshore,Onshore",5
5842041f4e65fad6a7708a9d,2024_03_12,29.08257353385602,-80.92136998257725,Ponce Inlet,2,1.0254,1.2577,19,17,"CLEAR,NIGHT_CLEAR,NIGHT_CLEAR,NIGHT_CLEAR,NIGHT_CLEAR","Onshore,Onshore,Onshore,Onshore,Onshore",5
5842041f4e65fad6a7708a9f,2024_03_12,27.862962005874696,-80.44668,Sebastian Inlet,1.8,0.658258,1.065764,23,21,"CLEAR,NIGHT_CLEAR,NIGHT_MOSTLY_CLOUDY,NIGHT_MOSTLY_CLOUDY,NIGHT_CLEAR","Onshore,Onshore,Onshore,Onshore,Onshore",5
5842041f4e65fad6a7708aa0,2024_03_12,30.292626880836885,-81.38579,Jacksonville Beach Pier,2,0.6111000000000001,0.9124,18,16,"CLEAR,NIGHT_CLEAR,NIGHT_CLEAR,NIGHT_CLEAR,NIGHT_CLEAR","Onshore,Onshore,Onshore,Onshore,Onshore",5
5842041f4e65fad6a7708aa1,2024_03_12,29.22878213864532,-81.00551,Main Street North,1.4,0.64009,0.811306,19,19,"CLEAR,NIGHT_CLEAR,NIGHT_CLEAR,NIGHT_CLEAR,NIGHT_CLEAR","Cross-shore,Cross-shore,Onshore,Onshore,Onshore",5
5842041f4e65fad6a7708aa2,2024_03_12,29.21860397328164,-81.0019,Daytona Beach,1.4,0.612,0.918,19,19,"CLEAR,NIGHT_CLEAR,NIGHT_CLEAR,NIGHT_CLEAR,NIGHT_CLEAR","Cross-shore,Cross-shore,Onshore,Onshore,Onshore",5
5842041f4e65fad6a7708aa3,2024_03_12,27.47531255634912,-80.28914,Ft. Pierce Inlet,2,0.8455333333333334,1.1972666666666667,23,21,"MOSTLY_CLOUDY,NIGHT_MOSTLY_CLOUDY,NIGHT_MOSTLY_CLOUDY,NIGHT_OVERCAST,NIGHT_MOSTLY_CLOUDY","Onshore,Onshore,Onshore,Onshore,Onshore",5
5842041f4e65fad6a7708aa4,2024_03_12,29.29239875585548,-81.0386,Ormond Beach,1.6,0.69,0.994,19,19,"CLEAR,NIGHT_CLEAR,NIGHT_CLEAR,NIGHT_CLEAR,NIGHT_CLEAR","Onshore,Onshore,Onshore,Onshore,Onshore",5
5842041f4e65fad6a7708aa5,2024_03_12,29.91629441498523,-81.28801,Vilano,2,0.384,0.69,18,18,"CLEAR,NIGHT_CLEAR,NIGHT_CLEAR,NIGHT_CLEAR,NIGHT_CLEAR","Onshore,Onshore,Onshore,Onshore,Onshore",5
5842041f4e65fad6a7708aa6,2024_03_12,27.876230736320828,-80.4551,Spanish House,1.4,1.1108333333333333,1.3368333333333333,23,21,"CLEAR,NIGHT_CLEAR,NIGHT_MOSTLY_CLOUDY,NIGHT_MOSTLY_CLOUDY,NIGHT_CLEAR","Onshore,Onshore,Onshore,Onshore,Onshore",5
5842041f4e65fad6a7708aa7,2024_03_12,28.64397251741012,-80.62328519781694,Playalinda,1.4,0.662,0.966,21,21,"CLEAR,NIGHT_CLEAR,NIGHT_CLEAR,NIGHT_CLEAR,NIGHT_CLEAR","Onshore,Onshore,Onshore,Onshore,Onshore",5
5842041f4e65fad6a7708aa8,2024_03_12,28.406142,-80.588858,Jetty Park,1,0.18,0.488,21,21,"CLEAR,NIGHT_CLEAR,NIGHT_CLEAR,NIGHT_MOSTLY_CLOUDY,NIGHT_CLEAR","Cross-shore,Cross-shore,Cross-shore,Cross-shore,Cross-shore",5
5842041f4e65fad6a7708aa9,2024_03_12,28.49083243010974,-80.58001715986319,Kennedy Space Center,2,0.968,1.162,21,21,"CLEAR,NIGHT_MOSTLY_CLEAR,NIGHT_CLEAR,NIGHT_CLEAR,NIGHT_CLEAR","Onshore,Onshore,Onshore,Onshore,Onshore",5
5842041f4e65fad6a7708aab,2024_03_12,28.336757013024314,-80.60568,Lori Wilson Park,1,0.345,0.6488333333333334,23,21,"MOSTLY_CLEAR,NIGHT_MOSTLY_CLEAR,NIGHT_MOSTLY_CLEAR,NIGHT_MOSTLY_CLOUDY,NIGHT_CLEAR","Onshore,Onshore,Onshore,Onshore,Onshore",5
5842041f4e65fad6a7708aad,2024_03_12,27.76388821683801,-80.3962958234027,Wabasso,1.4,0.686,0.994,23,23,"MOSTLY_CLOUDY,NIGHT_MOSTLY_CLOUDY,NIGHT_MOSTLY_CLOUDY,NIGHT_MOSTLY_CLOUDY,NIGHT_MOSTLY_CLOUDY","Onshore,Onshore,Onshore,Onshore,Onshore",5
5842041f4e65fad6a7708aae,2024_03_12,27.521583322459,-80.30987620353699,P.V. Martin's,1.2,0.44266666666666665,0.8578333333333333,23,21,"CLEAR,NIGHT_MOSTLY_CLOUDY,NIGHT_MOSTLY_CLOUDY,NIGHT_MOSTLY_CLOUDY,NIGHT_MOSTLY_CLOUDY","Onshore,Onshore,Onshore,Onshore,Onshore",5
5842041f4e65fad6a7708aaf,2024_03_12,27.644996047720046,-80.35242676734924,Riomar,1,0.8208333333333333,1.0825,23,21,"MOSTLY_CLOUDY,NIGHT_MOSTLY_CLOUDY,NIGHT_MOSTLY_CLOUDY,NIGHT_CLEAR,NIGHT_CLEAR","Onshore,Onshore,Onshore,Onshore,Onshore",5
5842041f4e65fad6a7708ab1,2024_03_12,27.670121806659253,-80.36026954650879,Vero Pier,1.966,1.123,1.4238333333333333,23,21,"CLEAR,NIGHT_MOSTLY_CLOUDY,NIGHT_MOSTLY_CLOUDY,NIGHT_MOSTLY_CLOUDY,NIGHT_MOSTLY_CLOUDY","Onshore,Onshore,Onshore,Onshore,Onshore",5
5842041f4e65fad6a7708ab2,2024_03_12,28.047705032021486,-80.54680109024048,Spessard Holland,2,0.913988,1.2237280000000001,23,21,"CLEAR,NIGHT_CLEAR,NIGHT_CLEAR,NIGHT_CLEAR,NIGHT_MOSTLY_CLOUDY","Onshore,Onshore,Onshore,Onshore,Onshore",5
5842041f4e65fad6a7708ab7,2024_03_12,28.135426226217064,-80.57895541191101,The Radisson,1.4,0.7221666666666666,1.0676666666666668,23,21,"CLEAR,NIGHT_CLEAR,NIGHT_MOSTLY_CLOUDY,NIGHT_CLEAR,NIGHT_MOSTLY_CLOUDY","Onshore,Onshore,Onshore,Onshore,Onshore",5
5842041f4e65fad6a7708ab8,2024_03_12,28.26664623907351,-80.60448467731476,Picnic Tables,1.4,0.808,1.062,21,21,"MOSTLY_CLEAR,NIGHT_CLEAR,NIGHT_MOSTLY_CLOUDY,NIGHT_CLEAR,NIGHT_MOSTLY_CLOUDY","Onshore,Onshore,Onshore,Onshore,Onshore",5
5842041f4e65fad6a7708ab9,2024_03_12,28.200840983180232,-80.59493,Perkins,1.2,0.6831666666666667,0.983,23,21,"MOSTLY_CLEAR,NIGHT_CLEAR,NIGHT_MOSTLY_CLOUDY,NIGHT_MOSTLY_CLOUDY,NIGHT_CLEAR","Onshore,Onshore,Onshore,Onshore,Onshore",5
5842041f4e65fad6a7708aba,2024_03_12,28.185652556759443,-80.59154,RC's,2,0.8994,1.2692,23,21,"CLEAR,NIGHT_CLEAR,NIGHT_MOSTLY_CLOUDY,NIGHT_MOSTLY_CLOUDY,NIGHT_MOSTLY_CLOUDY","Onshore,Onshore,Onshore,Onshore,Onshore",5
5842041f4e65fad6a7708abc,2024_03_12,28.252541991968208,-80.60269,2nd Light,1.2,0.702,1.008,21,21,"MOSTLY_CLEAR,NIGHT_CLEAR,NIGHT_MOSTLY_CLOUDY,NIGHT_CLEAR,NIGHT_CLEAR","Onshore,Onshore,Onshore,Onshore,Onshore",5
5842041f4e65fad6a7708abd,2024_03_12,27.901611308716447,-80.4697,Bonsteel Park,1.2,0.9065,1.1343333333333332,23,21,"CLEAR,NIGHT_CLEAR,NIGHT_MOSTLY_CLOUDY,NIGHT_MOSTLY_CLOUDY,NIGHT_CLEAR","Onshore,Onshore,Onshore,Onshore,Onshore",5
5842041f4e65fad6a7708abe,2024_03_12,28.2423394657007,-80.60104,Hangar's Beach,1.4,0.823,1.0548333333333333,23,21,"MOSTLY_CLEAR,NIGHT_CLEAR,NIGHT_MOSTLY_CLEAR,NIGHT_CLEAR,NIGHT_CLEAR","Onshore,Onshore,Onshore,Onshore,Onshore",5
5842041f4e65fad6a7708abf,2024_03_12,27.34018197146798,-80.23278,Walton Rocks,1.466,0.9675666666666667,1.2258666666666667,23,22,"MOSTLY_CLOUDY,NIGHT_MOSTLY_CLOUDY,NIGHT_MOSTLY_CLOUDY,NIGHT_OVERCAST,NIGHT_MOSTLY_CLOUDY","Onshore,Onshore,Onshore,Onshore,Onshore",5
5842041f4e65fad6a7708ac0,2024_03_12,25.80407401902198,-80.1222227290161,30th Street,1,0.158,0.462,25,25,"CLEAR,NIGHT_MOSTLY_CLOUDY,NIGHT_MOSTLY_CLOUDY,NIGHT_MOSTLY_CLOUDY,NIGHT_CLOUDY","Onshore,Onshore,Onshore,Onshore,Onshore",5
5842041f4e65fad6a7708ac1,2024_03_12,25.76570280215999,-80.12983304957051,South Beach,1,0.24609999999999999,0.5529000000000001,25,23,"CLEAR,NIGHT_MOSTLY_CLOUDY,NIGHT_CLEAR,NIGHT_MOSTLY_CLOUDY,NIGHT_CLOUDY","Onshore,Onshore,Onshore,Onshore,Onshore",5
5842041f4e65fad6a7708ac2,2024_03_12,26.058022412197,-80.10873562327671,Dania Pier,1,0.222,0.524,24,24,"CLOUDY,NIGHT_MOSTLY_CLOUDY,NIGHT_MOSTLY_CLOUDY,NIGHT_MOSTLY_CLOUDY,NIGHT_OVERCAST","Onshore,Onshore,Onshore,Onshore,Onshore",5
5842041f4e65fad6a7708ac3,2024_03_12,26.04825428257198,-80.11153150137932,Franklin Street,1,0.394,0.7,24,24,"CLOUDY,NIGHT_MOSTLY_CLOUDY,NIGHT_MOSTLY_CLOUDY,NIGHT_MOSTLY_CLOUDY,NIGHT_MOSTLY_CLOUDY","Onshore,Onshore,Onshore,Onshore,Onshore",5
5842041f4e65fad6a7708ac4,2024_03_12,26.09086461141498,-80.10728410144065,John Lloyd State Park,1,0.388,0.692,24,24,"CLOUDY,NIGHT_MOSTLY_CLOUDY,NIGHT_MOSTLY_CLOUDY,NIGHT_MOSTLY_CLOUDY,NIGHT_OVERCAST","Onshore,Onshore,Onshore,Onshore,Onshore",5
5842041f4e65fad6a7708ac5,2024_03_12,26.0971397396683,-80.10298876028907,Spoils,0,0.248,0.558,24,24,"OVERCAST,NIGHT_MOSTLY_CLOUDY,NIGHT_MOSTLY_CLOUDY,NIGHT_MOSTLY_CLOUDY,NIGHT_MOSTLY_CLOUDY","Onshore,Onshore,Onshore,Onshore,Onshore",5
5842041f4e65fad6a7708ac6,2024_03_12,26.18920557475824,-80.09224470008016,Commercial Pier,1,0.332,0.638,24,24,"CLOUDY,NIGHT_MOSTLY_CLOUDY,NIGHT_MOSTLY_CLOUDY,NIGHT_CLEAR,NIGHT_MOSTLY_CLOUDY","Onshore,Onshore,Onshore,Onshore,Onshore",5
5842041f4e65fad6a7708ac7,2024_03_12,28.289851576629342,-80.6063,16th St. South,1,0.584,0.892,23,21,"CLEAR,NIGHT_CLEAR,NIGHT_MOSTLY_CLOUDY,NIGHT_MOSTLY_CLOUDY,NIGHT_MOSTLY_CLOUDY","Onshore,Onshore,Onshore,Onshore,Onshore",5
5842041f4e65fad6a7708ac8,2024_03_12,26.23467460139735,-80.08739675534814,Pompano Pier,0.966,0.08833333333333332,0.3943333333333333,25,23,"OVERCAST,NIGHT_MOSTLY_CLOUDY,NIGHT_MOSTLY_CLOUDY,NIGHT_CLEAR,NIGHT_MOSTLY_CLOUDY","Onshore,Onshore,Onshore,Onshore,Onshore",5
5842041f4e65fad6a7708acb,2024_03_12,26.44179551370651,-80.05928855229453,Atlantic Dunes Park,1.4,0.5014040000000001,0.803912,25,23,"OVERCAST,NIGHT_DRIZZLE,NIGHT_CLEAR,NIGHT_MOSTLY_CLOUDY,NIGHT_MOSTLY_CLOUDY","Cross-shore,Offshore,Onshore,Offshore,Offshore",5
5842041f4e65fad6a7708acd,2024_03_12,26.62215707439298,-80.03599398392342,Hilton Hotel Backyard,0.966,0.4181666666666667,0.7261666666666667,24,23,"OVERCAST,NIGHT_OVERCAST,NIGHT_BRIEF_SHOWERS,NIGHT_OVERCAST,NIGHT_BRIEF_SHOWERS","Onshore,Onshore,Onshore,Onshore,Onshore",5
5842041f4e65fad6a7708ace,2024_03_12,26.96418190555367,-80.07769168113562,Coral Cove Park,1.566,0.8615,1.1368333333333334,24,22,"CLOUDY,NIGHT_MOSTLY_CLOUDY,NIGHT_MOSTLY_CLOUDY,NIGHT_CLOUDY,NIGHT_MOSTLY_CLOUDY","Onshore,Onshore,Onshore,Onshore,Onshore",5
5842041f4e65fad6a7708acf,2024_03_12,26.7029496416037,-80.0318372872607,Palm Beach,1.734,0.47883333333333333,0.7848333333333334,24,23,"LIGHT_RAIN,NIGHT_OVERCAST,NIGHT_OVERCAST,NIGHT_OVERCAST,NIGHT_MOSTLY_CLOUDY","Onshore,Onshore,Onshore,Onshore,Onshore",5
5842041f4e65fad6a7708ad0,2024_03_12,26.97679878167375,-80.08141631388132,Blowing Rocks,1.166,0.6943333333333332,0.8523333333333333,24,22,"MOSTLY_CLOUDY,NIGHT_MOSTLY_CLOUDY,NIGHT_MOSTLY_CLOUDY,NIGHT_CLEAR,NIGHT_OVERCAST","Onshore,Onshore,Onshore,Onshore,Onshore",5
5842041f4e65fad6a7708ad2,2024_03_12,26.45661880078336,-80.05699952321751,Delray Beach,1.466,0.4814,0.7827,25,23,"OVERCAST,NIGHT_DRIZZLE,NIGHT_CLEAR,NIGHT_MOSTLY_CLOUDY,NIGHT_MOSTLY_CLOUDY","Onshore,Cross-shore,Onshore,Onshore,Onshore",5
5842041f4e65fad6a7708ad3,2024_03_12,27.205685534312778,-80.16826629638672,Fletcher's,0.966,0.5525,0.8853333333333333,24,22,"MOSTLY_CLOUDY,NIGHT_MOSTLY_CLOUDY,NIGHT_MOSTLY_CLOUDY,NIGHT_OVERCAST,NIGHT_OVERCAST","Onshore,Onshore,Onshore,Onshore,Onshore",5
5842041f4e65fad6a7708ad5,2024_03_12,26.5848450388814,-80.03649735753257,Lantana Public Beach,0.966,0.5551666666666667,0.7549999999999999,24,23,"CLOUDY,NIGHT_OVERCAST,NIGHT_MOSTLY_CLOUDY,NIGHT_CLEAR,NIGHT_BRIEF_SHOWERS","Onshore,Onshore,Onshore,Onshore,Onshore",5
5842041f4e65fad6a7708ad6,2024_03_12,25.77468432731322,-80.12884045797499,5th Street,1,0.286,0.59,25,25,"CLEAR,NIGHT_MOSTLY_CLOUDY,NIGHT_MOSTLY_CLOUDY,NIGHT_MOSTLY_CLOUDY,NIGHT_OVERCAST","Onshore,Onshore,Onshore,Onshore,Onshore",5
5842041f4e65fad6a7708ad7,2024_03_12,25.795157990715975,-80.12527585029602,21st Street,1,0.17200000000000001,0.474,25,25,"CLEAR,NIGHT_MOSTLY_CLOUDY,NIGHT_MOSTLY_CLOUDY,NIGHT_MOSTLY_CLOUDY,NIGHT_MOSTLY_CLOUDY","Onshore,Onshore,Onshore,Onshore,Onshore",5
5842041f4e65fad6a7708ad8,2024_03_12,25.897806453088073,-80.1211827993393,Haulover Inlet (South Jetty),1,0.338,0.64,25,25,"CLEAR,NIGHT_MOSTLY_CLOUDY,NIGHT_CLEAR,NIGHT_MOSTLY_CLOUDY,NIGHT_OVERCAST","Onshore,Onshore,Onshore,Onshore,Onshore",5
5842041f4e65fad6a7708ad9,2024_03_12,25.90147392328634,-80.12110769748688,Haulover Inlet (North Jetty),1,0.434,0.74,25,25,"CLEAR,NIGHT_MOSTLY_CLOUDY,NIGHT_CLEAR,NIGHT_MOSTLY_CLOUDY,NIGHT_OVERCAST","Onshore,Onshore,Onshore,Onshore,Onshore",5
5842041f4e65fad6a7708ada,2024_03_12,25.87049374242476,-80.11828560342356,85th Street,1,0.294,0.6,25,25,"MOSTLY_CLOUDY,NIGHT_MOSTLY_CLOUDY,NIGHT_MOSTLY_CLOUDY,NIGHT_MOSTLY_CLOUDY,NIGHT_OVERCAST","Onshore,Onshore,Onshore,Onshore,Onshore",5
5842041f4e65fad6a7708adb,2024_03_12,26.25486382031396,-80.0805,Hillsboro Inlet,0.966,0.20209616666666666,0.442774,28,26,"CLOUDY,NIGHT_MOSTLY_CLOUDY,NIGHT_MOSTLY_CLOUDY,NIGHT_MOSTLY_CLOUDY,NIGHT_MOSTLY_CLOUDY","Cross-shore,Cross-shore,Onshore,Onshore,Onshore",5
5842041f4e65fad6a7708add,2024_03_12,26.29705672965111,-80.07612393274484,Hillsboro Beach,0.966,0.13166666666666663,0.4356666666666666,28,26,"OVERCAST,NIGHT_MOSTLY_CLOUDY,NIGHT_MOSTLY_CLOUDY,NIGHT_MOSTLY_CLOUDY,NIGHT_CLEAR","Onshore,Onshore,Onshore,Onshore,Onshore",5
5842041f4e65fad6a7708ade,2024_03_12,26.36569956413266,-80.06717936869391,Red Reef Park,0.966,0.22616666666666668,0.53,25,23,"OVERCAST,NIGHT_DRIZZLE,NIGHT_CLEAR,NIGHT_CLEAR,NIGHT_BRIEF_SHOWERS","Onshore,Onshore,Onshore,Onshore,Onshore",5
5842041f4e65fad6a7708adf,2024_03_12,26.54593873498907,-80.04104359585143,Boynton Beach Inlet (Northside),0.966,0.2003333333333333,0.50216666666666665,24,23,"OVERCAST,NIGHT_CLEAR,NIGHT_BRIEF_SHOWERS,NIGHT_MOSTLY_CLOUDY,NIGHT_OVERCAST","Onshore,Onshore,Onshore,Onshore,Onshore",5
5842041f4e65fad6a7708ae0,2024_03_12,26.92746505629809,-80.06721138954163,Corners,1.466,0.5741765,1.0241695,24,23,"OVERCAST,NIGHT_OVERCAST,NIGHT_MOSTLY_CLOUDY,NIGHT_MOSTLY_CLOUDY,NIGHT_MOSTLY_CLOUDY","Onshore,Onshore,Onshore,Onshore,Onshore",5
5842041f4e65fad6a7708ae1,2024_03_12,26.76983179886943,-80.03413481937037,The Cove,0.966,0.45633333333333337,0.7663333333333334,24,23,"OVERCAST,NIGHT_OVERCAST,NIGHT_MOSTLY_CLOUDY,NIGHT_CLOUDY,NIGHT_OVERCAST","Onshore,Onshore,Onshore,Onshore,Onshore",5
5842041f4e65fad6a7708ae3,2024_03_12,26.39224485175123,-80.0650461233983,Japanese Rock,0.966,0.182,0.48799999999999993,25,23,"OVERCAST,NIGHT_OVERCAST,NIGHT_CLEAR,NIGHT_MOSTLY_CLOUDY,NIGHT_MOSTLY_CLOUDY","Onshore,Onshore,Onshore,Onshore,Onshore",5
5842041f4e65fad6a7708ae4,2024_03_12,29.94810928551321,-85.42545434612366,Mexico Beach,1,0,0.192,19,19,"CLEAR,NIGHT_CLEAR,NIGHT_CLEAR,NIGHT_CLEAR,NIGHT_MOSTLY_CLEAR","Offshore,Offshore,Offshore,Offshore,Offshore",5
5842041f4e65fad6a7708ae5,2024_03_12,30.11752500931267,-85.7306039427457,Shell Island,1,0,0.24,19,19,"CLEAR,NIGHT_CLEAR,NIGHT_CLEAR,NIGHT_CLEAR,NIGHT_CLEAR","Offshore,Offshore,Offshore,Offshore,Offshore",5
5842041f4e65fad6a7708ae7,2024_03_12,29.94901514702268,-85.43042978529013,D.J.'s,1,0,0.192,19,19,"CLEAR,NIGHT_CLEAR,NIGHT_CLEAR,NIGHT_CLEAR,NIGHT_MOSTLY_CLEAR","Offshore,Offshore,Offshore,Offshore,Offshore",5
5842041f4e65fad6a7708ae8,2024_03_12,30.12396111446713,-85.73636797034509,St. Andrew's Park,0,0,0.14906666666666665,19,18,"CLEAR,NIGHT_CLEAR,NIGHT_CLEAR,NIGHT_CLEAR,NIGHT_CLEAR","Offshore,Offshore,Offshore,Offshore,Offshore",5
5842041f4e65fad6a7708ae9,2024_03_12,30.16781531760227,-85.79604918824084,Spinnaker,0,0,0.14906666666666665,19,18,"CLEAR,NIGHT_CLEAR,NIGHT_CLEAR,NIGHT_CLEAR,NIGHT_MOSTLY_CLEAR","Offshore,Offshore,Offshore,Offshore,Offshore",5
5842041f4e65fad6a7708aea,2024_03_12,30.18877050526983,-85.83243530466363,Wood Pier,1,-6.666666666666668e-4,0.25941333333333333,19,18,"CLEAR,NIGHT_CLEAR,NIGHT_CLEAR,NIGHT_CLEAR,NIGHT_MOSTLY_CLEAR","Offshore,Offshore,Offshore,Offshore,Offshore",5
5842041f4e65fad6a7708aeb,2024_03_12,30.2676205895555,-85.9938578144113,Inlet Beach Pier,1,-0.001166666666666666,0.27891333333333335,19,18,"CLEAR,NIGHT_CLEAR,NIGHT_CLEAR,NIGHT_CLEAR,NIGHT_CLEAR","Offshore,Offshore,Offshore,Offshore,Offshore",5
5842041f4e65fad6a7708aec,2024_03_12,30.31815542759119,-86.1383771867044,Bud and Alley's,1,-0.0010000000000000009,0.27891333333333335,19,18,"CLEAR,NIGHT_CLEAR,NIGHT_CLEAR,NIGHT_CLEAR,NIGHT_CLEAR","Offshore,Offshore,Offshore,Offshore,Offshore",5
5842041f4e65fad6a7708aed,2024_03_12,30.32686082481946,-86.16650590275447,Grayton Beach,1,6.666666666666664e-4,0.28874666666666665,19,18,"CLEAR,NIGHT_CLEAR,NIGHT_CLEAR,NIGHT_CLEAR,NIGHT_CLEAR","Offshore,Offshore,Offshore,Offshore,Offshore",5
5842041f4e65fad6a7708aee,2024_03_12,30.33661488976303,-86.20094370184573,Blue Mountain Beach,1,6.666666666666664e-4,0.28874666666666665,19,18,"CLEAR,NIGHT_MOSTLY_CLEAR,NIGHT_CLEAR,NIGHT_CLEAR,NIGHT_CLEAR","Offshore,Offshore,Offshore,Offshore,Offshore",5
5842041f4e65fad6a7708aef,2024_03_12,30.37677202831587,-86.38513326644897,Pompano Joe's,1,-0.001166666666666666,0.28891333333333336,19,18,"CLEAR,NIGHT_CLEAR,NIGHT_CLEAR,NIGHT_CLEAR,NIGHT_CLEAR","Offshore,Offshore,Offshore,Offshore,Offshore",5
5842041f4e65fad6a7708af0,2024_03_12,30.37429731725911,-86.36686966905461,Seascape,1,6.666666666666664e-4,0.28874666666666665,19,18,"CLEAR,NIGHT_CLEAR,NIGHT_CLEAR,NIGHT_CLEAR,NIGHT_CLEAR","Offshore,Offshore,Offshore,Offshore,Offshore",5
5842041f4e65fad6a7708af1,2024_03_12,30.382815988547186,-86.45838975906372,The Back Porch,1.4,6.666666666666664e-4,0.29474666666666666,19,18,"CLEAR,NIGHT_CLEAR,NIGHT_CLEAR,NIGHT_CLEAR,NIGHT_CLEAR","Offshore,Offshore,Offshore,Offshore,Offshore",5
5842041f4e65fad6a7708af2,2024_03_12,30.21207176798612,-85.87989730830542,Panama City Pier,1,-6.666666666666668e-4,0.2592466666666667,19,18,"CLEAR,NIGHT_CLEAR,NIGHT_CLEAR,NIGHT_CLEAR,NIGHT_MOSTLY_CLEAR","Offshore,Offshore,Offshore,Offshore,Offshore",5
5842041f4e65fad6a7708af3,2024_03_12,30.37521499110326,-86.37169944119874,Whale's Tail,1,8.333333333333341e-4,0.28874666666666665,19,18,"CLEAR,NIGHT_CLEAR,NIGHT_CLEAR,NIGHT_CLEAR,NIGHT_CLEAR","Offshore,Offshore,Offshore,Offshore,Offshore",5
5842041f4e65fad6a7708af4,2024_03_12,30.38120596658251,-86.43045768307817,Old Crystal Pier,1.4,6.666666666666664e-4,0.29258,19,18,"CLEAR,NIGHT_CLEAR,NIGHT_CLEAR,NIGHT_CLEAR,NIGHT_CLEAR","Offshore,Offshore,Offshore,Offshore,Offshore",5
5842041f4e65fad6a7708af5,2024_03_12,30.38090573159031,-86.50654862060082,Jetty East,1,0.004500000000000001,0.29858,19,18,"CLEAR,NIGHT_CLEAR,NIGHT_CLEAR,NIGHT_CLEAR,NIGHT_CLEAR","Offshore,Offshore,Offshore,Offshore,Offshore",5
5842041f4e65fad6a7708af6,2024_03_12,30.37584509640838,-86.50563273884252,HMO's,0.4,0.004500000000000001,0.29858,19,18,"CLEAR,NIGHT_CLEAR,NIGHT_CLEAR,NIGHT_CLEAR,NIGHT_CLEAR","Offshore,Offshore,Offshore,Offshore,Offshore",5
5842041f4e65fad6a7708af7,2024_03_12,30.38124006131522,-86.50052254675529,Two By Fours,0.6,0.010333333333333332,0.3084133333333333,19,18,"CLEAR,NIGHT_CLEAR,NIGHT_CLEAR,NIGHT_CLEAR,NIGHT_CLEAR","Offshore,Offshore,Offshore,Offshore,Offshore",5
5842041f4e65fad6a7708af8,2024_03_12,30.38250751017554,-86.45775957227345,The Pumphouse,2,0.023833333333333335,0.32991333333333334,19,18,"CLEAR,NIGHT_CLEAR,NIGHT_CLEAR,NIGHT_CLEAR,NIGHT_CLEAR","Offshore,Offshore,Offshore,Offshore,Offshore",5
