_id,date,lat,lon,name,daily_mean_swell_rating,daily_mean_wave_height_min,daily_mean_wave_height_max,daily_mean_water_temperature_max,daily_mean_water_temperature_min,weather_per_timestamp,wind_per_timestamp,n_samples_per_day
5842041f4e65fad6a77087f9,2024_02_18,37.741668,-122.51038,South Ocean Beach,2.227272727272727,3.668575757575758,4.940969696969697,14,14,"MOSTLY_CLOUDY,BRIEF_SHOWERS,NIGHT_MIST,NIGHT_MIST,NIGHT_MIST,MOSTLY_CLOUDY,MIST,CLEAR,CLEAR,CLEAR,MIST","Offshore,Offshore,Cross-shore,Offshore,Offshore,Offshore,Offshore,Offshore,Offshore,Offshore,Offshore",11
5842041f4e65fad6a7708801,2024_02_18,37.49142,-122.50428,Maverick's,NA,4.325363636363637,5.522833333333334,13,13,"SHOWERS,MOSTLY_CLOUDY,NIGHT_MIST,NIGHT_MIST,NIGHT_MOSTLY_CLOUDY,MOSTLY_CLOUDY,CLEAR,CLEAR,CLEAR,MOSTLY_CLEAR,MOSTLY_CLOUDY","Onshore,Onshore,Onshore,Onshore,Onshore,Onshore,Onshore,Onshore,Onshore,Onshore,Onshore",11
5842041f4e65fad6a7708804,2024_02_18,44.997,-124.018,Roads End,2.5454545454545454,2.9318181818181817,3.4963636363636366,11,11,"LIGHT_RAIN,LIGHT_SHOWERS_POSSIBLE,NIGHT_LIGHT_RAIN,NIGHT_CLOUDY,NIGHT_DRIZZLE,NIGHT_MIST,OVERCAST,OVERCAST,MOSTLY_CLOUDY,CLEAR,MOSTLY_CLOUDY","Offshore,Offshore,Offshore,Offshore,Cross-shore,Onshore,Cross-shore,Cross-shore,Cross-shore,Cross-shore,Cross-shore",11
5842041f4e65fad6a7708805,2024_02_18,36.95188851423011,-122.02522,Steamer Lane,2.1663636363636365,2.4445969696969696,3.0578696969696972,14,14,"LIGHT_RAIN,MIST,NIGHT_FOG,NIGHT_FOG,NIGHT_CLEAR,CLEAR,CLEAR,CLEAR,CLEAR,CLEAR,MOSTLY_CLOUDY","Onshore,Onshore,Onshore,Onshore,Onshore,Offshore,Onshore,Onshore,Cross-shore,Onshore,Onshore",11
5842041f4e65fad6a7708806,2024_02_18,36.95918781542251,-122.02489,Cowells,1.8481818181818181,0.5951515151515152,0.897160606060606,14,14,"LIGHT_RAIN,MIST,NIGHT_FOG,NIGHT_LIGHT_RAIN_AND_FOG,NIGHT_CLEAR,CLEAR,CLEAR,CLEAR,CLEAR,CLEAR,MOSTLY_CLOUDY","Onshore,Onshore,Cross-shore,Cross-shore,Onshore,Cross-shore,Onshore,Onshore,Onshore,Onshore,Onshore",11
5842041f4e65fad6a7708807,2024_02_18,36.95468082526536,-121.97234,Pleasure Point,2.5145454545454546,2.5642939393939392,3.200975757575758,14,14,"RAIN,LIGHT_RAIN,NIGHT_FOG,NIGHT_FOG,NIGHT_CLEAR,CLEAR,CLEAR,CLEAR,CLEAR,CLEAR,MOSTLY_CLEAR","Onshore,Onshore,Onshore,Onshore,Cross-shore,Onshore,Onshore,Onshore,Onshore,Onshore,Onshore",11
5842041f4e65fad6a770880a,2024_02_18,35.37815414378748,-120.86589,Morro Bay,2.5154545454545456,2.764290909090909,3.725836363636364,14,14,"RAIN,RAIN,NIGHT_MOSTLY_CLOUDY,NIGHT_MOSTLY_CLOUDY,NIGHT_CLEAR,CLEAR,CLEAR,CLEAR,CLEAR,MOSTLY_CLEAR,MOSTLY_CLEAR","Offshore,Offshore,Offshore,Offshore,Offshore,Offshore,Offshore,Offshore,Offshore,Offshore,Offshore",11
5842041f4e65fad6a770880b,2024_02_18,36.95782765000708,-121.9672887511276,Jack's,1.8481818181818181,0.7654181818181818,1.060760606060606,14,14,"RAIN,LIGHT_RAIN,NIGHT_FOG,NIGHT_FOG,NIGHT_CLEAR,CLEAR,CLEAR,CLEAR,CLEAR,CLEAR,MOSTLY_CLEAR","Onshore,Onshore,Cross-shore,Onshore,Onshore,Onshore,Onshore,Onshore,Onshore,Onshore,Onshore",11
5842041f4e65fad6a770880d,2024_02_18,34.29982939936656,-119.3489016603669,Gold Coast Beachbreaks,3,0.9063636363636364,1.1336363636363636,15,15,"MOSTLY_CLEAR,MOSTLY_CLEAR,NIGHT_MOSTLY_CLOUDY,NIGHT_FOG,NIGHT_FOG,LIGHT_RAIN_AND_FOG,CLEAR,CLEAR,CLEAR,CLEAR,CLEAR","Onshore,Cross-shore,Offshore,Cross-shore,Cross-shore,Cross-shore,Cross-shore,Cross-shore,Cross-shore,Cross-shore,Cross-shore",11
5842041f4e65fad6a7708811,2024_02_18,34.245076,-119.26799,Ventura Harbor,3,2.4439298484848484,3.173136287878788,14,14,"MOSTLY_CLEAR,CLEAR,NIGHT_MOSTLY_CLOUDY,NIGHT_FOG,NIGHT_FOG,MIST,CLEAR,CLEAR,MOSTLY_CLOUDY,MOSTLY_CLOUDY,MOSTLY_CLOUDY","Onshore,Onshore,Offshore,Cross-shore,Offshore,Offshore,Offshore,Offshore,Onshore,Onshore,Onshore",11
5842041f4e65fad6a7708813,2024_02_18,34.051,-118.964,County Line,3.2427272727272727,1.203269696969697,1.6063878787878787,15,15,"MOSTLY_CLOUDY,MOSTLY_CLOUDY,NIGHT_BRIEF_SHOWERS,NIGHT_FOG,NIGHT_FOG,FOG,MOSTLY_CLOUDY,MOSTLY_CLOUDY,MOSTLY_CLOUDY,BRIEF_SHOWERS,MOSTLY_CLOUDY","Onshore,Onshore,Offshore,Offshore,Offshore,Offshore,Offshore,Cross-shore,Offshore,Offshore,Cross-shore",11
5842041f4e65fad6a7708814,2024_02_18,34.37256264378892,-119.47797,Rincon,3.3636363636363638,2.2736363636363635,2.7172727272727273,14.363636363636363,14.363636363636363,"MOSTLY_CLEAR,CLEAR,NIGHT_MOSTLY_CLOUDY,NIGHT_SHOWERS,NIGHT_MOSTLY_CLOUDY,OVERCAST,CLEAR,CLEAR,CLEAR,MOSTLY_CLOUDY,MOSTLY_CLEAR","Cross-shore,Cross-shore,Cross-shore,Cross-shore,Cross-shore,Cross-shore,Cross-shore,Cross-shore,Cross-shore,Onshore,Onshore",11
5842041f4e65fad6a7708817,2024_02_18,34.03096101876324,-118.68109,Malibu Third Point,2.8181818181818183,0.47909090909090907,0.7845454545454545,15,15,"MOSTLY_CLOUDY,MOSTLY_CLOUDY,NIGHT_FOG,NIGHT_FOG,NIGHT_FOG,MIST,MIST,MIST,MIST,MIST,BRIEF_SHOWERS","Cross-shore,Cross-shore,Onshore,Onshore,Onshore,Onshore,Onshore,Onshore,Onshore,Onshore,Onshore",11
5842041f4e65fad6a7708819,2024_02_18,33.984079047970035,-118.47381591796875,Venice Beach,3.2427272727272727,1.8218272727272729,2.308409090909091,14,14,"MOSTLY_CLOUDY,MOSTLY_CLOUDY,NIGHT_FOG,NIGHT_FOG,NIGHT_MIST,MIST,CLEAR,MOSTLY_CLOUDY,MIST,MIST,MIST","Onshore,Onshore,Onshore,Offshore,Offshore,Offshore,Offshore,Offshore,Offshore,Offshore,Onshore",11
5842041f4e65fad6a770881e,2024_02_18,34.037508438646746,-118.58339846155594,Topanga Beach,3.727272727272727,1.3033454545454546,1.5823727272727273,15,15,"MIST,MIST,NIGHT_FOG,NIGHT_FOG,NIGHT_MIST,MIST,MIST,BRIEF_SHOWERS,MIST,MIST,MIST","Onshore,Onshore,Offshore,Offshore,Offshore,Offshore,Offshore,Cross-shore,Cross-shore,Cross-shore,Onshore",11
5842041f4e65fad6a7708820,2024_02_18,33.73954373690184,-118.11414,Seal Beach Jetty,2.8181818181818183,1.1618181818181819,1.4436363636363636,15,15,"DRIZZLE,OVERCAST,NIGHT_FOG,NIGHT_FOG,NIGHT_FOG,FOG,MIST,MOSTLY_CLOUDY,BRIEF_SHOWERS,BRIEF_SHOWERS,BRIEF_SHOWERS","Onshore,Onshore,Cross-shore,Cross-shore,Offshore,Offshore,Offshore,Cross-shore,Onshore,Onshore,Onshore",11
5842041f4e65fad6a7708822,2024_02_18,33.72309983348433,-118.08078,Anderson Street,2.909090909090909,1.7163636363636363,2.059090909090909,15,15,"OVERCAST,DRIZZLE,NIGHT_FOG,NIGHT_FOG,NIGHT_FOG,FOG,OVERCAST,MOSTLY_CLOUDY,MIST,MIST,MIST","Onshore,Onshore,Offshore,Cross-shore,Offshore,Offshore,Offshore,Offshore,Onshore,Onshore,Onshore",11
5842041f4e65fad6a7708827,2024_02_18,33.65574085629463,-118.00397,Huntington Beach Pier Northside,3.3336363636363635,1.8864878787878787,2.650251515151515,14,14,"OVERCAST,DRIZZLE,NIGHT_MOSTLY_CLOUDY,NIGHT_MOSTLY_CLOUDY,NIGHT_FOG,FOG,MIST,MIST,MIST,MIST,MIST","Onshore,Onshore,Offshore,Cross-shore,Offshore,Offshore,Offshore,Offshore,Cross-shore,Cross-shore,Onshore",11
5842041f4e65fad6a7708828,2024_02_18,34.272041739333,-119.2997646331,C St.,3.409090909090909,1.8791909090909091,2.502157575757576,14,14,"MOSTLY_CLEAR,CLEAR,NIGHT_BRIEF_SHOWERS,NIGHT_FOG,NIGHT_MIST,OVERCAST,CLEAR,CLEAR,CLEAR,CLEAR,MOSTLY_CLOUDY","Onshore,Onshore,Offshore,Offshore,Offshore,Offshore,Offshore,Offshore,Onshore,Onshore,Onshore",11
5842041f4e65fad6a770882a,2024_02_18,33.61555743705257,-117.93676,Newport Lower Jetties,3.439090909090909,1.5493272727272727,2.0144,15,15,"OVERCAST,OVERCAST,NIGHT_FOG,NIGHT_MOSTLY_CLOUDY,NIGHT_FOG,FOG,MIST,MIST,MIST,MIST,CLEAR","Onshore,Onshore,Offshore,Cross-shore,Offshore,Offshore,Offshore,Cross-shore,Onshore,Onshore,Onshore",11
5842041f4e65fad6a770882b,2024_02_18,33.5930302087,-117.88199,The Wedge,2.8181818181818183,1.0328018181818182,1.4024327272727273,15,15,"OVERCAST,OVERCAST,NIGHT_FOG,NIGHT_MOSTLY_CLOUDY,NIGHT_FOG,FOG,MIST,CLEAR,MOSTLY_CLOUDY,MOSTLY_CLOUDY,MOSTLY_CLOUDY","Onshore,Onshore,Offshore,Cross-shore,Offshore,Offshore,Offshore,Onshore,Cross-shore,Onshore,Onshore",11
5842041f4e65fad6a770882c,2024_02_18,33.60577342582,-117.9315376281,Newport Beach Pier,3,1.3086939393939394,1.6311575757575758,15,15,"CLOUDY,CLOUDY,NIGHT_FOG,NIGHT_MOSTLY_CLOUDY,NIGHT_MOSTLY_CLOUDY,FOG,MIST,MIST,MIST,MIST,MOSTLY_CLOUDY","Cross-shore,Cross-shore,Offshore,Onshore,Onshore,Onshore,Cross-shore,Cross-shore,Onshore,Onshore,Onshore",11
5842041f4e65fad6a770882e,2024_02_18,33.475793399792984,-117.72291,Salt Creek,3.5454545454545454,1.5847060606060606,2.233760606060606,14,14,"MOSTLY_CLOUDY,MOSTLY_CLOUDY,NIGHT_MOSTLY_CLOUDY,NIGHT_FOG,NIGHT_CLEAR,CLEAR,MIST,CLEAR,CLEAR,MOSTLY_CLEAR,CLEAR","Onshore,Onshore,Offshore,Offshore,Offshore,Offshore,Offshore,Offshore,Offshore,Cross-shore,Cross-shore",11
5842041f4e65fad6a7708830,2024_02_18,33.41800974113613,-117.61952,T-Street,3.6818181818181817,1.2959363636363637,1.846969696969697,14,14,"MOSTLY_CLOUDY,MOSTLY_CLOUDY,NIGHT_MOSTLY_CLOUDY,NIGHT_CLEAR,NIGHT_CLEAR,CLEAR,MOSTLY_CLOUDY,CLEAR,CLEAR,MOSTLY_CLEAR,CLEAR","Onshore,Cross-shore,Offshore,Offshore,Cross-shore,Onshore,Offshore,Cross-shore,Onshore,Onshore,Onshore",11
5842041f4e65fad6a7708832,2024_02_18,33.202391008646,-117.39475,Oceanside Harbor,3.1663636363636365,1.6652757575757577,2.2831121212121213,15,15,"CLEAR,CLEAR,NIGHT_FOG,NIGHT_FOG,NIGHT_CLEAR,CLEAR,CLEAR,MOSTLY_CLOUDY,MOSTLY_CLEAR,MOSTLY_CLEAR,MOSTLY_CLEAR","Onshore,Onshore,Offshore,Offshore,Offshore,Offshore,Offshore,Offshore,Offshore,Offshore,Onshore",11
5842041f4e65fad6a7708835,2024_02_18,33.19477795952803,-117.38667,Oceanside Pier,3,1.5971575757575758,2.101824242424242,15,15,"OVERCAST,CLOUDY,NIGHT_FOG,NIGHT_FOG,NIGHT_MOSTLY_CLEAR,CLEAR,MOSTLY_CLOUDY,CLEAR,CLEAR,CLEAR,MOSTLY_CLEAR","Onshore,Onshore,Cross-shore,Offshore,Offshore,Offshore,Offshore,Offshore,Offshore,Cross-shore,Onshore",11
5842041f4e65fad6a7708837,2024_02_18,33.14948100706,-117.35029,Tamarack,2.8181818181818183,0.9145454545454546,1.1490909090909092,15,15,"CLEAR,CLEAR,NIGHT_FOG,NIGHT_MOSTLY_CLOUDY,NIGHT_CLEAR,CLEAR,CLEAR,CLEAR,CLEAR,CLEAR,CLEAR","Onshore,Onshore,Offshore,Offshore,Offshore,Offshore,Offshore,Offshore,Offshore,Offshore,Onshore",11
5842041f4e65fad6a7708839,2024_02_18,32.865777159358856,-117.25614295356122,Scripps,3,1.4230848484848486,2.0637121212121214,14,14,"CLEAR,CLOUDY,NIGHT_FOG,NIGHT_CLEAR,NIGHT_MOSTLY_CLEAR,MOSTLY_CLEAR,CLEAR,CLEAR,CLEAR,CLEAR,CLEAR","Onshore,Onshore,Cross-shore,Offshore,Offshore,Offshore,Offshore,Offshore,Cross-shore,Onshore,Onshore",11
5842041f4e65fad6a770883a,2024_02_18,32.813094,-117.27381,Birdrock,3.5454545454545454,2.2372727272727273,2.6818181818181817,15,15,"CLOUDY,CLOUDY,NIGHT_MOSTLY_CLOUDY,NIGHT_FOG,NIGHT_MIST,FOG,MOSTLY_CLEAR,CLEAR,CLEAR,CLEAR,CLEAR","Onshore,Cross-shore,Offshore,Offshore,Cross-shore,Offshore,Offshore,Offshore,Cross-shore,Onshore,Onshore",11
5842041f4e65fad6a770883b,2024_02_18,32.877231,-117.25303,Blacks,4.151818181818181,1.8800424242424243,2.7089787878787877,14,14,"CLEAR,CLOUDY,NIGHT_FOG,NIGHT_CLEAR,NIGHT_MOSTLY_CLEAR,MOSTLY_CLEAR,CLEAR,CLEAR,CLEAR,CLEAR,CLEAR","Onshore,Onshore,Onshore,Cross-shore,Offshore,Offshore,Onshore,Onshore,Onshore,Onshore,Onshore",11
5842041f4e65fad6a770883c,2024_02_18,32.82978974229765,-117.28161740727381,Windansea,3.727272727272727,1.781178787878788,2.2484151515151516,14,14,"CLOUDY,CLOUDY,NIGHT_FOG,NIGHT_MIST,NIGHT_CLEAR,MIST,CLEAR,CLEAR,CLEAR,CLEAR,CLEAR","Onshore,Onshore,Offshore,Offshore,Offshore,Offshore,Offshore,Offshore,Offshore,Cross-shore,Onshore",11
5842041f4e65fad6a770883d,2024_02_18,32.838278,-117.28396,Horseshoe,3.5454545454545454,1.95,2.331818181818182,15,15,"CLOUDY,CLOUDY,NIGHT_FOG,NIGHT_MIST,NIGHT_CLEAR,MIST,CLEAR,CLEAR,CLEAR,CLEAR,CLEAR","Onshore,Onshore,Offshore,Offshore,Offshore,Offshore,Offshore,Offshore,Onshore,Onshore,Onshore",11
5842041f4e65fad6a770883f,2024_02_18,32.75034717673179,-117.25337,Ocean Beach,2.5454545454545454,1.8737545454545455,2.3816030303030304,14,14,"CLOUDY,MOSTLY_CLOUDY,NIGHT_FOG,NIGHT_MOSTLY_CLOUDY,NIGHT_CLEAR,CLEAR,MIST,CLEAR,CLEAR,CLEAR,CLEAR","Onshore,Onshore,Offshore,Offshore,Offshore,Offshore,Offshore,Offshore,Offshore,Onshore,Onshore",11
5842041f4e65fad6a7708840,2024_02_18,32.73693,-117.25718,Sunset Cliffs,3.727272727272727,2.149090909090909,2.577272727272727,15,15,"CLOUDY,MOSTLY_CLOUDY,NIGHT_FOG,NIGHT_FOG,NIGHT_MIST,MIST,CLEAR,CLEAR,CLEAR,CLEAR,CLEAR","Onshore,Onshore,Offshore,Offshore,Offshore,Offshore,Offshore,Offshore,Offshore,Cross-shore,Onshore",11
5842041f4e65fad6a7708841,2024_02_18,32.796582258728826,-117.25779,Pacific Beach,3.090909090909091,1.6938545454545455,2.337127272727273,14,14,"CLOUDY,CLOUDY,NIGHT_FOG,NIGHT_MOSTLY_CLEAR,NIGHT_MOSTLY_CLOUDY,MOSTLY_CLEAR,MIST,CLEAR,CLEAR,CLEAR,CLEAR","Onshore,Cross-shore,Offshore,Offshore,Cross-shore,Offshore,Offshore,Offshore,Cross-shore,Onshore,Onshore",11
5842041f4e65fad6a7708842,2024_02_18,32.776636,-117.25514,Mission Beach,3.1818181818181817,1.6754454545454545,2.3150818181818185,14,14,"CLOUDY,CLOUDY,NIGHT_FOG,NIGHT_MOSTLY_CLEAR,NIGHT_MOSTLY_CLOUDY,MOSTLY_CLEAR,MIST,CLEAR,CLEAR,CLEAR,CLEAR","Onshore,Onshore,Offshore,Offshore,Offshore,Offshore,Offshore,Offshore,Cross-shore,Onshore,Onshore",11
5842041f4e65fad6a7708844,2024_02_18,32.577195519016,-117.13475,Imperial Beach Pier,3,2.211818181818182,2.653636363636364,15,15,"CLOUDY,MOSTLY_CLOUDY,NIGHT_FOG,NIGHT_FOG,NIGHT_MOSTLY_CLEAR,CLEAR,CLEAR,CLEAR,CLEAR,CLEAR,CLEAR","Onshore,Onshore,Offshore,Offshore,Offshore,Offshore,Offshore,Offshore,Cross-shore,Onshore,Onshore",11
5842041f4e65fad6a770884a,2024_02_18,42.88678181061,-70.80843,Seabrook,0.22727272727272727,0.04001166666666667,0.16873439393939396,4,3,"NIGHT_CLEAR,NIGHT_CLEAR,NIGHT_CLEAR,NIGHT_CLEAR,CLEAR,CLEAR,CLEAR,CLEAR,CLEAR,CLEAR,CLEAR","Offshore,Offshore,Offshore,Offshore,Cross-shore,Cross-shore,Cross-shore,Cross-shore,Offshore,Offshore,Offshore",11
5842041f4e65fad6a770884e,2024_02_18,41.434181432898335,-71.45312118111178,Narragansett,0.6063636363636363,0.20311212121212122,0.4848272727272728,5,4,"NIGHT_CLEAR,NIGHT_CLEAR,NIGHT_CLEAR,NIGHT_CLEAR,CLEAR,CLEAR,CLEAR,CLEAR,CLEAR,CLEAR,CLEAR","Offshore,Offshore,Cross-shore,Offshore,Cross-shore,Cross-shore,Cross-shore,Cross-shore,Cross-shore,Cross-shore,Cross-shore",11
5842041f4e65fad6a7708850,2024_02_18,40.582703230722,-73.65247,Lincoln Blvd,0.05454545454545455,0.20008969696969697,0.44737454545454547,5,4,"NIGHT_CLEAR,NIGHT_CLEAR,NIGHT_CLEAR,NIGHT_CLEAR,CLEAR,CLEAR,CLEAR,CLEAR,CLEAR,CLEAR,CLEAR","Onshore,Offshore,Onshore,Onshore,Cross-shore,Cross-shore,Cross-shore,Cross-shore,Cross-shore,Cross-shore,Offshore",11
5842041f4e65fad6a7708852,2024_02_18,40.58342841721757,-73.81182,Rockaways,0,0.09536969696969697,0.3475030303030303,5,4,"NIGHT_CLEAR,NIGHT_CLEAR,NIGHT_CLEAR,NIGHT_CLEAR,CLEAR,CLEAR,CLEAR,CLEAR,CLEAR,CLEAR,CLEAR","Cross-shore,Offshore,Cross-shore,Cross-shore,Onshore,Onshore,Onshore,Onshore,Onshore,Onshore,Cross-shore",11
5842041f4e65fad6a7708853,2024_02_18,40.330474,-73.9734,Monmouth Beach,0.48454545454545456,0.06204545454545455,0.33303636363636363,6,5,"NIGHT_CLEAR,NIGHT_CLEAR,NIGHT_CLEAR,NIGHT_CLEAR,CLEAR,CLEAR,CLEAR,CLEAR,CLEAR,CLEAR,CLEAR","Offshore,Offshore,Offshore,Offshore,Offshore,Offshore,Offshore,Offshore,Offshore,Offshore,Offshore",11
5842041f4e65fad6a7708856,2024_02_18,40.113,-74.028,Manasquan Inlet,0.05454545454545455,0.01290909090909091,0.30054848484848484,6,5,"NIGHT_CLEAR,NIGHT_CLEAR,NIGHT_CLEAR,NIGHT_CLEAR,CLEAR,CLEAR,CLEAR,CLEAR,CLEAR,CLEAR,CLEAR","Offshore,Offshore,Offshore,Offshore,Offshore,Offshore,Offshore,Offshore,Offshore,Offshore,Offshore",11
5842041f4e65fad6a7708857,2024_02_18,39.941519877445664,-74.06829,Casino Pier,0.22090909090909092,0.014363636363636363,0.30230606060606063,6,5,"NIGHT_CLEAR,NIGHT_CLEAR,NIGHT_CLEAR,NIGHT_CLEAR,CLEAR,CLEAR,CLEAR,CLEAR,CLEAR,CLEAR,CLEAR","Offshore,Offshore,Offshore,Offshore,Offshore,Offshore,Offshore,Offshore,Offshore,Offshore,Offshore",11
5842041f4e65fad6a7708858,2024_02_18,39.28223089949212,-74.55766,North End OC,0.05454545454545455,0.004625454545454546,0.29563757575757577,6,5,"NIGHT_CLEAR,NIGHT_CLEAR,NIGHT_CLEAR,NIGHT_CLEAR,CLEAR,CLEAR,CLEAR,CLEAR,CLEAR,CLEAR,CLEAR","Offshore,Offshore,Offshore,Offshore,Cross-shore,Cross-shore,Onshore,Cross-shore,Cross-shore,Cross-shore,Cross-shore",11
5842041f4e65fad6a770885b,2024_02_18,39.65080599934257,-74.17146,Ship Bottom,0.22090909090909092,0.03198909090909091,0.2883775757575758,6,5,"NIGHT_CLEAR,NIGHT_CLEAR,NIGHT_CLEAR,NIGHT_CLEAR,CLEAR,CLEAR,CLEAR,CLEAR,CLEAR,CLEAR,CLEAR","Offshore,Offshore,Offshore,Offshore,Cross-shore,Cross-shore,Cross-shore,Cross-shore,Cross-shore,Cross-shore,Cross-shore",11
5842041f4e65fad6a7708863,2024_02_18,36.034151543144,-75.66791,Third Street,1.741818181818182,0.5246787878787879,0.8862909090909091,7,6,"NIGHT_CLEAR,NIGHT_CLEAR,NIGHT_CLEAR,NIGHT_CLEAR,CLEAR,CLEAR,CLEAR,CLEAR,CLEAR,CLEAR,CLEAR","Cross-shore,Cross-shore,Onshore,Cross-shore,Offshore,Offshore,Offshore,Offshore,Offshore,Offshore,Offshore",11
5842041f4e65fad6a7708867,2024_02_18,35.605833221351425,-75.46303,S-Turns,1.8718181818181818,0.6609666666666667,1.0184575757575758,9,8,"NIGHT_CLEAR,NIGHT_CLEAR,NIGHT_CLEAR,NIGHT_CLEAR,CLEAR,CLEAR,CLEAR,CLEAR,CLEAR,CLEAR,CLEAR","Cross-shore,Cross-shore,Onshore,Cross-shore,Onshore,Cross-shore,Offshore,Offshore,Offshore,Offshore,Offshore",11
5842041f4e65fad6a770886d,2024_02_18,38.338461,-75.08117,Ocean City Boardwalk,0,-0.003696969696969698,0.19558545454545456,7,5,"NIGHT_CLEAR,NIGHT_CLEAR,NIGHT_CLEAR,NIGHT_CLEAR,CLEAR,CLEAR,CLEAR,CLEAR,CLEAR,CLEAR,CLEAR","Offshore,Offshore,Offshore,Offshore,Offshore,Offshore,Offshore,Offshore,Offshore,Offshore,Offshore",11
5842041f4e65fad6a770886f,2024_02_18,29.844757212379562,-81.26136,A St.,1.0909090909090908,0.2727272727272727,0.5590909090909091,15.636363636363637,15.636363636363637,"LIGHT_RAIN,NIGHT_RAIN_AND_FOG,NIGHT_RAIN,NIGHT_RAIN,LIGHT_RAIN,LIGHT_SHOWERS_POSSIBLE,RAIN,LIGHT_RAIN,RAIN,LIGHT_RAIN,LIGHT_RAIN","Offshore,Offshore,Cross-shore,Cross-shore,Cross-shore,Cross-shore,Cross-shore,Cross-shore,Cross-shore,Cross-shore,Cross-shore",11
5842041f4e65fad6a7708871,2024_02_18,29.069417851135093,-80.90824,New Smyrna Beach,0.48454545454545456,0.5391575757575758,0.8463242424242424,17,16,"RAIN,NIGHT_RAIN,NIGHT_DRIZZLE,NIGHT_FOG,RAIN,LIGHT_RAIN,RAIN,RAIN,RAIN,HEAVY_RAIN,RAIN","Cross-shore,Cross-shore,Cross-shore,Cross-shore,Cross-shore,Onshore,Onshore,Onshore,Onshore,Onshore,Onshore",11
5842041f4e65fad6a7708872,2024_02_18,28.367707417566,-80.60171,Cocoa Beach Pier,0.13636363636363635,0.005984848484848485,0.2473939393939394,18,17,"OVERCAST,NIGHT_OVERCAST,NIGHT_DRIZZLE,NIGHT_MOSTLY_CLOUDY,LIGHT_RAIN,LIGHT_RAIN,LIGHT_RAIN,RAIN,RAIN,RAIN,HEAVY_RAIN","Cross-shore,Cross-shore,Cross-shore,Cross-shore,Cross-shore,Cross-shore,Onshore,Onshore,Onshore,Cross-shore,Cross-shore",11
5842041f4e65fad6a7708873,2024_02_18,28.091782738658846,-80.56479,Indialantic,0.5445454545454546,0.22766363636363637,0.5178727272727273,19,18,"CLOUDY,NIGHT_MOSTLY_CLOUDY,NIGHT_OVERCAST,NIGHT_LIGHT_RAIN,LIGHT_RAIN,LIGHT_RAIN,LIGHT_RAIN,DRIZZLE,LIGHT_RAIN,RAIN,RAIN","Cross-shore,Cross-shore,Onshore,Cross-shore,Cross-shore,Cross-shore,Cross-shore,Onshore,Onshore,Onshore,Cross-shore",11
5842041f4e65fad6a7708876,2024_02_18,27.25392904143517,-80.19455,Jensen Beach,0.5445454545454546,0.25092121212121216,0.5349181818181818,22,20,"CLOUDY,NIGHT_CLOUDY,NIGHT_BRIEF_SHOWERS,NIGHT_OVERCAST,CLOUDY,DRIZZLE,OVERCAST,OVERCAST,MOSTLY_CLOUDY,HEAVY_RAIN,CLOUDY","Onshore,Cross-shore,Onshore,Cross-shore,Onshore,Onshore,Onshore,Onshore,Onshore,Onshore,Onshore",11
5842041f4e65fad6a7708879,2024_02_18,26.76346795333825,-80.0360655784607,Reef Road,0.6963636363636364,0.12893939393939394,0.3786818181818182,23,22,"BRIEF_SHOWERS,NIGHT_CLEAR,NIGHT_RAIN,NIGHT_OVERCAST,OVERCAST,MOSTLY_CLOUDY,OVERCAST,OVERCAST,OVERCAST,OVERCAST,LIGHT_RAIN","Offshore,Offshore,Onshore,Onshore,Cross-shore,Onshore,Onshore,Onshore,Onshore,Onshore,Onshore",11
5842041f4e65fad6a770887c,2024_02_18,26.336499228484,-80.06956100463,Boca Raton Inlet,0.4081818181818182,0.008181818181818182,0.2957848484848485,24,22,"MOSTLY_CLEAR,NIGHT_CLEAR,NIGHT_LIGHT_RAIN_AND_FOG,NIGHT_RAIN,MIST,DRIZZLE,CLOUDY,LIGHT_RAIN,DRIZZLE,DRIZZLE,BRIEF_SHOWERS_POSSIBLE","Cross-shore,Offshore,Onshore,Onshore,Cross-shore,Onshore,Cross-shore,Onshore,Onshore,Onshore,Onshore",11
5842041f4e65fad6a770887d,2024_02_18,26.31719311695038,-80.07452525176168,Deerfield Beach Pier,0.045454545454545456,0.029377575757575762,0.20808469696969698,24,23,"CLEAR,NIGHT_CLEAR,NIGHT_FOG,NIGHT_RAIN_AND_FOG,LIGHT_SHOWERS_POSSIBLE,MIST,CLEAR,LIGHT_RAIN,DRIZZLE,DRIZZLE,BRIEF_SHOWERS_POSSIBLE","Cross-shore,Offshore,Onshore,Onshore,Cross-shore,Onshore,Cross-shore,Onshore,Onshore,Onshore,Onshore",11
5842041f4e65fad6a7708881,2024_02_18,30.20276320866628,-85.85626528676136,"Spyglass Dr., Panama City",0,0,0.09342121212121213,16,15,"LIGHT_RAIN,NIGHT_LIGHT_SHOWERS_POSSIBLE,NIGHT_OVERCAST,NIGHT_OVERCAST,CLOUDY,CLEAR,CLEAR,CLEAR,CLEAR,CLEAR,CLEAR","Offshore,Offshore,Offshore,Offshore,Offshore,Offshore,Offshore,Offshore,Offshore,Offshore,Offshore",11
5842041f4e65fad6a7708884,2024_02_18,33.39000832738053,-117.59852,Cottons,3.909090909090909,1.6286575757575759,2.2599030303030303,14,14,"MOSTLY_CLOUDY,MOSTLY_CLOUDY,NIGHT_CLEAR,NIGHT_MIST,NIGHT_CLEAR,CLEAR,MOSTLY_CLOUDY,MOSTLY_CLOUDY,CLEAR,CLEAR,CLEAR","Onshore,Onshore,Offshore,Offshore,Offshore,Cross-shore,Cross-shore,Cross-shore,Cross-shore,Onshore,Cross-shore",11
5842041f4e65fad6a7708885,2024_02_18,33.359416282661,-117.54167901405711,Trails,3.272727272727273,1.2681818181818183,1.5581818181818181,15,15,"MOSTLY_CLOUDY,MOSTLY_CLOUDY,NIGHT_MOSTLY_CLOUDY,NIGHT_CLEAR,NIGHT_CLEAR,CLEAR,CLEAR,MOSTLY_CLEAR,MOSTLY_CLEAR,CLEAR,CLEAR","Onshore,Onshore,Offshore,Offshore,Offshore,Offshore,Offshore,Onshore,Onshore,Onshore,Onshore",11
5842041f4e65fad6a7708886,2024_02_18,33.38042605929805,-117.58332,Middles,3.409090909090909,1.1204818181818181,1.5663666666666667,14,14,"MOSTLY_CLOUDY,MOSTLY_CLOUDY,NIGHT_CLEAR,NIGHT_MIST,NIGHT_CLEAR,CLEAR,MOSTLY_CLOUDY,MOSTLY_CLOUDY,CLEAR,CLEAR,CLEAR","Onshore,Onshore,Offshore,Offshore,Offshore,Cross-shore,Offshore,Cross-shore,Onshore,Onshore,Cross-shore",11
5842041f4e65fad6a7708887,2024_02_18,33.38445596302903,-117.59445,Upper Trestles,3.94,1.5235060606060606,2.1159636363636363,14,14,"MOSTLY_CLOUDY,MOSTLY_CLOUDY,NIGHT_CLEAR,NIGHT_MIST,NIGHT_CLEAR,CLEAR,MOSTLY_CLOUDY,MOSTLY_CLOUDY,CLEAR,CLEAR,CLEAR","Onshore,Onshore,Offshore,Offshore,Offshore,Cross-shore,Offshore,Offshore,Onshore,Onshore,Onshore",11
5842041f4e65fad6a7708889,2024_02_18,28.944414,-95.28883,Surfside,1.1818181818181819,0.21875272727272727,0.3418009090909091,15.636363636363637,15.636363636363637,"CLEAR,CLEAR,NIGHT_CLEAR,NIGHT_CLEAR,CLEAR,CLEAR,CLEAR,CLEAR,MOSTLY_CLEAR,CLEAR,CLEAR","Offshore,Offshore,Offshore,Offshore,Offshore,Offshore,Offshore,Offshore,Offshore,Offshore,Offshore",11
5842041f4e65fad6a770888a,2024_02_18,33.38143999849023,-117.58843,Lower Trestles,3.1818181818181817,1.4429757575757576,1.887648484848485,14,14,"MOSTLY_CLOUDY,MOSTLY_CLOUDY,NIGHT_CLEAR,NIGHT_MOSTLY_CLOUDY,NIGHT_CLEAR,CLEAR,MOSTLY_CLOUDY,MOSTLY_CLOUDY,CLEAR,CLEAR,CLEAR","Onshore,Onshore,Offshore,Offshore,Offshore,Cross-shore,Offshore,Cross-shore,Onshore,Onshore,Onshore",11
5842041f4e65fad6a770888b,2024_02_18,33.379622288757,-117.57894,Church,3.409090909090909,1.2499515151515153,1.6961393939393938,14,14,"MOSTLY_CLOUDY,MOSTLY_CLOUDY,NIGHT_CLEAR,NIGHT_MIST,NIGHT_CLEAR,CLEAR,MOSTLY_CLOUDY,MOSTLY_CLOUDY,CLEAR,CLEAR,CLEAR","Onshore,Onshore,Offshore,Offshore,Offshore,Cross-shore,Offshore,Cross-shore,Cross-shore,Onshore,Cross-shore",11
5842041f4e65fad6a770888d,2024_02_18,21.679,-158.042,Sunset Beach,3,3.4158545454545455,4.424690909090909,26,25,"CLEAR,CLEAR,NIGHT_BRIEF_SHOWERS,NIGHT_CLEAR,NIGHT_MOSTLY_CLOUDY,NIGHT_MOSTLY_CLOUDY,NIGHT_MOSTLY_CLEAR,NIGHT_MOSTLY_CLEAR,CLEAR,MOSTLY_CLEAR,BRIEF_SHOWERS","Cross-shore,Cross-shore,Cross-shore,Offshore,Offshore,Offshore,Cross-shore,Offshore,Cross-shore,Cross-shore,Cross-shore",11
5842041f4e65fad6a770888e,2024_02_18,21.670550036401,-158.0482,Rocky Point,2.651818181818182,3.2431272727272726,4.218251515151515,26,25,"CLEAR,CLEAR,NIGHT_CLEAR,NIGHT_CLEAR,NIGHT_MOSTLY_CLOUDY,NIGHT_MOSTLY_CLEAR,NIGHT_MOSTLY_CLEAR,NIGHT_MOSTLY_CLEAR,CLEAR,CLEAR,CLEAR","Cross-shore,Cross-shore,Cross-shore,Cross-shore,Cross-shore,Cross-shore,Cross-shore,Cross-shore,Cross-shore,Cross-shore,Cross-shore",11
5842041f4e65fad6a770888f,2024_02_18,21.668,-158.05,Chambers,3,3.320909090909091,3.9681818181818183,24,24,"CLEAR,CLEAR,NIGHT_CLEAR,NIGHT_CLEAR,NIGHT_MOSTLY_CLOUDY,NIGHT_MOSTLY_CLEAR,NIGHT_MOSTLY_CLEAR,NIGHT_MOSTLY_CLEAR,CLEAR,CLEAR,CLEAR","Cross-shore,Cross-shore,Cross-shore,Cross-shore,Cross-shore,Cross-shore,Cross-shore,Cross-shore,Cross-shore,Cross-shore,Cross-shore",11
5842041f4e65fad6a7708890,2024_02_18,21.66522,-158.0526,Pipeline,3.090909090909091,2.7722939393939394,3.577318181818182,26,25,"CLEAR,CLEAR,NIGHT_CLEAR,NIGHT_CLEAR,NIGHT_MOSTLY_CLOUDY,NIGHT_MOSTLY_CLEAR,NIGHT_MOSTLY_CLEAR,NIGHT_MOSTLY_CLEAR,CLEAR,CLEAR,CLEAR","Cross-shore,Cross-shore,Cross-shore,Cross-shore,Cross-shore,Cross-shore,Cross-shore,Cross-shore,Cross-shore,Cross-shore,Cross-shore",11
5842041f4e65fad6a7708891,2024_02_18,21.665,-158.054,Backdoor,3,2.7722939393939394,3.577318181818182,26,25,"CLEAR,CLEAR,NIGHT_CLEAR,NIGHT_CLEAR,NIGHT_MOSTLY_CLOUDY,NIGHT_MOSTLY_CLEAR,NIGHT_MOSTLY_CLEAR,NIGHT_MOSTLY_CLEAR,CLEAR,CLEAR,CLEAR","Cross-shore,Cross-shore,Cross-shore,Cross-shore,Cross-shore,Cross-shore,Cross-shore,Cross-shore,Cross-shore,Cross-shore,Cross-shore",11
5842041f4e65fad6a7708892,2024_02_18,21.662,-158.057,Rockpile,2.727272727272727,3.4736363636363636,4.15,24,24,"CLEAR,CLEAR,NIGHT_CLEAR,NIGHT_MOSTLY_CLOUDY,NIGHT_MOSTLY_CLOUDY,NIGHT_MOSTLY_CLEAR,NIGHT_MOSTLY_CLEAR,NIGHT_MOSTLY_CLEAR,CLEAR,CLEAR,CLEAR","Cross-shore,Cross-shore,Cross-shore,Cross-shore,Cross-shore,Cross-shore,Cross-shore,Cross-shore,Cross-shore,Cross-shore,Cross-shore",11
5842041f4e65fad6a7708893,2024_02_18,21.65870453806827,-158.06058,Log Cabins,2.8181818181818183,3.152727272727273,3.77,24,24,"CLEAR,CLEAR,NIGHT_CLEAR,NIGHT_MOSTLY_CLOUDY,NIGHT_MOSTLY_CLOUDY,NIGHT_MOSTLY_CLEAR,NIGHT_MOSTLY_CLEAR,NIGHT_MOSTLY_CLEAR,CLEAR,CLEAR,CLEAR","Cross-shore,Cross-shore,Cross-shore,Cross-shore,Cross-shore,Cross-shore,Cross-shore,Cross-shore,Cross-shore,Cross-shore,Cross-shore",11
5842041f4e65fad6a7708894,2024_02_18,21.66203493640557,-158.05495,Off-The-Wall,3,3.518181818181818,4.203636363636363,24,24,"CLEAR,CLEAR,NIGHT_CLEAR,NIGHT_MOSTLY_CLOUDY,NIGHT_MOSTLY_CLOUDY,NIGHT_MOSTLY_CLEAR,NIGHT_MOSTLY_CLEAR,NIGHT_MOSTLY_CLEAR,CLEAR,CLEAR,CLEAR","Cross-shore,Cross-shore,Cross-shore,Cross-shore,Cross-shore,Cross-shore,Cross-shore,Cross-shore,Cross-shore,Cross-shore,Cross-shore",11
5842041f4e65fad6a7708895,2024_02_18,21.643,-158.067,Waimea Bay,NA,4.179263636363636,5.097675757575757,26,25,"CLEAR,CLEAR,NIGHT_CLEAR,NIGHT_CLEAR,NIGHT_MOSTLY_CLOUDY,NIGHT_MOSTLY_CLEAR,NIGHT_MOSTLY_CLEAR,NIGHT_MOSTLY_CLEAR,CLEAR,CLEAR,CLEAR","Cross-shore,Cross-shore,Cross-shore,Offshore,Offshore,Offshore,Offshore,Offshore,Offshore,Offshore,Cross-shore",11
5842041f4e65fad6a7708896,2024_02_18,21.622,-158.087,Hultin's,2.1972727272727273,3.4229,4.413554545454545,26,25,"CLEAR,CLEAR,NIGHT_CLEAR,NIGHT_MOSTLY_CLEAR,NIGHT_MOSTLY_CLOUDY,NIGHT_CLEAR,NIGHT_MOSTLY_CLEAR,NIGHT_CLEAR,CLEAR,CLEAR,CLEAR","Cross-shore,Cross-shore,Cross-shore,Offshore,Offshore,Offshore,Offshore,Offshore,Offshore,Offshore,Offshore",11
5842041f4e65fad6a7708897,2024_02_18,21.623,-158.085,Jocko's,2,3.109090909090909,3.7181818181818183,24,24,"CLEAR,CLEAR,NIGHT_CLEAR,NIGHT_MOSTLY_CLEAR,NIGHT_MOSTLY_CLOUDY,NIGHT_CLEAR,NIGHT_MOSTLY_CLEAR,NIGHT_CLEAR,CLEAR,CLEAR,CLEAR","Onshore,Onshore,Onshore,Onshore,Onshore,Onshore,Onshore,Onshore,Onshore,Onshore,Onshore",11
5842041f4e65fad6a7708898,2024_02_18,21.62,-158.088,Laniakea,2.348181818181818,3.2712090909090907,4.265954545454545,26,25,"CLEAR,CLEAR,NIGHT_CLEAR,NIGHT_MOSTLY_CLEAR,NIGHT_MOSTLY_CLOUDY,NIGHT_CLEAR,NIGHT_MOSTLY_CLEAR,NIGHT_CLEAR,CLEAR,CLEAR,CLEAR","Cross-shore,Cross-shore,Cross-shore,Cross-shore,Cross-shore,Cross-shore,Cross-shore,Cross-shore,Cross-shore,Cross-shore,Cross-shore",11
5842041f4e65fad6a7708899,2024_02_18,21.625,-158.083,Chun's,2,2.961818181818182,3.54,24,24,"CLEAR,CLEAR,NIGHT_CLEAR,NIGHT_MOSTLY_CLEAR,NIGHT_MOSTLY_CLOUDY,NIGHT_CLEAR,NIGHT_MOSTLY_CLEAR,NIGHT_CLEAR,CLEAR,CLEAR,CLEAR","Cross-shore,Cross-shore,Cross-shore,Cross-shore,Cross-shore,Cross-shore,Cross-shore,Cross-shore,Cross-shore,Cross-shore,Cross-shore",11
5842041f4e65fad6a770889c,2024_02_18,21.286357895152136,-157.8515,South Shore - Ala Moana Park,1.9090909090909092,0.3563636363636364,0.6609090909090909,24,24,"CLEAR,CLEAR,NIGHT_CLEAR,NIGHT_CLEAR,NIGHT_CLEAR,NIGHT_CLEAR,NIGHT_CLEAR,CLEAR,CLEAR,CLEAR,CLEAR","Offshore,Offshore,Offshore,Offshore,Offshore,Offshore,Offshore,Offshore,Offshore,Offshore,Offshore",11
5842041f4e65fad6a770889d,2024_02_18,19.606,-155.978,Banyans,3,0.9651121212121212,1.2287727272727273,26,25,"CLEAR,CLEAR,NIGHT_CLEAR,NIGHT_CLEAR,NIGHT_CLEAR,NIGHT_FOG,NIGHT_CLEAR,CLEAR,CLEAR,CLEAR,CLEAR","Onshore,Onshore,Cross-shore,Cross-shore,Onshore,Offshore,Cross-shore,Cross-shore,Cross-shore,Onshore,Onshore",11
5842041f4e65fad6a770889e,2024_02_18,20.029,-155.831,Kawaihae,2.1818181818181817,0.46537818181818186,0.7998636363636363,25,25,"MOSTLY_CLEAR,CLEAR,NIGHT_CLEAR,NIGHT_MOSTLY_CLEAR,NIGHT_CLEAR,NIGHT_CLEAR,NIGHT_CLEAR,CLEAR,CLEAR,CLEAR,CLEAR","Offshore,Offshore,Offshore,Offshore,Offshore,Offshore,Offshore,Offshore,Offshore,Offshore,Offshore",11
5842041f4e65fad6a770889f,2024_02_18,33.07541383424675,-117.3105,Grandview,3.272727272727273,1.7836363636363637,2.1472727272727274,15,15,"CLOUDY,CLOUDY,NIGHT_FOG,NIGHT_CLEAR,NIGHT_CLEAR,CLEAR,MOSTLY_CLEAR,MOSTLY_CLEAR,CLEAR,CLEAR,CLEAR","Onshore,Onshore,Offshore,Offshore,Offshore,Cross-shore,Offshore,Offshore,Onshore,Onshore,Onshore",11
5842041f4e65fad6a77088a0,2024_02_18,33.065267421296596,-117.30577,Beacons,3.4545454545454546,1.6036363636363635,1.9572727272727273,15,15,"CLOUDY,CLOUDY,NIGHT_FOG,NIGHT_MOSTLY_CLOUDY,NIGHT_CLEAR,CLEAR,MOSTLY_CLEAR,MOSTLY_CLEAR,CLEAR,CLEAR,CLEAR","Onshore,Onshore,Offshore,Offshore,Offshore,Onshore,Offshore,Offshore,Cross-shore,Onshore,Cross-shore",11
5842041f4e65fad6a77088a2,2024_02_18,21.252,-157.805,Diamond Head,3,0.655599696969697,1.0218256818181817,26,25,"CLEAR,CLEAR,NIGHT_CLEAR,NIGHT_CLEAR,NIGHT_CLEAR,NIGHT_CLEAR,NIGHT_CLEAR,CLEAR,CLEAR,CLEAR,CLEAR","Offshore,Offshore,Offshore,Offshore,Offshore,Offshore,Offshore,Offshore,Offshore,Offshore,Offshore",11
5842041f4e65fad6a77088a3,2024_02_18,33.04694255008896,-117.29966,Moonlight State Beach,3.3636363636363638,1.69,2.058181818181818,15,15,"CLEAR,CLOUDY,NIGHT_LIGHT_RAIN_AND_FOG,NIGHT_MOSTLY_CLOUDY,NIGHT_MOSTLY_CLEAR,CLEAR,MOSTLY_CLEAR,CLEAR,MOSTLY_CLEAR,CLEAR,CLEAR","Onshore,Onshore,Offshore,Offshore,Offshore,Offshore,Offshore,Offshore,Cross-shore,Onshore,Onshore",11
5842041f4e65fad6a77088a5,2024_02_18,33.08685865930869,-117.31532,Ponto,3.1818181818181817,2.0445454545454544,2.4563636363636365,15,15,"CLOUDY,CLOUDY,NIGHT_FOG,NIGHT_MOSTLY_CLOUDY,NIGHT_CLEAR,CLEAR,MOSTLY_CLEAR,MOSTLY_CLEAR,CLEAR,CLEAR,CLEAR","Onshore,Onshore,Offshore,Offshore,Offshore,Offshore,Offshore,Offshore,Offshore,Onshore,Onshore",11
5842041f4e65fad6a77088a6,2024_02_18,33.130343587871906,-117.33667796442558,Terra Mar Point,3,1.2114757575757575,1.782039393939394,15,15,"CLOUDY,OVERCAST,NIGHT_FOG,NIGHT_MOSTLY_CLOUDY,NIGHT_MOSTLY_CLEAR,CLEAR,MOSTLY_CLOUDY,CLEAR,CLEAR,CLEAR,CLEAR","Onshore,Onshore,Offshore,Offshore,Offshore,Offshore,Offshore,Offshore,Offshore,Offshore,Onshore",11
5842041f4e65fad6a77088af,2024_02_18,32.95916304183685,-117.26963,Del Mar,3.1818181818181817,1.88,2.2645454545454546,15,15,"CLOUDY,CLOUDY,NIGHT_CLEAR,NIGHT_CLEAR,NIGHT_CLEAR,MIST,CLEAR,CLEAR,CLEAR,CLEAR,CLEAR","Cross-shore,Onshore,Cross-shore,Cross-shore,Offshore,Offshore,Offshore,Offshore,Cross-shore,Cross-shore,Cross-shore",11
5842041f4e65fad6a77088b0,2024_02_18,32.97527261243354,-117.2721061331305,Del Mar Rivermouth,3.272727272727273,1.6881818181818182,2.0545454545454547,15,15,"CLEAR,CLEAR,NIGHT_FOG,NIGHT_CLEAR,NIGHT_MIST,MIST,CLEAR,CLEAR,CLEAR,CLEAR,CLEAR","Cross-shore,Onshore,Offshore,Cross-shore,Offshore,Offshore,Offshore,Offshore,Cross-shore,Cross-shore,Onshore",11
5842041f4e65fad6a77088b1,2024_02_18,33.01352178146273,-117.28219,Cardiff Reef,3.727272727272727,1.8507242424242425,2.340309090909091,15,15,"CLEAR,CLEAR,NIGHT_FOG,NIGHT_MOSTLY_CLEAR,NIGHT_MOSTLY_CLEAR,MOSTLY_CLEAR,MOSTLY_CLEAR,MOSTLY_CLEAR,CLEAR,CLEAR,CLEAR","Onshore,Onshore,Offshore,Offshore,Offshore,Offshore,Offshore,Offshore,Offshore,Offshore,Onshore",11
5842041f4e65fad6a77088b3,2024_02_18,33.00211185876003,-117.2811,Seaside Reef,3.6818181818181817,1.7901181818181817,2.2891727272727276,15,15,"CLOUDY,CLEAR,NIGHT_FOG,NIGHT_CLEAR,NIGHT_MIST,CLEAR,CLEAR,CLEAR,CLEAR,CLEAR,CLEAR","Onshore,Onshore,Offshore,Offshore,Offshore,Offshore,Offshore,Offshore,Offshore,Offshore,Onshore",11
5842041f4e65fad6a77088b4,2024_02_18,33.0341859796287,-117.29552,Swami's,3.6818181818181817,1.7576121212121212,2.4569333333333336,15,15,"CLEAR,CLEAR,NIGHT_FOG,NIGHT_MOSTLY_CLOUDY,NIGHT_MOSTLY_CLEAR,MOSTLY_CLEAR,MOSTLY_CLEAR,MOSTLY_CLEAR,CLEAR,CLEAR,CLEAR","Onshore,Onshore,Offshore,Offshore,Offshore,Offshore,Offshore,Offshore,Offshore,Onshore,Onshore",11
5842041f4e65fad6a77088b7,2024_02_18,33.04569760260221,-117.2994,D Street,3.3636363636363638,2.0281818181818183,2.441818181818182,15,15,"CLEAR,CLOUDY,NIGHT_LIGHT_RAIN_AND_FOG,NIGHT_MOSTLY_CLOUDY,NIGHT_MOSTLY_CLEAR,CLEAR,MOSTLY_CLEAR,CLEAR,MOSTLY_CLEAR,CLEAR,CLEAR","Onshore,Onshore,Offshore,Offshore,Offshore,Offshore,Offshore,Offshore,Onshore,Onshore,Onshore",11
5842041f4e65fad6a77088b8,2024_02_18,33.02090944350196,-117.28535,San Elijo State Beach,3.8181818181818183,1.7192727272727273,2.187948484848485,15,15,"CLEAR,CLEAR,NIGHT_FOG,NIGHT_MOSTLY_CLEAR,NIGHT_MOSTLY_CLEAR,MOSTLY_CLEAR,MOSTLY_CLEAR,MOSTLY_CLEAR,CLEAR,CLEAR,CLEAR","Onshore,Onshore,Offshore,Offshore,Offshore,Offshore,Offshore,Offshore,Offshore,Offshore,Onshore",11
5842041f4e65fad6a77088c2,2024_02_18,32.80662846492798,-117.2688764333725,PB Point,3.727272727272727,1.699090909090909,2.0454545454545454,15,15,"CLOUDY,CLOUDY,NIGHT_MOSTLY_CLOUDY,NIGHT_FOG,NIGHT_MIST,FOG,MOSTLY_CLEAR,CLEAR,CLEAR,CLEAR,CLEAR","Cross-shore,Cross-shore,Cross-shore,Offshore,Cross-shore,Offshore,Offshore,Cross-shore,Onshore,Onshore,Onshore",11
5842041f4e65fad6a77088c4,2024_02_18,32.8060476681448,-117.26479,Old Man's at Tourmaline,3.6363636363636362,1.489090909090909,1.81,15,15,"CLOUDY,CLOUDY,NIGHT_MOSTLY_CLOUDY,NIGHT_FOG,NIGHT_MIST,FOG,MOSTLY_CLEAR,CLEAR,CLEAR,CLEAR,CLEAR","Cross-shore,Cross-shore,Cross-shore,Offshore,Cross-shore,Cross-shore,Offshore,Cross-shore,Onshore,Onshore,Onshore",11
5842041f4e65fad6a77088cb,2024_02_18,32.557056711256,-117.1327445020322,Tijuana Slough,3.272727272727273,1.020909090909091,1.2854545454545454,15,15,"CLOUDY,MOSTLY_CLOUDY,NIGHT_FOG,NIGHT_CLEAR,NIGHT_MIST,CLEAR,CLEAR,CLEAR,CLEAR,CLEAR,CLEAR","Onshore,Onshore,Offshore,Offshore,Offshore,Offshore,Offshore,Offshore,Offshore,Cross-shore,Onshore",11
5842041f4e65fad6a77088cc,2024_02_18,32.863,-117.257,La Jolla Shores,2.909090909090909,1.3954545454545455,1.708181818181818,15,15,"CLEAR,CLOUDY,NIGHT_FOG,NIGHT_MOSTLY_CLOUDY,NIGHT_MOSTLY_CLEAR,MOSTLY_CLEAR,CLEAR,CLEAR,CLEAR,CLEAR,CLEAR","Onshore,Onshore,Cross-shore,Offshore,Offshore,Offshore,Offshore,Offshore,Cross-shore,Onshore,Onshore",11
5842041f4e65fad6a77088ce,2024_02_18,32.67443657790586,-117.17421316238693,Coronado Beach,3.727272727272727,2.070909090909091,2.4854545454545454,15,15,"CLOUDY,MOSTLY_CLOUDY,NIGHT_FOG,NIGHT_FOG,NIGHT_CLEAR,CLEAR,CLEAR,CLEAR,CLEAR,CLEAR,CLEAR","Cross-shore,Cross-shore,Offshore,Offshore,Offshore,Offshore,Offshore,Offshore,Offshore,Offshore,Cross-shore",11
5842041f4e65fad6a77088cf,2024_02_18,33.40484417640326,-117.60749,San Clemente State Beach,3.1818181818181817,1.2518181818181817,1.55,15,15,"MOSTLY_CLOUDY,MOSTLY_CLOUDY,NIGHT_CLEAR,NIGHT_MIST,NIGHT_CLEAR,CLEAR,MOSTLY_CLOUDY,MOSTLY_CLOUDY,CLEAR,CLEAR,CLEAR","Onshore,Onshore,Offshore,Offshore,Cross-shore,Offshore,Offshore,Cross-shore,Onshore,Onshore,Onshore",11
5842041f4e65fad6a77088d5,2024_02_18,33.4663042002114,-117.7168352817103,Strands,3.5454545454545454,1.6188727272727272,2.2667151515151516,14,14,"MOSTLY_CLOUDY,MOSTLY_CLOUDY,NIGHT_MOSTLY_CLOUDY,NIGHT_FOG,NIGHT_CLEAR,CLEAR,MIST,CLEAR,CLEAR,MOSTLY_CLEAR,CLEAR","Onshore,Onshore,Offshore,Offshore,Offshore,Cross-shore,Offshore,Offshore,Cross-shore,Cross-shore,Onshore",11
5842041f4e65fad6a77088d7,2024_02_18,33.4609858001748,-117.68535,Doheny State Beach,2.272727272727273,0.20803030303030304,0.5112818181818182,14,14,"MOSTLY_CLOUDY,MOSTLY_CLOUDY,NIGHT_MIST,NIGHT_MIST,NIGHT_MIST,FOG,MOSTLY_CLOUDY,MIST,CLEAR,CLEAR,CLEAR","Onshore,Onshore,Offshore,Offshore,Offshore,Cross-shore,Offshore,Cross-shore,Offshore,Onshore,Onshore",11
5842041f4e65fad6a77088dc,2024_02_18,33.50894790083017,-117.75243,Aliso Creek,2.909090909090909,1.2954545454545454,1.5881818181818181,15,15,"MOSTLY_CLOUDY,CLOUDY,NIGHT_MOSTLY_CLOUDY,NIGHT_MOSTLY_CLOUDY,NIGHT_CLEAR,CLEAR,MIST,BRIEF_SHOWERS,MIST,MOSTLY_CLEAR,MOSTLY_CLEAR","Onshore,Cross-shore,Offshore,Offshore,Cross-shore,Cross-shore,Offshore,Cross-shore,Cross-shore,Cross-shore,Onshore",11
5842041f4e65fad6a77088dd,2024_02_18,33.5326591767067,-117.77764,Brooks Street,2.909090909090909,1,1.2518181818181817,15,15,"MOSTLY_CLOUDY,CLOUDY,NIGHT_FOG,NIGHT_MOSTLY_CLOUDY,NIGHT_MIST,FOG,MIST,MIST,MOSTLY_CLOUDY,MOSTLY_CLEAR,MOSTLY_CLOUDY","Onshore,Cross-shore,Offshore,Cross-shore,Cross-shore,Cross-shore,Cross-shore,Cross-shore,Cross-shore,Onshore,Onshore",11
5842041f4e65fad6a77088de,2024_02_18,33.53561225884637,-117.7799,Thalia Street,3,1.0518181818181818,1.3109090909090908,15,15,"MOSTLY_CLOUDY,CLOUDY,NIGHT_FOG,NIGHT_MOSTLY_CLOUDY,NIGHT_MIST,FOG,MIST,MIST,MOSTLY_CLOUDY,MOSTLY_CLEAR,MOSTLY_CLOUDY","Onshore,Cross-shore,Offshore,Cross-shore,Cross-shore,Cross-shore,Cross-shore,Cross-shore,Cross-shore,Onshore,Onshore",11
5842041f4e65fad6a77088e3,2024_02_18,33.54268310353641,-117.7916,Rockpile,3.5454545454545454,1.1390909090909092,1.410909090909091,15,15,"MOSTLY_CLOUDY,CLOUDY,NIGHT_FOG,NIGHT_MOSTLY_CLOUDY,NIGHT_MIST,FOG,MIST,MIST,MOSTLY_CLOUDY,MOSTLY_CLEAR,MOSTLY_CLOUDY","Cross-shore,Cross-shore,Offshore,Cross-shore,Cross-shore,Cross-shore,Cross-shore,Cross-shore,Cross-shore,Onshore,Onshore",11
5842041f4e65fad6a77088e4,2024_02_18,33.7368459504689,-118.10342,"Seal Beach Pier, Southside",2.5454545454545454,0.5863636363636363,0.8927272727272727,15,15,"DRIZZLE,OVERCAST,NIGHT_FOG,NIGHT_CLOUDY,NIGHT_FOG,FOG,MIST,MOSTLY_CLOUDY,BRIEF_SHOWERS,BRIEF_SHOWERS,BRIEF_SHOWERS","Onshore,Onshore,Cross-shore,Cross-shore,Cross-shore,Offshore,Offshore,Cross-shore,Onshore,Onshore,Onshore",11
5842041f4e65fad6a77088e5,2024_02_18,33.73933701820233,-118.117,Ray Bay,2.3636363636363638,0.33090909090909093,0.6327272727272727,15,15,"DRIZZLE,OVERCAST,NIGHT_FOG,NIGHT_CLEAR,NIGHT_FOG,FOG,MIST,MOSTLY_CLOUDY,BRIEF_SHOWERS,BRIEF_SHOWERS,BRIEF_SHOWERS","Onshore,Onshore,Cross-shore,Cross-shore,Offshore,Offshore,Offshore,Cross-shore,Onshore,Onshore,Onshore",11
5842041f4e65fad6a77088e7,2024_02_18,33.728733,-118.08982,Surfside,3,2.0281818181818183,2.423636363636364,15,15,"OVERCAST,DRIZZLE,NIGHT_FOG,NIGHT_FOG,NIGHT_FOG,FOG,OVERCAST,MOSTLY_CLOUDY,MIST,MIST,MIST","Onshore,Onshore,Cross-shore,Cross-shore,Offshore,Offshore,Offshore,Cross-shore,Onshore,Onshore,Onshore",11
5842041f4e65fad6a77088e8,2024_02_18,33.68760321488161,-118.04236,Bolsa Chica State Beach,3.090909090909091,1.9428878787878787,2.4718999999999998,14,14,"OVERCAST,OVERCAST,NIGHT_MOSTLY_CLOUDY,NIGHT_MOSTLY_CLOUDY,NIGHT_FOG,FOG,BRIEF_SHOWERS,MIST,MIST,MIST,MIST","Onshore,Onshore,Offshore,Onshore,Cross-shore,Cross-shore,Offshore,Offshore,Cross-shore,Cross-shore,Onshore",11
5842041f4e65fad6a77088ea,2024_02_18,33.66704400178788,-118.0192,North HB Streets,3.090909090909091,1.9573969696969697,2.7191151515151515,14,14,"CLOUDY,MIST,NIGHT_MOSTLY_CLOUDY,NIGHT_CLEAR,NIGHT_FOG,FOG,MIST,MIST,MIST,MIST,MIST","Onshore,Onshore,Offshore,Cross-shore,Cross-shore,Cross-shore,Cross-shore,Cross-shore,Cross-shore,Cross-shore,Onshore",11
5842041f4e65fad6a77088ed,2024_02_18,33.65475101379567,-118.00291,Huntington Beach Pier Southside,3.3336363636363635,1.8151242424242424,2.588060606060606,14,14,"OVERCAST,DRIZZLE,NIGHT_MOSTLY_CLOUDY,NIGHT_MOSTLY_CLEAR,NIGHT_FOG,FOG,MIST,MIST,MIST,MIST,MIST","Onshore,Onshore,Offshore,Cross-shore,Offshore,Offshore,Offshore,Offshore,Cross-shore,Cross-shore,Cross-shore",11
5842041f4e65fad6a77088ee,2024_02_18,33.62778647706099,-117.95939,River Jetties,3,1.6299060606060605,2.208060606060606,15,15,"OVERCAST,OVERCAST,NIGHT_FOG,NIGHT_MOSTLY_CLOUDY,NIGHT_FOG,FOG,MIST,MIST,MIST,MIST,CLEAR","Onshore,Onshore,Cross-shore,Cross-shore,Offshore,Offshore,Offshore,Cross-shore,Cross-shore,Onshore,Cross-shore",11
5842041f4e65fad6a77088f2,2024_02_18,33.605165797643664,-117.92500376701355,Newport Point,2.3636363636363638,0.3563636363636364,0.6618181818181819,15,15,"CLOUDY,CLOUDY,NIGHT_FOG,NIGHT_MOSTLY_CLOUDY,NIGHT_MOSTLY_CLOUDY,FOG,MIST,MIST,MIST,MIST,MOSTLY_CLOUDY","Onshore,Onshore,Offshore,Onshore,Onshore,Cross-shore,Cross-shore,Cross-shore,Cross-shore,Onshore,Onshore",11
5842041f4e65fad6a77088f3,2024_02_18,33.58982984726977,-117.87713,Corona del Mar,1.3636363636363635,0.2024090909090909,0.3162618181818182,15,15,"MOSTLY_CLOUDY,OVERCAST,NIGHT_CLEAR,NIGHT_MOSTLY_CLOUDY,NIGHT_FOG,FOG,MIST,MOSTLY_CLOUDY,MOSTLY_CLOUDY,MOSTLY_CLOUDY,MOSTLY_CLOUDY","Onshore,Onshore,Offshore,Offshore,Cross-shore,Offshore,Offshore,Cross-shore,Cross-shore,Cross-shore,Cross-shore",11
5842041f4e65fad6a77088f7,2024_02_18,34.00750300824362,-118.4971783496269,Santa Monica Pier,2.8181818181818183,0.629090909090909,0.91,15,15,"MOSTLY_CLOUDY,MOSTLY_CLOUDY,NIGHT_FOG,NIGHT_FOG,NIGHT_FOG,FOG,MOSTLY_CLOUDY,MOSTLY_CLOUDY,MIST,LIGHT_RAIN,MIST","Onshore,Onshore,Offshore,Onshore,Cross-shore,Cross-shore,Offshore,Offshore,Offshore,Offshore,Offshore",11
5842041f4e65fad6a77088ff,2024_02_18,33.94070283102945,-118.44321,Dockweiler Beach,2.909090909090909,1.6497399242424242,2.05217196969697,14,14,"CLOUDY,MOSTLY_CLOUDY,NIGHT_CLEAR,NIGHT_MIST,NIGHT_MIST,FOG,CLEAR,MIST,MOSTLY_CLOUDY,MIST,MIST","Onshore,Onshore,Offshore,Onshore,Cross-shore,Cross-shore,Offshore,Offshore,Offshore,Offshore,Offshore",11
5842041f4e65fad6a7708900,2024_02_18,33.9231846937237,-118.4341465777908,Shitpipe,2.909090909090909,1.8510969696969697,2.3238151515151517,14,14,"OVERCAST,OVERCAST,NIGHT_CLEAR,NIGHT_MOSTLY_CLOUDY,NIGHT_FOG,FOG,MOSTLY_CLOUDY,MIST,BRIEF_SHOWERS,MIST,MIST","Onshore,Onshore,Offshore,Cross-shore,Cross-shore,Cross-shore,Offshore,Offshore,Offshore,Offshore,Cross-shore",11
5842041f4e65fad6a7708902,2024_02_18,33.9108528052242,-118.4279133138721,Hammerland,2.8936363636363636,1.992169696969697,2.7703969696969697,14,14,"OVERCAST,OVERCAST,NIGHT_CLEAR,NIGHT_MOSTLY_CLOUDY,NIGHT_FOG,FOG,MOSTLY_CLOUDY,MIST,BRIEF_SHOWERS,MIST,MIST","Onshore,Onshore,Offshore,Cross-shore,Cross-shore,Cross-shore,Offshore,Offshore,Offshore,Offshore,Cross-shore",11
5842041f4e65fad6a7708904,2024_02_18,33.87201368173932,-118.4075151286262,Hermosa Beach,2.848181818181818,1.4263333333333335,1.9010272727272726,14,14,"CLOUDY,CLOUDY,NIGHT_MOSTLY_CLOUDY,NIGHT_FOG,NIGHT_MIST,FOG,MIST,MIST,MIST,MIST,MIST","Onshore,Onshore,Onshore,Onshore,Cross-shore,Cross-shore,Offshore,Offshore,Offshore,Offshore,Offshore",11
5842041f4e65fad6a7708906,2024_02_18,33.90129336911256,-118.42184,El Porto,2.909090909090909,2.1417151515151516,2.935851515151515,14,14,"CLOUDY,OVERCAST,NIGHT_CLEAR,NIGHT_MOSTLY_CLOUDY,NIGHT_MIST,FOG,MOSTLY_CLOUDY,MOSTLY_CLOUDY,MIST,MIST,MIST","Onshore,Onshore,Offshore,Cross-shore,Cross-shore,Cross-shore,Offshore,Offshore,Offshore,Offshore,Cross-shore",11
5842041f4e65fad6a7708907,2024_02_18,33.87963506431794,-118.41102,Manhattan Beach Pier,2.909090909090909,2.0318545454545456,2.5437454545454545,14,14,"CLOUDY,OVERCAST,NIGHT_CLEAR,NIGHT_FOG,NIGHT_MIST,FOG,MOSTLY_CLOUDY,MOSTLY_CLOUDY,MIST,MIST,MIST","Onshore,Onshore,Offshore,Cross-shore,Cross-shore,Cross-shore,Offshore,Offshore,Offshore,Offshore,Offshore",11
5842041f4e65fad6a7708914,2024_02_18,34.038053387863464,-118.5532,Sunset Point,2.8181818181818183,0.5863636363636364,0.8654545454545455,15,15,"MOSTLY_CLOUDY,CLEAR,NIGHT_FOG,NIGHT_FOG,NIGHT_BRIEF_SHOWERS,MIST,MOSTLY_CLOUDY,MIST,MIST,MIST,MIST","Cross-shore,Onshore,Offshore,Offshore,Offshore,Offshore,Offshore,Cross-shore,Cross-shore,Onshore,Onshore",11
5842041f4e65fad6a7708920,2024_02_18,33.80930828074364,-118.3933198342649,Haggerty's,2.8181818181818183,0.7598181818181818,0.9365454545454546,15,15,"MIST,MOSTLY_CLOUDY,NIGHT_MOSTLY_CLEAR,NIGHT_MOSTLY_CLEAR,NIGHT_CLEAR,MOSTLY_CLOUDY,CLEAR,MOSTLY_CLOUDY,CLEAR,CLEAR,CLEAR","Onshore,Onshore,Onshore,Cross-shore,Offshore,Offshore,Offshore,Offshore,Offshore,Offshore,Offshore",11
5842041f4e65fad6a7708921,2024_02_18,33.85044519861206,-118.40048,Redondo Breakwater,3.1818181818181817,2.3372727272727274,2.7936363636363635,15,15,"CLOUDY,CLOUDY,NIGHT_MOSTLY_CLOUDY,NIGHT_MOSTLY_CLOUDY,NIGHT_MIST,FOG,MIST,MIST,MIST,MIST,MIST","Onshore,Onshore,Onshore,Cross-shore,Cross-shore,Cross-shore,Offshore,Offshore,Offshore,Offshore,Offshore",11
5842041f4e65fad6a7708927,2024_02_18,33.70877301002487,-118.2840112858389,Cabrillo Beach,2.6363636363636362,0.8354545454545454,1.0781818181818181,15,15,"DRIZZLE,MOSTLY_CLOUDY,NIGHT_FOG,NIGHT_FOG,NIGHT_FOG,FOG,MIST,MOSTLY_CLOUDY,MOSTLY_CLOUDY,BRIEF_SHOWERS,MOSTLY_CLOUDY","Offshore,Offshore,Cross-shore,Onshore,Onshore,Onshore,Onshore,Onshore,Onshore,Onshore,Onshore",11
5842041f4e65fad6a770892c,2024_02_18,33.77209986806257,-118.4268428476672,Lunada Bay,2.8181818181818183,2.901818181818182,3.4763636363636365,15,15,"CLOUDY,MOSTLY_CLOUDY,NIGHT_MOSTLY_CLEAR,NIGHT_MOSTLY_CLOUDY,NIGHT_FOG,MIST,MOSTLY_CLOUDY,CLEAR,CLEAR,MIST,CLEAR","Onshore,Onshore,Onshore,Onshore,Cross-shore,Cross-shore,Offshore,Cross-shore,Cross-shore,Cross-shore,Cross-shore",11
5842041f4e65fad6a770892d,2024_02_18,33.79294656286144,-118.4070316699825,PV Cove,3.6363636363636362,1.6379454545454546,1.90935,15,15,"MIST,MOSTLY_CLOUDY,NIGHT_MOSTLY_CLEAR,NIGHT_MOSTLY_CLOUDY,NIGHT_CLEAR,MOSTLY_CLOUDY,CLEAR,MOSTLY_CLOUDY,CLEAR,CLEAR,CLEAR","Onshore,Onshore,Onshore,Cross-shore,Offshore,Offshore,Offshore,Offshore,Offshore,Offshore,Offshore",11
5842041f4e65fad6a7708930,2024_02_18,34.03944902292561,-118.57539,Chart House,2.6363636363636362,0.38181818181818183,0.6872727272727273,15,15,"MOSTLY_CLOUDY,MOSTLY_CLOUDY,NIGHT_FOG,NIGHT_FOG,NIGHT_BRIEF_SHOWERS,FOG,MIST,MOSTLY_CLOUDY,MIST,MIST,MIST","Cross-shore,Cross-shore,Offshore,Offshore,Offshore,Offshore,Cross-shore,Onshore,Onshore,Onshore,Onshore",11
5842041f4e65fad6a7708936,2024_02_18,34.0016731994772,-118.80456,Point Dume,3.211818181818182,0.8700757575757576,1.1572848484848486,15,15,"MOSTLY_CLOUDY,CLEAR,NIGHT_CLEAR,NIGHT_MOSTLY_CLOUDY,NIGHT_MIST,MIST,MOSTLY_CLOUDY,BRIEF_SHOWERS,CLEAR,MOSTLY_CLOUDY,BRIEF_SHOWERS","Cross-shore,Cross-shore,Offshore,Onshore,Onshore,Onshore,Cross-shore,Cross-shore,Cross-shore,Cross-shore,Cross-shore",11
5842041f4e65fad6a7708937,2024_02_18,34.02587527588963,-118.7554939066114,Latigo Point,2.1818181818181817,0.33545454545454545,0.64,15,15,"MOSTLY_CLOUDY,MOSTLY_CLOUDY,NIGHT_MOSTLY_CLEAR,NIGHT_MIST,NIGHT_BRIEF_SHOWERS,MIST,MOSTLY_CLOUDY,BRIEF_SHOWERS,MIST,MIST,MIST","Cross-shore,Cross-shore,Onshore,Onshore,Onshore,Onshore,Cross-shore,Onshore,Onshore,Cross-shore,Onshore",11
5842041f4e65fad6a770893f,2024_02_18,34.043762,-118.93294,Leo Carrillo,2.590909090909091,1.0336484848484848,1.302069696969697,15,15,"MOSTLY_CLOUDY,MIST,NIGHT_MOSTLY_CLOUDY,NIGHT_MIST,NIGHT_MIST,MIST,MOSTLY_CLOUDY,MOSTLY_CLOUDY,MOSTLY_CLOUDY,MOSTLY_CLOUDY,CLEAR","Cross-shore,Cross-shore,Cross-shore,Offshore,Offshore,Offshore,Offshore,Cross-shore,Onshore,Onshore,Onshore",11
5842041f4e65fad6a7708941,2024_02_18,36.69388179265737,-121.81289,Marina State Beach,3,3.4663636363636363,4.143636363636364,13.636363636363637,13.636363636363637,"DRIZZLE,MOSTLY_CLOUDY,NIGHT_MOSTLY_CLOUDY,NIGHT_MIST,NIGHT_MIST,MOSTLY_CLEAR,MIST,MIST,CLEAR,CLEAR,CLEAR","Offshore,Offshore,Offshore,Offshore,Offshore,Offshore,Offshore,Offshore,Offshore,Offshore,Offshore",11
5842041f4e65fad6a7708944,2024_02_18,34.34145077331085,-119.416999352654,Stanley's,3.727272727272727,1.3536363636363635,1.62,15,15,"MOSTLY_CLEAR,MIST,NIGHT_MOSTLY_CLOUDY,NIGHT_BRIEF_SHOWERS,NIGHT_MOSTLY_CLOUDY,LIGHT_RAIN,MOSTLY_CLOUDY,CLEAR,CLEAR,CLEAR,MOSTLY_CLEAR","Onshore,Onshore,Offshore,Offshore,Offshore,Offshore,Offshore,Offshore,Offshore,Offshore,Offshore",11
5842041f4e65fad6a7708945,2024_02_18,34.35113017313915,-119.426921498899,Oil Piers,3.272727272727273,1.4436363636363636,1.7254545454545456,15,15,"MOSTLY_CLEAR,MIST,NIGHT_MOSTLY_CLOUDY,NIGHT_BRIEF_SHOWERS,NIGHT_MOSTLY_CLOUDY,LIGHT_RAIN,MOSTLY_CLOUDY,CLEAR,CLEAR,CLEAR,MOSTLY_CLEAR","Onshore,Onshore,Offshore,Offshore,Offshore,Offshore,Offshore,Offshore,Cross-shore,Cross-shore,Cross-shore",11
5842041f4e65fad6a770894c,2024_02_18,34.17876333306018,-119.2399483564372,Oxnard,3.1818181818181817,1.8800000000000001,2.2554545454545454,15,15,"CLEAR,CLEAR,NIGHT_FOG,NIGHT_FOG,NIGHT_MIST,FOG,MOSTLY_CLOUDY,CLEAR,CLEAR,CLEAR,CLEAR","Onshore,Onshore,Offshore,Cross-shore,Cross-shore,Cross-shore,Offshore,Offshore,Offshore,Cross-shore,Cross-shore",11
5842041f4e65fad6a7708957,2024_02_18,34.31720331100517,-119.3882324751725,Pitas Point,3.1818181818181817,1.498181818181818,1.800909090909091,15,15,"MIST,MIST,NIGHT_MOSTLY_CLOUDY,NIGHT_MOSTLY_CLOUDY,NIGHT_FOG,MIST,MOSTLY_CLOUDY,CLEAR,CLEAR,MOSTLY_CLOUDY,MOSTLY_CLEAR","Onshore,Cross-shore,Offshore,Offshore,Offshore,Offshore,Cross-shore,Cross-shore,Onshore,Onshore,Onshore",11
5842041f4e65fad6a7708959,2024_02_18,34.27851754384724,-119.316202617226,Emma Wood,3.4545454545454546,1.35,1.6281818181818182,15,15,"MOSTLY_CLEAR,MOSTLY_CLEAR,NIGHT_CLEAR,NIGHT_FOG,NIGHT_MIST,OVERCAST,MOSTLY_CLOUDY,CLEAR,CLEAR,CLEAR,CLEAR","Onshore,Onshore,Offshore,Offshore,Offshore,Offshore,Offshore,Offshore,Cross-shore,Cross-shore,Cross-shore",11
5842041f4e65fad6a770895a,2024_02_18,34.35513640390276,-119.4400589884255,Mussel Shoals (aka Little Rincon),3.909090909090909,1.8818181818181818,2.2472727272727275,15,15,"MOSTLY_CLEAR,MOSTLY_CLEAR,NIGHT_MOSTLY_CLOUDY,NIGHT_MOSTLY_CLOUDY,NIGHT_MOSTLY_CLOUDY,OVERCAST,CLEAR,CLEAR,MOSTLY_CLOUDY,MOSTLY_CLOUDY,MOSTLY_CLEAR","Onshore,Cross-shore,Offshore,Offshore,Offshore,Cross-shore,Offshore,Offshore,Cross-shore,Cross-shore,Cross-shore",11
5842041f4e65fad6a770895e,2024_02_18,34.28991757054902,-119.3366646794652,Summer Beach,2.909090909090909,0.9054545454545455,1.1818181818181819,15,15,"MOSTLY_CLEAR,MOSTLY_CLEAR,NIGHT_CLEAR,NIGHT_FOG,NIGHT_MIST,OVERCAST,MOSTLY_CLOUDY,CLEAR,CLEAR,CLEAR,CLEAR","Onshore,Onshore,Offshore,Offshore,Offshore,Offshore,Offshore,Offshore,Offshore,Offshore,Offshore",11
5842041f4e65fad6a770895f,2024_02_18,34.30897456105926,-119.3582501170116,Solimar,2.909090909090909,0.9181818181818182,1.1581818181818182,15,15,"MIST,MIST,NIGHT_MOSTLY_CLOUDY,NIGHT_BRIEF_SHOWERS,NIGHT_FOG,MIST,MOSTLY_CLOUDY,CLEAR,CLEAR,MOSTLY_CLOUDY,MOSTLY_CLEAR","Onshore,Cross-shore,Offshore,Offshore,Offshore,Offshore,Cross-shore,Cross-shore,Onshore,Onshore,Onshore",11
5842041f4e65fad6a7708960,2024_02_18,34.39836265281686,-119.70213,Leadbetter Point,2.4545454545454546,0.6345454545454545,0.9145454545454546,14,14,"MOSTLY_CLEAR,MOSTLY_CLEAR,NIGHT_LIGHT_RAIN,NIGHT_MOSTLY_CLOUDY,NIGHT_MOSTLY_CLOUDY,FOG,CLEAR,CLEAR,MOSTLY_CLEAR,MOSTLY_CLEAR,MOSTLY_CLEAR","Cross-shore,Cross-shore,Offshore,Offshore,Onshore,Offshore,Offshore,Onshore,Onshore,Onshore,Onshore",11
5842041f4e65fad6a7708961,2024_02_18,34.46052293893899,-120.07328,Refugio,1.3636363636363635,0.47090909090909094,0.7736363636363637,14,14,"MOSTLY_CLEAR,MOSTLY_CLEAR,NIGHT_BRIEF_SHOWERS,NIGHT_MOSTLY_CLOUDY,NIGHT_BRIEF_SHOWERS,MOSTLY_CLOUDY,MOSTLY_CLEAR,BRIEF_SHOWERS,SHOWERS,MOSTLY_CLEAR,MOSTLY_CLOUDY","Onshore,Onshore,Onshore,Onshore,Onshore,Onshore,Onshore,Onshore,Onshore,Onshore,Onshore",11
5842041f4e65fad6a7708962,2024_02_18,34.40754276777778,-119.87639,Devereux,2.909090909090909,1.51,1.8163636363636364,14,14,"MIST,MIST,NIGHT_LIGHT_RAIN_AND_FOG,NIGHT_MOSTLY_CLOUDY,NIGHT_MOSTLY_CLOUDY,CLOUDY,CLEAR,MOSTLY_CLOUDY,MOSTLY_CLOUDY,CLEAR,MOSTLY_CLOUDY","Cross-shore,Cross-shore,Cross-shore,Cross-shore,Cross-shore,Cross-shore,Cross-shore,Onshore,Onshore,Onshore,Onshore",11
5842041f4e65fad6a7708963,2024_02_18,34.27479983305182,-119.3133222656776,Ventura Overhead,3.8181818181818183,1.4945454545454546,1.7954545454545454,15,15,"MOSTLY_CLEAR,CLEAR,NIGHT_BRIEF_SHOWERS,NIGHT_MOSTLY_CLOUDY,NIGHT_MIST,OVERCAST,CLEAR,CLEAR,CLEAR,CLEAR,MOSTLY_CLOUDY","Onshore,Onshore,Offshore,Offshore,Offshore,Offshore,Offshore,Offshore,Offshore,Offshore,Offshore",11
5842041f4e65fad6a7708964,2024_02_18,34.41023236011655,-119.88261,Sands,3.4545454545454546,1.5136363636363637,1.8118181818181818,14,14,"MIST,MIST,NIGHT_LIGHT_RAIN_AND_FOG,NIGHT_MOSTLY_CLOUDY,NIGHT_MOSTLY_CLOUDY,CLOUDY,CLEAR,MOSTLY_CLOUDY,MOSTLY_CLOUDY,CLEAR,MOSTLY_CLOUDY","Onshore,Onshore,Offshore,Offshore,Offshore,Offshore,Offshore,Offshore,Offshore,Offshore,Offshore",11
5842041f4e65fad6a7708966,2024_02_18,34.40450193869233,-119.68752,Sandspit,2.1818181818181817,0.2672727272727273,0.57,14,14,"MOSTLY_CLEAR,CLEAR,NIGHT_RAIN,NIGHT_MOSTLY_CLOUDY,NIGHT_MOSTLY_CLOUDY,FOG,MOSTLY_CLEAR,CLEAR,MOSTLY_CLEAR,MOSTLY_CLEAR,MOSTLY_CLEAR","Cross-shore,Cross-shore,Offshore,Offshore,Cross-shore,Offshore,Offshore,Cross-shore,Onshore,Onshore,Onshore",11
5842041f4e65fad6a7708967,2024_02_18,34.41549098334453,-119.6375149840203,Hammond's,2.4545454545454546,0.7290909090909091,0.9772727272727273,14,14,"MOSTLY_CLEAR,CLEAR,NIGHT_OVERCAST,NIGHT_LIGHT_RAIN_AND_FOG,NIGHT_MOSTLY_CLOUDY,BRIEF_SHOWERS,MOSTLY_CLEAR,CLEAR,MOSTLY_CLEAR,SHOWERS,BRIEF_SHOWERS","Cross-shore,Cross-shore,Cross-shore,Cross-shore,Cross-shore,Cross-shore,Cross-shore,Cross-shore,Onshore,Onshore,Onshore",11
5842041f4e65fad6a7708968,2024_02_18,34.45759322742309,-120.0220251867315,El Capitan,2.1818181818181817,0.7536363636363637,1,14,14,"MOSTLY_CLEAR,MOSTLY_CLEAR,NIGHT_BRIEF_SHOWERS,NIGHT_MOSTLY_CLOUDY,NIGHT_BRIEF_SHOWERS,MOSTLY_CLOUDY,CLEAR,MOSTLY_CLOUDY,BRIEF_SHOWERS,MOSTLY_CLEAR,BRIEF_SHOWERS","Onshore,Onshore,Cross-shore,Cross-shore,Onshore,Cross-shore,Cross-shore,Onshore,Onshore,Onshore,Onshore",11
5842041f4e65fad6a770896c,2024_02_18,34.405117655616,-119.84317,Campus Point,2.909090909090909,0.8972727272727273,1.1545454545454545,14,14,"MOSTLY_CLEAR,CLEAR,NIGHT_LIGHT_RAIN_AND_FOG,NIGHT_RAIN_AND_FOG,NIGHT_MOSTLY_CLOUDY,FOG,CLEAR,CLEAR,MOSTLY_CLOUDY,CLEAR,MOSTLY_CLOUDY","Cross-shore,Cross-shore,Onshore,Cross-shore,Cross-shore,Cross-shore,Cross-shore,Onshore,Onshore,Onshore,Onshore",11
5842041f4e65fad6a770896e,2024_02_18,34.38935162233354,-119.51955,Carpinteria State Beach,3,2.1427272727272726,2.560909090909091,14,14,"MOSTLY_CLEAR,MIST,NIGHT_MOSTLY_CLOUDY,NIGHT_FOG,NIGHT_MOSTLY_CLOUDY,MOSTLY_CLOUDY,CLEAR,CLEAR,CLEAR,CLEAR,MOSTLY_CLEAR","Onshore,Onshore,Offshore,Offshore,Offshore,Offshore,Offshore,Cross-shore,Cross-shore,Cross-shore,Cross-shore",11
5842041f4e65fad6a770896f,2024_02_18,37.48296565175612,-122.4549300127824,Half Moon Bay,1.8181818181818181,3.228181818181818,3.8581818181818184,13,13,"HEAVY_SHOWERS,MOSTLY_CLOUDY,NIGHT_BRIEF_SHOWERS,NIGHT_MIST,NIGHT_CLEAR,CLEAR,CLEAR,CLEAR,CLEAR,MOSTLY_CLEAR,MOSTLY_CLEAR","Onshore,Onshore,Onshore,Onshore,Cross-shore,Offshore,Cross-shore,Cross-shore,Cross-shore,Cross-shore,Onshore",11
5842041f4e65fad6a7708970,2024_02_18,37.499,-122.471,Princeton Jetty,2.1818181818181817,2.632727272727273,3.148181818181818,13,13,"SHOWERS,MOSTLY_CLOUDY,NIGHT_FOG,NIGHT_BRIEF_SHOWERS,NIGHT_CLEAR,CLEAR,CLEAR,CLEAR,CLEAR,CLEAR,MOSTLY_CLEAR","Onshore,Onshore,Onshore,Onshore,Cross-shore,Cross-shore,Onshore,Onshore,Onshore,Onshore,Onshore",11
5842041f4e65fad6a7708972,2024_02_18,37.35699547365155,-122.4069534707252,Tunitas Creek,1.5454545454545454,3.9509090909090907,4.721818181818182,13,13,"BRIEF_SHOWERS,MOSTLY_CLOUDY,NIGHT_MIST,NIGHT_MIST,NIGHT_CLEAR,CLEAR,CLEAR,CLEAR,CLEAR,CLEAR,MOSTLY_CLEAR","Cross-shore,Cross-shore,Onshore,Onshore,Cross-shore,Cross-shore,Cross-shore,Cross-shore,Cross-shore,Cross-shore,Cross-shore",11
5842041f4e65fad6a7708974,2024_02_18,37.54735589428842,-122.5161090212687,Montara,2.727272727272727,3.4154545454545455,4.082727272727273,13,13,"BRIEF_SHOWERS,SHOWERS,NIGHT_LIGHT_RAIN,NIGHT_MIST,NIGHT_MIST,MOSTLY_CLOUDY,CLEAR,CLEAR,CLEAR,CLEAR,MOSTLY_CLOUDY","Offshore,Offshore,Cross-shore,Offshore,Offshore,Offshore,Offshore,Offshore,Offshore,Offshore,Offshore",11
5842041f4e65fad6a7708975,2024_02_18,34.3869373724559,-119.5142334209018,Tarpits,3.1818181818181817,1.9818181818181817,2.371818181818182,14,14,"MOSTLY_CLEAR,MOSTLY_CLEAR,NIGHT_MOSTLY_CLOUDY,NIGHT_MOSTLY_CLOUDY,NIGHT_MOSTLY_CLOUDY,MOSTLY_CLOUDY,CLEAR,CLEAR,CLEAR,CLEAR,MOSTLY_CLEAR","Onshore,Cross-shore,Offshore,Offshore,Offshore,Cross-shore,Cross-shore,Onshore,Onshore,Onshore,Onshore",11
5842041f4e65fad6a7708976,2024_02_18,37.59881852720143,-122.50463,Pacifica / Linda Mar,2.8181818181818183,1.0374666666666668,1.4094515151515152,14,14,"BRIEF_SHOWERS,BRIEF_SHOWERS,NIGHT_MIST,NIGHT_MIST,NIGHT_CLEAR,CLEAR,CLEAR,CLEAR,CLEAR,CLEAR,MOSTLY_CLEAR","Offshore,Cross-shore,Cross-shore,Cross-shore,Offshore,Offshore,Offshore,Offshore,Offshore,Offshore,Offshore",11
5842041f4e65fad6a7708978,2024_02_18,37.59883098461164,-122.5143843582282,Pedro Point,2.8181818181818183,3.4572727272727275,4.131818181818182,13,13,"BRIEF_SHOWERS,BRIEF_SHOWERS,NIGHT_MIST,NIGHT_BRIEF_SHOWERS,NIGHT_CLEAR,CLEAR,CLEAR,CLEAR,CLEAR,CLEAR,MOSTLY_CLOUDY","Offshore,Offshore,Cross-shore,Offshore,Offshore,Offshore,Offshore,Offshore,Offshore,Offshore,Offshore",11
5842041f4e65fad6a7708979,2024_02_18,37.61081996647663,-122.4973287570634,Rockaway,2.6363636363636362,3.132727272727273,3.7454545454545456,13,13,"BRIEF_SHOWERS,BRIEF_SHOWERS,NIGHT_MIST,NIGHT_MIST,NIGHT_CLEAR,CLEAR,CLEAR,CLEAR,CLEAR,CLEAR,MOSTLY_CLEAR","Cross-shore,Cross-shore,Onshore,Cross-shore,Offshore,Offshore,Offshore,Offshore,Offshore,Offshore,Offshore",11
5842041f4e65fad6a770897a,2024_02_18,37.809987384424446,-122.4751353263855,Fort Point,2.8181818181818183,2.2800000000000002,2.7245454545454546,13,13,"MOSTLY_CLOUDY,BRIEF_SHOWERS,NIGHT_CLOUDY,NIGHT_MIST,NIGHT_MIST,MIST,MIST,MIST,MIST,CLEAR,MOSTLY_CLEAR","Onshore,Onshore,Onshore,Onshore,Onshore,Onshore,Onshore,Onshore,Onshore,Onshore,Onshore",11
5842041f4e65fad6a770897c,2024_02_18,37.63422542967464,-122.4951,Sharp Park,2.1818181818181817,3.598181818181818,4.299090909090909,13,13,"BRIEF_SHOWERS,BRIEF_SHOWERS,NIGHT_DRIZZLE,NIGHT_MOSTLY_CLOUDY,NIGHT_CLEAR,CLEAR,CLEAR,CLEAR,CLEAR,CLEAR,MOSTLY_CLEAR","Cross-shore,Cross-shore,Onshore,Cross-shore,Offshore,Offshore,Offshore,Offshore,Offshore,Offshore,Offshore",11
5842041f4e65fad6a770897d,2024_02_18,37.27313605072472,-122.4127387912554,Pescadero,2.272727272727273,3.561818181818182,4.255454545454546,13,13,"LIGHT_SHOWERS_POSSIBLE,LIGHT_RAIN,NIGHT_MIST,NIGHT_MIST,NIGHT_BRIEF_SHOWERS,BRIEF_SHOWERS,CLEAR,CLEAR,MOSTLY_CLOUDY,MOSTLY_CLEAR,CLEAR","Offshore,Cross-shore,Cross-shore,Cross-shore,Offshore,Offshore,Offshore,Offshore,Offshore,Offshore,Cross-shore",11
5842041f4e65fad6a770897e,2024_02_18,37.18140279972666,-122.3926685899327,Pigeon Point,1.1818181818181819,3.711818181818182,4.4363636363636365,13,13,"MOSTLY_CLOUDY,LIGHT_RAIN,NIGHT_MIST,NIGHT_MIST,NIGHT_MOSTLY_CLOUDY,MOSTLY_CLOUDY,CLEAR,CLEAR,CLEAR,CLEAR,MOSTLY_CLOUDY","Onshore,Onshore,Onshore,Onshore,Onshore,Onshore,Onshore,Onshore,Onshore,Onshore,Onshore",11
5842041f4e65fad6a770897f,2024_02_18,37.11578956919415,-122.314699271291,Ano Nuevo,1.5454545454545454,3.9763636363636365,4.750909090909091,13,13,"OVERCAST,LIGHT_RAIN,NIGHT_MIST,NIGHT_MIST,NIGHT_MOSTLY_CLOUDY,MOSTLY_CLOUDY,MOSTLY_CLOUDY,CLEAR,MOSTLY_CLOUDY,CLEAR,CLEAR","Onshore,Onshore,Onshore,Onshore,Onshore,Onshore,Onshore,Onshore,Onshore,Onshore,Onshore",11
5842041f4e65fad6a7708980,2024_02_18,37.09520872681598,-122.2805474707768,Waddell Creek,1.8181818181818181,2.980909090909091,3.5645454545454545,13,13,"RAIN,LIGHT_RAIN,NIGHT_MIST,NIGHT_MIST,NIGHT_MOSTLY_CLOUDY,MOSTLY_CLOUDY,MOSTLY_CLEAR,MOSTLY_CLOUDY,MOSTLY_CLOUDY,CLEAR,CLEAR","Cross-shore,Onshore,Onshore,Onshore,Cross-shore,Cross-shore,Cross-shore,Cross-shore,Cross-shore,Cross-shore,Onshore",11
5842041f4e65fad6a7708981,2024_02_18,36.96512852130351,-122.1252825495626,Four Mile,1.9090909090909092,3.679090909090909,4.3972727272727274,13,13,"RAIN,OVERCAST,NIGHT_MIST,NIGHT_MIST,NIGHT_MOSTLY_CLOUDY,MOSTLY_CLOUDY,CLEAR,MOSTLY_CLOUDY,CLEAR,CLEAR,BRIEF_SHOWERS","Onshore,Onshore,Cross-shore,Onshore,Cross-shore,Cross-shore,Cross-shore,Cross-shore,Onshore,Onshore,Onshore",11
5842041f4e65fad6a7708982,2024_02_18,37.04122807048655,-122.2333684729756,Scott Creek,2.090909090909091,3.108181818181818,3.7163636363636363,13,13,"RAIN,HEAVY_RAIN,NIGHT_MIST,NIGHT_MIST,NIGHT_MOSTLY_CLOUDY,MOSTLY_CLOUDY,MOSTLY_CLEAR,MOSTLY_CLOUDY,MOSTLY_CLOUDY,CLEAR,MOSTLY_CLOUDY","Cross-shore,Onshore,Onshore,Onshore,Cross-shore,Cross-shore,Cross-shore,Cross-shore,Cross-shore,Cross-shore,Onshore",11
5842041f4e65fad6a7708983,2024_02_18,37.02350229387179,-122.21908,Davenport,2.090909090909091,3.2245454545454546,3.852727272727273,13,13,"HEAVY_RAIN,LIGHT_RAIN,NIGHT_DRIZZLE,NIGHT_DRIZZLE,NIGHT_MOSTLY_CLOUDY,MOSTLY_CLOUDY,CLEAR,CLEAR,MOSTLY_CLOUDY,CLEAR,MOSTLY_CLOUDY","Cross-shore,Onshore,Onshore,Onshore,Cross-shore,Cross-shore,Cross-shore,Cross-shore,Cross-shore,Cross-shore,Onshore",11
5842041f4e65fad6a7708986,2024_02_18,36.94905295955728,-122.0611823912244,Natural Bridges,2.6363636363636362,3.429090909090909,4.097272727272728,13,13,"LIGHT_RAIN,MIST,NIGHT_FOG,NIGHT_MIST,NIGHT_CLEAR,CLEAR,CLEAR,CLEAR,CLEAR,MOSTLY_CLEAR,MOSTLY_CLOUDY","Cross-shore,Onshore,Onshore,Onshore,Cross-shore,Cross-shore,Cross-shore,Cross-shore,Cross-shore,Cross-shore,Onshore",11
5842041f4e65fad6a7708987,2024_02_18,36.95154854910425,-122.0420693940968,Mitchell's Cove,2.8181818181818183,2.422727272727273,2.890909090909091,13,13,"LIGHT_RAIN,MIST,NIGHT_FOG,NIGHT_FOG,NIGHT_CLEAR,CLEAR,CLEAR,CLEAR,CLEAR,CLEAR,MOSTLY_CLOUDY","Onshore,Onshore,Onshore,Onshore,Onshore,Cross-shore,Onshore,Onshore,Onshore,Onshore,Onshore",11
5842041f4e65fad6a770898a,2024_02_18,36.9572312370203,-121.98177,26th Ave,2.6363636363636362,2.708181818181818,3.2363636363636363,13,13,"LIGHT_RAIN,LIGHT_RAIN,NIGHT_FOG,NIGHT_LIGHT_RAIN_AND_FOG,NIGHT_CLEAR,CLEAR,CLEAR,CLEAR,CLEAR,CLEAR,MOSTLY_CLOUDY","Cross-shore,Cross-shore,Onshore,Onshore,Offshore,Offshore,Offshore,Cross-shore,Cross-shore,Cross-shore,Cross-shore",11
5842041f4e65fad6a770898e,2024_02_18,36.91899972819882,-121.85536,Manresa,2.8181818181818183,3.2163636363636363,3.8436363636363637,13,13,"DRIZZLE,HEAVY_RAIN,NIGHT_MIST,NIGHT_MIST,NIGHT_CLEAR,CLEAR,CLEAR,CLEAR,CLEAR,CLEAR,CLEAR","Cross-shore,Cross-shore,Cross-shore,Cross-shore,Offshore,Offshore,Offshore,Cross-shore,Cross-shore,Cross-shore,Cross-shore",11
5842041f4e65fad6a7708990,2024_02_18,34.45747731928454,-120.34242,The Ranch,2.1818181818181817,2.02,2.4136363636363636,14,14,"MIST,MOSTLY_CLOUDY,NIGHT_BRIEF_SHOWERS,NIGHT_SHOWERS,NIGHT_BRIEF_SHOWERS,BRIEF_SHOWERS,MIST,MOSTLY_CLEAR,MOSTLY_CLEAR,MOSTLY_CLOUDY,BRIEF_SHOWERS","Onshore,Onshore,Onshore,Onshore,Onshore,Onshore,Onshore,Onshore,Onshore,Onshore,Onshore",11
5842041f4e65fad6a7708991,2024_02_18,34.50875036590315,-120.50348,Jalama,2.5454545454545454,2.2772727272727273,2.7199999999999998,14,14,"MIST,MOSTLY_CLOUDY,NIGHT_MOSTLY_CLOUDY,NIGHT_MOSTLY_CLOUDY,NIGHT_MOSTLY_CLOUDY,MOSTLY_CLOUDY,CLEAR,CLEAR,MOSTLY_CLEAR,CLEAR,BRIEF_SHOWERS","Onshore,Onshore,Cross-shore,Cross-shore,Cross-shore,Cross-shore,Cross-shore,Cross-shore,Cross-shore,Cross-shore,Cross-shore",11
5842041f4e65fad6a7708996,2024_02_18,34.68700870220497,-120.6111611019887,Surf Beach,2.5454545454545454,4.237272727272727,5.065454545454545,14,14,"MIST,OVERCAST,NIGHT_MOSTLY_CLOUDY,NIGHT_CLEAR,NIGHT_CLEAR,CLEAR,CLEAR,CLEAR,CLEAR,CLEAR,CLEAR","Cross-shore,Cross-shore,Offshore,Offshore,Offshore,Offshore,Offshore,Offshore,Offshore,Offshore,Offshore",11
5842041f4e65fad6a770899c,2024_02_18,35.5730538161116,-121.1143362345574,Moonstone,2.090909090909091,3.609090909090909,4.3118181818181816,14,14,"RAIN,HEAVY_RAIN,NIGHT_MOSTLY_CLOUDY,NIGHT_MIST,NIGHT_MOSTLY_CLOUDY,MOSTLY_CLOUDY,MOSTLY_CLOUDY,MOSTLY_CLOUDY,MOSTLY_CLOUDY,MOSTLY_CLEAR,MOSTLY_CLEAR","Cross-shore,Cross-shore,Cross-shore,Cross-shore,Offshore,Offshore,Cross-shore,Cross-shore,Cross-shore,Cross-shore,Cross-shore",11
5842041f4e65fad6a770899d,2024_02_18,35.61533716776573,-121.1502053073914,Pico Creek,3,2.7818181818181817,3.325454545454545,14,14,"RAIN,RAIN,NIGHT_MIST,NIGHT_OVERCAST,NIGHT_MOSTLY_CLOUDY,MOSTLY_CLOUDY,MOSTLY_CLOUDY,MOSTLY_CLOUDY,MOSTLY_CLOUDY,MOSTLY_CLOUDY,MOSTLY_CLEAR","Cross-shore,Cross-shore,Cross-shore,Cross-shore,Offshore,Offshore,Cross-shore,Cross-shore,Cross-shore,Cross-shore,Cross-shore",11
5842041f4e65fad6a770899e,2024_02_18,35.56829031927379,-121.1120653023953,Santa Rosa Creek,2,3.621818181818182,4.327272727272727,14,14,"LIGHT_RAIN,HEAVY_RAIN,NIGHT_OVERCAST,NIGHT_DRIZZLE,NIGHT_MOSTLY_CLOUDY,MOSTLY_CLOUDY,CLEAR,MOSTLY_CLOUDY,MOSTLY_CLOUDY,MOSTLY_CLEAR,CLEAR","Cross-shore,Onshore,Cross-shore,Cross-shore,Cross-shore,Cross-shore,Cross-shore,Cross-shore,Cross-shore,Cross-shore,Cross-shore",11
5842041f4e65fad6a77089a2,2024_02_18,35.44820114936284,-120.90715,"Cayucos Pier, Southside ",2.272727272727273,2.1672727272727275,2.590909090909091,14,14,"RAIN,LIGHT_RAIN,NIGHT_FOG,NIGHT_FOG,NIGHT_CLEAR,CLEAR,CLEAR,CLEAR,CLEAR,MOSTLY_CLEAR,CLEAR","Onshore,Onshore,Onshore,Onshore,Cross-shore,Onshore,Onshore,Onshore,Onshore,Onshore,Onshore",11
5842041f4e65fad6a77089a4,2024_02_18,35.30143372628852,-120.877819239902,Cable Landing,3,4.655454545454545,5.5645454545454545,14,14,"LIGHT_SHOWERS_POSSIBLE,LIGHT_RAIN,NIGHT_MOSTLY_CLOUDY,NIGHT_MOSTLY_CLOUDY,NIGHT_CLEAR,CLEAR,CLEAR,CLEAR,CLEAR,CLEAR,CLEAR","Cross-shore,Cross-shore,Offshore,Offshore,Offshore,Offshore,Offshore,Offshore,Offshore,Cross-shore,Cross-shore",11
5842041f4e65fad6a77089a9,2024_02_18,35.61269103500222,-121.1480725356606,San Simeon,2,2.0974545454545455,2.5066363636363636,14,14,"RAIN,RAIN,NIGHT_BRIEF_SHOWERS,NIGHT_BRIEF_SHOWERS,NIGHT_MOSTLY_CLOUDY,BRIEF_SHOWERS,MOSTLY_CLOUDY,CLEAR,MOSTLY_CLOUDY,MOSTLY_CLEAR,SHOWERS","Onshore,Onshore,Onshore,Cross-shore,Cross-shore,Cross-shore,Cross-shore,Cross-shore,Cross-shore,Cross-shore,Onshore",11
5842041f4e65fad6a77089ab,2024_02_18,35.1775325966252,-120.7341125142258,Avila Beach,1.9090909090909092,0.6872727272727273,0.9700000000000001,14,14,"RAIN,DRIZZLE,NIGHT_FOG,NIGHT_RAIN_AND_FOG,NIGHT_CLEAR,MOSTLY_CLEAR,CLEAR,CLEAR,MOSTLY_CLEAR,CLEAR,CLEAR","Onshore,Onshore,Cross-shore,Cross-shore,Cross-shore,Cross-shore,Cross-shore,Cross-shore,Onshore,Onshore,Onshore",11
5842041f4e65fad6a77089ac,2024_02_18,35.13877877884115,-120.64535,Pismo Beach Pier,2.3936363636363636,2.268218181818182,3.027706060606061,14,14,"RAIN,OVERCAST,NIGHT_OVERCAST,NIGHT_MIST,NIGHT_MOSTLY_CLEAR,CLEAR,CLEAR,CLEAR,CLEAR,CLEAR,MOSTLY_CLOUDY","Cross-shore,Cross-shore,Cross-shore,Cross-shore,Cross-shore,Cross-shore,Cross-shore,Cross-shore,Cross-shore,Cross-shore,Cross-shore",11
5842041f4e65fad6a77089ad,2024_02_18,46.8907710233147,-124.12964,Westport/Olympic Peninsula,3,2.710909090909091,3.21,10,10,"DRIZZLE,LIGHT_SHOWERS_POSSIBLE,NIGHT_OVERCAST,NIGHT_CLEAR,NIGHT_DRIZZLE,NIGHT_OVERCAST,OVERCAST,CLOUDY,CLOUDY,DRIZZLE,OVERCAST","Offshore,Offshore,Offshore,Offshore,Offshore,Offshore,Offshore,Offshore,Offshore,Offshore,Offshore",11
5842041f4e65fad6a77089ae,2024_02_18,46.35185177248545,-124.06747,Long Beach Peninsula,2.909090909090909,3.2663636363636366,3.8518181818181816,10,10,"LIGHT_RAIN,LIGHT_RAIN,NIGHT_OVERCAST,NIGHT_DRIZZLE,NIGHT_DRIZZLE,NIGHT_CLOUDY,MOSTLY_CLOUDY,MOSTLY_CLOUDY,BRIEF_SHOWERS,BRIEF_SHOWERS,OVERCAST","Offshore,Offshore,Offshore,Offshore,Offshore,Offshore,Offshore,Offshore,Offshore,Cross-shore,Cross-shore",11
5842041f4e65fad6a77089af,2024_02_18,47.90649175554033,-124.6370864743483,La Push,3,2.8154545454545454,3.3645454545454547,10,10,"DRIZZLE,LIGHT_RAIN,NIGHT_CLOUDY,NIGHT_MOSTLY_CLOUDY,NIGHT_CLOUDY,NIGHT_CLOUDY,DRIZZLE,DRIZZLE,CLEAR,CLEAR,OVERCAST","Offshore,Offshore,Offshore,Offshore,Offshore,Offshore,Offshore,Offshore,Offshore,Offshore,Offshore",11
5842041f4e65fad6a77089b0,2024_02_18,42.04368239985442,-124.26828,Brookings Jetty,2.272727272727273,2.235760909090909,3.4933781818181817,11.636363636363637,11.636363636363637,"LIGHT_RAIN,OVERCAST,NIGHT_CLOUDY,NIGHT_LIGHT_RAIN,NIGHT_BRIEF_SHOWERS,NIGHT_CLEAR,CLEAR,CLEAR,CLEAR,CLEAR,CLEAR","Onshore,Onshore,Onshore,Onshore,Onshore,Onshore,Cross-shore,Cross-shore,Cross-shore,Onshore,Onshore",11
5842041f4e65fad6a77089b1,2024_02_18,42.74071837900346,-124.4983727491047,Port Orford,1.0909090909090908,3.1472727272727274,3.760909090909091,11,11,"LIGHT_RAIN,DRIZZLE,NIGHT_SHOWERS,NIGHT_MIST,NIGHT_CLOUDY,NIGHT_MOSTLY_CLOUDY,MOSTLY_CLEAR,CLEAR,CLEAR,CLEAR,CLEAR","Onshore,Onshore,Onshore,Onshore,Onshore,Onshore,Onshore,Onshore,Onshore,Onshore,Onshore",11
5842041f4e65fad6a77089b2,2024_02_18,44.01532689312291,-124.13865,Florence South Jetty,2.3636363636363638,3.7154545454545453,4.443636363636363,11,11,"LIGHT_RAIN,LIGHT_RAIN,NIGHT_CLEAR,NIGHT_LIGHT_RAIN,NIGHT_MOSTLY_CLOUDY,NIGHT_CLOUDY,MOSTLY_CLOUDY,CLEAR,MIST,CLEAR,CLEAR","Offshore,Offshore,Cross-shore,Cross-shore,Onshore,Cross-shore,Cross-shore,Cross-shore,Cross-shore,Cross-shore,Offshore",11
5842041f4e65fad6a77089b3,2024_02_18,42.41812540774362,-124.42945,Gold Beach South Jetty,0.8181818181818182,4.153636363636363,4.961818181818182,11.636363636363637,11.636363636363637,"LIGHT_SHOWERS_POSSIBLE,LIGHT_SHOWERS_POSSIBLE,NIGHT_OVERCAST,NIGHT_MIST,NIGHT_CLEAR,NIGHT_MOSTLY_CLOUDY,CLEAR,CLEAR,CLEAR,CLEAR,CLEAR","Onshore,Onshore,Onshore,Onshore,Onshore,Onshore,Onshore,Onshore,Onshore,Onshore,Onshore",11
5842041f4e65fad6a77089b4,2024_02_18,44.95857310226525,-124.0219017690976,Lincoln City,2.8181818181818183,3.2163636363636363,3.8363636363636364,11,11,"LIGHT_SHOWERS_POSSIBLE,LIGHT_SHOWERS_POSSIBLE,NIGHT_DRIZZLE,NIGHT_CLOUDY,NIGHT_MIST,NIGHT_MIST,OVERCAST,OVERCAST,CLEAR,CLEAR,CLEAR","Offshore,Offshore,Offshore,Offshore,Cross-shore,Onshore,Cross-shore,Cross-shore,Cross-shore,Cross-shore,Cross-shore",11
5842041f4e65fad6a77089b5,2024_02_18,44.63792761362982,-124.0657,Newport,2.3636363636363638,3.689090909090909,4.38,11,11,"LIGHT_RAIN,LIGHT_RAIN,NIGHT_OVERCAST,NIGHT_OVERCAST,NIGHT_MIST,NIGHT_MIST,MIST,MOSTLY_CLOUDY,MOSTLY_CLOUDY,CLEAR,CLEAR","Offshore,Offshore,Cross-shore,Offshore,Onshore,Onshore,Cross-shore,Cross-shore,Cross-shore,Cross-shore,Cross-shore",11
5842041f4e65fad6a77089b6,2024_02_18,45.61468496266301,-123.94643,Rockaway Beach,3,3.3563636363636364,3.9845454545454544,10.363636363636363,10.363636363636363,"LIGHT_RAIN,LIGHT_SHOWERS_POSSIBLE,NIGHT_LIGHT_RAIN,NIGHT_DRIZZLE,NIGHT_CLOUDY,NIGHT_MOSTLY_CLOUDY,LIGHT_RAIN,OVERCAST,MOSTLY_CLOUDY,MOSTLY_CLOUDY,MOSTLY_CLOUDY","Offshore,Offshore,Offshore,Offshore,Offshore,Cross-shore,Offshore,Cross-shore,Cross-shore,Cross-shore,Cross-shore",11
5842041f4e65fad6a77089b7,2024_02_18,45.20252914186085,-123.96975,Pacific City,2.909090909090909,3.2436363636363637,3.846363636363636,10.363636363636363,10.363636363636363,"LIGHT_SHOWERS_POSSIBLE,LIGHT_RAIN,NIGHT_DRIZZLE,NIGHT_DRIZZLE,NIGHT_BRIEF_SHOWERS,NIGHT_OVERCAST,OVERCAST,MOSTLY_CLOUDY,MOSTLY_CLOUDY,CLEAR,CLEAR","Offshore,Offshore,Offshore,Offshore,Cross-shore,Cross-shore,Cross-shore,Cross-shore,Cross-shore,Cross-shore,Cross-shore",11
5842041f4e65fad6a77089b8,2024_02_18,45.88179930310263,-123.96681,Cannon Beach,2.6363636363636362,3.3654545454545453,4.000909090909091,10,10,"LIGHT_RAIN,LIGHT_SHOWERS_POSSIBLE,NIGHT_MOSTLY_CLOUDY,NIGHT_LIGHT_RAIN,NIGHT_MOSTLY_CLOUDY,NIGHT_BRIEF_SHOWERS,LIGHT_RAIN,RAIN,OVERCAST,BRIEF_SHOWERS,MIST","Offshore,Offshore,Offshore,Offshore,Cross-shore,Cross-shore,Cross-shore,Cross-shore,Cross-shore,Onshore,Onshore",11
5842041f4e65fad6a77089ba,2024_02_18,40.02528754746774,-124.06372,Shelter Cove,1.4545454545454546,1.4280481818181818,2.231328181818182,12,12,"SHOWERS,BRIEF_SHOWERS,NIGHT_MIST,NIGHT_MIST,NIGHT_CLEAR,NIGHT_CLEAR,CLEAR,CLEAR,CLEAR,CLEAR,CLOUDY","Onshore,Onshore,Onshore,Onshore,Onshore,Onshore,Onshore,Onshore,Onshore,Onshore,Onshore",11
5842041f4e65fad6a77089bb,2024_02_18,40.76816197136951,-124.24248,Humboldt Harbor Entrance,2.1818181818181817,4.010909090909091,4.793636363636364,12,12,"HEAVY_SHOWERS,HEAVY_SHOWERS,NIGHT_CLEAR,NIGHT_CLEAR,NIGHT_CLEAR,NIGHT_CLEAR,CLEAR,CLEAR,CLEAR,CLEAR,MOSTLY_CLOUDY","Cross-shore,Cross-shore,Cross-shore,Cross-shore,Offshore,Cross-shore,Cross-shore,Cross-shore,Cross-shore,Cross-shore,Offshore",11
5842041f4e65fad6a77089bc,2024_02_18,40.76684246920174,-124.23107,North Jetty,2.727272727272727,3.5854545454545454,4.281818181818182,12,12,"HEAVY_SHOWERS,HEAVY_SHOWERS,NIGHT_CLEAR,NIGHT_CLEAR,NIGHT_CLEAR,NIGHT_CLEAR,CLEAR,CLEAR,CLEAR,CLEAR,CLEAR","Cross-shore,Cross-shore,Cross-shore,Cross-shore,Offshore,Offshore,Offshore,Offshore,Cross-shore,Offshore,Offshore",11
5842041f4e65fad6a77089bd,2024_02_18,41.02731183893966,-124.1149972888982,Westhaven,1.8181818181818181,4.9809090909090905,5.952727272727273,12,12,"OVERCAST,OVERCAST,NIGHT_MOSTLY_CLEAR,NIGHT_CLEAR,NIGHT_CLEAR,NIGHT_CLEAR,CLEAR,CLEAR,CLEAR,CLEAR,CLEAR","Cross-shore,Cross-shore,Onshore,Cross-shore,Cross-shore,Cross-shore,Offshore,Offshore,Cross-shore,Cross-shore,Cross-shore",11
5842041f4e65fad6a77089be,2024_02_18,41.13016238153297,-124.16466,Sue-meg,2.6363636363636362,4.225454545454546,5.049090909090909,12,12,"MOSTLY_CLOUDY,DRIZZLE,NIGHT_CLEAR,NIGHT_MOSTLY_CLOUDY,NIGHT_CLEAR,NIGHT_CLEAR,CLEAR,CLEAR,CLEAR,CLEAR,CLEAR","Offshore,Offshore,Cross-shore,Cross-shore,Offshore,Offshore,Offshore,Offshore,Offshore,Offshore,Offshore",11
5842041f4e65fad6a77089bf,2024_02_18,37.8289474958188,-122.5376795097543,Fort Cronkite/Rodeo Beach,1.8181818181818181,4.1045454545454545,4.905454545454545,13,13,"OVERCAST,OVERCAST,NIGHT_MIST,NIGHT_MIST,NIGHT_MIST,MIST,BRIEF_SHOWERS,MIST,MIST,MIST,MOSTLY_CLEAR","Onshore,Onshore,Onshore,Onshore,Cross-shore,Cross-shore,Cross-shore,Cross-shore,Cross-shore,Cross-shore,Cross-shore",11
5842041f4e65fad6a77089c0,2024_02_18,41.74415759876137,-124.17717,South Beach CA,1.7272727272727273,3.110909090909091,3.7172727272727273,12,12,"RAIN,MOSTLY_CLOUDY,NIGHT_MOSTLY_CLOUDY,NIGHT_MOSTLY_CLOUDY,NIGHT_CLEAR,NIGHT_CLEAR,CLEAR,CLEAR,CLEAR,CLEAR,CLEAR","Onshore,Onshore,Onshore,Onshore,Onshore,Onshore,Onshore,Cross-shore,Onshore,Onshore,Onshore",11
5842041f4e65fad6a77089c1,2024_02_18,37.89801283969752,-122.64519,Stinson Beach,2.727272727272727,1.2172727272727273,1.4663636363636363,13,13,"MIST,BRIEF_SHOWERS,NIGHT_FOG,NIGHT_FOG,NIGHT_FOG,FOG,MIST,MIST,MIST,BRIEF_SHOWERS,MIST","Onshore,Onshore,Cross-shore,Onshore,Onshore,Onshore,Onshore,Onshore,Onshore,Onshore,Onshore",11
5842041f4e65fad6a77089c2,2024_02_18,37.90514516176495,-122.68151,Bolinas,3.5454545454545454,1.3960590909090909,2.1813436363636365,13,13,"BRIEF_SHOWERS,BRIEF_SHOWERS,NIGHT_LIGHT_RAIN_AND_FOG,NIGHT_BRIEF_SHOWERS,NIGHT_FOG,FOG,MOSTLY_CLOUDY,CLEAR,CLEAR,MOSTLY_CLEAR,MOSTLY_CLEAR","Cross-shore,Cross-shore,Offshore,Cross-shore,Onshore,Onshore,Onshore,Onshore,Onshore,Onshore,Onshore",11
5842041f4e65fad6a77089c3,2024_02_18,38.04892513158693,-122.9892494965416,Point Reyes (north),2.6363636363636362,4.068181818181818,4.861818181818181,13,13,"DRIZZLE,LIGHT_RAIN,NIGHT_MIST,NIGHT_MIST,NIGHT_MIST,CLOUDY,MIST,CLOUDY,MOSTLY_CLOUDY,CLEAR,MOSTLY_CLOUDY","Offshore,Offshore,Cross-shore,Offshore,Offshore,Offshore,Offshore,Offshore,Offshore,Offshore,Offshore",11
5842041f4e65fad6a77089c6,2024_02_18,38.31088736605785,-123.0496777333731,Doran Beach,2.3636363636363638,1.4290909090909092,1.710909090909091,13,13,"HEAVY_RAIN,MIST,NIGHT_FOG,NIGHT_MIST,NIGHT_BRIEF_SHOWERS,BRIEF_SHOWERS,MOSTLY_CLOUDY,CLOUDY,OVERCAST,MOSTLY_CLOUDY,MOSTLY_CLOUDY","Onshore,Onshore,Cross-shore,Onshore,Onshore,Onshore,Onshore,Onshore,Onshore,Onshore,Onshore",11
5842041f4e65fad6a77089c7,2024_02_18,38.45077228660809,-123.13008,Russian Rivermouth,2,3.653636363636364,4.366363636363636,13,13,"RAIN,DRIZZLE,NIGHT_FOG,NIGHT_FOG,NIGHT_CLEAR,CLEAR,CLEAR,MOSTLY_CLOUDY,CLOUDY,MOSTLY_CLOUDY,MOSTLY_CLOUDY","Onshore,Onshore,Onshore,Onshore,Offshore,Offshore,Offshore,Offshore,Offshore,Offshore,Cross-shore",11
5842041f4e65fad6a77089c8,2024_02_18,38.35329968518107,-123.06906,Salmon Creek,2.4545454545454546,3.097272727272727,3.7036363636363636,13,13,"LIGHT_RAIN,OVERCAST,NIGHT_DRIZZLE,NIGHT_MIST,NIGHT_MOSTLY_CLOUDY,MOSTLY_CLOUDY,CLOUDY,CLOUDY,CLEAR,CLEAR,MOSTLY_CLOUDY","Cross-shore,Cross-shore,Onshore,Cross-shore,Offshore,Offshore,Offshore,Offshore,Offshore,Offshore,Offshore",11
5842041f4e65fad6a77089c9,2024_02_18,38.6845180197959,-123.4322714291198,Black Point Beach,3,3.5327272727272727,4.22,13,13,"MIST,MIST,NIGHT_OVERCAST,NIGHT_OVERCAST,NIGHT_CLEAR,NIGHT_CLEAR,CLEAR,CLEAR,CLEAR,CLEAR,CLEAR","Offshore,Offshore,Cross-shore,Offshore,Offshore,Offshore,Offshore,Offshore,Offshore,Offshore,Offshore",11
5842041f4e65fad6a77089ca,2024_02_18,43.251076,-70.59144,Ogunquit,0.4081818181818182,0.0024999999999999996,0.2701818181818182,4,3,"NIGHT_CLEAR,NIGHT_CLEAR,NIGHT_CLEAR,NIGHT_CLEAR,CLEAR,CLEAR,CLEAR,CLEAR,CLEAR,CLEAR,CLEAR","Offshore,Offshore,Offshore,Offshore,Cross-shore,Cross-shore,Cross-shore,Cross-shore,Cross-shore,Offshore,Offshore",11
5842041f4e65fad6a77089cb,2024_02_18,41.362631366305415,-71.48006772942608,Point Judith,0.8181818181818182,0.22838909090909093,0.5099527272727273,5,4,"NIGHT_CLEAR,NIGHT_CLEAR,NIGHT_CLEAR,NIGHT_CLEAR,CLEAR,CLEAR,CLEAR,CLEAR,CLEAR,CLEAR,CLEAR","Offshore,Offshore,Offshore,Offshore,Offshore,Offshore,Offshore,Offshore,Offshore,Offshore,Offshore",11
5842041f4e65fad6a77089cd,2024_02_18,41.422678090954726,-71.45413,Monahan's - Narragansett,0.18181818181818182,0.025795454545454545,0.04030636363636363,5,5,"NIGHT_CLEAR,NIGHT_CLEAR,NIGHT_CLEAR,NIGHT_CLEAR,CLEAR,CLEAR,CLEAR,CLEAR,CLEAR,CLEAR,CLEAR","Offshore,Offshore,Offshore,Offshore,Offshore,Offshore,Offshore,Offshore,Offshore,Offshore,Offshore",11
5842041f4e65fad6a77089ce,2024_02_18,41.469,-71.293,Ruggles - Newport,0.45454545454545453,0.5482272727272727,0.8566036363636363,5,5,"NIGHT_CLEAR,NIGHT_CLEAR,NIGHT_CLEAR,NIGHT_CLEAR,CLEAR,CLEAR,CLEAR,CLEAR,CLEAR,CLEAR,CLEAR","Offshore,Offshore,Cross-shore,Cross-shore,Onshore,Onshore,Onshore,Onshore,Onshore,Onshore,Onshore",11
5842041f4e65fad6a77089cf,2024_02_18,43.175394,-70.606351,Short Sands Beach,0.5454545454545454,0.006363636363636364,0.18636363636363637,3,3,"NIGHT_CLEAR,NIGHT_CLEAR,NIGHT_CLEAR,NIGHT_CLEAR,CLEAR,CLEAR,CLEAR,CLEAR,CLEAR,CLEAR,CLEAR","Offshore,Offshore,Offshore,Offshore,Offshore,Offshore,Offshore,Offshore,Offshore,Offshore,Offshore",11
5842041f4e65fad6a77089d0,2024_02_18,41.487408,-71.29017,First Beach,0.2727272727272727,0.08363636363636363,0.35454545454545455,5,5,"NIGHT_CLEAR,NIGHT_CLEAR,NIGHT_CLEAR,NIGHT_CLEAR,CLEAR,CLEAR,CLEAR,CLEAR,CLEAR,CLEAR,CLEAR","Offshore,Offshore,Cross-shore,Cross-shore,Onshore,Onshore,Onshore,Onshore,Onshore,Onshore,Cross-shore",11
5842041f4e65fad6a77089d1,2024_02_18,42.27916830233153,-70.86498,Nantasket Beach,0,0,0.1113969696969697,4,3,"NIGHT_CLEAR,NIGHT_CLEAR,NIGHT_CLEAR,NIGHT_CLEAR,CLEAR,CLEAR,CLEAR,CLEAR,CLEAR,CLEAR,CLEAR","Cross-shore,Cross-shore,Offshore,Offshore,Offshore,Offshore,Offshore,Offshore,Offshore,Offshore,Offshore",11
5842041f4e65fad6a77089d2,2024_02_18,41.817,-69.935,Cape Cod,1,0.05818181818181818,0.3109090909090909,4,4,"NIGHT_CLEAR,NIGHT_CLEAR,NIGHT_CLEAR,NIGHT_CLEAR,CLEAR,CLEAR,CLEAR,CLEAR,CLEAR,CLEAR,CLEAR","Offshore,Offshore,Offshore,Offshore,Offshore,Offshore,Offshore,Offshore,Offshore,Offshore,Offshore",11
5842041f4e65fad6a77089d3,2024_02_18,42.22055448975661,-70.70634873403819,Egypt Beach,0,0,0.09090909090909091,4,4,"NIGHT_CLEAR,NIGHT_CLEAR,NIGHT_CLEAR,NIGHT_CLEAR,CLEAR,CLEAR,CLEAR,CLEAR,CLEAR,CLEAR,CLEAR","Offshore,Offshore,Offshore,Offshore,Offshore,Offshore,Offshore,Offshore,Offshore,Offshore,Offshore",11
5842041f4e65fad6a77089d4,2024_02_18,41.48739647744607,-71.25723,Second Beach,0.48454545454545456,0.37685833333333335,0.647722803030303,5,4,"NIGHT_CLEAR,NIGHT_CLEAR,NIGHT_CLEAR,NIGHT_CLEAR,CLEAR,CLEAR,CLEAR,CLEAR,CLEAR,CLEAR,CLEAR","Cross-shore,Cross-shore,Cross-shore,Cross-shore,Onshore,Onshore,Onshore,Onshore,Onshore,Onshore,Onshore",11
5842041f4e65fad6a77089d5,2024_02_18,42.964,-70.769,Fox Hill,0.21181818181818182,0,0.15280909090909092,4,3,"NIGHT_CLEAR,NIGHT_CLEAR,NIGHT_CLEAR,NIGHT_CLEAR,CLEAR,CLEAR,CLEAR,CLEAR,CLEAR,CLEAR,CLEAR","Offshore,Offshore,Offshore,Offshore,Cross-shore,Cross-shore,Cross-shore,Cross-shore,Cross-shore,Cross-shore,Offshore",11
5842041f4e65fad6a77089d6,2024_02_18,42.991359,-70.75149,Straws Point,0.6663636363636364,0,0.23485454545454545,4,3,"NIGHT_CLEAR,NIGHT_CLEAR,NIGHT_CLEAR,NIGHT_CLEAR,CLEAR,CLEAR,CLEAR,CLEAR,CLEAR,CLEAR,CLEAR","Offshore,Offshore,Offshore,Offshore,Cross-shore,Cross-shore,Cross-shore,Cross-shore,Cross-shore,Cross-shore,Cross-shore",11
5842041f4e65fad6a77089d7,2024_02_18,42.946,-70.786,Plaice Cove,0.21181818181818182,0,0.15280909090909092,4,3,"NIGHT_CLEAR,NIGHT_CLEAR,NIGHT_CLEAR,NIGHT_CLEAR,CLEAR,CLEAR,CLEAR,CLEAR,CLEAR,CLEAR,CLEAR","Offshore,Offshore,Offshore,Offshore,Offshore,Cross-shore,Cross-shore,Offshore,Offshore,Offshore,Offshore",11
5842041f4e65fad6a77089d9,2024_02_18,42.911574,-70.80831,The Main Beach,0,0.008328803030303032,0.16541316666666667,4,3,"NIGHT_CLEAR,NIGHT_CLEAR,NIGHT_CLEAR,NIGHT_CLEAR,CLEAR,CLEAR,CLEAR,CLEAR,CLEAR,CLEAR,CLEAR","Offshore,Offshore,Offshore,Offshore,Cross-shore,Onshore,Onshore,Cross-shore,Cross-shore,Cross-shore,Cross-shore",11
5842041f4e65fad6a77089da,2024_02_18,42.97583846220203,-70.764,Sawyer's Beach,0.3936363636363636,0,0.19970303030303033,4,3,"NIGHT_CLEAR,NIGHT_CLEAR,NIGHT_CLEAR,NIGHT_CLEAR,CLEAR,CLEAR,CLEAR,CLEAR,CLEAR,CLEAR,CLEAR","Offshore,Offshore,Offshore,Offshore,Cross-shore,Cross-shore,Cross-shore,Cross-shore,Cross-shore,Offshore,Offshore",11
5842041f4e65fad6a77089db,2024_02_18,42.97,-70.77,Rye on the Rocks / 5-0's,0,0,0.1524929090909091,4,3,"NIGHT_CLEAR,NIGHT_CLEAR,NIGHT_CLEAR,NIGHT_CLEAR,CLEAR,CLEAR,CLEAR,CLEAR,CLEAR,CLEAR,CLEAR","Offshore,Offshore,Offshore,Offshore,Cross-shore,Cross-shore,Cross-shore,Cross-shore,Cross-shore,Cross-shore,Offshore",11
5842041f4e65fad6a77089dc,2024_02_18,43.55902946610303,-70.27795,Higgins Beach,0.23636363636363636,0.15816727272727274,0.38989333333333337,4,3,"NIGHT_CLEAR,NIGHT_CLEAR,NIGHT_CLEAR,NIGHT_CLEAR,CLEAR,CLEAR,CLEAR,CLEAR,CLEAR,CLEAR,CLEAR","Offshore,Offshore,Offshore,Cross-shore,Cross-shore,Cross-shore,Onshore,Onshore,Onshore,Onshore,Cross-shore",11
5842041f4e65fad6a77089dd,2024_02_18,43.302676,-70.5652,Wells Beach,0.4081818181818182,0.007045454545454544,0.282530303030303,4,3,"NIGHT_CLEAR,NIGHT_CLEAR,NIGHT_CLEAR,NIGHT_CLEAR,CLEAR,CLEAR,CLEAR,CLEAR,CLEAR,CLEAR,CLEAR","Offshore,Offshore,Offshore,Offshore,Offshore,Cross-shore,Cross-shore,Cross-shore,Cross-shore,Offshore,Offshore",11
5842041f4e65fad6a77089de,2024_02_18,43.545359,-70.30479,Scarborough Beach State Park,0.24181818181818182,0.05583030303030303,0.2719634090909091,4,3,"NIGHT_CLEAR,NIGHT_CLEAR,NIGHT_CLEAR,NIGHT_CLEAR,CLEAR,CLEAR,CLEAR,CLEAR,CLEAR,CLEAR,CLEAR","Offshore,Offshore,Offshore,Offshore,Cross-shore,Cross-shore,Cross-shore,Cross-shore,Cross-shore,Cross-shore,Cross-shore",11
5842041f4e65fad6a77089df,2024_02_18,43.514481,-70.372146,Old Orchard Beach,0,0,0.1988387878787879,4,3,"NIGHT_CLEAR,NIGHT_CLEAR,NIGHT_CLEAR,NIGHT_CLEAR,CLEAR,CLEAR,CLEAR,CLEAR,CLEAR,CLEAR,CLEAR","Offshore,Offshore,Offshore,Offshore,Cross-shore,Cross-shore,Cross-shore,Cross-shore,Cross-shore,Cross-shore,Cross-shore",11
5842041f4e65fad6a77089e0,2024_02_18,43.34711,-70.48165,Gooch's Beach,0.4081818181818182,0.08506363636363637,0.31152121212121214,4,3,"NIGHT_CLEAR,NIGHT_CLEAR,NIGHT_CLEAR,NIGHT_CLEAR,CLEAR,CLEAR,CLEAR,CLEAR,CLEAR,CLEAR,CLEAR","Offshore,Offshore,Cross-shore,Cross-shore,Onshore,Onshore,Onshore,Onshore,Onshore,Onshore,Onshore",11
5842041f4e65fad6a77089e2,2024_02_18,40.58433,-73.62953,Lido Beach,0.05454545454545455,0.2139727272727273,0.49655454545454547,5,4,"NIGHT_CLEAR,NIGHT_CLEAR,NIGHT_CLEAR,NIGHT_CLEAR,CLEAR,CLEAR,CLEAR,CLEAR,CLEAR,CLEAR,CLEAR","Onshore,Offshore,Onshore,Onshore,Cross-shore,Cross-shore,Cross-shore,Cross-shore,Offshore,Offshore,Offshore",11
5842041f4e65fad6a77089e3,2024_02_18,43.163135,-70.61689,Long Sands Beach,0,-0.015518757575757576,0.17526022727272728,4,3,"NIGHT_CLEAR,NIGHT_CLEAR,NIGHT_CLEAR,NIGHT_CLEAR,CLEAR,CLEAR,CLEAR,CLEAR,CLEAR,CLEAR,CLEAR","Offshore,Offshore,Offshore,Offshore,Cross-shore,Cross-shore,Onshore,Cross-shore,Cross-shore,Cross-shore,Cross-shore",11
5842041f4e65fad6a77089e4,2024_02_18,40.61695351251805,-73.39376,Gilgo Beach,0.18181818181818182,0.28959696969696974,0.5835515151515152,5,4,"NIGHT_CLEAR,NIGHT_CLEAR,NIGHT_CLEAR,NIGHT_CLEAR,CLEAR,CLEAR,CLEAR,CLEAR,CLEAR,CLEAR,CLEAR","Cross-shore,Cross-shore,Cross-shore,Cross-shore,Onshore,Onshore,Onshore,Onshore,Onshore,Onshore,Onshore",11
5842041f4e65fad6a77089e5,2024_02_18,40.62530081928036,-73.23827,Robert Moses,0.2727272727272727,0.32,0.6181818181818182,5,5,"NIGHT_CLEAR,NIGHT_CLEAR,NIGHT_CLEAR,NIGHT_CLEAR,CLEAR,CLEAR,CLEAR,CLEAR,CLEAR,CLEAR,CLEAR","Offshore,Offshore,Cross-shore,Cross-shore,Onshore,Onshore,Onshore,Onshore,Onshore,Onshore,Cross-shore",11
5842041f4e65fad6a77089e6,2024_02_18,40.64313317632791,-73.15727,Fire Island,0.36363636363636365,0.31,0.6018181818181818,5,5,"NIGHT_CLEAR,NIGHT_CLEAR,NIGHT_CLEAR,NIGHT_CLEAR,CLEAR,CLEAR,CLEAR,CLEAR,CLEAR,CLEAR,CLEAR","Offshore,Offshore,Cross-shore,Cross-shore,Onshore,Cross-shore,Onshore,Onshore,Onshore,Onshore,Cross-shore",11
5842041f4e65fad6a77089e8,2024_02_18,40.76653118828782,-72.74579619372713,Cupsogue,0.36363636363636365,0.5363636363636364,0.8390909090909091,5,5,"NIGHT_CLEAR,NIGHT_CLEAR,NIGHT_CLEAR,NIGHT_CLEAR,CLEAR,CLEAR,CLEAR,CLEAR,CLEAR,CLEAR,CLEAR","Offshore,Offshore,Cross-shore,Cross-shore,Onshore,Onshore,Onshore,Onshore,Onshore,Onshore,Onshore",11
5842041f4e65fad6a77089e9,2024_02_18,42.9376373334092,-70.79141,The Wall ,0,0.009367742424242426,0.16703659090909093,4,3,"NIGHT_CLEAR,NIGHT_CLEAR,NIGHT_CLEAR,NIGHT_CLEAR,CLEAR,CLEAR,CLEAR,CLEAR,CLEAR,CLEAR,CLEAR","Offshore,Offshore,Offshore,Offshore,Offshore,Offshore,Offshore,Offshore,Offshore,Offshore,Offshore",11
5842041f4e65fad6a77089ea,2024_02_18,40.887088,-72.33856,Flys,0.36363636363636365,0.44181818181818183,0.7390909090909091,5.363636363636363,5.363636363636363,"NIGHT_CLEAR,NIGHT_CLEAR,NIGHT_CLEAR,NIGHT_CLEAR,CLEAR,CLEAR,CLEAR,CLEAR,CLEAR,CLEAR,CLEAR","Offshore,Offshore,Cross-shore,Cross-shore,Onshore,Onshore,Onshore,Onshore,Onshore,Onshore,Onshore",11
5842041f4e65fad6a77089eb,2024_02_18,41.0389266436591,-71.91068529316958,Trailer Park,0.36363636363636365,0.4513472272727273,0.8201025303030303,5,4,"NIGHT_CLEAR,NIGHT_CLEAR,NIGHT_CLEAR,NIGHT_CLEAR,CLEAR,CLEAR,CLEAR,CLEAR,CLEAR,CLEAR,CLEAR","Offshore,Offshore,Cross-shore,Cross-shore,Onshore,Onshore,Onshore,Onshore,Onshore,Onshore,Onshore",11
5842041f4e65fad6a77089ec,2024_02_18,41.039505402729105,-71.9142,Ditch Plains,0.36363636363636365,0.33193272727272727,0.5186454545454545,5,5,"NIGHT_CLEAR,NIGHT_CLEAR,NIGHT_CLEAR,NIGHT_CLEAR,CLEAR,CLEAR,CLEAR,CLEAR,CLEAR,CLEAR,CLEAR","Offshore,Offshore,Offshore,Offshore,Cross-shore,Cross-shore,Cross-shore,Cross-shore,Cross-shore,Cross-shore,Cross-shore",11
5842041f4e65fad6a77089ee,2024_02_18,40.57633275206492,-73.56895305108567,"West End, Jones Beach",0.25727272727272726,0.24141515151515153,0.5534757575757576,5,4,"NIGHT_CLEAR,NIGHT_CLEAR,NIGHT_CLEAR,NIGHT_CLEAR,CLEAR,CLEAR,CLEAR,CLEAR,CLEAR,CLEAR,CLEAR","Cross-shore,Cross-shore,Cross-shore,Cross-shore,Onshore,Onshore,Onshore,Onshore,Onshore,Onshore,Onshore",11
5842041f4e65fad6a77089f1,2024_02_18,41.038286691230795,-71.91991567611694,Poles,0.36363636363636365,0.4507345454545455,0.8153531060606061,5,4,"NIGHT_CLEAR,NIGHT_CLEAR,NIGHT_CLEAR,NIGHT_CLEAR,CLEAR,CLEAR,CLEAR,CLEAR,CLEAR,CLEAR,CLEAR","Offshore,Offshore,Cross-shore,Cross-shore,Onshore,Onshore,Onshore,Onshore,Onshore,Onshore,Onshore",11
5842041f4e65fad6a77089f3,2024_02_18,40.84077769766295,-72.47989493724765,The Bowl,0.36363636363636365,0.5009090909090909,0.7981818181818181,5,5,"NIGHT_CLEAR,NIGHT_CLEAR,NIGHT_CLEAR,NIGHT_CLEAR,CLEAR,CLEAR,CLEAR,CLEAR,CLEAR,CLEAR,CLEAR","Offshore,Offshore,Cross-shore,Cross-shore,Onshore,Onshore,Onshore,Onshore,Onshore,Onshore,Onshore",11
5842041f4e65fad6a77089f4,2024_02_18,40.94235535243154,-72.19286,Main Beach,0.3336363636363636,0.5316969696969697,0.8313424242424242,13,12,"NIGHT_CLEAR,NIGHT_CLEAR,NIGHT_CLEAR,NIGHT_CLEAR,CLEAR,CLEAR,CLEAR,CLEAR,CLEAR,CLEAR,CLEAR","Offshore,Cross-shore,Cross-shore,Cross-shore,Onshore,Onshore,Onshore,Onshore,Onshore,Onshore,Onshore",11
5842041f4e65fad6a77089f5,2024_02_18,40.58270702399518,-73.67251552079799,Laurelton Blvd.,0.05454545454545455,0.20248545454545458,0.44523704545454545,5,4,"NIGHT_CLEAR,NIGHT_CLEAR,NIGHT_CLEAR,NIGHT_CLEAR,CLEAR,CLEAR,CLEAR,CLEAR,CLEAR,CLEAR,CLEAR","Onshore,Offshore,Onshore,Onshore,Cross-shore,Cross-shore,Cross-shore,Cross-shore,Cross-shore,Cross-shore,Offshore",11
5842041f4e65fad6a77089f6,2024_02_18,41.033752854071416,-71.93695522488403,Terrace,0.36363636363636365,0.48478000000000004,0.842069090909091,5,4,"NIGHT_CLEAR,NIGHT_CLEAR,NIGHT_CLEAR,NIGHT_CLEAR,CLEAR,CLEAR,CLEAR,CLEAR,CLEAR,CLEAR,CLEAR","Offshore,Offshore,Cross-shore,Cross-shore,Onshore,Onshore,Onshore,Onshore,Onshore,Onshore,Onshore",11
5842041f4e65fad6a77089f7,2024_02_18,40.83372943645748,-72.50426173210144,K Road,0.5454545454545454,0.5472727272727272,0.850909090909091,5,5,"NIGHT_CLEAR,NIGHT_CLEAR,NIGHT_CLEAR,NIGHT_CLEAR,CLEAR,CLEAR,CLEAR,CLEAR,CLEAR,CLEAR,CLEAR","Offshore,Offshore,Cross-shore,Cross-shore,Onshore,Onshore,Onshore,Onshore,Onshore,Onshore,Cross-shore",11
5842041f4e65fad6a77089f8,2024_02_18,40.58456099581507,-73.80730032920837,84th Street,0,0.09564242424242425,0.3440484848484849,5,4,"NIGHT_CLEAR,NIGHT_CLEAR,NIGHT_CLEAR,NIGHT_CLEAR,CLEAR,CLEAR,CLEAR,CLEAR,CLEAR,CLEAR,CLEAR","Cross-shore,Offshore,Cross-shore,Cross-shore,Onshore,Onshore,Onshore,Onshore,Onshore,Onshore,Cross-shore",11
5842041f4e65fad6a77089fa,2024_02_18,40.1319,-74.02788,Sea Girt,0.53,0.09256363636363636,0.39054242424242425,6,5,"NIGHT_CLEAR,NIGHT_CLEAR,NIGHT_CLEAR,NIGHT_CLEAR,CLEAR,CLEAR,CLEAR,CLEAR,CLEAR,CLEAR,CLEAR","Offshore,Offshore,Offshore,Offshore,Offshore,Offshore,Offshore,Offshore,Offshore,Offshore,Offshore",11
5842041f4e65fad6a77089fb,2024_02_18,40.54698301868125,-73.9268,Breezy Point,0.36363636363636365,0.056363636363636366,0.3390909090909091,5,5,"NIGHT_CLEAR,NIGHT_CLEAR,NIGHT_CLEAR,NIGHT_CLEAR,CLEAR,CLEAR,CLEAR,CLEAR,CLEAR,CLEAR,CLEAR","Cross-shore,Offshore,Cross-shore,Cross-shore,Onshore,Onshore,Onshore,Onshore,Onshore,Onshore,Onshore",11
5842041f4e65fad6a77089fc,2024_02_18,40.152504,-74.021383,Spring Lake,0.53,0.09415454545454546,0.39349696969696973,6,5,"NIGHT_CLEAR,NIGHT_CLEAR,NIGHT_CLEAR,NIGHT_CLEAR,CLEAR,CLEAR,CLEAR,CLEAR,CLEAR,CLEAR,CLEAR","Offshore,Offshore,Offshore,Offshore,Offshore,Offshore,Offshore,Offshore,Offshore,Offshore,Offshore",11
5842041f4e65fad6a77089fd,2024_02_18,40.591277,-73.770792,30th - 39th Streets,0.3481818181818182,0.09415454545454546,0.3881848484848485,5,4,"NIGHT_CLEAR,NIGHT_CLEAR,NIGHT_CLEAR,NIGHT_CLEAR,CLEAR,CLEAR,CLEAR,CLEAR,CLEAR,CLEAR,CLEAR","Cross-shore,Cross-shore,Cross-shore,Cross-shore,Onshore,Onshore,Onshore,Onshore,Onshore,Onshore,Onshore",11
5842041f4e65fad6a77089fe,2024_02_18,40.18834955871439,-74.00860982500222,Avon,0.53,0.09279090909090909,0.38773939393939394,6,5,"NIGHT_CLEAR,NIGHT_CLEAR,NIGHT_CLEAR,NIGHT_CLEAR,CLEAR,CLEAR,CLEAR,CLEAR,CLEAR,CLEAR,CLEAR","Offshore,Offshore,Offshore,Offshore,Offshore,Offshore,Offshore,Offshore,Offshore,Offshore,Offshore",11
5842041f4e65fad6a77089ff,2024_02_18,40.1974229100932,-74.00650533798255,Bradley Beach,0.53,0.09279090909090909,0.3887242424242424,6,5,"NIGHT_CLEAR,NIGHT_CLEAR,NIGHT_CLEAR,NIGHT_CLEAR,CLEAR,CLEAR,CLEAR,CLEAR,CLEAR,CLEAR,CLEAR","Offshore,Offshore,Offshore,Offshore,Offshore,Offshore,Offshore,Offshore,Offshore,Offshore,Offshore",11
5842041f4e65fad6a7708a01,2024_02_18,40.17202,-74.01503,"16th Ave., Belmar",0.05454545454545455,0.07632,0.3667018181818182,6,5,"NIGHT_CLEAR,NIGHT_CLEAR,NIGHT_CLEAR,NIGHT_CLEAR,CLEAR,CLEAR,CLEAR,CLEAR,CLEAR,CLEAR,CLEAR","Offshore,Offshore,Offshore,Offshore,Offshore,Offshore,Offshore,Offshore,Offshore,Offshore,Offshore",11
5842041f4e65fad6a7708a02,2024_02_18,40.217443,-73.99982,Asbury Park,0.53,0.09506363636363636,0.39789090909090913,6,5,"NIGHT_CLEAR,NIGHT_CLEAR,NIGHT_CLEAR,NIGHT_CLEAR,CLEAR,CLEAR,CLEAR,CLEAR,CLEAR,CLEAR,CLEAR","Offshore,Offshore,Offshore,Offshore,Offshore,Offshore,Offshore,Offshore,Offshore,Offshore,Offshore",11
5842041f4e65fad6a7708a03,2024_02_18,40.229841,-73.996782,Loch Arbour and Deal,0.53,0.09483636363636364,0.3940272727272727,6,5,"NIGHT_CLEAR,NIGHT_CLEAR,NIGHT_CLEAR,NIGHT_CLEAR,CLEAR,CLEAR,CLEAR,CLEAR,CLEAR,CLEAR,CLEAR","Offshore,Offshore,Offshore,Offshore,Offshore,Offshore,Offshore,Offshore,Offshore,Offshore,Offshore",11
5842041f4e65fad6a7708a05,2024_02_18,40.41754,-73.97935,Sandy Hook,0.18181818181818182,0,0.12818181818181817,5,5,"NIGHT_CLEAR,NIGHT_CLEAR,NIGHT_CLEAR,NIGHT_CLEAR,CLEAR,CLEAR,CLEAR,CLEAR,CLEAR,CLEAR,CLEAR","Offshore,Offshore,Offshore,Offshore,Offshore,Offshore,Offshore,Offshore,Offshore,Offshore,Offshore",11
5842041f4e65fad6a7708a06,2024_02_18,39.36353,-74.40873,Crystals,0.3481818181818182,0.0958269696969697,0.3436952272727273,6,5,"NIGHT_CLEAR,NIGHT_CLEAR,NIGHT_CLEAR,NIGHT_CLEAR,CLEAR,CLEAR,CLEAR,CLEAR,CLEAR,CLEAR,CLEAR","Offshore,Offshore,Offshore,Offshore,Cross-shore,Cross-shore,Cross-shore,Cross-shore,Cross-shore,Cross-shore,Cross-shore",11
5842041f4e65fad6a7708a07,2024_02_18,39.31443,-74.51863,32nd Street,0,0.007404393939393936,0.28392492424242427,6,5,"NIGHT_CLEAR,NIGHT_CLEAR,NIGHT_CLEAR,NIGHT_CLEAR,CLEAR,CLEAR,CLEAR,CLEAR,CLEAR,CLEAR,CLEAR","Offshore,Offshore,Offshore,Offshore,Cross-shore,Cross-shore,Cross-shore,Cross-shore,Cross-shore,Cross-shore,Cross-shore",11
5842041f4e65fad6a7708a08,2024_02_18,39.327688,-74.49524,Margate Pier Northside,0,0.007404393939393936,0.28392492424242427,6,5,"NIGHT_CLEAR,NIGHT_CLEAR,NIGHT_CLEAR,NIGHT_CLEAR,CLEAR,CLEAR,CLEAR,CLEAR,CLEAR,CLEAR,CLEAR","Offshore,Offshore,Offshore,Offshore,Cross-shore,Cross-shore,Cross-shore,Cross-shore,Cross-shore,Cross-shore,Cross-shore",11
5842041f4e65fad6a7708a09,2024_02_18,39.336276,-74.47782,Ventnor Pier,0.3481818181818182,0.09153590909090908,0.3369891666666667,6,5,"NIGHT_CLEAR,NIGHT_CLEAR,NIGHT_CLEAR,NIGHT_CLEAR,CLEAR,CLEAR,CLEAR,CLEAR,CLEAR,CLEAR,CLEAR","Offshore,Offshore,Offshore,Offshore,Cross-shore,Cross-shore,Cross-shore,Cross-shore,Cross-shore,Cross-shore,Cross-shore",11
5842041f4e65fad6a7708a0a,2024_02_18,39.35929751441085,-74.41683,States Avenue,0.3481818181818182,0.0958269696969697,0.3436952272727273,6,5,"NIGHT_CLEAR,NIGHT_CLEAR,NIGHT_CLEAR,NIGHT_CLEAR,CLEAR,CLEAR,CLEAR,CLEAR,CLEAR,CLEAR,CLEAR","Offshore,Offshore,Offshore,Offshore,Cross-shore,Cross-shore,Cross-shore,Cross-shore,Cross-shore,Cross-shore,Cross-shore",11
5842041f4e65fad6a7708a0b,2024_02_18,39.37274173278517,-74.40454,Brigantine Jetty,0.3481818181818182,0.12957045454545454,0.3964162878787879,6,5,"NIGHT_CLEAR,NIGHT_CLEAR,NIGHT_CLEAR,NIGHT_CLEAR,CLEAR,CLEAR,CLEAR,CLEAR,CLEAR,CLEAR,CLEAR","Offshore,Offshore,Cross-shore,Offshore,Cross-shore,Cross-shore,Cross-shore,Onshore,Onshore,Onshore,Onshore",11
5842041f4e65fad6a7708a0c,2024_02_18,39.356505,-74.42263,South Carolina Avenue,0.3481818181818182,0.1295540909090909,0.39639083333333336,6,5,"NIGHT_CLEAR,NIGHT_CLEAR,NIGHT_CLEAR,NIGHT_CLEAR,CLEAR,CLEAR,CLEAR,CLEAR,CLEAR,CLEAR,CLEAR","Offshore,Offshore,Offshore,Cross-shore,Cross-shore,Cross-shore,Cross-shore,Onshore,Onshore,Onshore,Onshore",11
5842041f4e65fad6a7708a0d,2024_02_18,39.413485,-74.35476,14th Street North,0.16636363636363635,-0.00393939393939394,0.2541909090909091,6,5,"NIGHT_CLEAR,NIGHT_CLEAR,NIGHT_CLEAR,NIGHT_CLEAR,CLEAR,CLEAR,CLEAR,CLEAR,CLEAR,CLEAR,CLEAR","Offshore,Offshore,Offshore,Offshore,Cross-shore,Cross-shore,Cross-shore,Cross-shore,Cross-shore,Cross-shore,Cross-shore",11
5842041f4e65fad6a7708a0e,2024_02_18,39.531319,-74.263252,The Wooden Jetty,0.16636363636363635,0.029194363636363636,0.28190136363636364,6,5,"NIGHT_CLEAR,NIGHT_CLEAR,NIGHT_CLEAR,NIGHT_CLEAR,CLEAR,CLEAR,CLEAR,CLEAR,CLEAR,CLEAR,CLEAR","Offshore,Offshore,Offshore,Offshore,Cross-shore,Cross-shore,Cross-shore,Cross-shore,Cross-shore,Cross-shore,Cross-shore",11
5842041f4e65fad6a7708a0f,2024_02_18,39.552472,-74.24344,Holyoke,0.16636363636363635,0.013372151515151514,0.2623102575757576,6,5,"NIGHT_CLEAR,NIGHT_CLEAR,NIGHT_CLEAR,NIGHT_CLEAR,CLEAR,CLEAR,CLEAR,CLEAR,CLEAR,CLEAR,CLEAR","Offshore,Offshore,Offshore,Offshore,Cross-shore,Cross-shore,Cross-shore,Cross-shore,Cross-shore,Cross-shore,Cross-shore",11
5842041f4e65fad6a7708a10,2024_02_18,39.692364,-74.14068,Hudson Ave.,0.16636363636363635,0.02558,0.28505939393939395,6,5,"NIGHT_CLEAR,NIGHT_CLEAR,NIGHT_CLEAR,NIGHT_CLEAR,CLEAR,CLEAR,CLEAR,CLEAR,CLEAR,CLEAR,CLEAR","Offshore,Offshore,Offshore,Offshore,Cross-shore,Cross-shore,Cross-shore,Cross-shore,Cross-shore,Cross-shore,Cross-shore",11
5842041f4e65fad6a7708a11,2024_02_18,39.79614,-74.09248,Island Beach State Park,0.3481818181818182,0.016363636363636365,0.3164636363636364,6,5,"NIGHT_CLEAR,NIGHT_CLEAR,NIGHT_CLEAR,NIGHT_CLEAR,CLEAR,CLEAR,CLEAR,CLEAR,CLEAR,CLEAR,CLEAR","Offshore,Offshore,Offshore,Offshore,Offshore,Offshore,Offshore,Offshore,Offshore,Offshore,Offshore",11
5842041f4e65fad6a7708a12,2024_02_18,39.91813588078152,-74.07527,Seaside Park,0.3781818181818182,0.01,0.3017666666666667,6,5,"NIGHT_CLEAR,NIGHT_CLEAR,NIGHT_CLEAR,NIGHT_CLEAR,CLEAR,CLEAR,CLEAR,CLEAR,CLEAR,CLEAR,CLEAR","Offshore,Offshore,Offshore,Offshore,Offshore,Offshore,Offshore,Offshore,Offshore,Offshore,Offshore",11
5842041f4e65fad6a7708a14,2024_02_18,39.946638,-74.06884,Seaside Heights,0.48454545454545456,0.012727272727272728,0.30290303030303034,6,5,"NIGHT_CLEAR,NIGHT_CLEAR,NIGHT_CLEAR,NIGHT_CLEAR,CLEAR,CLEAR,CLEAR,CLEAR,CLEAR,CLEAR,CLEAR","Offshore,Offshore,Offshore,Offshore,Offshore,Offshore,Offshore,Offshore,Offshore,Offshore,Offshore",11
5842041f4e65fad6a7708a15,2024_02_18,39.95745637606704,-74.06736,Ortley Beach,0.53,0.01,0.29903939393939394,6,5,"NIGHT_CLEAR,NIGHT_CLEAR,NIGHT_CLEAR,NIGHT_CLEAR,CLEAR,CLEAR,CLEAR,CLEAR,CLEAR,CLEAR,CLEAR","Offshore,Offshore,Offshore,Offshore,Offshore,Offshore,Offshore,Offshore,Offshore,Offshore,Offshore",11
5842041f4e65fad6a7708a16,2024_02_18,39.98313468342945,-74.06265685577506,Lavallette,0.3781818181818182,0.014545454545454545,0.3091151515151515,6,5,"NIGHT_CLEAR,NIGHT_CLEAR,NIGHT_CLEAR,NIGHT_CLEAR,CLEAR,CLEAR,CLEAR,CLEAR,CLEAR,CLEAR,CLEAR","Offshore,Offshore,Offshore,Offshore,Offshore,Offshore,Offshore,Offshore,Offshore,Offshore,Offshore",11
5842041f4e65fad6a7708a17,2024_02_18,40.0699319967757,-74.04144910856634,Bay Head,0.45454545454545453,0.01090909090909091,0.3061606060606061,6,5,"NIGHT_CLEAR,NIGHT_CLEAR,NIGHT_CLEAR,NIGHT_CLEAR,CLEAR,CLEAR,CLEAR,CLEAR,CLEAR,CLEAR,CLEAR","Offshore,Offshore,Offshore,Offshore,Offshore,Offshore,Offshore,Offshore,Offshore,Offshore,Offshore",11
5842041f4e65fad6a7708a18,2024_02_18,40.094041,-74.034859,Jenkinson's,0.53,0.016363636363636365,0.3132060606060606,6,5,"NIGHT_CLEAR,NIGHT_CLEAR,NIGHT_CLEAR,NIGHT_CLEAR,CLEAR,CLEAR,CLEAR,CLEAR,CLEAR,CLEAR,CLEAR","Offshore,Offshore,Offshore,Offshore,Cross-shore,Offshore,Offshore,Offshore,Offshore,Offshore,Offshore",11
5842041f4e65fad6a7708a1a,2024_02_18,38.148058,-75.17704,Assateague,0.3481818181818182,-0.004545454545454543,0.2891909090909091,6,5,"NIGHT_CLEAR,NIGHT_CLEAR,NIGHT_CLEAR,NIGHT_CLEAR,CLEAR,CLEAR,CLEAR,CLEAR,CLEAR,CLEAR,CLEAR","Offshore,Offshore,Offshore,Offshore,Cross-shore,Cross-shore,Cross-shore,Cross-shore,Cross-shore,Cross-shore,Cross-shore",11
5842041f4e65fad6a7708a1b,2024_02_18,38.33889038664497,-75.08017670566352,North End to Ocean City Inlet,0.53,-0.001818181818181813,0.29191818181818185,6,5,"NIGHT_CLEAR,NIGHT_CLEAR,NIGHT_CLEAR,NIGHT_CLEAR,CLEAR,CLEAR,CLEAR,CLEAR,CLEAR,CLEAR,CLEAR","Offshore,Offshore,Offshore,Offshore,Offshore,Offshore,Offshore,Offshore,Offshore,Offshore,Offshore",11
5842041f4e65fad6a7708a1c,2024_02_18,38.603993,-75.06271,Indian River Inlet,0.09090909090909091,0.0355705303030303,0.24954371212121212,6,5,"NIGHT_CLEAR,NIGHT_CLEAR,NIGHT_CLEAR,NIGHT_CLEAR,CLEAR,CLEAR,CLEAR,CLEAR,CLEAR,CLEAR,CLEAR","Offshore,Offshore,Offshore,Offshore,Offshore,Offshore,Offshore,Offshore,Offshore,Offshore,Cross-shore",11
