_id,date,lat,lon,name,daily_mean_swell_rating,daily_mean_wave_height_min,daily_mean_wave_height_max,daily_mean_water_temperature_max,daily_mean_water_temperature_min,weather_per_timestamp,wind_per_timestamp,n_samples_per_day
5842041f4e65fad6a77087f9,2024_01_25,37.741668,-122.51038,South Ocean Beach,2.186470588235294,2.279850980392157,2.876735294117647,14,14,"OVERCAST,MIST,DRIZZLE,NIGHT_MOSTLY_CLOUDY,NIGHT_MOSTLY_CLOUDY,NIGHT_OVERCAST,NIGHT_BRIEF_SHOWERS,NIGHT_CLEAR,NIGHT_MOSTLY_CLOUDY,NIGHT_CLEAR,NIGHT_MOSTLY_CLOUDY,MIST,MOSTLY_CLOUDY,BRIEF_SHOWERS,CLEAR,MOSTLY_CLOUDY,CLEAR","Cross-shore,Cross-shore,Cross-shore,Onshore,Onshore,Onshore,Onshore,Onshore,Onshore,Onshore,Onshore,Onshore,Cross-shore,Onshore,Onshore,Onshore,Onshore",17
5842041f4e65fad6a7708801,2024_01_25,37.49142,-122.50428,Maverick's,NA,1.7890490196078432,2.174243137254902,13,13,"MIST,MIST,BRIEF_SHOWERS,NIGHT_MIST,NIGHT_MIST,NIGHT_OVERCAST,NIGHT_DRIZZLE,NIGHT_BRIEF_SHOWERS,NIGHT_CLEAR,NIGHT_CLEAR,NIGHT_MOSTLY_CLEAR,MOSTLY_CLOUDY,MOSTLY_CLOUDY,MOSTLY_CLOUDY,MOSTLY_CLOUDY,OVERCAST,CLEAR","Onshore,Onshore,Onshore,Offshore,Offshore,Offshore,Offshore,Offshore,Offshore,Offshore,Offshore,Offshore,Offshore,Cross-shore,Offshore,Offshore,Offshore",17
5842041f4e65fad6a7708804,2024_01_25,44.997,-124.018,Roads End,1.2352941176470589,3.5694117647058823,4.21235294117647,10,10,"CLOUDY,CLEAR,OVERCAST,NIGHT_BRIEF_SHOWERS,NIGHT_MOSTLY_CLOUDY,NIGHT_OVERCAST,NIGHT_OVERCAST,NIGHT_RAIN,NIGHT_CLOUDY,NIGHT_LIGHT_RAIN,NIGHT_LIGHT_RAIN,CLOUDY,OVERCAST,DRIZZLE,DRIZZLE,CLOUDY,OVERCAST","Onshore,Onshore,Cross-shore,Cross-shore,Onshore,Cross-shore,Onshore,Cross-shore,Onshore,Onshore,Onshore,Cross-shore,Cross-shore,Cross-shore,Cross-shore,Cross-shore,Cross-shore",17
5842041f4e65fad6a7708805,2024_01_25,36.95188851423011,-122.02522,Steamer Lane,3.657058823529412,1.4307176470588234,1.900213725490196,14,14,"MIST,MIST,MIST,NIGHT_FOG,NIGHT_MIST,NIGHT_MIST,NIGHT_MIST,NIGHT_MIST,NIGHT_MIST,NIGHT_MIST,NIGHT_MIST,CLEAR,CLEAR,CLEAR,MOSTLY_CLEAR,MOSTLY_CLEAR,MOSTLY_CLEAR","Cross-shore,Cross-shore,Cross-shore,Offshore,Offshore,Offshore,Offshore,Offshore,Offshore,Offshore,Offshore,Offshore,Offshore,Onshore,Cross-shore,Offshore,Offshore",17
5842041f4e65fad6a7708806,2024_01_25,36.95918781542251,-122.02489,Cowells,2.1376470588235295,0.35547058823529415,0.6777294117647059,14,14,"MIST,MIST,MIST,NIGHT_FOG,NIGHT_MIST,NIGHT_MIST,NIGHT_MIST,NIGHT_MIST,NIGHT_MIST,NIGHT_MIST,NIGHT_MIST,CLEAR,CLEAR,CLEAR,MOSTLY_CLEAR,MOSTLY_CLEAR,MOSTLY_CLEAR","Onshore,Onshore,Cross-shore,Offshore,Offshore,Offshore,Offshore,Offshore,Offshore,Cross-shore,Cross-shore,Offshore,Cross-shore,Onshore,Offshore,Offshore,Offshore",17
5842041f4e65fad6a7708807,2024_01_25,36.95468082526536,-121.97234,Pleasure Point,3.598235294117647,1.2996705882352941,1.7268823529411765,14,14,"MIST,LIGHT_RAIN,MIST,NIGHT_FOG,NIGHT_MIST,NIGHT_CLEAR,NIGHT_CLEAR,NIGHT_CLEAR,NIGHT_CLEAR,NIGHT_CLEAR,NIGHT_CLEAR,CLEAR,CLEAR,CLEAR,MOSTLY_CLEAR,MOSTLY_CLOUDY,CLEAR","Cross-shore,Cross-shore,Offshore,Cross-shore,Cross-shore,Offshore,Offshore,Offshore,Offshore,Cross-shore,Onshore,Offshore,Onshore,Cross-shore,Cross-shore,Onshore,Offshore",17
5842041f4e65fad6a770880a,2024_01_25,35.37815414378748,-120.86589,Morro Bay,3.107647058823529,1.3427411764705883,1.6771019607843136,13,13,"DRIZZLE,BRIEF_SHOWERS,MIST,NIGHT_FOG,NIGHT_FOG,NIGHT_FOG,NIGHT_FOG,NIGHT_FOG,NIGHT_MOSTLY_CLOUDY,NIGHT_MIST,NIGHT_MOSTLY_CLEAR,CLEAR,MOSTLY_CLEAR,CLEAR,CLEAR,CLEAR,CLEAR","Onshore,Offshore,Offshore,Offshore,Cross-shore,Offshore,Offshore,Cross-shore,Cross-shore,Cross-shore,Offshore,Onshore,Cross-shore,Cross-shore,Cross-shore,Onshore,Onshore",17
5842041f4e65fad6a770880b,2024_01_25,36.95782765000708,-121.9672887511276,Jack's,2.411764705882353,0.5459784313725491,0.8431137254901961,14,14,"MIST,LIGHT_RAIN,MIST,NIGHT_FOG,NIGHT_MIST,NIGHT_CLEAR,NIGHT_CLEAR,NIGHT_CLEAR,NIGHT_CLEAR,NIGHT_CLEAR,NIGHT_CLEAR,CLEAR,CLEAR,CLEAR,MOSTLY_CLEAR,MOSTLY_CLOUDY,CLEAR","Offshore,Offshore,Offshore,Cross-shore,Cross-shore,Offshore,Offshore,Offshore,Offshore,Cross-shore,Onshore,Offshore,Onshore,Cross-shore,Cross-shore,Onshore,Offshore",17
5842041f4e65fad6a770880d,2024_01_25,34.29982939936656,-119.3489016603669,Gold Coast Beachbreaks,2.823529411764706,0.3335294117647059,0.6394117647058823,14.588235294117647,14.588235294117647,"MOSTLY_CLOUDY,MIST,MIST,NIGHT_FOG,NIGHT_FOG,NIGHT_FOG,NIGHT_FOG,NIGHT_FOG,NIGHT_FOG,NIGHT_FOG,FOG,MIST,MOSTLY_CLOUDY,BRIEF_SHOWERS,MOSTLY_CLOUDY,MIST,MOSTLY_CLEAR","Onshore,Onshore,Onshore,Cross-shore,Offshore,Cross-shore,Offshore,Offshore,Cross-shore,Cross-shore,Offshore,Offshore,Cross-shore,Onshore,Onshore,Onshore,Onshore",17
5842041f4e65fad6a7708811,2024_01_25,34.245076,-119.26799,Ventura Harbor,2.921764705882353,1.4272851960784314,1.789915294117647,14,14,"MOSTLY_CLOUDY,CLEAR,MIST,NIGHT_FOG,NIGHT_FOG,NIGHT_FOG,NIGHT_FOG,NIGHT_FOG,NIGHT_FOG,NIGHT_FOG,FOG,MIST,MIST,MOSTLY_CLOUDY,MOSTLY_CLEAR,MOSTLY_CLEAR,MOSTLY_CLEAR","Offshore,Offshore,Offshore,Onshore,Onshore,Onshore,Onshore,Onshore,Onshore,Onshore,Onshore,Onshore,Offshore,Cross-shore,Onshore,Onshore,Onshore",17
5842041f4e65fad6a7708813,2024_01_25,34.051,-118.964,County Line,2.7058823529411766,0.8047686274509804,1.072570588235294,15,15,"MOSTLY_CLOUDY,MOSTLY_CLOUDY,MIST,NIGHT_FOG,NIGHT_FOG,NIGHT_LIGHT_RAIN_AND_FOG,NIGHT_FOG,NIGHT_LIGHT_RAIN_AND_FOG,NIGHT_FOG,NIGHT_FOG,FOG,MIST,LIGHT_RAIN,CLEAR,CLEAR,MOSTLY_CLOUDY,MIST","Onshore,Cross-shore,Onshore,Offshore,Offshore,Cross-shore,Cross-shore,Offshore,Cross-shore,Cross-shore,Cross-shore,Onshore,Onshore,Onshore,Onshore,Onshore,Onshore",17
5842041f4e65fad6a7708814,2024_01_25,34.37256264378892,-119.47797,Rincon,3.2941176470588234,1.0305882352941176,1.2947058823529412,14.588235294117647,14.588235294117647,"CLEAR,MIST,MIST,NIGHT_MIST,NIGHT_MIST,NIGHT_MIST,NIGHT_MIST,NIGHT_MIST,NIGHT_MIST,NIGHT_MIST,MIST,CLEAR,MIST,MIST,MIST,MIST,MOSTLY_CLEAR","Onshore,Onshore,Cross-shore,Onshore,Onshore,Onshore,Onshore,Cross-shore,Cross-shore,Cross-shore,Cross-shore,Cross-shore,Onshore,Onshore,Onshore,Onshore,Onshore",17
5842041f4e65fad6a7708817,2024_01_25,34.03096101876324,-118.68109,Malibu Third Point,2,0.24647058823529414,0.5505882352941176,15,15,"MOSTLY_CLOUDY,MOSTLY_CLOUDY,MOSTLY_CLOUDY,NIGHT_FOG,NIGHT_FOG,NIGHT_FOG,NIGHT_FOG,NIGHT_FOG,NIGHT_FOG,NIGHT_FOG,FOG,MIST,MOSTLY_CLOUDY,CLEAR,CLEAR,CLEAR,CLEAR","Onshore,Onshore,Cross-shore,Cross-shore,Cross-shore,Onshore,Onshore,Onshore,Cross-shore,Cross-shore,Cross-shore,Offshore,Offshore,Offshore,Cross-shore,Cross-shore,Offshore",17
5842041f4e65fad6a7708819,2024_01_25,33.984079047970035,-118.47381591796875,Venice Beach,3.1470588235294117,1.0870470588235295,1.5126294117647059,15,15,"MOSTLY_CLOUDY,MOSTLY_CLOUDY,MOSTLY_CLEAR,NIGHT_CLOUDY,NIGHT_MIST,NIGHT_OVERCAST,NIGHT_OVERCAST,NIGHT_FOG,NIGHT_MIST,NIGHT_CLEAR,FOG,MIST,MOSTLY_CLOUDY,CLEAR,CLEAR,MIST,MIST","Onshore,Cross-shore,Cross-shore,Cross-shore,Cross-shore,Cross-shore,Cross-shore,Cross-shore,Cross-shore,Onshore,Onshore,Cross-shore,Onshore,Cross-shore,Cross-shore,Cross-shore,Cross-shore",17
5842041f4e65fad6a770881e,2024_01_25,34.037508438646746,-118.58339846155594,Topanga Beach,2.686470588235294,0.520443137254902,0.8630725490196078,15,15,"MOSTLY_CLOUDY,MIST,MIST,NIGHT_FOG,NIGHT_FOG,NIGHT_FOG,NIGHT_FOG,NIGHT_FOG,NIGHT_MIST,NIGHT_MIST,FOG,MOSTLY_CLOUDY,MOSTLY_CLOUDY,CLEAR,CLEAR,MOSTLY_CLEAR,MOSTLY_CLEAR","Onshore,Onshore,Onshore,Cross-shore,Cross-shore,Offshore,Cross-shore,Offshore,Offshore,Offshore,Onshore,Offshore,Cross-shore,Onshore,Onshore,Onshore,Onshore",17
5842041f4e65fad6a7708820,2024_01_25,33.73954373690184,-118.11414,Seal Beach Jetty,2.7058823529411766,0.45647058823529413,0.7611764705882353,15,15,"CLEAR,CLEAR,CLEAR,NIGHT_OVERCAST,NIGHT_FOG,NIGHT_FOG,NIGHT_FOG,NIGHT_FOG,NIGHT_FOG,NIGHT_LIGHT_RAIN_AND_FOG,FOG,MIST,LIGHT_RAIN,CLEAR,CLEAR,MOSTLY_CLEAR,CLEAR","Onshore,Onshore,Onshore,Offshore,Cross-shore,Cross-shore,Onshore,Cross-shore,Offshore,Offshore,Cross-shore,Offshore,Offshore,Onshore,Cross-shore,Onshore,Onshore",17
5842041f4e65fad6a7708822,2024_01_25,33.72309983348433,-118.08078,Anderson Street,2.764705882352941,0.6717647058823529,0.9670588235294117,15,15,"MIST,CLEAR,CLEAR,NIGHT_OVERCAST,NIGHT_FOG,NIGHT_FOG,NIGHT_FOG,NIGHT_FOG,NIGHT_FOG,NIGHT_LIGHT_RAIN_AND_FOG,LIGHT_RAIN_AND_FOG,MIST,RAIN,CLEAR,CLEAR,MOSTLY_CLEAR,MIST","Onshore,Onshore,Onshore,Offshore,Cross-shore,Cross-shore,Onshore,Offshore,Offshore,Offshore,Cross-shore,Offshore,Offshore,Onshore,Cross-shore,Onshore,Onshore",17
5842041f4e65fad6a7708827,2024_01_25,33.65574085629463,-118.00397,Huntington Beach Pier Northside,2.715294117647059,1.3328941176470588,1.7685549019607842,14,14,"CLEAR,CLEAR,CLEAR,NIGHT_OVERCAST,NIGHT_OVERCAST,NIGHT_MIST,NIGHT_MIST,NIGHT_MIST,NIGHT_FOG,NIGHT_FOG,FOG,MIST,MIST,SHOWERS,CLEAR,CLEAR,CLEAR","Cross-shore,Cross-shore,Cross-shore,Offshore,Cross-shore,Cross-shore,Cross-shore,Cross-shore,Cross-shore,Cross-shore,Cross-shore,Cross-shore,Offshore,Cross-shore,Cross-shore,Cross-shore,Onshore",17
5842041f4e65fad6a7708828,2024_01_25,34.272041739333,-119.2997646331,C St.,3.4705882352941178,0.9398274509803921,1.206335294117647,14,14,"MOSTLY_CLEAR,MIST,MIST,NIGHT_MIST,NIGHT_MIST,NIGHT_MIST,NIGHT_MIST,NIGHT_MIST,NIGHT_MIST,NIGHT_MIST,DRIZZLE,MIST,MIST,MIST,MIST,MIST,MIST","Onshore,Cross-shore,Cross-shore,Offshore,Offshore,Offshore,Offshore,Offshore,Offshore,Offshore,Offshore,Offshore,Offshore,Onshore,Onshore,Offshore,Offshore",17
5842041f4e65fad6a770882a,2024_01_25,33.61555743705257,-117.93676,Newport Lower Jetties,2.715294117647059,0.9184176470588236,1.219172549019608,15,15,"MOSTLY_CLOUDY,CLEAR,MOSTLY_CLOUDY,NIGHT_OVERCAST,NIGHT_OVERCAST,NIGHT_MIST,NIGHT_MIST,NIGHT_MIST,NIGHT_FOG,NIGHT_FOG,LIGHT_RAIN_AND_FOG,MOSTLY_CLOUDY,MIST,BRIEF_SHOWERS,CLEAR,CLEAR,MOSTLY_CLEAR","Onshore,Onshore,Onshore,Onshore,Cross-shore,Cross-shore,Cross-shore,Cross-shore,Offshore,Cross-shore,Cross-shore,Cross-shore,Cross-shore,Cross-shore,Onshore,Onshore,Onshore",17
5842041f4e65fad6a770882b,2024_01_25,33.5930302087,-117.88199,The Wedge,2,0.3839729411764706,0.8126635294117647,15,15,"MOSTLY_CLOUDY,MOSTLY_CLOUDY,MOSTLY_CLOUDY,NIGHT_OVERCAST,NIGHT_OVERCAST,NIGHT_MIST,NIGHT_MIST,NIGHT_FOG,NIGHT_FOG,NIGHT_FOG,FOG,MOSTLY_CLOUDY,BRIEF_SHOWERS,BRIEF_SHOWERS,MIST,CLEAR,MIST","Onshore,Onshore,Cross-shore,Cross-shore,Cross-shore,Cross-shore,Cross-shore,Cross-shore,Cross-shore,Cross-shore,Cross-shore,Cross-shore,Cross-shore,Onshore,Onshore,Onshore,Onshore",17
5842041f4e65fad6a770882c,2024_01_25,33.60577342582,-117.9315376281,Newport Beach Pier,2.901764705882353,0.9688137254901961,1.3160862745098039,15,15,"MOSTLY_CLEAR,MOSTLY_CLOUDY,MOSTLY_CLOUDY,NIGHT_OVERCAST,NIGHT_FOG,NIGHT_MIST,NIGHT_CLOUDY,NIGHT_MIST,NIGHT_MIST,NIGHT_DRIZZLE,DRIZZLE,CLEAR,MIST,MIST,MIST,MIST,CLEAR","Onshore,Onshore,Onshore,Cross-shore,Onshore,Cross-shore,Onshore,Onshore,Onshore,Onshore,Onshore,Onshore,Onshore,Onshore,Cross-shore,Onshore,Cross-shore",17
5842041f4e65fad6a770882e,2024_01_25,33.475793399792984,-117.72291,Salt Creek,3.4705882352941178,1.1653470588235295,1.5774901960784313,14,14,"MIST,CLEAR,CLEAR,NIGHT_FOG,NIGHT_FOG,NIGHT_MOSTLY_CLOUDY,NIGHT_MOSTLY_CLOUDY,NIGHT_CLOUDY,NIGHT_FOG,NIGHT_FOG,FOG,MIST,MIST,BRIEF_SHOWERS,BRIEF_SHOWERS,MIST,MIST","Onshore,Onshore,Cross-shore,Onshore,Offshore,Offshore,Offshore,Offshore,Offshore,Offshore,Offshore,Onshore,Onshore,Onshore,Onshore,Onshore,Onshore",17
5842041f4e65fad6a7708830,2024_01_25,33.41800974113613,-117.61952,T-Street,3,1.0320627450980393,1.3462803921568627,14,14,"MIST,CLEAR,CLEAR,NIGHT_MOSTLY_CLOUDY,NIGHT_MOSTLY_CLOUDY,NIGHT_MOSTLY_CLOUDY,NIGHT_MOSTLY_CLOUDY,NIGHT_MOSTLY_CLOUDY,NIGHT_FOG,NIGHT_FOG,FOG,MIST,MIST,MIST,BRIEF_SHOWERS,MOSTLY_CLOUDY,MIST","Onshore,Onshore,Cross-shore,Cross-shore,Cross-shore,Cross-shore,Cross-shore,Cross-shore,Cross-shore,Cross-shore,Cross-shore,Onshore,Onshore,Onshore,Onshore,Onshore,Onshore",17
5842041f4e65fad6a7708832,2024_01_25,33.202391008646,-117.39475,Oceanside Harbor,2.735294117647059,1.0988196078431371,1.4377392156862745,14,14,"CLEAR,CLEAR,CLEAR,NIGHT_OVERCAST,NIGHT_MOSTLY_CLOUDY,NIGHT_MOSTLY_CLOUDY,NIGHT_FOG,NIGHT_FOG,NIGHT_FOG,NIGHT_FOG,MIST,LIGHT_RAIN,LIGHT_RAIN,CLOUDY,MOSTLY_CLOUDY,MOSTLY_CLOUDY,MIST","Onshore,Onshore,Cross-shore,Cross-shore,Cross-shore,Cross-shore,Cross-shore,Cross-shore,Cross-shore,Cross-shore,Onshore,Onshore,Onshore,Onshore,Onshore,Onshore,Onshore",17
5842041f4e65fad6a7708835,2024_01_25,33.19477795952803,-117.38667,Oceanside Pier,2.8823529411764706,1.052986274509804,1.342380392156863,14,14,"CLEAR,CLEAR,CLEAR,NIGHT_FOG,NIGHT_MOSTLY_CLOUDY,NIGHT_BRIEF_SHOWERS,NIGHT_MOSTLY_CLOUDY,NIGHT_FOG,NIGHT_BRIEF_SHOWERS,NIGHT_LIGHT_RAIN_AND_FOG,LIGHT_RAIN_AND_FOG,DRIZZLE,MIST,OVERCAST,MOSTLY_CLOUDY,MOSTLY_CLOUDY,MIST","Onshore,Onshore,Cross-shore,Cross-shore,Cross-shore,Cross-shore,Cross-shore,Cross-shore,Cross-shore,Cross-shore,Onshore,Onshore,Onshore,Onshore,Onshore,Onshore,Onshore",17
5842041f4e65fad6a7708837,2024_01_25,33.14948100706,-117.35029,Tamarack,2.3529411764705883,0.4011764705882353,0.7058823529411765,15,15,"CLEAR,CLEAR,CLEAR,NIGHT_OVERCAST,NIGHT_MOSTLY_CLOUDY,NIGHT_MOSTLY_CLOUDY,NIGHT_MOSTLY_CLOUDY,NIGHT_FOG,NIGHT_FOG,NIGHT_LIGHT_RAIN_AND_FOG,FOG,OVERCAST,CLOUDY,MIST,MOSTLY_CLOUDY,MIST,MIST","Onshore,Onshore,Onshore,Cross-shore,Cross-shore,Cross-shore,Cross-shore,Cross-shore,Cross-shore,Onshore,Onshore,Onshore,Onshore,Onshore,Onshore,Onshore,Onshore",17
5842041f4e65fad6a7708839,2024_01_25,32.865777159358856,-117.25614295356122,Scripps,3.176470588235294,0.9952686274509804,1.4170980392156862,14,14,"CLEAR,CLEAR,CLEAR,NIGHT_CLOUDY,NIGHT_OVERCAST,NIGHT_MOSTLY_CLOUDY,NIGHT_CLOUDY,NIGHT_CLOUDY,NIGHT_CLOUDY,NIGHT_MIST,OVERCAST,MIST,MIST,LIGHT_RAIN,BRIEF_SHOWERS,BRIEF_SHOWERS,MIST","Cross-shore,Cross-shore,Cross-shore,Onshore,Cross-shore,Offshore,Offshore,Offshore,Offshore,Offshore,Offshore,Cross-shore,Offshore,Cross-shore,Onshore,Onshore,Cross-shore",17
5842041f4e65fad6a770883a,2024_01_25,32.813094,-117.27381,Birdrock,3.4705882352941178,1.1794117647058824,1.4341176470588235,15,15,"CLEAR,CLEAR,CLEAR,NIGHT_OVERCAST,NIGHT_OVERCAST,NIGHT_FOG,NIGHT_OVERCAST,NIGHT_MOSTLY_CLOUDY,NIGHT_FOG,NIGHT_FOG,FOG,MIST,MIST,LIGHT_RAIN,MIST,BRIEF_SHOWERS,MIST","Onshore,Onshore,Onshore,Cross-shore,Cross-shore,Cross-shore,Onshore,Cross-shore,Offshore,Cross-shore,Cross-shore,Onshore,Cross-shore,Onshore,Onshore,Onshore,Onshore",17
5842041f4e65fad6a770883b,2024_01_25,32.877231,-117.25303,Blacks,3.6470588235294117,1.4278745098039216,1.9116509803921569,14,14,"CLEAR,CLEAR,CLEAR,NIGHT_CLOUDY,NIGHT_OVERCAST,NIGHT_MOSTLY_CLOUDY,NIGHT_CLOUDY,NIGHT_CLOUDY,NIGHT_CLOUDY,NIGHT_MIST,OVERCAST,MIST,MIST,LIGHT_RAIN,BRIEF_SHOWERS,BRIEF_SHOWERS,MIST","Onshore,Onshore,Onshore,Onshore,Onshore,Cross-shore,Cross-shore,Cross-shore,Cross-shore,Cross-shore,Cross-shore,Onshore,Onshore,Onshore,Onshore,Onshore,Onshore",17
5842041f4e65fad6a770883c,2024_01_25,32.82978974229765,-117.28161740727381,Windansea,2.803529411764706,1.1199254901960785,1.5326764705882352,14,14,"CLEAR,CLEAR,CLEAR,NIGHT_OVERCAST,NIGHT_OVERCAST,NIGHT_MOSTLY_CLOUDY,NIGHT_OVERCAST,NIGHT_MOSTLY_CLOUDY,NIGHT_MIST,NIGHT_LIGHT_RAIN_AND_FOG,LIGHT_RAIN_AND_FOG,MIST,MIST,DRIZZLE,MIST,BRIEF_SHOWERS,MIST","Onshore,Onshore,Cross-shore,Onshore,Onshore,Cross-shore,Cross-shore,Cross-shore,Cross-shore,Cross-shore,Cross-shore,Cross-shore,Cross-shore,Onshore,Onshore,Onshore,Cross-shore",17
5842041f4e65fad6a770883d,2024_01_25,32.838278,-117.28396,Horseshoe,3.4705882352941178,1.2305882352941178,1.4911764705882353,15,15,"CLEAR,CLEAR,CLEAR,NIGHT_OVERCAST,NIGHT_OVERCAST,NIGHT_MOSTLY_CLOUDY,NIGHT_OVERCAST,NIGHT_MOSTLY_CLOUDY,NIGHT_MIST,NIGHT_LIGHT_RAIN_AND_FOG,LIGHT_RAIN_AND_FOG,MIST,MIST,DRIZZLE,MIST,BRIEF_SHOWERS,MIST","Onshore,Onshore,Onshore,Cross-shore,Cross-shore,Offshore,Onshore,Cross-shore,Offshore,Offshore,Cross-shore,Onshore,Cross-shore,Onshore,Onshore,Onshore,Onshore",17
5842041f4e65fad6a770883f,2024_01_25,32.75034717673179,-117.25337,Ocean Beach,2.7841176470588236,1.333364705882353,1.6868745098039215,14,14,"CLEAR,CLEAR,CLEAR,NIGHT_OVERCAST,NIGHT_CLOUDY,NIGHT_OVERCAST,NIGHT_OVERCAST,NIGHT_MIST,NIGHT_MIST,NIGHT_FOG,FOG,MIST,MIST,DRIZZLE,DRIZZLE,MOSTLY_CLOUDY,MIST","Onshore,Onshore,Onshore,Onshore,Cross-shore,Cross-shore,Cross-shore,Cross-shore,Cross-shore,Cross-shore,Cross-shore,Cross-shore,Cross-shore,Onshore,Onshore,Onshore,Cross-shore",17
5842041f4e65fad6a7708840,2024_01_25,32.73693,-117.25718,Sunset Cliffs,3.235294117647059,1.2223529411764706,1.473529411764706,15,15,"CLEAR,CLEAR,MIST,NIGHT_OVERCAST,NIGHT_MIST,NIGHT_OVERCAST,NIGHT_OVERCAST,NIGHT_FOG,NIGHT_MIST,NIGHT_MIST,FOG,MOSTLY_CLOUDY,MIST,LIGHT_RAIN,LIGHT_RAIN,MIST,MIST","Onshore,Onshore,Onshore,Onshore,Cross-shore,Cross-shore,Cross-shore,Cross-shore,Cross-shore,Cross-shore,Cross-shore,Cross-shore,Cross-shore,Onshore,Onshore,Onshore,Cross-shore",17
5842041f4e65fad6a7708841,2024_01_25,32.796582258728826,-117.25779,Pacific Beach,2.892352941176471,1.1899627450980392,1.488078431372549,14,14,"CLEAR,CLEAR,CLEAR,NIGHT_CLOUDY,NIGHT_CLOUDY,NIGHT_OVERCAST,NIGHT_OVERCAST,NIGHT_MIST,NIGHT_MIST,NIGHT_FOG,FOG,MIST,MIST,MIST,MIST,MIST,MIST","Onshore,Onshore,Onshore,Cross-shore,Cross-shore,Cross-shore,Onshore,Cross-shore,Offshore,Cross-shore,Cross-shore,Onshore,Cross-shore,Onshore,Onshore,Onshore,Onshore",17
5842041f4e65fad6a7708842,2024_01_25,32.776636,-117.25514,Mission Beach,3.186470588235294,1.2118254901960785,1.5069019607843137,14,14,"CLEAR,CLEAR,CLEAR,NIGHT_CLOUDY,NIGHT_CLOUDY,NIGHT_OVERCAST,NIGHT_OVERCAST,NIGHT_MIST,NIGHT_MIST,NIGHT_FOG,FOG,MIST,MIST,MIST,MIST,MIST,MIST","Onshore,Onshore,Onshore,Offshore,Offshore,Offshore,Cross-shore,Offshore,Offshore,Offshore,Cross-shore,Onshore,Cross-shore,Onshore,Onshore,Onshore,Onshore",17
5842041f4e65fad6a7708844,2024_01_25,32.577195519016,-117.13475,Imperial Beach Pier,3,1.4247058823529413,1.7088235294117646,15,15,"CLEAR,CLEAR,MOSTLY_CLOUDY,NIGHT_OVERCAST,NIGHT_MOSTLY_CLOUDY,NIGHT_MOSTLY_CLOUDY,NIGHT_MOSTLY_CLOUDY,NIGHT_MOSTLY_CLOUDY,NIGHT_MOSTLY_CLOUDY,NIGHT_OVERCAST,OVERCAST,CLEAR,MIST,MIST,MIST,MIST,CLEAR","Onshore,Onshore,Onshore,Onshore,Cross-shore,Cross-shore,Cross-shore,Cross-shore,Cross-shore,Cross-shore,Cross-shore,Cross-shore,Cross-shore,Cross-shore,Onshore,Onshore,Cross-shore",17
5842041f4e65fad6a770884a,2024_01_25,42.88678181061,-70.80843,Seabrook,1.1470588235294117,0.10680769607843138,0.32526308823529415,5,4,"NIGHT_FOG,NIGHT_LIGHT_RAIN_AND_FOG,NIGHT_LIGHT_RAIN,NIGHT_MIST,NIGHT_DRIZZLE,NIGHT_MIST,NIGHT_CLOUDY,NIGHT_CLOUDY,MIST,OVERCAST,MOSTLY_CLOUDY,CLEAR,CLEAR,CLEAR,CLEAR,CLEAR,NIGHT_CLEAR","Cross-shore,Cross-shore,Onshore,Offshore,Offshore,Offshore,Offshore,Offshore,Offshore,Offshore,Offshore,Offshore,Cross-shore,Onshore,Onshore,Onshore,Offshore",17
5842041f4e65fad6a770884e,2024_01_25,41.434181432898335,-71.45312118111178,Narragansett,0.5323529411764706,0.08579411764705883,0.386821568627451,7,6,"NIGHT_OVERCAST,NIGHT_DRIZZLE,NIGHT_LIGHT_RAIN,NIGHT_MIST,NIGHT_RAIN,NIGHT_LIGHT_RAIN,NIGHT_LIGHT_RAIN,NIGHT_LIGHT_RAIN,DRIZZLE,LIGHT_RAIN,LIGHT_RAIN,DRIZZLE,CLOUDY,CLEAR,CLEAR,MOSTLY_CLOUDY,NIGHT_MIST","Onshore,Onshore,Onshore,Cross-shore,Cross-shore,Cross-shore,Cross-shore,Cross-shore,Cross-shore,Cross-shore,Cross-shore,Cross-shore,Offshore,Offshore,Offshore,Offshore,Offshore",17
5842041f4e65fad6a7708850,2024_01_25,40.582703230722,-73.65247,Lincoln Blvd,0.6888235294117647,0.322443137254902,0.6098725490196079,7,6,"NIGHT_MIST,NIGHT_MIST,NIGHT_MIST,NIGHT_MIST,NIGHT_MIST,NIGHT_MIST,NIGHT_LIGHT_RAIN,NIGHT_LIGHT_RAIN,RAIN,DRIZZLE,LIGHT_RAIN,MIST,MIST,MIST,MIST,MIST,MIST","Cross-shore,Cross-shore,Cross-shore,Onshore,Cross-shore,Onshore,Onshore,Cross-shore,Onshore,Onshore,Onshore,Cross-shore,Onshore,Cross-shore,Cross-shore,Offshore,Offshore",17
5842041f4e65fad6a7708852,2024_01_25,40.58342841721757,-73.81182,Rockaways,0.6888235294117647,0.3181098039215686,0.6129274509803921,7,6,"NIGHT_MIST,NIGHT_MIST,NIGHT_MIST,NIGHT_CLOUDY,NIGHT_DRIZZLE,NIGHT_MIST,NIGHT_DRIZZLE,NIGHT_RAIN,RAIN,LIGHT_RAIN,DRIZZLE,DRIZZLE,MIST,MIST,MIST,MIST,MIST","Onshore,Onshore,Onshore,Onshore,Onshore,Onshore,Onshore,Cross-shore,Onshore,Onshore,Onshore,Onshore,Onshore,Onshore,Cross-shore,Offshore,Offshore",17
5842041f4e65fad6a7708853,2024_01_25,40.330474,-73.9734,Monmouth Beach,0.8623529411764707,0.20740196078431372,0.5032294117647058,5,4,"NIGHT_MIST,NIGHT_MIST,NIGHT_MIST,NIGHT_OVERCAST,NIGHT_MIST,NIGHT_LIGHT_RAIN,NIGHT_LIGHT_RAIN,NIGHT_LIGHT_RAIN,RAIN,LIGHT_RAIN,DRIZZLE,LIGHT_RAIN,MIST,MIST,MIST,BRIEF_SHOWERS_POSSIBLE,MIST","Cross-shore,Cross-shore,Cross-shore,Cross-shore,Cross-shore,Offshore,Cross-shore,Offshore,Cross-shore,Offshore,Offshore,Offshore,Offshore,Offshore,Offshore,Offshore,Offshore",17
5842041f4e65fad6a7708856,2024_01_25,40.113,-74.028,Manasquan Inlet,1.4341176470588235,0.2259137254901961,0.5032901960784314,5,4,"NIGHT_OVERCAST,NIGHT_CLOUDY,NIGHT_MIST,NIGHT_BRIEF_SHOWERS,NIGHT_DRIZZLE,NIGHT_FOG,NIGHT_MIST,NIGHT_LIGHT_RAIN,LIGHT_RAIN,LIGHT_RAIN,LIGHT_RAIN,LIGHT_RAIN,LIGHT_RAIN,MIST,MIST,LIGHT_SHOWERS_POSSIBLE,MIST","Cross-shore,Cross-shore,Cross-shore,Offshore,Offshore,Offshore,Cross-shore,Offshore,Offshore,Offshore,Cross-shore,Offshore,Offshore,Offshore,Offshore,Offshore,Cross-shore",17
5842041f4e65fad6a7708857,2024_01_25,39.941519877445664,-74.06829,Casino Pier,1.3076470588235294,0.2406686274509804,0.5406529411764706,5,4,"NIGHT_MIST,NIGHT_MIST,NIGHT_MIST,NIGHT_CLOUDY,NIGHT_LIGHT_RAIN,NIGHT_MOSTLY_CLOUDY,NIGHT_MIST,NIGHT_LIGHT_RAIN,LIGHT_RAIN,DRIZZLE,LIGHT_RAIN,RAIN,DRIZZLE,DRIZZLE,DRIZZLE,LIGHT_SHOWERS_POSSIBLE,MIST","Onshore,Onshore,Cross-shore,Cross-shore,Cross-shore,Cross-shore,Cross-shore,Cross-shore,Cross-shore,Cross-shore,Offshore,Offshore,Offshore,Offshore,Offshore,Offshore,Offshore",17
5842041f4e65fad6a7708858,2024_01_25,39.28223089949212,-74.55766,North End OC,0.9458823529411765,0.36521882352941176,0.6700521568627451,5,4,"NIGHT_MIST,NIGHT_MIST,NIGHT_MIST,NIGHT_MIST,NIGHT_MIST,NIGHT_MIST,NIGHT_MIST,NIGHT_DRIZZLE,LIGHT_RAIN,LIGHT_SHOWERS_POSSIBLE,LIGHT_RAIN,LIGHT_RAIN,DRIZZLE,DRIZZLE,DRIZZLE,LIGHT_RAIN,MIST","Onshore,Onshore,Onshore,Cross-shore,Cross-shore,Onshore,Onshore,Cross-shore,Onshore,Onshore,Cross-shore,Cross-shore,Cross-shore,Cross-shore,Cross-shore,Onshore,Cross-shore",17
5842041f4e65fad6a770885b,2024_01_25,39.65080599934257,-74.17146,Ship Bottom,0.64,0.27348823529411764,0.5727470588235294,5,4,"NIGHT_MIST,NIGHT_MIST,NIGHT_MIST,NIGHT_MIST,NIGHT_DRIZZLE,NIGHT_MIST,NIGHT_MIST,NIGHT_DRIZZLE,RAIN,LIGHT_RAIN,LIGHT_RAIN,RAIN,DRIZZLE,LIGHT_SHOWERS_POSSIBLE,LIGHT_RAIN,LIGHT_RAIN,DRIZZLE","Onshore,Onshore,Onshore,Cross-shore,Cross-shore,Cross-shore,Cross-shore,Cross-shore,Cross-shore,Cross-shore,Cross-shore,Cross-shore,Cross-shore,Cross-shore,Cross-shore,Offshore,Cross-shore",17
5842041f4e65fad6a7708863,2024_01_25,36.034151543144,-75.66791,Third Street,1.401764705882353,0.09073529411764705,0.38174313725490194,9,8,"NIGHT_MOSTLY_CLEAR,NIGHT_MOSTLY_CLOUDY,NIGHT_MIST,NIGHT_LIGHT_RAIN,NIGHT_MIST,NIGHT_LIGHT_RAIN,NIGHT_MIST,NIGHT_MIST,MIST,MIST,OVERCAST,CLEAR,MOSTLY_CLOUDY,OVERCAST,CLEAR,MOSTLY_CLOUDY,CLEAR","Cross-shore,Cross-shore,Cross-shore,Cross-shore,Offshore,Offshore,Offshore,Offshore,Offshore,Offshore,Offshore,Offshore,Offshore,Offshore,Offshore,Offshore,Offshore",17
5842041f4e65fad6a7708867,2024_01_25,35.605833221351425,-75.46303,S-Turns,1.3847058823529412,0.5326098039215686,0.9019235294117647,10.294117647058824,9,"NIGHT_MIST,NIGHT_MIST,NIGHT_MIST,NIGHT_MIST,NIGHT_MIST,NIGHT_MIST,NIGHT_MIST,NIGHT_MIST,HEAVY_RAIN,DRIZZLE,MIST,MIST,MIST,MIST,MIST,MIST,MIST","Onshore,Onshore,Onshore,Cross-shore,Cross-shore,Cross-shore,Cross-shore,Cross-shore,Cross-shore,Cross-shore,Offshore,Cross-shore,Cross-shore,Offshore,Offshore,Offshore,Cross-shore",17
5842041f4e65fad6a770886d,2024_01_25,38.338461,-75.08117,Ocean City Boardwalk,0.5241176470588236,0.278164705882353,0.5887823529411765,7,5.705882352941177,"NIGHT_MIST,NIGHT_CLEAR,NIGHT_BRIEF_SHOWERS_POSSIBLE,NIGHT_MIST,NIGHT_MIST,NIGHT_MIST,NIGHT_MIST,NIGHT_DRIZZLE,MIST,MIST,MIST,MIST,DRIZZLE,MIST,MIST,RAIN,MIST","Cross-shore,Cross-shore,Cross-shore,Offshore,Offshore,Offshore,Offshore,Offshore,Offshore,Offshore,Offshore,Offshore,Offshore,Offshore,Offshore,Offshore,Offshore",17
5842041f4e65fad6a770886f,2024_01_25,29.844757212379562,-81.26136,A St.,2.2941176470588234,0.6923529411764706,0.9982352941176471,14.588235294117647,14.588235294117647,"NIGHT_MIST,NIGHT_MIST,NIGHT_MIST,NIGHT_MIST,NIGHT_MIST,NIGHT_MIST,NIGHT_MIST,NIGHT_MIST,MIST,MIST,MIST,MIST,MIST,MIST,MIST,MIST,MIST","Onshore,Onshore,Onshore,Onshore,Onshore,Onshore,Onshore,Onshore,Onshore,Onshore,Onshore,Onshore,Onshore,Onshore,Onshore,Onshore,Onshore",17
5842041f4e65fad6a7708871,2024_01_25,29.069417851135093,-80.90824,New Smyrna Beach,1.2011764705882353,1.0862607843137255,1.456964705882353,16,14,"NIGHT_MIST,NIGHT_MIST,NIGHT_MIST,NIGHT_CLEAR,NIGHT_BRIEF_SHOWERS,NIGHT_MIST,NIGHT_MIST,NIGHT_MIST,MIST,MIST,MIST,MIST,MIST,MIST,MIST,MIST,MIST","Onshore,Onshore,Onshore,Cross-shore,Cross-shore,Cross-shore,Cross-shore,Cross-shore,Cross-shore,Cross-shore,Cross-shore,Cross-shore,Cross-shore,Cross-shore,Cross-shore,Onshore,Onshore",17
5842041f4e65fad6a7708872,2024_01_25,28.367707417566,-80.60171,Cocoa Beach Pier,1.5047058823529411,0.796707843137255,1.1210843137254902,17,17,"NIGHT_MOSTLY_CLOUDY,NIGHT_CLEAR,NIGHT_MOSTLY_CLOUDY,NIGHT_CLEAR,NIGHT_CLEAR,NIGHT_MOSTLY_CLEAR,NIGHT_CLEAR,NIGHT_MOSTLY_CLOUDY,MOSTLY_CLOUDY,MOSTLY_CLOUDY,MOSTLY_CLOUDY,OVERCAST,OVERCAST,MOSTLY_CLOUDY,MOSTLY_CLOUDY,MOSTLY_CLOUDY,CLEAR","Onshore,Onshore,Onshore,Onshore,Onshore,Onshore,Onshore,Onshore,Onshore,Onshore,Onshore,Onshore,Onshore,Onshore,Onshore,Onshore,Onshore",17
5842041f4e65fad6a7708873,2024_01_25,28.091782738658846,-80.56479,Indialantic,1.9605882352941177,0.8457274509803921,1.213370588235294,18,18,"NIGHT_OVERCAST,NIGHT_CLEAR,NIGHT_CLEAR,NIGHT_CLEAR,NIGHT_CLEAR,NIGHT_CLEAR,NIGHT_MOSTLY_CLOUDY,NIGHT_MOSTLY_CLOUDY,MOSTLY_CLOUDY,MOSTLY_CLOUDY,MOSTLY_CLOUDY,MOSTLY_CLOUDY,MOSTLY_CLOUDY,MIST,MIST,MIST,CLEAR","Onshore,Onshore,Onshore,Onshore,Onshore,Onshore,Onshore,Onshore,Onshore,Onshore,Onshore,Onshore,Onshore,Onshore,Onshore,Onshore,Onshore",17
5842041f4e65fad6a7708876,2024_01_25,27.25392904143517,-80.19455,Jensen Beach,1,0.6346313725490196,1.0069039215686275,24,22,"NIGHT_CLOUDY,NIGHT_MOSTLY_CLOUDY,NIGHT_MOSTLY_CLOUDY,NIGHT_MOSTLY_CLOUDY,NIGHT_OVERCAST,NIGHT_DRIZZLE,NIGHT_MOSTLY_CLOUDY,NIGHT_CLEAR,RAIN,BRIEF_SHOWERS,MOSTLY_CLOUDY,CLOUDY,CLOUDY,CLEAR,CLOUDY,CLOUDY,CLEAR","Onshore,Onshore,Onshore,Onshore,Onshore,Onshore,Onshore,Onshore,Onshore,Onshore,Onshore,Onshore,Onshore,Cross-shore,Cross-shore,Onshore,Cross-shore",17
5842041f4e65fad6a7708879,2024_01_25,26.76346795333825,-80.0360655784607,Reef Road,1.02,0.6488529411764706,1.0194509803921568,25,23,"NIGHT_MOSTLY_CLOUDY,NIGHT_OVERCAST,NIGHT_OVERCAST,NIGHT_OVERCAST,NIGHT_BRIEF_SHOWERS,NIGHT_MOSTLY_CLOUDY,NIGHT_CLEAR,NIGHT_MOSTLY_CLOUDY,MOSTLY_CLOUDY,CLEAR,OVERCAST,OVERCAST,OVERCAST,CLEAR,OVERCAST,OVERCAST,MOSTLY_CLOUDY","Onshore,Onshore,Onshore,Onshore,Onshore,Onshore,Onshore,Onshore,Onshore,Onshore,Onshore,Onshore,Onshore,Onshore,Onshore,Onshore,Onshore",17
5842041f4e65fad6a770887c,2024_01_25,26.336499228484,-80.06956100463,Boca Raton Inlet,0.4117647058823529,0.3349921568627451,0.6591509803921569,25,23,"NIGHT_OVERCAST,NIGHT_OVERCAST,NIGHT_OVERCAST,NIGHT_MOSTLY_CLOUDY,NIGHT_OVERCAST,NIGHT_CLEAR,NIGHT_CLEAR,NIGHT_MOSTLY_CLOUDY,MOSTLY_CLOUDY,MOSTLY_CLOUDY,MOSTLY_CLOUDY,OVERCAST,OVERCAST,OVERCAST,OVERCAST,OVERCAST,CLEAR","Onshore,Onshore,Onshore,Onshore,Onshore,Onshore,Onshore,Onshore,Onshore,Onshore,Onshore,Onshore,Onshore,Onshore,Onshore,Onshore,Onshore",17
5842041f4e65fad6a770887d,2024_01_25,26.31719311695038,-80.07452525176168,Deerfield Beach Pier,1,0.32732627450980395,0.5708729411764706,25,23,"NIGHT_OVERCAST,NIGHT_OVERCAST,NIGHT_OVERCAST,NIGHT_MOSTLY_CLOUDY,NIGHT_OVERCAST,NIGHT_CLEAR,NIGHT_MOSTLY_CLOUDY,NIGHT_MOSTLY_CLOUDY,MOSTLY_CLOUDY,MOSTLY_CLOUDY,MOSTLY_CLOUDY,OVERCAST,OVERCAST,OVERCAST,OVERCAST,OVERCAST,MOSTLY_CLOUDY","Onshore,Onshore,Onshore,Onshore,Onshore,Onshore,Onshore,Onshore,Onshore,Onshore,Onshore,Onshore,Onshore,Onshore,Onshore,Onshore,Onshore",17
5842041f4e65fad6a7708881,2024_01_25,30.20276320866628,-85.85626528676136,"Spyglass Dr., Panama City",1.9176470588235295,0.5246901960784314,0.8910019607843137,14,13,"OVERCAST,NIGHT_OVERCAST,NIGHT_OVERCAST,NIGHT_OVERCAST,NIGHT_OVERCAST,NIGHT_OVERCAST,NIGHT_CLEAR,NIGHT_CLEAR,MIST,MIST,MIST,MIST,CLEAR,CLEAR,MIST,OVERCAST,OVERCAST","Cross-shore,Cross-shore,Cross-shore,Cross-shore,Cross-shore,Onshore,Onshore,Onshore,Onshore,Onshore,Onshore,Onshore,Onshore,Onshore,Onshore,Onshore,Onshore",17
5842041f4e65fad6a7708884,2024_01_25,33.39000832738053,-117.59852,Cottons,3.4705882352941178,1.1114745098039216,1.378992156862745,14,14,"MIST,MOSTLY_CLOUDY,CLEAR,NIGHT_MOSTLY_CLOUDY,NIGHT_FOG,NIGHT_MOSTLY_CLOUDY,NIGHT_FOG,NIGHT_MOSTLY_CLOUDY,NIGHT_FOG,NIGHT_FOG,FOG,MIST,MIST,MOSTLY_CLOUDY,MIST,MIST,MIST","Cross-shore,Cross-shore,Offshore,Offshore,Offshore,Offshore,Offshore,Offshore,Offshore,Offshore,Offshore,Offshore,Offshore,Offshore,Offshore,Cross-shore,Cross-shore",17
5842041f4e65fad6a7708885,2024_01_25,33.359416282661,-117.54167901405711,Trails,2.823529411764706,0.8135294117647058,1.061764705882353,15,15,"MOSTLY_CLOUDY,CLEAR,CLEAR,NIGHT_FOG,NIGHT_MOSTLY_CLOUDY,NIGHT_MOSTLY_CLOUDY,NIGHT_MOSTLY_CLOUDY,NIGHT_MOSTLY_CLOUDY,NIGHT_FOG,NIGHT_MOSTLY_CLOUDY,FOG,MIST,MIST,MOSTLY_CLOUDY,OVERCAST,MOSTLY_CLOUDY,OVERCAST","Onshore,Onshore,Cross-shore,Offshore,Offshore,Offshore,Cross-shore,Offshore,Cross-shore,Offshore,Offshore,Cross-shore,Offshore,Onshore,Onshore,Onshore,Onshore",17
5842041f4e65fad6a7708886,2024_01_25,33.38042605929805,-117.58332,Middles,2.538823529411765,0.5813588235294118,0.927343137254902,14,14,"MIST,MOSTLY_CLOUDY,CLEAR,NIGHT_MOSTLY_CLOUDY,NIGHT_FOG,NIGHT_MOSTLY_CLOUDY,NIGHT_FOG,NIGHT_MOSTLY_CLOUDY,NIGHT_FOG,NIGHT_FOG,FOG,MIST,MIST,MOSTLY_CLOUDY,MIST,MIST,MIST","Cross-shore,Onshore,Offshore,Offshore,Offshore,Offshore,Offshore,Offshore,Offshore,Offshore,Offshore,Offshore,Offshore,Cross-shore,Cross-shore,Cross-shore,Onshore",17
5842041f4e65fad6a7708887,2024_01_25,33.38445596302903,-117.59445,Upper Trestles,3.4705882352941178,1.0692686274509804,1.3203647058823529,14,14,"MIST,MOSTLY_CLOUDY,CLEAR,NIGHT_MOSTLY_CLOUDY,NIGHT_FOG,NIGHT_MOSTLY_CLOUDY,NIGHT_FOG,NIGHT_MOSTLY_CLOUDY,NIGHT_FOG,NIGHT_FOG,FOG,MIST,MIST,MOSTLY_CLOUDY,MIST,MIST,MIST","Onshore,Onshore,Offshore,Offshore,Offshore,Offshore,Offshore,Offshore,Offshore,Offshore,Offshore,Offshore,Offshore,Cross-shore,Cross-shore,Cross-shore,Onshore",17
5842041f4e65fad6a7708889,2024_01_25,28.944414,-95.28883,Surfside,3,0.8564523529411765,1.338204705882353,13,13,"LIGHT_SHOWERS_POSSIBLE,NIGHT_DRIZZLE,NIGHT_LIGHT_RAIN,NIGHT_LIGHT_RAIN,NIGHT_LIGHT_RAIN,NIGHT_CLEAR,NIGHT_OVERCAST,NIGHT_CLEAR,NIGHT_OVERCAST,MOSTLY_CLOUDY,MOSTLY_CLOUDY,CLEAR,CLEAR,CLEAR,CLEAR,CLEAR,CLEAR","Cross-shore,Offshore,Offshore,Offshore,Offshore,Offshore,Offshore,Offshore,Cross-shore,Offshore,Offshore,Offshore,Offshore,Onshore,Onshore,Onshore,Onshore",17
5842041f4e65fad6a770888a,2024_01_25,33.38143999849023,-117.58843,Lower Trestles,2.9605882352941175,0.9093,1.2038627450980393,14,14,"MIST,MOSTLY_CLOUDY,CLEAR,NIGHT_MOSTLY_CLOUDY,NIGHT_FOG,NIGHT_MOSTLY_CLOUDY,NIGHT_FOG,NIGHT_MOSTLY_CLOUDY,NIGHT_FOG,NIGHT_FOG,FOG,MIST,MIST,MOSTLY_CLOUDY,MIST,MIST,MIST","Cross-shore,Onshore,Offshore,Offshore,Offshore,Offshore,Offshore,Offshore,Offshore,Offshore,Offshore,Offshore,Offshore,Cross-shore,Cross-shore,Cross-shore,Onshore",17
5842041f4e65fad6a770888b,2024_01_25,33.379622288757,-117.57894,Church,2.538823529411765,0.6434176470588235,0.987343137254902,14,14,"MIST,MOSTLY_CLOUDY,CLEAR,NIGHT_MOSTLY_CLOUDY,NIGHT_FOG,NIGHT_MOSTLY_CLOUDY,NIGHT_FOG,NIGHT_MOSTLY_CLOUDY,NIGHT_FOG,NIGHT_FOG,FOG,MIST,MIST,MOSTLY_CLOUDY,MIST,MIST,MIST","Onshore,Cross-shore,Offshore,Offshore,Offshore,Offshore,Offshore,Offshore,Offshore,Offshore,Offshore,Offshore,Offshore,Cross-shore,Cross-shore,Cross-shore,Onshore",17
5842041f4e65fad6a770888d,2024_01_25,21.679,-158.042,Sunset Beach,2.901764705882353,2.6217176470588237,3.227772549019608,26,25,"MOSTLY_CLOUDY,MOSTLY_CLOUDY,CLEAR,NIGHT_CLEAR,NIGHT_CLEAR,NIGHT_CLEAR,NIGHT_CLEAR,NIGHT_CLEAR,NIGHT_MOSTLY_CLOUDY,NIGHT_CLEAR,NIGHT_MOSTLY_CLOUDY,NIGHT_CLEAR,NIGHT_MOSTLY_CLOUDY,LIGHT_SHOWERS_POSSIBLE,MOSTLY_CLOUDY,CLEAR,MOSTLY_CLEAR","Cross-shore,Cross-shore,Cross-shore,Onshore,Onshore,Cross-shore,Offshore,Offshore,Cross-shore,Offshore,Cross-shore,Cross-shore,Cross-shore,Cross-shore,Onshore,Onshore,Onshore",17
5842041f4e65fad6a770888e,2024_01_25,21.670550036401,-158.0482,Rocky Point,2.842941176470588,2.5055411764705884,2.9558235294117647,26,25,"MOSTLY_CLOUDY,MOSTLY_CLOUDY,MOSTLY_CLEAR,NIGHT_CLEAR,NIGHT_CLEAR,NIGHT_CLEAR,NIGHT_CLEAR,NIGHT_CLEAR,NIGHT_CLEAR,NIGHT_FOG,NIGHT_MOSTLY_CLOUDY,NIGHT_CLEAR,NIGHT_MOSTLY_CLOUDY,BRIEF_SHOWERS,MIST,CLEAR,MOSTLY_CLEAR","Cross-shore,Cross-shore,Cross-shore,Onshore,Onshore,Cross-shore,Offshore,Offshore,Offshore,Offshore,Offshore,Offshore,Cross-shore,Cross-shore,Onshore,Onshore,Onshore",17
5842041f4e65fad6a770888f,2024_01_25,21.668,-158.05,Chambers,2.8823529411764706,2.3952941176470586,2.8252941176470587,24,24,"MOSTLY_CLOUDY,MOSTLY_CLOUDY,MOSTLY_CLEAR,NIGHT_CLEAR,NIGHT_CLEAR,NIGHT_CLEAR,NIGHT_CLEAR,NIGHT_CLEAR,NIGHT_CLEAR,NIGHT_FOG,NIGHT_MOSTLY_CLOUDY,NIGHT_CLEAR,NIGHT_MOSTLY_CLOUDY,BRIEF_SHOWERS,MIST,CLEAR,MOSTLY_CLEAR","Offshore,Cross-shore,Cross-shore,Onshore,Onshore,Cross-shore,Offshore,Offshore,Offshore,Offshore,Offshore,Offshore,Offshore,Cross-shore,Onshore,Onshore,Onshore",17
5842041f4e65fad6a7708890,2024_01_25,21.66522,-158.0526,Pipeline,2.891764705882353,2.467698039215686,2.9407254901960784,26,25,"MOSTLY_CLOUDY,MOSTLY_CLOUDY,MOSTLY_CLEAR,NIGHT_CLEAR,NIGHT_CLEAR,NIGHT_CLEAR,NIGHT_CLEAR,NIGHT_CLEAR,NIGHT_CLEAR,NIGHT_FOG,NIGHT_MOSTLY_CLOUDY,NIGHT_CLEAR,NIGHT_MOSTLY_CLOUDY,BRIEF_SHOWERS,MIST,CLEAR,MOSTLY_CLEAR","Cross-shore,Cross-shore,Cross-shore,Onshore,Onshore,Cross-shore,Offshore,Offshore,Offshore,Offshore,Offshore,Offshore,Cross-shore,Cross-shore,Onshore,Onshore,Onshore",17
5842041f4e65fad6a7708891,2024_01_25,21.665,-158.054,Backdoor,3.0588235294117645,2.5352941176470587,2.9476470588235295,24,24,"MOSTLY_CLOUDY,MOSTLY_CLOUDY,MOSTLY_CLEAR,NIGHT_CLEAR,NIGHT_CLEAR,NIGHT_CLEAR,NIGHT_CLEAR,NIGHT_CLEAR,NIGHT_CLEAR,NIGHT_FOG,NIGHT_MOSTLY_CLOUDY,NIGHT_CLEAR,NIGHT_MOSTLY_CLOUDY,BRIEF_SHOWERS,MIST,CLEAR,MOSTLY_CLEAR","Cross-shore,Cross-shore,Cross-shore,Onshore,Onshore,Cross-shore,Offshore,Offshore,Offshore,Offshore,Offshore,Offshore,Cross-shore,Cross-shore,Onshore,Onshore,Onshore",17
5842041f4e65fad6a7708892,2024_01_25,21.662,-158.057,Rockpile,2.8823529411764706,2.711764705882353,3.1152941176470588,24,24,"MOSTLY_CLOUDY,MOSTLY_CLOUDY,MOSTLY_CLEAR,NIGHT_CLEAR,NIGHT_CLEAR,NIGHT_CLEAR,NIGHT_CLEAR,NIGHT_CLEAR,NIGHT_CLEAR,NIGHT_FOG,NIGHT_MOSTLY_CLOUDY,NIGHT_CLEAR,NIGHT_MOSTLY_CLOUDY,BRIEF_SHOWERS,MIST,CLEAR,MOSTLY_CLEAR","Cross-shore,Cross-shore,Cross-shore,Onshore,Onshore,Cross-shore,Offshore,Offshore,Cross-shore,Offshore,Offshore,Cross-shore,Cross-shore,Cross-shore,Onshore,Onshore,Onshore",17
5842041f4e65fad6a7708893,2024_01_25,21.65870453806827,-158.06058,Log Cabins,2.764705882352941,2.0805882352941176,2.418823529411765,24,24,"MOSTLY_CLOUDY,MOSTLY_CLOUDY,MOSTLY_CLEAR,NIGHT_CLEAR,NIGHT_CLEAR,NIGHT_CLEAR,NIGHT_CLEAR,NIGHT_CLEAR,NIGHT_CLEAR,NIGHT_FOG,NIGHT_MOSTLY_CLOUDY,NIGHT_CLEAR,NIGHT_MOSTLY_CLOUDY,BRIEF_SHOWERS,MIST,CLEAR,MOSTLY_CLEAR","Cross-shore,Cross-shore,Cross-shore,Onshore,Onshore,Cross-shore,Offshore,Offshore,Offshore,Offshore,Offshore,Offshore,Cross-shore,Cross-shore,Onshore,Onshore,Onshore",17
5842041f4e65fad6a7708894,2024_01_25,21.66203493640557,-158.05495,Off-The-Wall,2.8823529411764706,2.7294117647058824,2.998235294117647,24,24,"MOSTLY_CLOUDY,MOSTLY_CLOUDY,MOSTLY_CLEAR,NIGHT_CLEAR,NIGHT_CLEAR,NIGHT_CLEAR,NIGHT_CLEAR,NIGHT_CLEAR,NIGHT_CLEAR,NIGHT_FOG,NIGHT_MOSTLY_CLOUDY,NIGHT_CLEAR,NIGHT_MOSTLY_CLOUDY,BRIEF_SHOWERS,MIST,CLEAR,MOSTLY_CLEAR","Cross-shore,Cross-shore,Cross-shore,Onshore,Onshore,Cross-shore,Offshore,Offshore,Offshore,Offshore,Offshore,Offshore,Cross-shore,Cross-shore,Onshore,Onshore,Onshore",17
5842041f4e65fad6a7708895,2024_01_25,21.643,-158.067,Waimea Bay,NA,2.495443137254902,2.9199411764705885,26,25,"MOSTLY_CLOUDY,MOSTLY_CLOUDY,MOSTLY_CLEAR,NIGHT_CLEAR,NIGHT_CLEAR,NIGHT_CLEAR,NIGHT_CLEAR,NIGHT_CLEAR,NIGHT_CLEAR,NIGHT_FOG,NIGHT_MOSTLY_CLOUDY,NIGHT_CLEAR,NIGHT_MOSTLY_CLOUDY,BRIEF_SHOWERS,MIST,CLEAR,MOSTLY_CLEAR","Cross-shore,Cross-shore,Cross-shore,Onshore,Onshore,Cross-shore,Cross-shore,Offshore,Cross-shore,Offshore,Cross-shore,Offshore,Cross-shore,Cross-shore,Onshore,Onshore,Onshore",17
5842041f4e65fad6a7708896,2024_01_25,21.622,-158.087,Hultin's,2.4411764705882355,2.6538745098039214,3.067980392156863,26,25,"MOSTLY_CLOUDY,MOSTLY_CLOUDY,MOSTLY_CLEAR,NIGHT_MOSTLY_CLEAR,NIGHT_MOSTLY_CLEAR,NIGHT_MOSTLY_CLEAR,NIGHT_CLEAR,NIGHT_CLEAR,NIGHT_CLEAR,NIGHT_FOG,NIGHT_MOSTLY_CLOUDY,NIGHT_CLEAR,NIGHT_CLEAR,MIST,BRIEF_SHOWERS,CLEAR,MOSTLY_CLEAR","Cross-shore,Cross-shore,Cross-shore,Onshore,Onshore,Onshore,Onshore,Onshore,Onshore,Onshore,Onshore,Onshore,Onshore,Onshore,Onshore,Onshore,Onshore",17
5842041f4e65fad6a7708897,2024_01_25,21.623,-158.085,Jocko's,3.764705882352941,2.4058823529411764,2.8329411764705883,24,24,"MOSTLY_CLOUDY,MOSTLY_CLOUDY,MOSTLY_CLEAR,NIGHT_MOSTLY_CLEAR,NIGHT_MOSTLY_CLEAR,NIGHT_MOSTLY_CLEAR,NIGHT_CLEAR,NIGHT_CLEAR,NIGHT_CLEAR,NIGHT_FOG,NIGHT_MOSTLY_CLOUDY,NIGHT_CLEAR,NIGHT_CLEAR,MIST,BRIEF_SHOWERS,CLEAR,MOSTLY_CLEAR","Offshore,Offshore,Offshore,Offshore,Offshore,Offshore,Offshore,Offshore,Offshore,Cross-shore,Cross-shore,Offshore,Offshore,Offshore,Onshore,Onshore,Cross-shore",17
5842041f4e65fad6a7708898,2024_01_25,21.62,-158.088,Laniakea,2.842941176470588,2.103886274509804,2.552698039215686,26,25,"MOSTLY_CLOUDY,MOSTLY_CLOUDY,MOSTLY_CLEAR,NIGHT_MOSTLY_CLEAR,NIGHT_MOSTLY_CLEAR,NIGHT_MOSTLY_CLEAR,NIGHT_CLEAR,NIGHT_CLEAR,NIGHT_CLEAR,NIGHT_FOG,NIGHT_MOSTLY_CLOUDY,NIGHT_CLEAR,NIGHT_CLEAR,MIST,BRIEF_SHOWERS,CLEAR,MOSTLY_CLEAR","Cross-shore,Cross-shore,Cross-shore,Cross-shore,Cross-shore,Cross-shore,Cross-shore,Cross-shore,Cross-shore,Onshore,Onshore,Cross-shore,Cross-shore,Cross-shore,Onshore,Onshore,Onshore",17
5842041f4e65fad6a7708899,2024_01_25,21.625,-158.083,Chun's,2.5294117647058822,2.4594117647058824,2.8688235294117646,24,24,"MOSTLY_CLOUDY,MOSTLY_CLOUDY,MOSTLY_CLEAR,NIGHT_MOSTLY_CLEAR,NIGHT_MOSTLY_CLEAR,NIGHT_MOSTLY_CLEAR,NIGHT_CLEAR,NIGHT_CLEAR,NIGHT_CLEAR,NIGHT_FOG,NIGHT_MOSTLY_CLOUDY,NIGHT_CLEAR,NIGHT_CLEAR,MIST,BRIEF_SHOWERS,CLEAR,MOSTLY_CLEAR","Cross-shore,Cross-shore,Cross-shore,Cross-shore,Onshore,Cross-shore,Cross-shore,Cross-shore,Cross-shore,Onshore,Onshore,Cross-shore,Onshore,Cross-shore,Onshore,Onshore,Onshore",17
5842041f4e65fad6a770889c,2024_01_25,21.286357895152136,-157.8515,South Shore - Ala Moana Park,1.9411764705882353,0.7529411764705882,1.0582352941176472,24,24,"MOSTLY_CLEAR,MOSTLY_CLEAR,MOSTLY_CLOUDY,NIGHT_MOSTLY_CLOUDY,NIGHT_MOSTLY_CLOUDY,NIGHT_SHOWERS,NIGHT_CLEAR,NIGHT_MIST,NIGHT_BRIEF_SHOWERS_POSSIBLE,NIGHT_CLEAR,NIGHT_MIST,NIGHT_MIST,NIGHT_MIST,CLEAR,MOSTLY_CLEAR,MOSTLY_CLEAR,CLEAR","Onshore,Onshore,Onshore,Onshore,Onshore,Onshore,Onshore,Onshore,Onshore,Onshore,Cross-shore,Onshore,Cross-shore,Cross-shore,Onshore,Onshore,Onshore",17
5842041f4e65fad6a770889d,2024_01_25,19.606,-155.978,Banyans,3.1470588235294117,1.6339607843137254,2.0087529411764704,26,25,"MOSTLY_CLEAR,CLEAR,CLEAR,NIGHT_CLEAR,NIGHT_CLEAR,NIGHT_CLEAR,NIGHT_CLEAR,NIGHT_CLEAR,NIGHT_CLEAR,NIGHT_CLEAR,NIGHT_CLEAR,NIGHT_MOSTLY_CLEAR,CLEAR,CLEAR,MOSTLY_CLEAR,CLEAR,MOSTLY_CLEAR","Onshore,Cross-shore,Onshore,Cross-shore,Cross-shore,Cross-shore,Cross-shore,Cross-shore,Cross-shore,Cross-shore,Cross-shore,Cross-shore,Cross-shore,Onshore,Onshore,Onshore,Onshore",17
5842041f4e65fad6a770889e,2024_01_25,20.029,-155.831,Kawaihae,3.4705882352941178,1.516755294117647,1.8704364705882353,25,25,"CLEAR,CLEAR,CLEAR,NIGHT_CLEAR,NIGHT_CLEAR,NIGHT_CLEAR,NIGHT_MOSTLY_CLEAR,NIGHT_CLEAR,NIGHT_MOSTLY_CLEAR,NIGHT_MOSTLY_CLEAR,NIGHT_CLEAR,NIGHT_CLEAR,MOSTLY_CLEAR,MOSTLY_CLEAR,CLEAR,CLEAR,MOSTLY_CLEAR","Onshore,Onshore,Onshore,Cross-shore,Cross-shore,Offshore,Offshore,Offshore,Offshore,Offshore,Offshore,Offshore,Offshore,Offshore,Cross-shore,Onshore,Onshore",17
5842041f4e65fad6a770889f,2024_01_25,33.07541383424675,-117.3105,Grandview,3.4705882352941178,1.1464705882352941,1.3823529411764706,15,15,"CLEAR,CLEAR,CLEAR,NIGHT_MIST,NIGHT_OVERCAST,NIGHT_MOSTLY_CLOUDY,NIGHT_MOSTLY_CLOUDY,NIGHT_FOG,NIGHT_FOG,NIGHT_FOG,FOG,DRIZZLE,MIST,MIST,MOSTLY_CLOUDY,CLEAR,MIST","Onshore,Onshore,Onshore,Offshore,Offshore,Cross-shore,Offshore,Offshore,Offshore,Offshore,Offshore,Offshore,Offshore,Onshore,Onshore,Onshore,Onshore",17
5842041f4e65fad6a77088a0,2024_01_25,33.065267421296596,-117.30577,Beacons,3.411764705882353,1.1011764705882352,1.3488235294117648,15,15,"CLEAR,CLEAR,CLEAR,NIGHT_MIST,NIGHT_OVERCAST,NIGHT_MOSTLY_CLOUDY,NIGHT_MOSTLY_CLOUDY,NIGHT_FOG,NIGHT_FOG,NIGHT_FOG,FOG,DRIZZLE,MIST,MIST,MOSTLY_CLOUDY,CLEAR,MIST","Onshore,Onshore,Onshore,Offshore,Offshore,Cross-shore,Offshore,Offshore,Offshore,Offshore,Offshore,Cross-shore,Offshore,Onshore,Onshore,Onshore,Onshore",17
5842041f4e65fad6a77088a2,2024_01_25,21.252,-157.805,Diamond Head,2.2252941176470586,0.9346923529411765,1.2778832352941176,26,25,"MOSTLY_CLEAR,MOSTLY_CLEAR,CLEAR,NIGHT_MOSTLY_CLOUDY,NIGHT_MOSTLY_CLOUDY,NIGHT_MOSTLY_CLEAR,NIGHT_CLEAR,NIGHT_CLEAR,NIGHT_CLEAR,NIGHT_MOSTLY_CLEAR,NIGHT_CLEAR,NIGHT_MOSTLY_CLEAR,NIGHT_MOSTLY_CLEAR,CLEAR,CLEAR,BRIEF_SHOWERS,CLEAR","Onshore,Onshore,Onshore,Onshore,Cross-shore,Onshore,Cross-shore,Cross-shore,Cross-shore,Cross-shore,Offshore,Cross-shore,Cross-shore,Offshore,Cross-shore,Cross-shore,Cross-shore",17
5842041f4e65fad6a77088a3,2024_01_25,33.04694255008896,-117.29966,Moonlight State Beach,3.411764705882353,1.1441176470588235,1.3823529411764706,15,15,"CLEAR,CLEAR,CLEAR,NIGHT_MIST,NIGHT_OVERCAST,NIGHT_BRIEF_SHOWERS,NIGHT_FOG,NIGHT_FOG,NIGHT_FOG,NIGHT_FOG,LIGHT_RAIN_AND_FOG,LIGHT_RAIN,LIGHT_RAIN,MIST,MOSTLY_CLOUDY,CLEAR,MIST","Onshore,Onshore,Onshore,Offshore,Offshore,Onshore,Cross-shore,Offshore,Offshore,Offshore,Cross-shore,Cross-shore,Onshore,Onshore,Onshore,Onshore,Onshore",17
5842041f4e65fad6a77088a5,2024_01_25,33.08685865930869,-117.31532,Ponto,3.3529411764705883,1.401764705882353,1.6741176470588235,15,15,"CLEAR,CLEAR,CLEAR,NIGHT_MIST,NIGHT_OVERCAST,NIGHT_MOSTLY_CLOUDY,NIGHT_MOSTLY_CLOUDY,NIGHT_FOG,NIGHT_FOG,NIGHT_FOG,FOG,DRIZZLE,MIST,MIST,MOSTLY_CLOUDY,CLEAR,MIST","Onshore,Onshore,Onshore,Offshore,Offshore,Offshore,Offshore,Offshore,Offshore,Offshore,Offshore,Offshore,Offshore,Onshore,Onshore,Onshore,Onshore",17
5842041f4e65fad6a77088a6,2024_01_25,33.130343587871906,-117.33667796442558,Terra Mar Point,2.8529411764705883,0.8332313725490196,1.3338490196078432,14,14,"MOSTLY_CLOUDY,CLEAR,CLEAR,NIGHT_FOG,NIGHT_MIST,NIGHT_MOSTLY_CLOUDY,NIGHT_MOSTLY_CLOUDY,NIGHT_FOG,NIGHT_FOG,NIGHT_FOG,FOG,LIGHT_RAIN,MIST,MIST,MIST,MIST,MIST","Onshore,Onshore,Onshore,Cross-shore,Cross-shore,Cross-shore,Cross-shore,Cross-shore,Cross-shore,Cross-shore,Cross-shore,Onshore,Onshore,Onshore,Onshore,Onshore,Onshore",17
5842041f4e65fad6a77088af,2024_01_25,32.95916304183685,-117.26963,Del Mar,3.235294117647059,1.1158823529411765,1.3670588235294119,15,15,"CLEAR,CLEAR,CLEAR,NIGHT_OVERCAST,NIGHT_OVERCAST,NIGHT_MOSTLY_CLOUDY,NIGHT_FOG,NIGHT_CLOUDY,NIGHT_FOG,NIGHT_FOG,FOG,MIST,DRIZZLE,LIGHT_RAIN,BRIEF_SHOWERS,MIST,LIGHT_RAIN","Onshore,Onshore,Onshore,Offshore,Offshore,Offshore,Offshore,Cross-shore,Cross-shore,Cross-shore,Cross-shore,Onshore,Onshore,Onshore,Onshore,Onshore,Onshore",17
5842041f4e65fad6a77088b0,2024_01_25,32.97527261243354,-117.2721061331305,Del Mar Rivermouth,3.2941176470588234,1.248235294117647,1.5,15,15,"CLEAR,CLEAR,MOSTLY_CLOUDY,NIGHT_OVERCAST,NIGHT_OVERCAST,NIGHT_MOSTLY_CLOUDY,NIGHT_FOG,NIGHT_CLOUDY,NIGHT_CLOUDY,NIGHT_MIST,MIST,BRIEF_SHOWERS,LIGHT_RAIN,LIGHT_RAIN,MOSTLY_CLOUDY,MIST,MIST","Onshore,Onshore,Onshore,Offshore,Offshore,Offshore,Offshore,Cross-shore,Cross-shore,Cross-shore,Cross-shore,Onshore,Onshore,Onshore,Onshore,Onshore,Onshore",17
5842041f4e65fad6a77088b1,2024_01_25,33.01352178146273,-117.28219,Cardiff Reef,2.8529411764705883,1.2246529411764706,1.6607450980392158,14,14,"CLEAR,CLEAR,CLEAR,NIGHT_MIST,NIGHT_OVERCAST,NIGHT_MOSTLY_CLOUDY,NIGHT_FOG,NIGHT_MOSTLY_CLOUDY,NIGHT_FOG,NIGHT_FOG,FOG,MIST,OVERCAST,LIGHT_RAIN,MOSTLY_CLOUDY,CLEAR,MIST","Onshore,Onshore,Onshore,Cross-shore,Cross-shore,Cross-shore,Cross-shore,Cross-shore,Cross-shore,Cross-shore,Cross-shore,Onshore,Onshore,Onshore,Onshore,Onshore,Onshore",17
5842041f4e65fad6a77088b3,2024_01_25,33.00211185876003,-117.2811,Seaside Reef,2.8529411764705883,1.2587705882352942,1.690794117647059,14,14,"CLEAR,CLEAR,CLEAR,NIGHT_OVERCAST,NIGHT_OVERCAST,NIGHT_MOSTLY_CLOUDY,NIGHT_FOG,NIGHT_FOG,NIGHT_OVERCAST,NIGHT_FOG,FOG,MIST,LIGHT_RAIN,LIGHT_RAIN,MOSTLY_CLOUDY,MOSTLY_CLOUDY,DRIZZLE","Onshore,Onshore,Onshore,Onshore,Onshore,Cross-shore,Cross-shore,Cross-shore,Cross-shore,Cross-shore,Cross-shore,Onshore,Onshore,Onshore,Onshore,Onshore,Onshore",17
5842041f4e65fad6a77088b4,2024_01_25,33.0341859796287,-117.29552,Swami's,3.4705882352941178,1.2339176470588236,1.6717254901960785,14,14,"CLEAR,CLEAR,CLEAR,NIGHT_MIST,NIGHT_OVERCAST,NIGHT_MOSTLY_CLOUDY,NIGHT_FOG,NIGHT_MOSTLY_CLOUDY,NIGHT_FOG,NIGHT_FOG,FOG,MIST,OVERCAST,LIGHT_RAIN,MOSTLY_CLOUDY,CLEAR,MIST","Onshore,Onshore,Onshore,Cross-shore,Offshore,Onshore,Cross-shore,Offshore,Offshore,Offshore,Cross-shore,Cross-shore,Onshore,Onshore,Onshore,Onshore,Onshore",17
5842041f4e65fad6a77088b7,2024_01_25,33.04569760260221,-117.2994,D Street,3.3529411764705883,1.305294117647059,1.561764705882353,15,15,"CLEAR,CLEAR,CLEAR,NIGHT_MIST,NIGHT_OVERCAST,NIGHT_BRIEF_SHOWERS,NIGHT_FOG,NIGHT_FOG,NIGHT_FOG,NIGHT_FOG,LIGHT_RAIN_AND_FOG,LIGHT_RAIN,LIGHT_RAIN,MIST,MOSTLY_CLOUDY,CLEAR,MIST","Onshore,Onshore,Onshore,Onshore,Offshore,Onshore,Cross-shore,Offshore,Offshore,Offshore,Cross-shore,Cross-shore,Onshore,Onshore,Onshore,Onshore,Onshore",17
5842041f4e65fad6a77088b8,2024_01_25,33.02090944350196,-117.28535,San Elijo State Beach,2.911764705882353,0.9535254901960785,1.3743235294117648,14,14,"CLEAR,CLEAR,CLEAR,NIGHT_MIST,NIGHT_OVERCAST,NIGHT_MOSTLY_CLOUDY,NIGHT_FOG,NIGHT_MOSTLY_CLOUDY,NIGHT_FOG,NIGHT_FOG,FOG,MIST,OVERCAST,LIGHT_RAIN,MOSTLY_CLOUDY,CLEAR,MIST","Onshore,Onshore,Onshore,Cross-shore,Cross-shore,Cross-shore,Cross-shore,Cross-shore,Cross-shore,Cross-shore,Cross-shore,Onshore,Onshore,Onshore,Onshore,Onshore,Onshore",17
5842041f4e65fad6a77088c2,2024_01_25,32.80662846492798,-117.2688764333725,PB Point,3,1.0176470588235293,1.251764705882353,15,15,"CLEAR,CLEAR,CLEAR,NIGHT_OVERCAST,NIGHT_OVERCAST,NIGHT_FOG,NIGHT_OVERCAST,NIGHT_MOSTLY_CLOUDY,NIGHT_FOG,NIGHT_FOG,FOG,MIST,MIST,LIGHT_RAIN,MIST,BRIEF_SHOWERS,MIST","Onshore,Onshore,Onshore,Onshore,Cross-shore,Cross-shore,Onshore,Cross-shore,Cross-shore,Cross-shore,Onshore,Onshore,Onshore,Onshore,Onshore,Cross-shore,Onshore",17
5842041f4e65fad6a77088c4,2024_01_25,32.8060476681448,-117.26479,Old Man's at Tourmaline,2.9411764705882355,0.6988235294117647,0.9882352941176471,15,15,"CLEAR,CLEAR,CLEAR,NIGHT_OVERCAST,NIGHT_OVERCAST,NIGHT_FOG,NIGHT_OVERCAST,NIGHT_MOSTLY_CLOUDY,NIGHT_FOG,NIGHT_FOG,FOG,MIST,MIST,LIGHT_RAIN,MIST,BRIEF_SHOWERS,MIST","Onshore,Cross-shore,Onshore,Cross-shore,Cross-shore,Cross-shore,Cross-shore,Cross-shore,Cross-shore,Cross-shore,Onshore,Onshore,Onshore,Onshore,Onshore,Cross-shore,Onshore",17
5842041f4e65fad6a77088cb,2024_01_25,32.557056711256,-117.1327445020322,Tijuana Slough,2.6470588235294117,0.7958823529411765,1.0494117647058825,15,15,"CLEAR,CLEAR,MOSTLY_CLOUDY,NIGHT_OVERCAST,NIGHT_CLEAR,NIGHT_MOSTLY_CLOUDY,NIGHT_MOSTLY_CLOUDY,NIGHT_MOSTLY_CLOUDY,NIGHT_MOSTLY_CLOUDY,NIGHT_OVERCAST,MOSTLY_CLOUDY,CLEAR,MIST,MIST,DRIZZLE,DRIZZLE,CLEAR","Onshore,Onshore,Onshore,Onshore,Cross-shore,Cross-shore,Cross-shore,Cross-shore,Cross-shore,Cross-shore,Cross-shore,Cross-shore,Onshore,Onshore,Onshore,Onshore,Onshore",17
5842041f4e65fad6a77088cc,2024_01_25,32.863,-117.257,La Jolla Shores,3,0.98,1.1741176470588235,15,15,"CLEAR,CLEAR,CLEAR,NIGHT_CLOUDY,NIGHT_OVERCAST,NIGHT_MOSTLY_CLOUDY,NIGHT_CLOUDY,NIGHT_CLOUDY,NIGHT_CLOUDY,NIGHT_MIST,OVERCAST,MIST,MIST,LIGHT_RAIN,BRIEF_SHOWERS,BRIEF_SHOWERS,MIST","Cross-shore,Cross-shore,Cross-shore,Onshore,Cross-shore,Offshore,Offshore,Offshore,Offshore,Offshore,Offshore,Cross-shore,Offshore,Cross-shore,Onshore,Onshore,Cross-shore",17
5842041f4e65fad6a77088ce,2024_01_25,32.67443657790586,-117.17421316238693,Coronado Beach,2.7058823529411766,1.0011764705882353,1.2258823529411764,15,15,"CLEAR,CLEAR,MOSTLY_CLOUDY,NIGHT_OVERCAST,NIGHT_CLOUDY,NIGHT_MOSTLY_CLOUDY,NIGHT_MIST,NIGHT_FOG,NIGHT_MOSTLY_CLOUDY,NIGHT_OVERCAST,FOG,CLEAR,MIST,MIST,MIST,MIST,MOSTLY_CLOUDY","Onshore,Onshore,Onshore,Onshore,Onshore,Onshore,Onshore,Onshore,Onshore,Onshore,Onshore,Onshore,Onshore,Onshore,Onshore,Onshore,Onshore",17
5842041f4e65fad6a77088cf,2024_01_25,33.40484417640326,-117.60749,San Clemente State Beach,2.823529411764706,0.8935294117647059,1.1147058823529412,15,15,"MIST,MOSTLY_CLOUDY,MOSTLY_CLOUDY,NIGHT_MOSTLY_CLOUDY,NIGHT_FOG,NIGHT_MOSTLY_CLOUDY,NIGHT_MOSTLY_CLOUDY,NIGHT_MOSTLY_CLOUDY,NIGHT_FOG,NIGHT_FOG,FOG,MIST,MIST,MIST,MIST,MIST,MIST","Onshore,Onshore,Onshore,Cross-shore,Cross-shore,Cross-shore,Cross-shore,Cross-shore,Cross-shore,Cross-shore,Cross-shore,Onshore,Onshore,Onshore,Onshore,Onshore,Onshore",17
5842041f4e65fad6a77088d5,2024_01_25,33.4663042002114,-117.7168352817103,Strands,3.4705882352941178,1.1564254901960784,1.5650392156862745,14,14,"MIST,CLEAR,CLEAR,NIGHT_FOG,NIGHT_FOG,NIGHT_MOSTLY_CLOUDY,NIGHT_MOSTLY_CLOUDY,NIGHT_CLOUDY,NIGHT_FOG,NIGHT_FOG,FOG,MIST,MIST,BRIEF_SHOWERS,BRIEF_SHOWERS,MIST,MIST","Onshore,Onshore,Cross-shore,Cross-shore,Offshore,Offshore,Cross-shore,Cross-shore,Cross-shore,Cross-shore,Cross-shore,Onshore,Onshore,Onshore,Onshore,Onshore,Onshore",17
5842041f4e65fad6a77088d7,2024_01_25,33.4609858001748,-117.68535,Doheny State Beach,1.6564705882352941,0.10098039215686275,0.36552156862745094,14,14,"MIST,CLEAR,MOSTLY_CLOUDY,NIGHT_MIST,NIGHT_MIST,NIGHT_MOSTLY_CLOUDY,NIGHT_MOSTLY_CLOUDY,NIGHT_MOSTLY_CLOUDY,NIGHT_FOG,NIGHT_FOG,FOG,MIST,MIST,MIST,BRIEF_SHOWERS,MIST,MOSTLY_CLOUDY","Onshore,Onshore,Cross-shore,Offshore,Offshore,Offshore,Offshore,Offshore,Offshore,Offshore,Cross-shore,Onshore,Onshore,Cross-shore,Cross-shore,Onshore,Onshore",17
5842041f4e65fad6a77088dc,2024_01_25,33.50894790083017,-117.75243,Aliso Creek,2.823529411764706,0.6923529411764706,0.9735294117647059,15,15,"MIST,MIST,CLEAR,NIGHT_OVERCAST,NIGHT_DRIZZLE,NIGHT_MOSTLY_CLOUDY,NIGHT_MOSTLY_CLOUDY,NIGHT_CLOUDY,NIGHT_FOG,NIGHT_FOG,FOG,MIST,MIST,BRIEF_SHOWERS,MIST,MIST,MOSTLY_CLOUDY","Onshore,Onshore,Onshore,Cross-shore,Cross-shore,Cross-shore,Cross-shore,Cross-shore,Cross-shore,Cross-shore,Cross-shore,Onshore,Onshore,Onshore,Onshore,Onshore,Onshore",17
5842041f4e65fad6a77088dd,2024_01_25,33.5326591767067,-117.77764,Brooks Street,2.235294117647059,0.42176470588235293,0.7241176470588235,15,15,"MIST,MOSTLY_CLOUDY,CLEAR,NIGHT_OVERCAST,NIGHT_OVERCAST,NIGHT_CLOUDY,NIGHT_MOSTLY_CLOUDY,NIGHT_FOG,NIGHT_MIST,NIGHT_MIST,BRIEF_SHOWERS,MOSTLY_CLOUDY,MIST,SHOWERS,MIST,MIST,MOSTLY_CLOUDY","Onshore,Onshore,Onshore,Cross-shore,Onshore,Cross-shore,Cross-shore,Cross-shore,Cross-shore,Cross-shore,Cross-shore,Onshore,Onshore,Onshore,Onshore,Onshore,Onshore",17
5842041f4e65fad6a77088de,2024_01_25,33.53561225884637,-117.7799,Thalia Street,2.235294117647059,0.4541176470588235,0.7582352941176471,15,15,"MIST,MOSTLY_CLOUDY,CLEAR,NIGHT_OVERCAST,NIGHT_OVERCAST,NIGHT_CLOUDY,NIGHT_MOSTLY_CLOUDY,NIGHT_FOG,NIGHT_MIST,NIGHT_MIST,BRIEF_SHOWERS,MOSTLY_CLOUDY,MIST,SHOWERS,MIST,MIST,MOSTLY_CLOUDY","Onshore,Onshore,Onshore,Cross-shore,Onshore,Cross-shore,Cross-shore,Onshore,Cross-shore,Cross-shore,Cross-shore,Onshore,Onshore,Onshore,Onshore,Onshore,Onshore",17
5842041f4e65fad6a77088e3,2024_01_25,33.54268310353641,-117.7916,Rockpile,2.2941176470588234,0.5470588235294117,0.851764705882353,15,15,"MIST,MOSTLY_CLOUDY,CLEAR,NIGHT_OVERCAST,NIGHT_OVERCAST,NIGHT_CLOUDY,NIGHT_MOSTLY_CLOUDY,NIGHT_FOG,NIGHT_MIST,NIGHT_MIST,BRIEF_SHOWERS,MOSTLY_CLOUDY,MIST,SHOWERS,MIST,MIST,MOSTLY_CLOUDY","Onshore,Onshore,Onshore,Cross-shore,Onshore,Cross-shore,Cross-shore,Onshore,Cross-shore,Cross-shore,Cross-shore,Onshore,Onshore,Onshore,Onshore,Onshore,Cross-shore",17
5842041f4e65fad6a77088e4,2024_01_25,33.7368459504689,-118.10342,"Seal Beach Pier, Southside",1.9411764705882353,0.2411764705882353,0.5464705882352942,15,15,"CLEAR,CLEAR,CLEAR,NIGHT_OVERCAST,NIGHT_FOG,NIGHT_MIST,NIGHT_FOG,NIGHT_FOG,NIGHT_DRIZZLE,NIGHT_LIGHT_RAIN,DRIZZLE,BRIEF_SHOWERS,BRIEF_SHOWERS,CLEAR,CLEAR,MIST,CLEAR","Onshore,Onshore,Onshore,Offshore,Cross-shore,Cross-shore,Cross-shore,Cross-shore,Offshore,Offshore,Onshore,Offshore,Cross-shore,Onshore,Onshore,Onshore,Onshore",17
5842041f4e65fad6a77088e5,2024_01_25,33.73933701820233,-118.117,Ray Bay,1.9411764705882353,0.17,0.47294117647058825,15,15,"CLEAR,CLEAR,CLEAR,NIGHT_OVERCAST,NIGHT_FOG,NIGHT_FOG,NIGHT_FOG,NIGHT_FOG,NIGHT_FOG,NIGHT_LIGHT_RAIN_AND_FOG,FOG,MIST,LIGHT_RAIN,CLEAR,CLEAR,MOSTLY_CLEAR,CLEAR","Onshore,Onshore,Onshore,Offshore,Cross-shore,Cross-shore,Cross-shore,Offshore,Offshore,Offshore,Cross-shore,Offshore,Offshore,Onshore,Cross-shore,Onshore,Onshore",17
5842041f4e65fad6a77088e7,2024_01_25,33.728733,-118.08982,Surfside,2.764705882352941,0.831764705882353,1.0729411764705883,15,15,"MIST,CLEAR,CLEAR,NIGHT_OVERCAST,NIGHT_FOG,NIGHT_FOG,NIGHT_FOG,NIGHT_FOG,NIGHT_FOG,NIGHT_LIGHT_RAIN_AND_FOG,LIGHT_RAIN_AND_FOG,MIST,RAIN,CLEAR,CLEAR,MOSTLY_CLEAR,MIST","Onshore,Onshore,Onshore,Offshore,Cross-shore,Cross-shore,Onshore,Cross-shore,Offshore,Offshore,Cross-shore,Offshore,Cross-shore,Onshore,Cross-shore,Onshore,Onshore",17
5842041f4e65fad6a77088e8,2024_01_25,33.68760321488161,-118.04236,Bolsa Chica State Beach,2.5488235294117647,1.2333196078431372,1.6113843137254902,14,14,"CLEAR,CLEAR,CLEAR,NIGHT_OVERCAST,NIGHT_OVERCAST,NIGHT_MIST,NIGHT_MIST,NIGHT_MIST,NIGHT_FOG,NIGHT_FOG,FOG,MIST,LIGHT_RAIN,MIST,CLEAR,MOSTLY_CLEAR,CLEAR","Onshore,Onshore,Onshore,Onshore,Onshore,Cross-shore,Cross-shore,Cross-shore,Cross-shore,Cross-shore,Onshore,Onshore,Onshore,Onshore,Onshore,Onshore,Onshore",17
5842041f4e65fad6a77088ea,2024_01_25,33.66704400178788,-118.0192,North HB Streets,2.715294117647059,1.3135803921568627,1.6416274509803923,14,14,"MOSTLY_CLEAR,CLEAR,CLEAR,NIGHT_OVERCAST,NIGHT_OVERCAST,NIGHT_MIST,NIGHT_MIST,NIGHT_MIST,NIGHT_MIST,NIGHT_FOG,MIST,MIST,MIST,MIST,CLEAR,MIST,MIST","Onshore,Onshore,Onshore,Cross-shore,Onshore,Cross-shore,Cross-shore,Onshore,Cross-shore,Cross-shore,Onshore,Onshore,Onshore,Onshore,Cross-shore,Onshore,Onshore",17
5842041f4e65fad6a77088ed,2024_01_25,33.65475101379567,-118.00291,Huntington Beach Pier Southside,2.715294117647059,1.2287274509803923,1.6124764705882353,14,14,"CLEAR,CLEAR,CLEAR,NIGHT_OVERCAST,NIGHT_OVERCAST,NIGHT_MIST,NIGHT_MIST,NIGHT_MIST,NIGHT_FOG,NIGHT_FOG,FOG,MIST,MIST,SHOWERS,CLEAR,CLEAR,CLEAR","Cross-shore,Cross-shore,Cross-shore,Offshore,Offshore,Cross-shore,Cross-shore,Cross-shore,Cross-shore,Cross-shore,Cross-shore,Cross-shore,Cross-shore,Cross-shore,Cross-shore,Cross-shore,Onshore",17
5842041f4e65fad6a77088ee,2024_01_25,33.62778647706099,-117.95939,River Jetties,2.5005882352941176,1.0796470588235294,1.4282921568627451,15,15,"MOSTLY_CLOUDY,CLEAR,MOSTLY_CLOUDY,NIGHT_OVERCAST,NIGHT_OVERCAST,NIGHT_MIST,NIGHT_MIST,NIGHT_MIST,NIGHT_FOG,NIGHT_FOG,LIGHT_RAIN_AND_FOG,MOSTLY_CLOUDY,MIST,BRIEF_SHOWERS,CLEAR,CLEAR,MOSTLY_CLEAR","Cross-shore,Cross-shore,Cross-shore,Offshore,Cross-shore,Cross-shore,Cross-shore,Cross-shore,Offshore,Cross-shore,Cross-shore,Cross-shore,Cross-shore,Cross-shore,Cross-shore,Onshore,Onshore",17
5842041f4e65fad6a77088f2,2024_01_25,33.605165797643664,-117.92500376701355,Newport Point,2.1176470588235294,0.40294117647058825,0.7076470588235294,15,15,"MOSTLY_CLEAR,MOSTLY_CLOUDY,MOSTLY_CLOUDY,NIGHT_OVERCAST,NIGHT_FOG,NIGHT_MIST,NIGHT_CLOUDY,NIGHT_MIST,NIGHT_MIST,NIGHT_DRIZZLE,DRIZZLE,CLEAR,MIST,MIST,MIST,MIST,CLEAR","Onshore,Onshore,Onshore,Cross-shore,Onshore,Cross-shore,Cross-shore,Onshore,Cross-shore,Cross-shore,Onshore,Onshore,Onshore,Onshore,Onshore,Onshore,Cross-shore",17
5842041f4e65fad6a77088f3,2024_01_25,33.58982984726977,-117.87713,Corona del Mar,1,0.16427882352941175,0.2566864705882353,15,15,"MIST,MOSTLY_CLOUDY,MOSTLY_CLOUDY,NIGHT_OVERCAST,NIGHT_FOG,NIGHT_MOSTLY_CLOUDY,NIGHT_MOSTLY_CLOUDY,NIGHT_FOG,NIGHT_FOG,NIGHT_FOG,FOG,CLEAR,MIST,BRIEF_SHOWERS,MIST,MOSTLY_CLOUDY,MOSTLY_CLEAR","Cross-shore,Onshore,Cross-shore,Cross-shore,Offshore,Offshore,Offshore,Cross-shore,Offshore,Cross-shore,Cross-shore,Cross-shore,Cross-shore,Cross-shore,Cross-shore,Cross-shore,Onshore",17
5842041f4e65fad6a77088f7,2024_01_25,34.00750300824362,-118.4971783496269,Santa Monica Pier,1.8235294117647058,0.2647058823529412,0.5694117647058824,15,15,"CLEAR,MOSTLY_CLOUDY,MOSTLY_CLEAR,NIGHT_FOG,NIGHT_FOG,NIGHT_MIST,NIGHT_FOG,NIGHT_FOG,NIGHT_FOG,NIGHT_FOG,FOG,MOSTLY_CLOUDY,MOSTLY_CLOUDY,CLEAR,CLEAR,CLEAR,CLEAR","Onshore,Onshore,Onshore,Onshore,Onshore,Onshore,Onshore,Onshore,Onshore,Onshore,Onshore,Onshore,Offshore,Onshore,Onshore,Onshore,Onshore",17
5842041f4e65fad6a77088ff,2024_01_25,33.94070283102945,-118.44321,Dockweiler Beach,2.9311764705882353,1.1290938725490196,1.3977183333333334,15,15,"MIST,MIST,MOSTLY_CLEAR,NIGHT_CLOUDY,NIGHT_MIST,NIGHT_CLOUDY,NIGHT_CLEAR,NIGHT_FOG,NIGHT_MIST,NIGHT_MIST,OVERCAST,MIST,MIST,MOSTLY_CLEAR,MIST,MIST,MIST","Onshore,Onshore,Onshore,Onshore,Onshore,Cross-shore,Onshore,Onshore,Onshore,Onshore,Onshore,Cross-shore,Cross-shore,Onshore,Onshore,Onshore,Onshore",17
5842041f4e65fad6a7708900,2024_01_25,33.9231846937237,-118.4341465777908,Shitpipe,2.9311764705882353,1.0787627450980393,1.4051274509803922,15,15,"MOSTLY_CLOUDY,MOSTLY_CLOUDY,MOSTLY_CLEAR,NIGHT_CLOUDY,NIGHT_MIST,NIGHT_MIST,NIGHT_MIST,NIGHT_MIST,NIGHT_MIST,NIGHT_DRIZZLE,OVERCAST,LIGHT_RAIN,CLOUDY,MOSTLY_CLEAR,MIST,MIST,MIST","Onshore,Onshore,Onshore,Onshore,Onshore,Cross-shore,Onshore,Onshore,Onshore,Onshore,Onshore,Cross-shore,Cross-shore,Onshore,Onshore,Onshore,Onshore",17
5842041f4e65fad6a7708902,2024_01_25,33.9108528052242,-118.4279133138721,Hammerland,2.8723529411764708,1.2232196078431372,1.5823450980392157,15,15,"MOSTLY_CLOUDY,MOSTLY_CLOUDY,MOSTLY_CLEAR,NIGHT_CLOUDY,NIGHT_MIST,NIGHT_MIST,NIGHT_MIST,NIGHT_MIST,NIGHT_MIST,NIGHT_DRIZZLE,OVERCAST,LIGHT_RAIN,CLOUDY,MOSTLY_CLEAR,MIST,MIST,MIST","Onshore,Onshore,Onshore,Onshore,Onshore,Cross-shore,Onshore,Onshore,Onshore,Onshore,Onshore,Cross-shore,Cross-shore,Onshore,Onshore,Onshore,Onshore",17
5842041f4e65fad6a7708904,2024_01_25,33.87201368173932,-118.4075151286262,Hermosa Beach,2.9211764705882355,0.9414588235294118,1.26081568627451,15,15,"MIST,MOSTLY_CLOUDY,CLEAR,NIGHT_CLOUDY,NIGHT_MIST,NIGHT_MIST,NIGHT_MIST,NIGHT_MIST,NIGHT_LIGHT_RAIN,NIGHT_MIST,MIST,LIGHT_RAIN,CLOUDY,CLEAR,MIST,MIST,MIST","Onshore,Cross-shore,Onshore,Onshore,Cross-shore,Cross-shore,Cross-shore,Onshore,Onshore,Onshore,Onshore,Onshore,Cross-shore,Onshore,Onshore,Onshore,Onshore",17
5842041f4e65fad6a7708906,2024_01_25,33.90129336911256,-118.42184,El Porto,2.9211764705882355,1.4492490196078431,1.841119607843137,15,15,"MOSTLY_CLOUDY,MOSTLY_CLOUDY,CLEAR,NIGHT_CLOUDY,NIGHT_MIST,NIGHT_MIST,NIGHT_MIST,NIGHT_DRIZZLE,NIGHT_DRIZZLE,NIGHT_MIST,OVERCAST,RAIN,MIST,MOSTLY_CLEAR,MIST,MIST,MIST","Onshore,Cross-shore,Onshore,Onshore,Cross-shore,Cross-shore,Cross-shore,Onshore,Onshore,Onshore,Onshore,Cross-shore,Cross-shore,Onshore,Onshore,Onshore,Onshore",17
5842041f4e65fad6a7708907,2024_01_25,33.87963506431794,-118.41102,Manhattan Beach Pier,2.9211764705882355,1.217929411764706,1.6532156862745098,15,15,"MOSTLY_CLOUDY,MOSTLY_CLOUDY,CLEAR,NIGHT_CLOUDY,NIGHT_MIST,NIGHT_MIST,NIGHT_MIST,NIGHT_DRIZZLE,NIGHT_DRIZZLE,NIGHT_MIST,OVERCAST,RAIN,MIST,MOSTLY_CLEAR,MIST,MIST,MIST","Onshore,Cross-shore,Onshore,Onshore,Cross-shore,Offshore,Cross-shore,Onshore,Onshore,Onshore,Onshore,Cross-shore,Cross-shore,Onshore,Onshore,Onshore,Onshore",17
5842041f4e65fad6a7708914,2024_01_25,34.038053387863464,-118.5532,Sunset Point,2,0.2076470588235294,0.5117647058823529,15,15,"MOSTLY_CLOUDY,MIST,MIST,NIGHT_FOG,NIGHT_FOG,NIGHT_MIST,NIGHT_MIST,NIGHT_FOG,NIGHT_FOG,NIGHT_MIST,MIST,MIST,MOSTLY_CLOUDY,CLEAR,CLEAR,CLEAR,MIST","Onshore,Onshore,Onshore,Cross-shore,Offshore,Offshore,Cross-shore,Offshore,Cross-shore,Offshore,Onshore,Offshore,Onshore,Onshore,Onshore,Cross-shore,Onshore",17
5842041f4e65fad6a7708920,2024_01_25,33.80930828074364,-118.3933198342649,Haggerty's,2.176470588235294,0.4334117647058824,0.5971764705882353,15,15,"MOSTLY_CLOUDY,MOSTLY_CLOUDY,MOSTLY_CLEAR,NIGHT_CLOUDY,NIGHT_OVERCAST,NIGHT_OVERCAST,NIGHT_CLOUDY,NIGHT_MIST,NIGHT_DRIZZLE,NIGHT_MIST,FOG,RAIN,MIST,MIST,MIST,MIST,MIST","Onshore,Offshore,Onshore,Cross-shore,Offshore,Offshore,Offshore,Cross-shore,Cross-shore,Onshore,Cross-shore,Onshore,Onshore,Onshore,Onshore,Onshore,Onshore",17
5842041f4e65fad6a7708921,2024_01_25,33.85044519861206,-118.40048,Redondo Breakwater,3.411764705882353,1.2523529411764707,1.5141176470588236,15,15,"MIST,MOSTLY_CLOUDY,CLEAR,NIGHT_CLOUDY,NIGHT_MIST,NIGHT_MIST,NIGHT_MIST,NIGHT_MIST,NIGHT_LIGHT_RAIN,NIGHT_MIST,MIST,LIGHT_RAIN,CLOUDY,CLEAR,MIST,MIST,MIST","Onshore,Cross-shore,Onshore,Onshore,Cross-shore,Cross-shore,Cross-shore,Onshore,Onshore,Onshore,Onshore,Onshore,Cross-shore,Onshore,Onshore,Onshore,Onshore",17
5842041f4e65fad6a7708927,2024_01_25,33.70877301002487,-118.2840112858389,Cabrillo Beach,2,0.20470588235294118,0.5105882352941177,15,15,"MOSTLY_CLOUDY,MOSTLY_CLOUDY,MIST,NIGHT_FOG,NIGHT_LIGHT_RAIN_AND_FOG,NIGHT_FOG,NIGHT_FOG,NIGHT_LIGHT_RAIN_AND_FOG,NIGHT_LIGHT_RAIN_AND_FOG,NIGHT_FOG,FOG,LIGHT_RAIN,BRIEF_SHOWERS,MOSTLY_CLEAR,CLEAR,CLEAR,MOSTLY_CLOUDY","Onshore,Onshore,Onshore,Offshore,Onshore,Onshore,Onshore,Onshore,Onshore,Onshore,Cross-shore,Cross-shore,Offshore,Offshore,Cross-shore,Cross-shore,Offshore",17
5842041f4e65fad6a770892c,2024_01_25,33.77209986806257,-118.4268428476672,Lunada Bay,3,1.7541176470588236,2.063529411764706,15,15,"MOSTLY_CLOUDY,CLEAR,CLEAR,NIGHT_CLOUDY,NIGHT_FOG,NIGHT_MIST,NIGHT_MIST,NIGHT_MIST,NIGHT_DRIZZLE,NIGHT_OVERCAST,MIST,DRIZZLE,LIGHT_RAIN,MIST,CLEAR,MIST,MIST","Cross-shore,Offshore,Onshore,Onshore,Onshore,Cross-shore,Onshore,Onshore,Onshore,Onshore,Onshore,Onshore,Cross-shore,Offshore,Onshore,Onshore,Onshore",17
5842041f4e65fad6a770892d,2024_01_25,33.79294656286144,-118.4070316699825,PV Cove,2.9411764705882355,0.9860076470588235,1.2345082352941177,15,15,"MOSTLY_CLOUDY,MOSTLY_CLOUDY,MOSTLY_CLEAR,NIGHT_CLOUDY,NIGHT_OVERCAST,NIGHT_OVERCAST,NIGHT_CLOUDY,NIGHT_MIST,NIGHT_DRIZZLE,NIGHT_MIST,FOG,RAIN,MIST,MIST,MIST,MIST,MIST","Onshore,Offshore,Onshore,Cross-shore,Offshore,Offshore,Offshore,Cross-shore,Cross-shore,Onshore,Cross-shore,Onshore,Onshore,Onshore,Onshore,Onshore,Onshore",17
5842041f4e65fad6a7708930,2024_01_25,34.03944902292561,-118.57539,Chart House,1.8235294117647058,0.05176470588235294,0.35470588235294115,15,15,"MIST,MIST,MIST,NIGHT_FOG,NIGHT_FOG,NIGHT_LIGHT_RAIN_AND_FOG,NIGHT_FOG,NIGHT_FOG,NIGHT_FOG,NIGHT_FOG,FOG,MIST,MOSTLY_CLOUDY,CLEAR,CLEAR,CLEAR,MIST","Cross-shore,Cross-shore,Cross-shore,Cross-shore,Offshore,Offshore,Cross-shore,Offshore,Cross-shore,Offshore,Onshore,Offshore,Onshore,Onshore,Onshore,Cross-shore,Cross-shore",17
5842041f4e65fad6a7708936,2024_01_25,34.0016731994772,-118.80456,Point Dume,1.7547058823529411,0.2362745098039216,0.5380470588235294,15,15,"MIST,MIST,MIST,NIGHT_MIST,NIGHT_MIST,NIGHT_OVERCAST,NIGHT_MIST,NIGHT_MOSTLY_CLOUDY,NIGHT_MIST,NIGHT_MIST,BRIEF_SHOWERS,LIGHT_RAIN,DRIZZLE,MOSTLY_CLEAR,CLEAR,CLEAR,MIST","Onshore,Onshore,Onshore,Cross-shore,Cross-shore,Onshore,Onshore,Cross-shore,Cross-shore,Cross-shore,Cross-shore,Offshore,Offshore,Onshore,Cross-shore,Cross-shore,Cross-shore",17
5842041f4e65fad6a7708937,2024_01_25,34.02587527588963,-118.7554939066114,Latigo Point,1.8823529411764706,0.15235294117647058,0.4576470588235294,15,15,"MOSTLY_CLOUDY,MOSTLY_CLOUDY,MOSTLY_CLOUDY,NIGHT_MOSTLY_CLOUDY,NIGHT_FOG,NIGHT_MIST,NIGHT_MIST,NIGHT_MIST,NIGHT_MIST,NIGHT_MIST,MOSTLY_CLOUDY,MIST,BRIEF_SHOWERS,CLEAR,MIST,MIST,MIST","Onshore,Onshore,Onshore,Cross-shore,Cross-shore,Onshore,Onshore,Onshore,Cross-shore,Cross-shore,Cross-shore,Offshore,Offshore,Offshore,Cross-shore,Cross-shore,Cross-shore",17
5842041f4e65fad6a770893f,2024_01_25,34.043762,-118.93294,Leo Carrillo,2.598235294117647,0.5749156862745098,0.8804627450980392,15,15,"MOSTLY_CLOUDY,MIST,MIST,NIGHT_MIST,NIGHT_MIST,NIGHT_FOG,NIGHT_MIST,NIGHT_MIST,NIGHT_DRIZZLE,NIGHT_BRIEF_SHOWERS,MIST,LIGHT_RAIN,MIST,CLEAR,CLEAR,MIST,MIST","Onshore,Onshore,Cross-shore,Offshore,Offshore,Offshore,Offshore,Offshore,Offshore,Offshore,Offshore,Cross-shore,Cross-shore,Onshore,Cross-shore,Cross-shore,Cross-shore",17
5842041f4e65fad6a7708941,2024_01_25,36.69388179265737,-121.81289,Marina State Beach,2.9411764705882355,1.9970588235294118,2.354705882352941,13,13,"MIST,BRIEF_SHOWERS,DRIZZLE,NIGHT_FOG,NIGHT_FOG,NIGHT_LIGHT_RAIN_AND_FOG,NIGHT_MOSTLY_CLOUDY,NIGHT_MIST,NIGHT_MIST,NIGHT_MOSTLY_CLEAR,NIGHT_MOSTLY_CLEAR,MOSTLY_CLEAR,MOSTLY_CLEAR,MOSTLY_CLOUDY,MOSTLY_CLOUDY,CLEAR,CLEAR","Offshore,Offshore,Onshore,Cross-shore,Onshore,Onshore,Onshore,Onshore,Onshore,Onshore,Onshore,Onshore,Onshore,Onshore,Onshore,Onshore,Onshore",17
5842041f4e65fad6a7708944,2024_01_25,34.34145077331085,-119.416999352654,Stanley's,3,0.4676470588235294,0.7694117647058824,14.588235294117647,14.588235294117647,"MIST,MIST,MIST,NIGHT_FOG,NIGHT_FOG,NIGHT_FOG,NIGHT_FOG,NIGHT_FOG,NIGHT_FOG,NIGHT_FOG,FOG,MIST,MIST,BRIEF_SHOWERS,BRIEF_SHOWERS,MOSTLY_CLEAR,MIST","Onshore,Onshore,Onshore,Onshore,Onshore,Onshore,Onshore,Onshore,Onshore,Onshore,Onshore,Onshore,Onshore,Cross-shore,Onshore,Onshore,Cross-shore",17
5842041f4e65fad6a7708945,2024_01_25,34.35113017313915,-119.426921498899,Oil Piers,2.823529411764706,0.5435294117647059,0.85,14.588235294117647,14.588235294117647,"MIST,MIST,MIST,NIGHT_FOG,NIGHT_FOG,NIGHT_FOG,NIGHT_FOG,NIGHT_FOG,NIGHT_FOG,NIGHT_FOG,FOG,MIST,MIST,BRIEF_SHOWERS,BRIEF_SHOWERS,MOSTLY_CLEAR,MIST","Onshore,Onshore,Onshore,Onshore,Onshore,Onshore,Onshore,Onshore,Onshore,Onshore,Onshore,Onshore,Onshore,Onshore,Onshore,Onshore,Onshore",17
5842041f4e65fad6a770894c,2024_01_25,34.17876333306018,-119.2399483564372,Oxnard,3,0.9552941176470588,1.1723529411764706,14.588235294117647,14.588235294117647,"MOSTLY_CLOUDY,MOSTLY_CLOUDY,MOSTLY_CLOUDY,NIGHT_FOG,NIGHT_FOG,NIGHT_FOG,NIGHT_FOG,NIGHT_FOG,NIGHT_MIST,NIGHT_FOG,FOG,MIST,MIST,MOSTLY_CLOUDY,MOSTLY_CLOUDY,MOSTLY_CLEAR,CLEAR","Onshore,Onshore,Onshore,Onshore,Onshore,Onshore,Onshore,Onshore,Onshore,Onshore,Onshore,Onshore,Cross-shore,Onshore,Onshore,Onshore,Onshore",17
5842041f4e65fad6a7708957,2024_01_25,34.31720331100517,-119.3882324751725,Pitas Point,3,0.5852941176470589,0.8894117647058823,14.588235294117647,14.588235294117647,"CLEAR,MOSTLY_CLOUDY,MIST,NIGHT_MIST,NIGHT_MIST,NIGHT_MIST,NIGHT_MIST,NIGHT_MIST,NIGHT_MIST,NIGHT_MIST,MIST,MIST,MIST,MIST,MIST,MIST,MIST","Onshore,Cross-shore,Cross-shore,Offshore,Offshore,Offshore,Offshore,Offshore,Offshore,Offshore,Offshore,Offshore,Cross-shore,Onshore,Onshore,Onshore,Onshore",17
5842041f4e65fad6a7708959,2024_01_25,34.27851754384724,-119.316202617226,Emma Wood,2.9411764705882355,0.4582352941176471,0.7658823529411765,14.588235294117647,14.588235294117647,"CLEAR,MOSTLY_CLEAR,MIST,NIGHT_MIST,NIGHT_MIST,NIGHT_MIST,NIGHT_MIST,NIGHT_MIST,NIGHT_MIST,NIGHT_MIST,MIST,MIST,MIST,MIST,MIST,CLEAR,MIST","Offshore,Onshore,Onshore,Onshore,Offshore,Offshore,Offshore,Offshore,Offshore,Offshore,Offshore,Offshore,Offshore,Cross-shore,Onshore,Onshore,Cross-shore",17
5842041f4e65fad6a770895a,2024_01_25,34.35513640390276,-119.4400589884255,Mussel Shoals (aka Little Rincon),3,0.9005882352941177,1.1194117647058823,14.588235294117647,14.588235294117647,"MOSTLY_CLOUDY,MIST,MIST,NIGHT_MIST,NIGHT_MIST,NIGHT_MIST,NIGHT_BRIEF_SHOWERS,NIGHT_MIST,NIGHT_MIST,NIGHT_MIST,MIST,MIST,MIST,MIST,MIST,MIST,BRIEF_SHOWERS","Onshore,Onshore,Onshore,Onshore,Onshore,Onshore,Onshore,Cross-shore,Onshore,Onshore,Onshore,Onshore,Onshore,Onshore,Onshore,Onshore,Onshore",17
5842041f4e65fad6a770895e,2024_01_25,34.28991757054902,-119.3366646794652,Summer Beach,2.2941176470588234,0.2735294117647059,0.5811764705882353,14.588235294117647,14.588235294117647,"CLEAR,MOSTLY_CLEAR,MIST,NIGHT_MIST,NIGHT_MIST,NIGHT_MIST,NIGHT_MIST,NIGHT_MIST,NIGHT_MIST,NIGHT_MIST,MIST,MIST,MIST,MIST,MIST,CLEAR,MIST","Offshore,Onshore,Onshore,Offshore,Cross-shore,Offshore,Cross-shore,Cross-shore,Cross-shore,Cross-shore,Cross-shore,Offshore,Offshore,Offshore,Onshore,Onshore,Onshore",17
5842041f4e65fad6a770895f,2024_01_25,34.30897456105926,-119.3582501170116,Solimar,2.5294117647058822,0.31176470588235294,0.6170588235294118,14.588235294117647,14.588235294117647,"CLEAR,MOSTLY_CLOUDY,MIST,NIGHT_MIST,NIGHT_MIST,NIGHT_MIST,NIGHT_MIST,NIGHT_MIST,NIGHT_MIST,NIGHT_MIST,MIST,MIST,MIST,MIST,MIST,MIST,MIST","Onshore,Cross-shore,Cross-shore,Cross-shore,Offshore,Offshore,Cross-shore,Offshore,Offshore,Offshore,Offshore,Offshore,Cross-shore,Offshore,Onshore,Onshore,Onshore",17
5842041f4e65fad6a7708960,2024_01_25,34.39836265281686,-119.70213,Leadbetter Point,2,0.08588235294117647,0.3911764705882353,14.588235294117647,14.588235294117647,"CLEAR,MOSTLY_CLEAR,MOSTLY_CLEAR,NIGHT_FOG,NIGHT_FOG,NIGHT_FOG,NIGHT_FOG,NIGHT_FOG,NIGHT_FOG,NIGHT_MIST,NIGHT_MIST,MIST,MOSTLY_CLEAR,CLEAR,CLEAR,CLEAR,CLEAR","Cross-shore,Offshore,Cross-shore,Offshore,Onshore,Offshore,Offshore,Offshore,Offshore,Offshore,Offshore,Offshore,Offshore,Onshore,Onshore,Onshore,Onshore",17
5842041f4e65fad6a7708961,2024_01_25,34.46052293893899,-120.07328,Refugio,1.588235294117647,0.05529411764705883,0.36,14,14,"CLEAR,CLEAR,CLEAR,NIGHT_FOG,NIGHT_FOG,NIGHT_FOG,NIGHT_FOG,NIGHT_CLEAR,NIGHT_CLEAR,NIGHT_CLEAR,NIGHT_CLEAR,CLEAR,CLEAR,CLEAR,CLEAR,CLEAR,CLEAR","Offshore,Offshore,Offshore,Offshore,Offshore,Offshore,Offshore,Offshore,Offshore,Offshore,Offshore,Offshore,Offshore,Offshore,Offshore,Offshore,Offshore",17
5842041f4e65fad6a7708962,2024_01_25,34.40754276777778,-119.87639,Devereux,2.6470588235294117,0.5294117647058824,0.8335294117647059,14,14,"MIST,MIST,MIST,NIGHT_MIST,NIGHT_MIST,NIGHT_MIST,NIGHT_MIST,NIGHT_MIST,NIGHT_MIST,NIGHT_CLEAR,NIGHT_CLEAR,MIST,CLEAR,CLEAR,CLEAR,CLEAR,CLEAR","Cross-shore,Cross-shore,Cross-shore,Cross-shore,Cross-shore,Cross-shore,Cross-shore,Cross-shore,Cross-shore,Cross-shore,Offshore,Cross-shore,Offshore,Offshore,Cross-shore,Onshore,Cross-shore",17
5842041f4e65fad6a7708963,2024_01_25,34.27479983305182,-119.3133222656776,Ventura Overhead,2.9411764705882355,0.5458823529411765,0.8482352941176471,14.588235294117647,14.588235294117647,"MOSTLY_CLEAR,MIST,MIST,NIGHT_MIST,NIGHT_MIST,NIGHT_MIST,NIGHT_MIST,NIGHT_MIST,NIGHT_MIST,NIGHT_MIST,DRIZZLE,MIST,MIST,MIST,MIST,MIST,MIST","Offshore,Onshore,Onshore,Onshore,Cross-shore,Offshore,Cross-shore,Offshore,Cross-shore,Cross-shore,Cross-shore,Cross-shore,Cross-shore,Offshore,Cross-shore,Onshore,Onshore",17
5842041f4e65fad6a7708964,2024_01_25,34.41023236011655,-119.88261,Sands,3,0.67,0.9452941176470588,14,14,"MIST,MIST,MIST,NIGHT_MIST,NIGHT_MIST,NIGHT_MIST,NIGHT_MIST,NIGHT_MIST,NIGHT_MIST,NIGHT_CLEAR,NIGHT_CLEAR,MIST,CLEAR,CLEAR,CLEAR,CLEAR,CLEAR","Onshore,Onshore,Onshore,Onshore,Onshore,Onshore,Onshore,Onshore,Onshore,Onshore,Onshore,Onshore,Onshore,Onshore,Onshore,Onshore,Onshore",17
5842041f4e65fad6a7708966,2024_01_25,34.40450193869233,-119.68752,Sandspit,1,0,0.26941176470588235,14.588235294117647,14.588235294117647,"CLEAR,CLEAR,MIST,NIGHT_FOG,NIGHT_FOG,NIGHT_FOG,NIGHT_FOG,NIGHT_FOG,NIGHT_FOG,NIGHT_MIST,NIGHT_MIST,MOSTLY_CLOUDY,MOSTLY_CLEAR,CLEAR,CLEAR,CLEAR,CLEAR","Onshore,Offshore,Cross-shore,Offshore,Onshore,Offshore,Offshore,Offshore,Offshore,Offshore,Offshore,Offshore,Cross-shore,Onshore,Onshore,Onshore,Onshore",17
5842041f4e65fad6a7708967,2024_01_25,34.41549098334453,-119.6375149840203,Hammond's,2,0.2111764705882353,0.5141176470588236,14.588235294117647,14.588235294117647,"CLEAR,CLEAR,CLEAR,NIGHT_FOG,NIGHT_FOG,NIGHT_FOG,NIGHT_FOG,NIGHT_FOG,NIGHT_MIST,NIGHT_MIST,MOSTLY_CLEAR,MIST,CLEAR,MOSTLY_CLEAR,MOSTLY_CLEAR,MOSTLY_CLEAR,BRIEF_SHOWERS_POSSIBLE","Cross-shore,Cross-shore,Cross-shore,Onshore,Onshore,Cross-shore,Cross-shore,Cross-shore,Offshore,Offshore,Offshore,Offshore,Offshore,Onshore,Onshore,Onshore,Onshore",17
5842041f4e65fad6a7708968,2024_01_25,34.45759322742309,-120.0220251867315,El Capitan,1.7058823529411764,0.15058823529411763,0.45529411764705885,14,14,"CLEAR,CLEAR,CLEAR,NIGHT_FOG,NIGHT_FOG,NIGHT_FOG,NIGHT_FOG,NIGHT_FOG,NIGHT_CLEAR,NIGHT_CLEAR,NIGHT_CLEAR,CLEAR,CLEAR,CLEAR,CLEAR,CLEAR,CLEAR","Offshore,Offshore,Offshore,Cross-shore,Cross-shore,Offshore,Cross-shore,Offshore,Offshore,Offshore,Offshore,Offshore,Offshore,Offshore,Offshore,Offshore,Offshore",17
5842041f4e65fad6a770896c,2024_01_25,34.405117655616,-119.84317,Campus Point,2,0.24000000000000002,0.5464705882352942,14.588235294117647,14.588235294117647,"CLEAR,MOSTLY_CLOUDY,CLEAR,NIGHT_FOG,NIGHT_FOG,NIGHT_FOG,NIGHT_FOG,NIGHT_FOG,NIGHT_FOG,NIGHT_MIST,NIGHT_MIST,MOSTLY_CLEAR,CLEAR,CLEAR,CLEAR,CLEAR,CLEAR","Cross-shore,Cross-shore,Cross-shore,Onshore,Cross-shore,Cross-shore,Cross-shore,Cross-shore,Offshore,Offshore,Offshore,Cross-shore,Offshore,Offshore,Onshore,Onshore,Onshore",17
5842041f4e65fad6a770896e,2024_01_25,34.38935162233354,-119.51955,Carpinteria State Beach,2.823529411764706,0.4970588235294118,0.7870588235294118,14.588235294117647,14.588235294117647,"MOSTLY_CLEAR,MOSTLY_CLEAR,MOSTLY_CLEAR,NIGHT_MIST,NIGHT_MIST,NIGHT_MIST,NIGHT_BRIEF_SHOWERS,NIGHT_BRIEF_SHOWERS,NIGHT_MIST,NIGHT_MIST,MIST,MOSTLY_CLOUDY,CLEAR,MOSTLY_CLEAR,CLEAR,CLEAR,CLEAR","Cross-shore,Onshore,Onshore,Offshore,Onshore,Onshore,Onshore,Onshore,Onshore,Onshore,Onshore,Offshore,Onshore,Onshore,Onshore,Onshore,Onshore",17
5842041f4e65fad6a770896f,2024_01_25,37.48296565175612,-122.4549300127824,Half Moon Bay,2.6470588235294117,1.7070588235294117,1.998235294117647,12.588235294117647,12.588235294117647,"BRIEF_SHOWERS,BRIEF_SHOWERS,BRIEF_SHOWERS,NIGHT_MOSTLY_CLOUDY,NIGHT_MIST,NIGHT_MIST,NIGHT_MIST,NIGHT_BRIEF_SHOWERS,NIGHT_CLEAR,NIGHT_MOSTLY_CLOUDY,NIGHT_CLEAR,MOSTLY_CLOUDY,CLEAR,MOSTLY_CLOUDY,MOSTLY_CLOUDY,MOSTLY_CLOUDY,CLEAR","Onshore,Onshore,Onshore,Cross-shore,Cross-shore,Onshore,Onshore,Onshore,Cross-shore,Cross-shore,Cross-shore,Onshore,Cross-shore,Onshore,Onshore,Onshore,Cross-shore",17
5842041f4e65fad6a7708970,2024_01_25,37.499,-122.471,Princeton Jetty,2.6470588235294117,1.5811764705882354,1.8811764705882352,12.588235294117647,12.588235294117647,"SHOWERS,SHOWERS,BRIEF_SHOWERS,NIGHT_CLEAR,NIGHT_MIST,NIGHT_MIST,NIGHT_MIST,NIGHT_BRIEF_SHOWERS,NIGHT_CLEAR,NIGHT_MOSTLY_CLOUDY,NIGHT_SHOWERS,MOSTLY_CLOUDY,MOSTLY_CLOUDY,BRIEF_SHOWERS,MOSTLY_CLOUDY,BRIEF_SHOWERS,MOSTLY_CLOUDY","Onshore,Onshore,Onshore,Cross-shore,Cross-shore,Cross-shore,Cross-shore,Cross-shore,Offshore,Offshore,Cross-shore,Cross-shore,Cross-shore,Onshore,Cross-shore,Cross-shore,Cross-shore",17
5842041f4e65fad6a7708972,2024_01_25,37.35699547365155,-122.4069534707252,Tunitas Creek,2.3529411764705883,2.426470588235294,2.8517647058823528,12.588235294117647,12.588235294117647,"BRIEF_SHOWERS,BRIEF_SHOWERS,BRIEF_SHOWERS,NIGHT_MIST,NIGHT_MIST,NIGHT_MIST,NIGHT_MIST,NIGHT_FOG,NIGHT_MOSTLY_CLOUDY,NIGHT_CLEAR,NIGHT_MOSTLY_CLOUDY,CLEAR,MOSTLY_CLOUDY,MOSTLY_CLOUDY,MOSTLY_CLOUDY,MOSTLY_CLOUDY,CLEAR","Onshore,Onshore,Onshore,Cross-shore,Cross-shore,Cross-shore,Cross-shore,Cross-shore,Cross-shore,Cross-shore,Cross-shore,Offshore,Cross-shore,Cross-shore,Cross-shore,Cross-shore,Cross-shore",17
5842041f4e65fad6a7708974,2024_01_25,37.54735589428842,-122.5161090212687,Montara,2.3529411764705883,2.052941176470588,2.411764705882353,12.588235294117647,12.588235294117647,"LIGHT_RAIN,BRIEF_SHOWERS,BRIEF_SHOWERS,NIGHT_MIST,NIGHT_LIGHT_RAIN,NIGHT_LIGHT_RAIN,NIGHT_MIST,NIGHT_MIST,NIGHT_MOSTLY_CLOUDY,NIGHT_BRIEF_SHOWERS,NIGHT_CLEAR,MOSTLY_CLOUDY,MOSTLY_CLOUDY,BRIEF_SHOWERS,DRIZZLE,BRIEF_SHOWERS,BRIEF_SHOWERS","Offshore,Cross-shore,Cross-shore,Onshore,Onshore,Onshore,Onshore,Onshore,Onshore,Onshore,Onshore,Onshore,Onshore,Onshore,Onshore,Onshore,Onshore",17
5842041f4e65fad6a7708975,2024_01_25,34.3869373724559,-119.5142334209018,Tarpits,3,0.508235294117647,0.8123529411764706,14.588235294117647,14.588235294117647,"MOSTLY_CLEAR,MIST,MIST,NIGHT_FOG,NIGHT_FOG,NIGHT_FOG,NIGHT_FOG,NIGHT_FOG,NIGHT_FOG,NIGHT_FOG,MIST,MIST,MOSTLY_CLOUDY,MOSTLY_CLEAR,MOSTLY_CLEAR,MOSTLY_CLEAR,MOSTLY_CLEAR","Onshore,Cross-shore,Cross-shore,Cross-shore,Onshore,Onshore,Onshore,Offshore,Onshore,Cross-shore,Cross-shore,Offshore,Cross-shore,Onshore,Onshore,Onshore,Onshore",17
5842041f4e65fad6a7708976,2024_01_25,37.59881852720143,-122.50463,Pacifica / Linda Mar,2.4805882352941175,0.5885274509803922,0.9123313725490196,14,14,"OVERCAST,MOSTLY_CLOUDY,BRIEF_SHOWERS,NIGHT_BRIEF_SHOWERS,NIGHT_BRIEF_SHOWERS,NIGHT_DRIZZLE,NIGHT_BRIEF_SHOWERS,NIGHT_CLEAR,NIGHT_MOSTLY_CLOUDY,NIGHT_BRIEF_SHOWERS,NIGHT_MOSTLY_CLEAR,MOSTLY_CLOUDY,BRIEF_SHOWERS,BRIEF_SHOWERS,BRIEF_SHOWERS,MIST,BRIEF_SHOWERS","Cross-shore,Cross-shore,Cross-shore,Onshore,Onshore,Onshore,Onshore,Onshore,Onshore,Onshore,Onshore,Onshore,Onshore,Onshore,Onshore,Onshore,Onshore",17
5842041f4e65fad6a7708978,2024_01_25,37.59883098461164,-122.5143843582282,Pedro Point,2.823529411764706,1.8552941176470588,2.1958823529411764,12.588235294117647,12.588235294117647,"DRIZZLE,BRIEF_SHOWERS,BRIEF_SHOWERS,NIGHT_BRIEF_SHOWERS,NIGHT_CLOUDY,NIGHT_CLOUDY,NIGHT_MOSTLY_CLOUDY,NIGHT_CLEAR,NIGHT_MOSTLY_CLOUDY,NIGHT_MOSTLY_CLOUDY,NIGHT_CLEAR,CLEAR,MOSTLY_CLOUDY,CLOUDY,MOSTLY_CLOUDY,MOSTLY_CLOUDY,MOSTLY_CLEAR","Offshore,Offshore,Cross-shore,Onshore,Onshore,Onshore,Onshore,Onshore,Onshore,Onshore,Onshore,Onshore,Onshore,Onshore,Onshore,Onshore,Onshore",17
5842041f4e65fad6a7708979,2024_01_25,37.61081996647663,-122.4973287570634,Rockaway,2.1176470588235294,1.9441176470588235,2.2888235294117645,12.588235294117647,12.588235294117647,"OVERCAST,MOSTLY_CLOUDY,BRIEF_SHOWERS,NIGHT_BRIEF_SHOWERS,NIGHT_BRIEF_SHOWERS,NIGHT_DRIZZLE,NIGHT_BRIEF_SHOWERS,NIGHT_CLEAR,NIGHT_MOSTLY_CLOUDY,NIGHT_BRIEF_SHOWERS,NIGHT_MOSTLY_CLEAR,MOSTLY_CLOUDY,BRIEF_SHOWERS,BRIEF_SHOWERS,BRIEF_SHOWERS,MIST,BRIEF_SHOWERS","Cross-shore,Cross-shore,Cross-shore,Onshore,Onshore,Onshore,Onshore,Onshore,Onshore,Onshore,Onshore,Onshore,Onshore,Onshore,Onshore,Onshore,Onshore",17
5842041f4e65fad6a770897a,2024_01_25,37.809987384424446,-122.4751353263855,Fort Point,3.235294117647059,1.2223529411764706,1.5035294117647058,12,12,"OVERCAST,OVERCAST,LIGHT_RAIN,NIGHT_MIST,NIGHT_MIST,NIGHT_MOSTLY_CLOUDY,NIGHT_MIST,NIGHT_CLEAR,NIGHT_CLEAR,NIGHT_MOSTLY_CLEAR,NIGHT_MOSTLY_CLOUDY,MOSTLY_CLEAR,MOSTLY_CLEAR,MIST,CLEAR,MIST,CLEAR","Onshore,Onshore,Onshore,Cross-shore,Cross-shore,Cross-shore,Cross-shore,Cross-shore,Cross-shore,Cross-shore,Cross-shore,Cross-shore,Cross-shore,Cross-shore,Cross-shore,Cross-shore,Cross-shore",17
5842041f4e65fad6a770897c,2024_01_25,37.63422542967464,-122.4951,Sharp Park,2,2.228235294117647,2.6005882352941176,12.588235294117647,12.588235294117647,"OVERCAST,MIST,BRIEF_SHOWERS,NIGHT_BRIEF_SHOWERS,NIGHT_MIST,NIGHT_OVERCAST,NIGHT_MIST,NIGHT_MOSTLY_CLOUDY,NIGHT_CLEAR,NIGHT_MOSTLY_CLOUDY,NIGHT_CLEAR,MOSTLY_CLOUDY,MOSTLY_CLOUDY,MOSTLY_CLOUDY,MIST,MOSTLY_CLOUDY,MOSTLY_CLEAR","Cross-shore,Cross-shore,Onshore,Onshore,Onshore,Onshore,Onshore,Onshore,Onshore,Onshore,Onshore,Onshore,Onshore,Onshore,Onshore,Onshore,Onshore",17
5842041f4e65fad6a770897d,2024_01_25,37.27313605072472,-122.4127387912554,Pescadero,2.4705882352941178,2.1841176470588235,2.5870588235294116,13,13,"LIGHT_RAIN,LIGHT_RAIN,LIGHT_RAIN,NIGHT_MIST,NIGHT_MIST,NIGHT_OVERCAST,NIGHT_CLOUDY,NIGHT_FOG,NIGHT_MOSTLY_CLOUDY,NIGHT_CLEAR,NIGHT_MOSTLY_CLOUDY,MOSTLY_CLOUDY,MOSTLY_CLOUDY,MOSTLY_CLOUDY,MOSTLY_CLOUDY,BRIEF_SHOWERS,MOSTLY_CLOUDY","Cross-shore,Cross-shore,Cross-shore,Onshore,Onshore,Onshore,Onshore,Cross-shore,Onshore,Cross-shore,Cross-shore,Cross-shore,Cross-shore,Onshore,Onshore,Onshore,Onshore",17
5842041f4e65fad6a770897e,2024_01_25,37.18140279972666,-122.3926685899327,Pigeon Point,3.1176470588235294,2.226470588235294,2.6388235294117646,13,13,"OVERCAST,MIST,MIST,NIGHT_MIST,NIGHT_DRIZZLE,NIGHT_MOSTLY_CLOUDY,NIGHT_MOSTLY_CLOUDY,NIGHT_MOSTLY_CLOUDY,NIGHT_FOG,NIGHT_CLEAR,NIGHT_CLEAR,MOSTLY_CLOUDY,BRIEF_SHOWERS,MOSTLY_CLOUDY,MOSTLY_CLOUDY,MOSTLY_CLOUDY,CLEAR","Onshore,Onshore,Onshore,Offshore,Offshore,Offshore,Offshore,Offshore,Offshore,Offshore,Offshore,Offshore,Offshore,Offshore,Offshore,Offshore,Offshore",17
5842041f4e65fad6a770897f,2024_01_25,37.11578956919415,-122.314699271291,Ano Nuevo,3.4705882352941178,1.9529411764705882,2.3305882352941176,12.588235294117647,12.588235294117647,"LIGHT_RAIN,LIGHT_RAIN,DRIZZLE,NIGHT_MIST,NIGHT_MIST,NIGHT_BRIEF_SHOWERS,NIGHT_MOSTLY_CLOUDY,NIGHT_MOSTLY_CLOUDY,NIGHT_MOSTLY_CLOUDY,NIGHT_MOSTLY_CLOUDY,NIGHT_MOSTLY_CLEAR,MOSTLY_CLEAR,MOSTLY_CLEAR,MOSTLY_CLOUDY,MOSTLY_CLOUDY,MOSTLY_CLOUDY,MOSTLY_CLOUDY","Onshore,Onshore,Onshore,Offshore,Offshore,Offshore,Offshore,Offshore,Offshore,Offshore,Offshore,Offshore,Offshore,Offshore,Offshore,Offshore,Offshore",17
5842041f4e65fad6a7708980,2024_01_25,37.09520872681598,-122.2805474707768,Waddell Creek,2.823529411764706,1.8594117647058823,2.186470588235294,12.588235294117647,12.588235294117647,"DRIZZLE,LIGHT_RAIN,DRIZZLE,NIGHT_MIST,NIGHT_CLEAR,NIGHT_BRIEF_SHOWERS_POSSIBLE,NIGHT_MIST,NIGHT_MIST,NIGHT_MIST,NIGHT_MOSTLY_CLOUDY,NIGHT_CLEAR,CLEAR,CLEAR,MOSTLY_CLOUDY,MOSTLY_CLOUDY,MOSTLY_CLOUDY,MOSTLY_CLOUDY","Onshore,Onshore,Onshore,Onshore,Offshore,Offshore,Offshore,Offshore,Offshore,Offshore,Offshore,Offshore,Cross-shore,Cross-shore,Cross-shore,Cross-shore,Cross-shore",17
5842041f4e65fad6a7708981,2024_01_25,36.96512852130351,-122.1252825495626,Four Mile,3.7058823529411766,1.9488235294117646,2.3129411764705883,12.588235294117647,12.588235294117647,"DRIZZLE,DRIZZLE,OVERCAST,NIGHT_MIST,NIGHT_MOSTLY_CLOUDY,NIGHT_CLEAR,NIGHT_CLEAR,NIGHT_CLEAR,NIGHT_CLEAR,NIGHT_CLEAR,NIGHT_CLEAR,CLEAR,CLEAR,CLEAR,CLEAR,CLEAR,CLEAR","Onshore,Onshore,Onshore,Onshore,Offshore,Offshore,Offshore,Offshore,Offshore,Offshore,Offshore,Offshore,Offshore,Offshore,Offshore,Offshore,Offshore",17
5842041f4e65fad6a7708982,2024_01_25,37.04122807048655,-122.2333684729756,Scott Creek,2.764705882352941,1.788235294117647,2.1347058823529412,12.588235294117647,12.588235294117647,"MIST,LIGHT_RAIN,LIGHT_RAIN,NIGHT_MIST,NIGHT_MOSTLY_CLOUDY,NIGHT_CLEAR,NIGHT_CLEAR,NIGHT_CLEAR,NIGHT_CLEAR,NIGHT_MOSTLY_CLEAR,NIGHT_CLEAR,CLEAR,CLEAR,MIST,MOSTLY_CLOUDY,CLEAR,MOSTLY_CLEAR","Onshore,Onshore,Onshore,Onshore,Cross-shore,Offshore,Offshore,Offshore,Offshore,Offshore,Cross-shore,Offshore,Offshore,Cross-shore,Cross-shore,Cross-shore,Cross-shore",17
5842041f4e65fad6a7708983,2024_01_25,37.02350229387179,-122.21908,Davenport,3.1176470588235294,1.9094117647058824,2.2423529411764704,12.588235294117647,12.588235294117647,"MIST,DRIZZLE,DRIZZLE,NIGHT_MIST,NIGHT_MOSTLY_CLOUDY,NIGHT_MOSTLY_CLOUDY,NIGHT_CLEAR,NIGHT_CLEAR,NIGHT_CLEAR,NIGHT_CLEAR,NIGHT_CLEAR,CLEAR,CLEAR,CLEAR,MOSTLY_CLOUDY,MOSTLY_CLOUDY,MOSTLY_CLEAR","Onshore,Onshore,Onshore,Onshore,Cross-shore,Offshore,Offshore,Offshore,Offshore,Offshore,Cross-shore,Offshore,Cross-shore,Cross-shore,Cross-shore,Cross-shore,Cross-shore",17
5842041f4e65fad6a7708986,2024_01_25,36.94905295955728,-122.0611823912244,Natural Bridges,3.1176470588235294,1.6423529411764706,1.96,12.588235294117647,12.588235294117647,"OVERCAST,OVERCAST,MIST,NIGHT_OVERCAST,NIGHT_CLEAR,NIGHT_CLEAR,NIGHT_CLEAR,NIGHT_CLEAR,NIGHT_CLEAR,NIGHT_CLEAR,NIGHT_CLEAR,CLEAR,CLEAR,MOSTLY_CLEAR,MOSTLY_CLEAR,MOSTLY_CLEAR,MOSTLY_CLEAR","Onshore,Onshore,Onshore,Onshore,Cross-shore,Cross-shore,Offshore,Offshore,Offshore,Offshore,Offshore,Offshore,Offshore,Cross-shore,Cross-shore,Cross-shore,Cross-shore",17
5842041f4e65fad6a7708987,2024_01_25,36.95154854910425,-122.0420693940968,Mitchell's Cove,3.235294117647059,1.0511764705882354,1.2811764705882354,12.588235294117647,12.588235294117647,"MIST,MIST,MIST,NIGHT_FOG,NIGHT_MIST,NIGHT_MIST,NIGHT_MIST,NIGHT_MIST,NIGHT_MIST,NIGHT_MIST,NIGHT_MIST,CLEAR,CLEAR,CLEAR,MOSTLY_CLEAR,MOSTLY_CLEAR,MOSTLY_CLEAR","Onshore,Onshore,Onshore,Onshore,Cross-shore,Offshore,Offshore,Offshore,Offshore,Offshore,Offshore,Offshore,Offshore,Cross-shore,Cross-shore,Cross-shore,Offshore",17
5842041f4e65fad6a770898a,2024_01_25,36.9572312370203,-121.98177,26th Ave,3.0588235294117645,1.41,1.6864705882352942,12.588235294117647,12.588235294117647,"DRIZZLE,DRIZZLE,MIST,NIGHT_FOG,NIGHT_MIST,NIGHT_MIST,NIGHT_MIST,NIGHT_MIST,NIGHT_MIST,NIGHT_MIST,NIGHT_CLEAR,CLEAR,CLEAR,CLEAR,MOSTLY_CLEAR,MOSTLY_CLEAR,CLEAR","Onshore,Onshore,Onshore,Onshore,Onshore,Cross-shore,Cross-shore,Cross-shore,Cross-shore,Offshore,Offshore,Cross-shore,Cross-shore,Onshore,Onshore,Onshore,Cross-shore",17
5842041f4e65fad6a770898e,2024_01_25,36.91899972819882,-121.85536,Manresa,2.8823529411764706,1.718235294117647,2.030588235294118,13,13,"MIST,MIST,LIGHT_RAIN,NIGHT_CLOUDY,NIGHT_MIST,NIGHT_MIST,NIGHT_MOSTLY_CLEAR,NIGHT_CLEAR,NIGHT_CLEAR,NIGHT_MIST,NIGHT_CLEAR,MOSTLY_CLEAR,MOSTLY_CLEAR,MOSTLY_CLEAR,MOSTLY_CLOUDY,CLEAR,MOSTLY_CLEAR","Offshore,Offshore,Offshore,Onshore,Onshore,Onshore,Onshore,Onshore,Offshore,Offshore,Offshore,Offshore,Cross-shore,Onshore,Onshore,Onshore,Onshore",17
5842041f4e65fad6a7708990,2024_01_25,34.45747731928454,-120.34242,The Ranch,2.6470588235294117,0.6452941176470588,0.9264705882352942,13.588235294117647,13.588235294117647,"MOSTLY_CLOUDY,MOSTLY_CLOUDY,MOSTLY_CLOUDY,NIGHT_FOG,NIGHT_FOG,NIGHT_FOG,NIGHT_FOG,NIGHT_MOSTLY_CLOUDY,NIGHT_CLEAR,NIGHT_SHOWERS,NIGHT_CLEAR,CLEAR,CLEAR,CLEAR,CLEAR,CLEAR,CLEAR","Cross-shore,Offshore,Offshore,Onshore,Offshore,Offshore,Cross-shore,Offshore,Offshore,Offshore,Offshore,Offshore,Offshore,Offshore,Offshore,Offshore,Offshore",17
5842041f4e65fad6a7708991,2024_01_25,34.50875036590315,-120.50348,Jalama,2.823529411764706,1.2641176470588236,1.484705882352941,13.588235294117647,13.588235294117647,"MIST,OVERCAST,MIST,NIGHT_MIST,NIGHT_MIST,NIGHT_MIST,NIGHT_MIST,NIGHT_MIST,NIGHT_CLEAR,NIGHT_CLEAR,NIGHT_CLEAR,MOSTLY_CLOUDY,CLEAR,CLEAR,CLEAR,CLEAR,CLEAR","Cross-shore,Cross-shore,Cross-shore,Cross-shore,Cross-shore,Offshore,Onshore,Cross-shore,Cross-shore,Cross-shore,Cross-shore,Cross-shore,Cross-shore,Cross-shore,Cross-shore,Cross-shore,Cross-shore",17
5842041f4e65fad6a7708996,2024_01_25,34.68700870220497,-120.6111611019887,Surf Beach,2.5294117647058822,2.1029411764705883,2.44,13.588235294117647,13.588235294117647,"OVERCAST,DRIZZLE,MIST,NIGHT_MIST,NIGHT_MIST,NIGHT_DRIZZLE,NIGHT_MIST,NIGHT_DRIZZLE,NIGHT_OVERCAST,NIGHT_MOSTLY_CLOUDY,NIGHT_MOSTLY_CLOUDY,MOSTLY_CLOUDY,MOSTLY_CLOUDY,MIST,CLEAR,CLEAR,MIST","Onshore,Onshore,Cross-shore,Offshore,Cross-shore,Onshore,Onshore,Onshore,Onshore,Onshore,Onshore,Onshore,Onshore,Onshore,Onshore,Onshore,Onshore",17
5842041f4e65fad6a770899c,2024_01_25,35.5730538161116,-121.1143362345574,Moonstone,3.411764705882353,1.7935294117647058,2.101176470588235,12.588235294117647,12.588235294117647,"MIST,MIST,MIST,NIGHT_BRIEF_SHOWERS,NIGHT_BRIEF_SHOWERS,NIGHT_MOSTLY_CLOUDY,NIGHT_MOSTLY_CLOUDY,NIGHT_MOSTLY_CLOUDY,NIGHT_MOSTLY_CLEAR,NIGHT_CLEAR,NIGHT_CLEAR,MOSTLY_CLEAR,CLEAR,CLEAR,CLEAR,CLEAR,CLEAR","Onshore,Onshore,Cross-shore,Offshore,Offshore,Offshore,Offshore,Cross-shore,Onshore,Cross-shore,Cross-shore,Offshore,Cross-shore,Onshore,Onshore,Onshore,Onshore",17
5842041f4e65fad6a770899d,2024_01_25,35.61533716776573,-121.1502053073914,Pico Creek,3.235294117647059,1.3900000000000001,1.6705882352941177,12.588235294117647,12.588235294117647,"MIST,BRIEF_SHOWERS,BRIEF_SHOWERS,NIGHT_MIST,NIGHT_MIST,NIGHT_CLEAR,NIGHT_MOSTLY_CLOUDY,NIGHT_MOSTLY_CLOUDY,NIGHT_CLEAR,NIGHT_CLEAR,NIGHT_CLEAR,MOSTLY_CLEAR,CLEAR,CLEAR,CLEAR,CLEAR,CLEAR","Cross-shore,Cross-shore,Cross-shore,Offshore,Offshore,Offshore,Offshore,Cross-shore,Cross-shore,Cross-shore,Cross-shore,Cross-shore,Cross-shore,Onshore,Onshore,Onshore,Onshore",17
5842041f4e65fad6a770899e,2024_01_25,35.56829031927379,-121.1120653023953,Santa Rosa Creek,3.1176470588235294,1.7935294117647058,2.101176470588235,12.588235294117647,12.588235294117647,"MIST,MIST,MIST,NIGHT_MIST,NIGHT_MIST,NIGHT_MOSTLY_CLOUDY,NIGHT_MOSTLY_CLOUDY,NIGHT_CLEAR,NIGHT_MOSTLY_CLEAR,NIGHT_CLEAR,NIGHT_CLEAR,MOSTLY_CLEAR,MOSTLY_CLEAR,CLEAR,CLEAR,CLEAR,MIST","Onshore,Onshore,Cross-shore,Cross-shore,Offshore,Offshore,Offshore,Cross-shore,Cross-shore,Cross-shore,Cross-shore,Cross-shore,Cross-shore,Onshore,Onshore,Onshore,Cross-shore",17
5842041f4e65fad6a77089a2,2024_01_25,35.44820114936284,-120.90715,"Cayucos Pier, Southside ",3,0.8676470588235294,1.1276470588235294,12.588235294117647,12.588235294117647,"BRIEF_SHOWERS,MIST,MIST,NIGHT_FOG,NIGHT_FOG,NIGHT_FOG,NIGHT_FOG,NIGHT_FOG,NIGHT_MIST,NIGHT_MOSTLY_CLEAR,NIGHT_MIST,MOSTLY_CLEAR,CLEAR,CLEAR,CLEAR,CLEAR,CLEAR","Onshore,Onshore,Onshore,Cross-shore,Cross-shore,Cross-shore,Offshore,Offshore,Offshore,Offshore,Offshore,Offshore,Offshore,Cross-shore,Cross-shore,Cross-shore,Cross-shore",17
5842041f4e65fad6a77089a4,2024_01_25,35.30143372628852,-120.877819239902,Cable Landing,3.2941176470588234,2.3094117647058825,2.6476470588235292,13.588235294117647,13.588235294117647,"OVERCAST,MOSTLY_CLOUDY,MOSTLY_CLOUDY,NIGHT_MIST,NIGHT_FOG,NIGHT_MIST,NIGHT_MIST,NIGHT_BRIEF_SHOWERS,NIGHT_BRIEF_SHOWERS,NIGHT_MIST,NIGHT_MOSTLY_CLEAR,SHOWERS,MIST,CLEAR,MIST,MOSTLY_CLEAR,MIST","Onshore,Offshore,Offshore,Offshore,Offshore,Offshore,Offshore,Cross-shore,Cross-shore,Onshore,Onshore,Onshore,Cross-shore,Onshore,Onshore,Onshore,Onshore",17
5842041f4e65fad6a77089a9,2024_01_25,35.61269103500222,-121.1480725356606,San Simeon,3,0.9981176470588236,1.1834117647058824,12.588235294117647,12.588235294117647,"MIST,MIST,MIST,NIGHT_FOG,NIGHT_FOG,NIGHT_CLEAR,NIGHT_MOSTLY_CLOUDY,NIGHT_MOSTLY_CLOUDY,NIGHT_CLEAR,NIGHT_CLEAR,NIGHT_CLEAR,MOSTLY_CLEAR,CLEAR,CLEAR,CLEAR,CLEAR,CLEAR","Onshore,Onshore,Onshore,Cross-shore,Cross-shore,Offshore,Offshore,Offshore,Cross-shore,Offshore,Offshore,Offshore,Offshore,Cross-shore,Cross-shore,Onshore,Cross-shore",17
5842041f4e65fad6a77089ab,2024_01_25,35.1775325966252,-120.7341125142258,Avila Beach,1.8823529411764706,0.036470588235294116,0.3411764705882353,13,13,"OVERCAST,MIST,MIST,NIGHT_FOG,NIGHT_FOG,NIGHT_LIGHT_RAIN_AND_FOG,NIGHT_FOG,NIGHT_FOG,NIGHT_FOG,NIGHT_FOG,NIGHT_FOG,CLEAR,CLEAR,CLEAR,CLEAR,CLEAR,CLEAR","Onshore,Onshore,Onshore,Offshore,Cross-shore,Cross-shore,Cross-shore,Offshore,Offshore,Offshore,Offshore,Offshore,Offshore,Offshore,Offshore,Offshore,Cross-shore",17
5842041f4e65fad6a77089ac,2024_01_25,35.13877877884115,-120.64535,Pismo Beach Pier,3.176470588235294,1.1336254901960785,1.4266901960784313,13,13,"OVERCAST,MOSTLY_CLOUDY,MOSTLY_CLOUDY,NIGHT_FOG,NIGHT_FOG,NIGHT_FOG,NIGHT_FOG,NIGHT_BRIEF_SHOWERS,NIGHT_BRIEF_SHOWERS,NIGHT_FOG,NIGHT_MOSTLY_CLOUDY,CLEAR,CLEAR,CLEAR,CLEAR,CLEAR,CLEAR","Onshore,Onshore,Onshore,Offshore,Offshore,Offshore,Offshore,Offshore,Onshore,Offshore,Cross-shore,Cross-shore,Cross-shore,Onshore,Onshore,Onshore,Onshore",17
5842041f4e65fad6a77089ad,2024_01_25,46.8907710233147,-124.12964,Westport/Olympic Peninsula,1.411764705882353,3.2576470588235296,3.788235294117647,8,8,"OVERCAST,MOSTLY_CLOUDY,MOSTLY_CLOUDY,NIGHT_LIGHT_RAIN,NIGHT_OVERCAST,NIGHT_LIGHT_SHOWERS_POSSIBLE,NIGHT_RAIN,NIGHT_DRIZZLE,NIGHT_LIGHT_RAIN,NIGHT_LIGHT_RAIN,NIGHT_CLOUDY,MOSTLY_CLOUDY,MOSTLY_CLOUDY,DRIZZLE,CLOUDY,OVERCAST,MOSTLY_CLOUDY","Onshore,Onshore,Onshore,Onshore,Onshore,Onshore,Onshore,Onshore,Onshore,Onshore,Onshore,Onshore,Onshore,Onshore,Onshore,Onshore,Onshore",17
5842041f4e65fad6a77089ae,2024_01_25,46.35185177248545,-124.06747,Long Beach Peninsula,0.8235294117647058,4.081764705882353,4.83235294117647,9,9,"MOSTLY_CLOUDY,CLEAR,BRIEF_SHOWERS,NIGHT_CLOUDY,NIGHT_MOSTLY_CLOUDY,NIGHT_LIGHT_RAIN,NIGHT_OVERCAST,NIGHT_DRIZZLE,NIGHT_LIGHT_RAIN,NIGHT_CLOUDY,NIGHT_BRIEF_SHOWERS,BRIEF_SHOWERS,BRIEF_SHOWERS,LIGHT_RAIN,MOSTLY_CLOUDY,CLEAR,CLEAR","Onshore,Onshore,Cross-shore,Cross-shore,Cross-shore,Cross-shore,Cross-shore,Onshore,Onshore,Onshore,Onshore,Cross-shore,Onshore,Onshore,Onshore,Onshore,Cross-shore",17
5842041f4e65fad6a77089af,2024_01_25,47.90649175554033,-124.6370864743483,La Push,1,3.5423529411764707,4.17235294117647,8,8,"CLEAR,MOSTLY_CLOUDY,MOSTLY_CLOUDY,NIGHT_RAIN,NIGHT_CLOUDY,NIGHT_LIGHT_RAIN,NIGHT_DRIZZLE,NIGHT_LIGHT_RAIN,NIGHT_MIST,NIGHT_CLEAR,NIGHT_OVERCAST,OVERCAST,MIST,LIGHT_RAIN,MIST,MIST,LIGHT_RAIN","Onshore,Onshore,Onshore,Onshore,Onshore,Cross-shore,Cross-shore,Onshore,Onshore,Onshore,Onshore,Onshore,Onshore,Onshore,Onshore,Onshore,Onshore",17
5842041f4e65fad6a77089b0,2024_01_25,42.04368239985442,-124.26828,Brookings Jetty,2,1.853025882352941,2.895351176470588,11.588235294117647,11.588235294117647,"MOSTLY_CLOUDY,MIST,MIST,NIGHT_MIST,NIGHT_MOSTLY_CLOUDY,NIGHT_CLEAR,NIGHT_MOSTLY_CLOUDY,NIGHT_BRIEF_SHOWERS,NIGHT_MOSTLY_CLOUDY,NIGHT_FOG,NIGHT_BRIEF_SHOWERS,MIST,MOSTLY_CLOUDY,MOSTLY_CLOUDY,MOSTLY_CLOUDY,MOSTLY_CLOUDY,CLEAR","Onshore,Onshore,Onshore,Onshore,Onshore,Onshore,Onshore,Onshore,Onshore,Onshore,Onshore,Onshore,Onshore,Onshore,Onshore,Onshore,Onshore",17
5842041f4e65fad6a77089b1,2024_01_25,42.74071837900346,-124.4983727491047,Port Orford,1.4705882352941178,2.8464705882352943,3.381764705882353,11,11,"MOSTLY_CLOUDY,MIST,MIST,NIGHT_MOSTLY_CLOUDY,NIGHT_CLEAR,NIGHT_MOSTLY_CLOUDY,NIGHT_CLEAR,NIGHT_CLEAR,NIGHT_MOSTLY_CLOUDY,NIGHT_MOSTLY_CLOUDY,NIGHT_MOSTLY_CLOUDY,MOSTLY_CLOUDY,SHOWERS,BRIEF_SHOWERS,MOSTLY_CLOUDY,CLEAR,MIST","Onshore,Onshore,Onshore,Onshore,Onshore,Onshore,Onshore,Onshore,Onshore,Onshore,Onshore,Onshore,Onshore,Onshore,Onshore,Onshore,Onshore",17
5842041f4e65fad6a77089b2,2024_01_25,44.01532689312291,-124.13865,Florence South Jetty,1.3529411764705883,4.214117647058823,4.970588235294118,11,11,"OVERCAST,DRIZZLE,OVERCAST,NIGHT_MOSTLY_CLOUDY,NIGHT_CLEAR,NIGHT_CLOUDY,NIGHT_LIGHT_RAIN,NIGHT_LIGHT_RAIN,NIGHT_OVERCAST,NIGHT_OVERCAST,NIGHT_CLEAR,MOSTLY_CLOUDY,MOSTLY_CLOUDY,LIGHT_RAIN,OVERCAST,DRIZZLE,CLOUDY","Onshore,Onshore,Onshore,Onshore,Onshore,Onshore,Onshore,Onshore,Onshore,Onshore,Onshore,Cross-shore,Cross-shore,Cross-shore,Cross-shore,Cross-shore,Cross-shore",17
5842041f4e65fad6a77089b3,2024_01_25,42.41812540774362,-124.42945,Gold Beach South Jetty,1,3.81,4.502941176470588,11,11,"MIST,MIST,MIST,NIGHT_MOSTLY_CLOUDY,NIGHT_MOSTLY_CLOUDY,NIGHT_BRIEF_SHOWERS,NIGHT_BRIEF_SHOWERS,NIGHT_MOSTLY_CLOUDY,NIGHT_MOSTLY_CLOUDY,NIGHT_CLEAR,NIGHT_MOSTLY_CLEAR,SHOWERS,MIST,MOSTLY_CLOUDY,MOSTLY_CLEAR,BRIEF_SHOWERS,CLEAR","Onshore,Onshore,Onshore,Onshore,Onshore,Onshore,Onshore,Onshore,Onshore,Onshore,Onshore,Onshore,Onshore,Onshore,Onshore,Onshore,Onshore",17
5842041f4e65fad6a77089b4,2024_01_25,44.95857310226525,-124.0219017690976,Lincoln City,1.588235294117647,3.81,4.49764705882353,10,10,"LIGHT_RAIN,MOSTLY_CLOUDY,CLOUDY,NIGHT_MOSTLY_CLOUDY,NIGHT_MOSTLY_CLOUDY,NIGHT_RAIN,NIGHT_OVERCAST,NIGHT_RAIN,NIGHT_DRIZZLE,NIGHT_LIGHT_RAIN,NIGHT_RAIN,CLOUDY,OVERCAST,LIGHT_RAIN,CLOUDY,DRIZZLE,MIST","Onshore,Onshore,Cross-shore,Cross-shore,Onshore,Cross-shore,Onshore,Cross-shore,Onshore,Onshore,Onshore,Onshore,Cross-shore,Cross-shore,Cross-shore,Onshore,Cross-shore",17
5842041f4e65fad6a77089b5,2024_01_25,44.63792761362982,-124.0657,Newport,0.7058823529411765,4.145882352941176,4.882941176470588,11,11,"OVERCAST,BRIEF_SHOWERS,OVERCAST,NIGHT_BRIEF_SHOWERS_POSSIBLE,NIGHT_MOSTLY_CLOUDY,NIGHT_RAIN,NIGHT_BRIEF_SHOWERS,NIGHT_OVERCAST,NIGHT_DRIZZLE,NIGHT_DRIZZLE,NIGHT_DRIZZLE,MOSTLY_CLOUDY,MOSTLY_CLOUDY,MOSTLY_CLOUDY,BRIEF_SHOWERS,MOSTLY_CLOUDY,DRIZZLE","Onshore,Onshore,Onshore,Cross-shore,Onshore,Onshore,Onshore,Onshore,Onshore,Onshore,Onshore,Onshore,Cross-shore,Cross-shore,Onshore,Onshore,Cross-shore",17
5842041f4e65fad6a77089b6,2024_01_25,45.61468496266301,-123.94643,Rockaway Beach,2,3.955294117647059,4.626470588235294,10,10,"MOSTLY_CLOUDY,MOSTLY_CLOUDY,OVERCAST,NIGHT_DRIZZLE,NIGHT_MOSTLY_CLOUDY,NIGHT_LIGHT_RAIN,NIGHT_CLOUDY,NIGHT_DRIZZLE,NIGHT_CLOUDY,NIGHT_LIGHT_RAIN,NIGHT_DRIZZLE,OVERCAST,MOSTLY_CLOUDY,OVERCAST,OVERCAST,LIGHT_RAIN,MOSTLY_CLOUDY","Onshore,Onshore,Cross-shore,Cross-shore,Cross-shore,Cross-shore,Cross-shore,Onshore,Onshore,Onshore,Onshore,Cross-shore,Cross-shore,Cross-shore,Cross-shore,Cross-shore,Cross-shore",17
5842041f4e65fad6a77089b7,2024_01_25,45.20252914186085,-123.96975,Pacific City,1.411764705882353,3.7411764705882353,4.398235294117647,10,10,"OVERCAST,CLEAR,MOSTLY_CLOUDY,NIGHT_MOSTLY_CLOUDY,NIGHT_MOSTLY_CLOUDY,NIGHT_LIGHT_RAIN,NIGHT_LIGHT_RAIN,NIGHT_LIGHT_RAIN,NIGHT_LIGHT_RAIN,NIGHT_LIGHT_RAIN,NIGHT_RAIN,OVERCAST,SHOWERS,OVERCAST,LIGHT_RAIN,LIGHT_RAIN,MIST","Onshore,Onshore,Onshore,Onshore,Onshore,Onshore,Onshore,Onshore,Onshore,Onshore,Onshore,Onshore,Onshore,Onshore,Onshore,Onshore,Onshore",17
5842041f4e65fad6a77089b8,2024_01_25,45.88179930310263,-123.96681,Cannon Beach,1,4.0458823529411765,4.781764705882353,9.411764705882353,9.411764705882353,"MIST,MOSTLY_CLOUDY,BRIEF_SHOWERS,NIGHT_DRIZZLE,NIGHT_MOSTLY_CLOUDY,NIGHT_LIGHT_RAIN,NIGHT_RAIN,NIGHT_RAIN,NIGHT_LIGHT_RAIN,NIGHT_LIGHT_RAIN,NIGHT_LIGHT_RAIN,OVERCAST,MOSTLY_CLOUDY,BRIEF_SHOWERS,BRIEF_SHOWERS,BRIEF_SHOWERS,CLEAR","Onshore,Onshore,Onshore,Onshore,Onshore,Onshore,Onshore,Onshore,Onshore,Onshore,Onshore,Onshore,Onshore,Onshore,Onshore,Onshore,Onshore",17
5842041f4e65fad6a77089ba,2024_01_25,40.02528754746774,-124.06372,Shelter Cove,2.411764705882353,0.9497488235294118,1.4839817647058824,12,12,"MIST,MIST,MIST,NIGHT_FOG,NIGHT_MIST,NIGHT_MIST,NIGHT_BRIEF_SHOWERS,NIGHT_MIST,NIGHT_MIST,NIGHT_MIST,NIGHT_MIST,CLEAR,CLEAR,MIST,MIST,CLEAR,MIST","Cross-shore,Cross-shore,Cross-shore,Onshore,Onshore,Onshore,Onshore,Onshore,Onshore,Onshore,Onshore,Onshore,Onshore,Onshore,Onshore,Onshore,Onshore",17
5842041f4e65fad6a77089bb,2024_01_25,40.76816197136951,-124.24248,Humboldt Harbor Entrance,2.176470588235294,3.7705882352941176,4.479411764705882,12,12,"MOSTLY_CLOUDY,CLOUDY,MIST,NIGHT_BRIEF_SHOWERS,NIGHT_CLEAR,NIGHT_BRIEF_SHOWERS,NIGHT_BRIEF_SHOWERS,NIGHT_BRIEF_SHOWERS,NIGHT_CLEAR,NIGHT_MOSTLY_CLOUDY,NIGHT_FOG,MIST,MOSTLY_CLEAR,CLEAR,CLEAR,CLEAR,CLEAR","Onshore,Onshore,Onshore,Onshore,Onshore,Onshore,Onshore,Onshore,Onshore,Onshore,Cross-shore,Cross-shore,Cross-shore,Cross-shore,Onshore,Onshore,Onshore",17
5842041f4e65fad6a77089bc,2024_01_25,40.76684246920174,-124.23107,North Jetty,2.4705882352941178,3.934705882352941,4.604705882352941,12,12,"OVERCAST,CLOUDY,MOSTLY_CLOUDY,NIGHT_FOG,NIGHT_MOSTLY_CLOUDY,NIGHT_BRIEF_SHOWERS,NIGHT_FOG,NIGHT_SHOWERS,NIGHT_FOG,NIGHT_MIST,NIGHT_FOG,MIST,MIST,CLEAR,CLEAR,CLEAR,CLEAR","Onshore,Onshore,Onshore,Cross-shore,Cross-shore,Cross-shore,Onshore,Onshore,Onshore,Cross-shore,Cross-shore,Cross-shore,Offshore,Cross-shore,Onshore,Onshore,Onshore",17
5842041f4e65fad6a77089bd,2024_01_25,41.02731183893966,-124.1149972888982,Westhaven,2,5.135882352941176,6.000588235294118,12,12,"MIST,MIST,MIST,NIGHT_BRIEF_SHOWERS,NIGHT_MIST,NIGHT_MIST,NIGHT_MIST,NIGHT_CLEAR,NIGHT_FOG,NIGHT_FOG,NIGHT_FOG,BRIEF_SHOWERS,CLEAR,CLEAR,CLEAR,MOSTLY_CLEAR,CLEAR","Onshore,Onshore,Onshore,Onshore,Onshore,Onshore,Onshore,Onshore,Onshore,Onshore,Cross-shore,Cross-shore,Cross-shore,Cross-shore,Onshore,Onshore,Onshore",17
5842041f4e65fad6a77089be,2024_01_25,41.13016238153297,-124.16466,Sue-meg,2.8823529411764706,3.6276470588235292,4.272352941176471,12,12,"MOSTLY_CLOUDY,MIST,OVERCAST,NIGHT_MOSTLY_CLOUDY,NIGHT_MOSTLY_CLOUDY,NIGHT_MIST,NIGHT_CLEAR,NIGHT_CLEAR,NIGHT_FOG,NIGHT_CLEAR,NIGHT_FOG,FOG,CLEAR,CLEAR,CLEAR,CLEAR,CLEAR","Onshore,Onshore,Cross-shore,Cross-shore,Cross-shore,Cross-shore,Onshore,Cross-shore,Cross-shore,Cross-shore,Cross-shore,Offshore,Offshore,Cross-shore,Cross-shore,Cross-shore,Cross-shore",17
5842041f4e65fad6a77089bf,2024_01_25,37.8289474958188,-122.5376795097543,Fort Cronkite/Rodeo Beach,2.5294117647058822,2.518823529411765,2.9152941176470586,12,12,"OVERCAST,MIST,BRIEF_SHOWERS,NIGHT_CLEAR,NIGHT_MOSTLY_CLOUDY,NIGHT_MIST,NIGHT_MOSTLY_CLOUDY,NIGHT_CLEAR,NIGHT_MIST,NIGHT_CLEAR,NIGHT_MIST,CLEAR,MIST,CLEAR,MIST,MOSTLY_CLOUDY,CLEAR","Onshore,Onshore,Onshore,Cross-shore,Cross-shore,Cross-shore,Cross-shore,Cross-shore,Cross-shore,Cross-shore,Cross-shore,Cross-shore,Cross-shore,Cross-shore,Cross-shore,Cross-shore,Cross-shore",17
