_id,date,lat,lon,name,daily_mean_swell_rating,daily_mean_wave_height_min,daily_mean_wave_height_max,daily_mean_water_temperature_max,daily_mean_water_temperature_min,weather_per_timestamp,wind_per_timestamp,n_samples_per_day
5842041f4e65fad6a77087f9,2024_05_01,37.741668,-122.51038,South Ocean Beach,1.1116666666666666,1.7265833333333334,2.181661111111111,14,14,"CLEAR,NIGHT_CLEAR,NIGHT_CLEAR,CLEAR,CLEAR,CLEAR","Onshore,Onshore,Onshore,Onshore,Onshore,Onshore",6
5842041f4e65fad6a7708801,2024_05_01,37.49142,-122.50428,Maverick's,NA,1.3191666666666668,1.612588888888889,13,13,"CLEAR,NIGHT_CLEAR,NIGHT_CLEAR,CLEAR,CLEAR,CLEAR","Offshore,Offshore,Offshore,Offshore,Offshore,Offshore",6
5842041f4e65fad6a7708804,2024_05_01,44.997,-124.018,Roads End,2.5,1.7666666666666666,2.05,11,11,"CLEAR,NIGHT_MOSTLY_CLOUDY,NIGHT_MOSTLY_CLOUDY,CLEAR,CLEAR,CLEAR","Onshore,Cross-shore,Offshore,Onshore,Onshore,Onshore",6
5842041f4e65fad6a7708805,2024_05_01,36.95188851423011,-122.02522,Steamer Lane,3,0.9494222222222222,1.1937666666666669,14,14,"CLEAR,NIGHT_CLEAR,NIGHT_CLEAR,CLEAR,CLEAR,CLEAR","Onshore,Offshore,Offshore,Onshore,Onshore,Onshore",6
5842041f4e65fad6a7708806,2024_05_01,36.95918781542251,-122.02489,Cowells,1.3883333333333334,0.005,0.2758555555555556,14,14,"CLEAR,NIGHT_CLEAR,NIGHT_CLEAR,CLEAR,CLEAR,CLEAR","Cross-shore,Offshore,Offshore,Onshore,Onshore,Onshore",6
5842041f4e65fad6a7708807,2024_05_01,36.95468082526536,-121.97234,Pleasure Point,3,0.8454611111111111,1.1815777777777778,14,14,"CLEAR,NIGHT_CLEAR,NIGHT_CLEAR,CLEAR,CLEAR,CLEAR","Onshore,Onshore,Onshore,Onshore,Cross-shore,Onshore",6
5842041f4e65fad6a770880a,2024_05_01,35.37815414378748,-120.86589,Morro Bay,2.86,1.4866833333333334,1.7703333333333333,12,12,"CLEAR,NIGHT_CLEAR,NIGHT_CLEAR,CLEAR,CLEAR,CLEAR","Onshore,Offshore,Offshore,Onshore,Onshore,Onshore",6
5842041f4e65fad6a770880b,2024_05_01,36.95782765000708,-121.96729,Jack's,2.138333333333333,0.15357777777777779,0.4558388888888889,14,14,"CLEAR,NIGHT_CLEAR,NIGHT_CLEAR,CLEAR,CLEAR,CLEAR","Onshore,Onshore,Onshore,Cross-shore,Offshore,Offshore",6
5842041f4e65fad6a770880d,2024_05_01,34.29982939936656,-119.3489016603669,Gold Coast Beachbreaks,2.3333333333333335,0.2833333333333333,0.5883333333333334,14.5,14.5,"CLEAR,NIGHT_MIST,NIGHT_MIST,MOSTLY_CLOUDY,CLEAR,CLEAR","Onshore,Cross-shore,Offshore,Onshore,Onshore,Onshore",6
5842041f4e65fad6a7708811,2024_05_01,34.245076,-119.26799,Ventura Harbor,2.805,0.7762718055555555,1.1514390277777777,14,14,"CLEAR,NIGHT_MIST,NIGHT_BRIEF_SHOWERS,CLEAR,CLEAR,CLEAR","Onshore,Onshore,Onshore,Onshore,Onshore,Onshore",6
5842041f4e65fad6a7708813,2024_05_01,34.051,-118.964,County Line,2.305,0.42807222222222224,0.7323944444444445,14,14,"BRIEF_SHOWERS,NIGHT_MIST,NIGHT_MIST,CLEAR,MOSTLY_CLOUDY,MOSTLY_CLOUDY","Onshore,Offshore,Offshore,Onshore,Onshore,Onshore",6
5842041f4e65fad6a7708814,2024_05_01,34.37256264378892,-119.47797,Rincon,2.8333333333333335,0.37166666666666665,0.6783333333333333,14.5,14.5,"MIST,NIGHT_MIST,NIGHT_MIST,MIST,MIST,MIST","Onshore,Onshore,Onshore,Onshore,Onshore,Onshore",6
5842041f4e65fad6a7708817,2024_05_01,34.03096101876324,-118.68109,Malibu Third Point,2,0.19333333333333333,0.5,16,16,"MOSTLY_CLEAR,NIGHT_MIST,NIGHT_MIST,MOSTLY_CLOUDY,MOSTLY_CLOUDY,MOSTLY_CLOUDY","Cross-shore,Onshore,Onshore,Cross-shore,Cross-shore,Cross-shore",6
5842041f4e65fad6a7708819,2024_05_01,33.984079047970035,-118.47382,Venice Beach,2.445,0.6175722222222222,0.8963388888888889,14,14,"BRIEF_SHOWERS,NIGHT_MOSTLY_CLOUDY,NIGHT_MIST,MIST,BRIEF_SHOWERS,MIST","Cross-shore,Offshore,Cross-shore,Cross-shore,Cross-shore,Cross-shore",6
5842041f4e65fad6a770881e,2024_05_01,34.037508438646746,-118.5834,Topanga Beach,1.89,0.33237777777777777,0.6387833333333333,14,14,"MOSTLY_CLEAR,NIGHT_MIST,NIGHT_CLEAR,BRIEF_SHOWERS,BRIEF_SHOWERS,MOSTLY_CLOUDY","Onshore,Offshore,Offshore,Onshore,Onshore,Onshore",6
5842041f4e65fad6a7708820,2024_05_01,33.73954373690184,-118.11414,Seal Beach Jetty,1.5,0.21166666666666667,0.52,16,16,"CLEAR,NIGHT_MIST,NIGHT_MIST,CLEAR,CLEAR,CLEAR","Onshore,Cross-shore,Cross-shore,Onshore,Onshore,Onshore",6
5842041f4e65fad6a7708822,2024_05_01,33.72309983348433,-118.08078,Anderson Street,1.805,0.45506111111111114,0.8110611111111111,14,14,"MOSTLY_CLEAR,NIGHT_MIST,NIGHT_MIST,CLEAR,CLEAR,CLEAR","Onshore,Cross-shore,Cross-shore,Onshore,Onshore,Onshore",6
5842041f4e65fad6a7708827,2024_05_01,33.65574085629463,-118.00397,Huntington Beach Pier Northside,2.3333333333333335,0.8759944444444444,1.193038888888889,14,14,"MOSTLY_CLEAR,NIGHT_BRIEF_SHOWERS,NIGHT_MOSTLY_CLOUDY,MOSTLY_CLEAR,CLEAR,CLEAR","Onshore,Cross-shore,Cross-shore,Onshore,Onshore,Onshore",6
5842041f4e65fad6a7708828,2024_05_01,34.272041739333,-119.29976,C St.,2.805,0.6478277777777778,0.9498666666666666,14,14,"BRIEF_SHOWERS,NIGHT_MIST,NIGHT_BRIEF_SHOWERS,MIST,BRIEF_SHOWERS,MIST","Onshore,Cross-shore,Offshore,Onshore,Onshore,Onshore",6
5842041f4e65fad6a770882a,2024_05_01,33.61555743705257,-117.93676,Newport Lower Jetties,1.805,0.48242222222222225,0.78655,16,16,"MOSTLY_CLEAR,NIGHT_MOSTLY_CLOUDY,NIGHT_MOSTLY_CLOUDY,MOSTLY_CLOUDY,MOSTLY_CLEAR,CLEAR","Onshore,Onshore,Cross-shore,Onshore,Onshore,Onshore",6
5842041f4e65fad6a770882b,2024_05_01,33.5930302087,-117.88199,The Wedge,1.6666666666666667,0.4186283333333334,0.8337429166666667,16,16,"MOSTLY_CLEAR,NIGHT_MOSTLY_CLOUDY,NIGHT_MOSTLY_CLOUDY,CLEAR,CLEAR,CLEAR","Onshore,Cross-shore,Onshore,Onshore,Onshore,Onshore",6
5842041f4e65fad6a770882e,2024_05_01,33.475793399792984,-117.72291,Salt Creek,2.8333333333333335,0.6463,1.0130666666666666,16,16,"MIST,NIGHT_MIST,NIGHT_MIST,MOSTLY_CLOUDY,MOSTLY_CLEAR,MOSTLY_CLEAR","Onshore,Cross-shore,Cross-shore,Onshore,Onshore,Onshore",6
5842041f4e65fad6a7708830,2024_05_01,33.41800974113613,-117.61952,T-Street,1.8616666666666666,0.6378777777777778,0.9803333333333333,17,17,"MIST,NIGHT_MIST,NIGHT_MIST,MIST,MIST,MIST","Onshore,Onshore,Onshore,Onshore,Onshore,Onshore",6
5842041f4e65fad6a7708832,2024_05_01,33.202391008646,-117.39475,Oceanside Harbor,2.1666666666666665,0.7433555555555555,1.1046333333333334,16,16,"MIST,NIGHT_MIST,NIGHT_MIST,MOSTLY_CLOUDY,MOSTLY_CLOUDY,MOSTLY_CLOUDY","Onshore,Cross-shore,Onshore,Onshore,Onshore,Onshore",6
5842041f4e65fad6a7708835,2024_05_01,33.19477795952803,-117.38667,Oceanside Pier,1.9716666666666667,0.7141888888888889,1.0215111111111113,16,16,"MOSTLY_CLOUDY,NIGHT_FOG,NIGHT_FOG,OVERCAST,MOSTLY_CLOUDY,MOSTLY_CLOUDY","Onshore,Onshore,Onshore,Onshore,Onshore,Onshore",6
5842041f4e65fad6a7708837,2024_05_01,33.14948100706,-117.35029,Tamarack,2,0.3466666666666667,0.6533333333333333,17,17,"BRIEF_SHOWERS,NIGHT_MIST,NIGHT_MIST,CLOUDY,MOSTLY_CLOUDY,MOSTLY_CLOUDY","Onshore,Onshore,Cross-shore,Onshore,Onshore,Onshore",6
5842041f4e65fad6a7708839,2024_05_01,32.865777159358856,-117.25614,Scripps,2.39,0.9566833333333333,1.2895277777777778,16,16,"MOSTLY_CLOUDY,NIGHT_CLOUDY,NIGHT_CLOUDY,CLEAR,CLEAR,MOSTLY_CLOUDY","Cross-shore,Cross-shore,Offshore,Onshore,Onshore,Onshore",6
5842041f4e65fad6a770883a,2024_05_01,32.813094,-117.27381,Birdrock,2.8333333333333335,0.9383333333333334,1.1016666666666668,17,17,"MOSTLY_CLOUDY,NIGHT_MIST,NIGHT_DRIZZLE,MOSTLY_CLOUDY,MOSTLY_CLOUDY,MOSTLY_CLOUDY","Onshore,Onshore,Onshore,Onshore,Onshore,Onshore",6
5842041f4e65fad6a770883b,2024_05_01,32.877231,-117.25303,Blacks,2.5283333333333333,1.0275166666666666,1.4546277777777779,16,16,"MOSTLY_CLOUDY,NIGHT_CLOUDY,NIGHT_CLOUDY,CLEAR,CLEAR,MOSTLY_CLOUDY","Onshore,Onshore,Onshore,Onshore,Onshore,Onshore",6
5842041f4e65fad6a770883c,2024_05_01,32.82978974229765,-117.28162,Windansea,2.695,0.9952611111111112,1.3196833333333333,16,16,"CLEAR,NIGHT_CLOUDY,NIGHT_CLOUDY,MOSTLY_CLOUDY,MOSTLY_CLOUDY,MOSTLY_CLOUDY","Onshore,Cross-shore,Cross-shore,Onshore,Onshore,Onshore",6
5842041f4e65fad6a770883d,2024_05_01,32.838278,-117.28396,Horseshoe,3,0.965,1.21,17,17,"CLEAR,NIGHT_CLOUDY,NIGHT_CLOUDY,MOSTLY_CLOUDY,MOSTLY_CLOUDY,MOSTLY_CLOUDY","Onshore,Cross-shore,Cross-shore,Onshore,Onshore,Onshore",6
5842041f4e65fad6a770883f,2024_05_01,32.75034717673179,-117.25337,Ocean Beach,2.39,1.1444277777777778,1.4399444444444445,16,16,"MOSTLY_CLOUDY,NIGHT_MIST,NIGHT_MIST,MOSTLY_CLOUDY,MOSTLY_CLOUDY,MOSTLY_CLOUDY","Cross-shore,Offshore,Cross-shore,Onshore,Onshore,Onshore",6
5842041f4e65fad6a7708840,2024_05_01,32.73693,-117.25718,Sunset Cliffs,2.5,0.985,1.1749999999999998,17,17,"MOSTLY_CLOUDY,NIGHT_OVERCAST,NIGHT_OVERCAST,MOSTLY_CLOUDY,MOSTLY_CLOUDY,MOSTLY_CLOUDY","Cross-shore,Offshore,Cross-shore,Onshore,Onshore,Onshore",6
5842041f4e65fad6a7708841,2024_05_01,32.796582258728826,-117.25779,Pacific Beach,2.39,0.9279388888888889,1.2560055555555554,16,16,"MIST,NIGHT_MIST,NIGHT_MIST,MOSTLY_CLOUDY,MOSTLY_CLOUDY,MOSTLY_CLOUDY","Onshore,Onshore,Onshore,Onshore,Onshore,Onshore",6
5842041f4e65fad6a7708842,2024_05_01,32.776636,-117.25514,Mission Beach,2.39,0.9551611111111111,1.3083666666666667,16,16,"MIST,NIGHT_MIST,NIGHT_MIST,MOSTLY_CLOUDY,MOSTLY_CLOUDY,MOSTLY_CLOUDY","Onshore,Cross-shore,Cross-shore,Onshore,Onshore,Onshore",6
5842041f4e65fad6a7708844,2024_05_01,32.577195519016,-117.13475,Imperial Beach Pier,2.3333333333333335,1.0833333333333333,1.3566666666666667,16,16,"MOSTLY_CLOUDY,NIGHT_MOSTLY_CLOUDY,NIGHT_CLEAR,MOSTLY_CLOUDY,MOSTLY_CLOUDY,MOSTLY_CLOUDY","Onshore,Cross-shore,Cross-shore,Onshore,Onshore,Onshore",6
5842041f4e65fad6a770884a,2024_05_01,42.88678181061,-70.80843,Seabrook,1.2766666666666666,0.25328055555555556,0.5230193055555555,9,7,"CLEAR,NIGHT_OVERCAST,NIGHT_DRIZZLE,CLEAR,CLEAR,MOSTLY_CLEAR","Onshore,Onshore,Onshore,Onshore,Onshore,Onshore",6
5842041f4e65fad6a770884e,2024_05_01,41.434181432898335,-71.45312,Narragansett,1,0.09699444444444445,0.4042611111111111,10,9,"OVERCAST,NIGHT_OVERCAST,NIGHT_OVERCAST,MOSTLY_CLEAR,CLEAR,CLEAR","Cross-shore,Offshore,Offshore,Cross-shore,Onshore,Onshore",6
5842041f4e65fad6a7708850,2024_05_01,40.582703230722,-73.65247,Lincoln Blvd,1.5333333333333334,0.3219666666666667,0.6237666666666667,11,9,"CLEAR,NIGHT_CLEAR,NIGHT_CLEAR,MIST,MIST,MIST","Cross-shore,Offshore,Cross-shore,Onshore,Onshore,Onshore",6
5842041f4e65fad6a7708852,2024_05_01,40.58342841721757,-73.81182,Rockaways,2,0.5371166666666667,0.8433833333333334,11,9,"CLEAR,NIGHT_CLEAR,NIGHT_MOSTLY_CLOUDY,MIST,MIST,MIST","Cross-shore,Offshore,Offshore,Onshore,Onshore,Onshore",6
5842041f4e65fad6a7708853,2024_05_01,40.330474,-73.9734,Monmouth Beach,1.3333333333333333,0.3706,0.6764777777777777,13,11,"MIST,NIGHT_MIST,NIGHT_MOSTLY_CLOUDY,CLEAR,MOSTLY_CLEAR,CLEAR","Onshore,Cross-shore,Cross-shore,Onshore,Onshore,Onshore",6
5842041f4e65fad6a7708856,2024_05_01,40.113,-74.028,Manasquan Inlet,1.8333333333333333,0.5112833333333333,0.8151888888888889,13,11,"MOSTLY_CLOUDY,NIGHT_FOG,NIGHT_MOSTLY_CLOUDY,CLEAR,CLEAR,MOSTLY_CLEAR","Onshore,Offshore,Onshore,Cross-shore,Cross-shore,Cross-shore",6
5842041f4e65fad6a7708857,2024_05_01,39.941519877445664,-74.06829,Casino Pier,2,0.5226722222222223,0.915961111111111,13,11,"MIST,NIGHT_CLEAR,NIGHT_MIST,CLEAR,CLEAR,CLEAR","Onshore,Cross-shore,Cross-shore,Onshore,Onshore,Onshore",6
5842041f4e65fad6a7708858,2024_05_01,39.28223089949212,-74.55766,North End OC,1.9716666666666667,0.4877277777777778,0.7902722222222223,13,11,"MIST,NIGHT_MIST,NIGHT_MOSTLY_CLOUDY,MIST,MIST,MIST","Onshore,Cross-shore,Cross-shore,Onshore,Onshore,Onshore",6
5842041f4e65fad6a770885b,2024_05_01,39.65080599934257,-74.17146,Ship Bottom,1.805,0.5343388888888889,0.9003944444444445,13,11,"MIST,NIGHT_CLEAR,NIGHT_OVERCAST,MIST,MIST,MIST","Cross-shore,Cross-shore,Cross-shore,Onshore,Cross-shore,Cross-shore",6
5842041f4e65fad6a7708863,2024_05_01,36.034151543144,-75.66791,Third Street,2.5,0.3950166666666667,0.7015111111111112,13,10,"CLEAR,NIGHT_CLEAR,NIGHT_CLEAR,CLEAR,CLEAR,MOSTLY_CLOUDY","Offshore,Offshore,Offshore,Offshore,Offshore,Offshore",6
5842041f4e65fad6a7708867,2024_05_01,35.605833221351425,-75.46303,S-Turns,2.1666666666666665,0.5439055555555555,0.9006611111111111,16,14,"CLEAR,NIGHT_MOSTLY_CLOUDY,NIGHT_CLEAR,MIST,CLEAR,CLEAR","Offshore,Offshore,Offshore,Offshore,Cross-shore,Cross-shore",6
5842041f4e65fad6a770886d,2024_05_01,38.338461,-75.08117,Ocean City Boardwalk,2.2783333333333333,0.37856666666666666,0.6969,14,12.5,"CLEAR,NIGHT_MOSTLY_CLEAR,NIGHT_MOSTLY_CLEAR,MIST,MIST,MIST","Offshore,Offshore,Offshore,Onshore,Onshore,Onshore",6
5842041f4e65fad6a770886f,2024_05_01,29.844757212379562,-81.26136,A St.,2,0.515,0.82,22.5,22.5,"CLOUDY,NIGHT_CLEAR,NIGHT_CLEAR,CLEAR,CLEAR,CLEAR","Onshore,Onshore,Cross-shore,Onshore,Onshore,Onshore",6
5842041f4e65fad6a7708871,2024_05_01,29.069417851135093,-80.90824,New Smyrna Beach,2,0.9124555555555556,1.3114055555555555,24,23,"CLEAR,NIGHT_CLEAR,NIGHT_CLEAR,CLEAR,MIST,MIST","Cross-shore,Cross-shore,Cross-shore,Onshore,Onshore,Onshore",6
5842041f4e65fad6a7708872,2024_05_01,28.367707417566,-80.60171,Cocoa Beach Pier,2.1666666666666665,0.53215,0.8744611111111111,24,23,"CLEAR,NIGHT_FOG,NIGHT_FOG,CLEAR,CLEAR,CLEAR","Onshore,Cross-shore,Cross-shore,Onshore,Onshore,Onshore",6
5842041f4e65fad6a7708873,2024_05_01,28.091782738658846,-80.56479,Indialantic,1.9166666666666667,0.6142111111111112,0.9442444444444444,24,23,"MOSTLY_CLEAR,NIGHT_CLEAR,NIGHT_MOSTLY_CLEAR,MIST,CLEAR,CLEAR","Onshore,Cross-shore,Cross-shore,Onshore,Onshore,Onshore",6
5842041f4e65fad6a7708876,2024_05_01,27.25392904143517,-80.19455,Jensen Beach,1.3333333333333333,0.6629833333333334,0.9998944444444444,24,23,"MOSTLY_CLEAR,NIGHT_CLEAR,NIGHT_SHOWERS,CLEAR,MOSTLY_CLEAR,CLEAR","Onshore,Cross-shore,Cross-shore,Onshore,Onshore,Onshore",6
5842041f4e65fad6a7708879,2024_05_01,26.76346795333825,-80.03607,Reef Road,1.3333333333333333,0.31185,0.6117888888888889,25,24,"MOSTLY_CLOUDY,NIGHT_MOSTLY_CLOUDY,NIGHT_MOSTLY_CLOUDY,CLEAR,CLEAR,CLEAR","Onshore,Onshore,Onshore,Onshore,Onshore,Onshore",6
5842041f4e65fad6a770887c,2024_05_01,26.336499228484,-80.06956100463,Boca Raton Inlet,1,0.1721777777777778,0.4769333333333334,25,24,"CLEAR,NIGHT_BRIEF_SHOWERS,NIGHT_CLEAR,CLEAR,CLEAR,CLEAR","Onshore,Onshore,Onshore,Onshore,Onshore,Onshore",6
5842041f4e65fad6a770887d,2024_05_01,26.31719311695038,-80.07453,Deerfield Beach Pier,0.7916666666666666,0.06946111111111111,0.3753,26,24,"CLEAR,NIGHT_CLEAR,NIGHT_CLEAR,CLEAR,CLEAR,CLEAR","Onshore,Onshore,Onshore,Onshore,Onshore,Onshore",6
5842041f4e65fad6a7708881,2024_05_01,30.20276320866628,-85.85626528676136,"Spyglass Dr., Panama City",1.3333333333333333,0.17440555555555556,0.4766888888888889,23,22,"SHOWERS,NIGHT_BRIEF_SHOWERS,NIGHT_FOG,MOSTLY_CLEAR,CLEAR,CLEAR","Onshore,Onshore,Onshore,Onshore,Onshore,Onshore",6
5842041f4e65fad6a7708884,2024_05_01,33.39000832738053,-117.59852,Cottons,2,0.6056555555555556,0.9760777777777777,17,17,"MOSTLY_CLOUDY,NIGHT_OVERCAST,NIGHT_OVERCAST,MOSTLY_CLOUDY,CLEAR,CLEAR","Onshore,Offshore,Offshore,Onshore,Onshore,Onshore",6
5842041f4e65fad6a7708885,2024_05_01,33.359416282661,-117.54168,Trails,2,0.445,0.7466666666666667,16.5,16.5,"MOSTLY_CLOUDY,NIGHT_OVERCAST,NIGHT_OVERCAST,MOSTLY_CLOUDY,MOSTLY_CLEAR,CLEAR","Onshore,Cross-shore,Cross-shore,Onshore,Onshore,Onshore",6
5842041f4e65fad6a7708886,2024_05_01,33.38042605929805,-117.58332,Middles,1.6933333333333334,0.44305555555555554,0.8179222222222222,17,17,"MOSTLY_CLOUDY,NIGHT_OVERCAST,NIGHT_OVERCAST,MOSTLY_CLOUDY,CLEAR,CLEAR","Onshore,Cross-shore,Cross-shore,Onshore,Onshore,Onshore",6
5842041f4e65fad6a7708887,2024_05_01,33.38445596302903,-117.59445,Upper Trestles,2.8333333333333335,0.6331555555555556,1.0096888888888889,17,17,"MOSTLY_CLOUDY,NIGHT_OVERCAST,NIGHT_OVERCAST,MOSTLY_CLOUDY,CLEAR,CLEAR","Onshore,Cross-shore,Cross-shore,Onshore,Onshore,Onshore",6
5842041f4e65fad6a7708889,2024_05_01,28.944414,-95.28883,Surfside,2,0.74974833333333335,1.1714849999999999,23.5,23.5,"CLEAR,NIGHT_DRIZZLE,NIGHT_DRIZZLE,MIST,MIST,MIST","Onshore,Onshore,Onshore,Onshore,Onshore,Onshore",6
5842041f4e65fad6a770888a,2024_05_01,33.38143999849023,-117.58843,Lower Trestles,2.526666666666667,0.6262111111111112,0.9983,17,17,"MOSTLY_CLOUDY,NIGHT_OVERCAST,NIGHT_OVERCAST,MOSTLY_CLOUDY,CLEAR,CLEAR","Onshore,Cross-shore,Cross-shore,Onshore,Onshore,Onshore",6
5842041f4e65fad6a770888b,2024_05_01,33.379622288757,-117.57894,Church,1.8883333333333334,0.6061111111111112,0.9748666666666667,17,17,"MOSTLY_CLOUDY,NIGHT_OVERCAST,NIGHT_OVERCAST,MOSTLY_CLOUDY,CLEAR,CLEAR","Onshore,Cross-shore,Offshore,Onshore,Onshore,Onshore",6
5842041f4e65fad6a770888d,2024_05_01,21.679,-158.042,Sunset Beach,2.055,0.2972,0.60065,26,25,"BRIEF_SHOWERS,NIGHT_CLEAR,NIGHT_CLEAR,CLEAR,CLEAR,MOSTLY_CLEAR","Cross-shore,Offshore,Offshore,Cross-shore,Offshore,Offshore",6
5842041f4e65fad6a770888e,2024_05_01,21.670550036401,-158.0482,Rocky Point,2.055,0.30428333333333335,0.6035666666666667,26,25,"CLEAR,NIGHT_CLEAR,NIGHT_MOSTLY_CLEAR,CLEAR,CLEAR,CLEAR","Cross-shore,Offshore,Offshore,Cross-shore,Cross-shore,Cross-shore",6
5842041f4e65fad6a770888f,2024_05_01,21.668,-158.05,Chambers,2,0.25666666666666665,0.5616666666666668,25,25,"CLEAR,NIGHT_CLEAR,NIGHT_MOSTLY_CLEAR,CLEAR,CLEAR,CLEAR","Cross-shore,Offshore,Offshore,Offshore,Cross-shore,Cross-shore",6
5842041f4e65fad6a7708890,2024_05_01,21.66522,-158.0526,Pipeline,1,0.20053333333333334,0.5052333333333333,26,25,"CLEAR,NIGHT_CLEAR,NIGHT_MOSTLY_CLEAR,CLEAR,CLEAR,CLEAR","Cross-shore,Offshore,Offshore,Cross-shore,Cross-shore,Cross-shore",6
5842041f4e65fad6a7708891,2024_05_01,21.665,-158.054,Backdoor,1.7216666666666667,0.20053333333333334,0.5052333333333333,26,25,"CLEAR,NIGHT_CLEAR,NIGHT_MOSTLY_CLEAR,CLEAR,CLEAR,CLEAR","Cross-shore,Offshore,Offshore,Cross-shore,Cross-shore,Cross-shore",6
5842041f4e65fad6a7708892,2024_05_01,21.662,-158.057,Rockpile,2.6666666666666665,0.3433333333333334,0.6466666666666667,25,25,"CLEAR,NIGHT_CLEAR,NIGHT_MOSTLY_CLEAR,CLEAR,CLEAR,CLEAR","Cross-shore,Offshore,Offshore,Offshore,Cross-shore,Cross-shore",6
5842041f4e65fad6a7708893,2024_05_01,21.65870453806827,-158.06058,Log Cabins,1.5,0.16666666666666669,0.4716666666666667,25,25,"CLEAR,NIGHT_CLEAR,NIGHT_MOSTLY_CLEAR,CLEAR,CLEAR,CLEAR","Cross-shore,Offshore,Offshore,Cross-shore,Cross-shore,Cross-shore",6
5842041f4e65fad6a7708894,2024_05_01,21.66203493640557,-158.05495,Off-The-Wall,2,0.25666666666666665,0.5616666666666668,25,25,"CLEAR,NIGHT_CLEAR,NIGHT_MOSTLY_CLEAR,CLEAR,CLEAR,CLEAR","Cross-shore,Offshore,Offshore,Cross-shore,Cross-shore,Cross-shore",6
5842041f4e65fad6a7708895,2024_05_01,21.643,-158.067,Waimea Bay,NA,0.13916666666666666,0.37401666666666666,26,25,"CLEAR,NIGHT_CLEAR,NIGHT_MOSTLY_CLEAR,CLEAR,CLEAR,CLEAR","Cross-shore,Offshore,Offshore,Cross-shore,Cross-shore,Offshore",6
5842041f4e65fad6a7708896,2024_05_01,21.622,-158.087,Hultin's,1.3333333333333333,0.24136666666666667,0.5469,26,25,"CLEAR,NIGHT_MOSTLY_CLEAR,NIGHT_MOSTLY_CLEAR,CLEAR,CLEAR,CLEAR","Offshore,Cross-shore,Offshore,Offshore,Offshore,Offshore",6
5842041f4e65fad6a7708897,2024_05_01,21.623,-158.085,Jocko's,2,0.18333333333333335,0.48833333333333334,25,25,"CLEAR,NIGHT_MOSTLY_CLEAR,NIGHT_MOSTLY_CLEAR,CLEAR,CLEAR,CLEAR","Cross-shore,Onshore,Offshore,Cross-shore,Cross-shore,Cross-shore",6
5842041f4e65fad6a7708898,2024_05_01,21.62,-158.088,Laniakea,2.055,0.29303333333333337,0.6002333333333334,26,25,"CLEAR,NIGHT_MOSTLY_CLEAR,NIGHT_MOSTLY_CLEAR,CLEAR,CLEAR,CLEAR","Offshore,Cross-shore,Offshore,Offshore,Offshore,Offshore",6
5842041f4e65fad6a7708899,2024_05_01,21.625,-158.083,Chun's,1.6666666666666667,0.24333333333333335,0.5483333333333333,25,25,"CLEAR,NIGHT_MOSTLY_CLEAR,NIGHT_MOSTLY_CLEAR,CLEAR,CLEAR,CLEAR","Offshore,Cross-shore,Offshore,Offshore,Offshore,Offshore",6
5842041f4e65fad6a770889c,2024_05_01,21.286357895152136,-157.8515,South Shore - Ala Moana Park,2.8333333333333335,0.6416666666666667,0.9450000000000001,25,25,"CLEAR,NIGHT_MOSTLY_CLEAR,NIGHT_MOSTLY_CLEAR,CLEAR,MOSTLY_CLEAR,CLEAR","Offshore,Cross-shore,Cross-shore,Offshore,Offshore,Offshore",6
5842041f4e65fad6a770889d,2024_05_01,19.606,-155.978,Banyans,2.5566666666666666,0.5223166666666667,0.82535,26,25,"CLEAR,NIGHT_CLEAR,NIGHT_CLEAR,CLEAR,CLEAR,CLEAR","Onshore,Cross-shore,Cross-shore,Onshore,Onshore,Onshore",6
5842041f4e65fad6a770889e,2024_05_01,20.029,-155.831,Kawaihae,1.8333333333333333,0.4444,0.57901,25,25,"CLEAR,NIGHT_CLEAR,NIGHT_CLEAR,CLEAR,MOSTLY_CLEAR,MOSTLY_CLEAR","Onshore,Cross-shore,Offshore,Onshore,Onshore,Onshore",6
5842041f4e65fad6a770889f,2024_05_01,33.07541383424675,-117.3105,Grandview,2,0.6966666666666667,1.0033333333333334,17,17,"MOSTLY_CLOUDY,NIGHT_FOG,NIGHT_FOG,MOSTLY_CLOUDY,MOSTLY_CLOUDY,MOSTLY_CLOUDY","Onshore,Onshore,Onshore,Onshore,Onshore,Onshore",6
5842041f4e65fad6a77088a0,2024_05_01,33.065267421296596,-117.30577,Beacons,2,0.69,0.995,17,17,"MOSTLY_CLOUDY,NIGHT_FOG,NIGHT_FOG,MOSTLY_CLOUDY,MOSTLY_CLOUDY,MOSTLY_CLOUDY","Onshore,Onshore,Onshore,Onshore,Onshore,Onshore",6
5842041f4e65fad6a77088a2,2024_05_01,21.252,-157.805,Diamond Head,3,0.7280841666666666,1.109005,26,25,"CLEAR,NIGHT_MOSTLY_CLEAR,NIGHT_CLEAR,CLEAR,MOSTLY_CLOUDY,CLEAR","Cross-shore,Cross-shore,Cross-shore,Cross-shore,Cross-shore,Cross-shore",6
5842041f4e65fad6a77088a3,2024_05_01,33.04694255008896,-117.29966,Moonlight State Beach,2.1666666666666665,0.695,1.0016666666666667,17,17,"BRIEF_SHOWERS,NIGHT_MIST,NIGHT_MIST,CLEAR,CLEAR,MOSTLY_CLOUDY","Onshore,Onshore,Onshore,Onshore,Onshore,Onshore",6
5842041f4e65fad6a77088a5,2024_05_01,33.08685865930869,-117.31532,Ponto,1.6666666666666667,0.7783333333333333,1.0616666666666668,17,17,"MOSTLY_CLOUDY,NIGHT_FOG,NIGHT_FOG,MOSTLY_CLOUDY,MOSTLY_CLOUDY,MOSTLY_CLOUDY","Onshore,Cross-shore,Offshore,Onshore,Onshore,Onshore",6
5842041f4e65fad6a77088a6,2024_05_01,33.130343587871906,-117.33668,Terra Mar Point,2,0.6697444444444445,1.0326888888888888,16,16,"MOSTLY_CLOUDY,NIGHT_FOG,NIGHT_FOG,OVERCAST,MOSTLY_CLOUDY,MOSTLY_CLOUDY","Onshore,Onshore,Cross-shore,Onshore,Onshore,Onshore",6
5842041f4e65fad6a77088af,2024_05_01,32.95916304183685,-117.26963,Del Mar,2.3333333333333335,0.8983333333333333,1.085,17,17,"MIST,NIGHT_MIST,NIGHT_CLOUDY,CLEAR,CLEAR,CLEAR","Cross-shore,Offshore,Cross-shore,Onshore,Onshore,Onshore",6
5842041f4e65fad6a77088b0,2024_05_01,32.97527261243354,-117.2721061331305,Del Mar Rivermouth,2.3333333333333335,0.9883333333333333,1.1816666666666666,17,17,"MIST,NIGHT_FOG,NIGHT_FOG,CLEAR,CLEAR,CLEAR","Cross-shore,Offshore,Offshore,Onshore,Onshore,Onshore",6
5842041f4e65fad6a77088b1,2024_05_01,33.01352178146273,-117.28219,Cardiff Reef,2.361666666666667,0.9547444444444445,1.2530888888888887,16,16,"MIST,NIGHT_FOG,NIGHT_FOG,MOSTLY_CLOUDY,MOSTLY_CLOUDY,MOSTLY_CLOUDY","Onshore,Onshore,Cross-shore,Onshore,Onshore,Onshore",6
5842041f4e65fad6a77088b3,2024_05_01,33.00211185876003,-117.2811,Seaside Reef,2.195,0.8012722222222222,1.1559555555555556,18,17,"BRIEF_SHOWERS,NIGHT_FOG,NIGHT_MIST,CLEAR,CLEAR,CLEAR","Onshore,Onshore,Onshore,Onshore,Onshore,Onshore",6
5842041f4e65fad6a77088b4,2024_05_01,33.0341859796287,-117.29552,Swami's,2.695,0.7468277777777778,1.0758166666666666,16,16,"MIST,NIGHT_FOG,NIGHT_FOG,MOSTLY_CLOUDY,MOSTLY_CLOUDY,MOSTLY_CLOUDY","Onshore,Onshore,Onshore,Onshore,Onshore,Onshore",6
5842041f4e65fad6a77088b7,2024_05_01,33.04569760260221,-117.2994,D Street,2.6666666666666665,0.7333333333333333,1.0183333333333333,17,17,"BRIEF_SHOWERS,NIGHT_MIST,NIGHT_MIST,CLEAR,CLEAR,MOSTLY_CLOUDY","Onshore,Onshore,Onshore,Onshore,Onshore,Onshore",6
5842041f4e65fad6a77088b8,2024_05_01,33.02090944350196,-117.28535,San Elijo State Beach,2.361666666666667,0.7123833333333334,1.0971166666666665,16,16,"MIST,NIGHT_FOG,NIGHT_FOG,MOSTLY_CLOUDY,MOSTLY_CLOUDY,MOSTLY_CLOUDY","Onshore,Onshore,Cross-shore,Onshore,Onshore,Onshore",6
5842041f4e65fad6a77088c2,2024_05_01,32.80662846492798,-117.26888,PB Point,3,0.995,1.175,17,17,"MOSTLY_CLOUDY,NIGHT_MIST,NIGHT_DRIZZLE,MOSTLY_CLOUDY,MOSTLY_CLOUDY,MOSTLY_CLOUDY","Onshore,Onshore,Onshore,Onshore,Onshore,Cross-shore",6
5842041f4e65fad6a77088c4,2024_05_01,32.8060476681448,-117.26479,Old Man's at Tourmaline,2.5,0.6833333333333333,0.99,17,17,"MOSTLY_CLOUDY,NIGHT_MIST,NIGHT_DRIZZLE,MOSTLY_CLOUDY,MOSTLY_CLOUDY,MOSTLY_CLOUDY","Onshore,Onshore,Onshore,Onshore,Onshore,Cross-shore",6
5842041f4e65fad6a77088cb,2024_05_01,32.557056711256,-117.1327445020322,Tijuana Slough,2,0.6666666666666666,0.97,16,16,"MIST,NIGHT_CLEAR,NIGHT_MOSTLY_CLOUDY,MOSTLY_CLOUDY,MOSTLY_CLOUDY,MOSTLY_CLOUDY","Onshore,Onshore,Cross-shore,Onshore,Onshore,Onshore",6
5842041f4e65fad6a77088cc,2024_05_01,32.863,-117.257,La Jolla Shores,2.3333333333333335,0.6966666666666667,1.005,17,17,"MOSTLY_CLOUDY,NIGHT_CLOUDY,NIGHT_CLOUDY,CLEAR,CLEAR,MOSTLY_CLOUDY","Cross-shore,Cross-shore,Offshore,Onshore,Onshore,Onshore",6
5842041f4e65fad6a77088ce,2024_05_01,32.67443657790586,-117.17421,Coronado Beach,2,0.3933333333333333,0.6966666666666667,16,16,"MOSTLY_CLOUDY,NIGHT_CLOUDY,NIGHT_CLEAR,MOSTLY_CLOUDY,MOSTLY_CLOUDY,MOSTLY_CLOUDY","Onshore,Onshore,Onshore,Cross-shore,Onshore,Cross-shore",6
5842041f4e65fad6a77088cf,2024_05_01,33.40484417640326,-117.60749,San Clemente State Beach,2,0.51,0.8133333333333334,16.5,16.5,"MOSTLY_CLOUDY,NIGHT_FOG,NIGHT_FOG,MOSTLY_CLOUDY,MOSTLY_CLEAR,CLEAR","Onshore,Onshore,Onshore,Onshore,Onshore,Onshore",6
5842041f4e65fad6a77088d5,2024_05_01,33.4663042002114,-117.7168352817103,Strands,2.138333333333333,0.7201888888888889,1.0583444444444445,16,16,"MIST,NIGHT_MIST,NIGHT_MIST,MOSTLY_CLOUDY,MOSTLY_CLEAR,MOSTLY_CLEAR","Onshore,Cross-shore,Cross-shore,Onshore,Onshore,Onshore",6
5842041f4e65fad6a77088d7,2024_05_01,33.4609858001748,-117.68535,Doheny State Beach,1.8333333333333333,0.18546666666666667,0.48843333333333333,17,17,"MOSTLY_CLOUDY,NIGHT_MIST,NIGHT_OVERCAST,MOSTLY_CLOUDY,MOSTLY_CLEAR,CLEAR","Onshore,Onshore,Onshore,Onshore,Onshore,Onshore",6
5842041f4e65fad6a77088dc,2024_05_01,33.50894790083017,-117.75243,Aliso Creek,2,0.37833333333333335,0.6866666666666666,16,16,"MIST,NIGHT_MIST,NIGHT_MIST,CLEAR,CLEAR,CLEAR","Onshore,Onshore,Onshore,Onshore,Onshore,Onshore",6
5842041f4e65fad6a77088dd,2024_05_01,33.5326591767067,-117.77764,Brooks Street,1.6666666666666667,0.25333333333333335,0.56,16,16,"MIST,NIGHT_MIST,NIGHT_MIST,CLEAR,CLEAR,CLEAR","Onshore,Onshore,Onshore,Onshore,Onshore,Onshore",6
5842041f4e65fad6a77088de,2024_05_01,33.53561225884637,-117.7799,Thalia Street,1.6666666666666667,0.28833333333333333,0.5933333333333333,16,16,"MIST,NIGHT_MIST,NIGHT_MIST,CLEAR,CLEAR,CLEAR","Onshore,Onshore,Onshore,Onshore,Onshore,Onshore",6
5842041f4e65fad6a77088e3,2024_05_01,33.54268310353641,-117.7916,Rockpile,1.6666666666666667,0.29833333333333334,0.605,16,16,"MIST,NIGHT_MIST,NIGHT_MIST,CLEAR,CLEAR,CLEAR","Onshore,Onshore,Onshore,Onshore,Onshore,Onshore",6
5842041f4e65fad6a77088e4,2024_05_01,33.7368459504689,-118.10342,"Seal Beach Pier, Southside",1.3333333333333333,0.085,0.39,16,16,"BRIEF_SHOWERS,NIGHT_MIST,NIGHT_MIST,MIST,MIST,MIST","Onshore,Cross-shore,Cross-shore,Onshore,Onshore,Onshore",6
5842041f4e65fad6a77088e5,2024_05_01,33.73933701820233,-118.117,Ray Bay,1.3333333333333333,0.07666666666666666,0.38,16,16,"CLEAR,NIGHT_MIST,NIGHT_MIST,CLEAR,CLEAR,CLEAR","Onshore,Cross-shore,Cross-shore,Onshore,Onshore,Onshore",6
5842041f4e65fad6a77088e7,2024_05_01,33.728733,-118.08982,Surfside,1,0.18333333333333335,0.49,16,16,"MOSTLY_CLEAR,NIGHT_MIST,NIGHT_MIST,CLEAR,CLEAR,CLEAR","Onshore,Cross-shore,Cross-shore,Onshore,Onshore,Onshore",6
5842041f4e65fad6a77088e8,2024_05_01,33.68760321488161,-118.04236,Bolsa Chica State Beach,2.138333333333333,0.6265888888888889,0.9892555555555556,14,14,"MOSTLY_CLEAR,NIGHT_MIST,NIGHT_MIST,MOSTLY_CLEAR,CLEAR,CLEAR","Onshore,Cross-shore,Onshore,Onshore,Onshore,Onshore",6
5842041f4e65fad6a77088ea,2024_05_01,33.66704400178788,-118.0192,North HB Streets,2.138333333333333,0.61645,1.0279888888888888,14,14,"MOSTLY_CLEAR,NIGHT_BRIEF_SHOWERS,NIGHT_MOSTLY_CLOUDY,MOSTLY_CLEAR,CLEAR,CLEAR","Onshore,Cross-shore,Cross-shore,Onshore,Onshore,Onshore",6
5842041f4e65fad6a77088ed,2024_05_01,33.65475101379567,-118.00291,Huntington Beach Pier Southside,2.3333333333333335,0.8008555555555555,1.189338888888889,14,14,"MOSTLY_CLEAR,NIGHT_BRIEF_SHOWERS,NIGHT_MOSTLY_CLOUDY,MOSTLY_CLEAR,CLEAR,CLEAR","Cross-shore,Cross-shore,Cross-shore,Onshore,Onshore,Onshore",6
5842041f4e65fad6a77088ee,2024_05_01,33.62778647706099,-117.95939,River Jetties,1.8333333333333333,0.6406166666666667,1.0271555555555556,16,16,"MOSTLY_CLEAR,NIGHT_MOSTLY_CLOUDY,NIGHT_MOSTLY_CLOUDY,MOSTLY_CLOUDY,MOSTLY_CLEAR,CLEAR","Onshore,Cross-shore,Cross-shore,Onshore,Onshore,Onshore",6
5842041f4e65fad6a77088f2,2024_05_01,33.605165797643664,-117.925,Newport Point,1.5,0.295,0.6016666666666667,16,16,"BRIEF_SHOWERS,NIGHT_MIST,NIGHT_MIST,CLEAR,CLEAR,MIST","Onshore,Onshore,Onshore,Onshore,Onshore,Onshore",6
5842041f4e65fad6a77088f3,2024_05_01,33.58982984726977,-117.87713,Corona del Mar,1,0.13967333333333334,0.21824166666666667,16,16,"MIST,NIGHT_MIST,NIGHT_MIST,CLEAR,CLEAR,CLEAR","Onshore,Cross-shore,Cross-shore,Onshore,Onshore,Onshore",6
5842041f4e65fad6a77088f7,2024_05_01,34.00750300824362,-118.4971783496269,Santa Monica Pier,1.6666666666666667,0.2866666666666667,0.5933333333333334,16,16,"MOSTLY_CLEAR,NIGHT_MOSTLY_CLOUDY,NIGHT_MOSTLY_CLOUDY,BRIEF_SHOWERS,BRIEF_SHOWERS,MOSTLY_CLOUDY","Onshore,Cross-shore,Offshore,Onshore,Onshore,Onshore",6
5842041f4e65fad6a77088ff,2024_05_01,33.94070283102945,-118.44321,Dockweiler Beach,2.5,0.6695473611111111,1.0249602777777778,14,14,"MIST,NIGHT_MIST,NIGHT_CLEAR,SHOWERS,BRIEF_SHOWERS,MIST","Onshore,Cross-shore,Cross-shore,Onshore,Onshore,Onshore",6
5842041f4e65fad6a7708900,2024_05_01,33.9231846937237,-118.4341465777908,Shitpipe,2.5,0.5452111111111112,0.9401666666666666,14,14,"MIST,NIGHT_CLEAR,NIGHT_CLEAR,MIST,BRIEF_SHOWERS,MIST","Onshore,Offshore,Cross-shore,Onshore,Onshore,Onshore",6
5842041f4e65fad6a7708902,2024_05_01,33.9108528052242,-118.4279133138721,Hammerland,2.5,0.6172555555555556,1.018461111111111,14,14,"MIST,NIGHT_CLEAR,NIGHT_CLEAR,MIST,BRIEF_SHOWERS,MIST","Onshore,Offshore,Cross-shore,Onshore,Onshore,Onshore",6
5842041f4e65fad6a7708904,2024_05_01,33.87201368173932,-118.40752,Hermosa Beach,2.195,0.6137833333333333,1.0074888888888889,14,14,"BRIEF_SHOWERS,NIGHT_CLEAR,NIGHT_CLEAR,MIST,MIST,MIST","Onshore,Offshore,Offshore,Onshore,Onshore,Onshore",6
5842041f4e65fad6a7708906,2024_05_01,33.90129336911256,-118.42184,El Porto,2.5,0.8040611111111111,1.1601277777777776,14,14,"BRIEF_SHOWERS,NIGHT_CLEAR,NIGHT_CLEAR,MIST,MIST,MIST","Onshore,Offshore,Cross-shore,Onshore,Onshore,Onshore",6
5842041f4e65fad6a7708907,2024_05_01,33.87963506431794,-118.41102,Manhattan Beach Pier,2.638333333333333,0.7292000000000001,1.12985,14,14,"BRIEF_SHOWERS,NIGHT_CLEAR,NIGHT_CLEAR,MIST,MIST,MIST","Onshore,Offshore,Offshore,Onshore,Onshore,Onshore",6
5842041f4e65fad6a7708914,2024_05_01,34.038053387863464,-118.5532,Sunset Point,1.5,0.15333333333333332,0.4583333333333333,16,16,"MIST,NIGHT_MIST,NIGHT_MIST,MIST,MIST,MIST","Onshore,Offshore,Offshore,Onshore,Onshore,Onshore",6
5842041f4e65fad6a7708920,2024_05_01,33.80282,-118.39989,Haggerty's,2,0.227,0.41100000000000003,15,15,"BRIEF_SHOWERS,NIGHT_CLEAR,NIGHT_CLEAR,MIST,MIST,MIST","Onshore,Onshore,Onshore,Onshore,Onshore,Onshore",6
5842041f4e65fad6a7708921,2024_05_01,33.85044519861206,-118.40048,Redondo Breakwater,2.3333333333333335,0.76,1.025,15,15,"BRIEF_SHOWERS,NIGHT_CLEAR,NIGHT_CLEAR,MIST,MIST,MIST","Onshore,Offshore,Offshore,Onshore,Onshore,Onshore",6
5842041f4e65fad6a7708927,2024_05_01,33.70877301002487,-118.2840112858389,Cabrillo Beach,2,0.06333333333333334,0.365,15,15,"CLEAR,NIGHT_MIST,NIGHT_DRIZZLE,MOSTLY_CLEAR,MOSTLY_CLEAR,MOSTLY_CLEAR","Offshore,Cross-shore,Cross-shore,Offshore,Onshore,Offshore",6
5842041f4e65fad6a770892c,2024_05_01,33.77209986806257,-118.4268428476672,Lunada Bay,1.5,0.7516666666666667,1.02,15,15,"BRIEF_SHOWERS,NIGHT_CLEAR,NIGHT_CLEAR,MIST,MIST,MIST","Onshore,Cross-shore,Cross-shore,Onshore,Onshore,Onshore",6
5842041f4e65fad6a770892d,2024_05_01,33.79294656286144,-118.40703,PV Cove,2.3333333333333335,0.7194050000000001,0.9716583333333333,15,15,"BRIEF_SHOWERS,NIGHT_CLEAR,NIGHT_CLEAR,MIST,MIST,MIST","Onshore,Offshore,Offshore,Onshore,Onshore,Onshore",6
5842041f4e65fad6a7708930,2024_05_01,34.03944902292561,-118.57539,Chart House,1.3333333333333333,0.013333333333333334,0.29333333333333333,16,16,"MOSTLY_CLEAR,NIGHT_MIST,NIGHT_BRIEF_SHOWERS,SHOWERS,BRIEF_SHOWERS,MOSTLY_CLEAR","Cross-shore,Offshore,Offshore,Cross-shore,Cross-shore,Cross-shore",6
5842041f4e65fad6a7708936,2024_05_01,34.0016731994772,-118.80456,Point Dume,1.11,0.049444444444444444,0.3537666666666667,14,14,"MIST,NIGHT_BRIEF_SHOWERS,NIGHT_MIST,MIST,MIST,MIST","Cross-shore,Cross-shore,Cross-shore,Cross-shore,Cross-shore,Cross-shore",6
5842041f4e65fad6a7708937,2024_05_01,34.02587527588963,-118.7554939066114,Latigo Point,1.8333333333333333,0.09833333333333333,0.4066666666666667,15.5,15.5,"MIST,NIGHT_MIST,NIGHT_MIST,MIST,MIST,MIST","Onshore,Offshore,Offshore,Cross-shore,Onshore,Onshore",6
5842041f4e65fad6a770893f,2024_05_01,34.043762,-118.93294,Leo Carrillo,2.305,0.3186277777777778,0.625588888888889,14,14,"MIST,NIGHT_MIST,NIGHT_MIST,MIST,MIST,MIST","Onshore,Cross-shore,Offshore,Cross-shore,Cross-shore,Cross-shore",6
5842041f4e65fad6a7708941,2024_05_01,36.69388179265737,-121.81289,Marina State Beach,2,2.175,2.435,13,13,"CLEAR,NIGHT_CLEAR,NIGHT_CLEAR,CLEAR,CLEAR,CLEAR","Onshore,Onshore,Onshore,Onshore,Onshore,Onshore",6
5842041f4e65fad6a7708944,2024_05_01,34.34145077331085,-119.416999352654,Stanley's,2.3333333333333335,0.31,0.6183333333333333,14.5,14.5,"CLEAR,NIGHT_MIST,NIGHT_MIST,MOSTLY_CLOUDY,MOSTLY_CLOUDY,CLEAR","Onshore,Offshore,Offshore,Onshore,Onshore,Onshore",6
5842041f4e65fad6a7708945,2024_05_01,34.35113017313915,-119.426921498899,Oil Piers,2.3333333333333335,0.24166666666666667,0.5466666666666666,14.5,14.5,"CLEAR,NIGHT_MIST,NIGHT_MIST,MOSTLY_CLOUDY,MOSTLY_CLOUDY,CLEAR","Onshore,Offshore,Offshore,Onshore,Onshore,Onshore",6
5842041f4e65fad6a770894c,2024_05_01,34.17876333306018,-119.23995,Oxnard,2.3333333333333335,0.6566666666666667,0.9333333333333333,15,15,"CLEAR,NIGHT_MIST,NIGHT_MIST,MOSTLY_CLOUDY,MOSTLY_CLEAR,MOSTLY_CLEAR","Onshore,Cross-shore,Onshore,Onshore,Onshore,Onshore",6
5842041f4e65fad6a7708957,2024_05_01,34.31720331100517,-119.3882324751725,Pitas Point,2.5,0.31833333333333336,0.6266666666666667,14.5,14.5,"BRIEF_SHOWERS,NIGHT_MIST,NIGHT_MIST,BRIEF_SHOWERS,MIST,MIST","Onshore,Offshore,Offshore,Onshore,Cross-shore,Cross-shore",6
5842041f4e65fad6a7708959,2024_05_01,34.27851754384724,-119.3162,Emma Wood,2.1666666666666665,0.30833333333333335,0.615,14.5,14.5,"MIST,NIGHT_MIST,NIGHT_MIST,MIST,MIST,MIST","Onshore,Offshore,Offshore,Onshore,Onshore,Onshore",6
5842041f4e65fad6a770895a,2024_05_01,34.35513640390276,-119.4400589884255,Mussel Shoals (aka Little Rincon),2.3333333333333335,0.31333333333333335,0.6166666666666667,14.5,14.5,"BRIEF_SHOWERS,NIGHT_CLEAR,NIGHT_MIST,MIST,MIST,MIST","Onshore,Offshore,Offshore,Onshore,Onshore,Onshore",6
5842041f4e65fad6a770895e,2024_05_01,34.28991757054902,-119.3366646794652,Summer Beach,1.8333333333333333,0.22,0.525,14.5,14.5,"MIST,NIGHT_MIST,NIGHT_MIST,MIST,MIST,MIST","Onshore,Offshore,Offshore,Onshore,Onshore,Cross-shore",6
5842041f4e65fad6a770895f,2024_05_01,34.30897456105926,-119.3582501170116,Solimar,2.1666666666666665,0.22166666666666665,0.5266666666666666,14.5,14.5,"BRIEF_SHOWERS,NIGHT_MIST,NIGHT_MIST,BRIEF_SHOWERS,MIST,MIST","Onshore,Offshore,Offshore,Onshore,Onshore,Cross-shore",6
5842041f4e65fad6a7708960,2024_05_01,34.39836265281686,-119.70213,Leadbetter Point,1.3333333333333333,0.006666666666666667,0.29000000000000004,14,14,"CLEAR,NIGHT_MIST,NIGHT_MIST,CLEAR,CLEAR,CLEAR","Onshore,Cross-shore,Cross-shore,Cross-shore,Cross-shore,Cross-shore",6
5842041f4e65fad6a7708961,2024_05_01,34.46052293893899,-120.07328,Refugio,1.6666666666666667,0.02666666666666667,0.33166666666666667,14,14,"CLEAR,NIGHT_CLEAR,NIGHT_CLEAR,CLEAR,CLEAR,CLEAR","Onshore,Offshore,Offshore,Cross-shore,Onshore,Onshore",6
5842041f4e65fad6a7708962,2024_05_01,34.40754276777778,-119.87639,Devereux,2.3333333333333335,0.2833333333333333,0.585,14,14,"MIST,NIGHT_MIST,NIGHT_MIST,BRIEF_SHOWERS,BRIEF_SHOWERS,MIST","Onshore,Onshore,Onshore,Onshore,Onshore,Onshore",6
5842041f4e65fad6a7708963,2024_05_01,34.27479983305182,-119.3133222656776,Ventura Overhead,2.3333333333333335,0.32666666666666666,0.6333333333333333,14.5,14.5,"BRIEF_SHOWERS,NIGHT_MIST,NIGHT_BRIEF_SHOWERS,MIST,BRIEF_SHOWERS,MIST","Onshore,Offshore,Offshore,Onshore,Onshore,Onshore",6
5842041f4e65fad6a7708964,2024_05_01,34.41023236011655,-119.88261,Sands,2.1666666666666665,0.35333333333333333,0.66,14,14,"MIST,NIGHT_MIST,NIGHT_MIST,BRIEF_SHOWERS,BRIEF_SHOWERS,MIST","Onshore,Cross-shore,Cross-shore,Onshore,Onshore,Onshore",6
5842041f4e65fad6a7708966,2024_05_01,34.40450193869233,-119.68752,Sandspit,1,0,0.18333333333333335,14,14,"CLEAR,NIGHT_CLEAR,NIGHT_MIST,CLEAR,CLEAR,CLEAR","Onshore,Cross-shore,Cross-shore,Cross-shore,Cross-shore,Cross-shore",6
5842041f4e65fad6a7708967,2024_05_01,34.41549098334453,-119.6375149840203,Hammond's,2,0.01,0.275,14,14,"CLEAR,NIGHT_MIST,NIGHT_BRIEF_SHOWERS,BRIEF_SHOWERS,BRIEF_SHOWERS,MOSTLY_CLEAR","Onshore,Cross-shore,Offshore,Onshore,Cross-shore,Cross-shore",6
5842041f4e65fad6a7708968,2024_05_01,34.45759322742309,-120.02203,El Capitan,2,0.11833333333333335,0.42000000000000004,14,14,"CLEAR,NIGHT_CLEAR,NIGHT_CLEAR,MOSTLY_CLEAR,CLEAR,CLEAR","Onshore,Cross-shore,Offshore,Onshore,Onshore,Onshore",6
5842041f4e65fad6a770896c,2024_05_01,34.405117655616,-119.84317,Campus Point,2,0.1,0.4033333333333333,14,14,"CLEAR,NIGHT_CLEAR,NIGHT_CLEAR,CLEAR,CLEAR,CLEAR","Onshore,Onshore,Onshore,Onshore,Onshore,Onshore",6
5842041f4e65fad6a770896e,2024_05_01,34.38935162233354,-119.51955,Carpinteria State Beach,2,0.155,0.46166666666666667,14,14,"MIST,NIGHT_MIST,NIGHT_MIST,MIST,MIST,MIST","Onshore,Offshore,Offshore,Onshore,Onshore,Onshore",6
5842041f4e65fad6a770896f,2024_05_01,37.48296565175612,-122.45493,Half Moon Bay,2.6666666666666665,1.5699999999999998,1.8633333333333333,15,15,"CLEAR,NIGHT_CLEAR,NIGHT_CLEAR,CLEAR,CLEAR,CLEAR","Cross-shore,Cross-shore,Cross-shore,Cross-shore,Cross-shore,Cross-shore",6
5842041f4e65fad6a7708970,2024_05_01,37.499,-122.471,Princeton Jetty,2.8333333333333335,1.2633333333333332,1.5183333333333333,15,15,"CLEAR,NIGHT_CLEAR,NIGHT_CLEAR,CLEAR,CLEAR,CLEAR","Cross-shore,Offshore,Offshore,Offshore,Offshore,Cross-shore",6
5842041f4e65fad6a7708972,2024_05_01,37.35699547365155,-122.4069534707252,Tunitas Creek,2,3.145,3.401666666666667,15,15,"CLEAR,NIGHT_CLEAR,NIGHT_CLEAR,MIST,CLEAR,CLEAR","Cross-shore,Cross-shore,Cross-shore,Cross-shore,Cross-shore,Cross-shore",6
5842041f4e65fad6a7708974,2024_05_01,37.54735589428842,-122.51611,Montara,1.3333333333333333,2.5816666666666666,2.89,14,14,"CLEAR,NIGHT_CLEAR,NIGHT_CLEAR,MIST,MIST,MIST","Onshore,Onshore,Onshore,Onshore,Onshore,Onshore",6
5842041f4e65fad6a7708975,2024_05_01,34.3869373724559,-119.5142334209018,Tarpits,2,0.155,0.4633333333333333,14,14,"CLEAR,NIGHT_CLEAR,NIGHT_CLEAR,MOSTLY_CLOUDY,CLEAR,CLEAR","Onshore,Cross-shore,Cross-shore,Cross-shore,Onshore,Onshore",6
5842041f4e65fad6a7708976,2024_05_01,37.59881852720143,-122.50463,Linda Mar,1.8333333333333333,0.9713666666666666,1.3275166666666667,14,14,"CLEAR,NIGHT_CLEAR,NIGHT_CLEAR,MIST,MIST,MIST","Onshore,Onshore,Onshore,Onshore,Onshore,Onshore",6
5842041f4e65fad6a7708978,2024_05_01,37.59883098461164,-122.5143843582282,Pedro Point,1.8333333333333333,2.6016666666666666,2.9050000000000002,14,14,"CLEAR,NIGHT_CLEAR,NIGHT_CLEAR,CLEAR,CLEAR,CLEAR","Onshore,Onshore,Onshore,Onshore,Onshore,Onshore",6
5842041f4e65fad6a7708979,2024_05_01,37.61081996647663,-122.49733,Rockaway,2.1666666666666665,2.6683333333333334,2.84,14.5,14.5,"CLEAR,NIGHT_CLEAR,NIGHT_CLEAR,MIST,MIST,MIST","Onshore,Cross-shore,Onshore,Onshore,Onshore,Onshore",6
5842041f4e65fad6a770897a,2024_05_01,37.809987384424446,-122.47514,Fort Point,3.3333333333333335,1.4366666666666668,1.7416666666666667,15,15,"CLEAR,NIGHT_CLEAR,NIGHT_CLEAR,CLEAR,CLEAR,CLEAR","Cross-shore,Cross-shore,Cross-shore,Cross-shore,Cross-shore,Cross-shore",6
5842041f4e65fad6a770897c,2024_05_01,37.63422542967464,-122.4951,Sharp Park,2,2.6916666666666664,2.995,14.5,14.5,"CLEAR,NIGHT_CLEAR,NIGHT_CLEAR,CLEAR,CLEAR,CLEAR","Onshore,Onshore,Onshore,Onshore,Onshore,Onshore",6
5842041f4e65fad6a770897d,2024_05_01,37.27313605072472,-122.4127387912554,Pescadero,0.8333333333333334,3.013333333333333,3.3166666666666664,14,14,"CLEAR,NIGHT_CLEAR,NIGHT_CLEAR,CLEAR,CLEAR,CLEAR","Onshore,Cross-shore,Cross-shore,Onshore,Onshore,Onshore",6
5842041f4e65fad6a770897e,2024_05_01,37.18140279972666,-122.3926685899327,Pigeon Point,3,2.79,3.058333333333333,14,14,"CLEAR,NIGHT_CLEAR,NIGHT_CLEAR,CLEAR,CLEAR,CLEAR","Offshore,Offshore,Offshore,Offshore,Offshore,Offshore",6
5842041f4e65fad6a770897f,2024_05_01,37.11578956919415,-122.314699271291,Ano Nuevo,3.6666666666666665,1.72,2.0233333333333334,14,14,"CLEAR,NIGHT_CLEAR,NIGHT_CLEAR,CLEAR,CLEAR,CLEAR","Offshore,Offshore,Offshore,Offshore,Offshore,Offshore",6
5842041f4e65fad6a7708980,2024_05_01,37.09520872681598,-122.2805474707768,Waddell Creek,2.5,2.163333333333333,2.425,14,14,"CLEAR,NIGHT_CLEAR,NIGHT_CLEAR,CLEAR,CLEAR,CLEAR","Cross-shore,Cross-shore,Offshore,Onshore,Onshore,Onshore",6
5842041f4e65fad6a7708981,2024_05_01,36.96512852130351,-122.1252825495626,Four Mile,3.3333333333333335,1.445,1.7516666666666667,13,13,"CLEAR,NIGHT_CLEAR,NIGHT_CLEAR,CLEAR,CLEAR,CLEAR","Cross-shore,Offshore,Offshore,Onshore,Cross-shore,Onshore",6
5842041f4e65fad6a7708982,2024_05_01,37.04122807048655,-122.23337,Scott Creek,2.8333333333333335,2.2283333333333335,2.493333333333333,13.5,13.5,"CLEAR,NIGHT_CLEAR,NIGHT_CLEAR,CLEAR,CLEAR,CLEAR","Cross-shore,Offshore,Offshore,Onshore,Cross-shore,Cross-shore",6
5842041f4e65fad6a7708983,2024_05_01,37.02350229387179,-122.21908,Davenport,2.8333333333333335,1.7999999999999998,2.125,13,13,"CLEAR,NIGHT_CLEAR,NIGHT_CLEAR,CLEAR,CLEAR,CLEAR","Cross-shore,Offshore,Offshore,Cross-shore,Cross-shore,Cross-shore",6
5842041f4e65fad6a7708986,2024_05_01,36.94905295955728,-122.06118,Natural Bridges,3,1.6466666666666667,1.93,13,13,"CLEAR,NIGHT_CLEAR,NIGHT_CLEAR,CLEAR,CLEAR,CLEAR","Cross-shore,Onshore,Offshore,Offshore,Offshore,Onshore",6
5842041f4e65fad6a7708987,2024_05_01,36.95154854910425,-122.04207,Mitchell's Cove,3,0.6683333333333333,0.975,14,14,"CLEAR,NIGHT_CLEAR,NIGHT_CLEAR,CLEAR,CLEAR,CLEAR","Onshore,Cross-shore,Offshore,Cross-shore,Cross-shore,Cross-shore",6
5842041f4e65fad6a770898a,2024_05_01,36.9572312370203,-121.98177,26th Ave,3.1666666666666665,1.1666666666666665,1.4083333333333332,14,14,"CLEAR,NIGHT_CLEAR,NIGHT_CLEAR,CLEAR,CLEAR,CLEAR","Onshore,Offshore,Cross-shore,Onshore,Offshore,Offshore",6
5842041f4e65fad6a770898e,2024_05_01,36.91899972819882,-121.85536,Manresa,3.3333333333333335,1.7816666666666667,2.038333333333333,14,14,"CLEAR,NIGHT_CLEAR,NIGHT_CLEAR,MIST,MIST,MIST","Onshore,Offshore,Offshore,Onshore,Onshore,Onshore",6
5842041f4e65fad6a7708990,2024_05_01,34.45747731928454,-120.34242,The Ranch,1.8333333333333333,0.31333333333333335,0.62,12.5,12.5,"CLEAR,NIGHT_CLEAR,NIGHT_CLEAR,CLEAR,CLEAR,CLEAR","Offshore,Cross-shore,Offshore,Offshore,Onshore,Onshore",6
5842041f4e65fad6a7708991,2024_05_01,34.50875036590315,-120.50348,Jalama,1.5,0.95,1.195,12,12,"CLEAR,NIGHT_CLEAR,NIGHT_CLEAR,CLEAR,CLEAR,CLEAR","Cross-shore,Offshore,Offshore,Cross-shore,Cross-shore,Cross-shore",6
5842041f4e65fad6a7708996,2024_05_01,34.68700870220497,-120.6111611019887,Surf Beach,1,3.0016666666666665,3.265,12,12,"CLEAR,NIGHT_CLEAR,NIGHT_CLEAR,MIST,MIST,MIST","Onshore,Onshore,Onshore,Onshore,Onshore,Onshore",6
5842041f4e65fad6a770899c,2024_05_01,35.5730538161116,-121.1143362345574,Moonstone,2.8333333333333335,1.6683333333333334,1.825,12.5,12.5,"CLEAR,NIGHT_CLEAR,NIGHT_CLEAR,MIST,CLEAR,CLEAR","Onshore,Cross-shore,Cross-shore,Onshore,Onshore,Onshore",6
5842041f4e65fad6a770899d,2024_05_01,35.61533716776573,-121.1502053073914,Pico Creek,2.8333333333333335,1.67,1.9766666666666666,13,13,"CLEAR,NIGHT_CLEAR,NIGHT_CLEAR,CLEAR,CLEAR,CLEAR","Onshore,Offshore,Offshore,Onshore,Onshore,Onshore",6
5842041f4e65fad6a770899e,2024_05_01,35.56829031927379,-121.11207,Santa Rosa Creek,2.5,1.6683333333333334,1.825,12.5,12.5,"CLEAR,NIGHT_CLEAR,NIGHT_CLEAR,MIST,MIST,MIST","Onshore,Cross-shore,Cross-shore,Onshore,Onshore,Onshore",6
5842041f4e65fad6a77089a2,2024_05_01,35.44820114936284,-120.90715,"Cayucos Pier, Southside ",2.3333333333333335,0.7416666666666667,1.0183333333333333,12,12,"CLEAR,NIGHT_CLEAR,NIGHT_CLEAR,CLEAR,CLEAR,CLEAR","Onshore,Offshore,Offshore,Cross-shore,Onshore,Onshore",6
5842041f4e65fad6a77089a4,2024_05_01,35.30143372628852,-120.877819239902,Cable Landing,2,3.711666666666667,3.9266666666666667,12,12,"MIST,NIGHT_CLEAR,NIGHT_CLEAR,BRIEF_SHOWERS_POSSIBLE,BRIEF_SHOWERS_POSSIBLE,MIST","Onshore,Onshore,Onshore,Onshore,Onshore,Onshore",6
5842041f4e65fad6a77089a9,2024_05_01,35.61269103500222,-121.14807,San Simeon,3,1.0336666666666667,1.2121666666666666,13,13,"CLEAR,NIGHT_CLEAR,NIGHT_CLEAR,CLEAR,CLEAR,CLEAR","Onshore,Offshore,Offshore,Cross-shore,Cross-shore,Cross-shore",6
5842041f4e65fad6a77089ab,2024_05_01,35.1775325966252,-120.73411,Avila Beach,0.8333333333333334,0,0.22833333333333333,13,13,"CLEAR,NIGHT_CLEAR,NIGHT_CLEAR,CLEAR,CLEAR,CLEAR","Onshore,Cross-shore,Onshore,Cross-shore,Cross-shore,Cross-shore",6
5842041f4e65fad6a77089ac,2024_05_01,35.13877877884115,-120.64535,Pismo Beach Pier,2.6933333333333334,1.1228944444444444,1.4912166666666666,12,12,"CLEAR,NIGHT_CLEAR,NIGHT_CLEAR,CLEAR,CLEAR,CLEAR","Onshore,Cross-shore,Onshore,Onshore,Onshore,Onshore",6
5842041f4e65fad6a77089ad,2024_05_01,46.8907710233147,-124.12964,Westport/Olympic Peninsula,2.5,1.09,1.345,11,11,"CLEAR,NIGHT_OVERCAST,NIGHT_OVERCAST,MOSTLY_CLOUDY,MOSTLY_CLOUDY,CLOUDY","Cross-shore,Cross-shore,Cross-shore,Onshore,Onshore,Onshore",6
5842041f4e65fad6a77089ae,2024_05_01,46.35185177248545,-124.06747,Long Beach Peninsula,2.5,1.645,1.95,11,11,"CLEAR,NIGHT_MOSTLY_CLOUDY,NIGHT_OVERCAST,CLEAR,MIST,CLOUDY","Cross-shore,Cross-shore,Cross-shore,Onshore,Cross-shore,Onshore",6
5842041f4e65fad6a77089af,2024_05_01,47.90649175554033,-124.63709,La Push,2.1666666666666665,1.0866666666666667,1.3616666666666668,10,10,"CLEAR,NIGHT_CLOUDY,NIGHT_CLOUDY,MOSTLY_CLOUDY,MOSTLY_CLOUDY,CLEAR","Cross-shore,Offshore,Offshore,Onshore,Onshore,Onshore",6
5842041f4e65fad6a77089b0,2024_05_01,42.04368239985442,-124.26828,Brookings Jetty,1.8333333333333333,0.70992,1.10925,11,11,"CLEAR,NIGHT_CLEAR,NIGHT_CLEAR,CLEAR,CLEAR,CLEAR","Cross-shore,Offshore,Offshore,Cross-shore,Cross-shore,Cross-shore",6
5842041f4e65fad6a77089b1,2024_05_01,42.74071837900346,-124.4983727491047,Port Orford,3.3333333333333335,0.9233333333333333,1.195,10.5,10.5,"MOSTLY_CLOUDY,NIGHT_CLEAR,NIGHT_CLEAR,MOSTLY_CLEAR,CLEAR,CLEAR","Offshore,Offshore,Offshore,Offshore,Offshore,Offshore",6
5842041f4e65fad6a77089b2,2024_05_01,44.01532689312291,-124.13865,Florence South Jetty,2.6666666666666665,1.9983333333333333,2.243333333333333,10.5,10.5,"CLEAR,NIGHT_FOG,NIGHT_SHOWERS,CLEAR,MOSTLY_CLEAR,CLEAR","Onshore,Cross-shore,Cross-shore,Onshore,Onshore,Onshore",6
5842041f4e65fad6a77089b3,2024_05_01,42.41812540774362,-124.42945,Gold Beach South Jetty,3,1.4416666666666667,1.7033333333333334,11,11,"CLEAR,NIGHT_CLEAR,NIGHT_CLEAR,MOSTLY_CLEAR,CLEAR,CLEAR","Offshore,Offshore,Offshore,Offshore,Offshore,Offshore",6
5842041f4e65fad6a77089b4,2024_05_01,44.95857310226525,-124.0219,Lincoln City,2.6666666666666665,1.77,2.0566666666666666,11,11,"CLEAR,NIGHT_CLEAR,NIGHT_MOSTLY_CLOUDY,CLEAR,CLEAR,CLEAR","Onshore,Cross-shore,Cross-shore,Onshore,Onshore,Onshore",6
5842041f4e65fad6a77089b5,2024_05_01,44.63792761362982,-124.0657,Newport,2.8333333333333335,1.9000000000000001,2.1883333333333335,11,11,"CLEAR,NIGHT_MOSTLY_CLOUDY,NIGHT_MOSTLY_CLOUDY,CLEAR,CLEAR,CLEAR","Cross-shore,Cross-shore,Cross-shore,Onshore,Onshore,Onshore",6
5842041f4e65fad6a77089b6,2024_05_01,45.61468496266301,-123.94643,Rockaway Beach,2.8333333333333335,1.8,2.058333333333333,11,11,"MOSTLY_CLEAR,NIGHT_MOSTLY_CLOUDY,NIGHT_MOSTLY_CLOUDY,CLEAR,CLEAR,CLEAR","Onshore,Cross-shore,Onshore,Onshore,Onshore,Onshore",6
5842041f4e65fad6a77089b7,2024_05_01,45.20252914186085,-123.96975,Pacific City,2.8333333333333335,1.41,1.715,11,11,"MOSTLY_CLEAR,NIGHT_LIGHT_RAIN_AND_FOG,NIGHT_FOG,CLEAR,CLEAR,CLEAR","Onshore,Cross-shore,Cross-shore,Onshore,Onshore,Onshore",6
5842041f4e65fad6a77089b8,2024_05_01,45.88179930310263,-123.96681,Cannon Beach,2.8333333333333335,1.6383333333333334,1.8783333333333332,11,11,"CLEAR,NIGHT_MOSTLY_CLOUDY,NIGHT_MOSTLY_CLOUDY,CLEAR,CLEAR,CLEAR","Cross-shore,Cross-shore,Cross-shore,Onshore,Onshore,Onshore",6
5842041f4e65fad6a77089ba,2024_05_01,40.02528754746774,-124.06372,Shelter Cove,1.3333333333333333,0.37294166666666667,0.5827166666666667,10.5,10.5,"CLEAR,NIGHT_CLEAR,NIGHT_CLEAR,CLEAR,CLEAR,CLEAR","Offshore,Offshore,Offshore,Offshore,Offshore,Offshore",6
5842041f4e65fad6a77089bb,2024_05_01,40.76816197136951,-124.24248,Humboldt Harbor Entrance,2.8333333333333335,2.0083333333333333,2.305,11,11,"CLEAR,NIGHT_MOSTLY_CLOUDY,NIGHT_CLEAR,CLEAR,CLEAR,CLEAR","Onshore,Cross-shore,Cross-shore,Onshore,Cross-shore,Onshore",6
5842041f4e65fad6a77089bc,2024_05_01,40.76684246920174,-124.23107,North Jetty,2.5,2.78,3.058333333333333,11,11,"CLEAR,NIGHT_MOSTLY_CLOUDY,NIGHT_MOSTLY_CLOUDY,CLEAR,BRIEF_SHOWERS_POSSIBLE,CLEAR","Onshore,Cross-shore,Cross-shore,Onshore,Cross-shore,Onshore",6
5842041f4e65fad6a77089bd,2024_05_01,41.02731183893966,-124.1149972888982,Westhaven,2.8333333333333335,2.58,2.8716666666666666,11.5,11.5,"CLEAR,NIGHT_CLEAR,NIGHT_CLEAR,CLEAR,CLEAR,CLEAR","Cross-shore,Cross-shore,Offshore,Cross-shore,Cross-shore,Cross-shore",6
5842041f4e65fad6a77089be,2024_05_01,41.13016238153297,-124.16466,Sue-meg,1.5,2.1550000000000002,2.3766666666666665,11.5,11.5,"CLEAR,NIGHT_CLEAR,NIGHT_CLEAR,CLEAR,CLEAR,MOSTLY_CLEAR","Onshore,Cross-shore,Cross-shore,Cross-shore,Cross-shore,Cross-shore",6
5842041f4e65fad6a77089bf,2024_05_01,37.8289474958188,-122.53768,Fort Cronkite/Rodeo Beach,2.8333333333333335,1.6783333333333332,1.8916666666666666,14,14,"CLEAR,NIGHT_CLEAR,NIGHT_CLEAR,CLEAR,CLEAR,CLEAR","Cross-shore,Offshore,Offshore,Cross-shore,Cross-shore,Cross-shore",6
5842041f4e65fad6a77089c0,2024_05_01,41.74415759876137,-124.17717,South Beach CA,2.3333333333333335,0.67,0.95,11,11,"CLEAR,NIGHT_CLEAR,NIGHT_CLEAR,CLEAR,CLEAR,CLEAR","Offshore,Offshore,Offshore,Offshore,Offshore,Offshore",6
5842041f4e65fad6a77089c1,2024_05_01,37.89801283969752,-122.64519,Stinson Beach,2.5,0.6633333333333333,0.9683333333333334,14,14,"CLEAR,NIGHT_CLEAR,NIGHT_CLEAR,CLEAR,CLEAR,CLEAR","Offshore,Offshore,Offshore,Onshore,Onshore,Cross-shore",6
5842041f4e65fad6a77089c2,2024_05_01,37.90514516176495,-122.68151,Bolinas,2,0.3223083333333333,0.50361,13.5,13.5,"CLEAR,NIGHT_CLEAR,NIGHT_CLEAR,CLEAR,CLEAR,CLEAR","Offshore,Cross-shore,Offshore,Cross-shore,Cross-shore,Cross-shore",6
5842041f4e65fad6a77089c3,2024_05_01,38.04892513158693,-122.98925,Point Reyes (north),0.3333333333333333,3.5633333333333335,3.873333333333333,11.5,11.5,"CLEAR,NIGHT_CLEAR,NIGHT_CLEAR,CLEAR,CLEAR,CLEAR","Onshore,Onshore,Onshore,Onshore,Onshore,Onshore",6
5842041f4e65fad6a77089c6,2024_05_01,38.31088736605785,-123.0496777333731,Doran Beach,1,0.06833333333333333,0.37166666666666665,11.5,11.5,"CLEAR,NIGHT_CLEAR,NIGHT_CLEAR,CLEAR,CLEAR,CLEAR","Offshore,Offshore,Offshore,Offshore,Offshore,Offshore",6
5842041f4e65fad6a77089c7,2024_05_01,38.45077228660809,-123.13008,Russian Rivermouth,2.8333333333333335,2.1783333333333332,2.455,11,11,"CLEAR,NIGHT_CLEAR,NIGHT_CLEAR,CLEAR,CLEAR,CLEAR","Cross-shore,Offshore,Offshore,Cross-shore,Onshore,Cross-shore",6
5842041f4e65fad6a77089c8,2024_05_01,38.35329968518107,-123.06906,Salmon Creek,1.5,2.875,3.1816666666666666,11.5,11.5,"CLEAR,NIGHT_CLEAR,NIGHT_CLEAR,CLEAR,CLEAR,CLEAR","Onshore,Onshore,Onshore,Onshore,Onshore,Onshore",6
5842041f4e65fad6a77089c9,2024_05_01,38.6845180197959,-123.4322714291198,Black Point Beach,1.6666666666666667,0.7283333333333333,1.03,11,11,"CLEAR,NIGHT_CLEAR,NIGHT_CLEAR,CLEAR,CLEAR,CLEAR","Onshore,Onshore,Onshore,Onshore,Onshore,Onshore",6
5842041f4e65fad6a77089ca,2024_05_01,43.251076,-70.59144,Ogunquit,1.3316666666666668,0.1789388888888889,0.4814833333333334,9,7,"CLOUDY,NIGHT_OVERCAST,NIGHT_OVERCAST,CLEAR,MOSTLY_CLEAR,MOSTLY_CLEAR","Onshore,Onshore,Onshore,Onshore,Onshore,Onshore",6
5842041f4e65fad6a77089cb,2024_05_01,41.362631366305415,-71.48007,Point Judith,1.005,0.12782777777777776,0.4280111111111111,10,9,"OVERCAST,NIGHT_CLOUDY,NIGHT_CLOUDY,CLEAR,CLEAR,CLEAR","Onshore,Onshore,Cross-shore,Onshore,Onshore,Onshore",6
5842041f4e65fad6a77089cd,2024_05_01,41.422678090954726,-71.45413,Monahan's - Narragansett,1,0.18756333333333333,0.29307,9,9,"OVERCAST,NIGHT_OVERCAST,NIGHT_CLOUDY,CLEAR,CLEAR,CLEAR","Onshore,Cross-shore,Cross-shore,Onshore,Onshore,Onshore",6
5842041f4e65fad6a77089ce,2024_05_01,41.469,-71.293,Ruggles - Newport,1.6666666666666667,0.33067833333333335,0.5166833333333334,9,9,"OVERCAST,NIGHT_LIGHT_RAIN,NIGHT_DRIZZLE,MOSTLY_CLEAR,MOSTLY_CLEAR,CLEAR","Cross-shore,Offshore,Offshore,Cross-shore,Onshore,Onshore",6
5842041f4e65fad6a77089cf,2024_05_01,43.175394,-70.606351,Short Sands Beach,1.8333333333333333,0.16333333333333333,0.47000000000000003,7.5,7.5,"OVERCAST,NIGHT_OVERCAST,NIGHT_OVERCAST,CLEAR,CLEAR,CLEAR","Onshore,Onshore,Onshore,Onshore,Cross-shore,Cross-shore",6
5842041f4e65fad6a77089d0,2024_05_01,41.487408,-71.29017,First Beach,0.8333333333333334,0.005,0.30166666666666664,9.5,9.5,"OVERCAST,NIGHT_LIGHT_RAIN,NIGHT_OVERCAST,MOSTLY_CLEAR,CLEAR,CLEAR","Cross-shore,Offshore,Offshore,Cross-shore,Cross-shore,Onshore",6
5842041f4e65fad6a77089d1,2024_05_01,42.27916830233153,-70.86498,Nantasket Beach,0.7216666666666667,0.14421666666666666,0.45106666666666667,9,8,"OVERCAST,NIGHT_OVERCAST,NIGHT_LIGHT_RAIN,MIST,CLEAR,CLEAR","Cross-shore,Onshore,Onshore,Onshore,Onshore,Onshore",6
5842041f4e65fad6a77089d2,2024_05_01,41.817,-69.935,Cape Cod,1,0.24166666666666667,0.5483333333333333,8,8,"MOSTLY_CLOUDY,NIGHT_OVERCAST,NIGHT_OVERCAST,CLEAR,CLEAR,CLEAR","Onshore,Onshore,Onshore,Cross-shore,Cross-shore,Cross-shore",6
5842041f4e65fad6a77089d3,2024_05_01,42.22055448975661,-70.70634873403819,Egypt Beach,1,0.22666666666666666,0.5283333333333333,8,8,"MOSTLY_CLOUDY,NIGHT_OVERCAST,NIGHT_LIGHT_RAIN,CLEAR,CLEAR,CLEAR","Onshore,Onshore,Onshore,Onshore,Onshore,Onshore",6
5842041f4e65fad6a77089d4,2024_05_01,41.48739647744607,-71.25723,Second Beach,0.6933333333333334,0.11257597222222222,0.3198329166666667,10,9,"CLOUDY,NIGHT_LIGHT_RAIN,NIGHT_DRIZZLE,MOSTLY_CLEAR,CLEAR,CLEAR","Offshore,Offshore,Offshore,Cross-shore,Cross-shore,Cross-shore",6
5842041f4e65fad6a77089d5,2024_05_01,42.964,-70.769,Fox Hill,1.2766666666666666,0.12352222222222221,0.4270388888888889,9,7,"CLEAR,NIGHT_OVERCAST,NIGHT_OVERCAST,CLEAR,CLEAR,CLEAR","Onshore,Onshore,Onshore,Onshore,Onshore,Onshore",6
5842041f4e65fad6a77089d6,2024_05_01,42.991359,-70.75149,Straws Point,1.055,0.09213333333333333,0.3930111111111111,9,7,"MOSTLY_CLOUDY,NIGHT_OVERCAST,NIGHT_OVERCAST,CLEAR,CLEAR,CLEAR","Onshore,Cross-shore,Cross-shore,Onshore,Onshore,Onshore",6
5842041f4e65fad6a77089d7,2024_05_01,42.946,-70.786,Plaice Cove,1.2766666666666666,0.12352222222222221,0.4270388888888889,9,7,"CLEAR,NIGHT_OVERCAST,NIGHT_OVERCAST,CLEAR,CLEAR,CLEAR","Onshore,Onshore,Onshore,Onshore,Onshore,Onshore",6
5842041f4e65fad6a77089d9,2024_05_01,42.911574,-70.80831,The Main Beach,1.1666666666666667,0.1792501111111111,0.48063269444444445,9,7,"CLEAR,NIGHT_OVERCAST,NIGHT_OVERCAST,CLEAR,CLEAR,CLEAR","Onshore,Cross-shore,Cross-shore,Onshore,Onshore,Onshore",6
5842041f4e65fad6a77089da,2024_05_01,42.97583846220203,-70.764,Sawyer's Beach,0.8883333333333333,0.06991111111111112,0.37412222222222224,9,7,"CLEAR,NIGHT_OVERCAST,NIGHT_OVERCAST,CLEAR,CLEAR,CLEAR","Onshore,Onshore,Onshore,Onshore,Onshore,Onshore",6
5842041f4e65fad6a77089db,2024_05_01,42.97,-70.77,Rye on the Rocks / 5-0's,1,0.15179319444444445,0.4481979444444445,9,7,"CLEAR,NIGHT_OVERCAST,NIGHT_OVERCAST,CLEAR,CLEAR,CLEAR","Onshore,Onshore,Onshore,Onshore,Onshore,Onshore",6
5842041f4e65fad6a77089dc,2024_05_01,43.55902946610303,-70.27795,Higgins Beach,1.2383333333333333,0.005,0.31120000000000003,9,7,"OVERCAST,NIGHT_DRIZZLE,NIGHT_OVERCAST,CLEAR,CLEAR,CLEAR","Onshore,Offshore,Offshore,Onshore,Onshore,Onshore",6
5842041f4e65fad6a77089dd,2024_05_01,43.302676,-70.5652,Wells Beach,1.3333333333333333,0.11713333333333334,0.42065,9,7,"CLOUDY,NIGHT_OVERCAST,NIGHT_CLOUDY,CLEAR,CLEAR,CLEAR","Onshore,Onshore,Onshore,Onshore,Onshore,Onshore",6
5842041f4e65fad6a77089de,2024_05_01,43.545359,-70.30479,Scarborough Beach State Park,1.1933333333333334,0.20775180555555556,0.45187791666666666,9,7,"OVERCAST,NIGHT_OVERCAST,NIGHT_OVERCAST,CLEAR,MIST,MIST","Onshore,Cross-shore,Cross-shore,Onshore,Onshore,Onshore",6
5842041f4e65fad6a77089df,2024_05_01,43.514481,-70.37215,Old Orchard Beach,1.1,0.12215000000000001,0.4256166666666667,9,7,"OVERCAST,NIGHT_OVERCAST,NIGHT_OVERCAST,CLEAR,CLEAR,CLEAR","Onshore,Cross-shore,Cross-shore,Onshore,Onshore,Onshore",6
5842041f4e65fad6a77089e0,2024_05_01,43.34711,-70.48165,Gooch's Beach,1.055,0.04777777777777778,0.35032222222222226,9,7,"OVERCAST,NIGHT_OVERCAST,NIGHT_OVERCAST,MOSTLY_CLEAR,MOSTLY_CLEAR,CLEAR","Cross-shore,Offshore,Offshore,Onshore,Onshore,Onshore",6
5842041f4e65fad6a77089e2,2024_05_01,40.58433,-73.62953,Lido Beach,1.7783333333333333,0.5447555555555555,0.8519944444444444,11,9,"MOSTLY_CLOUDY,NIGHT_CLEAR,NIGHT_CLEAR,MIST,MIST,CLEAR","Onshore,Cross-shore,Cross-shore,Cross-shore,Cross-shore,Cross-shore",6
5842041f4e65fad6a77089e3,2024_05_01,43.163135,-70.61689,Long Sands Beach,1.1,0.16215863888888887,0.45393175,9,7,"CLOUDY,NIGHT_OVERCAST,NIGHT_OVERCAST,MIST,MIST,MOSTLY_CLEAR","Onshore,Cross-shore,Cross-shore,Onshore,Onshore,Onshore",6
5842041f4e65fad6a77089e4,2024_05_01,40.61695351251805,-73.39376,Gilgo Beach,1.1666666666666667,0.3383777777777778,0.6456444444444445,10,8,"MOSTLY_CLOUDY,NIGHT_CLOUDY,NIGHT_CLEAR,CLEAR,CLEAR,CLEAR","Cross-shore,Offshore,Offshore,Onshore,Onshore,Cross-shore",6
5842041f4e65fad6a77089e5,2024_05_01,40.62530081928036,-73.23827,Robert Moses,1.3333333333333333,0.23500000000000001,0.5383333333333333,10,10,"MOSTLY_CLOUDY,NIGHT_CLOUDY,NIGHT_MOSTLY_CLOUDY,MIST,MIST,MIST","Cross-shore,Offshore,Offshore,Onshore,Onshore,Cross-shore",6
5842041f4e65fad6a77089e6,2024_05_01,40.64313317632791,-73.15727,Fire Island,1.3333333333333333,0.24333333333333335,0.5466666666666666,9.5,9.5,"MOSTLY_CLOUDY,NIGHT_OVERCAST,NIGHT_CLOUDY,CLEAR,MIST,CLEAR","Cross-shore,Offshore,Offshore,Onshore,Onshore,Onshore",6
5842041f4e65fad6a77089e8,2024_05_01,40.76653118828782,-72.7458,Cupsogue,1.5,0.44833333333333336,0.7516666666666667,9.5,9.5,"OVERCAST,NIGHT_OVERCAST,NIGHT_CLEAR,MIST,CLEAR,CLEAR","Cross-shore,Offshore,Offshore,Onshore,Cross-shore,Cross-shore",6
5842041f4e65fad6a77089e9,2024_05_01,42.9376373334092,-70.79141,The Wall ,1.305,0.18577283333333333,0.4908238888888889,9,7,"CLEAR,NIGHT_OVERCAST,NIGHT_OVERCAST,CLEAR,CLEAR,CLEAR","Onshore,Onshore,Onshore,Onshore,Onshore,Onshore",6
5842041f4e65fad6a77089ea,2024_05_01,40.887088,-72.33856,Flys,1.3333333333333333,0.395,0.7016666666666667,9,9,"CLOUDY,NIGHT_OVERCAST,NIGHT_MOSTLY_CLOUDY,MIST,MOSTLY_CLEAR,CLEAR","Cross-shore,Offshore,Offshore,Cross-shore,Cross-shore,Cross-shore",6
5842041f4e65fad6a77089eb,2024_05_01,41.0389266436591,-71.91068529316958,Trailer Park,1.6116666666666666,0.5832795833333333,0.8619399999999999,10,8,"OVERCAST,NIGHT_OVERCAST,NIGHT_OVERCAST,CLEAR,CLEAR,CLEAR","Cross-shore,Offshore,Offshore,Cross-shore,Cross-shore,Cross-shore",6
5842041f4e65fad6a77089ec,2024_05_01,41.039505402729105,-71.9142,Ditch Plains,1,0.3583883333333333,0.559985,8.5,8.5,"CLOUDY,NIGHT_DRIZZLE,NIGHT_OVERCAST,CLEAR,CLEAR,CLEAR","Cross-shore,Offshore,Offshore,Onshore,Onshore,Onshore",6
5842041f4e65fad6a77089ee,2024_05_01,40.57633275206492,-73.56895305108567,"West End, Jones Beach",1.445,0.35101666666666664,0.6539777777777778,11,9,"MOSTLY_CLOUDY,NIGHT_CLEAR,NIGHT_CLEAR,CLEAR,CLEAR,CLEAR","Offshore,Offshore,Offshore,Onshore,Cross-shore,Cross-shore",6
5842041f4e65fad6a77089f1,2024_05_01,41.038286691230795,-71.91991567611694,Poles,1.6116666666666666,0.5304854166666667,0.8238161111111111,10,8,"OVERCAST,NIGHT_OVERCAST,NIGHT_OVERCAST,CLEAR,CLEAR,CLEAR","Cross-shore,Offshore,Offshore,Cross-shore,Cross-shore,Cross-shore",6
5842041f4e65fad6a77089f3,2024_05_01,40.84077769766295,-72.47989493724765,The Bowl,1.3333333333333333,0.39166666666666666,0.7016666666666667,9,9,"OVERCAST,NIGHT_OVERCAST,NIGHT_CLOUDY,MIST,CLEAR,CLEAR","Cross-shore,Offshore,Offshore,Cross-shore,Cross-shore,Cross-shore",6
5842041f4e65fad6a77089f4,2024_05_01,40.94235535243154,-72.19286,Main Beach,1.055,0.48147777777777784,0.7840222222222223,16,14,"OVERCAST,NIGHT_DRIZZLE,NIGHT_CLOUDY,CLEAR,CLEAR,CLEAR","Offshore,Offshore,Offshore,Cross-shore,Cross-shore,Cross-shore",6
5842041f4e65fad6a77089f5,2024_05_01,40.58270702399518,-73.67251552079799,Laurelton Blvd.,1.3666666666666667,0.31584600000000007,0.6192061388888889,11,9,"CLEAR,NIGHT_CLEAR,NIGHT_CLEAR,MIST,MIST,MIST","Cross-shore,Offshore,Cross-shore,Onshore,Onshore,Onshore",6
5842041f4e65fad6a77089f6,2024_05_01,41.033752854071416,-71.93696,Terrace,1.3333333333333333,0.5278111111111111,0.8319944444444445,10,8,"CLOUDY,NIGHT_OVERCAST,NIGHT_CLOUDY,CLEAR,CLEAR,CLEAR","Cross-shore,Offshore,Offshore,Cross-shore,Cross-shore,Cross-shore",6
5842041f4e65fad6a77089f7,2024_05_01,40.83372943645748,-72.50426173210144,K Road,1.5,0.44166666666666665,0.745,9,9,"OVERCAST,NIGHT_OVERCAST,NIGHT_CLEAR,MIST,MIST,MIST","Cross-shore,Offshore,Offshore,Onshore,Onshore,Cross-shore",6
5842041f4e65fad6a77089f8,2024_05_01,40.58456099581507,-73.80730032920837,84th Street,2,0.5328111111111111,0.8329666666666666,11,9,"CLEAR,NIGHT_CLEAR,NIGHT_MOSTLY_CLOUDY,MIST,MIST,MIST","Cross-shore,Offshore,Offshore,Onshore,Onshore,Onshore",6
5842041f4e65fad6a77089fa,2024_05_01,40.1319,-74.02788,Sea Girt,1.805,0.44203333333333333,0.7593944444444445,13,11,"MOSTLY_CLOUDY,NIGHT_FOG,NIGHT_CLEAR,CLEAR,CLEAR,MOSTLY_CLEAR","Onshore,Cross-shore,Onshore,Onshore,Onshore,Cross-shore",6
5842041f4e65fad6a77089fb,2024_05_01,40.54698301868125,-73.9268,Breezy Point,1.3333333333333333,0.21166666666666667,0.5133333333333334,11.5,11.5,"CLEAR,NIGHT_MIST,NIGHT_MOSTLY_CLOUDY,MIST,MIST,MIST","Cross-shore,Offshore,Offshore,Onshore,Onshore,Onshore",6
5842041f4e65fad6a77089fc,2024_05_01,40.152504,-74.02138,Spring Lake,1.555,0.44758888888888887,0.8120055555555555,13,11,"MOSTLY_CLOUDY,NIGHT_FOG,NIGHT_MOSTLY_CLOUDY,CLEAR,MOSTLY_CLEAR,MOSTLY_CLEAR","Onshore,Onshore,Onshore,Onshore,Onshore,Onshore",6
5842041f4e65fad6a77089fd,2024_05_01,40.591277,-73.770792,30th - 39th Streets,1.305,0.2521277777777778,0.5725444444444445,11,9,"CLEAR,NIGHT_CLEAR,NIGHT_CLEAR,CLEAR,CLEAR,MOSTLY_CLEAR","Cross-shore,Offshore,Offshore,Onshore,Onshore,Onshore",6
5842041f4e65fad6a77089fe,2024_05_01,40.18834955871439,-74.00860982500222,Avon,1.555,0.45203333333333334,0.8143666666666667,13,11,"MOSTLY_CLOUDY,NIGHT_FOG,NIGHT_FOG,MOSTLY_CLEAR,MOSTLY_CLEAR,MOSTLY_CLEAR","Onshore,Onshore,Onshore,Onshore,Onshore,Onshore",6
5842041f4e65fad6a77089ff,2024_05_01,40.1974229100932,-74.00650533798255,Bradley Beach,1.555,0.44967222222222225,0.8124222222222223,13,11,"MOSTLY_CLOUDY,NIGHT_FOG,NIGHT_FOG,MOSTLY_CLEAR,MOSTLY_CLEAR,MOSTLY_CLEAR","Onshore,Onshore,Onshore,Onshore,Cross-shore,Cross-shore",6
5842041f4e65fad6a7708a01,2024_05_01,40.17202,-74.01503,"16th Ave., Belmar",1.555,0.50795,0.8706722222222222,13,11,"MOSTLY_CLOUDY,NIGHT_FOG,NIGHT_FOG,MOSTLY_CLEAR,MOSTLY_CLEAR,MOSTLY_CLEAR","Onshore,Onshore,Onshore,Onshore,Cross-shore,Cross-shore",6
5842041f4e65fad6a7708a02,2024_05_01,40.217443,-73.99982,Asbury Park,1.555,0.4534222222222222,0.8168666666666666,13,11,"MOSTLY_CLOUDY,NIGHT_FOG,NIGHT_FOG,CLEAR,CLEAR,MOSTLY_CLEAR","Onshore,Onshore,Onshore,Onshore,Onshore,Onshore",6
5842041f4e65fad6a7708a03,2024_05_01,40.229841,-73.99678,Loch Arbour and Deal,1.3333333333333333,0.43925555555555557,0.8010333333333333,13,11,"MOSTLY_CLOUDY,NIGHT_FOG,NIGHT_MOSTLY_CLOUDY,MOSTLY_CLEAR,MOSTLY_CLEAR,CLEAR","Onshore,Offshore,Offshore,Onshore,Onshore,Onshore",6
5842041f4e65fad6a7708a05,2024_05_01,40.41754,-73.97935,Sandy Hook,1.3333333333333333,0.025,0.32333333333333336,11,11,"CLEAR,NIGHT_MIST,NIGHT_MOSTLY_CLOUDY,CLEAR,CLEAR,CLEAR","Onshore,Cross-shore,Cross-shore,Onshore,Onshore,Onshore",6
5842041f4e65fad6a7708a06,2024_05_01,39.36353,-74.40873,Crystals,1.8333333333333333,0.5482925000000001,0.8387155555555555,13,11,"CLEAR,NIGHT_MOSTLY_CLOUDY,NIGHT_MOSTLY_CLOUDY,BRIEF_SHOWERS,BRIEF_SHOWERS,MIST","Onshore,Cross-shore,Offshore,Onshore,Onshore,Onshore",6
5842041f4e65fad6a7708a07,2024_05_01,39.31443,-74.51863,32nd Street,1.8333333333333333,0.5400768055555556,0.8258851388888889,13,11,"MIST,NIGHT_CLEAR,NIGHT_MOSTLY_CLOUDY,MIST,MIST,MIST","Onshore,Cross-shore,Offshore,Onshore,Onshore,Onshore",6
5842041f4e65fad6a7708a08,2024_05_01,39.327688,-74.49524,Margate Pier Northside,1.8333333333333333,0.5400768055555556,0.8258851388888889,13,11,"MIST,NIGHT_CLEAR,NIGHT_MOSTLY_CLOUDY,MIST,MIST,MIST","Onshore,Cross-shore,Offshore,Onshore,Onshore,Onshore",6
5842041f4e65fad6a7708a09,2024_05_01,39.336276,-74.47782,Ventnor Pier,1.8333333333333333,0.5493576388888889,0.8403748611111111,13,11,"MIST,NIGHT_CLEAR,NIGHT_MOSTLY_CLOUDY,MIST,MIST,MIST","Onshore,Cross-shore,Offshore,Onshore,Onshore,Onshore",6
5842041f4e65fad6a7708a0a,2024_05_01,39.35929751441085,-74.41683,States Avenue,1.8333333333333333,0.5482925000000001,0.8387155555555555,13,11,"CLEAR,NIGHT_MOSTLY_CLOUDY,NIGHT_MOSTLY_CLOUDY,MIST,MIST,MIST","Onshore,Cross-shore,Offshore,Onshore,Onshore,Onshore",6
5842041f4e65fad6a7708a0b,2024_05_01,39.37274173278517,-74.40454,Brigantine Jetty,1.8333333333333333,0.5836779166666667,0.8940097222222222,13,11,"CLEAR,NIGHT_MOSTLY_CLOUDY,NIGHT_MOSTLY_CLOUDY,BRIEF_SHOWERS,BRIEF_SHOWERS,MIST","Onshore,Offshore,Offshore,Onshore,Onshore,Onshore",6
5842041f4e65fad6a7708a0c,2024_05_01,39.356505,-74.42263,South Carolina Avenue,1.8333333333333333,0.5836779166666667,0.8940097222222222,13,11,"CLEAR,NIGHT_MOSTLY_CLOUDY,NIGHT_MOSTLY_CLOUDY,MIST,MIST,MIST","Onshore,Offshore,Offshore,Onshore,Onshore,Onshore",6
5842041f4e65fad6a7708a0d,2024_05_01,39.413485,-74.35476,14th Street North,1.8333333333333333,0.3778666666666667,0.6868,13,11,"CLEAR,NIGHT_CLEAR,NIGHT_MOSTLY_CLOUDY,CLEAR,CLEAR,CLEAR","Cross-shore,Onshore,Onshore,Onshore,Onshore,Onshore",6
5842041f4e65fad6a7708a0e,2024_05_01,39.531319,-74.263252,The Wooden Jetty,2,0.5767397222222223,0.9086930555555556,13,11,"MIST,NIGHT_CLEAR,NIGHT_CLOUDY,CLEAR,CLEAR,CLEAR","Onshore,Cross-shore,Cross-shore,Onshore,Onshore,Onshore",6
5842041f4e65fad6a7708a0f,2024_05_01,39.552472,-74.24344,Holyoke,2,0.5191443055555556,0.8450315277777777,13,11,"MIST,NIGHT_CLEAR,NIGHT_CLOUDY,CLEAR,CLEAR,CLEAR","Onshore,Cross-shore,Cross-shore,Onshore,Onshore,Onshore",6
5842041f4e65fad6a7708a10,2024_05_01,39.692364,-74.14068,Hudson Ave.,2,0.5150333333333333,0.8747,13,11,"MIST,NIGHT_CLEAR,NIGHT_OVERCAST,MIST,MIST,MIST","Cross-shore,Offshore,Offshore,Onshore,Onshore,Cross-shore",6
5842041f4e65fad6a7708a11,2024_05_01,39.79614,-74.09248,Island Beach State Park,1.9716666666666667,0.4657833333333333,0.8247833333333333,13,11,"MIST,NIGHT_MOSTLY_CLOUDY,NIGHT_MOSTLY_CLOUDY,CLEAR,CLEAR,CLEAR","Cross-shore,Cross-shore,Cross-shore,Onshore,Onshore,Onshore",6
5842041f4e65fad6a7708a12,2024_05_01,39.91813588078152,-74.07527,Seaside Park,1,0.43231111111111115,0.7896444444444444,13,11,"CLEAR,NIGHT_MOSTLY_CLOUDY,NIGHT_MOSTLY_CLOUDY,CLEAR,CLEAR,MOSTLY_CLEAR","Cross-shore,Cross-shore,Onshore,Cross-shore,Onshore,Onshore",6
5842041f4e65fad6a7708a14,2024_05_01,39.946638,-74.06884,Seaside Heights,1.445,0.4616166666666667,0.82395,13,11,"MIST,NIGHT_CLEAR,NIGHT_MIST,CLEAR,CLEAR,CLEAR","Onshore,Cross-shore,Cross-shore,Onshore,Onshore,Onshore",6
5842041f4e65fad6a7708a15,2024_05_01,39.95745637606704,-74.06736,Ortley Beach,1.1116666666666666,0.42425555555555555,0.7480055555555555,13,11,"MIST,NIGHT_CLEAR,NIGHT_MIST,CLEAR,CLEAR,CLEAR","Onshore,Cross-shore,Cross-shore,Onshore,Onshore,Onshore",6
5842041f4e65fad6a7708a16,2024_05_01,39.98313468342945,-74.06265685577506,Lavallette,1.445,0.4453666666666667,0.7637,13,11,"MIST,NIGHT_CLOUDY,NIGHT_MIST,CLEAR,CLEAR,CLEAR","Cross-shore,Cross-shore,Cross-shore,Onshore,Onshore,Onshore",6
5842041f4e65fad6a7708a17,2024_05_01,40.0699319967757,-74.04145,Bay Head,1.5,0.44606111111111113,0.7617555555555555,13,11,"MIST,NIGHT_CLOUDY,NIGHT_CLEAR,MIST,MIST,MIST","Cross-shore,Cross-shore,Cross-shore,Onshore,Onshore,Onshore",6
5842041f4e65fad6a7708a18,2024_05_01,40.094041,-74.034859,Jenkinson's,1.75,0.4425888888888889,0.75495,13,11,"MOSTLY_CLOUDY,NIGHT_FOG,NIGHT_MOSTLY_CLOUDY,CLEAR,CLEAR,MOSTLY_CLEAR","Onshore,Cross-shore,Cross-shore,Onshore,Onshore,Onshore",6
5842041f4e65fad6a7708a1a,2024_05_01,38.148058,-75.17704,Assateague,1.6116666666666666,0.41815,0.73315,13,12,"CLEAR,NIGHT_MIST,NIGHT_MOSTLY_CLEAR,MIST,MIST,MIST","Cross-shore,Cross-shore,Cross-shore,Onshore,Onshore,Onshore",6
5842041f4e65fad6a7708a1b,2024_05_01,38.33889038664497,-75.08017670566352,North End to Ocean City Inlet,2.305,0.43953888888888887,0.76065,13,12,"CLEAR,NIGHT_MOSTLY_CLEAR,NIGHT_MOSTLY_CLEAR,MIST,MIST,MIST","Offshore,Offshore,Offshore,Onshore,Onshore,Cross-shore",6
5842041f4e65fad6a7708a1c,2024_05_01,38.603993,-75.06271,Indian River Inlet,1.5833333333333333,0.37265472222222223,0.6433916666666667,13,12,"CLEAR,NIGHT_CLEAR,NIGHT_MOSTLY_CLOUDY,CLEAR,MOSTLY_CLEAR,MOSTLY_CLEAR","Cross-shore,Offshore,Cross-shore,Onshore,Onshore,Onshore",6
5842041f4e65fad6a7708a1d,2024_05_01,38.460477,-75.052069,Fenwick Island,1.75,0.2789833333333333,0.5946777777777777,13,12,"CLEAR,NIGHT_MOSTLY_CLEAR,NIGHT_CLEAR,MOSTLY_CLEAR,CLEAR,CLEAR","Offshore,Offshore,Offshore,Onshore,Cross-shore,Cross-shore",6
5842041f4e65fad6a7708a1e,2024_05_01,38.538767,-75.05619,Bethany Beach,1.3333333333333333,0.3743176388888889,0.6459847222222223,13,12,"CLEAR,NIGHT_MOSTLY_CLOUDY,NIGHT_MOSTLY_CLOUDY,MIST,MIST,MOSTLY_CLEAR","Cross-shore,Offshore,Offshore,Onshore,Onshore,Onshore",6
5842041f4e65fad6a7708a1f,2024_05_01,38.697657,-75.075951,Dewey Beach,1.4716666666666667,0.33037222222222223,0.6491222222222223,13,12,"CLEAR,NIGHT_MOSTLY_CLOUDY,NIGHT_MOSTLY_CLOUDY,CLEAR,MOSTLY_CLEAR,MOSTLY_CLEAR","Offshore,Onshore,Offshore,Cross-shore,Cross-shore,Cross-shore",6
5842041f4e65fad6a7708a20,2024_05_01,38.75034741676525,-75.08194,Gordons Pond,1.2783333333333333,0.3025626388888889,0.5338708333333333,13,12,"CLEAR,NIGHT_CLEAR,NIGHT_MOSTLY_CLOUDY,CLEAR,CLEAR,CLEAR","Cross-shore,Cross-shore,Offshore,Onshore,Onshore,Onshore",6
5842041f4e65fad6a7708a21,2024_05_01,38.767837,-75.082841,Naval Jetties,1.4716666666666667,0.2830111111111111,0.6050944444444445,13,12,"CLEAR,NIGHT_CLEAR,NIGHT_MOSTLY_CLOUDY,CLEAR,CLEAR,CLEAR","Offshore,Onshore,Cross-shore,Cross-shore,Cross-shore,Cross-shore",6
5842041f4e65fad6a7708a22,2024_05_01,36.81735875786576,-75.96624,Camp Pendleton,1.0416666666666667,0.11569444444444443,0.3807888888888889,14,12,"CLEAR,NIGHT_CLEAR,NIGHT_CLEAR,CLEAR,CLEAR,CLEAR","Offshore,Offshore,Offshore,Cross-shore,Cross-shore,Cross-shore",6
5842041f4e65fad6a7708a23,2024_05_01,36.9102212316428,-75.98732471466064,North End,1.18,0.04763888888888888,0.31106666666666666,14,12,"CLEAR,NIGHT_MOSTLY_CLEAR,NIGHT_MOSTLY_CLEAR,CLEAR,CLEAR,CLEAR","Offshore,Offshore,Offshore,Cross-shore,Onshore,Onshore",6
5842041f4e65fad6a7708a24,2024_05_01,36.737117517621314,-75.93924,Sandbridge Beach,1.1383333333333334,0.24580000000000002,0.5464611111111111,14,12,"CLEAR,NIGHT_CLEAR,NIGHT_CLEAR,CLEAR,CLEAR,CLEAR","Offshore,Offshore,Offshore,Cross-shore,Cross-shore,Cross-shore",6
5842041f4e65fad6a7708a26,2024_05_01,36.818257440557794,-75.96666,Croatan to Pendleton,0.82,0.051388888888888894,0.3207888888888889,14,12,"CLEAR,NIGHT_CLEAR,NIGHT_CLEAR,CLEAR,CLEAR,CLEAR","Offshore,Offshore,Offshore,Cross-shore,Cross-shore,Cross-shore",6
5842041f4e65fad6a7708a27,2024_05_01,36.84318777204769,-75.9719,South End,0.5,0.056805555555555554,0.29660555555555557,14,12,"CLEAR,NIGHT_MOSTLY_CLEAR,NIGHT_CLEAR,CLEAR,CLEAR,CLEAR","Offshore,Offshore,Offshore,Cross-shore,Cross-shore,Cross-shore",6
5842041f4e65fad6a7708a28,2024_05_01,37.08612627584661,-75.976121638199,Fishermans Island,0.3333333333333333,0.018666666666666665,0.136,14.5,14.5,"CLEAR,NIGHT_MOSTLY_CLOUDY,NIGHT_MOSTLY_CLEAR,CLEAR,CLEAR,CLEAR","Onshore,Cross-shore,Offshore,Offshore,Offshore,Offshore",6
5842041f4e65fad6a7708a38,2024_05_01,35.254619418229026,-75.52074,Cape Hatteras Lighthouse,1.3333333333333333,0.4429343055555556,0.7746381944444444,17,14,"CLEAR,NIGHT_CLEAR,NIGHT_CLEAR,CLEAR,CLEAR,CLEAR","Cross-shore,Cross-shore,Cross-shore,Cross-shore,Cross-shore,Cross-shore",6
5842041f4e65fad6a7708a3a,2024_05_01,35.54572934093336,-75.46477,Waves and Salvo,1.75,0.6368722222222223,0.9297555555555556,16,14,"CLEAR,NIGHT_CLEAR,NIGHT_CLEAR,MIST,CLEAR,CLEAR","Cross-shore,Cross-shore,Cross-shore,Cross-shore,Cross-shore,Cross-shore",6
5842041f4e65fad6a7708a3b,2024_05_01,35.22565892751075,-75.63606,Frisco,1,0.25266666666666665,0.5299666666666667,19,17,"CLEAR,NIGHT_CLEAR,NIGHT_MOSTLY_CLOUDY,MIST,MIST,MIST","Onshore,Onshore,Onshore,Onshore,Onshore,Onshore",6
5842041f4e65fad6a7708a3c,2024_05_01,35.13086,-75.90591,Ocracoke,1,0.38272,0.598,17,17,"CLEAR,NIGHT_CLOUDY,NIGHT_CLEAR,CLEAR,CLEAR,CLEAR","Onshore,Onshore,Onshore,Onshore,Onshore,Onshore",6
5842041f4e65fad6a7708a3d,2024_05_01,35.34721340158342,-75.50084,Avon Pier,1.68,0.5426,0.9041888888888889,17,14,"CLEAR,NIGHT_CLEAR,NIGHT_CLEAR,CLEAR,CLEAR,CLEAR","Cross-shore,Cross-shore,Cross-shore,Cross-shore,Cross-shore,Cross-shore",6
5842041f4e65fad6a7708a3f,2024_05_01,35.71680821253768,-75.49243,Pea Island,1.6666666666666667,0.3466666666666667,0.6483333333333333,14,14,"CLEAR,NIGHT_CLEAR,NIGHT_MOSTLY_CLOUDY,CLEAR,MOSTLY_CLEAR,MOSTLY_CLOUDY","Offshore,Offshore,Offshore,Offshore,Offshore,Offshore",6
5842041f4e65fad6a7708a40,2024_05_01,35.97427620657821,-75.62984,Nags Head Pier,1.7916666666666667,0.4063166666666667,0.71175,14,11,"CLEAR,NIGHT_CLEAR,NIGHT_CLEAR,CLEAR,CLEAR,MOSTLY_CLOUDY","Offshore,Offshore,Offshore,Cross-shore,Offshore,Offshore",6
5842041f4e65fad6a7708a41,2024_05_01,36.0439998039079,-75.67288,Avalon Pier,2.0283333333333333,0.3919611111111111,0.6967888888888889,13,10,"CLEAR,NIGHT_CLEAR,NIGHT_CLEAR,CLEAR,CLEAR,MOSTLY_CLOUDY","Offshore,Offshore,Offshore,Offshore,Offshore,Offshore",6
5842041f4e65fad6a7708a42,2024_05_01,36.03043116489792,-75.66413,First Street,2.2083333333333335,0.5304888888888889,0.8476333333333333,13,10,"CLEAR,NIGHT_CLEAR,NIGHT_CLEAR,CLEAR,CLEAR,MOSTLY_CLOUDY","Offshore,Offshore,Offshore,Offshore,Offshore,Offshore",6
5842041f4e65fad6a7708a43,2024_05_01,36.06829910590498,-75.6899,Old Station/Laundromats,1.695,0.31390555555555555,0.6172055555555556,13,10,"CLEAR,NIGHT_CLEAR,NIGHT_CLEAR,CLEAR,CLEAR,SHOWERS","Cross-shore,Offshore,Offshore,Cross-shore,Onshore,Onshore",6
5842041f4e65fad6a7708a44,2024_05_01,36.10126676607491,-75.71107,Kitty Hawk Pier,2,0.5270666666666667,0.8313888888888888,13,10,"CLEAR,NIGHT_CLEAR,NIGHT_CLEAR,MOSTLY_CLEAR,CLEAR,MOSTLY_CLOUDY","Cross-shore,Offshore,Offshore,Onshore,Onshore,Onshore",6
5842041f4e65fad6a7708a45,2024_05_01,36.18220630068973,-75.75013580649097,Duck Pier,1.1666666666666667,0.24232777777777778,0.5446555555555556,13,11,"CLEAR,NIGHT_CLEAR,NIGHT_CLEAR,CLEAR,SHOWERS,MIST","Offshore,Offshore,Offshore,Cross-shore,Onshore,Onshore",6
5842041f4e65fad6a7708a46,2024_05_01,36.37660668125033,-75.82409701687456,Corolla,1.0283333333333333,0.26024444444444444,0.5710444444444445,13,11,"CLEAR,NIGHT_MOSTLY_CLOUDY,NIGHT_MOSTLY_CLEAR,MOSTLY_CLEAR,MOSTLY_CLEAR,MIST","Cross-shore,Offshore,Offshore,Onshore,Onshore,Onshore",6
5842041f4e65fad6a7708a47,2024_05_01,33.90373404124834,-78.08241431707907,Oak Island,1.3333333333333333,0.23500000000000001,0.5416666666666666,20.5,20.5,"CLEAR,NIGHT_MIST,NIGHT_MIST,CLEAR,CLEAR,CLEAR","Onshore,Onshore,Onshore,Onshore,Onshore,Onshore",6
5842041f4e65fad6a7708a48,2024_05_01,33.91108837766468,-78.29653,South Brunswick Beaches,1.3333333333333333,0.3677816666666667,0.5746566666666667,20.5,20.5,"MIST,NIGHT_MIST,NIGHT_MIST,MIST,BRIEF_SHOWERS_POSSIBLE,MIST","Onshore,Onshore,Onshore,Onshore,Onshore,Onshore",6
5842041f4e65fad6a7708a49,2024_05_01,34.05683595651973,-77.88128,Carolina Beach Pier,1.5,0.27688333333333337,0.5784888888888889,20,19,"CLEAR,NIGHT_CLEAR,NIGHT_MIST,CLEAR,CLEAR,CLEAR","Cross-shore,Cross-shore,Cross-shore,Cross-shore,Cross-shore,Cross-shore",6
5842041f4e65fad6a7708a4a,2024_05_01,33.96841191816696,-77.9180242565498,Fort Fisher,1.6666666666666667,0.3275777777777778,0.6323777777777778,20,19,"CLEAR,NIGHT_CLEAR,NIGHT_MIST,MOSTLY_CLEAR,CLEAR,CLEAR","Cross-shore,Cross-shore,Cross-shore,Cross-shore,Cross-shore,Cross-shore",6
5842041f4e65fad6a7708a4b,2024_05_01,34.46776662988774,-77.47083,Topsail Beach,1.1666666666666667,0.3496888888888889,0.6486833333333333,19,18,"MIST,NIGHT_CLEAR,NIGHT_CLEAR,MIST,MIST,MIST","Onshore,Onshore,Onshore,Onshore,Onshore,Onshore",6
5842041f4e65fad6a7708a4c,2024_05_01,34.69270354752445,-76.82854854446575,Iron Steamer,0.5,0.2934277777777778,0.6018555555555556,19,18,"CLEAR,NIGHT_MOSTLY_CLEAR,NIGHT_MOSTLY_CLEAR,MOSTLY_CLEAR,CLEAR,CLEAR","Onshore,Onshore,Onshore,Onshore,Onshore,Onshore",6
5842041f4e65fad6a7708a4f,2024_05_01,30.85132684893727,-81.42283496231143,Cumberland Island,1.8333333333333333,0.575,0.8783333333333333,22,22,"CLEAR,NIGHT_CLEAR,NIGHT_CLEAR,MIST,MIST,MIST","Onshore,Onshore,Cross-shore,Onshore,Onshore,Onshore",6
5842041f4e65fad6a7708a50,2024_05_01,34.686741128540874,-76.47516712138378,Cape Lookout National Seashore,1,0.44666666666666666,0.7483333333333333,18,18,"CLEAR,NIGHT_CLEAR,NIGHT_CLEAR,CLEAR,CLEAR,CLEAR","Cross-shore,Cross-shore,Cross-shore,Cross-shore,Cross-shore,Cross-shore",6
5842041f4e65fad6a7708a51,2024_05_01,31.10585419260024,-81.40422767604812,Jekyll Island,1.1666666666666667,0.24333333333333335,0.55,22.5,22.5,"CLEAR,NIGHT_CLEAR,NIGHT_CLEAR,CLEAR,CLEAR,CLEAR","Cross-shore,Cross-shore,Cross-shore,Onshore,Onshore,Onshore",6
5842041f4e65fad6a7708a52,2024_05_01,31.16212806376699,-81.32512426500224,Harbor Marker Buoys,1.1666666666666667,0.34833333333333333,0.6566666666666666,22.5,22.5,"CLEAR,NIGHT_CLEAR,NIGHT_CLEAR,CLEAR,CLEAR,CLEAR","Onshore,Onshore,Cross-shore,Onshore,Onshore,Onshore",6
5842041f4e65fad6a7708a53,2024_05_01,31.20076299997009,-81.32629,Sea Island,1.8333333333333333,0.43333333333333335,0.74,22,22,"CLEAR,NIGHT_CLEAR,NIGHT_MIST,SHOWERS,MOSTLY_CLEAR,CLEAR","Onshore,Onshore,Onshore,Onshore,Onshore,Onshore",6
5842041f4e65fad6a7708a54,2024_05_01,31.13553222995767,-81.38457634790909,St. Simons Island,2,0.4533333333333333,0.7566666666666667,23,23,"MIST,NIGHT_MIST,NIGHT_MIST,MIST,MIST,MIST","Onshore,Onshore,Onshore,Onshore,Onshore,Onshore",6
5842041f4e65fad6a7708a55,2024_05_01,31.33550077186516,-81.28383377408417,Wolf Island,1.1666666666666667,0.32166666666666666,0.63,22,22,"CLEAR,NIGHT_CLEAR,NIGHT_CLEAR,MOSTLY_CLOUDY,CLEAR,MIST","Onshore,Cross-shore,Cross-shore,Onshore,Onshore,Onshore",6
5842041f4e65fad6a7708a56,2024_05_01,31.2704493877174,-81.27324039152315,Little St. Simons Island,1.1666666666666667,0.35000000000000003,0.6516666666666666,22,22,"CLEAR,NIGHT_CLEAR,NIGHT_CLEAR,CLEAR,CLEAR,MIST","Cross-shore,Cross-shore,Cross-shore,Onshore,Cross-shore,Onshore",6
5842041f4e65fad6a7708a57,2024_05_01,31.39261761368919,-81.26190520231917,Sapelo Island,2,0.3233333333333333,0.6316666666666667,22,22,"CLEAR,NIGHT_CLEAR,NIGHT_MOSTLY_CLEAR,MOSTLY_CLOUDY,CLEAR,CLEAR","Onshore,Onshore,Onshore,Onshore,Onshore,Onshore",6
5842041f4e65fad6a7708a58,2024_05_01,34.42458783809001,-77.54492,Surf City Pier,1.3333333333333333,0.34607777777777776,0.6552111111111111,19,18,"CLEAR,NIGHT_CLEAR,NIGHT_CLEAR,CLEAR,CLEAR,CLEAR","Onshore,Cross-shore,Cross-shore,Onshore,Onshore,Onshore",6
5842041f4e65fad6a7708a59,2024_05_01,31.4231993614213,-81.24725340591522,Cabretta Island,1.8333333333333333,0.31,0.6133333333333334,22,22,"CLEAR,NIGHT_MOSTLY_CLEAR,NIGHT_MOSTLY_CLEAR,MOSTLY_CLOUDY,CLEAR,CLEAR","Onshore,Onshore,Onshore,Onshore,Onshore,Onshore",6
5842041f4e65fad6a7708a5a,2024_05_01,31.46684389030369,-81.2100056410468,Blackbeard Island,1.3333333333333333,0.3233333333333333,0.6316666666666667,22,22,"CLEAR,NIGHT_MOSTLY_CLEAR,NIGHT_MOSTLY_CLEAR,CLEAR,CLEAR,CLEAR","Onshore,Onshore,Onshore,Onshore,Onshore,Onshore",6
5842041f4e65fad6a7708a5b,2024_05_01,31.85953587631629,-80.99031310336719,Wassaw Island/South End,1,0.095,0.40166666666666667,22,22,"MIST,NIGHT_CLEAR,NIGHT_CLEAR,CLEAR,CLEAR,MOSTLY_CLEAR","Onshore,Onshore,Onshore,Onshore,Onshore,Onshore",6
5842041f4e65fad6a7708a5c,2024_05_01,31.62535662342983,-81.13328352167974,St. Catherines Island,2,0.38,0.685,22,22,"CLEAR,NIGHT_CLEAR,NIGHT_CLEAR,CLEAR,CLEAR,CLEAR","Onshore,Cross-shore,Cross-shore,Onshore,Onshore,Onshore",6
5842041f4e65fad6a7708a5d,2024_05_01,31.76502169596568,-81.07655443806622,Ossabaw Island,2,0.30666666666666664,0.61,22,22,"MIST,NIGHT_MIST,NIGHT_MIST,MOSTLY_CLEAR,HEAVY_SHOWERS,CLEAR","Onshore,Cross-shore,Cross-shore,Onshore,Onshore,Onshore",6
5842041f4e65fad6a7708a5e,2024_05_01,31.90593619092352,-80.93589231700857,Wassaw Island/North End,2,0.3733333333333333,0.6783333333333333,21.5,21.5,"MIST,NIGHT_CLEAR,NIGHT_CLEAR,MOSTLY_CLEAR,CLEAR,CLEAR","Onshore,Onshore,Onshore,Onshore,Onshore,Onshore",6
5842041f4e65fad6a7708a5f,2024_05_01,31.96738675414547,-80.86977980706155,Little Tybee Island,1.5,0.3516666666666667,0.6583333333333333,21.5,21.5,"CLEAR,NIGHT_MIST,NIGHT_CLEAR,MOSTLY_CLEAR,CLEAR,CLEAR","Onshore,Onshore,Onshore,Onshore,Onshore,Onshore",6
5842041f4e65fad6a7708a60,2024_05_01,31.9812255780179,-80.84773973467009,South Tybee Sandbars,1.8333333333333333,0.3516666666666667,0.6566666666666666,21,21,"CLEAR,NIGHT_MIST,NIGHT_CLEAR,MOSTLY_CLEAR,CLEAR,CLEAR","Onshore,Cross-shore,Cross-shore,Onshore,Onshore,Cross-shore",6
5842041f4e65fad6a7708a61,2024_05_01,32.01226,-80.83983,Sugar Shack,1.3333333333333333,0.315,0.62,21,21,"CLEAR,NIGHT_MIST,NIGHT_CLEAR,CLEAR,CLEAR,CLEAR","Cross-shore,Offshore,Offshore,Cross-shore,Cross-shore,Cross-shore",6
5842041f4e65fad6a7708a62,2024_05_01,31.98722842396969,-80.84773,18th St. Jetty,1,0.35531833333333335,0.555185,21,21,"MIST,NIGHT_MIST,NIGHT_MIST,MIST,MIST,MIST","Onshore,Cross-shore,Cross-shore,Onshore,Onshore,Cross-shore",6
5842041f4e65fad6a7708a64,2024_05_01,34.013473721006676,-77.8991,"Alabama Ave., Kure Beach",2,0.235,0.5416666666666666,19.5,19.5,"CLEAR,NIGHT_CLEAR,NIGHT_CLEAR,MOSTLY_CLEAR,CLEAR,CLEAR","Cross-shore,Cross-shore,Offshore,Cross-shore,Cross-shore,Cross-shore",6
5842041f4e65fad6a7708a65,2024_05_01,34.20859853336924,-77.79293,"C Street, Wrightsville Beach",1.3333333333333333,0.27605,0.5793222222222222,20,19,"CLEAR,NIGHT_CLEAR,NIGHT_CLEAR,MIST,MIST,MIST","Onshore,Cross-shore,Cross-shore,Onshore,Onshore,Cross-shore",6
5842041f4e65fad6a7708a66,2024_05_01,32.831,-79.71,Dewees Island,1,0.22666666666666668,0.5316666666666666,21,21,"CLEAR,NIGHT_MIST,NIGHT_MIST,CLEAR,CLEAR,CLEAR","Cross-shore,Cross-shore,Cross-shore,Onshore,Onshore,Cross-shore",6
5842041f4e65fad6a7708a67,2024_05_01,33.82924423172106,-78.62813,Cherry Grove Pier,1,0.07002222222222224,0.37551666666666667,20.5,20.5,"MIST,NIGHT_MIST,NIGHT_MIST,MIST,MIST,MIST","Onshore,Onshore,Onshore,Onshore,Onshore,Onshore",6
5842041f4e65fad6a7708a69,2024_05_01,34.27197439666496,-77.74050223196774,Figure Eight and Shell Islands,1.3333333333333333,0.3189666666666667,0.6212666666666666,20,19,"CLEAR,NIGHT_CLEAR,NIGHT_CLEAR,CLEAR,CLEAR,CLEAR","Onshore,Cross-shore,Cross-shore,Onshore,Onshore,Onshore",6
5842041f4e65fad6a7708a6b,2024_05_01,33.49041958261793,-79.07666070599386,North End,1.3333333333333333,0.29833333333333334,0.6033333333333334,20.5,20.5,"CLEAR,NIGHT_MOSTLY_CLEAR,NIGHT_MOSTLY_CLEAR,CLEAR,CLEAR,CLEAR","Onshore,Onshore,Cross-shore,Onshore,Onshore,Onshore",6
5842041f4e65fad6a7708a6c,2024_05_01,33.39537062495087,-79.13835037835189,The South End,1.1666666666666667,0.22833333333333333,0.5349999999999999,20.5,20.5,"CLEAR,NIGHT_MOSTLY_CLEAR,NIGHT_CLEAR,MIST,MIST,MIST","Onshore,Cross-shore,Cross-shore,Onshore,Onshore,Onshore",6
5842041f4e65fad6a7708a6d,2024_05_01,33.29001727666697,-79.17190003352977,North Island,1.3333333333333333,0.255,0.5566666666666666,20,20,"OVERCAST,NIGHT_MOSTLY_CLEAR,NIGHT_CLEAR,MOSTLY_CLEAR,CLEAR,CLEAR","Cross-shore,Cross-shore,Offshore,Cross-shore,Cross-shore,Cross-shore",6
5842041f4e65fad6a7708a6e,2024_05_01,32.90929771158952,-79.57810400297359,Bull Island,1.3333333333333333,0.18166666666666667,0.485,21,21,"OVERCAST,NIGHT_OVERCAST,NIGHT_MIST,CLEAR,MOSTLY_CLEAR,CLEAR","Onshore,Cross-shore,Cross-shore,Onshore,Onshore,Onshore",6
5842041f4e65fad6a7708a6f,2024_05_01,31.99153112815895,-80.84543050470074,Tybee Island Pier,1,0.045000000000000005,0.3516666666666667,21,21,"CLEAR,NIGHT_MIST,NIGHT_CLEAR,MOSTLY_CLEAR,MOSTLY_CLEAR,CLEAR","Onshore,Cross-shore,Cross-shore,Onshore,Onshore,Cross-shore",6
5842041f4e65fad6a7708a70,2024_05_01,33.03478144356316,-79.35021028265125,Cape Romain,1.8333333333333333,0.3883333333333333,0.6916666666666667,20.5,20.5,"CLEAR,NIGHT_MIST,NIGHT_MIST,MIST,MIST,MIST","Onshore,Cross-shore,Offshore,Cross-shore,Onshore,Cross-shore",6
5842041f4e65fad6a7708a71,2024_05_01,33.43231073271028,-79.11789,The Pier,1.3333333333333333,0.319955,0.49993,20.5,20.5,"CLEAR,NIGHT_MOSTLY_CLEAR,NIGHT_CLEAR,MIST,MIST,MIST","Onshore,Cross-shore,Cross-shore,Onshore,Onshore,Onshore",6
5842041f4e65fad6a7708a72,2024_05_01,33.45423621397969,-79.10497798178424,South Litchfield,1.3333333333333333,0.23833333333333334,0.5433333333333333,20.5,20.5,"CLEAR,NIGHT_CLEAR,NIGHT_CLEAR,CLEAR,MOSTLY_CLEAR,MOSTLY_CLEAR","Onshore,Cross-shore,Cross-shore,Onshore,Onshore,Onshore",6
5842041f4e65fad6a7708a73,2024_05_01,34.19316590251396,-77.8045,Crystal Pier,1.6666666666666667,0.23563333333333336,0.5414055555555556,20,19,"CLEAR,NIGHT_CLEAR,NIGHT_CLEAR,MIST,MIST,MIST","Onshore,Cross-shore,Cross-shore,Onshore,Onshore,Cross-shore",6
5842041f4e65fad6a7708a74,2024_05_01,33.68628680045124,-78.88346,Myrtle Beach,1,0.29666666666666663,0.6016666666666667,20.5,20.5,"CLEAR,NIGHT_MIST,NIGHT_MIST,CLEAR,CLEAR,MOSTLY_CLEAR","Onshore,Cross-shore,Cross-shore,Onshore,Onshore,Onshore",6
5842041f4e65fad6a7708a75,2024_05_01,32.66166297145973,-79.91951806398808,10th Street,1.5,0.3333333333333333,0.6416666666666666,21,21,"CLEAR,NIGHT_MIST,NIGHT_MIST,CLEAR,CLEAR,MOSTLY_CLEAR","Onshore,Cross-shore,Cross-shore,Onshore,Onshore,Onshore",6
5842041f4e65fad6a7708a76,2024_05_01,33.16729555197199,-79.19829236867845,South Island,1.3333333333333333,0.36,0.665,20.5,20.5,"CLEAR,NIGHT_MOSTLY_CLOUDY,NIGHT_MIST,MIST,MIST,MIST","Cross-shore,Cross-shore,Offshore,Cross-shore,Cross-shore,Cross-shore",6
5842041f4e65fad6a7708a77,2024_05_01,32.595,-80.088,Kiawah Island/Seabrook Island,1.5,0.30166666666666664,0.605,21,21,"MIST,NIGHT_MIST,NIGHT_MIST,MIST,MIST,MIST","Onshore,Onshore,Onshore,Onshore,Onshore,Onshore",6
5842041f4e65fad6a7708a78,2024_05_01,32.51356930575787,-80.28223,Edisto Beach,1.5,0.39772833333333335,0.6214500000000001,21,21,"MIST,NIGHT_MIST,NIGHT_MIST,MIST,MIST,MIST","Onshore,Onshore,Onshore,Onshore,Onshore,Onshore",6
5842041f4e65fad6a7708a79,2024_05_01,32.366270751262,-80.43911,Hunting Island,1,0.32511333333333337,0.50799,21,21,"MIST,NIGHT_MIST,NIGHT_MIST,BRIEF_SHOWERS_POSSIBLE,SHOWERS,MIST","Onshore,Cross-shore,Cross-shore,Onshore,Cross-shore,Cross-shore",6
5842041f4e65fad6a7708a7a,2024_05_01,32.65337734408365,-79.93983,Folly Beach Pier,1.6383333333333334,0.2899555555555556,0.5908833333333333,22,21,"CLEAR,NIGHT_MIST,NIGHT_MIST,CLEAR,CLEAR,CLEAR","Onshore,Onshore,Onshore,Onshore,Onshore,Onshore",6
5842041f4e65fad6a7708a7b,2024_05_01,33.41209545530049,-79.13026341393126,South Jetty,1.3333333333333333,0.22833333333333333,0.5349999999999999,20.5,20.5,"CLEAR,NIGHT_MOSTLY_CLEAR,NIGHT_CLEAR,CLEAR,MOSTLY_CLEAR,CLEAR","Onshore,Cross-shore,Cross-shore,Onshore,Onshore,Onshore",6
5842041f4e65fad6a7708a7c,2024_05_01,32.31115640606869,-80.48564,Fripp Island,2,0.43077333333333334,0.67308,21.5,21.5,"MIST,NIGHT_MIST,NIGHT_MIST,MIST,MIST,MIST","Onshore,Onshore,Onshore,Onshore,Onshore,Onshore",6
5842041f4e65fad6a7708a7d,2024_05_01,32.14365226036034,-80.74402,Hilton Head Island,1,0,0.24833333333333335,21.5,21.5,"CLEAR,NIGHT_MIST,NIGHT_MIST,CLEAR,CLEAR,CLEAR","Onshore,Onshore,Onshore,Onshore,Onshore,Onshore",6
5842041f4e65fad6a7708a7e,2024_05_01,29.70405364733744,-81.22426,Matanzas Inlet,1.445,0.5225444444444445,0.8231333333333334,24,22,"CLEAR,NIGHT_MOSTLY_CLEAR,NIGHT_MOSTLY_CLEAR,CLEAR,CLEAR,CLEAR","Cross-shore,Cross-shore,Cross-shore,Onshore,Onshore,Onshore",6
5842041f4e65fad6a7708a81,2024_05_01,29.76878537149042,-81.25109,Crescent Beach,1.3333333333333333,0.3833333333333333,0.6883333333333334,22.5,22.5,"CLEAR,NIGHT_MOSTLY_CLEAR,NIGHT_CLEAR,CLEAR,CLEAR,CLEAR","Onshore,Cross-shore,Cross-shore,Onshore,Onshore,Onshore",6
5842041f4e65fad6a7708a82,2024_05_01,32.80251718689188,-79.73221919500764,Wild Dunes,1.3333333333333333,0.3416666666666667,0.6433333333333333,21,21,"CLOUDY,NIGHT_MIST,NIGHT_MIST,CLEAR,MIST,MIST","Onshore,Onshore,Onshore,Onshore,Onshore,Onshore",6
5842041f4e65fad6a7708a84,2024_05_01,32.75733539419244,-79.83258856064796,Bert's Bar,1.1666666666666667,0.055,0.36,21,21,"CLEAR,NIGHT_MIST,NIGHT_MIST,CLEAR,CLEAR,MOSTLY_CLEAR","Onshore,Onshore,Onshore,Onshore,Onshore,Onshore",6
5842041f4e65fad6a7708a85,2024_05_01,32.66829212943039,-79.90735,Washout,1.3333333333333333,0.29481666666666667,0.5933833333333334,22,21,"CLEAR,NIGHT_MIST,NIGHT_MIST,CLEAR,CLEAR,CLEAR","Onshore,Onshore,Onshore,Onshore,Onshore,Onshore",6
5842041f4e65fad6a7708a86,2024_05_01,32.78452968219067,-79.7854,The Pier/Windjammer,1.5,0.335,0.64,21,21,"CLEAR,NIGHT_MIST,NIGHT_MIST,CLEAR,CLEAR,CLEAR","Onshore,Onshore,Onshore,Onshore,Onshore,Onshore",6
5842041f4e65fad6a7708a87,2024_05_01,29.86618162637438,-81.2662150259608,Anastasia Park (The Entrance),1.3333333333333333,0.325,0.63,22.5,22.5,"CLOUDY,NIGHT_CLEAR,NIGHT_CLEAR,CLEAR,CLEAR,CLEAR","Onshore,Cross-shore,Cross-shore,Onshore,Onshore,Onshore",6
5842041f4e65fad6a7708a89,2024_05_01,29.89149785916623,-81.2723223244215,Blowholes,1,0.3492,0.7207888888888889,26,24,"CLEAR,NIGHT_CLEAR,NIGHT_CLEAR,CLEAR,CLEAR,CLEAR","Cross-shore,Cross-shore,Cross-shore,Onshore,Onshore,Onshore",6
5842041f4e65fad6a7708a8a,2024_05_01,30.16227112983666,-81.35502907491218,Crossroads,1,0.4078111111111111,0.7771777777777777,26,24,"CLEAR,NIGHT_CLEAR,NIGHT_CLEAR,CLEAR,CLEAR,CLEAR","Onshore,Cross-shore,Cross-shore,Onshore,Onshore,Onshore",6
5842041f4e65fad6a7708a8b,2024_05_01,30.19308537587637,-81.36314247820911,Sawgrass,1,0.4333666666666667,0.8027333333333333,26,24,"CLEAR,NIGHT_CLEAR,NIGHT_CLEAR,CLEAR,CLEAR,CLEAR","Onshore,Cross-shore,Cross-shore,Onshore,Onshore,Onshore",6
5842041f4e65fad6a7708a8c,2024_05_01,30.34696027700899,-81.39451,18th Street,1.3333333333333333,0.42615000000000003,0.6658566666666667,22,22,"CLEAR,NIGHT_CLEAR,NIGHT_CLEAR,CLEAR,CLEAR,CLEAR","Onshore,Cross-shore,Offshore,Onshore,Onshore,Onshore",6
5842041f4e65fad6a7708a8d,2024_05_01,30.381793,-81.39686,Mayport Poles,2,0.5966666666666667,0.8999999999999999,22,22,"MOSTLY_CLEAR,NIGHT_CLEAR,NIGHT_CLEAR,CLEAR,CLEAR,MOSTLY_CLEAR","Onshore,Cross-shore,Cross-shore,Onshore,Onshore,Onshore",6
5842041f4e65fad6a7708a8e,2024_05_01,30.390516,-81.395591,Blue Roofs,1.8333333333333333,0.61,0.9183333333333333,22,22,"MOSTLY_CLEAR,NIGHT_CLEAR,NIGHT_CLEAR,CLEAR,CLEAR,MOSTLY_CLEAR","Onshore,Cross-shore,Cross-shore,Onshore,Onshore,Onshore",6
5842041f4e65fad6a7708a8f,2024_05_01,30.40517712722211,-81.40074116169004,Huguenot Park (North Jetty),1.8333333333333333,0.4916666666666667,0.7966666666666666,22,22,"MOSTLY_CLEAR,NIGHT_CLEAR,NIGHT_CLEAR,CLEAR,CLEAR,MOSTLY_CLEAR","Onshore,Cross-shore,Offshore,Onshore,Onshore,Onshore",6
5842041f4e65fad6a7708a90,2024_05_01,30.47788918872762,-81.41055821335078,Talbot Island,2.2916666666666665,0.619136388888889,0.9374013888888889,24,22,"CLEAR,NIGHT_CLEAR,NIGHT_CLEAR,CLEAR,CLEAR,LIGHT_SHOWERS_POSSIBLE","Onshore,Cross-shore,Offshore,Onshore,Onshore,Onshore",6
5842041f4e65fad6a7708a91,2024_05_01,30.66753984549761,-81.42983,Main Beach,1.5,0.3883333333333333,0.6916666666666667,22.5,22.5,"CLEAR,NIGHT_CLEAR,NIGHT_CLEAR,MIST,MIST,MIST","Onshore,Cross-shore,Cross-shore,Onshore,Onshore,Onshore",6
5842041f4e65fad6a7708a92,2024_05_01,30.69983581209126,-81.42483,Ft. Clinch State Park,1.6666666666666667,0.505,0.8083333333333333,22.5,22.5,"CLEAR,NIGHT_CLEAR,NIGHT_CLEAR,CLEAR,CLEAR,CLEAR","Onshore,Cross-shore,Cross-shore,Onshore,Onshore,Onshore",6
5842041f4e65fad6a7708a93,2024_05_01,30.62059700777582,-81.437252942757425,Amelia Pier,1.6666666666666667,0.47833333333333333,0.7833333333333333,22,22,"MOSTLY_CLOUDY,NIGHT_CLEAR,NIGHT_CLEAR,CLEAR,CLEAR,CLEAR","Onshore,Cross-shore,Cross-shore,Onshore,Onshore,Onshore",6
5842041f4e65fad6a7708a95,2024_05_01,28.95125170929067,-80.83837,Bethune Beach,1.8333333333333333,0.535,0.8400000000000001,23,23,"CLEAR,NIGHT_BRIEF_SHOWERS,NIGHT_MOSTLY_CLEAR,CLEAR,CLEAR,CLEAR","Onshore,Cross-shore,Cross-shore,Onshore,Onshore,Onshore",6
5842041f4e65fad6a7708a96,2024_05_01,29.03874288905362,-80.8933424949646,Flagler Ave.,1.1666666666666667,0.6025444444444444,0.9117444444444445,26,24,"MOSTLY_CLOUDY,NIGHT_CLEAR,NIGHT_CLEAR,CLEAR,CLEAR,CLEAR","Cross-shore,Cross-shore,Cross-shore,Onshore,Onshore,Onshore",6
5842041f4e65fad6a7708a98,2024_05_01,30.332297686992757,-81.39319,Atlantic Beach,1.3333333333333333,0.40867,0.6385483333333333,22,22,"CLEAR,NIGHT_CLEAR,NIGHT_CLEAR,CLEAR,CLEAR,CLEAR","Cross-shore,Cross-shore,Offshore,Onshore,Onshore,Onshore",6
5842041f4e65fad6a7708a99,2024_05_01,29.87530059952514,-81.26757958498874,Middles,1,0.35475555555555555,0.7230111111111112,26,24,"CLEAR,NIGHT_CLEAR,NIGHT_CLEAR,CLEAR,CLEAR,CLEAR","Cross-shore,Cross-shore,Cross-shore,Onshore,Onshore,Onshore",6
5842041f4e65fad6a7708a9a,2024_05_01,29.146475528378218,-80.96347,Sunglow Pier,1.6666666666666667,0.45333333333333337,0.7616666666666666,23,23,"CLEAR,NIGHT_CLEAR,NIGHT_CLEAR,CLEAR,CLEAR,MIST","Cross-shore,Cross-shore,Cross-shore,Onshore,Onshore,Onshore",6
5842041f4e65fad6a7708a9b,2024_05_01,30.02251238001095,-81.32183077344881,Gate Station,1.1383333333333334,0.3353111111111111,0.6994,26,24,"CLEAR,NIGHT_CLEAR,NIGHT_CLEAR,CLEAR,CLEAR,CLEAR","Onshore,Cross-shore,Cross-shore,Onshore,Onshore,Onshore",6
5842041f4e65fad6a7708a9c,2024_05_01,29.33976495417899,-81.0606,Bicentennial Park,1.8333333333333333,0.42833333333333334,0.73,23,23,"CLEAR,NIGHT_MOSTLY_CLEAR,NIGHT_CLEAR,CLEAR,MIST,CLEAR","Cross-shore,Cross-shore,Cross-shore,Onshore,Onshore,Onshore",6
5842041f4e65fad6a7708a9d,2024_05_01,29.08257353385602,-80.92137,Ponce Inlet,2.138333333333333,0.5930722222222222,1.0280055555555556,24,23,"CLEAR,NIGHT_CLEAR,NIGHT_CLEAR,CLEAR,CLEAR,CLEAR","Cross-shore,Cross-shore,Cross-shore,Onshore,Onshore,Onshore",6
5842041f4e65fad6a7708a9f,2024_05_01,27.862962005874696,-80.44668,Sebastian Inlet,2.1666666666666665,0.6687833333333333,1.0550398611111111,24,23,"MOSTLY_CLEAR,NIGHT_FOG,NIGHT_CLEAR,MIST,MIST,MIST","Onshore,Cross-shore,Offshore,Onshore,Onshore,Onshore",6
5842041f4e65fad6a7708aa0,2024_05_01,30.292626880836885,-81.38579,Jacksonville Beach Pier,2.625,0.5611277777777778,0.9304,24,22,"MOSTLY_CLOUDY,NIGHT_CLEAR,NIGHT_CLEAR,CLEAR,CLEAR,CLEAR","Cross-shore,Cross-shore,Offshore,Onshore,Onshore,Onshore",6
5842041f4e65fad6a7708aa1,2024_05_01,29.22878213864532,-81.00551,Main Street North,1.3333333333333333,0.56523,0.7347783333333333,23,23,"CLEAR,NIGHT_MOSTLY_CLEAR,NIGHT_CLEAR,CLEAR,CLEAR,CLEAR","Onshore,Offshore,Offshore,Onshore,Onshore,Onshore",6
5842041f4e65fad6a7708aa2,2024_05_01,29.21860397328164,-81.0019,Daytona Beach,1.3333333333333333,0.4633333333333334,0.7683333333333333,23,23,"CLEAR,NIGHT_MOSTLY_CLEAR,NIGHT_CLEAR,CLEAR,CLEAR,CLEAR","Onshore,Offshore,Offshore,Onshore,Onshore,Onshore",6
5842041f4e65fad6a7708aa3,2024_05_01,27.47531255634912,-80.28914,Ft. Pierce Inlet,2.375,0.7629,1.1045166666666668,24,23,"CLEAR,NIGHT_CLEAR,NIGHT_CLEAR,CLEAR,CLEAR,CLEAR","Onshore,Cross-shore,Cross-shore,Onshore,Onshore,Onshore",6
5842041f4e65fad6a7708aa4,2024_05_01,29.29239875585548,-81.0386,Ormond Beach,1.8333333333333333,0.5333333333333333,0.84,23,23,"CLEAR,NIGHT_CLEAR,NIGHT_CLEAR,CLEAR,CLEAR,CLEAR","Onshore,Cross-shore,Cross-shore,Onshore,Onshore,Onshore",6
5842041f4e65fad6a7708aa5,2024_05_01,29.91629441498523,-81.28801,Vilano,1.3333333333333333,0.2966666666666667,0.6,22.5,22.5,"CLEAR,NIGHT_CLEAR,NIGHT_CLEAR,CLEAR,CLEAR,CLEAR","Cross-shore,Cross-shore,Cross-shore,Onshore,Onshore,Onshore",6
5842041f4e65fad6a7708aa6,2024_05_01,27.876230736320828,-80.4551,Spanish House,1.7216666666666667,0.7089333333333333,1.128011111111111,24,23,"MOSTLY_CLEAR,NIGHT_MIST,NIGHT_FOG,MIST,CLEAR,CLEAR","Onshore,Cross-shore,Cross-shore,Onshore,Onshore,Onshore",6
5842041f4e65fad6a7708aa7,2024_05_01,28.64397251741012,-80.62329,Playalinda,1.6666666666666667,0.5266666666666666,0.835,23,23,"CLEAR,NIGHT_SHOWERS,NIGHT_FOG,CLEAR,CLEAR,CLEAR","Onshore,Onshore,Onshore,Onshore,Onshore,Onshore",6
5842041f4e65fad6a7708aa8,2024_05_01,28.406142,-80.58886,Jetty Park,1.5,0.32,0.6216666666666667,23.5,23.5,"CLEAR,NIGHT_FOG,NIGHT_FOG,MIST,MIST,CLEAR","Onshore,Cross-shore,Cross-shore,Onshore,Onshore,Onshore",6
5842041f4e65fad6a7708aa9,2024_05_01,28.49083243010974,-80.58001715986319,Kennedy Space Center,2,0.8166666666666667,1.05,23.5,23.5,"CLEAR,NIGHT_FOG,NIGHT_MIST,CLEAR,CLEAR,CLEAR","Onshore,Onshore,Offshore,Onshore,Onshore,Onshore",6
5842041f4e65fad6a7708aab,2024_05_01,28.336757013024314,-80.60568,Lori Wilson Park,1.3333333333333333,0.5603222222222222,0.8670222222222222,24,23,"CLEAR,NIGHT_FOG,NIGHT_SHOWERS,CLEAR,CLEAR,CLEAR","Onshore,Cross-shore,Cross-shore,Onshore,Onshore,Onshore",6
5842041f4e65fad6a7708aad,2024_05_01,27.76388821683801,-80.3962958234027,Wabasso,1.8333333333333333,0.605,0.91,23,23,"MOSTLY_CLEAR,NIGHT_MOSTLY_CLEAR,NIGHT_MOSTLY_CLEAR,CLEAR,CLEAR,CLEAR","Onshore,Cross-shore,Cross-shore,Onshore,Onshore,Onshore",6
5842041f4e65fad6a7708aae,2024_05_01,27.521583322459,-80.30987620353699,P.V. Martin's,1.4166666666666667,0.7150444444444445,0.9967444444444444,24,23,"MOSTLY_CLEAR,NIGHT_BRIEF_SHOWERS,NIGHT_CLEAR,CLEAR,CLEAR,CLEAR","Onshore,Cross-shore,Cross-shore,Onshore,Onshore,Onshore",6
5842041f4e65fad6a7708aaf,2024_05_01,27.644996047720046,-80.35242676734924,Riomar,1.4166666666666667,0.8711555555555556,1.0409111111111111,24,23,"CLEAR,NIGHT_HEAVY_SHOWERS,NIGHT_CLEAR,CLEAR,CLEAR,CLEAR","Onshore,Cross-shore,Cross-shore,Onshore,Onshore,Onshore",6
5842041f4e65fad6a7708ab1,2024_05_01,27.670121806659253,-80.36026954650879,Vero Pier,1.9716666666666667,0.9011555555555556,1.1803555555555556,24,23,"CLEAR,NIGHT_FOG,NIGHT_MOSTLY_CLEAR,CLEAR,CLEAR,CLEAR","Onshore,Cross-shore,Cross-shore,Onshore,Onshore,Onshore",6
5842041f4e65fad6a7708ab2,2024_05_01,28.047705032021486,-80.54680109024048,Spessard Holland,1.9583333333333333,0.7714941666666667,1.1572391666666668,24,23,"MOSTLY_CLEAR,NIGHT_MOSTLY_CLEAR,NIGHT_CLEAR,CLEAR,CLEAR,CLEAR","Cross-shore,Offshore,Offshore,Onshore,Onshore,Onshore",6
5842041f4e65fad6a7708ab7,2024_05_01,28.135426226217064,-80.57895541191101,The Radisson,1.9166666666666667,0.7528222222222222,1.0838444444444444,24,23,"CLEAR,NIGHT_CLEAR,NIGHT_FOG,MIST,MIST,MIST","Onshore,Cross-shore,Cross-shore,Onshore,Onshore,Onshore",6
5842041f4e65fad6a7708ab8,2024_05_01,28.26664623907351,-80.60448467731476,Picnic Tables,1.8333333333333333,0.8783333333333333,1.0983333333333334,24,24,"CLEAR,NIGHT_FOG,NIGHT_CLEAR,CLEAR,CLEAR,CLEAR","Onshore,Cross-shore,Cross-shore,Onshore,Onshore,Onshore",6
5842041f4e65fad6a7708ab9,2024_05_01,28.200840983180232,-80.59493,Perkins,1.8333333333333333,0.7578222222222222,1.0785666666666667,24,23,"CLEAR,NIGHT_CLEAR,NIGHT_MOSTLY_CLEAR,MIST,BRIEF_SHOWERS,MIST","Onshore,Cross-shore,Cross-shore,Onshore,Onshore,Onshore",6
5842041f4e65fad6a7708aba,2024_05_01,28.185652556759443,-80.59154,RC's,1.75,0.7781777777777779,1.1545611111111111,24,23,"MOSTLY_CLEAR,NIGHT_MOSTLY_CLOUDY,NIGHT_MOSTLY_CLEAR,CLEAR,CLEAR,CLEAR","Onshore,Cross-shore,Cross-shore,Onshore,Onshore,Onshore",6
5842041f4e65fad6a7708abc,2024_05_01,28.252541991968208,-80.60269,2nd Light,1.8333333333333333,0.7283333333333334,1.0083333333333333,24,24,"CLEAR,NIGHT_FOG,NIGHT_CLEAR,CLEAR,CLEAR,CLEAR","Onshore,Cross-shore,Cross-shore,Onshore,Onshore,Onshore",6
5842041f4e65fad6a7708abd,2024_05_01,27.901611308716447,-80.4697,Bonsteel Park,1.9166666666666667,0.6778222222222222,1.0782888888888889,24,23,"MOSTLY_CLEAR,NIGHT_FOG,NIGHT_FOG,MIST,MIST,MIST","Onshore,Cross-shore,Cross-shore,Onshore,Onshore,Onshore",6
