_id,date,lat,lon,name,daily_mean_swell_rating,daily_mean_wave_height_min,daily_mean_wave_height_max,daily_mean_water_temperature_max,daily_mean_water_temperature_min,weather_per_timestamp,wind_per_timestamp,n_samples_per_day
5842041f4e65fad6a77087f9,2024_02_07,37.741668,-122.51038,South Ocean Beach,1,2.94592,3.55788,14,14,"NIGHT_CLEAR,NIGHT_MOSTLY_CLOUDY,NIGHT_CLEAR,NIGHT_CLEAR,NIGHT_MOSTLY_CLOUDY","Onshore,Onshore,Onshore,Onshore,Onshore",5
5842041f4e65fad6a7708801,2024_02_07,37.49142,-122.50428,Maverick's,NA,2.77042,3.35038,13,13,"NIGHT_MOSTLY_CLOUDY,NIGHT_CLOUDY,NIGHT_MOSTLY_CLOUDY,NIGHT_MOSTLY_CLOUDY,NIGHT_MOSTLY_CLOUDY","Offshore,Offshore,Offshore,Offshore,Offshore",5
5842041f4e65fad6a7708804,2024_02_07,44.997,-124.018,Roads End,3,2.368,2.826,11,11,"NIGHT_CLEAR,NIGHT_MOSTLY_CLOUDY,NIGHT_LIGHT_SHOWERS_POSSIBLE,NIGHT_BRIEF_SHOWERS_POSSIBLE,NIGHT_BRIEF_SHOWERS_POSSIBLE","Cross-shore,Cross-shore,Offshore,Offshore,Offshore",5
5842041f4e65fad6a7708805,2024_02_07,36.95188851423011,-122.02522,Steamer Lane,3.8,1.70126,2.12628,14,14,"NIGHT_MIST,NIGHT_MIST,NIGHT_CLEAR,NIGHT_CLEAR,NIGHT_CLEAR","Offshore,Offshore,Offshore,Offshore,Offshore",5
5842041f4e65fad6a7708806,2024_02_07,36.95918781542251,-122.02489,Cowells,1.8,0.06348,0.3397,14,14,"NIGHT_MIST,NIGHT_MIST,NIGHT_CLEAR,NIGHT_CLEAR,NIGHT_CLEAR","Offshore,Cross-shore,Cross-shore,Cross-shore,Offshore",5
5842041f4e65fad6a7708807,2024_02_07,36.95468082526536,-121.97234,Pleasure Point,3.8,1.3988,1.75346,14,14,"NIGHT_CLEAR,NIGHT_CLEAR,NIGHT_CLEAR,NIGHT_CLEAR,NIGHT_MOSTLY_CLEAR","Offshore,Offshore,Offshore,Offshore,Offshore",5
5842041f4e65fad6a770880a,2024_02_07,35.37815414378748,-120.86589,Morro Bay,3,1.76802,2.25126,14,14,"NIGHT_MOSTLY_CLEAR,NIGHT_CLEAR,NIGHT_MOSTLY_CLOUDY,NIGHT_MOSTLY_CLOUDY,CLEAR","Offshore,Offshore,Offshore,Offshore,Cross-shore",5
5842041f4e65fad6a770880b,2024_02_07,36.95782765000708,-121.9672887511276,Jack's,2.6,0.62044,0.93326,14,14,"NIGHT_CLEAR,NIGHT_CLEAR,NIGHT_CLEAR,NIGHT_CLEAR,NIGHT_MOSTLY_CLEAR","Offshore,Offshore,Offshore,Offshore,Offshore",5
5842041f4e65fad6a770880d,2024_02_07,34.29982939936656,-119.3489016603669,Gold Coast Beachbreaks,3,0.418,0.72,14.4,14.4,"NIGHT_CLEAR,NIGHT_CLEAR,NIGHT_CLEAR,NIGHT_CLEAR,CLEAR","Cross-shore,Cross-shore,Offshore,Cross-shore,Cross-shore",5
5842041f4e65fad6a7708811,2024_02_07,34.245076,-119.26799,Ventura Harbor,3.2,1.1228681666666667,1.3547513333333334,14,14,"NIGHT_CLEAR,NIGHT_CLEAR,NIGHT_CLEAR,NIGHT_MIST,MIST","Offshore,Offshore,Offshore,Offshore,Offshore",5
5842041f4e65fad6a7708813,2024_02_07,34.051,-118.964,County Line,3,0.79122,1.09496,15,15,"NIGHT_OVERCAST,NIGHT_OVERCAST,NIGHT_MOSTLY_CLEAR,NIGHT_MOSTLY_CLEAR,CLEAR","Offshore,Offshore,Offshore,Offshore,Cross-shore",5
5842041f4e65fad6a7708814,2024_02_07,34.37256264378892,-119.47797,Rincon,2.8,0.614,0.888,14.4,14.4,"NIGHT_CLEAR,NIGHT_CLEAR,NIGHT_CLEAR,NIGHT_CLEAR,CLEAR","Cross-shore,Cross-shore,Offshore,Offshore,Onshore",5
5842041f4e65fad6a7708817,2024_02_07,34.03096101876324,-118.68109,Malibu Third Point,2.8,0.646,0.952,15,15,"NIGHT_CLEAR,NIGHT_OVERCAST,NIGHT_MOSTLY_CLOUDY,NIGHT_CLEAR,FOG","Offshore,Offshore,Offshore,Offshore,Onshore",5
5842041f4e65fad6a7708819,2024_02_07,33.984079047970035,-118.47381591796875,Venice Beach,2.8,0.76214,1.06684,15,15,"NIGHT_MOSTLY_CLOUDY,NIGHT_BRIEF_SHOWERS,NIGHT_MOSTLY_CLOUDY,NIGHT_MOSTLY_CLOUDY,MOSTLY_CLOUDY","Offshore,Offshore,Offshore,Offshore,Offshore",5
5842041f4e65fad6a770881e,2024_02_07,34.037508438646746,-118.58339846155594,Topanga Beach,3,0.61798,0.93384,15,15,"NIGHT_MIST,NIGHT_FOG,NIGHT_MIST,NIGHT_CLEAR,FOG","Offshore,Offshore,Offshore,Offshore,Cross-shore",5
5842041f4e65fad6a7708820,2024_02_07,33.73954373690184,-118.11414,Seal Beach Jetty,3,0.454,0.758,15,15,"NIGHT_MIST,NIGHT_FOG,NIGHT_CLEAR,NIGHT_MIST,MIST","Cross-shore,Offshore,Offshore,Offshore,Offshore",5
5842041f4e65fad6a7708822,2024_02_07,33.72309983348433,-118.08078,Anderson Street,3,0.568,0.872,15,15,"NIGHT_HEAVY_SHOWERS,NIGHT_CLEAR,NIGHT_CLEAR,NIGHT_MOSTLY_CLOUDY,MIST","Cross-shore,Offshore,Offshore,Offshore,Offshore",5
5842041f4e65fad6a7708827,2024_02_07,33.65574085629463,-118.00397,Huntington Beach Pier Northside,2.6,0.8733933333333334,1.1246933333333333,14,14,"NIGHT_FOG,NIGHT_MOSTLY_CLOUDY,NIGHT_BRIEF_SHOWERS,NIGHT_MOSTLY_CLOUDY,FOG","Offshore,Onshore,Onshore,Offshore,Offshore",5
5842041f4e65fad6a7708828,2024_02_07,34.272041739333,-119.2997646331,C St.,3,0.72858,1.0104933333333332,14,14,"NIGHT_CLEAR,NIGHT_CLEAR,NIGHT_CLEAR,NIGHT_CLEAR,CLEAR","Offshore,Offshore,Offshore,Offshore,Offshore",5
5842041f4e65fad6a770882a,2024_02_07,33.61555743705257,-117.93676,Newport Lower Jetties,2.8,0.65304,1.00682,15,15,"NIGHT_FOG,NIGHT_SHOWERS,NIGHT_BRIEF_SHOWERS,NIGHT_CLEAR,FOG","Offshore,Cross-shore,Offshore,Offshore,Offshore",5
5842041f4e65fad6a770882b,2024_02_07,33.5930302087,-117.88199,The Wedge,3,1.001852,1.3760860000000001,15,15,"NIGHT_MOSTLY_CLOUDY,NIGHT_HEAVY_SHOWERS,NIGHT_MOSTLY_CLOUDY,NIGHT_SHOWERS,CLEAR","Offshore,Offshore,Offshore,Offshore,Offshore",5
5842041f4e65fad6a770882c,2024_02_07,33.60577342582,-117.9315376281,Newport Beach Pier,1.2,0.6017066666666667,0.9032266666666666,15,15,"NIGHT_MOSTLY_CLOUDY,NIGHT_HEAVY_SHOWERS,NIGHT_MOSTLY_CLOUDY,NIGHT_CLEAR,CLEAR","Cross-shore,Onshore,Cross-shore,Cross-shore,Offshore",5
5842041f4e65fad6a770882e,2024_02_07,33.475793399792984,-117.72291,Salt Creek,2,0.98754,1.34132,15,15,"NIGHT_OVERCAST,NIGHT_CLEAR,NIGHT_MOSTLY_CLOUDY,NIGHT_MOSTLY_CLOUDY,MOSTLY_CLOUDY","Onshore,Onshore,Onshore,Onshore,Onshore",5
5842041f4e65fad6a7708830,2024_02_07,33.41800974113613,-117.61952,T-Street,1.6,0.6947066666666667,1.01684,16,16,"NIGHT_MOSTLY_CLOUDY,NIGHT_HEAVY_SHOWERS,NIGHT_MOSTLY_CLOUDY,NIGHT_MOSTLY_CLOUDY,MOSTLY_CLOUDY","Onshore,Onshore,Onshore,Onshore,Offshore",5
5842041f4e65fad6a7708832,2024_02_07,33.202391008646,-117.39475,Oceanside Harbor,1.8,0.83906,1.1809733333333334,16,16,"NIGHT_MOSTLY_CLOUDY,NIGHT_MOSTLY_CLOUDY,NIGHT_CLEAR,NIGHT_CLEAR,HEAVY_SHOWERS","Onshore,Onshore,Onshore,Onshore,Offshore",5
5842041f4e65fad6a7708835,2024_02_07,33.19477795952803,-117.38667,Oceanside Pier,1.8,0.7851,1.1377133333333334,16,16,"NIGHT_FOG,NIGHT_MIST,NIGHT_MOSTLY_CLOUDY,NIGHT_CLEAR,HEAVY_SHOWERS","Onshore,Onshore,Onshore,Onshore,Cross-shore",5
5842041f4e65fad6a7708837,2024_02_07,33.14948100706,-117.35029,Tamarack,2,0.718,1.026,15,15,"NIGHT_MOSTLY_CLOUDY,NIGHT_MOSTLY_CLOUDY,NIGHT_FOG,NIGHT_MOSTLY_CLOUDY,MOSTLY_CLOUDY","Onshore,Onshore,Onshore,Onshore,Cross-shore",5
5842041f4e65fad6a7708839,2024_02_07,32.865777159358856,-117.25614295356122,Scripps,1.4,1.0168933333333332,1.3066733333333334,14,14,"NIGHT_CLOUDY,NIGHT_OVERCAST,NIGHT_BRIEF_SHOWERS,NIGHT_CLEAR,CLEAR","Onshore,Onshore,Onshore,Cross-shore,Onshore",5
5842041f4e65fad6a770883a,2024_02_07,32.813094,-117.27381,Birdrock,2,1.198,1.472,15.6,15.6,"NIGHT_CLOUDY,NIGHT_OVERCAST,NIGHT_CLEAR,NIGHT_LIGHT_SHOWERS_POSSIBLE,MOSTLY_CLOUDY","Onshore,Onshore,Onshore,Offshore,Onshore",5
5842041f4e65fad6a770883b,2024_02_07,32.877231,-117.25303,Blacks,1,1.32908,1.6583933333333334,14,14,"NIGHT_CLOUDY,NIGHT_OVERCAST,NIGHT_BRIEF_SHOWERS,NIGHT_CLEAR,CLEAR","Onshore,Onshore,Onshore,Onshore,Onshore",5
5842041f4e65fad6a770883c,2024_02_07,32.82978974229765,-117.28161740727381,Windansea,0.8,1.1592866666666666,1.4817666666666667,14,14,"NIGHT_CLOUDY,NIGHT_OVERCAST,NIGHT_MOSTLY_CLOUDY,NIGHT_FOG,MOSTLY_CLOUDY","Onshore,Onshore,Onshore,Onshore,Onshore",5
5842041f4e65fad6a770883d,2024_02_07,32.838278,-117.28396,Horseshoe,1.2,1.226,1.462,15.6,15.6,"NIGHT_CLOUDY,NIGHT_OVERCAST,NIGHT_MOSTLY_CLOUDY,NIGHT_FOG,MOSTLY_CLOUDY","Onshore,Onshore,Onshore,Offshore,Onshore",5
5842041f4e65fad6a770883f,2024_02_07,32.75034717673179,-117.25337,Ocean Beach,1,1.3234133333333333,1.6538933333333332,14,14,"NIGHT_CLOUDY,NIGHT_CLOUDY,NIGHT_CLEAR,NIGHT_HEAVY_RAIN,MOSTLY_CLOUDY","Onshore,Onshore,Onshore,Onshore,Onshore",5
5842041f4e65fad6a7708840,2024_02_07,32.73693,-117.25718,Sunset Cliffs,1.4,1.178,1.41,15.6,15.6,"NIGHT_OVERCAST,NIGHT_OVERCAST,NIGHT_MOSTLY_CLOUDY,NIGHT_RAIN,MOSTLY_CLOUDY","Onshore,Onshore,Onshore,Onshore,Onshore",5
5842041f4e65fad6a7708841,2024_02_07,32.796582258728826,-117.25779,Pacific Beach,1.2,1.2779133333333332,1.5522666666666667,14,14,"NIGHT_CLOUDY,NIGHT_CLOUDY,NIGHT_CLEAR,NIGHT_HEAVY_RAIN,MOSTLY_CLOUDY","Onshore,Onshore,Onshore,Offshore,Onshore",5
5842041f4e65fad6a7708842,2024_02_07,32.776636,-117.25514,Mission Beach,1.2,1.1964133333333333,1.4959333333333333,14,14,"NIGHT_CLOUDY,NIGHT_CLOUDY,NIGHT_CLEAR,NIGHT_HEAVY_RAIN,MOSTLY_CLOUDY","Onshore,Onshore,Onshore,Cross-shore,Onshore",5
5842041f4e65fad6a7708844,2024_02_07,32.577195519016,-117.13475,Imperial Beach Pier,1,1.24,1.514,15.6,15.6,"NIGHT_CLEAR,NIGHT_MOSTLY_CLOUDY,NIGHT_MOSTLY_CLOUDY,NIGHT_CLOUDY,CLEAR","Onshore,Onshore,Onshore,Onshore,Onshore",5
5842041f4e65fad6a770884a,2024_02_07,42.88678181061,-70.80843,Seabrook,1.3,0.6991115,1.149511,5,4,"NIGHT_CLEAR,NIGHT_CLEAR,CLEAR,MOSTLY_CLOUDY,CLEAR","Cross-shore,Cross-shore,Cross-shore,Cross-shore,Cross-shore",5
5842041f4e65fad6a770884e,2024_02_07,41.434181432898335,-71.45312118111178,Narragansett,0.45,-0.006999999999999999,0.3043,7,6,"NIGHT_CLEAR,NIGHT_MOSTLY_CLEAR,OVERCAST,CLOUDY,MOSTLY_CLEAR","Offshore,Offshore,Offshore,Offshore,Offshore",5
5842041f4e65fad6a7708850,2024_02_07,40.582703230722,-73.65247,Lincoln Blvd,0.55,0.019666666666666666,0.25938666666666665,7,6,"NIGHT_CLEAR,NIGHT_CLEAR,CLEAR,CLEAR,CLEAR","Offshore,Offshore,Offshore,Offshore,Offshore",5
5842041f4e65fad6a7708852,2024_02_07,40.58342841721757,-73.81182,Rockaways,2,0.37852,0.6821533333333333,7,6,"NIGHT_CLEAR,NIGHT_CLEAR,CLEAR,CLEAR,CLEAR","Offshore,Offshore,Offshore,Offshore,Offshore",5
5842041f4e65fad6a7708853,2024_02_07,40.330474,-73.9734,Monmouth Beach,1.4,0.6784466666666666,1.06924,6,5,"NIGHT_CLEAR,NIGHT_CLEAR,CLEAR,CLEAR,CLEAR","Cross-shore,Cross-shore,Cross-shore,Cross-shore,Cross-shore",5
5842041f4e65fad6a7708856,2024_02_07,40.113,-74.028,Manasquan Inlet,1,0.9500666666666667,1.4348333333333334,6,5,"NIGHT_CLEAR,NIGHT_CLEAR,CLEAR,CLEAR,CLEAR","Cross-shore,Cross-shore,Cross-shore,Cross-shore,Cross-shore",5
5842041f4e65fad6a7708857,2024_02_07,39.941519877445664,-74.06829,Casino Pier,1,1.0340933333333333,1.5257733333333334,6,5,"NIGHT_CLEAR,NIGHT_CLEAR,CLEAR,CLEAR,CLEAR","Cross-shore,Cross-shore,Cross-shore,Cross-shore,Cross-shore",5
5842041f4e65fad6a7708858,2024_02_07,39.28223089949212,-74.55766,North End OC,2,0.8741733333333332,1.2399333333333333,6,5,"NIGHT_CLEAR,NIGHT_MOSTLY_CLEAR,CLEAR,CLEAR,CLEAR","Offshore,Offshore,Offshore,Offshore,Offshore",5
5842041f4e65fad6a770885b,2024_02_07,39.65080599934257,-74.17146,Ship Bottom,1,1.0379266666666667,1.5410533333333334,6,5,"NIGHT_MOSTLY_CLEAR,NIGHT_MOSTLY_CLOUDY,CLEAR,CLEAR,CLEAR","Cross-shore,Cross-shore,Offshore,Offshore,Offshore",5
5842041f4e65fad6a7708863,2024_02_07,36.034151543144,-75.66791,Third Street,0.1,1.7571999999999999,2.39512,8,5,"NIGHT_OVERCAST,NIGHT_CLOUDY,CLOUDY,CLOUDY,OVERCAST","Onshore,Onshore,Onshore,Onshore,Onshore",5
5842041f4e65fad6a7708867,2024_02_07,35.605833221351425,-75.46303,S-Turns,0,1.8794066666666667,2.563006666666667,10,8,"NIGHT_OVERCAST,NIGHT_OVERCAST,CLOUDY,CLOUDY,OVERCAST","Cross-shore,Cross-shore,Cross-shore,Cross-shore,Cross-shore",5
5842041f4e65fad6a770886d,2024_02_07,38.338461,-75.08117,Ocean City Boardwalk,0.766,1.0496466666666668,1.6379666666666666,7,5,"NIGHT_MOSTLY_CLOUDY,NIGHT_MOSTLY_CLOUDY,CLEAR,CLEAR,CLEAR","Onshore,Onshore,Cross-shore,Cross-shore,Onshore",5
5842041f4e65fad6a770886f,2024_02_07,29.844757212379562,-81.26136,A St.,2,2.116,2.512,14.4,14.4,"NIGHT_CLEAR,NIGHT_CLEAR,CLEAR,CLEAR,CLEAR","Cross-shore,Cross-shore,Cross-shore,Cross-shore,Cross-shore",5
5842041f4e65fad6a7708871,2024_02_07,29.069417851135093,-80.90824,New Smyrna Beach,0.55,2.72362,3.50518,17,15,"NIGHT_CLEAR,NIGHT_MOSTLY_CLEAR,OVERCAST,CLOUDY,CLOUDY","Cross-shore,Cross-shore,Cross-shore,Cross-shore,Cross-shore",5
5842041f4e65fad6a7708872,2024_02_07,28.367707417566,-80.60171,Cocoa Beach Pier,1.9,1.4517266666666666,1.9193399999999998,18,17,"NIGHT_MOSTLY_CLEAR,NIGHT_MOSTLY_CLEAR,MOSTLY_CLOUDY,MOSTLY_CLOUDY,MOSTLY_CLOUDY","Offshore,Cross-shore,Cross-shore,Cross-shore,Cross-shore",5
5842041f4e65fad6a7708873,2024_02_07,28.091782738658846,-80.56479,Indialantic,1.5,2.670786666666667,3.5773466666666667,19,18,"NIGHT_CLEAR,NIGHT_MOSTLY_CLEAR,MOSTLY_CLOUDY,MOSTLY_CLOUDY,MOSTLY_CLOUDY","Cross-shore,Cross-shore,Cross-shore,Cross-shore,Cross-shore",5
5842041f4e65fad6a7708876,2024_02_07,27.25392904143517,-80.19455,Jensen Beach,0.766,2.8209533333333336,3.6075133333333333,22,21,"NIGHT_MOSTLY_CLOUDY,NIGHT_MOSTLY_CLEAR,MOSTLY_CLOUDY,MOSTLY_CLOUDY,MOSTLY_CLOUDY","Cross-shore,Cross-shore,Cross-shore,Cross-shore,Cross-shore",5
5842041f4e65fad6a7708879,2024_02_07,26.76346795333825,-80.0360655784607,Reef Road,2.716,1.9866333333333333,2.638733333333333,24,22,"NIGHT_MOSTLY_CLEAR,NIGHT_CLEAR,CLEAR,MOSTLY_CLEAR,MOSTLY_CLOUDY","Offshore,Offshore,Offshore,Cross-shore,Cross-shore",5
5842041f4e65fad6a770887c,2024_02_07,26.336499228484,-80.06956100463,Boca Raton Inlet,2.9,1.3889933333333333,1.9805266666666668,24,22,"NIGHT_CLEAR,NIGHT_CLEAR,CLEAR,CLEAR,CLEAR","Offshore,Offshore,Offshore,Offshore,Offshore",5
5842041f4e65fad6a770887d,2024_02_07,26.31719311695038,-80.07452525176168,Deerfield Beach Pier,3,1.0091065,1.5846391666666668,24,23,"NIGHT_MOSTLY_CLEAR,NIGHT_CLEAR,CLEAR,CLEAR,CLEAR","Offshore,Offshore,Offshore,Offshore,Offshore",5
5842041f4e65fad6a7708881,2024_02_07,30.20276320866628,-85.85626528676136,"Spyglass Dr., Panama City",0,0,0.12868,16,14,"NIGHT_CLEAR,NIGHT_CLEAR,CLEAR,CLEAR,CLEAR","Offshore,Offshore,Offshore,Offshore,Offshore",5
5842041f4e65fad6a7708884,2024_02_07,33.39000832738053,-117.59852,Cottons,2.6,0.6987066666666667,1.0524866666666666,16,16,"NIGHT_MOSTLY_CLOUDY,NIGHT_SHOWERS,NIGHT_BRIEF_SHOWERS,NIGHT_MOSTLY_CLOUDY,MOSTLY_CLOUDY","Cross-shore,Offshore,Cross-shore,Cross-shore,Cross-shore",5
5842041f4e65fad6a7708885,2024_02_07,33.359416282661,-117.54167901405711,Trails,2.8,0.766,1.072,15,15,"NIGHT_MOSTLY_CLOUDY,NIGHT_HEAVY_SHOWERS,NIGHT_FOG,NIGHT_MOSTLY_CLOUDY,MIST","Offshore,Offshore,Offshore,Offshore,Offshore",5
5842041f4e65fad6a7708886,2024_02_07,33.38042605929805,-117.58332,Middles,2.6,0.76504,1.0211733333333335,16,16,"NIGHT_MOSTLY_CLOUDY,NIGHT_SHOWERS,NIGHT_BRIEF_SHOWERS,NIGHT_MOSTLY_CLOUDY,MOSTLY_CLOUDY","Offshore,Offshore,Offshore,Offshore,Cross-shore",5
5842041f4e65fad6a7708887,2024_02_07,33.38445596302903,-117.59445,Upper Trestles,2.6,0.7587066666666666,1.0684866666666666,16,16,"NIGHT_MOSTLY_CLOUDY,NIGHT_SHOWERS,NIGHT_BRIEF_SHOWERS,NIGHT_MOSTLY_CLOUDY,MOSTLY_CLOUDY","Offshore,Offshore,Offshore,Offshore,Cross-shore",5
5842041f4e65fad6a7708889,2024_02_07,28.944414,-95.28883,Surfside,1,0.17112,0.267374,14,14,"NIGHT_CLEAR,NIGHT_CLEAR,NIGHT_CLEAR,CLEAR,CLEAR","Onshore,Onshore,Onshore,Onshore,Onshore",5
5842041f4e65fad6a770888a,2024_02_07,33.38143999849023,-117.58843,Lower Trestles,2.6,0.8738733333333334,1.1080066666666668,16,16,"NIGHT_MOSTLY_CLOUDY,NIGHT_SHOWERS,NIGHT_BRIEF_SHOWERS,NIGHT_MOSTLY_CLOUDY,MOSTLY_CLOUDY","Offshore,Offshore,Offshore,Offshore,Cross-shore",5
5842041f4e65fad6a770888b,2024_02_07,33.379622288757,-117.57894,Church,2.4,0.6577066666666667,0.9930066666666667,16,16,"NIGHT_MOSTLY_CLOUDY,NIGHT_SHOWERS,NIGHT_BRIEF_SHOWERS,NIGHT_MOSTLY_CLOUDY,MOSTLY_CLOUDY","Cross-shore,Offshore,Offshore,Offshore,Cross-shore",5
5842041f4e65fad6a770888d,2024_02_07,21.679,-158.042,Sunset Beach,4,2.014,2.408,26,25,"NIGHT_SHOWERS,NIGHT_CLEAR,NIGHT_SHOWERS,NIGHT_MOSTLY_CLEAR,NIGHT_CLEAR","Offshore,Offshore,Offshore,Offshore,Offshore",5
5842041f4e65fad6a770888e,2024_02_07,21.670550036401,-158.0482,Rocky Point,4,2.088,2.496,26,25,"NIGHT_SHOWERS,NIGHT_SHOWERS,NIGHT_CLEAR,NIGHT_MOSTLY_CLEAR,NIGHT_CLEAR","Cross-shore,Offshore,Offshore,Cross-shore,Cross-shore",5
5842041f4e65fad6a770888f,2024_02_07,21.668,-158.05,Chambers,4,1.998,2.388,24,24,"NIGHT_SHOWERS,NIGHT_SHOWERS,NIGHT_CLEAR,NIGHT_MOSTLY_CLEAR,NIGHT_CLEAR","Cross-shore,Offshore,Offshore,Offshore,Cross-shore",5
5842041f4e65fad6a7708890,2024_02_07,21.66522,-158.0526,Pipeline,4,1.896,2.27,26,25,"NIGHT_SHOWERS,NIGHT_SHOWERS,NIGHT_CLEAR,NIGHT_MOSTLY_CLEAR,NIGHT_CLEAR","Cross-shore,Offshore,Offshore,Cross-shore,Cross-shore",5
5842041f4e65fad6a7708891,2024_02_07,21.665,-158.054,Backdoor,4,1.896,2.27,26,25,"NIGHT_SHOWERS,NIGHT_SHOWERS,NIGHT_CLEAR,NIGHT_MOSTLY_CLEAR,NIGHT_CLEAR","Cross-shore,Offshore,Offshore,Offshore,Cross-shore",5
5842041f4e65fad6a7708892,2024_02_07,21.662,-158.057,Rockpile,4,1.924,2.292,24,24,"NIGHT_SHOWERS,NIGHT_SHOWERS,NIGHT_CLEAR,NIGHT_MOSTLY_CLEAR,NIGHT_CLEAR","Cross-shore,Offshore,Offshore,Offshore,Cross-shore",5
5842041f4e65fad6a7708893,2024_02_07,21.65870453806827,-158.06058,Log Cabins,3.8,1.634,1.954,24,24,"NIGHT_SHOWERS,NIGHT_SHOWERS,NIGHT_CLEAR,NIGHT_MOSTLY_CLEAR,NIGHT_CLEAR","Cross-shore,Offshore,Offshore,Offshore,Cross-shore",5
5842041f4e65fad6a7708894,2024_02_07,21.66203493640557,-158.05495,Off-The-Wall,4,1.95,2.328,24,24,"NIGHT_SHOWERS,NIGHT_SHOWERS,NIGHT_CLEAR,NIGHT_MOSTLY_CLEAR,NIGHT_CLEAR","Offshore,Offshore,Offshore,Offshore,Cross-shore",5
5842041f4e65fad6a7708895,2024_02_07,21.643,-158.067,Waimea Bay,NA,1.8479999999999999,2.1959999999999997,26,25,"NIGHT_SHOWERS,NIGHT_SHOWERS,NIGHT_CLEAR,NIGHT_MOSTLY_CLEAR,NIGHT_CLEAR","Offshore,Offshore,Offshore,Offshore,Offshore",5
5842041f4e65fad6a7708896,2024_02_07,21.622,-158.087,Hultin's,4,2.048,2.4499999999999997,26,25,"NIGHT_CLEAR,NIGHT_CLEAR,NIGHT_CLEAR,NIGHT_CLEAR,NIGHT_CLEAR","Offshore,Offshore,Offshore,Offshore,Offshore",5
5842041f4e65fad6a7708897,2024_02_07,21.623,-158.085,Jocko's,3,1.74,2.082,24,24,"NIGHT_CLEAR,NIGHT_CLEAR,NIGHT_CLEAR,NIGHT_CLEAR,NIGHT_CLEAR","Cross-shore,Cross-shore,Cross-shore,Cross-shore,Cross-shore",5
5842041f4e65fad6a7708898,2024_02_07,21.62,-158.088,Laniakea,4,1.63,1.948,26,25,"NIGHT_CLEAR,NIGHT_CLEAR,NIGHT_CLEAR,NIGHT_CLEAR,NIGHT_CLEAR","Offshore,Offshore,Offshore,Offshore,Offshore",5
5842041f4e65fad6a7708899,2024_02_07,21.625,-158.083,Chun's,3.6,1.696,2.026,24,24,"NIGHT_CLEAR,NIGHT_CLEAR,NIGHT_CLEAR,NIGHT_CLEAR,NIGHT_CLEAR","Offshore,Offshore,Offshore,Offshore,Offshore",5
5842041f4e65fad6a770889c,2024_02_07,21.286357895152136,-157.8515,South Shore - Ala Moana Park,2.2,0.606,0.912,24.4,24.4,"NIGHT_CLEAR,NIGHT_CLEAR,NIGHT_CLEAR,NIGHT_CLEAR,NIGHT_CLEAR","Offshore,Offshore,Offshore,Offshore,Offshore",5
5842041f4e65fad6a770889d,2024_02_07,19.606,-155.978,Banyans,3,0.974,1.21,26,25,"NIGHT_MOSTLY_CLEAR,NIGHT_MOSTLY_CLEAR,NIGHT_CLEAR,NIGHT_CLEAR,NIGHT_CLEAR","Onshore,Cross-shore,Offshore,Offshore,Offshore",5
5842041f4e65fad6a770889e,2024_02_07,20.029,-155.831,Kawaihae,2,0.4444,0.698236,25,25,"NIGHT_MOSTLY_CLEAR,NIGHT_CLEAR,NIGHT_MOSTLY_CLEAR,NIGHT_CLEAR,NIGHT_CLEAR","Offshore,Offshore,Offshore,Offshore,Offshore",5
5842041f4e65fad6a770889f,2024_02_07,33.07541383424675,-117.3105,Grandview,1.2,1.066,1.374,15,15,"NIGHT_FOG,NIGHT_MOSTLY_CLOUDY,NIGHT_CLEAR,NIGHT_SHOWERS,CLEAR","Onshore,Onshore,Onshore,Onshore,Cross-shore",5
5842041f4e65fad6a77088a0,2024_02_07,33.065267421296596,-117.30577,Beacons,1,1.008,1.31,15,15,"NIGHT_FOG,NIGHT_MOSTLY_CLOUDY,NIGHT_CLEAR,NIGHT_SHOWERS,CLEAR","Onshore,Onshore,Onshore,Onshore,Offshore",5
5842041f4e65fad6a77088a2,2024_02_07,21.252,-157.805,Diamond Head,3,0.9653919999999999,1.2822500000000001,26,25,"NIGHT_CLEAR,NIGHT_CLEAR,NIGHT_MOSTLY_CLEAR,NIGHT_CLEAR,NIGHT_CLEAR","Cross-shore,Cross-shore,Cross-shore,Cross-shore,Cross-shore",5
5842041f4e65fad6a77088a3,2024_02_07,33.04694255008896,-117.29966,Moonlight State Beach,1.2,1.022,1.324,15,15,"NIGHT_MOSTLY_CLOUDY,NIGHT_MOSTLY_CLOUDY,NIGHT_CLEAR,NIGHT_SHOWERS,CLEAR","Onshore,Onshore,Onshore,Onshore,Onshore",5
5842041f4e65fad6a77088a5,2024_02_07,33.08685865930869,-117.31532,Ponto,1.2,1.038,1.346,15,15,"NIGHT_FOG,NIGHT_MOSTLY_CLOUDY,NIGHT_CLEAR,NIGHT_SHOWERS,CLEAR","Onshore,Onshore,Onshore,Onshore,Cross-shore",5
5842041f4e65fad6a77088a6,2024_02_07,33.130343587871906,-117.33667796442558,Terra Mar Point,1.8,0.8043933333333333,1.1163066666666668,16,16,"NIGHT_FOG,NIGHT_MOSTLY_CLOUDY,NIGHT_HEAVY_SHOWERS,NIGHT_MOSTLY_CLOUDY,HEAVY_SHOWERS","Onshore,Onshore,Onshore,Onshore,Cross-shore",5
5842041f4e65fad6a77088af,2024_02_07,32.95916304183685,-117.26963,Del Mar,1,0.876,1.182,15.6,15.6,"NIGHT_MOSTLY_CLOUDY,NIGHT_MOSTLY_CLOUDY,NIGHT_MOSTLY_CLOUDY,NIGHT_MOSTLY_CLOUDY,CLEAR","Onshore,Onshore,Onshore,Onshore,Onshore",5
5842041f4e65fad6a77088b0,2024_02_07,32.97527261243354,-117.2721061331305,Del Mar Rivermouth,1,1,1.302,15.6,15.6,"NIGHT_MOSTLY_CLOUDY,NIGHT_BRIEF_SHOWERS,NIGHT_MOSTLY_CLOUDY,NIGHT_MOSTLY_CLOUDY,CLEAR","Onshore,Onshore,Onshore,Onshore,Onshore",5
5842041f4e65fad6a77088b1,2024_02_07,33.01352178146273,-117.28219,Cardiff Reef,1,1.19906,1.5674533333333334,16,16,"NIGHT_MOSTLY_CLOUDY,NIGHT_MOSTLY_CLOUDY,NIGHT_CLEAR,NIGHT_BRIEF_SHOWERS,MOSTLY_CLOUDY","Onshore,Onshore,Onshore,Onshore,Onshore",5
5842041f4e65fad6a77088b3,2024_02_07,33.00211185876003,-117.2811,Seaside Reef,1,1.0278933333333333,1.4232866666666666,16,16,"NIGHT_MOSTLY_CLOUDY,NIGHT_MOSTLY_CLOUDY,NIGHT_MOSTLY_CLOUDY,NIGHT_MOSTLY_CLOUDY,MOSTLY_CLOUDY","Onshore,Onshore,Onshore,Onshore,Onshore",5
5842041f4e65fad6a77088b4,2024_02_07,33.0341859796287,-117.29552,Swami's,1,0.9718933333333334,1.2934533333333333,16,16,"NIGHT_MOSTLY_CLOUDY,NIGHT_MOSTLY_CLOUDY,NIGHT_CLEAR,NIGHT_BRIEF_SHOWERS,MOSTLY_CLOUDY","Onshore,Onshore,Onshore,Onshore,Onshore",5
5842041f4e65fad6a77088b7,2024_02_07,33.04569760260221,-117.2994,D Street,1,1.07,1.326,15,15,"NIGHT_MOSTLY_CLOUDY,NIGHT_MOSTLY_CLOUDY,NIGHT_CLEAR,NIGHT_SHOWERS,CLEAR","Onshore,Onshore,Onshore,Onshore,Onshore",5
5842041f4e65fad6a77088b8,2024_02_07,33.02090944350196,-117.28535,San Elijo State Beach,1.4,0.88756,1.2579533333333333,16,16,"NIGHT_MOSTLY_CLOUDY,NIGHT_MOSTLY_CLOUDY,NIGHT_CLEAR,NIGHT_BRIEF_SHOWERS,MOSTLY_CLOUDY","Onshore,Onshore,Onshore,Onshore,Onshore",5
5842041f4e65fad6a77088c2,2024_02_07,32.80662846492798,-117.2688764333725,PB Point,2.2,1.084,1.276,15.6,15.6,"NIGHT_CLOUDY,NIGHT_OVERCAST,NIGHT_CLEAR,NIGHT_LIGHT_SHOWERS_POSSIBLE,MOSTLY_CLOUDY","Cross-shore,Cross-shore,Cross-shore,Cross-shore,Onshore",5
5842041f4e65fad6a77088c4,2024_02_07,32.8060476681448,-117.26479,Old Man's at Tourmaline,1.8,0.888,1.126,15.6,15.6,"NIGHT_CLOUDY,NIGHT_OVERCAST,NIGHT_CLEAR,NIGHT_LIGHT_SHOWERS_POSSIBLE,MOSTLY_CLOUDY","Onshore,Cross-shore,Cross-shore,Offshore,Cross-shore",5
5842041f4e65fad6a77088cb,2024_02_07,32.557056711256,-117.1327445020322,Tijuana Slough,1,0.862,1.116,15.6,15.6,"NIGHT_CLEAR,NIGHT_MOSTLY_CLOUDY,NIGHT_MOSTLY_CLOUDY,NIGHT_OVERCAST,CLEAR","Onshore,Onshore,Onshore,Onshore,Onshore",5
5842041f4e65fad6a77088cc,2024_02_07,32.863,-117.257,La Jolla Shores,1.4,0.892,1.196,15.6,15.6,"NIGHT_CLOUDY,NIGHT_OVERCAST,NIGHT_BRIEF_SHOWERS,NIGHT_CLEAR,CLEAR","Onshore,Onshore,Onshore,Cross-shore,Onshore",5
5842041f4e65fad6a77088ce,2024_02_07,32.67443657790586,-117.17421316238693,Coronado Beach,2,1.062,1.312,15.6,15.6,"NIGHT_CLEAR,NIGHT_DRIZZLE,NIGHT_MOSTLY_CLOUDY,NIGHT_OVERCAST,CLEAR","Onshore,Cross-shore,Onshore,Onshore,Onshore",5
5842041f4e65fad6a77088cf,2024_02_07,33.40484417640326,-117.60749,San Clemente State Beach,2,0.866,1.1360000000000001,15,15,"NIGHT_MOSTLY_CLOUDY,NIGHT_HEAVY_SHOWERS,NIGHT_MOSTLY_CLOUDY,NIGHT_MOSTLY_CLOUDY,MOSTLY_CLOUDY","Onshore,Onshore,Onshore,Onshore,Offshore",5
5842041f4e65fad6a77088d5,2024_02_07,33.4663042002114,-117.7168352817103,Strands,2,0.9653733333333333,1.3159866666666666,15,15,"NIGHT_OVERCAST,NIGHT_CLEAR,NIGHT_MOSTLY_CLOUDY,NIGHT_MOSTLY_CLOUDY,MOSTLY_CLOUDY","Onshore,Onshore,Onshore,Onshore,Onshore",5
5842041f4e65fad6a77088d7,2024_02_07,33.4609858001748,-117.68535,Doheny State Beach,1.8,0.1977266666666667,0.50008,16,16,"NIGHT_OVERCAST,NIGHT_MOSTLY_CLOUDY,NIGHT_CLEAR,NIGHT_MOSTLY_CLOUDY,MOSTLY_CLOUDY","Offshore,Offshore,Offshore,Cross-shore,Offshore",5
5842041f4e65fad6a77088dc,2024_02_07,33.50894790083017,-117.75243,Aliso Creek,1.4,0.732,1.034,15,15,"NIGHT_CLOUDY,NIGHT_MOSTLY_CLOUDY,NIGHT_MOSTLY_CLOUDY,NIGHT_CLEAR,BRIEF_SHOWERS","Onshore,Onshore,Onshore,Onshore,Onshore",5
5842041f4e65fad6a77088dd,2024_02_07,33.5326591767067,-117.77764,Brooks Street,1,0.5599999999999999,0.864,15,15,"NIGHT_CLOUDY,NIGHT_MOSTLY_CLOUDY,NIGHT_MOSTLY_CLOUDY,NIGHT_CLEAR,BRIEF_SHOWERS","Onshore,Onshore,Onshore,Onshore,Onshore",5
5842041f4e65fad6a77088de,2024_02_07,33.53561225884637,-117.7799,Thalia Street,1.2,0.638,0.94,15,15,"NIGHT_CLOUDY,NIGHT_MOSTLY_CLOUDY,NIGHT_MOSTLY_CLOUDY,NIGHT_CLEAR,BRIEF_SHOWERS","Onshore,Onshore,Onshore,Cross-shore,Cross-shore",5
5842041f4e65fad6a77088e3,2024_02_07,33.54268310353641,-117.7916,Rockpile,1.4,0.782,1.042,15,15,"NIGHT_CLOUDY,NIGHT_MOSTLY_CLOUDY,NIGHT_MOSTLY_CLOUDY,NIGHT_CLEAR,BRIEF_SHOWERS","Onshore,Onshore,Onshore,Cross-shore,Cross-shore",5
5842041f4e65fad6a77088e4,2024_02_07,33.7368459504689,-118.10342,"Seal Beach Pier, Southside",2,0.246,0.552,15,15,"NIGHT_LIGHT_SHOWERS_POSSIBLE,NIGHT_CLEAR,NIGHT_CLEAR,NIGHT_SHOWERS,MIST","Cross-shore,Offshore,Offshore,Offshore,Offshore",5
5842041f4e65fad6a77088e5,2024_02_07,33.73933701820233,-118.117,Ray Bay,2,0.232,0.536,15,15,"NIGHT_MIST,NIGHT_FOG,NIGHT_CLEAR,NIGHT_MIST,MIST","Cross-shore,Offshore,Offshore,Offshore,Offshore",5
5842041f4e65fad6a77088e7,2024_02_07,33.728733,-118.08982,Surfside,3,0.59,0.892,15,15,"NIGHT_HEAVY_SHOWERS,NIGHT_CLEAR,NIGHT_CLEAR,NIGHT_MOSTLY_CLOUDY,MIST","Cross-shore,Offshore,Offshore,Offshore,Offshore",5
5842041f4e65fad6a77088e8,2024_02_07,33.68760321488161,-118.04236,Bolsa Chica State Beach,2,0.6962666666666666,1.0362666666666667,14,14,"NIGHT_BRIEF_SHOWERS,NIGHT_MOSTLY_CLOUDY,NIGHT_MOSTLY_CLOUDY,NIGHT_CLEAR,SHOWERS","Onshore,Onshore,Onshore,Onshore,Offshore",5
5842041f4e65fad6a77088ea,2024_02_07,33.66704400178788,-118.0192,North HB Streets,2,0.84256,1.1658600000000001,14,14,"NIGHT_BRIEF_SHOWERS,NIGHT_MOSTLY_CLOUDY,NIGHT_MOSTLY_CLOUDY,NIGHT_CLEAR,FOG","Onshore,Onshore,Onshore,Onshore,Offshore",5
5842041f4e65fad6a77088ed,2024_02_07,33.65475101379567,-118.00291,Huntington Beach Pier Southside,2.2,0.7508933333333333,1.0919733333333335,14,14,"NIGHT_FOG,NIGHT_MOSTLY_CLOUDY,NIGHT_BRIEF_SHOWERS,NIGHT_MOSTLY_CLOUDY,FOG","Offshore,Onshore,Onshore,Offshore,Offshore",5
5842041f4e65fad6a77088ee,2024_02_07,33.62778647706099,-117.95939,River Jetties,2.6,0.8529333333333333,1.1649333333333334,15,15,"NIGHT_FOG,NIGHT_SHOWERS,NIGHT_BRIEF_SHOWERS,NIGHT_CLEAR,FOG","Offshore,Onshore,Cross-shore,Offshore,Offshore",5
5842041f4e65fad6a77088f2,2024_02_07,33.605165797643664,-117.92500376701355,Newport Point,2.2,0.978,1.172,15,15,"NIGHT_MOSTLY_CLOUDY,NIGHT_HEAVY_SHOWERS,NIGHT_MOSTLY_CLOUDY,NIGHT_CLEAR,CLEAR","Cross-shore,Onshore,Onshore,Cross-shore,Offshore",5
5842041f4e65fad6a77088f3,2024_02_07,33.58982984726977,-117.87713,Corona del Mar,2,0.251066,0.39228999999999997,15,15,"NIGHT_MOSTLY_CLOUDY,NIGHT_SHOWERS,NIGHT_BRIEF_SHOWERS_POSSIBLE,NIGHT_SHOWERS,CLEAR","Offshore,Offshore,Offshore,Offshore,Offshore",5
5842041f4e65fad6a77088f7,2024_02_07,34.00750300824362,-118.4971783496269,Santa Monica Pier,2.4,0.636,0.94,15,15,"NIGHT_MOSTLY_CLOUDY,NIGHT_MOSTLY_CLOUDY,NIGHT_MOSTLY_CLOUDY,NIGHT_MOSTLY_CLOUDY,MIST","Onshore,Onshore,Onshore,Cross-shore,Offshore",5
5842041f4e65fad6a77088ff,2024_02_07,33.94070283102945,-118.44321,Dockweiler Beach,2,0.9744685000000001,1.204444,15,15,"NIGHT_MOSTLY_CLOUDY,NIGHT_MOSTLY_CLOUDY,NIGHT_MOSTLY_CLOUDY,NIGHT_MOSTLY_CLOUDY,FOG","Onshore,Onshore,Onshore,Onshore,Offshore",5
5842041f4e65fad6a7708900,2024_02_07,33.9231846937237,-118.4341465777908,Shitpipe,1.8,0.8216,1.13642,15,15,"NIGHT_MOSTLY_CLOUDY,NIGHT_MOSTLY_CLOUDY,NIGHT_MOSTLY_CLOUDY,NIGHT_MOSTLY_CLOUDY,FOG","Onshore,Onshore,Onshore,Onshore,Offshore",5
5842041f4e65fad6a7708902,2024_02_07,33.9108528052242,-118.4279133138721,Hammerland,2.2,0.9376,1.26138,15,15,"NIGHT_MOSTLY_CLOUDY,NIGHT_MOSTLY_CLOUDY,NIGHT_MOSTLY_CLOUDY,NIGHT_MOSTLY_CLOUDY,MOSTLY_CLOUDY","Onshore,Onshore,Onshore,Onshore,Onshore",5
5842041f4e65fad6a7708904,2024_02_07,33.87201368173932,-118.4075151286262,Hermosa Beach,1.4,0.7229,1.0642,15,15,"NIGHT_MOSTLY_CLOUDY,NIGHT_MOSTLY_CLOUDY,NIGHT_MOSTLY_CLOUDY,NIGHT_MOSTLY_CLOUDY,FOG","Onshore,Onshore,Onshore,Onshore,Offshore",5
5842041f4e65fad6a7708906,2024_02_07,33.90129336911256,-118.42184,El Porto,2,0.9606,1.3388799999999998,15,15,"NIGHT_MOSTLY_CLOUDY,NIGHT_MOSTLY_CLOUDY,NIGHT_MOSTLY_CLOUDY,NIGHT_MOSTLY_CLOUDY,FOG","Onshore,Onshore,Onshore,Onshore,Offshore",5
5842041f4e65fad6a7708907,2024_02_07,33.87963506431794,-118.41102,Manhattan Beach Pier,1.8,0.9581,1.2333999999999998,15,15,"NIGHT_MOSTLY_CLOUDY,NIGHT_MOSTLY_CLOUDY,NIGHT_MOSTLY_CLOUDY,NIGHT_MOSTLY_CLOUDY,FOG","Onshore,Onshore,Onshore,Onshore,Offshore",5
5842041f4e65fad6a7708914,2024_02_07,34.038053387863464,-118.5532,Sunset Point,3,0.464,0.768,15,15,"NIGHT_CLEAR,NIGHT_MOSTLY_CLOUDY,NIGHT_MOSTLY_CLOUDY,NIGHT_CLEAR,CLEAR","Offshore,Offshore,Offshore,Offshore,Offshore",5
5842041f4e65fad6a7708920,2024_02_07,33.80930828074364,-118.3933198342649,Haggerty's,1.2,0.1764,0.36,15,15,"NIGHT_MOSTLY_CLOUDY,NIGHT_MOSTLY_CLOUDY,NIGHT_MOSTLY_CLOUDY,NIGHT_MOSTLY_CLOUDY,FOG","Onshore,Onshore,Onshore,Onshore,Offshore",5
5842041f4e65fad6a7708921,2024_02_07,33.85044519861206,-118.40048,Redondo Breakwater,2.2,0.892,1.194,15,15,"NIGHT_MOSTLY_CLOUDY,NIGHT_MOSTLY_CLOUDY,NIGHT_MOSTLY_CLOUDY,NIGHT_MOSTLY_CLOUDY,FOG","Onshore,Onshore,Onshore,Onshore,Offshore",5
5842041f4e65fad6a7708927,2024_02_07,33.70877301002487,-118.2840112858389,Cabrillo Beach,2,0.228,0.538,15.4,15.4,"NIGHT_CLEAR,NIGHT_MOSTLY_CLOUDY,NIGHT_CLEAR,NIGHT_CLEAR,FOG","Offshore,Offshore,Offshore,Offshore,Cross-shore",5
5842041f4e65fad6a770892c,2024_02_07,33.77209986806257,-118.4268428476672,Lunada Bay,1.2,0.972,1.2,15,15,"NIGHT_MOSTLY_CLOUDY,NIGHT_MOSTLY_CLOUDY,NIGHT_MOSTLY_CLOUDY,NIGHT_CLEAR,FOG","Onshore,Onshore,Onshore,Onshore,Offshore",5
5842041f4e65fad6a770892d,2024_02_07,33.79294656286144,-118.4070316699825,PV Cove,1.4,0.77928,1.037078,15,15,"NIGHT_MOSTLY_CLOUDY,NIGHT_MOSTLY_CLOUDY,NIGHT_MOSTLY_CLOUDY,NIGHT_MOSTLY_CLOUDY,FOG","Onshore,Onshore,Onshore,Onshore,Offshore",5
5842041f4e65fad6a7708930,2024_02_07,34.03944902292561,-118.57539,Chart House,3,0.418,0.728,15,15,"NIGHT_CLEAR,NIGHT_FOG,NIGHT_MOSTLY_CLOUDY,NIGHT_CLEAR,FOG","Offshore,Offshore,Offshore,Offshore,Offshore",5
5842041f4e65fad6a7708936,2024_02_07,34.0016731994772,-118.80456,Point Dume,1.8,0.37098,0.67522,15,15,"NIGHT_OVERCAST,NIGHT_OVERCAST,NIGHT_CLEAR,NIGHT_MOSTLY_CLEAR,MOSTLY_CLEAR","Cross-shore,Cross-shore,Offshore,Offshore,Onshore",5
5842041f4e65fad6a7708937,2024_02_07,34.02587527588963,-118.7554939066114,Latigo Point,2.4,0.434,0.736,15,15,"NIGHT_MOSTLY_CLOUDY,NIGHT_CLOUDY,NIGHT_CLEAR,NIGHT_CLEAR,FOG","Cross-shore,Cross-shore,Offshore,Offshore,Onshore",5
5842041f4e65fad6a770893f,2024_02_07,34.043762,-118.93294,Leo Carrillo,3,0.74522,1.02496,15,15,"NIGHT_OVERCAST,NIGHT_CLOUDY,NIGHT_CLEAR,NIGHT_CLEAR,CLEAR","Offshore,Offshore,Offshore,Offshore,Offshore",5
5842041f4e65fad6a7708941,2024_02_07,36.69388179265737,-121.81289,Marina State Beach,2,2.238,2.676,13,13,"NIGHT_MOSTLY_CLEAR,NIGHT_MOSTLY_CLOUDY,NIGHT_CLEAR,NIGHT_MOSTLY_CLOUDY,NIGHT_MOSTLY_CLEAR","Onshore,Onshore,Onshore,Onshore,Onshore",5
5842041f4e65fad6a7708944,2024_02_07,34.34145077331085,-119.416999352654,Stanley's,2.8,0.5,0.8039999999999999,14.4,14.4,"NIGHT_CLEAR,NIGHT_CLEAR,NIGHT_CLEAR,NIGHT_CLEAR,CLEAR","Onshore,Onshore,Cross-shore,Onshore,Offshore",5
5842041f4e65fad6a7708945,2024_02_07,34.35113017313915,-119.426921498899,Oil Piers,2.8,0.41200000000000003,0.716,14.4,14.4,"NIGHT_CLEAR,NIGHT_CLEAR,NIGHT_CLEAR,NIGHT_CLEAR,CLEAR","Onshore,Onshore,Offshore,Onshore,Cross-shore",5
5842041f4e65fad6a770894c,2024_02_07,34.17876333306018,-119.2399483564372,Oxnard,1.8,0.708,1.012,15,15,"NIGHT_CLEAR,NIGHT_CLEAR,NIGHT_CLEAR,NIGHT_CLEAR,MIST","Onshore,Onshore,Cross-shore,Cross-shore,Offshore",5
5842041f4e65fad6a7708957,2024_02_07,34.31720331100517,-119.3882324751725,Pitas Point,3,0.506,0.814,14.4,14.4,"NIGHT_CLEAR,NIGHT_CLEAR,NIGHT_CLEAR,NIGHT_CLEAR,CLEAR","Offshore,Cross-shore,Offshore,Offshore,Offshore",5
5842041f4e65fad6a7708959,2024_02_07,34.27851754384724,-119.316202617226,Emma Wood,2.8,0.45,0.756,15,15,"NIGHT_CLEAR,NIGHT_CLEAR,NIGHT_CLEAR,NIGHT_CLEAR,CLEAR","Offshore,Offshore,Cross-shore,Offshore,Offshore",5
5842041f4e65fad6a770895a,2024_02_07,34.35513640390276,-119.4400589884255,Mussel Shoals (aka Little Rincon),2.2,0.5,0.804,14.4,14.4,"NIGHT_CLEAR,NIGHT_CLEAR,NIGHT_CLEAR,NIGHT_CLEAR,CLEAR","Cross-shore,Cross-shore,Cross-shore,Cross-shore,Cross-shore",5
5842041f4e65fad6a770895e,2024_02_07,34.28991757054902,-119.3366646794652,Summer Beach,2.2,0.35,0.656,15,15,"NIGHT_CLEAR,NIGHT_CLEAR,NIGHT_CLEAR,NIGHT_CLEAR,CLEAR","Offshore,Cross-shore,Cross-shore,Offshore,Offshore",5
5842041f4e65fad6a770895f,2024_02_07,34.30897456105926,-119.3582501170116,Solimar,3,0.372,0.678,14.4,14.4,"NIGHT_CLEAR,NIGHT_CLEAR,NIGHT_CLEAR,NIGHT_CLEAR,CLEAR","Offshore,Cross-shore,Offshore,Offshore,Offshore",5
5842041f4e65fad6a7708960,2024_02_07,34.39836265281686,-119.70213,Leadbetter Point,2,0.072,0.378,14.4,14.4,"NIGHT_CLEAR,NIGHT_CLEAR,NIGHT_CLEAR,NIGHT_CLEAR,CLEAR","Offshore,Offshore,Offshore,Offshore,Offshore",5
5842041f4e65fad6a7708961,2024_02_07,34.46052293893899,-120.07328,Refugio,1,0.152,0.458,14,14,"NIGHT_CLEAR,NIGHT_CLEAR,NIGHT_CLEAR,NIGHT_CLEAR,CLEAR","Offshore,Offshore,Offshore,Offshore,Offshore",5
5842041f4e65fad6a7708962,2024_02_07,34.40754276777778,-119.87639,Devereux,2.8,0.464,0.768,14,14,"NIGHT_CLEAR,NIGHT_CLEAR,NIGHT_CLEAR,NIGHT_CLEAR,CLEAR","Offshore,Offshore,Offshore,Offshore,Offshore",5
5842041f4e65fad6a7708963,2024_02_07,34.27479983305182,-119.3133222656776,Ventura Overhead,2.4,0.486,0.794,15,15,"NIGHT_CLEAR,NIGHT_CLEAR,NIGHT_CLEAR,NIGHT_CLEAR,CLEAR","Offshore,Cross-shore,Cross-shore,Offshore,Offshore",5
5842041f4e65fad6a7708964,2024_02_07,34.41023236011655,-119.88261,Sands,1.8,0.536,0.84,14,14,"NIGHT_CLEAR,NIGHT_CLEAR,NIGHT_CLEAR,NIGHT_CLEAR,CLEAR","Cross-shore,Cross-shore,Cross-shore,Cross-shore,Cross-shore",5
5842041f4e65fad6a7708966,2024_02_07,34.40450193869233,-119.68752,Sandspit,1,0,0.264,14.4,14.4,"NIGHT_CLEAR,NIGHT_CLEAR,NIGHT_CLEAR,NIGHT_CLEAR,CLEAR","Offshore,Offshore,Offshore,Offshore,Offshore",5
5842041f4e65fad6a7708967,2024_02_07,34.41549098334453,-119.6375149840203,Hammond's,1.6,0.062,0.36,14.4,14.4,"NIGHT_CLEAR,NIGHT_CLEAR,NIGHT_CLEAR,NIGHT_CLEAR,CLEAR","Offshore,Offshore,Offshore,Offshore,Offshore",5
5842041f4e65fad6a7708968,2024_02_07,34.45759322742309,-120.0220251867315,El Capitan,1,0.262,0.568,14,14,"NIGHT_CLEAR,NIGHT_CLEAR,NIGHT_CLEAR,NIGHT_MOSTLY_CLEAR,CLEAR","Offshore,Offshore,Offshore,Offshore,Offshore",5
5842041f4e65fad6a770896c,2024_02_07,34.405117655616,-119.84317,Campus Point,2,0.21000000000000002,0.514,14,14,"NIGHT_CLEAR,NIGHT_CLEAR,NIGHT_CLEAR,NIGHT_CLEAR,CLEAR","Offshore,Offshore,Offshore,Offshore,Offshore",5
5842041f4e65fad6a770896e,2024_02_07,34.38935162233354,-119.51955,Carpinteria State Beach,3,0.438,0.742,14.4,14.4,"NIGHT_CLEAR,NIGHT_CLEAR,NIGHT_CLEAR,NIGHT_CLEAR,CLEAR","Offshore,Offshore,Offshore,Offshore,Offshore",5
5842041f4e65fad6a770896f,2024_02_07,37.48296565175612,-122.4549300127824,Half Moon Bay,2,1.882,2.25,13,13,"NIGHT_CLEAR,NIGHT_MOSTLY_CLOUDY,NIGHT_MOSTLY_CLOUDY,NIGHT_MOSTLY_CLOUDY,NIGHT_MOSTLY_CLOUDY","Cross-shore,Cross-shore,Cross-shore,Cross-shore,Onshore",5
5842041f4e65fad6a7708970,2024_02_07,37.499,-122.471,Princeton Jetty,2.4,1.784,2.134,13,13,"NIGHT_MOSTLY_CLOUDY,NIGHT_MOSTLY_CLOUDY,NIGHT_CLEAR,NIGHT_CLEAR,NIGHT_MOSTLY_CLOUDY","Cross-shore,Cross-shore,Cross-shore,Cross-shore,Cross-shore",5
5842041f4e65fad6a7708972,2024_02_07,37.35699547365155,-122.4069534707252,Tunitas Creek,1.6,3.03,3.624,13,13,"NIGHT_CLOUDY,NIGHT_CLOUDY,NIGHT_MOSTLY_CLOUDY,NIGHT_MOSTLY_CLOUDY,NIGHT_MOSTLY_CLOUDY","Cross-shore,Cross-shore,Cross-shore,Cross-shore,Cross-shore",5
5842041f4e65fad6a7708974,2024_02_07,37.54735589428842,-122.5161090212687,Montara,1,2.392,2.862,13,13,"NIGHT_MOSTLY_CLOUDY,NIGHT_MOSTLY_CLOUDY,NIGHT_MOSTLY_CLOUDY,NIGHT_MOSTLY_CLOUDY,NIGHT_CLEAR","Onshore,Onshore,Onshore,Onshore,Onshore",5
5842041f4e65fad6a7708975,2024_02_07,34.3869373724559,-119.5142334209018,Tarpits,3,0.388,0.692,14.4,14.4,"NIGHT_CLEAR,NIGHT_CLEAR,NIGHT_CLEAR,NIGHT_CLEAR,CLEAR","Offshore,Offshore,Offshore,Offshore,Offshore",5
5842041f4e65fad6a7708976,2024_02_07,37.59881852720143,-122.50463,Pacifica / Linda Mar,1.6,1.07172,1.3452,14,14,"NIGHT_MOSTLY_CLOUDY,NIGHT_MOSTLY_CLOUDY,NIGHT_BRIEF_SHOWERS,NIGHT_BRIEF_SHOWERS,NIGHT_CLEAR","Onshore,Onshore,Onshore,Onshore,Onshore",5
5842041f4e65fad6a7708978,2024_02_07,37.59883098461164,-122.5143843582282,Pedro Point,1,2.422,2.888,13,13,"NIGHT_MOSTLY_CLOUDY,NIGHT_MOSTLY_CLOUDY,NIGHT_CLEAR,NIGHT_MOSTLY_CLOUDY,NIGHT_MOSTLY_CLOUDY","Onshore,Onshore,Onshore,Onshore,Onshore",5
5842041f4e65fad6a7708979,2024_02_07,37.61081996647663,-122.4973287570634,Rockaway,1.2,2.41,2.884,13,13,"NIGHT_MOSTLY_CLOUDY,NIGHT_MOSTLY_CLOUDY,NIGHT_BRIEF_SHOWERS,NIGHT_BRIEF_SHOWERS,NIGHT_CLEAR","Onshore,Onshore,Onshore,Onshore,Onshore",5
5842041f4e65fad6a770897a,2024_02_07,37.809987384424446,-122.4751353263855,Fort Point,3.6,1.476,1.768,13,13,"NIGHT_CLEAR,NIGHT_CLEAR,NIGHT_CLEAR,NIGHT_CLEAR,NIGHT_CLEAR","Offshore,Cross-shore,Cross-shore,Cross-shore,Cross-shore",5
5842041f4e65fad6a770897c,2024_02_07,37.63422542967464,-122.4951,Sharp Park,1,2.574,3.072,13,13,"NIGHT_MOSTLY_CLOUDY,NIGHT_MOSTLY_CLOUDY,NIGHT_MOSTLY_CLOUDY,NIGHT_MOSTLY_CLOUDY,NIGHT_MOSTLY_CLOUDY","Onshore,Onshore,Onshore,Onshore,Onshore",5
5842041f4e65fad6a770897d,2024_02_07,37.27313605072472,-122.4127387912554,Pescadero,1,2.892,3.4539999999999997,13,13,"NIGHT_OVERCAST,NIGHT_OVERCAST,NIGHT_MOSTLY_CLOUDY,NIGHT_MOSTLY_CLOUDY,NIGHT_MOSTLY_CLOUDY","Onshore,Onshore,Onshore,Onshore,Onshore",5
5842041f4e65fad6a770897e,2024_02_07,37.18140279972666,-122.3926685899327,Pigeon Point,2.8,2.694,3.2239999999999998,13,13,"NIGHT_OVERCAST,NIGHT_OVERCAST,NIGHT_CLEAR,NIGHT_MOSTLY_CLOUDY,NIGHT_MOSTLY_CLOUDY","Offshore,Offshore,Offshore,Offshore,Offshore",5
5842041f4e65fad6a770897f,2024_02_07,37.11578956919415,-122.314699271291,Ano Nuevo,3.8,2.312,2.764,13,13,"NIGHT_OVERCAST,NIGHT_CLOUDY,NIGHT_CLEAR,NIGHT_MOSTLY_CLOUDY,NIGHT_BRIEF_SHOWERS","Offshore,Offshore,Offshore,Offshore,Offshore",5
5842041f4e65fad6a7708980,2024_02_07,37.09520872681598,-122.2805474707768,Waddell Creek,2.6,2.258,2.7,13,13,"NIGHT_MOSTLY_CLOUDY,NIGHT_CLOUDY,NIGHT_CLEAR,NIGHT_CLEAR,NIGHT_CLEAR","Cross-shore,Cross-shore,Cross-shore,Cross-shore,Cross-shore",5
5842041f4e65fad6a7708981,2024_02_07,36.96512852130351,-122.1252825495626,Four Mile,3.6,2.196,2.626,13,13,"NIGHT_BRIEF_SHOWERS,NIGHT_BRIEF_SHOWERS,NIGHT_MOSTLY_CLOUDY,NIGHT_CLEAR,NIGHT_CLEAR","Offshore,Offshore,Offshore,Offshore,Offshore",5
5842041f4e65fad6a7708982,2024_02_07,37.04122807048655,-122.2333684729756,Scott Creek,2,2.372,2.834,13,13,"NIGHT_MOSTLY_CLOUDY,NIGHT_MOSTLY_CLOUDY,NIGHT_MOSTLY_CLOUDY,NIGHT_MOSTLY_CLEAR,NIGHT_MOSTLY_CLOUDY","Cross-shore,Cross-shore,Cross-shore,Cross-shore,Cross-shore",5
5842041f4e65fad6a7708983,2024_02_07,37.02350229387179,-122.21908,Davenport,2,2.256,2.696,13,13,"NIGHT_MOSTLY_CLOUDY,NIGHT_MOSTLY_CLOUDY,NIGHT_MOSTLY_CLOUDY,NIGHT_MOSTLY_CLEAR,NIGHT_CLEAR","Cross-shore,Cross-shore,Cross-shore,Cross-shore,Cross-shore",5
5842041f4e65fad6a7708986,2024_02_07,36.94905295955728,-122.0611823912244,Natural Bridges,3,2.058,2.462,13,13,"NIGHT_CLEAR,NIGHT_CLEAR,NIGHT_MOSTLY_CLOUDY,NIGHT_CLEAR,NIGHT_CLEAR","Offshore,Cross-shore,Cross-shore,Cross-shore,Cross-shore",5
5842041f4e65fad6a7708987,2024_02_07,36.95154854910425,-122.0420693940968,Mitchell's Cove,4,1.3,1.554,13,13,"NIGHT_MIST,NIGHT_MIST,NIGHT_CLEAR,NIGHT_CLEAR,NIGHT_CLEAR","Offshore,Offshore,Offshore,Offshore,Offshore",5
5842041f4e65fad6a770898a,2024_02_07,36.9572312370203,-121.98177,26th Ave,3,1.558,1.862,13,13,"NIGHT_MIST,NIGHT_MIST,NIGHT_MOSTLY_CLEAR,NIGHT_CLEAR,NIGHT_CLEAR","Cross-shore,Cross-shore,Cross-shore,Cross-shore,Onshore",5
5842041f4e65fad6a770898e,2024_02_07,36.91899972819882,-121.85536,Manresa,3,2.098,2.51,13,13,"NIGHT_CLEAR,NIGHT_CLEAR,NIGHT_CLEAR,NIGHT_CLEAR,NIGHT_CLEAR","Cross-shore,Cross-shore,Cross-shore,Onshore,Cross-shore",5
5842041f4e65fad6a7708990,2024_02_07,34.45747731928454,-120.34242,The Ranch,3,0.83,1.09,14,14,"NIGHT_CLEAR,NIGHT_CLEAR,NIGHT_CLEAR,NIGHT_CLEAR,BRIEF_SHOWERS","Offshore,Offshore,Offshore,Offshore,Offshore",5
5842041f4e65fad6a7708991,2024_02_07,34.50875036590315,-120.50348,Jalama,2.4,1.282,1.54,14,14,"NIGHT_BRIEF_SHOWERS,NIGHT_CLEAR,NIGHT_CLEAR,NIGHT_BRIEF_SHOWERS,MOSTLY_CLEAR","Cross-shore,Cross-shore,Cross-shore,Cross-shore,Cross-shore",5
5842041f4e65fad6a7708996,2024_02_07,34.68700870220497,-120.6111611019887,Surf Beach,0.8,3.722,4.448,14,14,"NIGHT_MOSTLY_CLOUDY,NIGHT_MOSTLY_CLOUDY,NIGHT_CLOUDY,NIGHT_MOSTLY_CLOUDY,CLEAR","Onshore,Onshore,Onshore,Onshore,Onshore",5
5842041f4e65fad6a770899c,2024_02_07,35.5730538161116,-121.1143362345574,Moonstone,2.6,2.636,3.15,13,13,"NIGHT_CLEAR,NIGHT_CLEAR,NIGHT_MOSTLY_CLOUDY,NIGHT_CLEAR,CLEAR","Cross-shore,Offshore,Onshore,Cross-shore,Cross-shore",5
5842041f4e65fad6a770899d,2024_02_07,35.61533716776573,-121.1502053073914,Pico Creek,2.6,1.828,2.182,13,13,"NIGHT_CLEAR,NIGHT_CLEAR,NIGHT_MOSTLY_CLOUDY,NIGHT_CLEAR,CLEAR","Cross-shore,Cross-shore,Onshore,Cross-shore,Cross-shore",5
5842041f4e65fad6a770899e,2024_02_07,35.56829031927379,-121.1120653023953,Santa Rosa Creek,2.6,2.636,3.15,13,13,"NIGHT_CLEAR,NIGHT_CLEAR,NIGHT_CLEAR,NIGHT_CLEAR,CLEAR","Cross-shore,Cross-shore,Cross-shore,Cross-shore,Cross-shore",5
5842041f4e65fad6a77089a2,2024_02_07,35.44820114936284,-120.90715,"Cayucos Pier, Southside ",3,0.992,1.274,14,14,"NIGHT_MOSTLY_CLEAR,NIGHT_CLEAR,NIGHT_BRIEF_SHOWERS,NIGHT_CLEAR,CLEAR","Offshore,Cross-shore,Cross-shore,Cross-shore,Cross-shore",5
5842041f4e65fad6a77089a4,2024_02_07,35.30143372628852,-120.877819239902,Cable Landing,2,3.758,4.494,14,14,"NIGHT_CLEAR,NIGHT_CLEAR,NIGHT_MOSTLY_CLOUDY,NIGHT_MOSTLY_CLOUDY,MOSTLY_CLEAR","Onshore,Onshore,Onshore,Onshore,Onshore",5
5842041f4e65fad6a77089a9,2024_02_07,35.61269103500222,-121.1480725356606,San Simeon,3,1.2236,1.4658,13,13,"NIGHT_CLEAR,NIGHT_CLEAR,NIGHT_MOSTLY_CLOUDY,NIGHT_CLEAR,CLEAR","Offshore,Offshore,Cross-shore,Cross-shore,Offshore",5
5842041f4e65fad6a77089ab,2024_02_07,35.1775325966252,-120.7341125142258,Avila Beach,2.2,0.212,0.518,13.4,13.4,"NIGHT_MOSTLY_CLEAR,NIGHT_CLEAR,NIGHT_CLEAR,NIGHT_MOSTLY_CLOUDY,CLEAR","Offshore,Offshore,Cross-shore,Cross-shore,Offshore",5
5842041f4e65fad6a77089ac,2024_02_07,35.13877877884115,-120.64535,Pismo Beach Pier,3,1.5105600000000001,1.92632,14,14,"NIGHT_MIST,NIGHT_MIST,NIGHT_FOG,NIGHT_MOSTLY_CLOUDY,MIST","Onshore,Cross-shore,Cross-shore,Cross-shore,Cross-shore",5
5842041f4e65fad6a77089ad,2024_02_07,46.8907710233147,-124.12964,Westport/Olympic Peninsula,3.4,1.692,2.0260000000000002,10,10,"NIGHT_MOSTLY_CLOUDY,NIGHT_MOSTLY_CLOUDY,NIGHT_MOSTLY_CLEAR,NIGHT_CLEAR,NIGHT_CLEAR","Onshore,Cross-shore,Offshore,Offshore,Offshore",5
5842041f4e65fad6a77089ae,2024_02_07,46.35185177248545,-124.06747,Long Beach Peninsula,2.6,2.792,3.334,10,10,"NIGHT_BRIEF_SHOWERS,NIGHT_BRIEF_SHOWERS,NIGHT_MOSTLY_CLOUDY,NIGHT_CLOUDY,NIGHT_CLEAR","Cross-shore,Onshore,Offshore,Offshore,Offshore",5
5842041f4e65fad6a77089af,2024_02_07,47.90649175554033,-124.6370864743483,La Push,3.2,2.174,2.598,10,10,"NIGHT_DRIZZLE,NIGHT_OVERCAST,NIGHT_MOSTLY_CLOUDY,NIGHT_MOSTLY_CLOUDY,NIGHT_CLEAR","Onshore,Onshore,Offshore,Offshore,Offshore",5
5842041f4e65fad6a77089b0,2024_02_07,42.04368239985442,-124.26828,Brookings Jetty,2.4,1.349844,2.10913,12,12,"NIGHT_CLEAR,NIGHT_CLEAR,NIGHT_RAIN,NIGHT_LIGHT_RAIN,NIGHT_FOG","Cross-shore,Offshore,Onshore,Onshore,Onshore",5
5842041f4e65fad6a77089b1,2024_02_07,42.74071837900346,-124.4983727491047,Port Orford,2.6,1.592,1.904,11,11,"NIGHT_CLEAR,NIGHT_CLEAR,NIGHT_RAIN,NIGHT_FOG,NIGHT_LIGHT_SHOWERS_POSSIBLE","Offshore,Cross-shore,Onshore,Cross-shore,Offshore",5
5842041f4e65fad6a77089b2,2024_02_07,44.01532689312291,-124.13865,Florence South Jetty,2.6,2.784,3.33,11,11,"NIGHT_FOG,NIGHT_DRIZZLE,NIGHT_LIGHT_SHOWERS_POSSIBLE,NIGHT_LIGHT_SHOWERS_POSSIBLE,NIGHT_LIGHT_RAIN","Cross-shore,Cross-shore,Cross-shore,Offshore,Cross-shore",5
5842041f4e65fad6a77089b3,2024_02_07,42.41812540774362,-124.42945,Gold Beach South Jetty,2.4,2.478,2.9619999999999997,12,12,"NIGHT_CLEAR,NIGHT_CLEAR,NIGHT_RAIN,NIGHT_LIGHT_RAIN,NIGHT_RAIN","Offshore,Offshore,Onshore,Onshore,Cross-shore",5
5842041f4e65fad6a77089b4,2024_02_07,44.95857310226525,-124.0219017690976,Lincoln City,3,2.7359999999999998,3.27,11,11,"NIGHT_MOSTLY_CLEAR,NIGHT_MOSTLY_CLOUDY,NIGHT_LIGHT_SHOWERS_POSSIBLE,NIGHT_LIGHT_SHOWERS_POSSIBLE,NIGHT_LIGHT_RAIN","Cross-shore,Cross-shore,Offshore,Offshore,Offshore",5
5842041f4e65fad6a77089b5,2024_02_07,44.63792761362982,-124.0657,Newport,3,3.186,3.808,11,11,"NIGHT_MOSTLY_CLOUDY,NIGHT_CLOUDY,NIGHT_LIGHT_RAIN,NIGHT_CLOUDY,NIGHT_FOG","Onshore,Cross-shore,Offshore,Offshore,Offshore",5
5842041f4e65fad6a77089b6,2024_02_07,45.61468496266301,-123.94643,Rockaway Beach,3.6,2.832,3.386,11,11,"NIGHT_MOSTLY_CLEAR,NIGHT_CLEAR,NIGHT_CLOUDY,NIGHT_CLEAR,NIGHT_CLEAR","Cross-shore,Offshore,Offshore,Offshore,Offshore",5
5842041f4e65fad6a77089b7,2024_02_07,45.20252914186085,-123.96975,Pacific City,3,2.524,3.018,11,11,"NIGHT_MOSTLY_CLEAR,NIGHT_CLEAR,NIGHT_LIGHT_RAIN,NIGHT_LIGHT_RAIN,NIGHT_DRIZZLE","Onshore,Cross-shore,Offshore,Offshore,Offshore",5
5842041f4e65fad6a77089b8,2024_02_07,45.88179930310263,-123.96681,Cannon Beach,3,2.618,3.128,11,11,"NIGHT_MOSTLY_CLOUDY,NIGHT_BRIEF_SHOWERS,NIGHT_LIGHT_RAIN,NIGHT_OVERCAST,NIGHT_BRIEF_SHOWERS_POSSIBLE","Cross-shore,Onshore,Offshore,Offshore,Offshore",5
5842041f4e65fad6a77089ba,2024_02_07,40.02528754746774,-124.06372,Shelter Cove,2.8,0.751564,1.174322,13,13,"NIGHT_CLEAR,NIGHT_CLEAR,NIGHT_DRIZZLE,NIGHT_LIGHT_RAIN_AND_FOG,NIGHT_FOG","Offshore,Offshore,Onshore,Onshore,Onshore",5
5842041f4e65fad6a77089bb,2024_02_07,40.76816197136951,-124.24248,Humboldt Harbor Entrance,1.8,3.27,3.908,12.6,12.6,"NIGHT_OVERCAST,NIGHT_OVERCAST,NIGHT_HEAVY_RAIN,NIGHT_RAIN,NIGHT_MOSTLY_CLOUDY","Cross-shore,Cross-shore,Cross-shore,Onshore,Offshore",5
5842041f4e65fad6a77089bc,2024_02_07,40.76684246920174,-124.23107,North Jetty,1.6,3.9619999999999997,4.7379999999999995,12.6,12.6,"NIGHT_CLOUDY,NIGHT_OVERCAST,NIGHT_RAIN,NIGHT_RAIN,NIGHT_BRIEF_SHOWERS","Cross-shore,Cross-shore,Cross-shore,Cross-shore,Offshore",5
5842041f4e65fad6a77089bd,2024_02_07,41.02731183893966,-124.1149972888982,Westhaven,2,4.452,5.322,12,12,"NIGHT_CLOUDY,NIGHT_CLOUDY,NIGHT_LIGHT_RAIN_AND_FOG,NIGHT_RAIN_AND_FOG,NIGHT_CLEAR","Cross-shore,Cross-shore,Cross-shore,Cross-shore,Cross-shore",5
5842041f4e65fad6a77089be,2024_02_07,41.13016238153297,-124.16466,Sue-meg,2.2,2.664,3.18,12,12,"NIGHT_CLOUDY,NIGHT_OVERCAST,NIGHT_LIGHT_RAIN,NIGHT_LIGHT_RAIN,NIGHT_OVERCAST","Onshore,Onshore,Cross-shore,Offshore,Offshore",5
5842041f4e65fad6a77089bf,2024_02_07,37.8289474958188,-122.5376795097543,Fort Cronkite/Rodeo Beach,2.4,2.632,3.146,13,13,"NIGHT_CLEAR,NIGHT_CLEAR,NIGHT_CLEAR,NIGHT_CLEAR,NIGHT_CLOUDY","Cross-shore,Cross-shore,Cross-shore,Cross-shore,Cross-shore",5
5842041f4e65fad6a77089c0,2024_02_07,41.74415759876137,-124.1771718063073,South Beach CA,3,1.3900000000000001,1.6620000000000001,12,12,"NIGHT_CLEAR,NIGHT_CLOUDY,NIGHT_RAIN,NIGHT_RAIN,NIGHT_CLEAR","Offshore,Offshore,Onshore,Onshore,Onshore",5
5842041f4e65fad6a77089c1,2024_02_07,37.89801283969752,-122.64519,Stinson Beach,3,0.654,0.962,13,13,"NIGHT_MOSTLY_CLEAR,NIGHT_MOSTLY_CLEAR,NIGHT_MOSTLY_CLEAR,NIGHT_MOSTLY_CLEAR,NIGHT_DRIZZLE","Offshore,Offshore,Offshore,Offshore,Offshore",5
5842041f4e65fad6a77089c2,2024_02_07,37.90514516176495,-122.68151,Bolinas,3,0.7081620000000001,1.106506,13,13,"NIGHT_MOSTLY_CLEAR,NIGHT_MOSTLY_CLOUDY,NIGHT_CLEAR,NIGHT_MOSTLY_CLEAR,NIGHT_OVERCAST","Cross-shore,Cross-shore,Cross-shore,Cross-shore,Cross-shore",5
5842041f4e65fad6a77089c3,2024_02_07,38.04892513158693,-122.9892494965416,Point Reyes (north),0.2,3.486,4.162,13,13,"NIGHT_MOSTLY_CLOUDY,NIGHT_MOSTLY_CLOUDY,NIGHT_MOSTLY_CLOUDY,NIGHT_CLEAR,NIGHT_LIGHT_RAIN","Onshore,Onshore,Onshore,Onshore,Onshore",5
5842041f4e65fad6a77089c6,2024_02_07,38.31088736605785,-123.0496777333731,Doran Beach,2.8,0.764,1.04,13,13,"NIGHT_CLEAR,NIGHT_CLEAR,NIGHT_MOSTLY_CLEAR,NIGHT_MOSTLY_CLOUDY,NIGHT_OVERCAST","Offshore,Offshore,Offshore,Offshore,Offshore",5
5842041f4e65fad6a77089c7,2024_02_07,38.45077228660809,-123.13008,Russian Rivermouth,2.4,2.61,3.12,13,13,"NIGHT_CLEAR,NIGHT_CLEAR,NIGHT_MOSTLY_CLEAR,NIGHT_BRIEF_SHOWERS,NIGHT_CLEAR","Cross-shore,Cross-shore,Cross-shore,Onshore,Onshore",5
5842041f4e65fad6a77089c8,2024_02_07,38.35329968518107,-123.06906,Salmon Creek,1.4,2.462,2.944,13,13,"NIGHT_CLEAR,NIGHT_CLEAR,NIGHT_MOSTLY_CLEAR,NIGHT_MOSTLY_CLOUDY,NIGHT_CLOUDY","Onshore,Onshore,Onshore,Onshore,Onshore",5
5842041f4e65fad6a77089c9,2024_02_07,38.6845180197959,-123.4322714291198,Black Point Beach,3,1.744,2.086,12.6,12.6,"NIGHT_CLEAR,NIGHT_CLEAR,NIGHT_MOSTLY_CLOUDY,NIGHT_CLEAR,NIGHT_LIGHT_RAIN","Onshore,Onshore,Onshore,Onshore,Onshore",5
5842041f4e65fad6a77089ca,2024_02_07,43.251076,-70.59144,Ogunquit,1.966,0.7206266666666667,0.9511066666666667,5,4,"NIGHT_CLEAR,NIGHT_CLEAR,CLEAR,CLEAR,CLEAR","Cross-shore,Cross-shore,Cross-shore,Cross-shore,Cross-shore",5
5842041f4e65fad6a77089cb,2024_02_07,41.362631366305415,-71.48006772942608,Point Judith,0,-0.008833333333333332,0.23388666666666666,7,6,"NIGHT_CLEAR,NIGHT_MOSTLY_CLEAR,CLOUDY,CLOUDY,CLEAR","Onshore,Offshore,Cross-shore,Cross-shore,Onshore",5
5842041f4e65fad6a77089cd,2024_02_07,41.422678090954726,-71.45413,Monahan's - Narragansett,1,0.161498,0.252338,5,5,"NIGHT_CLEAR,NIGHT_CLEAR,CLOUDY,OVERCAST,CLEAR","Cross-shore,Cross-shore,Cross-shore,Cross-shore,Cross-shore",5
5842041f4e65fad6a77089ce,2024_02_07,41.469,-71.293,Ruggles - Newport,1,0.16433,0.25676,5,5,"NIGHT_CLEAR,NIGHT_MOSTLY_CLOUDY,CLOUDY,OVERCAST,MOSTLY_CLOUDY","Offshore,Offshore,Offshore,Offshore,Offshore",5
5842041f4e65fad6a77089cf,2024_02_07,43.175394,-70.606351,Short Sands Beach,1.4,0.764,1.068,3.4,3.4,"NIGHT_CLEAR,NIGHT_CLEAR,CLEAR,CLEAR,CLEAR","Cross-shore,Cross-shore,Onshore,Onshore,Onshore",5
5842041f4e65fad6a77089d0,2024_02_07,41.487408,-71.29017,First Beach,0,0,0.148,5,5,"NIGHT_CLEAR,NIGHT_MOSTLY_CLOUDY,OVERCAST,OVERCAST,CLEAR","Offshore,Offshore,Offshore,Offshore,Offshore",5
5842041f4e65fad6a77089d1,2024_02_07,42.27916830233153,-70.86498,Nantasket Beach,1,0.8877,1.1926,5,4,"NIGHT_CLOUDY,NIGHT_CLOUDY,CLOUDY,CLOUDY,CLOUDY","Onshore,Onshore,Onshore,Onshore,Onshore",5
5842041f4e65fad6a77089d2,2024_02_07,41.817,-69.935,Cape Cod,1,0.916,1.222,5,5,"NIGHT_CLOUDY,NIGHT_CLOUDY,CLOUDY,CLOUDY,CLOUDY","Cross-shore,Cross-shore,Cross-shore,Cross-shore,Cross-shore",5
5842041f4e65fad6a77089d3,2024_02_07,42.22055448975661,-70.70634873403819,Egypt Beach,1,0.998,1.302,4,4,"NIGHT_CLOUDY,NIGHT_MOSTLY_CLOUDY,CLOUDY,CLOUDY,CLOUDY","Onshore,Onshore,Onshore,Onshore,Onshore",5
5842041f4e65fad6a77089d4,2024_02_07,41.48739647744607,-71.25723,Second Beach,0,0.0424895,0.15020883333333335,7,6,"NIGHT_CLEAR,NIGHT_CLEAR,CLOUDY,OVERCAST,MOSTLY_CLOUDY","Offshore,Offshore,Offshore,Offshore,Offshore",5
5842041f4e65fad6a77089d5,2024_02_07,42.964,-70.769,Fox Hill,1.5,0.4988,0.8799,5,4,"NIGHT_CLEAR,NIGHT_CLEAR,CLEAR,CLEAR,CLEAR","Offshore,Offshore,Cross-shore,Cross-shore,Cross-shore",5
5842041f4e65fad6a77089d6,2024_02_07,42.991359,-70.75149,Straws Point,2.066,0.6557999999999999,1.0409,5,4,"NIGHT_CLEAR,NIGHT_CLEAR,CLEAR,CLEAR,CLEAR","Offshore,Offshore,Offshore,Offshore,Offshore",5
5842041f4e65fad6a77089d7,2024_02_07,42.946,-70.786,Plaice Cove,1.566,0.4988,0.8799,5,4,"NIGHT_CLEAR,NIGHT_CLEAR,CLEAR,CLEAR,CLEAR","Cross-shore,Cross-shore,Cross-shore,Cross-shore,Cross-shore",5
5842041f4e65fad6a77089d9,2024_02_07,42.911574,-70.80831,The Main Beach,1,0.7438117333333334,1.1647406,6,4,"NIGHT_CLEAR,NIGHT_CLEAR,CLEAR,CLEAR,CLEAR","Offshore,Offshore,Offshore,Offshore,Offshore",5
5842041f4e65fad6a77089da,2024_02_07,42.97583846220203,-70.764,Sawyer's Beach,1.566,0.4993,0.8749,5,4,"NIGHT_CLEAR,NIGHT_CLEAR,CLEAR,CLEAR,CLEAR","Cross-shore,Cross-shore,Cross-shore,Cross-shore,Cross-shore",5
5842041f4e65fad6a77089db,2024_02_07,42.97,-70.77,Rye on the Rocks / 5-0's,0.92,0.735556,1.1495529333333332,6,4,"NIGHT_CLEAR,NIGHT_CLEAR,CLEAR,CLEAR,CLEAR","Offshore,Offshore,Cross-shore,Cross-shore,Cross-shore",5
5842041f4e65fad6a77089dc,2024_02_07,43.55902946610303,-70.27795,Higgins Beach,1.5999999999999999,0.061,0.36129333333333336,5,4,"NIGHT_CLEAR,NIGHT_CLEAR,CLEAR,CLEAR,CLEAR","Offshore,Offshore,Offshore,Offshore,Offshore",5
5842041f4e65fad6a77089dd,2024_02_07,43.302676,-70.5652,Wells Beach,1.566,0.5346266666666667,0.8376066666666667,5,4,"NIGHT_CLEAR,NIGHT_CLEAR,CLEAR,CLEAR,CLEAR","Cross-shore,Cross-shore,Cross-shore,Cross-shore,Cross-shore",5
5842041f4e65fad6a77089de,2024_02_07,43.545359,-70.30479,Scarborough Beach State Park,1.766,0.5580335000000001,0.8522419999999999,5,4,"NIGHT_CLEAR,NIGHT_CLEAR,CLEAR,CLEAR,CLEAR","Offshore,Offshore,Offshore,Offshore,Offshore",5
5842041f4e65fad6a77089df,2024_02_07,43.514481,-70.372146,Old Orchard Beach,2.166,0.543548,0.8692946666666667,5,4,"NIGHT_CLEAR,NIGHT_CLEAR,CLEAR,CLEAR,CLEAR","Offshore,Offshore,Cross-shore,Offshore,Offshore",5
5842041f4e65fad6a77089e0,2024_02_07,43.34711,-70.48165,Gooch's Beach,1.966,0.15633333333333335,0.46314666666666665,5,4,"NIGHT_CLEAR,NIGHT_CLEAR,CLEAR,CLEAR,CLEAR","Offshore,Offshore,Offshore,Offshore,Offshore",5
5842041f4e65fad6a77089e2,2024_02_07,40.58433,-73.62953,Lido Beach,2,0.46588,0.7720133333333333,7,6,"NIGHT_CLEAR,NIGHT_CLEAR,CLEAR,CLEAR,CLEAR","Offshore,Offshore,Offshore,Offshore,Offshore",5
5842041f4e65fad6a77089e3,2024_02_07,43.163135,-70.61689,Long Sands Beach,2.06,0.5402035666666667,0.8648941666666666,5,4,"NIGHT_CLEAR,NIGHT_CLEAR,CLEAR,CLEAR,CLEAR","Offshore,Offshore,Offshore,Offshore,Offshore",5
5842041f4e65fad6a77089e4,2024_02_07,40.61695351251805,-73.39376,Gilgo Beach,1,0,0.2823066666666667,8,6,"NIGHT_CLEAR,NIGHT_CLEAR,CLEAR,CLEAR,CLEAR","Offshore,Offshore,Offshore,Offshore,Offshore",5
5842041f4e65fad6a77089e5,2024_02_07,40.62530081928036,-73.23827,Robert Moses,1,0.104,0.40800000000000003,5,5,"NIGHT_CLEAR,NIGHT_CLEAR,CLEAR,CLEAR,CLEAR","Offshore,Offshore,Offshore,Offshore,Offshore",5
5842041f4e65fad6a77089e6,2024_02_07,40.64313317632791,-73.15727,Fire Island,1.2,0.1,0.404,5,5,"NIGHT_CLEAR,NIGHT_CLEAR,CLEAR,CLEAR,CLEAR","Offshore,Offshore,Offshore,Offshore,Offshore",5
5842041f4e65fad6a77089e8,2024_02_07,40.76653118828782,-72.74579619372713,Cupsogue,1.2,0.17200000000000001,0.478,5.4,5.4,"NIGHT_CLEAR,NIGHT_CLEAR,CLEAR,CLEAR,CLEAR","Offshore,Offshore,Offshore,Offshore,Offshore",5
5842041f4e65fad6a77089e9,2024_02_07,42.9376373334092,-70.79141,The Wall ,1,0.7409904333333334,1.1603409333333334,6,4,"NIGHT_CLEAR,NIGHT_CLEAR,CLEAR,CLEAR,CLEAR","Cross-shore,Cross-shore,Onshore,Onshore,Onshore",5
5842041f4e65fad6a77089ea,2024_02_07,40.887088,-72.33856,Flys,1,0.224,0.528,5.4,5.4,"NIGHT_CLEAR,NIGHT_CLEAR,CLEAR,CLEAR,CLEAR","Offshore,Offshore,Offshore,Offshore,Offshore",5
5842041f4e65fad6a77089eb,2024_02_07,41.0389266436591,-71.91068529316958,Trailer Park,1.4,0.3592651666666667,0.6624731666666667,8,6,"NIGHT_CLEAR,NIGHT_CLEAR,MOSTLY_CLOUDY,MOSTLY_CLOUDY,CLEAR","Offshore,Offshore,Offshore,Offshore,Offshore",5
5842041f4e65fad6a77089ec,2024_02_07,41.039505402729105,-71.9142,Ditch Plains,1,0.310636,0.48536799999999997,5,5,"NIGHT_CLEAR,NIGHT_CLEAR,MOSTLY_CLOUDY,MOSTLY_CLOUDY,CLEAR","Offshore,Offshore,Offshore,Offshore,Offshore",5
5842041f4e65fad6a77089ee,2024_02_07,40.57633275206492,-73.56895305108567,"West End, Jones Beach",1.5,0.21530666666666667,0.5201133333333334,7,6,"NIGHT_CLEAR,NIGHT_CLEAR,CLEAR,CLEAR,CLEAR","Offshore,Offshore,Offshore,Offshore,Offshore",5
5842041f4e65fad6a77089f1,2024_02_07,41.038286691230795,-71.91991567611694,Poles,1.1320000000000001,0.3390685,0.6457221666666667,8,6,"NIGHT_CLEAR,NIGHT_CLEAR,MOSTLY_CLOUDY,MOSTLY_CLOUDY,CLEAR","Offshore,Offshore,Offshore,Offshore,Offshore",5
5842041f4e65fad6a77089f3,2024_02_07,40.84077769766295,-72.47989493724765,The Bowl,1,0.14200000000000002,0.446,5.4,5.4,"NIGHT_CLEAR,NIGHT_CLEAR,CLEAR,CLEAR,CLEAR","Offshore,Offshore,Offshore,Offshore,Offshore",5
5842041f4e65fad6a77089f4,2024_02_07,40.94235535243154,-72.19286,Main Beach,1,0.25547333333333333,0.56028,14,13,"NIGHT_CLEAR,NIGHT_CLEAR,CLEAR,CLEAR,CLEAR","Offshore,Offshore,Offshore,Offshore,Offshore",5
5842041f4e65fad6a77089f5,2024_02_07,40.58270702399518,-73.67251552079799,Laurelton Blvd.,0.55,0.012072833333333333,0.24892550000000002,7,6,"NIGHT_CLEAR,NIGHT_CLEAR,CLEAR,CLEAR,CLEAR","Offshore,Offshore,Offshore,Offshore,Offshore",5
5842041f4e65fad6a77089f6,2024_02_07,41.033752854071416,-71.93695522488403,Terrace,1.4,0.34685333333333335,0.6511533333333334,8,6,"NIGHT_CLEAR,NIGHT_CLEAR,CLEAR,MOSTLY_CLOUDY,CLEAR","Offshore,Offshore,Offshore,Offshore,Offshore",5
5842041f4e65fad6a77089f7,2024_02_07,40.83372943645748,-72.50426173210144,K Road,1,0.208,0.514,5.4,5.4,"NIGHT_CLEAR,NIGHT_CLEAR,CLEAR,CLEAR,CLEAR","Offshore,Offshore,Offshore,Offshore,Offshore",5
5842041f4e65fad6a77089f8,2024_02_07,40.58456099581507,-73.80730032920837,84th Street,2,0.37852,0.68432,7,6,"NIGHT_CLEAR,NIGHT_CLEAR,CLEAR,CLEAR,CLEAR","Offshore,Offshore,Offshore,Offshore,Offshore",5
5842041f4e65fad6a77089fa,2024_02_07,40.1319,-74.02788,Sea Girt,1.7,0.86492,1.2535466666666666,6,5,"NIGHT_CLEAR,NIGHT_CLEAR,CLEAR,CLEAR,CLEAR","Cross-shore,Offshore,Cross-shore,Onshore,Onshore",5
5842041f4e65fad6a77089fb,2024_02_07,40.54698301868125,-73.9268,Breezy Point,2,0.236,0.538,5.6,5.6,"NIGHT_CLEAR,NIGHT_CLEAR,CLEAR,CLEAR,CLEAR","Offshore,Offshore,Offshore,Offshore,Offshore",5
5842041f4e65fad6a77089fc,2024_02_07,40.152504,-74.021383,Spring Lake,1.7,0.86742,1.1723933333333334,6,5,"NIGHT_CLEAR,NIGHT_CLEAR,CLEAR,CLEAR,CLEAR","Offshore,Offshore,Cross-shore,Onshore,Onshore",5
5842041f4e65fad6a77089fd,2024_02_07,40.591277,-73.770792,30th - 39th Streets,1.434,0.17164000000000001,0.4744466666666667,7,6,"NIGHT_CLEAR,NIGHT_CLEAR,CLEAR,CLEAR,CLEAR","Offshore,Offshore,Offshore,Offshore,Offshore",5
5842041f4e65fad6a77089fe,2024_02_07,40.18834955871439,-74.00860982500222,Avon,1.7,0.9140866666666666,1.2227266666666667,6,5,"NIGHT_CLEAR,NIGHT_CLEAR,CLEAR,CLEAR,CLEAR","Cross-shore,Offshore,Cross-shore,Onshore,Onshore",5
5842041f4e65fad6a77089ff,2024_02_07,40.1974229100932,-74.00650533798255,Bradley Beach,1.7,0.9009199999999999,1.2037266666666666,6,5,"NIGHT_CLEAR,NIGHT_CLEAR,CLEAR,CLEAR,CLEAR","Cross-shore,Offshore,Cross-shore,Onshore,Onshore",5
5842041f4e65fad6a7708a01,2024_02_07,40.17202,-74.01503,"16th Ave., Belmar",1,0.9439,1.3342266666666667,6,5,"NIGHT_CLEAR,NIGHT_CLEAR,CLEAR,CLEAR,CLEAR","Cross-shore,Offshore,Cross-shore,Onshore,Onshore",5
5842041f4e65fad6a7708a02,2024_02_07,40.217443,-73.99982,Asbury Park,1.7,0.85342,1.1582266666666667,6,5,"NIGHT_CLEAR,NIGHT_CLEAR,CLEAR,CLEAR,CLEAR","Offshore,Offshore,Cross-shore,Onshore,Onshore",5
5842041f4e65fad6a7708a03,2024_02_07,40.229841,-73.996782,Loch Arbour and Deal,1.5,0.8440866666666667,1.14906,6,5,"NIGHT_CLEAR,NIGHT_CLEAR,CLEAR,CLEAR,CLEAR","Cross-shore,Cross-shore,Cross-shore,Cross-shore,Cross-shore",5
5842041f4e65fad6a7708a05,2024_02_07,40.41754,-73.97935,Sandy Hook,1,0.27,0.5740000000000001,4.6,4.6,"NIGHT_CLEAR,NIGHT_CLEAR,CLEAR,CLEAR,CLEAR","Cross-shore,Cross-shore,Cross-shore,Cross-shore,Cross-shore",5
5842041f4e65fad6a7708a06,2024_02_07,39.36353,-74.40873,Crystals,1.168,0.7762271666666667,1.2652431666666666,6,5,"NIGHT_MOSTLY_CLOUDY,NIGHT_MOSTLY_CLOUDY,CLEAR,CLEAR,CLEAR","Offshore,Offshore,Offshore,Offshore,Offshore",5
5842041f4e65fad6a7708a07,2024_02_07,39.31443,-74.51863,32nd Street,2,0.910862,1.2946346666666666,6,5,"NIGHT_CLEAR,NIGHT_MOSTLY_CLOUDY,CLEAR,CLEAR,CLEAR","Offshore,Offshore,Offshore,Offshore,Offshore",5
5842041f4e65fad6a7708a08,2024_02_07,39.327688,-74.49524,Margate Pier Northside,2,0.910862,1.2946346666666666,6,5,"NIGHT_CLEAR,NIGHT_MOSTLY_CLOUDY,CLEAR,CLEAR,CLEAR","Offshore,Offshore,Offshore,Offshore,Offshore",5
5842041f4e65fad6a7708a09,2024_02_07,39.336276,-74.47782,Ventnor Pier,1.6,0.7785555,1.2688801666666667,6,5,"NIGHT_CLEAR,NIGHT_MOSTLY_CLOUDY,CLEAR,CLEAR,CLEAR","Offshore,Offshore,Offshore,Offshore,Offshore",5
5842041f4e65fad6a7708a0a,2024_02_07,39.35929751441085,-74.41683,States Avenue,1.168,0.7762271666666667,1.2652431666666666,6,5,"NIGHT_MOSTLY_CLOUDY,NIGHT_CLEAR,CLEAR,CLEAR,CLEAR","Offshore,Offshore,Offshore,Offshore,Offshore",5
5842041f4e65fad6a7708a0b,2024_02_07,39.37274173278517,-74.40454,Brigantine Jetty,1.2,0.6531613333333333,1.0729541666666667,6,5,"NIGHT_MOSTLY_CLOUDY,NIGHT_MOSTLY_CLOUDY,CLEAR,CLEAR,CLEAR","Offshore,Offshore,Offshore,Offshore,Offshore",5
5842041f4e65fad6a7708a0c,2024_02_07,39.356505,-74.42263,South Carolina Avenue,1.2,0.6531613333333333,1.0729541666666667,6,5,"NIGHT_MOSTLY_CLOUDY,NIGHT_CLEAR,CLEAR,CLEAR,CLEAR","Offshore,Offshore,Offshore,Offshore,Offshore",5
5842041f4e65fad6a7708a0d,2024_02_07,39.413485,-74.35476,14th Street North,1.1,0.6875866666666667,1.1600333333333332,6,5,"NIGHT_MOSTLY_CLOUDY,NIGHT_MOSTLY_CLOUDY,CLEAR,CLEAR,CLEAR","Cross-shore,Cross-shore,Offshore,Offshore,Offshore",5
5842041f4e65fad6a7708a0e,2024_02_07,39.531319,-74.263252,The Wooden Jetty,1,1.0255021666666666,1.533754,6,5,"NIGHT_MOSTLY_CLOUDY,NIGHT_MOSTLY_CLOUDY,CLEAR,CLEAR,CLEAR","Cross-shore,Cross-shore,Offshore,Offshore,Offshore",5
5842041f4e65fad6a7708a0f,2024_02_07,39.552472,-74.24344,Holyoke,0.75,1.0200691666666666,1.5363911666666665,6,5,"NIGHT_MOSTLY_CLOUDY,NIGHT_MOSTLY_CLOUDY,CLEAR,CLEAR,CLEAR","Cross-shore,Cross-shore,Offshore,Offshore,Offshore",5
5842041f4e65fad6a7708a10,2024_02_07,39.692364,-74.14068,Hudson Ave.,1,1.0399266666666667,1.54572,6,5,"NIGHT_MOSTLY_CLEAR,NIGHT_MOSTLY_CLOUDY,CLEAR,CLEAR,CLEAR","Cross-shore,Cross-shore,Offshore,Offshore,Offshore",5
5842041f4e65fad6a7708a11,2024_02_07,39.79614,-74.09248,Island Beach State Park,1,0.92292,1.3933666666666666,6,5,"NIGHT_CLEAR,NIGHT_CLEAR,CLEAR,CLEAR,CLEAR","Cross-shore,Cross-shore,Cross-shore,Cross-shore,Cross-shore",5
5842041f4e65fad6a7708a12,2024_02_07,39.91813588078152,-74.07527,Seaside Park,1,0.89642,1.3652,6,5,"NIGHT_CLEAR,NIGHT_CLEAR,CLEAR,CLEAR,CLEAR","Cross-shore,Cross-shore,Cross-shore,Cross-shore,Cross-shore",5
5842041f4e65fad6a7708a14,2024_02_07,39.946638,-74.06884,Seaside Heights,1.066,0.9520866666666666,1.4283666666666666,6,5,"NIGHT_CLEAR,NIGHT_CLEAR,CLEAR,CLEAR,CLEAR","Cross-shore,Cross-shore,Cross-shore,Cross-shore,Cross-shore",5
5842041f4e65fad6a7708a15,2024_02_07,39.95745637606704,-74.06736,Ortley Beach,0.968,0.8759199999999999,1.4301866666666665,6,5,"NIGHT_CLEAR,NIGHT_CLEAR,CLEAR,CLEAR,CLEAR","Cross-shore,Cross-shore,Cross-shore,Cross-shore,Cross-shore",5
5842041f4e65fad6a7708a16,2024_02_07,39.98313468342945,-74.06265685577506,Lavallette,0.968,0.8719199999999999,1.4301866666666665,6,5,"NIGHT_CLEAR,NIGHT_CLEAR,CLEAR,CLEAR,CLEAR","Cross-shore,Cross-shore,Cross-shore,Cross-shore,Cross-shore",5
5842041f4e65fad6a7708a17,2024_02_07,40.0699319967757,-74.04144910856634,Bay Head,1.1,0.8975866666666666,1.4501866666666665,6,5,"NIGHT_CLEAR,NIGHT_CLEAR,CLEAR,CLEAR,CLEAR","Cross-shore,Cross-shore,Cross-shore,Cross-shore,Cross-shore",5
5842041f4e65fad6a7708a18,2024_02_07,40.094041,-74.034859,Jenkinson's,1.532,0.8750866666666667,1.4291866666666666,6,5,"NIGHT_CLEAR,NIGHT_CLEAR,CLEAR,CLEAR,CLEAR","Cross-shore,Cross-shore,Cross-shore,Cross-shore,Cross-shore",5
5842041f4e65fad6a7708a1a,2024_02_07,38.148058,-75.17704,Assateague,0.6,1.13242,1.5510333333333333,6,5,"NIGHT_MOSTLY_CLOUDY,NIGHT_MOSTLY_CLOUDY,CLEAR,CLEAR,CLEAR","Cross-shore,Cross-shore,Offshore,Cross-shore,Cross-shore",5
5842041f4e65fad6a7708a1b,2024_02_07,38.33889038664497,-75.08017670566352,North End to Ocean City Inlet,1,1.11892,1.5877000000000001,6,5,"NIGHT_MOSTLY_CLOUDY,NIGHT_MOSTLY_CLOUDY,CLEAR,CLEAR,CLEAR","Onshore,Onshore,Cross-shore,Onshore,Onshore",5
5842041f4e65fad6a7708a1c,2024_02_07,38.603993,-75.06271,Indian River Inlet,1,0.9165921666666667,1.4845588333333335,6,5,"NIGHT_CLEAR,NIGHT_CLEAR,CLEAR,CLEAR,CLEAR","Cross-shore,Cross-shore,Cross-shore,Cross-shore,Cross-shore",5
5842041f4e65fad6a7708a1d,2024_02_07,38.460477,-75.052069,Fenwick Island,1,0.8637533333333333,1.3322,6,5,"NIGHT_MOSTLY_CLOUDY,NIGHT_MOSTLY_CLOUDY,CLEAR,CLEAR,CLEAR","Onshore,Onshore,Cross-shore,Onshore,Onshore",5
5842041f4e65fad6a7708a1e,2024_02_07,38.538767,-75.05619,Bethany Beach,1,0.9223485,1.4935616666666667,6,5,"NIGHT_MOSTLY_CLOUDY,NIGHT_MOSTLY_CLOUDY,CLEAR,CLEAR,CLEAR","Cross-shore,Onshore,Cross-shore,Cross-shore,Cross-shore",5
5842041f4e65fad6a7708a1f,2024_02_07,38.697657,-75.075951,Dewey Beach,1,0.88442,1.3567,6,5,"NIGHT_CLEAR,NIGHT_CLEAR,CLEAR,CLEAR,CLEAR","Onshore,Onshore,Cross-shore,Cross-shore,Cross-shore",5
5842041f4e65fad6a7708a20,2024_02_07,38.75034741676525,-75.08194,Gordons Pond,1.168,0.7860465,1.2805836666666668,6,5,"NIGHT_CLEAR,NIGHT_CLEAR,CLEAR,CLEAR,CLEAR","Cross-shore,Cross-shore,Cross-shore,Cross-shore,Cross-shore",5
5842041f4e65fad6a7708a21,2024_02_07,38.767837,-75.082841,Naval Jetties,1.4,0.91392,1.3862,6,5,"NIGHT_CLEAR,NIGHT_CLEAR,CLEAR,CLEAR,CLEAR","Onshore,Onshore,Cross-shore,Onshore,Onshore",5
5842041f4e65fad6a7708a22,2024_02_07,36.81735875786576,-75.96624,Camp Pendleton,0.2,0.9534333333333334,1.4335586666666666,8,6,"NIGHT_OVERCAST,NIGHT_CLOUDY,CLEAR,CLEAR,CLEAR","Onshore,Onshore,Cross-shore,Cross-shore,Cross-shore",5
5842041f4e65fad6a7708a23,2024_02_07,36.9102212316428,-75.98732471466064,North End,0.2,0.9458666666666666,1.4065666666666665,8,6,"NIGHT_MOSTLY_CLOUDY,NIGHT_MOSTLY_CLOUDY,CLEAR,CLEAR,CLEAR","Onshore,Onshore,Cross-shore,Cross-shore,Cross-shore",5
5842041f4e65fad6a7708a24,2024_02_07,36.737117517621314,-75.93923719853362,Sandbridge Beach,0.6,1.0352,1.4284999999999999,8,6,"NIGHT_OVERCAST,NIGHT_OVERCAST,CLEAR,CLEAR,CLEAR","Onshore,Onshore,Cross-shore,Cross-shore,Cross-shore",5
5842041f4e65fad6a7708a26,2024_02_07,36.818257440557794,-75.96666,Croatan to Pendleton,0.2,0.8578666666666667,1.3593586666666668,8,6,"NIGHT_OVERCAST,NIGHT_CLOUDY,CLEAR,CLEAR,CLEAR","Cross-shore,Cross-shore,Cross-shore,Cross-shore,Cross-shore",5
5842041f4e65fad6a7708a27,2024_02_07,36.84318777204769,-75.9719,South End,0.2,0.9357,1.2401,8,6,"NIGHT_CLOUDY,NIGHT_CLOUDY,CLEAR,CLEAR,CLEAR","Onshore,Onshore,Cross-shore,Cross-shore,Cross-shore",5
5842041f4e65fad6a7708a28,2024_02_07,37.08612627584661,-75.976121638199,Fishermans Island,1.4,0.11120000000000001,0.2344,7,7,"NIGHT_MOSTLY_CLOUDY,NIGHT_MOSTLY_CLOUDY,CLEAR,CLEAR,CLEAR","Offshore,Offshore,Offshore,Offshore,Offshore",5
5842041f4e65fad6a7708a38,2024_02_07,35.254619418229026,-75.52074,Cape Hatteras Lighthouse,0.316,1.9146753333333333,2.6938698333333333,11,9,"NIGHT_OVERCAST,NIGHT_OVERCAST,CLOUDY,CLOUDY,CLOUDY","Cross-shore,Cross-shore,Cross-shore,Cross-shore,Cross-shore",5
5842041f4e65fad6a7708a3a,2024_02_07,35.54572934093336,-75.46477,Waves and Salvo,0,2.0376733333333332,2.50812,10,8,"NIGHT_OVERCAST,NIGHT_OVERCAST,CLOUDY,CLOUDY,OVERCAST","Cross-shore,Cross-shore,Cross-shore,Cross-shore,Cross-shore",5
5842041f4e65fad6a7708a3b,2024_02_07,35.22565892751075,-75.63606,Frisco,1.566,0.6942533333333334,1.0601133333333332,12,11,"NIGHT_DRIZZLE,NIGHT_OVERCAST,CLOUDY,CLOUDY,CLOUDY","Offshore,Offshore,Offshore,Offshore,Offshore",5
5842041f4e65fad6a7708a3c,2024_02_07,35.13086,-75.90591,Ocracoke,0.6,0.527726,0.824568,8,8,"NIGHT_OVERCAST,NIGHT_CLOUDY,CLOUDY,CLOUDY,CLOUDY","Offshore,Offshore,Offshore,Offshore,Offshore",5
5842041f4e65fad6a7708a3d,2024_02_07,35.34721340158342,-75.50084,Avon Pier,0,1.9339066666666667,2.737726666666667,11,8,"NIGHT_OVERCAST,NIGHT_OVERCAST,OVERCAST,CLOUDY,CLOUDY","Cross-shore,Cross-shore,Cross-shore,Cross-shore,Cross-shore",5
5842041f4e65fad6a7708a3f,2024_02_07,35.71680821253768,-75.49243,Pea Island,0,1.87,2.174,7,7,"NIGHT_OVERCAST,NIGHT_OVERCAST,CLOUDY,OVERCAST,OVERCAST","Onshore,Onshore,Onshore,Onshore,Onshore",5
5842041f4e65fad6a7708a40,2024_02_07,35.97427620657821,-75.62984,Nags Head Pier,0,1.7329400000000001,2.424926666666667,8,5,"NIGHT_OVERCAST,NIGHT_OVERCAST,CLOUDY,CLOUDY,CLOUDY","Onshore,Onshore,Onshore,Onshore,Onshore",5
5842041f4e65fad6a7708a41,2024_02_07,36.0439998039079,-75.67288,Avalon Pier,0,1.7651999999999999,2.4094533333333334,8,5,"NIGHT_OVERCAST,NIGHT_CLOUDY,CLOUDY,CLOUDY,OVERCAST","Onshore,Onshore,Onshore,Onshore,Onshore",5
5842041f4e65fad6a7708a42,2024_02_07,36.03043116489792,-75.66413,First Street,0,1.69194,2.3869266666666666,8,5,"NIGHT_OVERCAST,NIGHT_CLOUDY,CLOUDY,CLOUDY,OVERCAST","Onshore,Onshore,Onshore,Onshore,Onshore",5
5842041f4e65fad6a7708a43,2024_02_07,36.06829910590498,-75.6899,Old Station/Laundromats,0,1.6830333333333334,2.324953333333333,8,5,"NIGHT_OVERCAST,NIGHT_CLOUDY,CLOUDY,CLOUDY,OVERCAST","Onshore,Onshore,Onshore,Onshore,Onshore",5
5842041f4e65fad6a7708a44,2024_02_07,36.10126676607491,-75.71107462163894,Kitty Hawk Pier,0,1.6524400000000001,2.34626,8,5,"NIGHT_OVERCAST,NIGHT_OVERCAST,CLOUDY,CLOUDY,OVERCAST","Onshore,Onshore,Onshore,Onshore,Onshore",5
5842041f4e65fad6a7708a45,2024_02_07,36.18220630068973,-75.75013580649097,Duck Pier,0,1.18656,1.6608399999999999,8,5,"NIGHT_CLOUDY,NIGHT_OVERCAST,CLEAR,CLOUDY,CLOUDY","Onshore,Onshore,Cross-shore,Onshore,Onshore",5
5842041f4e65fad6a7708a46,2024_02_07,36.37660668125033,-75.82409701687456,Corolla,0,1.2237266666666666,1.69834,8,5,"NIGHT_CLOUDY,NIGHT_CLOUDY,CLOUDY,CLOUDY,CLOUDY","Onshore,Onshore,Cross-shore,Onshore,Cross-shore",5
5842041f4e65fad6a7708a47,2024_02_07,33.90373404124834,-78.08241431707907,Oak Island,1,0.276,0.58,11,11,"NIGHT_CLEAR,NIGHT_CLEAR,CLEAR,CLEAR,CLEAR","Offshore,Offshore,Offshore,Offshore,Offshore",5
5842041f4e65fad6a7708a48,2024_02_07,33.91108837766468,-78.29653,South Brunswick Beaches,1,0.3824,0.5975,11,11,"NIGHT_CLEAR,NIGHT_CLEAR,CLEAR,CLEAR,CLEAR","Offshore,Offshore,Offshore,Offshore,Offshore",5
5842041f4e65fad6a7708a49,2024_02_07,34.05683595651973,-77.88128,Carolina Beach Pier,1.434,0.9072333333333333,1.3609333333333333,11,9,"NIGHT_CLEAR,NIGHT_CLEAR,CLEAR,CLEAR,CLEAR","Cross-shore,Cross-shore,Cross-shore,Cross-shore,Cross-shore",5
5842041f4e65fad6a7708a4a,2024_02_07,33.96841191816696,-77.9180242565498,Fort Fisher,1.434,0.8924,1.3536,11,9,"NIGHT_CLEAR,NIGHT_CLEAR,CLEAR,CLEAR,CLEAR","Cross-shore,Cross-shore,Cross-shore,Cross-shore,Cross-shore",5
5842041f4e65fad6a7708a4b,2024_02_07,34.46776662988774,-77.47083191635772,Topsail Beach,2,0.47580666666666666,0.8627666666666667,11,10,"NIGHT_CLEAR,NIGHT_CLEAR,CLEAR,CLEAR,CLEAR","Offshore,Offshore,Offshore,Offshore,Offshore",5
5842041f4e65fad6a7708a4c,2024_02_07,34.69270354752445,-76.82854854446575,Iron Steamer,1.5,0.18114,0.48444000000000004,12,11,"NIGHT_CLEAR,NIGHT_CLEAR,CLEAR,CLEAR,CLEAR","Offshore,Offshore,Offshore,Offshore,Offshore",5
5842041f4e65fad6a7708a4f,2024_02_07,30.85132684893727,-81.42283496231143,Cumberland Island,2,2.328,2.46,13,13,"NIGHT_CLEAR,NIGHT_CLEAR,CLEAR,CLEAR,CLEAR","Cross-shore,Cross-shore,Cross-shore,Cross-shore,Cross-shore",5
5842041f4e65fad6a7708a50,2024_02_07,34.686741128540874,-76.47516712138378,Cape Lookout National Seashore,0.2,1.514,1.698,11.6,11.6,"NIGHT_MOSTLY_CLOUDY,NIGHT_CLEAR,CLOUDY,MOSTLY_CLOUDY,CLEAR","Cross-shore,Cross-shore,Offshore,Cross-shore,Offshore",5
5842041f4e65fad6a7708a51,2024_02_07,31.10585419260024,-81.40422767604812,Jekyll Island,1.6,1.292,1.518,12.4,12.4,"NIGHT_CLEAR,NIGHT_CLEAR,CLEAR,CLEAR,CLEAR","Cross-shore,Cross-shore,Cross-shore,Cross-shore,Cross-shore",5
5842041f4e65fad6a7708a52,2024_02_07,31.16212806376699,-81.32512426500224,Harbor Marker Buoys,1.6,1.468,1.758,12.4,12.4,"NIGHT_CLEAR,NIGHT_CLEAR,CLEAR,CLEAR,CLEAR","Cross-shore,Cross-shore,Cross-shore,Cross-shore,Cross-shore",5
5842041f4e65fad6a7708a53,2024_02_07,31.20076299997009,-81.32629,Sea Island,3,2.004,2.182,12.4,12.4,"NIGHT_CLEAR,NIGHT_CLEAR,CLEAR,CLEAR,CLEAR","Offshore,Offshore,Offshore,Offshore,Offshore",5
5842041f4e65fad6a7708a54,2024_02_07,31.13553222995767,-81.38457634790909,St. Simons Island,4,1.494,1.794,12.4,12.4,"NIGHT_CLEAR,NIGHT_CLEAR,CLEAR,CLEAR,CLEAR","Offshore,Offshore,Offshore,Offshore,Offshore",5
5842041f4e65fad6a7708a55,2024_02_07,31.33550077186516,-81.28383377408417,Wolf Island,2,0.988,1.226,12,12,"NIGHT_CLEAR,NIGHT_CLEAR,CLEAR,CLEAR,CLEAR","Cross-shore,Cross-shore,Cross-shore,Cross-shore,Cross-shore",5
5842041f4e65fad6a7708a56,2024_02_07,31.2704493877174,-81.27324039152315,Little St. Simons Island,0.4,1.33,1.59,12,12,"NIGHT_CLEAR,NIGHT_CLEAR,CLEAR,CLEAR,CLEAR","Cross-shore,Cross-shore,Cross-shore,Cross-shore,Cross-shore",5
5842041f4e65fad6a7708a57,2024_02_07,31.39261761368919,-81.26190520231917,Sapelo Island,3,1.4080000000000001,1.6400000000000001,12,12,"NIGHT_CLEAR,NIGHT_CLEAR,CLEAR,CLEAR,CLEAR","Cross-shore,Offshore,Offshore,Cross-shore,Cross-shore",5
5842041f4e65fad6a7708a58,2024_02_07,34.42458783809001,-77.54492,Surf City Pier,2.4,0.5209733333333334,0.9097666666666667,11,10,"NIGHT_CLEAR,NIGHT_CLEAR,CLEAR,CLEAR,CLEAR","Offshore,Offshore,Offshore,Offshore,Offshore",5
5842041f4e65fad6a7708a59,2024_02_07,31.4231993614213,-81.24725340591522,Cabretta Island,3,1.176,1.434,12,12,"NIGHT_CLEAR,NIGHT_CLEAR,CLEAR,CLEAR,CLEAR","Offshore,Offshore,Offshore,Offshore,Offshore",5
5842041f4e65fad6a7708a5a,2024_02_07,31.46684389030369,-81.2100056410468,Blackbeard Island,3,1.4080000000000001,1.6400000000000001,12,12,"NIGHT_CLEAR,NIGHT_CLEAR,CLEAR,CLEAR,CLEAR","Offshore,Offshore,Offshore,Offshore,Offshore",5
5842041f4e65fad6a7708a5b,2024_02_07,31.85953587631629,-80.99031310336719,Wassaw Island/South End,1,0.332,0.638,12,12,"NIGHT_CLEAR,NIGHT_CLEAR,CLEAR,CLEAR,CLEAR","Offshore,Offshore,Offshore,Offshore,Cross-shore",5
5842041f4e65fad6a7708a5c,2024_02_07,31.62535662342983,-81.13328352167974,St. Catherines Island,2,1.314,1.568,12,12,"NIGHT_CLEAR,NIGHT_CLEAR,CLEAR,CLEAR,CLEAR","Cross-shore,Cross-shore,Cross-shore,Cross-shore,Cross-shore",5
5842041f4e65fad6a7708a5d,2024_02_07,31.76502169596568,-81.07655443806622,Ossabaw Island,2,1.176,1.424,12,12,"NIGHT_CLEAR,NIGHT_CLEAR,CLEAR,CLEAR,CLEAR","Cross-shore,Cross-shore,Cross-shore,Cross-shore,Cross-shore",5
5842041f4e65fad6a7708a5e,2024_02_07,31.90593619092352,-80.93589231700857,Wassaw Island/North End,3,1.6680000000000001,1.92,12,12,"NIGHT_CLEAR,NIGHT_CLEAR,CLEAR,CLEAR,CLEAR","Offshore,Offshore,Offshore,Offshore,Offshore",5
5842041f4e65fad6a7708a5f,2024_02_07,31.96738675414547,-80.86977980706155,Little Tybee Island,2,1.098,1.3840000000000001,12,12,"NIGHT_CLEAR,NIGHT_CLEAR,CLEAR,CLEAR,CLEAR","Offshore,Offshore,Offshore,Offshore,Offshore",5
5842041f4e65fad6a7708a60,2024_02_07,31.9812255780179,-80.84773973467009,South Tybee Sandbars,1,0.9700000000000001,1.1620000000000001,12,12,"NIGHT_CLEAR,NIGHT_CLEAR,CLEAR,CLEAR,CLEAR","Cross-shore,Cross-shore,Cross-shore,Cross-shore,Cross-shore",5
5842041f4e65fad6a7708a61,2024_02_07,32.01226,-80.83983,Sugar Shack,1,0.71,0.99,12,12,"NIGHT_CLEAR,NIGHT_CLEAR,CLEAR,CLEAR,CLEAR","Onshore,Onshore,Onshore,Onshore,Onshore",5
5842041f4e65fad6a7708a62,2024_02_07,31.98722842396969,-80.84773,18th St. Jetty,0.6,1.0840319999999999,1.693798,12,12,"NIGHT_CLEAR,NIGHT_CLEAR,CLEAR,CLEAR,CLEAR","Cross-shore,Cross-shore,Cross-shore,Cross-shore,Cross-shore",5
5842041f4e65fad6a7708a64,2024_02_07,34.013473721006676,-77.8991,"Alabama Ave., Kure Beach",2.2,1.018,1.328,11,11,"NIGHT_CLEAR,NIGHT_CLEAR,CLEAR,CLEAR,CLEAR","Cross-shore,Cross-shore,Cross-shore,Cross-shore,Cross-shore",5
5842041f4e65fad6a7708a65,2024_02_07,34.20859853336924,-77.79293,"C Street, Wrightsville Beach",2.384,0.9119,1.3042266666666666,11,9,"NIGHT_CLEAR,NIGHT_CLEAR,CLEAR,CLEAR,CLEAR","Offshore,Offshore,Offshore,Offshore,Cross-shore",5
5842041f4e65fad6a7708a66,2024_02_07,32.831,-79.71,Dewees Island,2.4,0.968,1.1520000000000001,13,13,"NIGHT_CLEAR,NIGHT_CLEAR,CLEAR,CLEAR,CLEAR","Offshore,Offshore,Offshore,Offshore,Cross-shore",5
5842041f4e65fad6a7708a67,2024_02_07,33.82924423172106,-78.62813,Cherry Grove Pier,3,0.6212666666666667,0.9267333333333333,11,11,"NIGHT_CLEAR,NIGHT_CLEAR,CLEAR,CLEAR,CLEAR","Offshore,Offshore,Offshore,Offshore,Offshore",5
5842041f4e65fad6a7708a69,2024_02_07,34.27197439666496,-77.74050223196774,Figure Eight and Shell Islands,2.5,0.8735666666666666,1.2882266666666666,11,9,"NIGHT_CLEAR,NIGHT_CLEAR,CLEAR,CLEAR,CLEAR","Offshore,Offshore,Offshore,Offshore,Offshore",5
5842041f4e65fad6a7708a6b,2024_02_07,33.49041958261793,-79.07666070599386,North End,1.6,0.61,0.914,11,11,"NIGHT_CLEAR,NIGHT_CLEAR,CLEAR,CLEAR,CLEAR","Offshore,Offshore,Offshore,Offshore,Offshore",5
5842041f4e65fad6a7708a6c,2024_02_07,33.39537062495087,-79.13835037835189,The South End,1,0.654,0.9540000000000001,11.4,11.4,"NIGHT_CLEAR,NIGHT_CLEAR,CLEAR,CLEAR,CLEAR","Offshore,Offshore,Offshore,Offshore,Cross-shore",5
5842041f4e65fad6a7708a6d,2024_02_07,33.29001727666697,-79.17190003352977,North Island,0.6,0.706,1.01,12,12,"NIGHT_CLEAR,NIGHT_CLEAR,CLEAR,CLEAR,CLEAR","Cross-shore,Cross-shore,Cross-shore,Cross-shore,Cross-shore",5
5842041f4e65fad6a7708a6e,2024_02_07,32.90929771158952,-79.57810400297359,Bull Island,1.4,0.778,1.024,13,13,"NIGHT_CLEAR,NIGHT_CLEAR,CLEAR,CLEAR,CLEAR","Offshore,Offshore,Offshore,Offshore,Offshore",5
5842041f4e65fad6a7708a6f,2024_02_07,31.99153112815895,-80.84543050470074,Tybee Island Pier,1,0.28600000000000003,0.594,12,12,"NIGHT_CLEAR,NIGHT_CLEAR,CLEAR,CLEAR,CLEAR","Cross-shore,Cross-shore,Cross-shore,Cross-shore,Cross-shore",5
5842041f4e65fad6a7708a70,2024_02_07,33.03478144356316,-79.35021028265125,Cape Romain,1,0.958,1.1460000000000001,13,13,"NIGHT_CLEAR,NIGHT_CLEAR,CLEAR,CLEAR,CLEAR","Cross-shore,Cross-shore,Cross-shore,Cross-shore,Cross-shore",5
5842041f4e65fad6a7708a71,2024_02_07,33.43231073271028,-79.11789,The Pier,1,0.5625560000000001,0.878988,11,11,"NIGHT_CLEAR,NIGHT_CLEAR,CLEAR,CLEAR,CLEAR","Offshore,Cross-shore,Offshore,Offshore,Cross-shore",5
5842041f4e65fad6a7708a72,2024_02_07,33.45423621397969,-79.10497798178424,South Litchfield,2.4,0.846,1.06,11,11,"NIGHT_CLEAR,NIGHT_CLEAR,CLEAR,CLEAR,CLEAR","Offshore,Offshore,Offshore,Offshore,Offshore",5
5842041f4e65fad6a7708a73,2024_02_07,34.19316590251396,-77.8045,Crystal Pier,1.934,0.9115666666666666,1.3067266666666666,11,9,"NIGHT_CLEAR,NIGHT_CLEAR,CLEAR,CLEAR,CLEAR","Offshore,Offshore,Offshore,Offshore,Cross-shore",5
5842041f4e65fad6a7708a74,2024_02_07,33.68628680045124,-78.883460274301,Myrtle Beach,3,0.6189333333333333,0.9325666666666667,11,11,"NIGHT_CLEAR,NIGHT_CLEAR,CLEAR,CLEAR,CLEAR","Offshore,Offshore,Offshore,Offshore,Offshore",5
5842041f4e65fad6a7708a75,2024_02_07,32.66166297145973,-79.91951806398808,10th Street,2,0.822,1.078,13,13,"NIGHT_CLEAR,NIGHT_CLEAR,CLEAR,CLEAR,CLEAR","Offshore,Offshore,Offshore,Offshore,Offshore",5
5842041f4e65fad6a7708a76,2024_02_07,33.16729555197199,-79.19829236867845,South Island,0.6,0.998,1.232,12,12,"NIGHT_CLEAR,NIGHT_CLEAR,CLEAR,CLEAR,CLEAR","Cross-shore,Cross-shore,Cross-shore,Cross-shore,Cross-shore",5
5842041f4e65fad6a7708a77,2024_02_07,32.595,-80.088,Kiawah Island/Seabrook Island,2,0.516,0.8220000000000001,12,12,"NIGHT_CLEAR,NIGHT_CLEAR,CLEAR,CLEAR,CLEAR","Offshore,Offshore,Offshore,Offshore,Offshore",5
5842041f4e65fad6a7708a78,2024_02_07,32.51356930575787,-80.28223,Edisto Beach,2.4,0.689826,1.077856,12,12,"NIGHT_CLEAR,NIGHT_CLEAR,CLEAR,CLEAR,CLEAR","Offshore,Offshore,Offshore,Offshore,Offshore",5
5842041f4e65fad6a7708a79,2024_02_07,32.366270751262,-80.43911,Hunting Island,0.4,1.039596,1.624368,12,12,"NIGHT_CLEAR,NIGHT_CLEAR,CLEAR,CLEAR,CLEAR","Cross-shore,Cross-shore,Cross-shore,Cross-shore,Cross-shore",5
5842041f4e65fad6a7708a7a,2024_02_07,32.65337734408365,-79.93983,Folly Beach Pier,2.4,0.6783733333333333,1.1407533333333333,12,11,"NIGHT_CLEAR,NIGHT_CLEAR,CLEAR,CLEAR,CLEAR","Offshore,Offshore,Offshore,Offshore,Offshore",5
5842041f4e65fad6a7708a7b,2024_02_07,33.41209545530049,-79.13026341393126,South Jetty,1.6,0.654,0.9540000000000001,11,11,"NIGHT_CLEAR,NIGHT_CLEAR,CLEAR,CLEAR,CLEAR","Offshore,Offshore,Offshore,Offshore,Cross-shore",5
5842041f4e65fad6a7708a7c,2024_02_07,32.31115640606869,-80.48564,Fripp Island,2.2,0.669368,1.045886,12,12,"NIGHT_CLEAR,NIGHT_CLEAR,CLEAR,CLEAR,CLEAR","Offshore,Offshore,Offshore,Offshore,Offshore",5
5842041f4e65fad6a7708a7d,2024_02_07,32.14365226036034,-80.74402,Hilton Head Island,1,0.094,0.4,12,12,"NIGHT_CLEAR,NIGHT_CLEAR,CLEAR,CLEAR,CLEAR","Offshore,Offshore,Offshore,Offshore,Cross-shore",5
5842041f4e65fad6a7708a7e,2024_02_07,29.70405364733744,-81.22426004725459,Matanzas Inlet,0.4,1.828,2.128,14.4,14.4,"NIGHT_CLEAR,NIGHT_CLEAR,CLEAR,CLEAR,CLEAR","Cross-shore,Cross-shore,Cross-shore,Cross-shore,Cross-shore",5
5842041f4e65fad6a7708a81,2024_02_07,29.76878537149042,-81.25109,Crescent Beach,0,2.022,2.2640000000000002,14.4,14.4,"NIGHT_CLEAR,NIGHT_CLEAR,CLEAR,CLEAR,CLEAR","Cross-shore,Cross-shore,Cross-shore,Cross-shore,Cross-shore",5
5842041f4e65fad6a7708a82,2024_02_07,32.80251718689188,-79.73221919500764,Wild Dunes,2.2,0.796,1.028,13,13,"NIGHT_CLEAR,NIGHT_CLEAR,CLEAR,CLEAR,CLEAR","Offshore,Offshore,Offshore,Offshore,Offshore",5
5842041f4e65fad6a7708a84,2024_02_07,32.75733539419244,-79.83258856064796,Bert's Bar,2,0.416,0.72,13,13,"NIGHT_CLEAR,NIGHT_CLEAR,CLEAR,CLEAR,CLEAR","Offshore,Offshore,Offshore,Offshore,Offshore",5
5842041f4e65fad6a7708a85,2024_02_07,32.66829212943039,-79.90735,Washout,2.402,0.8238466666666666,1.2269066666666666,12,11,"NIGHT_CLEAR,NIGHT_CLEAR,CLEAR,CLEAR,CLEAR","Offshore,Offshore,Offshore,Offshore,Offshore",5
5842041f4e65fad6a7708a86,2024_02_07,32.78452968219067,-79.78540233488354,The Pier/Windjammer,2.8,0.752,1.006,13,13,"NIGHT_CLEAR,NIGHT_CLEAR,CLEAR,CLEAR,CLEAR","Offshore,Offshore,Offshore,Offshore,Offshore",5
5842041f4e65fad6a7708a87,2024_02_07,29.86618162637438,-81.2662150259608,Anastasia Park (The Entrance),0,1.82,2.052,14.4,14.4,"NIGHT_CLEAR,NIGHT_CLEAR,CLEAR,CLEAR,CLEAR","Cross-shore,Cross-shore,Cross-shore,Cross-shore,Cross-shore",5
5842041f4e65fad6a7708a89,2024_02_07,29.89149785916623,-81.2723223244215,Blowholes,0,1.51792,1.8327266666666666,22,20,"NIGHT_CLEAR,NIGHT_CLEAR,CLEAR,CLEAR,CLEAR","Cross-shore,Cross-shore,Cross-shore,Cross-shore,Cross-shore",5
5842041f4e65fad6a7708a8a,2024_02_07,30.16227112983666,-81.35502907491218,Crossroads,0,1.2565866666666667,1.5713933333333334,22,20,"NIGHT_CLEAR,NIGHT_CLEAR,CLEAR,CLEAR,CLEAR","Cross-shore,Cross-shore,Cross-shore,Cross-shore,Cross-shore",5
5842041f4e65fad6a7708a8b,2024_02_07,30.19308537587637,-81.36314247820911,Sawgrass,0,1.3055866666666667,1.6297266666666668,22,20,"NIGHT_CLEAR,NIGHT_CLEAR,CLEAR,CLEAR,CLEAR","Cross-shore,Cross-shore,Cross-shore,Cross-shore,Cross-shore",5
5842041f4e65fad6a7708a8c,2024_02_07,30.34696027700899,-81.39451,18th Street,0,1.387092,2.1673299999999998,13.4,13.4,"NIGHT_CLEAR,NIGHT_CLEAR,CLEAR,CLEAR,CLEAR","Cross-shore,Cross-shore,Cross-shore,Cross-shore,Cross-shore",5
5842041f4e65fad6a7708a8d,2024_02_07,30.381793,-81.39686,Mayport Poles,2,2.626,2.7760000000000002,13.4,13.4,"NIGHT_CLEAR,NIGHT_CLEAR,CLEAR,CLEAR,CLEAR","Cross-shore,Cross-shore,Cross-shore,Cross-shore,Cross-shore",5
5842041f4e65fad6a7708a8e,2024_02_07,30.390516,-81.395591,Blue Roofs,2,2.324,2.548,13.4,13.4,"NIGHT_CLEAR,NIGHT_CLEAR,CLEAR,CLEAR,CLEAR","Cross-shore,Cross-shore,Cross-shore,Cross-shore,Cross-shore",5
5842041f4e65fad6a7708a8f,2024_02_07,30.40517712722211,-81.40074116169004,Huguenot Park (North Jetty),1.6,1.986,2.322,13.4,13.4,"NIGHT_CLEAR,NIGHT_CLEAR,CLEAR,CLEAR,CLEAR","Cross-shore,Cross-shore,Cross-shore,Onshore,Cross-shore",5
5842041f4e65fad6a7708a90,2024_02_07,30.47788918872762,-81.41055821335078,Talbot Island,0.95,1.5169306666666666,1.94848,15,14,"NIGHT_CLEAR,NIGHT_CLEAR,CLEAR,CLEAR,CLEAR","Cross-shore,Cross-shore,Cross-shore,Cross-shore,Cross-shore",5
5842041f4e65fad6a7708a91,2024_02_07,30.66753984549761,-81.42983,Main Beach,1,1.6420000000000001,1.964,13.4,13.4,"NIGHT_CLEAR,NIGHT_CLEAR,CLEAR,CLEAR,CLEAR","Cross-shore,Cross-shore,Cross-shore,Cross-shore,Cross-shore",5
5842041f4e65fad6a7708a92,2024_02_07,30.69983581209126,-81.42483,Ft. Clinch State Park,0,2.2279999999999998,2.6599999999999997,13.4,13.4,"NIGHT_CLEAR,NIGHT_CLEAR,CLEAR,CLEAR,CLEAR","Cross-shore,Cross-shore,Cross-shore,Cross-shore,Cross-shore",5
5842041f4e65fad6a7708a93,2024_02_07,30.62059700777582,-81.437252942757425,Amelia Pier,0.2,1.664,1.8880000000000001,13.4,13.4,"NIGHT_CLEAR,NIGHT_CLEAR,CLEAR,CLEAR,CLEAR","Cross-shore,Cross-shore,Cross-shore,Cross-shore,Cross-shore",5
5842041f4e65fad6a7708a95,2024_02_07,28.95125170929067,-80.83837,Bethune Beach,0,2.774,3.112,16,16,"NIGHT_CLEAR,NIGHT_CLEAR,OVERCAST,MOSTLY_CLOUDY,OVERCAST","Cross-shore,Cross-shore,Cross-shore,Cross-shore,Cross-shore",5
5842041f4e65fad6a7708a96,2024_02_07,29.03874288905362,-80.8933424949646,Flagler Ave.,0,2.0112,2.70662,22,21,"NIGHT_CLEAR,NIGHT_CLEAR,OVERCAST,CLOUDY,MOSTLY_CLOUDY","Cross-shore,Cross-shore,Cross-shore,Cross-shore,Cross-shore",5
5842041f4e65fad6a7708a98,2024_02_07,30.332297686992757,-81.39319,Atlantic Beach,0,1.402786,2.19185,13.8,13.8,"NIGHT_CLEAR,NIGHT_CLEAR,CLEAR,CLEAR,CLEAR","Cross-shore,Cross-shore,Cross-shore,Cross-shore,Cross-shore",5
5842041f4e65fad6a7708a99,2024_02_07,29.87530059952514,-81.26757958498874,Middles,0,1.4607533333333333,1.7377266666666669,22,20,"NIGHT_CLEAR,NIGHT_CLEAR,CLEAR,CLEAR,CLEAR","Cross-shore,Cross-shore,Cross-shore,Cross-shore,Cross-shore",5
5842041f4e65fad6a7708a9a,2024_02_07,29.146475528378218,-80.96347,Sunglow Pier,0,2.488,2.914,16,16,"NIGHT_CLEAR,NIGHT_CLEAR,MOSTLY_CLOUDY,MOSTLY_CLOUDY,MOSTLY_CLOUDY","Cross-shore,Cross-shore,Cross-shore,Cross-shore,Cross-shore",5
5842041f4e65fad6a7708a9b,2024_02_07,30.02251238001095,-81.32183077344881,Gate Station,0,1.4300866666666667,1.7027266666666667,22,20,"NIGHT_CLEAR,NIGHT_CLEAR,CLEAR,CLEAR,CLEAR","Cross-shore,Cross-shore,Cross-shore,Cross-shore,Cross-shore",5
5842041f4e65fad6a7708a9c,2024_02_07,29.33976495417899,-81.0606,Bicentennial Park,0,2.332,2.684,15.4,15.4,"NIGHT_CLEAR,NIGHT_CLEAR,MOSTLY_CLOUDY,MOSTLY_CLOUDY,MOSTLY_CLOUDY","Cross-shore,Cross-shore,Cross-shore,Cross-shore,Cross-shore",5
5842041f4e65fad6a7708a9d,2024_02_07,29.08257353385602,-80.92136998257725,Ponce Inlet,0.216,2.6261200000000002,3.1804,17,15,"NIGHT_CLEAR,NIGHT_MOSTLY_CLEAR,OVERCAST,DRIZZLE,CLOUDY","Cross-shore,Cross-shore,Cross-shore,Cross-shore,Onshore",5
5842041f4e65fad6a7708a9f,2024_02_07,27.862962005874696,-80.44668,Sebastian Inlet,0.766,2.423560166666667,2.8585885,21,19,"NIGHT_MOSTLY_CLOUDY,NIGHT_MOSTLY_CLEAR,MOSTLY_CLOUDY,CLEAR,MOSTLY_CLOUDY","Cross-shore,Cross-shore,Cross-shore,Cross-shore,Cross-shore",5
5842041f4e65fad6a7708aa0,2024_02_07,30.292626880836885,-81.38579,Jacksonville Beach Pier,1,1.7250333333333334,2.2323133333333334,15,14,"NIGHT_CLEAR,NIGHT_CLEAR,CLEAR,CLEAR,CLEAR","Cross-shore,Onshore,Onshore,Onshore,Onshore",5
5842041f4e65fad6a7708aa1,2024_02_07,29.22878213864532,-81.00551,Main Street North,0,1.5828980000000001,1.748558,15.4,15.4,"NIGHT_CLEAR,NIGHT_CLEAR,MOSTLY_CLOUDY,MOSTLY_CLOUDY,MOSTLY_CLOUDY","Cross-shore,Cross-shore,Cross-shore,Cross-shore,Cross-shore",5
5842041f4e65fad6a7708aa2,2024_02_07,29.21860397328164,-81.0019,Daytona Beach,0,2.42,2.788,15.4,15.4,"NIGHT_CLEAR,NIGHT_CLEAR,MOSTLY_CLOUDY,MOSTLY_CLOUDY,MOSTLY_CLOUDY","Cross-shore,Cross-shore,Cross-shore,Cross-shore,Cross-shore",5
5842041f4e65fad6a7708aa3,2024_02_07,27.47531255634912,-80.28914,Ft. Pierce Inlet,0.766,2.60612,3.4628466666666666,21,20,"NIGHT_MOSTLY_CLOUDY,NIGHT_CLEAR,MOSTLY_CLOUDY,CLEAR,CLEAR","Cross-shore,Cross-shore,Cross-shore,Cross-shore,Cross-shore",5
5842041f4e65fad6a7708aa4,2024_02_07,29.29239875585548,-81.0386,Ormond Beach,0.2,2.156,2.576,15.4,15.4,"NIGHT_CLEAR,NIGHT_CLEAR,MOSTLY_CLOUDY,MOSTLY_CLOUDY,MOSTLY_CLOUDY","Cross-shore,Cross-shore,Cross-shore,Cross-shore,Cross-shore",5
5842041f4e65fad6a7708aa5,2024_02_07,29.91629441498523,-81.28801,Vilano,0,1.558,1.864,14.4,14.4,"NIGHT_CLEAR,NIGHT_CLEAR,CLEAR,CLEAR,CLEAR","Cross-shore,Cross-shore,Cross-shore,Cross-shore,Cross-shore",5
5842041f4e65fad6a7708aa6,2024_02_07,27.876230736320828,-80.4551,Spanish House,0.5,3.1137866666666665,3.6510666666666665,20,18,"NIGHT_CLEAR,NIGHT_MOSTLY_CLEAR,MOSTLY_CLOUDY,MOSTLY_CLOUDY,MOSTLY_CLOUDY","Cross-shore,Cross-shore,Cross-shore,Cross-shore,Cross-shore",5
5842041f4e65fad6a7708aa7,2024_02_07,28.64397251741012,-80.62328519781694,Playalinda,0,2.7119999999999997,3.216,17,17,"NIGHT_MOSTLY_CLOUDY,NIGHT_CLEAR,MOSTLY_CLOUDY,CLOUDY,BRIEF_SHOWERS","Cross-shore,Cross-shore,Cross-shore,Cross-shore,Cross-shore",5
5842041f4e65fad6a7708aa8,2024_02_07,28.406142,-80.588858,Jetty Park,2,1.552,1.776,17.6,17.6,"NIGHT_CLEAR,NIGHT_CLEAR,BRIEF_SHOWERS,MOSTLY_CLOUDY,MOSTLY_CLOUDY","Offshore,Offshore,Offshore,Offshore,Offshore",5
5842041f4e65fad6a7708aa9,2024_02_07,28.49083243010974,-80.58001715986319,Kennedy Space Center,1.2,3.464,4.002,18,18,"NIGHT_MOSTLY_CLOUDY,NIGHT_MOSTLY_CLOUDY,MOSTLY_CLOUDY,MOSTLY_CLOUDY,MOSTLY_CLOUDY","Cross-shore,Cross-shore,Cross-shore,Cross-shore,Cross-shore",5
5842041f4e65fad6a7708aab,2024_02_07,28.336757013024314,-80.60568,Lori Wilson Park,2.5,1.6128666666666667,2.10148,18,17,"NIGHT_MOSTLY_CLEAR,NIGHT_MOSTLY_CLEAR,MOSTLY_CLOUDY,MOSTLY_CLOUDY,MOSTLY_CLOUDY","Offshore,Cross-shore,Cross-shore,Cross-shore,Cross-shore",5
5842041f4e65fad6a7708aad,2024_02_07,27.76388821683801,-80.3962958234027,Wabasso,0,2.8040000000000003,3.35,20.6,20.6,"NIGHT_MOSTLY_CLOUDY,NIGHT_MOSTLY_CLEAR,MOSTLY_CLOUDY,CLEAR,MOSTLY_CLOUDY","Cross-shore,Cross-shore,Cross-shore,Cross-shore,Cross-shore",5
5842041f4e65fad6a7708aae,2024_02_07,27.521583322459,-80.30987620353699,P.V. Martin's,0.5,3.0004533333333336,3.622733333333333,21,19,"NIGHT_MOSTLY_CLOUDY,NIGHT_CLEAR,MOSTLY_CLOUDY,CLEAR,MOSTLY_CLOUDY","Cross-shore,Cross-shore,Cross-shore,Cross-shore,Cross-shore",5
5842041f4e65fad6a7708aaf,2024_02_07,27.644996047720046,-80.35242676734924,Riomar,0.5,2.9684533333333336,3.5875666666666666,21,19,"NIGHT_MOSTLY_CLOUDY,NIGHT_CLEAR,CLEAR,CLEAR,MOSTLY_CLOUDY","Cross-shore,Cross-shore,Cross-shore,Cross-shore,Cross-shore",5
5842041f4e65fad6a7708ab1,2024_02_07,27.670121806659253,-80.36026954650879,Vero Pier,1.4,3.496453333333333,4.172233333333334,21,19,"NIGHT_MOSTLY_CLOUDY,NIGHT_CLEAR,CLEAR,CLEAR,MOSTLY_CLOUDY","Cross-shore,Cross-shore,Cross-shore,Cross-shore,Cross-shore",5
5842041f4e65fad6a7708ab2,2024_02_07,28.047705032021486,-80.54680109024048,Spessard Holland,0.716,2.5551791666666666,3.3541583333333334,20,18,"NIGHT_CLEAR,NIGHT_CLEAR,CLEAR,MOSTLY_CLOUDY,MOSTLY_CLOUDY","Cross-shore,Cross-shore,Cross-shore,Cross-shore,Cross-shore",5
5842041f4e65fad6a7708ab7,2024_02_07,28.135426226217064,-80.57895541191101,The Radisson,0.5,2.818286666666667,3.7513466666666666,19,18,"NIGHT_CLEAR,NIGHT_CLEAR,MOSTLY_CLOUDY,MOSTLY_CLOUDY,MOSTLY_CLOUDY","Cross-shore,Cross-shore,Cross-shore,Cross-shore,Cross-shore",5
5842041f4e65fad6a7708ab8,2024_02_07,28.26664623907351,-80.60448467731476,Picnic Tables,2,3.3040000000000003,3.662,18,18,"NIGHT_CLEAR,NIGHT_CLEAR,MOSTLY_CLOUDY,MOSTLY_CLOUDY,MOSTLY_CLOUDY","Cross-shore,Cross-shore,Cross-shore,Cross-shore,Cross-shore",5
5842041f4e65fad6a7708ab9,2024_02_07,28.200840983180232,-80.59493,Perkins,0.666,2.7842866666666666,3.7403466666666665,19,17,"NIGHT_CLEAR,NIGHT_CLEAR,MOSTLY_CLOUDY,MOSTLY_CLOUDY,MOSTLY_CLOUDY","Cross-shore,Cross-shore,Cross-shore,Cross-shore,Cross-shore",5
5842041f4e65fad6a7708aba,2024_02_07,28.185652556759443,-80.59154,RC's,1.916,3.00162,3.7868466666666665,19,17,"NIGHT_CLEAR,NIGHT_CLEAR,MOSTLY_CLOUDY,MOSTLY_CLOUDY,MOSTLY_CLOUDY","Cross-shore,Offshore,Cross-shore,Cross-shore,Cross-shore",5
5842041f4e65fad6a7708abc,2024_02_07,28.252541991968208,-80.60269,2nd Light,1.2,3.194,3.5380000000000003,18,18,"NIGHT_CLEAR,NIGHT_CLEAR,MOSTLY_CLOUDY,MOSTLY_CLOUDY,MOSTLY_CLOUDY","Cross-shore,Cross-shore,Cross-shore,Cross-shore,Cross-shore",5
5842041f4e65fad6a7708abd,2024_02_07,27.901611308716447,-80.4697,Bonsteel Park,0.5,2.85012,3.3640666666666665,20,18,"NIGHT_CLEAR,NIGHT_CLEAR,CLEAR,CLEAR,MOSTLY_CLOUDY","Cross-shore,Cross-shore,Cross-shore,Cross-shore,Cross-shore",5
5842041f4e65fad6a7708abe,2024_02_07,28.2423394657007,-80.60104,Hangar's Beach,1.5,2.7562866666666666,3.629846666666667,19,17,"NIGHT_CLEAR,NIGHT_CLEAR,CLEAR,MOSTLY_CLOUDY,MOSTLY_CLOUDY","Cross-shore,Cross-shore,Cross-shore,Cross-shore,Cross-shore",5
5842041f4e65fad6a7708abf,2024_02_07,27.34018197146798,-80.23278,Walton Rocks,0.766,2.9714533333333333,3.92468,22,21,"NIGHT_MOSTLY_CLEAR,NIGHT_MOSTLY_CLEAR,MOSTLY_CLOUDY,MOSTLY_CLOUDY,MOSTLY_CLOUDY","Cross-shore,Cross-shore,Cross-shore,Cross-shore,Cross-shore",5
5842041f4e65fad6a7708ac0,2024_02_07,25.80407401902198,-80.1222227290161,30th Street,2.6,1.398,1.67,23.4,23.4,"NIGHT_CLEAR,NIGHT_CLEAR,CLEAR,CLEAR,CLEAR","Offshore,Offshore,Offshore,Offshore,Offshore",5
5842041f4e65fad6a7708ac1,2024_02_07,25.76570280215999,-80.12983304957051,South Beach,3.85,1.2030133333333333,1.6479933333333334,24,23,"NIGHT_CLEAR,NIGHT_CLEAR,CLEAR,CLEAR,CLEAR","Offshore,Offshore,Offshore,Cross-shore,Offshore",5
5842041f4e65fad6a7708ac2,2024_02_07,26.058022412197,-80.10873562327671,Dania Pier,2.6,1.678,2.004,23.4,23.4,"NIGHT_MOSTLY_CLEAR,NIGHT_CLEAR,CLEAR,CLEAR,BRIEF_SHOWERS","Offshore,Offshore,Offshore,Cross-shore,Offshore",5
5842041f4e65fad6a7708ac3,2024_02_07,26.04825428257198,-80.11153150137932,Franklin Street,2.8,1.836,2.082,23.4,23.4,"NIGHT_MOSTLY_CLEAR,NIGHT_CLEAR,CLEAR,CLEAR,BRIEF_SHOWERS","Offshore,Offshore,Offshore,Offshore,Offshore",5
5842041f4e65fad6a7708ac4,2024_02_07,26.09086461141498,-80.10728410144065,John Lloyd State Park,2.6,1.656,1.898,23.4,23.4,"NIGHT_CLEAR,NIGHT_CLEAR,CLEAR,CLEAR,CLEAR","Offshore,Offshore,Offshore,Offshore,Offshore",5
5842041f4e65fad6a7708ac5,2024_02_07,26.0971397396683,-80.10298876028907,Spoils,3,2.014,2.2680000000000002,23.4,23.4,"NIGHT_MOSTLY_CLEAR,NIGHT_CLEAR,CLEAR,MOSTLY_CLEAR,CLEAR","Offshore,Offshore,Offshore,Offshore,Offshore",5
5842041f4e65fad6a7708ac6,2024_02_07,26.18920557475824,-80.09224470008016,Commercial Pier,3,1.998,2.2680000000000002,24,24,"NIGHT_MOSTLY_CLEAR,NIGHT_MOSTLY_CLEAR,CLEAR,CLEAR,CLEAR","Offshore,Offshore,Offshore,Offshore,Offshore",5
5842041f4e65fad6a7708ac7,2024_02_07,28.289851576629342,-80.6063,16th St. South,2,2.2075066666666667,3.0629,18,17,"NIGHT_CLEAR,NIGHT_CLEAR,MOSTLY_CLOUDY,MOSTLY_CLOUDY,BRIEF_SHOWERS","Cross-shore,Cross-shore,Cross-shore,Cross-shore,Cross-shore",5
5842041f4e65fad6a7708ac8,2024_02_07,26.23467460139735,-80.08739675534814,Pompano Pier,2.3,1.1757866666666665,1.4243266666666667,24,23,"NIGHT_MOSTLY_CLEAR,NIGHT_CLEAR,CLEAR,MOSTLY_CLEAR,CLEAR","Offshore,Offshore,Offshore,Offshore,Offshore",5
5842041f4e65fad6a7708acb,2024_02_07,26.44179551370651,-80.05928855229453,Atlantic Dunes Park,2.9,1.580315,2.201345,24,22,"NIGHT_MOSTLY_CLEAR,NIGHT_MOSTLY_CLEAR,CLEAR,MOSTLY_CLEAR,BRIEF_SHOWERS","Offshore,Offshore,Offshore,Offshore,Offshore",5
5842041f4e65fad6a7708acd,2024_02_07,26.62215707439298,-80.03599398392342,Hilton Hotel Backyard,2.4,2.269773333333333,3.1228333333333333,24,22,"NIGHT_CLEAR,NIGHT_MOSTLY_CLEAR,CLEAR,MOSTLY_CLEAR,MOSTLY_CLOUDY","Offshore,Offshore,Offshore,Cross-shore,Offshore",5
5842041f4e65fad6a7708ace,2024_02_07,26.96418190555367,-80.07769168113562,Coral Cove Park,1.2,3.0705533333333337,4.108413333333333,22,21,"NIGHT_CLEAR,NIGHT_MOSTLY_CLEAR,CLEAR,MOSTLY_CLOUDY,MOSTLY_CLOUDY","Offshore,Offshore,Cross-shore,Cross-shore,Cross-shore",5
5842041f4e65fad6a7708acf,2024_02_07,26.7029496416037,-80.0318372872607,Palm Beach,2.266,2.3037733333333335,3.1893333333333334,24,22,"NIGHT_MOSTLY_CLEAR,NIGHT_CLEAR,MOSTLY_CLEAR,BRIEF_SHOWERS,MOSTLY_CLOUDY","Offshore,Offshore,Offshore,Cross-shore,Offshore",5
5842041f4e65fad6a7708ad0,2024_02_07,26.97679878167375,-80.08141631388132,Blowing Rocks,1.2,2.9343866666666667,3.841413333333333,22,21,"NIGHT_MOSTLY_CLEAR,NIGHT_CLEAR,MOSTLY_CLOUDY,MOSTLY_CLOUDY,MOSTLY_CLOUDY","Offshore,Offshore,Cross-shore,Cross-shore,Cross-shore",5
5842041f4e65fad6a7708ad2,2024_02_07,26.45661880078336,-80.05699952321751,Delray Beach,2.9,1.6459133333333333,2.29854,24,22,"NIGHT_MOSTLY_CLEAR,NIGHT_MOSTLY_CLEAR,CLEAR,MOSTLY_CLEAR,BRIEF_SHOWERS","Offshore,Offshore,Offshore,Offshore,Offshore",5
5842041f4e65fad6a7708ad3,2024_02_07,27.205685534312778,-80.16826629638672,Fletcher's,0.5,2.8955533333333334,3.76708,22,21,"NIGHT_CLEAR,NIGHT_CLEAR,CLEAR,MOSTLY_CLOUDY,MOSTLY_CLOUDY","Cross-shore,Cross-shore,Cross-shore,Cross-shore,Cross-shore",5
5842041f4e65fad6a7708ad5,2024_02_07,26.5848450388814,-80.03649735753257,Lantana Public Beach,2.4,2.459133333333333,3.13358,24,22,"NIGHT_CLEAR,NIGHT_CLEAR,CLEAR,CLEAR,MOSTLY_CLOUDY","Offshore,Offshore,Offshore,Cross-shore,Offshore",5
5842041f4e65fad6a7708ad6,2024_02_07,25.77468432731322,-80.12884045797499,5th Street,2.2,1.248,1.53,23.4,23.4,"NIGHT_CLEAR,NIGHT_CLEAR,CLEAR,CLEAR,CLEAR","Offshore,Offshore,Offshore,Offshore,Offshore",5
5842041f4e65fad6a7708ad7,2024_02_07,25.795157990715975,-80.12527585029602,21st Street,2.2,1.522,1.82,23.4,23.4,"NIGHT_CLEAR,NIGHT_CLEAR,CLEAR,CLEAR,CLEAR","Offshore,Offshore,Offshore,Offshore,Offshore",5
5842041f4e65fad6a7708ad8,2024_02_07,25.897806453088073,-80.1211827993393,Haulover Inlet (South Jetty),3,2.186,2.488,23.4,23.4,"NIGHT_CLEAR,NIGHT_MOSTLY_CLEAR,CLEAR,CLEAR,CLEAR","Offshore,Offshore,Offshore,Offshore,Offshore",5
5842041f4e65fad6a7708ad9,2024_02_07,25.90147392328634,-80.12110769748688,Haulover Inlet (North Jetty),3,1.822,2.138,23.4,23.4,"NIGHT_CLEAR,NIGHT_MOSTLY_CLEAR,CLEAR,CLEAR,CLEAR","Offshore,Offshore,Offshore,Offshore,Offshore",5
5842041f4e65fad6a7708ada,2024_02_07,25.87049374242476,-80.11828560342356,85th Street,2.2,1.434,1.712,23.4,23.4,"NIGHT_CLEAR,NIGHT_MOSTLY_CLEAR,CLEAR,CLEAR,CLEAR","Offshore,Offshore,Offshore,Cross-shore,Offshore",5
5842041f4e65fad6a7708adb,2024_02_07,26.25486382031396,-80.0805,Hillsboro Inlet,2.766,0.7463215,1.2528041666666667,27,26,"NIGHT_MOSTLY_CLEAR,NIGHT_CLEAR,CLEAR,MOSTLY_CLEAR,CLEAR","Offshore,Offshore,Offshore,Offshore,Offshore",5
5842041f4e65fad6a7708add,2024_02_07,26.29705672965111,-80.07612393274484,Hillsboro Beach,2.9,0.9715133333333333,1.3830733333333334,27,26,"NIGHT_MOSTLY_CLEAR,NIGHT_CLEAR,CLEAR,CLEAR,MOSTLY_CLOUDY","Offshore,Offshore,Offshore,Offshore,Offshore",5
5842041f4e65fad6a7708ade,2024_02_07,26.36569956413266,-80.06717936869391,Red Reef Park,2.9,1.6679933333333334,2.21354,24,22,"NIGHT_CLEAR,NIGHT_CLEAR,CLEAR,CLEAR,CLEAR","Offshore,Offshore,Offshore,Offshore,Offshore",5
5842041f4e65fad6a7708adf,2024_02_07,26.54593873498907,-80.04104359585143,Boynton Beach Inlet (Northside),2.734,1.7738,2.2937466666666664,24,22,"NIGHT_CLEAR,NIGHT_CLEAR,CLEAR,CLEAR,MOSTLY_CLOUDY","Offshore,Offshore,Offshore,Cross-shore,Offshore",5
5842041f4e65fad6a7708ae0,2024_02_07,26.92746505629809,-80.06721138954163,Corners,0.85,2.5223735,3.415671,24,22,"NIGHT_CLEAR,NIGHT_MOSTLY_CLEAR,MOSTLY_CLOUDY,MOSTLY_CLOUDY,MOSTLY_CLOUDY","Offshore,Offshore,Offshore,Cross-shore,Cross-shore",5
5842041f4e65fad6a7708ae1,2024_02_07,26.76983179886943,-80.03413481937037,The Cove,2.266,2.4377733333333333,3.308133333333333,24,22,"NIGHT_MOSTLY_CLEAR,NIGHT_CLEAR,CLEAR,MOSTLY_CLEAR,MOSTLY_CLOUDY","Offshore,Offshore,Offshore,Cross-shore,Cross-shore",5
5842041f4e65fad6a7708ae3,2024_02_07,26.39224485175123,-80.0650461233983,Japanese Rock,2.866,1.6111600000000001,2.0767066666666665,24,22,"NIGHT_CLEAR,NIGHT_CLEAR,CLEAR,MOSTLY_CLEAR,MOSTLY_CLEAR","Offshore,Offshore,Offshore,Offshore,Offshore",5
5842041f4e65fad6a7708ae4,2024_02_07,29.94810928551321,-85.42545434612366,Mexico Beach,0,0,0.12,14.4,14.4,"NIGHT_CLEAR,NIGHT_CLEAR,CLEAR,CLEAR,CLEAR","Offshore,Offshore,Offshore,Offshore,Offshore",5
5842041f4e65fad6a7708ae5,2024_02_07,30.11752500931267,-85.7306039427457,Shell Island,0,0,0.11599999999999999,14.4,14.4,"NIGHT_CLEAR,NIGHT_CLEAR,CLEAR,CLEAR,CLEAR","Offshore,Offshore,Offshore,Offshore,Offshore",5
5842041f4e65fad6a7708ae7,2024_02_07,29.94901514702268,-85.43042978529013,D.J.'s,0,0,0.12,14.4,14.4,"NIGHT_CLEAR,NIGHT_CLEAR,CLEAR,CLEAR,CLEAR","Offshore,Offshore,Offshore,Offshore,Offshore",5
5842041f4e65fad6a7708ae8,2024_02_07,30.12396111446713,-85.73636797034509,St. Andrew's Park,0,0,0.13818,16,14,"NIGHT_CLEAR,NIGHT_CLEAR,CLEAR,CLEAR,CLEAR","Offshore,Offshore,Offshore,Offshore,Offshore",5
5842041f4e65fad6a7708ae9,2024_02_07,30.16781531760227,-85.79604918824084,Spinnaker,0,0,0.13268,16,14,"NIGHT_CLEAR,NIGHT_CLEAR,CLEAR,CLEAR,CLEAR","Offshore,Offshore,Offshore,Offshore,Offshore",5
5842041f4e65fad6a7708aea,2024_02_07,30.18877050526983,-85.83243530466363,Wood Pier,0.1,0,0.20964,16,14,"NIGHT_CLEAR,NIGHT_CLEAR,CLEAR,CLEAR,CLEAR","Offshore,Offshore,Offshore,Offshore,Offshore",5
5842041f4e65fad6a7708aeb,2024_02_07,30.2676205895555,-85.9938578144113,Inlet Beach Pier,0.1,0,0.21164,16,14,"NIGHT_CLEAR,NIGHT_CLEAR,CLEAR,CLEAR,CLEAR","Offshore,Offshore,Offshore,Offshore,Offshore",5
