_id,date,lat,lon,name,daily_mean_swell_rating,daily_mean_wave_height_min,daily_mean_wave_height_max,daily_mean_water_temperature_max,daily_mean_water_temperature_min,weather_per_timestamp,wind_per_timestamp,n_samples_per_day
5842041f4e65fad6a77087f9,2024_07_03,37.741668,-122.51038,South Ocean Beach,2.8214285714285716,1.1893571428571428,1.59845,12,12,"NIGHT_MIST,NIGHT_BRIEF_SHOWERS,NIGHT_MIST,NIGHT_MIST,NIGHT_MIST,MIST,BRIEF_SHOWERS,BRIEF_SHOWERS,MIST,MIST,MIST,MIST,MIST,MIST","Cross-shore,Offshore,Offshore,Cross-shore,Onshore,Onshore,Cross-shore,Onshore,Onshore,Onshore,Onshore,Onshore,Onshore,Onshore",14
5842041f4e65fad6a7708801,2024_07_03,37.49142,-122.50428,Maverick's,NA,1.6228571428571428,1.8792857142857142,13,13,"NIGHT_MOSTLY_CLOUDY,NIGHT_MOSTLY_CLOUDY,NIGHT_MOSTLY_CLOUDY,NIGHT_MOSTLY_CLOUDY,NIGHT_MIST,MIST,MIST,MIST,MIST,MIST,MIST,MIST,MIST,MIST","Onshore,Onshore,Offshore,Offshore,Onshore,Onshore,Onshore,Onshore,Onshore,Onshore,Onshore,Onshore,Onshore,Onshore",14
5842041f4e65fad6a7708804,2024_07_03,44.997,-124.018,Roads End,2.0714285714285716,1.225,1.502857142857143,14.285714285714286,14.285714285714286,"NIGHT_MOSTLY_CLOUDY,NIGHT_MOSTLY_CLOUDY,NIGHT_MOSTLY_CLOUDY,NIGHT_MOSTLY_CLOUDY,NIGHT_MOSTLY_CLOUDY,MOSTLY_CLOUDY,MIST,MIST,MOSTLY_CLOUDY,MIST,CLEAR,MOSTLY_CLEAR,CLEAR,BRIEF_SHOWERS","Cross-shore,Cross-shore,Cross-shore,Cross-shore,Cross-shore,Cross-shore,Cross-shore,Cross-shore,Cross-shore,Cross-shore,Cross-shore,Cross-shore,Cross-shore,Cross-shore",14
5842041f4e65fad6a7708805,2024_07_03,36.95188851423011,-122.02522,Steamer Lane,2.9285714285714284,0.5798421428571429,0.9707064285714286,12,12,"NIGHT_CLEAR,NIGHT_CLEAR,NIGHT_CLEAR,NIGHT_CLEAR,NIGHT_CLEAR,CLEAR,CLEAR,CLEAR,CLEAR,CLEAR,CLEAR,CLEAR,CLEAR,CLEAR","Onshore,Onshore,Cross-shore,Cross-shore,Cross-shore,Cross-shore,Offshore,Offshore,Cross-shore,Onshore,Cross-shore,Offshore,Offshore,Cross-shore",14
5842041f4e65fad6a7708806,2024_07_03,36.95918781542251,-122.02489,Cowells,1.1785714285714286,0,0.22475928571428572,12,12,"NIGHT_CLEAR,NIGHT_CLEAR,NIGHT_CLEAR,NIGHT_CLEAR,NIGHT_CLEAR,CLEAR,CLEAR,CLEAR,CLEAR,CLEAR,CLEAR,CLEAR,CLEAR,CLEAR","Cross-shore,Cross-shore,Onshore,Onshore,Onshore,Cross-shore,Cross-shore,Cross-shore,Offshore,Cross-shore,Offshore,Offshore,Offshore,Offshore",14
5842041f4e65fad6a7708807,2024_07_03,36.95468082526536,-121.97234,Pleasure Point,2.9285714285714284,0.5672235714285714,0.8734664285714285,12,12,"NIGHT_CLEAR,NIGHT_CLEAR,NIGHT_CLEAR,NIGHT_CLEAR,NIGHT_CLEAR,CLEAR,CLEAR,CLEAR,CLEAR,CLEAR,CLEAR,CLEAR,CLEAR,CLEAR","Onshore,Onshore,Onshore,Onshore,Onshore,Offshore,Offshore,Onshore,Cross-shore,Onshore,Cross-shore,Cross-shore,Cross-shore,Cross-shore",14
5842041f4e65fad6a770880a,2024_07_03,35.37815414378748,-120.86589,Morro Bay,3,0.8455071428571429,1.1464928571428572,12,12,"NIGHT_CLEAR,NIGHT_MOSTLY_CLEAR,NIGHT_MOSTLY_CLEAR,NIGHT_MOSTLY_CLEAR,NIGHT_MOSTLY_CLEAR,MOSTLY_CLEAR,MOSTLY_CLEAR,CLEAR,CLEAR,CLEAR,CLEAR,CLEAR,CLEAR,CLEAR","Onshore,Onshore,Onshore,Onshore,Onshore,Onshore,Cross-shore,Onshore,Onshore,Onshore,Onshore,Onshore,Onshore,Onshore",14
5842041f4e65fad6a770880b,2024_07_03,36.95782765000708,-121.96729,Jack's,1.8928571428571428,0.16402642857142857,0.4685907142857143,12,12,"NIGHT_CLEAR,NIGHT_CLEAR,NIGHT_CLEAR,NIGHT_CLEAR,NIGHT_CLEAR,CLEAR,CLEAR,CLEAR,CLEAR,CLEAR,CLEAR,CLEAR,CLEAR,CLEAR","Onshore,Onshore,Onshore,Cross-shore,Onshore,Onshore,Cross-shore,Cross-shore,Cross-shore,Cross-shore,Cross-shore,Cross-shore,Cross-shore,Cross-shore",14
5842041f4e65fad6a770880d,2024_07_03,34.29982939936656,-119.3489016603669,Gold Coast Beachbreaks,2,0.12,0.42428571428571427,18,18,"NIGHT_CLEAR,NIGHT_CLEAR,NIGHT_CLEAR,NIGHT_CLEAR,NIGHT_CLEAR,CLEAR,CLEAR,CLEAR,CLEAR,CLEAR,CLEAR,CLEAR,CLEAR,CLEAR","Onshore,Onshore,Onshore,Offshore,Onshore,Offshore,Offshore,Offshore,Offshore,Offshore,Onshore,Offshore,Offshore,Onshore",14
5842041f4e65fad6a7708811,2024_07_03,34.245076,-119.26799,Ventura Harbor,2.6666666666666665,0.43838571428571427,0.7454785714285714,16,16,"NIGHT_CLEAR,NIGHT_CLEAR,NIGHT_CLEAR,NIGHT_MOSTLY_CLOUDY,NIGHT_MOSTLY_CLOUDY,MOSTLY_CLOUDY,MOSTLY_CLOUDY,MOSTLY_CLOUDY,CLEAR,CLEAR,CLEAR,CLEAR,CLEAR,CLEAR","Onshore,Cross-shore,Offshore,Cross-shore,Offshore,Cross-shore,Onshore,Onshore,Onshore,Onshore,Onshore,Onshore,Onshore,Onshore",14
5842041f4e65fad6a7708813,2024_07_03,34.051,-118.964,County Line,2.142857142857143,0.33508571428571426,0.6369571428571429,17,17,"NIGHT_CLEAR,NIGHT_CLEAR,NIGHT_CLEAR,NIGHT_CLEAR,NIGHT_CLEAR,CLEAR,CLEAR,CLEAR,CLEAR,CLEAR,CLEAR,CLEAR,CLEAR,CLEAR","Onshore,Onshore,Onshore,Onshore,Onshore,Cross-shore,Offshore,Onshore,Onshore,Onshore,Onshore,Onshore,Onshore,Onshore",14
5842041f4e65fad6a7708814,2024_07_03,34.37256264378892,-119.47797,Rincon,2,0.07571428571428572,0.38285714285714284,17.285714285714285,17.285714285714285,"NIGHT_MOSTLY_CLEAR,NIGHT_MOSTLY_CLEAR,NIGHT_MOSTLY_CLEAR,NIGHT_MOSTLY_CLOUDY,NIGHT_MOSTLY_CLOUDY,MOSTLY_CLOUDY,MOSTLY_CLOUDY,MIST,MIST,MIST,MIST,MIST,MIST,MIST","Cross-shore,Onshore,Onshore,Onshore,Cross-shore,Cross-shore,Cross-shore,Cross-shore,Cross-shore,Onshore,Cross-shore,Cross-shore,Cross-shore,Cross-shore",14
5842041f4e65fad6a7708817,2024_07_03,34.03096101876324,-118.68109,Malibu Third Point,2,0.195,0.5007142857142857,19,19,"NIGHT_MOSTLY_CLOUDY,NIGHT_MOSTLY_CLOUDY,NIGHT_MOSTLY_CLOUDY,NIGHT_MIST,NIGHT_MOSTLY_CLOUDY,MOSTLY_CLOUDY,MOSTLY_CLOUDY,MOSTLY_CLOUDY,MOSTLY_CLEAR,MOSTLY_CLEAR,BRIEF_SHOWERS,MOSTLY_CLEAR,MOSTLY_CLEAR,MOSTLY_CLEAR","Cross-shore,Cross-shore,Offshore,Offshore,Offshore,Offshore,Cross-shore,Cross-shore,Cross-shore,Cross-shore,Cross-shore,Cross-shore,Cross-shore,Cross-shore",14
5842041f4e65fad6a7708819,2024_07_03,33.984079047970035,-118.47382,Venice Beach,2.1666666666666665,0.328205,0.6306357142857143,20,20,"NIGHT_MIST,NIGHT_MIST,NIGHT_MIST,NIGHT_MIST,NIGHT_MIST,MIST,MIST,MIST,MIST,MIST,MIST,MIST,MIST,MIST","Cross-shore,Cross-shore,Onshore,Cross-shore,Cross-shore,Onshore,Cross-shore,Onshore,Cross-shore,Cross-shore,Cross-shore,Cross-shore,Cross-shore,Cross-shore",14
5842041f4e65fad6a770881e,2024_07_03,34.037508438646746,-118.5834,Topanga Beach,1.7619047619047619,0.09946428571428571,0.4041335714285714,19,19,"NIGHT_CLEAR,NIGHT_CLEAR,NIGHT_CLEAR,NIGHT_CLEAR,NIGHT_CLEAR,CLEAR,CLEAR,CLEAR,CLEAR,CLEAR,CLEAR,CLEAR,CLEAR,CLEAR","Onshore,Cross-shore,Offshore,Onshore,Cross-shore,Cross-shore,Offshore,Onshore,Onshore,Onshore,Onshore,Onshore,Onshore,Onshore",14
5842041f4e65fad6a7708820,2024_07_03,33.73954373690184,-118.11414,Seal Beach Jetty,2,0.245,0.5514285714285714,20,20,"NIGHT_CLEAR,NIGHT_CLEAR,NIGHT_CLEAR,NIGHT_CLEAR,NIGHT_CLEAR,CLEAR,CLEAR,CLEAR,MOSTLY_CLEAR,CLEAR,CLEAR,CLEAR,CLEAR,CLEAR","Onshore,Onshore,Cross-shore,Cross-shore,Offshore,Offshore,Cross-shore,Cross-shore,Onshore,Onshore,Onshore,Onshore,Onshore,Onshore",14
5842041f4e65fad6a7708822,2024_07_03,33.72309983348433,-118.08078,Anderson Street,1.25,0.1669142857142857,0.4444242857142857,17,17,"NIGHT_CLEAR,NIGHT_BRIEF_SHOWERS,NIGHT_MOSTLY_CLEAR,NIGHT_MOSTLY_CLEAR,NIGHT_MOSTLY_CLEAR,CLEAR,CLEAR,CLEAR,MOSTLY_CLEAR,MOSTLY_CLEAR,MOSTLY_CLEAR,BRIEF_SHOWERS,BRIEF_SHOWERS,BRIEF_SHOWERS","Onshore,Onshore,Cross-shore,Cross-shore,Offshore,Offshore,Cross-shore,Cross-shore,Onshore,Onshore,Onshore,Onshore,Onshore,Onshore",14
5842041f4e65fad6a7708827,2024_07_03,33.65574085629463,-118.00397,Huntington Beach Pier Northside,2.4404761904761907,0.5617457142857143,0.95039,18,18,"NIGHT_CLEAR,NIGHT_MOSTLY_CLOUDY,NIGHT_MOSTLY_CLOUDY,NIGHT_MOSTLY_CLOUDY,NIGHT_MOSTLY_CLOUDY,MOSTLY_CLOUDY,MOSTLY_CLOUDY,MOSTLY_CLOUDY,MOSTLY_CLEAR,MOSTLY_CLEAR,MOSTLY_CLEAR,MOSTLY_CLEAR,CLEAR,CLEAR","Onshore,Onshore,Cross-shore,Cross-shore,Onshore,Onshore,Onshore,Onshore,Onshore,Onshore,Onshore,Onshore,Onshore,Onshore",14
5842041f4e65fad6a7708828,2024_07_03,34.272041739333,-119.29976,C St.,2.3452380952380953,0.17222857142857143,0.47945714285714286,16,16,"NIGHT_MIST,NIGHT_MOSTLY_CLEAR,NIGHT_MOSTLY_CLEAR,NIGHT_MOSTLY_CLOUDY,NIGHT_MOSTLY_CLOUDY,MOSTLY_CLOUDY,MOSTLY_CLOUDY,MIST,MIST,BRIEF_SHOWERS,BRIEF_SHOWERS,BRIEF_SHOWERS,BRIEF_SHOWERS,BRIEF_SHOWERS","Onshore,Cross-shore,Onshore,Onshore,Offshore,Offshore,Onshore,Onshore,Onshore,Onshore,Onshore,Onshore,Onshore,Onshore",14
5842041f4e65fad6a770882a,2024_07_03,33.61555743705257,-117.93676,Newport Lower Jetties,1.9404761904761905,0.27679571428571426,0.5813885714285715,19,19,"NIGHT_CLEAR,NIGHT_MOSTLY_CLOUDY,NIGHT_MOSTLY_CLOUDY,NIGHT_MOSTLY_CLOUDY,NIGHT_MOSTLY_CLOUDY,MOSTLY_CLOUDY,MOSTLY_CLOUDY,MOSTLY_CLOUDY,MOSTLY_CLOUDY,CLEAR,CLEAR,CLEAR,CLEAR,CLEAR","Onshore,Onshore,Onshore,Cross-shore,Offshore,Cross-shore,Onshore,Onshore,Onshore,Onshore,Onshore,Onshore,Onshore,Onshore",14
5842041f4e65fad6a770882b,2024_07_03,33.5930302087,-117.88199,The Wedge,2.3452380952380953,0.81435,1.2094242857142856,19,19,"NIGHT_MOSTLY_CLOUDY,NIGHT_MOSTLY_CLOUDY,NIGHT_MOSTLY_CLOUDY,NIGHT_CLEAR,NIGHT_MOSTLY_CLOUDY,MOSTLY_CLOUDY,MOSTLY_CLOUDY,MOSTLY_CLOUDY,CLEAR,CLEAR,CLEAR,CLEAR,CLEAR,CLEAR","Onshore,Onshore,Onshore,Onshore,Cross-shore,Cross-shore,Offshore,Onshore,Onshore,Onshore,Onshore,Onshore,Onshore,Onshore",14
5842041f4e65fad6a770882e,2024_07_03,33.475793399792984,-117.72291,Salt Creek,2.869047619047619,0.5220635714285714,0.8946735714285714,19,19,"NIGHT_MIST,NIGHT_MIST,NIGHT_MIST,NIGHT_MIST,NIGHT_MIST,MOSTLY_CLOUDY,CLEAR,MOSTLY_CLOUDY,MIST,MIST,MIST,MIST,MIST,MIST","Onshore,Onshore,Onshore,Onshore,Onshore,Onshore,Onshore,Onshore,Onshore,Onshore,Onshore,Onshore,Onshore,Onshore",14
5842041f4e65fad6a7708830,2024_07_03,33.41800974113613,-117.61952,T-Street,2.392857142857143,0.5080764285714285,0.8142571428571428,19,19,"NIGHT_MOSTLY_CLOUDY,NIGHT_MIST,NIGHT_MIST,NIGHT_MIST,NIGHT_CLEAR,MIST,MIST,MIST,MIST,MIST,BRIEF_SHOWERS,BRIEF_SHOWERS,BRIEF_SHOWERS,BRIEF_SHOWERS","Onshore,Cross-shore,Cross-shore,Cross-shore,Cross-shore,Cross-shore,Cross-shore,Onshore,Onshore,Onshore,Onshore,Onshore,Onshore,Onshore",14
5842041f4e65fad6a7708832,2024_07_03,33.202391008646,-117.39475,Oceanside Harbor,2.5595238095238093,0.48985,0.8658285714285714,21,21,"NIGHT_MIST,NIGHT_MIST,NIGHT_MIST,NIGHT_BRIEF_SHOWERS,NIGHT_MIST,MIST,MIST,MIST,MIST,MIST,MIST,MIST,MIST,MOSTLY_CLOUDY","Onshore,Cross-shore,Cross-shore,Cross-shore,Cross-shore,Onshore,Onshore,Onshore,Onshore,Onshore,Onshore,Onshore,Onshore,Onshore",14
5842041f4e65fad6a7708835,2024_07_03,33.19477795952803,-117.38667,Oceanside Pier,2.4523809523809526,0.4608021428571428,0.7644478571428571,21,21,"NIGHT_MOSTLY_CLOUDY,NIGHT_MOSTLY_CLOUDY,NIGHT_MOSTLY_CLOUDY,NIGHT_MOSTLY_CLOUDY,NIGHT_BRIEF_SHOWERS,MIST,OVERCAST,OVERCAST,MOSTLY_CLOUDY,MOSTLY_CLOUDY,BRIEF_SHOWERS,BRIEF_SHOWERS,BRIEF_SHOWERS,BRIEF_SHOWERS","Onshore,Cross-shore,Cross-shore,Cross-shore,Cross-shore,Cross-shore,Cross-shore,Onshore,Onshore,Onshore,Onshore,Onshore,Onshore,Onshore",14
5842041f4e65fad6a7708837,2024_07_03,33.14948100706,-117.35029,Tamarack,2.2857142857142856,0.31142857142857144,0.6135714285714285,21,21,"NIGHT_MIST,NIGHT_MOSTLY_CLOUDY,NIGHT_MIST,NIGHT_MIST,NIGHT_MIST,MIST,MIST,MIST,MIST,MIST,MIST,MIST,MOSTLY_CLOUDY,MOSTLY_CLOUDY","Onshore,Offshore,Offshore,Offshore,Offshore,Offshore,Offshore,Offshore,Onshore,Onshore,Onshore,Onshore,Onshore,Onshore",14
5842041f4e65fad6a7708839,2024_07_03,32.865777159358856,-117.25614,Scripps,2.7023809523809526,0.7312928571428572,1.0354142857142858,20.714285714285715,20.714285714285715,"NIGHT_MIST,NIGHT_MIST,NIGHT_MIST,NIGHT_MIST,NIGHT_MIST,MIST,MIST,MIST,MIST,MIST,MIST,MIST,MIST,MIST","Onshore,Onshore,Onshore,Onshore,Onshore,Onshore,Onshore,Onshore,Onshore,Onshore,Onshore,Onshore,Onshore,Onshore",14
5842041f4e65fad6a770883a,2024_07_03,32.813094,-117.27381,Birdrock,2.7857142857142856,0.475,0.7792857142857144,21,21,"NIGHT_MOSTLY_CLOUDY,NIGHT_MOSTLY_CLOUDY,NIGHT_MOSTLY_CLOUDY,NIGHT_BRIEF_SHOWERS,NIGHT_MIST,OVERCAST,OVERCAST,OVERCAST,MOSTLY_CLOUDY,MOSTLY_CLOUDY,CLEAR,CLEAR,CLEAR,CLEAR","Cross-shore,Offshore,Offshore,Offshore,Offshore,Offshore,Offshore,Cross-shore,Onshore,Cross-shore,Cross-shore,Cross-shore,Cross-shore,Cross-shore",14
5842041f4e65fad6a770883b,2024_07_03,32.877231,-117.25303,Blacks,3,0.7936742857142858,1.1000571428571428,20.714285714285715,20.714285714285715,"NIGHT_MIST,NIGHT_MIST,NIGHT_MIST,NIGHT_MIST,NIGHT_MIST,MIST,MIST,MIST,MIST,MIST,MIST,MIST,MIST,MIST","Onshore,Onshore,Onshore,Onshore,Onshore,Cross-shore,Cross-shore,Onshore,Onshore,Onshore,Onshore,Onshore,Onshore,Onshore",14
5842041f4e65fad6a770883c,2024_07_03,32.82978974229765,-117.28162,Windansea,2.4642857142857144,0.5938971428571429,0.9785614285714286,19,19,"NIGHT_MOSTLY_CLOUDY,NIGHT_MOSTLY_CLOUDY,NIGHT_MOSTLY_CLOUDY,NIGHT_MIST,NIGHT_MIST,MIST,OVERCAST,OVERCAST,MOSTLY_CLOUDY,MOSTLY_CLOUDY,MOSTLY_CLOUDY,MOSTLY_CLOUDY,MOSTLY_CLOUDY,MOSTLY_CLOUDY","Onshore,Onshore,Onshore,Cross-shore,Onshore,Onshore,Onshore,Onshore,Onshore,Onshore,Onshore,Onshore,Onshore,Onshore",14
5842041f4e65fad6a770883d,2024_07_03,32.838278,-117.28396,Horseshoe,2.357142857142857,0.5742857142857143,0.8792857142857143,21,21,"NIGHT_MOSTLY_CLOUDY,NIGHT_MOSTLY_CLOUDY,NIGHT_MOSTLY_CLOUDY,NIGHT_MOSTLY_CLOUDY,NIGHT_MIST,MIST,OVERCAST,OVERCAST,MOSTLY_CLOUDY,MOSTLY_CLOUDY,MOSTLY_CLOUDY,MOSTLY_CLOUDY,MOSTLY_CLOUDY,MOSTLY_CLOUDY","Onshore,Cross-shore,Cross-shore,Cross-shore,Onshore,Cross-shore,Cross-shore,Onshore,Onshore,Onshore,Onshore,Onshore,Onshore,Onshore",14
5842041f4e65fad6a770883f,2024_07_03,32.75034717673179,-117.25337,Ocean Beach,2.738095238095238,0.6224092857142858,1.0057042857142857,19,19,"NIGHT_MIST,NIGHT_MIST,NIGHT_MIST,NIGHT_MIST,NIGHT_MIST,MIST,MIST,MIST,MIST,MIST,MIST,BRIEF_SHOWERS,BRIEF_SHOWERS,BRIEF_SHOWERS","Onshore,Onshore,Onshore,Onshore,Onshore,Onshore,Onshore,Onshore,Onshore,Onshore,Onshore,Onshore,Onshore,Onshore",14
5842041f4e65fad6a7708840,2024_07_03,32.73693,-117.25718,Sunset Cliffs,2,0.4657142857142857,0.7692857142857144,21,21,"NIGHT_MOSTLY_CLOUDY,NIGHT_BRIEF_SHOWERS,NIGHT_MIST,NIGHT_MIST,NIGHT_MIST,MIST,MIST,OVERCAST,BRIEF_SHOWERS,MOSTLY_CLOUDY,CLEAR,MOSTLY_CLOUDY,MOSTLY_CLOUDY,BRIEF_SHOWERS","Onshore,Onshore,Onshore,Onshore,Onshore,Cross-shore,Onshore,Onshore,Onshore,Onshore,Onshore,Onshore,Onshore,Onshore",14
5842041f4e65fad6a7708841,2024_07_03,32.796582258728826,-117.25779,Pacific Beach,2.988095238095238,0.5959214285714286,0.9786807142857142,19,19,"NIGHT_MOSTLY_CLOUDY,NIGHT_MOSTLY_CLOUDY,NIGHT_MIST,NIGHT_MOSTLY_CLOUDY,NIGHT_MIST,MIST,MIST,MIST,MIST,CLEAR,CLEAR,MOSTLY_CLOUDY,MIST,MIST","Onshore,Offshore,Offshore,Offshore,Offshore,Offshore,Offshore,Cross-shore,Onshore,Cross-shore,Cross-shore,Cross-shore,Cross-shore,Cross-shore",14
5842041f4e65fad6a7708842,2024_07_03,32.776636,-117.25514,Mission Beach,2.607142857142857,0.5944928571428572,0.9811807142857143,19,19,"NIGHT_MOSTLY_CLOUDY,NIGHT_MOSTLY_CLOUDY,NIGHT_MIST,NIGHT_MIST,NIGHT_MIST,MIST,MIST,MIST,MIST,CLEAR,CLEAR,MOSTLY_CLOUDY,MIST,MIST","Onshore,Cross-shore,Cross-shore,Cross-shore,Cross-shore,Cross-shore,Cross-shore,Onshore,Onshore,Onshore,Onshore,Onshore,Onshore,Onshore",14
5842041f4e65fad6a7708844,2024_07_03,32.577195519016,-117.13475,Imperial Beach Pier,2.357142857142857,0.5492857142857144,0.855,21,21,"NIGHT_MOSTLY_CLOUDY,NIGHT_MIST,NIGHT_MIST,NIGHT_MIST,NIGHT_MIST,MIST,OVERCAST,MIST,MIST,MIST,MIST,MIST,MIST,MIST","Onshore,Onshore,Onshore,Onshore,Onshore,Onshore,Onshore,Onshore,Onshore,Onshore,Onshore,Onshore,Onshore,Onshore",14
5842041f4e65fad6a770884a,2024_07_03,42.88678181061,-70.80843,Seabrook,1.25,0.12983714285714285,0.3988121428571429,14.071428571428571,14.071428571428571,"NIGHT_CLEAR,NIGHT_CLEAR,NIGHT_MOSTLY_CLEAR,CLEAR,CLEAR,CLEAR,CLEAR,CLEAR,CLEAR,MIST,CLEAR,CLEAR,CLEAR,CLEAR","Offshore,Offshore,Offshore,Offshore,Offshore,Onshore,Onshore,Onshore,Onshore,Onshore,Onshore,Onshore,Onshore,Onshore",14
5842041f4e65fad6a770884e,2024_07_03,41.434181432898335,-71.45312,Narragansett,1,-0.00119,0.3014671428571429,19,19,"NIGHT_CLEAR,NIGHT_CLEAR,NIGHT_CLEAR,CLEAR,CLEAR,CLEAR,CLEAR,CLEAR,CLEAR,CLEAR,CLEAR,CLEAR,CLEAR,CLEAR","Onshore,Cross-shore,Cross-shore,Cross-shore,Onshore,Onshore,Onshore,Onshore,Onshore,Onshore,Onshore,Onshore,Onshore,Onshore",14
5842041f4e65fad6a7708850,2024_07_03,40.582703230722,-73.65247,Lincoln Blvd,0.9047619047619048,0.011667142857142857,0.313205,18.357142857142858,18.357142857142858,"NIGHT_CLEAR,NIGHT_CLEAR,NIGHT_CLEAR,CLEAR,CLEAR,CLEAR,MIST,MIST,BRIEF_SHOWERS_POSSIBLE,LIGHT_SHOWERS_POSSIBLE,LIGHT_SHOWERS_POSSIBLE,LIGHT_SHOWERS_POSSIBLE,LIGHT_SHOWERS_POSSIBLE,LIGHT_SHOWERS_POSSIBLE","Onshore,Onshore,Onshore,Onshore,Onshore,Onshore,Onshore,Onshore,Onshore,Onshore,Onshore,Onshore,Onshore,Onshore",14
5842041f4e65fad6a7708852,2024_07_03,40.58342841721757,-73.81182,Rockaways,0.9047619047619048,0.009761428571428572,0.31475214285714287,18.357142857142858,18.357142857142858,"NIGHT_CLEAR,NIGHT_CLEAR,NIGHT_CLEAR,CLEAR,CLEAR,CLEAR,MIST,MIST,MIST,MIST,MIST,MIST,MIST,MIST","Onshore,Onshore,Onshore,Onshore,Onshore,Onshore,Onshore,Onshore,Onshore,Onshore,Onshore,Onshore,Onshore,Onshore",14
5842041f4e65fad6a7708853,2024_07_03,40.330474,-73.9734,Monmouth Beach,1.3571428571428572,0.07226214285714286,0.37946214285714286,18.357142857142858,17.714285714285715,"NIGHT_CLEAR,NIGHT_CLEAR,NIGHT_CLEAR,MIST,CLEAR,MIST,MIST,MIST,CLEAR,CLEAR,CLEAR,CLEAR,CLEAR,CLEAR","Cross-shore,Cross-shore,Cross-shore,Cross-shore,Cross-shore,Cross-shore,Onshore,Onshore,Onshore,Onshore,Onshore,Onshore,Onshore,Onshore",14
5842041f4e65fad6a7708856,2024_07_03,40.113,-74.028,Manasquan Inlet,0.7261904761904762,0.06174285714285714,0.36654285714285717,18.357142857142858,17.714285714285715,"NIGHT_CLEAR,NIGHT_CLEAR,NIGHT_CLEAR,CLEAR,CLEAR,CLEAR,CLEAR,CLEAR,CLEAR,CLEAR,CLEAR,CLEAR,CLEAR,CLEAR","Offshore,Offshore,Offshore,Cross-shore,Offshore,Onshore,Onshore,Onshore,Onshore,Onshore,Cross-shore,Cross-shore,Cross-shore,Cross-shore",14
5842041f4e65fad6a7708857,2024_07_03,39.941519877445664,-74.06829,Casino Pier,0.9047619047619048,0.1198,0.42364785714285713,18.357142857142858,17.714285714285715,"NIGHT_CLEAR,NIGHT_CLEAR,NIGHT_CLEAR,CLEAR,MIST,MIST,MIST,MIST,MIST,MIST,BRIEF_SHOWERS_POSSIBLE,MIST,MIST,MIST","Onshore,Cross-shore,Onshore,Onshore,Cross-shore,Cross-shore,Onshore,Onshore,Onshore,Onshore,Onshore,Onshore,Onshore,Cross-shore",14
5842041f4e65fad6a7708858,2024_07_03,39.28223089949212,-74.55766,North End OC,1,0.11881,0.42510928571428575,17.357142857142858,17.357142857142858,"NIGHT_MIST,NIGHT_CLEAR,NIGHT_CLEAR,CLEAR,OVERCAST,OVERCAST,MIST,MIST,BRIEF_SHOWERS_POSSIBLE,BRIEF_SHOWERS_POSSIBLE,BRIEF_SHOWERS_POSSIBLE,BRIEF_SHOWERS_POSSIBLE,BRIEF_SHOWERS_POSSIBLE,BRIEF_SHOWERS_POSSIBLE","Onshore,Offshore,Cross-shore,Cross-shore,Onshore,Onshore,Onshore,Onshore,Onshore,Onshore,Onshore,Onshore,Onshore,Onshore",14
5842041f4e65fad6a770885b,2024_07_03,39.65080599934257,-74.17146,Ship Bottom,1.4166666666666667,0.23955714285714286,0.5424042857142857,17.357142857142858,17.357142857142858,"NIGHT_CLEAR,NIGHT_CLEAR,NIGHT_CLEAR,CLEAR,MIST,MIST,MIST,MIST,MIST,BRIEF_SHOWERS_POSSIBLE,BRIEF_SHOWERS_POSSIBLE,BRIEF_SHOWERS_POSSIBLE,BRIEF_SHOWERS_POSSIBLE,BRIEF_SHOWERS_POSSIBLE","Onshore,Onshore,Onshore,Onshore,Cross-shore,Cross-shore,Offshore,Offshore,Offshore,Offshore,Offshore,Offshore,Offshore,Offshore",14
5842041f4e65fad6a7708863,2024_07_03,36.034151543144,-75.66791,Third Street,2,0.5289807142857142,0.8843928571428572,19,19,"NIGHT_CLEAR,NIGHT_CLEAR,NIGHT_CLEAR,CLEAR,CLEAR,MOSTLY_CLEAR,MOSTLY_CLEAR,MOSTLY_CLEAR,MOSTLY_CLOUDY,MOSTLY_CLOUDY,CLEAR,MOSTLY_CLEAR,CLEAR,CLEAR","Onshore,Onshore,Cross-shore,Onshore,Onshore,Onshore,Onshore,Onshore,Onshore,Onshore,Cross-shore,Cross-shore,Onshore,Cross-shore",14
5842041f4e65fad6a7708867,2024_07_03,35.605833221351425,-75.46303,S-Turns,2.511904761904762,0.621495,1.0242671428571428,26,23,"NIGHT_MOSTLY_CLEAR,NIGHT_CLEAR,NIGHT_CLEAR,CLEAR,MOSTLY_CLEAR,MOSTLY_CLEAR,MOSTLY_CLEAR,CLEAR,MOSTLY_CLEAR,CLEAR,CLEAR,CLEAR,CLEAR,CLEAR","Onshore,Onshore,Onshore,Onshore,Onshore,Onshore,Onshore,Onshore,Cross-shore,Onshore,Onshore,Onshore,Onshore,Onshore",14
5842041f4e65fad6a770886d,2024_07_03,38.338461,-75.08117,Ocean City Boardwalk,1.0952380952380953,0.2509557142857143,0.5529414285714286,22,21,"NIGHT_MIST,NIGHT_CLEAR,NIGHT_CLEAR,CLEAR,OVERCAST,OVERCAST,MIST,MIST,CLEAR,CLEAR,CLEAR,CLEAR,CLEAR,CLEAR","Onshore,Cross-shore,Onshore,Onshore,Onshore,Onshore,Onshore,Onshore,Cross-shore,Cross-shore,Cross-shore,Cross-shore,Cross-shore,Cross-shore",14
5842041f4e65fad6a770886f,2024_07_03,29.844757212379562,-81.26136,A St.,1.7857142857142858,0.29928571428571427,0.6028571428571429,29,29,"NIGHT_MOSTLY_CLOUDY,NIGHT_MOSTLY_CLOUDY,NIGHT_MIST,NIGHT_SHOWERS,CLEAR,CLEAR,CLEAR,CLEAR,CLEAR,CLEAR,CLEAR,CLEAR,CLEAR,CLEAR","Onshore,Onshore,Onshore,Cross-shore,Cross-shore,Cross-shore,Onshore,Onshore,Onshore,Onshore,Onshore,Onshore,Onshore,Onshore",14
5842041f4e65fad6a7708871,2024_07_03,29.069417851135093,-80.90824,New Smyrna Beach,1.8928571428571428,0.7311671428571429,1.0375664285714286,29,28,"NIGHT_OVERCAST,NIGHT_MOSTLY_CLEAR,NIGHT_CLEAR,NIGHT_CLEAR,CLEAR,CLEAR,CLEAR,CLEAR,MOSTLY_CLEAR,MOSTLY_CLEAR,CLEAR,MOSTLY_CLEAR,CLEAR,CLEAR","Cross-shore,Cross-shore,Cross-shore,Cross-shore,Cross-shore,Cross-shore,Cross-shore,Onshore,Onshore,Onshore,Onshore,Onshore,Onshore,Onshore",14
5842041f4e65fad6a7708872,2024_07_03,28.367707417566,-80.60171,Cocoa Beach Pier,1,0.057380714285714285,0.3616142857142857,29,28,"NIGHT_CLEAR,NIGHT_CLEAR,NIGHT_CLEAR,NIGHT_CLEAR,CLEAR,CLEAR,CLEAR,CLEAR,CLEAR,CLEAR,CLEAR,CLEAR,CLEAR,CLEAR","Onshore,Cross-shore,Onshore,Onshore,Onshore,Onshore,Onshore,Onshore,Onshore,Onshore,Onshore,Onshore,Onshore,Onshore",14
5842041f4e65fad6a7708873,2024_07_03,28.091782738658846,-80.56479,Indialantic,1.0238095238095237,0.15197357142857143,0.45940714285714285,29,28,"NIGHT_MOSTLY_CLEAR,NIGHT_CLEAR,NIGHT_MOSTLY_CLEAR,NIGHT_CLEAR,CLEAR,CLEAR,MOSTLY_CLOUDY,MIST,CLEAR,CLEAR,CLEAR,CLEAR,CLEAR,CLEAR","Cross-shore,Cross-shore,Cross-shore,Cross-shore,Onshore,Onshore,Onshore,Onshore,Onshore,Onshore,Onshore,Onshore,Onshore,Onshore",14
5842041f4e65fad6a7708876,2024_07_03,27.25392904143517,-80.19455,Jensen Beach,0.6785714285714286,0.09852142857142857,0.3427521428571429,29,28,"NIGHT_CLEAR,NIGHT_MOSTLY_CLOUDY,NIGHT_MOSTLY_CLEAR,NIGHT_MOSTLY_CLOUDY,MOSTLY_CLOUDY,MOSTLY_CLOUDY,MOSTLY_CLOUDY,CLEAR,CLEAR,MOSTLY_CLEAR,MOSTLY_CLEAR,MOSTLY_CLEAR,CLEAR,CLEAR","Onshore,Cross-shore,Cross-shore,Cross-shore,Onshore,Onshore,Onshore,Onshore,Onshore,Onshore,Onshore,Onshore,Onshore,Onshore",14
5842041f4e65fad6a7708879,2024_07_03,26.76346795333825,-80.03607,Reef Road,0.6309523809523809,0.020714285714285716,0.24205714285714286,29,28,"NIGHT_CLEAR,NIGHT_CLEAR,NIGHT_CLEAR,NIGHT_CLEAR,CLEAR,CLEAR,CLEAR,CLEAR,CLEAR,CLEAR,CLEAR,CLEAR,CLEAR,CLEAR","Onshore,Onshore,Onshore,Onshore,Onshore,Onshore,Onshore,Onshore,Onshore,Onshore,Onshore,Onshore,Onshore,Onshore",14
5842041f4e65fad6a770887c,2024_07_03,26.336499228484,-80.06956100463,Boca Raton Inlet,0,0,0.2697092857142857,29,28,"NIGHT_CLEAR,NIGHT_CLEAR,NIGHT_CLEAR,NIGHT_CLEAR,CLEAR,CLEAR,CLEAR,CLEAR,CLEAR,CLEAR,CLEAR,CLEAR,CLEAR,CLEAR","Onshore,Onshore,Onshore,Onshore,Onshore,Onshore,Onshore,Onshore,Onshore,Onshore,Onshore,Onshore,Onshore,Onshore",14
5842041f4e65fad6a770887d,2024_07_03,26.31719311695038,-80.07453,Deerfield Beach Pier,0,0,0.15135214285714285,29,28,"NIGHT_CLEAR,NIGHT_CLEAR,NIGHT_CLEAR,NIGHT_CLEAR,CLEAR,CLEAR,CLEAR,CLEAR,CLEAR,CLEAR,CLEAR,CLEAR,CLEAR,CLEAR","Onshore,Onshore,Onshore,Onshore,Onshore,Onshore,Onshore,Onshore,Onshore,Onshore,Onshore,Onshore,Onshore,Onshore",14
5842041f4e65fad6a7708881,2024_07_03,30.20276320866628,-85.85626528676136,"Spyglass Dr., Panama City",0.4523809523809524,0,0.22727357142857144,30,28,"NIGHT_FOG,NIGHT_CLEAR,NIGHT_CLEAR,NIGHT_CLEAR,CLEAR,MIST,MIST,LIGHT_SHOWERS_POSSIBLE,CLEAR,CLEAR,CLEAR,CLEAR,CLEAR,CLEAR","Onshore,Onshore,Onshore,Onshore,Cross-shore,Cross-shore,Cross-shore,Cross-shore,Onshore,Onshore,Onshore,Onshore,Onshore,Onshore",14
5842041f4e65fad6a7708884,2024_07_03,33.39000832738053,-117.59852,Cottons,2.9047619047619047,0.6983142857142857,1.0120500000000001,19,19,"NIGHT_MOSTLY_CLOUDY,NIGHT_CLEAR,NIGHT_CLEAR,NIGHT_CLEAR,NIGHT_MOSTLY_CLOUDY,MIST,MIST,MOSTLY_CLOUDY,MOSTLY_CLOUDY,CLEAR,MOSTLY_CLOUDY,BRIEF_SHOWERS,MOSTLY_CLEAR,BRIEF_SHOWERS","Cross-shore,Cross-shore,Cross-shore,Cross-shore,Cross-shore,Offshore,Offshore,Cross-shore,Onshore,Onshore,Onshore,Onshore,Onshore,Onshore",14
5842041f4e65fad6a7708885,2024_07_03,33.359416282661,-117.54168,Trails,2.5714285714285716,0.32571428571428573,0.6314285714285715,21,21,"NIGHT_CLEAR,NIGHT_CLEAR,NIGHT_MIST,NIGHT_MIST,NIGHT_MIST,MIST,MIST,MOSTLY_CLOUDY,MOSTLY_CLOUDY,MOSTLY_CLOUDY,MOSTLY_CLOUDY,BRIEF_SHOWERS,BRIEF_SHOWERS,BRIEF_SHOWERS","Onshore,Offshore,Offshore,Offshore,Offshore,Offshore,Offshore,Offshore,Cross-shore,Onshore,Onshore,Onshore,Onshore,Onshore",14
5842041f4e65fad6a7708886,2024_07_03,33.38042605929805,-117.58332,Middles,2.9285714285714284,0.4592857142857143,0.7642857142857143,19,19,"NIGHT_MOSTLY_CLOUDY,NIGHT_CLEAR,NIGHT_CLEAR,NIGHT_CLEAR,NIGHT_MOSTLY_CLOUDY,MIST,MIST,MOSTLY_CLOUDY,MOSTLY_CLOUDY,CLEAR,MOSTLY_CLOUDY,BRIEF_SHOWERS,MOSTLY_CLEAR,BRIEF_SHOWERS","Onshore,Offshore,Offshore,Offshore,Cross-shore,Offshore,Offshore,Cross-shore,Onshore,Onshore,Onshore,Onshore,Onshore,Onshore",14
5842041f4e65fad6a7708887,2024_07_03,33.38445596302903,-117.59445,Upper Trestles,2.9404761904761907,0.6995642857142857,1.015145,19,19,"NIGHT_MOSTLY_CLOUDY,NIGHT_CLEAR,NIGHT_CLEAR,NIGHT_CLEAR,NIGHT_MOSTLY_CLOUDY,MIST,MIST,MOSTLY_CLOUDY,MOSTLY_CLOUDY,CLEAR,MOSTLY_CLOUDY,BRIEF_SHOWERS,MOSTLY_CLEAR,BRIEF_SHOWERS","Onshore,Offshore,Offshore,Offshore,Cross-shore,Offshore,Offshore,Cross-shore,Onshore,Onshore,Onshore,Onshore,Onshore,Onshore",14
5842041f4e65fad6a7708889,2024_07_03,28.944414,-95.28883,Surfside,1.0714285714285714,0.26890142857142857,0.42015928571428574,30,30,"NIGHT_MOSTLY_CLOUDY,NIGHT_CLEAR,NIGHT_CLEAR,NIGHT_CLEAR,MOSTLY_CLOUDY,MIST,CLEAR,MOSTLY_CLOUDY,MOSTLY_CLEAR,CLEAR,CLEAR,CLEAR,CLEAR,CLEAR","Onshore,Onshore,Onshore,Onshore,Cross-shore,Cross-shore,Cross-shore,Onshore,Onshore,Onshore,Onshore,Onshore,Onshore,Onshore",14
5842041f4e65fad6a770888a,2024_07_03,33.38143999849023,-117.58843,Lower Trestles,2.9642857142857144,0.705755,1.0843714285714285,19,19,"NIGHT_MOSTLY_CLOUDY,NIGHT_CLEAR,NIGHT_CLEAR,NIGHT_CLEAR,NIGHT_MOSTLY_CLOUDY,MIST,MIST,MOSTLY_CLOUDY,MOSTLY_CLOUDY,CLEAR,MOSTLY_CLOUDY,BRIEF_SHOWERS,MOSTLY_CLEAR,BRIEF_SHOWERS","Onshore,Offshore,Offshore,Offshore,Cross-shore,Offshore,Offshore,Cross-shore,Onshore,Onshore,Onshore,Onshore,Onshore,Onshore",14
5842041f4e65fad6a770888b,2024_07_03,33.379622288757,-117.57894,Church,2.857142857142857,0.5339785714285714,0.9124164285714286,19,19,"NIGHT_MOSTLY_CLOUDY,NIGHT_CLEAR,NIGHT_CLEAR,NIGHT_CLEAR,NIGHT_MOSTLY_CLOUDY,MIST,MIST,MOSTLY_CLOUDY,MOSTLY_CLOUDY,CLEAR,MOSTLY_CLOUDY,BRIEF_SHOWERS,MOSTLY_CLEAR,BRIEF_SHOWERS","Offshore,Offshore,Cross-shore,Cross-shore,Cross-shore,Offshore,Offshore,Offshore,Onshore,Onshore,Onshore,Onshore,Onshore,Onshore",14
5842041f4e65fad6a770888d,2024_07_03,21.679,-158.042,Sunset Beach,2.071428571428571,0.2989092857142857,0.6027,26,25,"CLEAR,NIGHT_CLEAR,NIGHT_BRIEF_SHOWERS,NIGHT_BRIEF_SHOWERS,NIGHT_MOSTLY_CLOUDY,NIGHT_MOSTLY_CLEAR,NIGHT_CLEAR,NIGHT_CLEAR,CLEAR,BRIEF_SHOWERS_POSSIBLE,MOSTLY_CLEAR,CLEAR,CLEAR,CLEAR","Cross-shore,Offshore,Offshore,Cross-shore,Offshore,Offshore,Offshore,Offshore,Offshore,Offshore,Offshore,Offshore,Cross-shore,Cross-shore",14
5842041f4e65fad6a770888e,2024_07_03,21.670550036401,-158.0482,Rocky Point,2.642857142857143,0.457105,0.7608957142857142,26,25,"CLEAR,NIGHT_CLEAR,NIGHT_MOSTLY_CLEAR,NIGHT_CLEAR,NIGHT_CLEAR,NIGHT_MOSTLY_CLOUDY,NIGHT_CLEAR,NIGHT_CLEAR,CLEAR,MOSTLY_CLEAR,CLEAR,CLEAR,CLEAR,CLEAR","Cross-shore,Cross-shore,Offshore,Cross-shore,Offshore,Offshore,Offshore,Offshore,Offshore,Cross-shore,Cross-shore,Offshore,Cross-shore,Cross-shore",14
5842041f4e65fad6a770888f,2024_07_03,21.668,-158.05,Chambers,2.2857142857142856,0.3342857142857143,0.6385714285714286,26,26,"CLEAR,NIGHT_CLEAR,NIGHT_MOSTLY_CLEAR,NIGHT_LIGHT_SHOWERS_POSSIBLE,NIGHT_CLEAR,NIGHT_MOSTLY_CLOUDY,NIGHT_CLEAR,NIGHT_CLEAR,CLEAR,MOSTLY_CLEAR,CLEAR,CLEAR,CLEAR,CLEAR","Cross-shore,Cross-shore,Offshore,Cross-shore,Offshore,Offshore,Cross-shore,Cross-shore,Offshore,Onshore,Cross-shore,Cross-shore,Cross-shore,Cross-shore",14
5842041f4e65fad6a7708890,2024_07_03,21.66522,-158.0526,Pipeline,1,0.11416714285714286,0.35677642857142855,26,25,"CLEAR,NIGHT_CLEAR,NIGHT_MOSTLY_CLEAR,NIGHT_LIGHT_SHOWERS_POSSIBLE,NIGHT_CLEAR,NIGHT_MOSTLY_CLOUDY,NIGHT_CLEAR,NIGHT_CLEAR,CLEAR,MOSTLY_CLEAR,CLEAR,CLEAR,CLEAR,CLEAR","Cross-shore,Cross-shore,Cross-shore,Cross-shore,Offshore,Offshore,Offshore,Offshore,Offshore,Cross-shore,Cross-shore,Offshore,Cross-shore,Cross-shore",14
5842041f4e65fad6a7708891,2024_07_03,21.665,-158.054,Backdoor,1.5833333333333333,0.11345285714285715,0.3560621428571428,26,25,"CLEAR,NIGHT_CLEAR,NIGHT_MOSTLY_CLEAR,NIGHT_CLEAR,NIGHT_CLEAR,NIGHT_MOSTLY_CLOUDY,NIGHT_CLEAR,NIGHT_CLEAR,CLEAR,MOSTLY_CLEAR,CLEAR,CLEAR,CLEAR,CLEAR","Cross-shore,Cross-shore,Cross-shore,Cross-shore,Offshore,Offshore,Offshore,Cross-shore,Offshore,Cross-shore,Cross-shore,Offshore,Cross-shore,Cross-shore",14
5842041f4e65fad6a7708892,2024_07_03,21.662,-158.057,Rockpile,2.5,0.35,0.6542857142857144,26,26,"CLEAR,NIGHT_CLEAR,NIGHT_MOSTLY_CLEAR,NIGHT_CLEAR,NIGHT_CLEAR,NIGHT_MOSTLY_CLOUDY,NIGHT_CLEAR,NIGHT_CLEAR,CLEAR,MOSTLY_CLEAR,CLEAR,CLEAR,CLEAR,CLEAR","Cross-shore,Cross-shore,Offshore,Cross-shore,Offshore,Offshore,Cross-shore,Offshore,Offshore,Cross-shore,Cross-shore,Offshore,Cross-shore,Cross-shore",14
5842041f4e65fad6a7708893,2024_07_03,21.65870453806827,-158.06058,Log Cabins,1.3571428571428572,0.13214285714285715,0.435,26,26,"CLEAR,NIGHT_CLEAR,NIGHT_MOSTLY_CLEAR,NIGHT_CLEAR,NIGHT_CLEAR,NIGHT_MOSTLY_CLOUDY,NIGHT_CLEAR,NIGHT_CLEAR,CLEAR,MOSTLY_CLEAR,CLEAR,CLEAR,CLEAR,CLEAR","Cross-shore,Cross-shore,Cross-shore,Cross-shore,Offshore,Offshore,Offshore,Cross-shore,Offshore,Cross-shore,Cross-shore,Offshore,Cross-shore,Cross-shore",14
5842041f4e65fad6a7708894,2024_07_03,21.66203493640557,-158.05495,Off-The-Wall,2,0.24642857142857144,0.5507142857142857,26,26,"CLEAR,NIGHT_CLEAR,NIGHT_MOSTLY_CLEAR,NIGHT_CLEAR,NIGHT_CLEAR,NIGHT_MOSTLY_CLOUDY,NIGHT_CLEAR,NIGHT_CLEAR,CLEAR,MOSTLY_CLEAR,CLEAR,CLEAR,CLEAR,CLEAR","Cross-shore,Cross-shore,Offshore,Cross-shore,Offshore,Offshore,Offshore,Cross-shore,Offshore,Onshore,Cross-shore,Offshore,Cross-shore,Cross-shore",14
5842041f4e65fad6a7708895,2024_07_03,21.643,-158.067,Waimea Bay,NA,0.14702357142857142,0.3945142857142857,26,25,"CLEAR,NIGHT_CLEAR,NIGHT_MOSTLY_CLEAR,NIGHT_CLEAR,NIGHT_CLEAR,NIGHT_MOSTLY_CLOUDY,NIGHT_CLEAR,NIGHT_CLEAR,CLEAR,MOSTLY_CLEAR,CLEAR,CLEAR,CLEAR,CLEAR","Cross-shore,Offshore,Offshore,Offshore,Offshore,Offshore,Offshore,Offshore,Offshore,Offshore,Offshore,Offshore,Cross-shore,Cross-shore",14
5842041f4e65fad6a7708896,2024_07_03,21.622,-158.087,Hultin's,1.8214285714285714,0.43293857142857145,0.7367285714285714,26,25,"CLEAR,NIGHT_CLEAR,NIGHT_MOSTLY_CLEAR,NIGHT_CLEAR,NIGHT_CLEAR,NIGHT_CLEAR,NIGHT_MOSTLY_CLEAR,NIGHT_CLEAR,MOSTLY_CLEAR,CLEAR,CLEAR,CLEAR,CLEAR,CLEAR","Offshore,Offshore,Offshore,Offshore,Offshore,Offshore,Offshore,Offshore,Offshore,Offshore,Offshore,Offshore,Offshore,Offshore",14
5842041f4e65fad6a7708897,2024_07_03,21.623,-158.085,Jocko's,2,0.19642857142857142,0.5007142857142858,26,26,"CLEAR,NIGHT_CLEAR,NIGHT_MOSTLY_CLEAR,NIGHT_CLEAR,NIGHT_CLEAR,NIGHT_CLEAR,NIGHT_MOSTLY_CLEAR,NIGHT_CLEAR,MOSTLY_CLEAR,CLEAR,CLEAR,CLEAR,CLEAR,CLEAR","Onshore,Onshore,Onshore,Onshore,Onshore,Onshore,Onshore,Cross-shore,Cross-shore,Cross-shore,Cross-shore,Cross-shore,Cross-shore,Cross-shore",14
5842041f4e65fad6a7708898,2024_07_03,21.62,-158.088,Laniakea,2.142857142857143,0.4394857142857143,0.7454185714285715,26,25,"CLEAR,NIGHT_CLEAR,NIGHT_MOSTLY_CLEAR,NIGHT_CLEAR,NIGHT_CLEAR,NIGHT_CLEAR,NIGHT_MOSTLY_CLEAR,NIGHT_CLEAR,MOSTLY_CLEAR,CLEAR,CLEAR,CLEAR,CLEAR,CLEAR","Cross-shore,Cross-shore,Cross-shore,Cross-shore,Cross-shore,Cross-shore,Cross-shore,Offshore,Offshore,Offshore,Offshore,Offshore,Offshore,Offshore",14
5842041f4e65fad6a7708899,2024_07_03,21.625,-158.083,Chun's,1.0714285714285714,0.24714285714285714,0.5507142857142857,26,26,"CLEAR,NIGHT_CLEAR,NIGHT_MOSTLY_CLEAR,NIGHT_CLEAR,NIGHT_CLEAR,NIGHT_CLEAR,NIGHT_MOSTLY_CLEAR,NIGHT_CLEAR,MOSTLY_CLEAR,CLEAR,CLEAR,CLEAR,CLEAR,CLEAR","Offshore,Offshore,Offshore,Cross-shore,Offshore,Offshore,Offshore,Offshore,Offshore,Offshore,Offshore,Offshore,Offshore,Offshore",14
5842041f4e65fad6a770889c,2024_07_03,21.286357895152136,-157.8515,South Shore - Ala Moana Park,3,0.8992857142857142,1.0978571428571429,26,26,"CLEAR,NIGHT_CLEAR,NIGHT_CLEAR,NIGHT_MOSTLY_CLEAR,NIGHT_CLEAR,NIGHT_CLEAR,NIGHT_CLEAR,NIGHT_MOSTLY_CLEAR,MOSTLY_CLOUDY,CLEAR,CLEAR,MOSTLY_CLOUDY,MOSTLY_CLOUDY,CLEAR","Offshore,Offshore,Offshore,Offshore,Offshore,Offshore,Offshore,Offshore,Offshore,Offshore,Offshore,Offshore,Offshore,Offshore",14
5842041f4e65fad6a770889d,2024_07_03,19.606,-155.978,Banyans,2.2857142857142856,0.5676192857142858,0.8725,26,25,"MOSTLY_CLOUDY,NIGHT_MOSTLY_CLEAR,NIGHT_SHOWERS,NIGHT_MOSTLY_CLEAR,NIGHT_MOSTLY_CLEAR,NIGHT_MOSTLY_CLEAR,NIGHT_MOSTLY_CLEAR,NIGHT_MOSTLY_CLEAR,CLEAR,CLEAR,CLEAR,CLEAR,CLEAR,CLEAR","Cross-shore,Cross-shore,Cross-shore,Cross-shore,Onshore,Onshore,Offshore,Cross-shore,Offshore,Offshore,Onshore,Onshore,Onshore,Onshore",14
5842041f4e65fad6a770889e,2024_07_03,20.029,-155.831,Kawaihae,2,0.4444,0.55337,27,27,"FOG,NIGHT_CLEAR,NIGHT_CLEAR,NIGHT_MOSTLY_CLEAR,NIGHT_CLEAR,NIGHT_CLEAR,NIGHT_CLEAR,NIGHT_CLEAR,CLEAR,CLEAR,CLEAR,CLEAR,CLEAR,CLEAR","Onshore,Onshore,Offshore,Offshore,Offshore,Offshore,Offshore,Offshore,Offshore,Offshore,Onshore,Onshore,Onshore,Onshore",14
5842041f4e65fad6a770889f,2024_07_03,33.07541383424675,-117.3105,Grandview,2.0714285714285716,0.35285714285714287,0.6557142857142857,21,21,"NIGHT_MIST,NIGHT_MIST,NIGHT_MIST,NIGHT_MIST,NIGHT_MIST,MIST,MIST,MIST,MIST,MIST,MIST,MOSTLY_CLOUDY,MOSTLY_CLOUDY,MOSTLY_CLOUDY","Onshore,Onshore,Onshore,Onshore,Cross-shore,Cross-shore,Cross-shore,Onshore,Onshore,Onshore,Onshore,Onshore,Onshore,Onshore",14
5842041f4e65fad6a77088a0,2024_07_03,33.065267421296596,-117.30577,Beacons,2.357142857142857,0.33714285714285713,0.6407142857142857,21.714285714285715,21.714285714285715,"NIGHT_MIST,NIGHT_MIST,NIGHT_MIST,NIGHT_MIST,NIGHT_MIST,MIST,MIST,MIST,MIST,MIST,MIST,MOSTLY_CLOUDY,MOSTLY_CLOUDY,MOSTLY_CLOUDY","Onshore,Onshore,Onshore,Onshore,Cross-shore,Cross-shore,Cross-shore,Onshore,Onshore,Onshore,Onshore,Onshore,Onshore,Onshore",14
5842041f4e65fad6a77088a2,2024_07_03,21.252,-157.805,Diamond Head,3,0.8415900000000001,1.2039914285714286,26,25,"CLEAR,NIGHT_CLEAR,NIGHT_MOSTLY_CLEAR,NIGHT_MOSTLY_CLEAR,NIGHT_CLEAR,NIGHT_MOSTLY_CLOUDY,NIGHT_MOSTLY_CLEAR,NIGHT_MOSTLY_CLEAR,CLEAR,CLEAR,CLEAR,MOSTLY_CLOUDY,MOSTLY_CLOUDY,CLEAR","Offshore,Offshore,Cross-shore,Cross-shore,Cross-shore,Cross-shore,Cross-shore,Cross-shore,Cross-shore,Cross-shore,Cross-shore,Cross-shore,Cross-shore,Cross-shore",14
5842041f4e65fad6a77088a3,2024_07_03,33.04694255008896,-117.29966,Moonlight State Beach,2.7142857142857144,0.3407142857142857,0.6457142857142857,21.714285714285715,21.714285714285715,"NIGHT_MIST,NIGHT_MIST,NIGHT_MIST,NIGHT_MIST,NIGHT_MIST,MIST,MIST,MIST,MIST,MIST,MIST,MOSTLY_CLOUDY,MIST,MIST","Onshore,Cross-shore,Onshore,Onshore,Onshore,Cross-shore,Onshore,Onshore,Onshore,Onshore,Onshore,Onshore,Onshore,Onshore",14
5842041f4e65fad6a77088a5,2024_07_03,33.08685865930869,-117.31532,Ponto,2.642857142857143,0.46714285714285714,0.7728571428571429,21,21,"NIGHT_MIST,NIGHT_MIST,NIGHT_MIST,NIGHT_MIST,NIGHT_MIST,MIST,MIST,MIST,MIST,MIST,MIST,MOSTLY_CLOUDY,MOSTLY_CLOUDY,MOSTLY_CLOUDY","Onshore,Onshore,Onshore,Onshore,Cross-shore,Offshore,Onshore,Onshore,Onshore,Onshore,Onshore,Onshore,Onshore,Onshore",14
5842041f4e65fad6a77088a6,2024_07_03,33.130343587871906,-117.33668,Terra Mar Point,2.107142857142857,0.2587642857142857,0.6340878571428572,20,20,"NIGHT_MOSTLY_CLOUDY,NIGHT_MOSTLY_CLOUDY,NIGHT_MOSTLY_CLOUDY,NIGHT_MOSTLY_CLOUDY,NIGHT_MOSTLY_CLOUDY,MOSTLY_CLOUDY,OVERCAST,OVERCAST,MOSTLY_CLOUDY,MOSTLY_CLOUDY,BRIEF_SHOWERS,MOSTLY_CLOUDY,MOSTLY_CLOUDY,MOSTLY_CLOUDY","Onshore,Offshore,Offshore,Offshore,Offshore,Offshore,Cross-shore,Offshore,Onshore,Onshore,Onshore,Onshore,Onshore,Onshore",14
5842041f4e65fad6a77088af,2024_07_03,32.95916304183685,-117.26963,Del Mar,2.5714285714285716,0.5014285714285714,0.8057142857142857,21.714285714285715,21.714285714285715,"NIGHT_MIST,NIGHT_MIST,NIGHT_MIST,NIGHT_MIST,NIGHT_MIST,MIST,MIST,MIST,MIST,MIST,MIST,MOSTLY_CLOUDY,MOSTLY_CLOUDY,MOSTLY_CLOUDY","Onshore,Cross-shore,Cross-shore,Onshore,Onshore,Onshore,Cross-shore,Onshore,Cross-shore,Onshore,Onshore,Onshore,Onshore,Onshore",14
5842041f4e65fad6a77088b0,2024_07_03,32.97527261243354,-117.2721061331305,Del Mar Rivermouth,2.642857142857143,0.46785714285714286,0.7728571428571429,21.714285714285715,21.714285714285715,"NIGHT_MIST,NIGHT_MIST,NIGHT_MIST,NIGHT_MIST,NIGHT_MIST,MIST,MIST,MIST,MIST,MIST,MIST,MIST,MOSTLY_CLOUDY,MOSTLY_CLOUDY","Onshore,Onshore,Onshore,Onshore,Onshore,Onshore,Cross-shore,Onshore,Onshore,Onshore,Onshore,Onshore,Onshore,Onshore",14
5842041f4e65fad6a77088b1,2024_07_03,33.01352178146273,-117.28219,Cardiff Reef,2.4285714285714284,0.3788235714285714,0.6844335714285714,20,20,"NIGHT_MIST,NIGHT_MIST,NIGHT_MIST,NIGHT_MIST,NIGHT_MIST,MIST,MIST,MIST,MIST,MIST,MIST,MIST,MIST,MIST","Onshore,Offshore,Offshore,Offshore,Offshore,Offshore,Offshore,Offshore,Onshore,Onshore,Onshore,Onshore,Onshore,Onshore",14
5842041f4e65fad6a77088b3,2024_07_03,33.00211185876003,-117.2811,Seaside Reef,2.2857142857142856,0.45357142857142857,0.7578571428571429,21.714285714285715,21.714285714285715,"NIGHT_MIST,NIGHT_MIST,NIGHT_MIST,NIGHT_MIST,NIGHT_MIST,MIST,MIST,MIST,MIST,MIST,MIST,MIST,MIST,BRIEF_SHOWERS","Onshore,Onshore,Onshore,Onshore,Cross-shore,Cross-shore,Cross-shore,Cross-shore,Cross-shore,Onshore,Onshore,Onshore,Onshore,Onshore",14
5842041f4e65fad6a77088b4,2024_07_03,33.0341859796287,-117.29552,Swami's,2.607142857142857,0.3613235714285714,0.6669928571428572,20,20,"NIGHT_MIST,NIGHT_MIST,NIGHT_MIST,NIGHT_MIST,NIGHT_MIST,MIST,MIST,MIST,MIST,MIST,MIST,MIST,MIST,MIST","Onshore,Cross-shore,Onshore,Onshore,Onshore,Offshore,Cross-shore,Cross-shore,Onshore,Onshore,Onshore,Onshore,Onshore,Onshore",14
5842041f4e65fad6a77088b7,2024_07_03,33.04569760260221,-117.2994,D Street,2.7857142857142856,0.4,0.705,21.714285714285715,21.714285714285715,"NIGHT_MIST,NIGHT_MIST,NIGHT_MIST,NIGHT_MIST,NIGHT_MIST,MIST,MIST,MIST,MIST,MIST,MIST,MOSTLY_CLOUDY,MIST,MIST","Onshore,Cross-shore,Onshore,Onshore,Onshore,Cross-shore,Onshore,Cross-shore,Onshore,Onshore,Onshore,Onshore,Onshore,Onshore",14
5842041f4e65fad6a77088b8,2024_07_03,33.02090944350196,-117.28535,San Elijo State Beach,1.9404761904761905,0.2528114285714286,0.5562785714285714,20,20,"NIGHT_MIST,NIGHT_MIST,NIGHT_MIST,NIGHT_MIST,NIGHT_MIST,MIST,MIST,MIST,MIST,MIST,MIST,MIST,MIST,MIST","Onshore,Offshore,Offshore,Offshore,Offshore,Offshore,Offshore,Offshore,Cross-shore,Cross-shore,Onshore,Onshore,Onshore,Onshore",14
5842041f4e65fad6a77088c2,2024_07_03,32.80662846492798,-117.26888,PB Point,2.7142857142857144,0.48,0.7835714285714286,21,21,"NIGHT_MOSTLY_CLOUDY,NIGHT_MOSTLY_CLOUDY,NIGHT_MOSTLY_CLOUDY,NIGHT_MOSTLY_CLOUDY,NIGHT_MIST,OVERCAST,OVERCAST,OVERCAST,MOSTLY_CLOUDY,MOSTLY_CLOUDY,CLEAR,CLEAR,CLEAR,CLEAR","Cross-shore,Offshore,Cross-shore,Offshore,Offshore,Offshore,Offshore,Cross-shore,Cross-shore,Cross-shore,Cross-shore,Cross-shore,Cross-shore,Cross-shore",14
5842041f4e65fad6a77088c4,2024_07_03,32.8060476681448,-117.26479,Old Man's at Tourmaline,2.642857142857143,0.37214285714285716,0.6778571428571428,21,21,"NIGHT_MOSTLY_CLOUDY,NIGHT_MOSTLY_CLOUDY,NIGHT_MOSTLY_CLOUDY,NIGHT_MOSTLY_CLOUDY,NIGHT_MIST,OVERCAST,OVERCAST,OVERCAST,MOSTLY_CLOUDY,MOSTLY_CLOUDY,CLEAR,CLEAR,CLEAR,CLEAR","Cross-shore,Offshore,Offshore,Offshore,Offshore,Offshore,Offshore,Cross-shore,Cross-shore,Cross-shore,Cross-shore,Cross-shore,Cross-shore,Cross-shore",14
5842041f4e65fad6a77088cb,2024_07_03,32.557056711256,-117.1327445020322,Tijuana Slough,2.357142857142857,0.3507142857142857,0.6571428571428571,21,21,"NIGHT_MOSTLY_CLOUDY,NIGHT_MIST,NIGHT_MIST,NIGHT_MOSTLY_CLOUDY,NIGHT_MIST,MIST,OVERCAST,MIST,MOSTLY_CLOUDY,MIST,MOSTLY_CLOUDY,MIST,BRIEF_SHOWERS,MIST","Onshore,Cross-shore,Cross-shore,Cross-shore,Cross-shore,Cross-shore,Cross-shore,Onshore,Onshore,Onshore,Onshore,Onshore,Onshore,Onshore",14
5842041f4e65fad6a77088cc,2024_07_03,32.863,-117.257,La Jolla Shores,2,0.4114285714285714,0.7157142857142857,21.714285714285715,21.714285714285715,"NIGHT_MIST,NIGHT_MIST,NIGHT_MIST,NIGHT_MIST,NIGHT_MIST,MIST,MIST,MIST,MIST,MIST,MIST,MIST,MIST,MIST","Onshore,Onshore,Onshore,Onshore,Onshore,Onshore,Onshore,Onshore,Onshore,Onshore,Onshore,Onshore,Onshore,Onshore",14
5842041f4e65fad6a77088ce,2024_07_03,32.67443657790586,-117.17421,Coronado Beach,1.7857142857142858,0.2742857142857143,0.5785714285714286,21,21,"NIGHT_MIST,NIGHT_MOSTLY_CLOUDY,NIGHT_MOSTLY_CLOUDY,NIGHT_MOSTLY_CLOUDY,NIGHT_MIST,MOSTLY_CLOUDY,MOSTLY_CLOUDY,MOSTLY_CLOUDY,MOSTLY_CLOUDY,CLEAR,CLEAR,CLEAR,CLEAR,CLEAR","Cross-shore,Cross-shore,Cross-shore,Offshore,Cross-shore,Offshore,Offshore,Cross-shore,Cross-shore,Cross-shore,Cross-shore,Cross-shore,Cross-shore,Cross-shore",14
5842041f4e65fad6a77088cf,2024_07_03,33.40484417640326,-117.60749,San Clemente State Beach,2.142857142857143,0.2957142857142857,0.6014285714285714,21,21,"NIGHT_MOSTLY_CLOUDY,NIGHT_MOSTLY_CLOUDY,NIGHT_MOSTLY_CLOUDY,NIGHT_CLEAR,NIGHT_MOSTLY_CLOUDY,MOSTLY_CLOUDY,MOSTLY_CLOUDY,MOSTLY_CLOUDY,MOSTLY_CLOUDY,CLEAR,CLEAR,CLEAR,CLEAR,CLEAR","Onshore,Cross-shore,Cross-shore,Cross-shore,Cross-shore,Cross-shore,Cross-shore,Onshore,Onshore,Onshore,Onshore,Onshore,Onshore,Onshore",14
5842041f4e65fad6a77088d5,2024_07_03,33.4663042002114,-117.7168352817103,Strands,2.357142857142857,0.5018857142857143,0.8768164285714286,19,19,"NIGHT_MIST,NIGHT_MIST,NIGHT_MIST,NIGHT_MIST,NIGHT_MIST,MOSTLY_CLOUDY,CLEAR,MOSTLY_CLOUDY,MIST,MIST,MIST,MIST,MIST,MIST","Onshore,Cross-shore,Cross-shore,Onshore,Cross-shore,Onshore,Onshore,Onshore,Onshore,Onshore,Onshore,Onshore,Onshore,Onshore",14
5842041f4e65fad6a77088d7,2024_07_03,33.4609858001748,-117.68535,Doheny State Beach,2.0595238095238093,0.06266357142857143,0.36866642857142856,19,19,"NIGHT_MOSTLY_CLOUDY,NIGHT_CLEAR,NIGHT_CLEAR,NIGHT_CLEAR,NIGHT_MOSTLY_CLOUDY,MOSTLY_CLOUDY,MOSTLY_CLOUDY,MOSTLY_CLOUDY,MOSTLY_CLOUDY,CLEAR,CLEAR,CLEAR,CLEAR,CLEAR","Onshore,Cross-shore,Cross-shore,Cross-shore,Cross-shore,Cross-shore,Cross-shore,Onshore,Onshore,Onshore,Onshore,Onshore,Onshore,Onshore",14
5842041f4e65fad6a77088dc,2024_07_03,33.50894790083017,-117.75243,Aliso Creek,2,0.31642857142857145,0.6235714285714286,21,21,"NIGHT_MIST,NIGHT_MIST,NIGHT_MIST,NIGHT_MIST,NIGHT_MIST,MOSTLY_CLOUDY,MIST,MIST,MIST,MIST,BRIEF_SHOWERS,BRIEF_SHOWERS,BRIEF_SHOWERS,BRIEF_SHOWERS","Onshore,Cross-shore,Cross-shore,Cross-shore,Cross-shore,Cross-shore,Cross-shore,Cross-shore,Onshore,Onshore,Onshore,Onshore,Onshore,Onshore",14
5842041f4e65fad6a77088dd,2024_07_03,33.5326591767067,-117.77764,Brooks Street,1.7857142857142858,0.19714285714285715,0.5021428571428571,21,21,"NIGHT_MIST,NIGHT_MIST,NIGHT_MIST,NIGHT_MIST,NIGHT_MOSTLY_CLOUDY,MOSTLY_CLOUDY,MOSTLY_CLOUDY,MOSTLY_CLOUDY,MIST,MIST,MIST,BRIEF_SHOWERS,MIST,BRIEF_SHOWERS","Cross-shore,Cross-shore,Cross-shore,Cross-shore,Cross-shore,Cross-shore,Cross-shore,Cross-shore,Onshore,Onshore,Onshore,Onshore,Onshore,Onshore",14
5842041f4e65fad6a77088de,2024_07_03,33.53561225884637,-117.7799,Thalia Street,1.7857142857142858,0.1692857142857143,0.4735714285714286,21,21,"NIGHT_MIST,NIGHT_MIST,NIGHT_MIST,NIGHT_MOSTLY_CLOUDY,NIGHT_MOSTLY_CLOUDY,MOSTLY_CLOUDY,MOSTLY_CLOUDY,MOSTLY_CLOUDY,MIST,MIST,MIST,BRIEF_SHOWERS,MIST,BRIEF_SHOWERS","Cross-shore,Cross-shore,Cross-shore,Cross-shore,Cross-shore,Cross-shore,Cross-shore,Cross-shore,Cross-shore,Cross-shore,Onshore,Onshore,Onshore,Onshore",14
5842041f4e65fad6a77088e3,2024_07_03,33.54268310353641,-117.7916,Rockpile,1.7857142857142858,0.19714285714285715,0.5021428571428571,21,21,"NIGHT_MIST,NIGHT_MIST,NIGHT_MIST,NIGHT_MIST,NIGHT_MOSTLY_CLOUDY,MOSTLY_CLOUDY,MOSTLY_CLOUDY,MOSTLY_CLOUDY,MIST,MIST,MIST,BRIEF_SHOWERS,MIST,BRIEF_SHOWERS","Cross-shore,Cross-shore,Cross-shore,Cross-shore,Offshore,Cross-shore,Cross-shore,Cross-shore,Cross-shore,Cross-shore,Cross-shore,Onshore,Onshore,Onshore",14
5842041f4e65fad6a77088e4,2024_07_03,33.7368459504689,-118.10342,"Seal Beach Pier, Southside",1.8571428571428572,0.11928571428571429,0.425,20,20,"NIGHT_CLEAR,NIGHT_MIST,NIGHT_MIST,NIGHT_MIST,NIGHT_CLEAR,CLEAR,CLEAR,CLEAR,MIST,MIST,MIST,MIST,MIST,MIST","Onshore,Onshore,Cross-shore,Cross-shore,Offshore,Offshore,Cross-shore,Cross-shore,Onshore,Onshore,Onshore,Onshore,Onshore,Onshore",14
5842041f4e65fad6a77088e5,2024_07_03,33.73933701820233,-118.117,Ray Bay,2,0.2835714285714286,0.5878571428571429,20,20,"NIGHT_CLEAR,NIGHT_CLEAR,NIGHT_CLEAR,NIGHT_CLEAR,NIGHT_CLEAR,CLEAR,CLEAR,CLEAR,MOSTLY_CLEAR,CLEAR,CLEAR,CLEAR,CLEAR,CLEAR","Onshore,Onshore,Cross-shore,Cross-shore,Offshore,Offshore,Cross-shore,Cross-shore,Onshore,Onshore,Onshore,Onshore,Onshore,Onshore",14
5842041f4e65fad6a77088e7,2024_07_03,33.728733,-118.08982,Surfside,0.9285714285714286,0,0.24714285714285714,20,20,"NIGHT_CLEAR,NIGHT_BRIEF_SHOWERS,NIGHT_MOSTLY_CLEAR,NIGHT_MOSTLY_CLEAR,NIGHT_MOSTLY_CLEAR,CLEAR,CLEAR,CLEAR,MOSTLY_CLEAR,MOSTLY_CLEAR,MOSTLY_CLEAR,BRIEF_SHOWERS,BRIEF_SHOWERS,BRIEF_SHOWERS","Cross-shore,Onshore,Cross-shore,Cross-shore,Offshore,Offshore,Cross-shore,Cross-shore,Onshore,Onshore,Onshore,Onshore,Onshore,Onshore",14
5842041f4e65fad6a77088e8,2024_07_03,33.68760321488161,-118.04236,Bolsa Chica State Beach,1.869047619047619,0.3069142857142857,0.6116857142857143,17,17,"NIGHT_CLEAR,NIGHT_MOSTLY_CLOUDY,NIGHT_CLEAR,NIGHT_CLEAR,NIGHT_MOSTLY_CLOUDY,MOSTLY_CLOUDY,MOSTLY_CLOUDY,MOSTLY_CLEAR,MOSTLY_CLEAR,CLEAR,CLEAR,CLEAR,CLEAR,CLEAR","Onshore,Onshore,Onshore,Onshore,Onshore,Onshore,Onshore,Onshore,Onshore,Onshore,Onshore,Onshore,Onshore,Onshore",14
5842041f4e65fad6a77088ea,2024_07_03,33.66704400178788,-118.0192,North HB Streets,2.1666666666666665,0.5371385714285715,0.8423257142857142,17,17,"NIGHT_CLEAR,NIGHT_MOSTLY_CLOUDY,NIGHT_MOSTLY_CLOUDY,NIGHT_MOSTLY_CLOUDY,NIGHT_MOSTLY_CLOUDY,MOSTLY_CLOUDY,MOSTLY_CLOUDY,MOSTLY_CLOUDY,MOSTLY_CLEAR,MOSTLY_CLEAR,MOSTLY_CLEAR,MOSTLY_CLEAR,CLEAR,CLEAR","Onshore,Onshore,Cross-shore,Cross-shore,Onshore,Onshore,Onshore,Onshore,Onshore,Onshore,Onshore,Onshore,Onshore,Onshore",14
5842041f4e65fad6a77088ed,2024_07_03,33.65475101379567,-118.00291,Huntington Beach Pier Southside,2.5238095238095237,0.7120871428571428,1.0243114285714285,18,18,"NIGHT_CLEAR,NIGHT_MOSTLY_CLOUDY,NIGHT_MOSTLY_CLOUDY,NIGHT_MOSTLY_CLOUDY,NIGHT_MOSTLY_CLOUDY,MOSTLY_CLOUDY,MOSTLY_CLOUDY,MOSTLY_CLOUDY,MOSTLY_CLEAR,MOSTLY_CLEAR,MOSTLY_CLEAR,MOSTLY_CLEAR,CLEAR,CLEAR","Onshore,Onshore,Cross-shore,Cross-shore,Onshore,Onshore,Onshore,Onshore,Onshore,Onshore,Onshore,Onshore,Onshore,Onshore",14
5842041f4e65fad6a77088ee,2024_07_03,33.62778647706099,-117.95939,River Jetties,2.511904761904762,0.5446614285714286,0.9309142857142857,19,19,"NIGHT_CLEAR,NIGHT_MOSTLY_CLOUDY,NIGHT_MOSTLY_CLOUDY,NIGHT_MOSTLY_CLOUDY,NIGHT_MOSTLY_CLOUDY,MOSTLY_CLOUDY,MOSTLY_CLOUDY,MOSTLY_CLOUDY,MOSTLY_CLOUDY,CLEAR,CLEAR,CLEAR,CLEAR,CLEAR","Onshore,Onshore,Onshore,Onshore,Onshore,Onshore,Onshore,Onshore,Onshore,Onshore,Onshore,Onshore,Onshore,Onshore",14
5842041f4e65fad6a77088f2,2024_07_03,33.605165797643664,-117.925,Newport Point,2.0714285714285716,0.3192857142857143,0.6235714285714286,20,20,"NIGHT_MIST,NIGHT_MIST,NIGHT_MIST,NIGHT_MIST,NIGHT_MIST,MIST,MIST,MIST,MIST,MIST,BRIEF_SHOWERS,BRIEF_SHOWERS,BRIEF_SHOWERS,BRIEF_SHOWERS","Onshore,Cross-shore,Cross-shore,Cross-shore,Cross-shore,Cross-shore,Cross-shore,Cross-shore,Onshore,Onshore,Onshore,Onshore,Onshore,Onshore",14
5842041f4e65fad6a77088f3,2024_07_03,33.58982984726977,-117.87713,Corona del Mar,2,0.23857142857142857,0.5421428571428571,20.285714285714285,20.285714285714285,"NIGHT_CLEAR,NIGHT_MIST,NIGHT_BRIEF_SHOWERS,NIGHT_MIST,NIGHT_MIST,MIST,MIST,MIST,MIST,MIST,MIST,MIST,MIST,BRIEF_SHOWERS","Onshore,Onshore,Onshore,Onshore,Onshore,Onshore,Offshore,Onshore,Onshore,Onshore,Onshore,Onshore,Onshore,Onshore",14
5842041f4e65fad6a77088f7,2024_07_03,34.00750300824362,-118.4971783496269,Santa Monica Pier,1.7142857142857142,0.15714285714285714,0.46071428571428574,19.714285714285715,19.714285714285715,"NIGHT_CLEAR,NIGHT_CLEAR,NIGHT_CLEAR,NIGHT_MOSTLY_CLEAR,NIGHT_MOSTLY_CLOUDY,MOSTLY_CLOUDY,MOSTLY_CLOUDY,MOSTLY_CLOUDY,CLEAR,CLEAR,CLEAR,CLEAR,CLEAR,CLEAR","Onshore,Onshore,Onshore,Onshore,Onshore,Onshore,Onshore,Onshore,Onshore,Onshore,Onshore,Onshore,Onshore,Onshore",14
5842041f4e65fad6a77088ff,2024_07_03,33.94070283102945,-118.44321,Dockweiler Beach,1.9285714285714286,0.37397857142857144,0.6751592857142857,19,19,"NIGHT_BRIEF_SHOWERS,NIGHT_MIST,NIGHT_BRIEF_SHOWERS,NIGHT_BRIEF_SHOWERS,NIGHT_BRIEF_SHOWERS,MIST,MIST,MIST,MIST,BRIEF_SHOWERS,BRIEF_SHOWERS,BRIEF_SHOWERS,BRIEF_SHOWERS,BRIEF_SHOWERS","Onshore,Onshore,Onshore,Onshore,Onshore,Onshore,Onshore,Onshore,Onshore,Onshore,Onshore,Onshore,Onshore,Onshore",14
5842041f4e65fad6a7708900,2024_07_03,33.9231846937237,-118.4341465777908,Shitpipe,2.0595238095238093,0.41594285714285717,0.7214092857142858,19,19,"NIGHT_MIST,NIGHT_MIST,NIGHT_BRIEF_SHOWERS,NIGHT_BRIEF_SHOWERS,NIGHT_BRIEF_SHOWERS,MIST,MIST,MIST,MIST,MIST,MIST,MIST,MIST,MIST","Onshore,Onshore,Onshore,Onshore,Onshore,Onshore,Onshore,Onshore,Onshore,Onshore,Onshore,Onshore,Onshore,Onshore",14
5842041f4e65fad6a7708902,2024_07_03,33.9108528052242,-118.4279133138721,Hammerland,2.25,0.41594285714285717,0.7214092857142858,19,19,"NIGHT_MIST,NIGHT_MIST,NIGHT_BRIEF_SHOWERS,NIGHT_BRIEF_SHOWERS,NIGHT_BRIEF_SHOWERS,MIST,MIST,MIST,MIST,MIST,MIST,MIST,MIST,MIST","Onshore,Onshore,Onshore,Onshore,Onshore,Onshore,Onshore,Onshore,Onshore,Onshore,Onshore,Onshore,Onshore,Onshore",14
5842041f4e65fad6a7708904,2024_07_03,33.87201368173932,-118.40752,Hermosa Beach,2.0714285714285716,0.3374307142857143,0.6405764285714286,19,19,"NIGHT_BRIEF_SHOWERS,NIGHT_MIST,NIGHT_MIST,NIGHT_MIST,NIGHT_MIST,MIST,MIST,MIST,MIST,MIST,MIST,MIST,MIST,MIST","Onshore,Onshore,Onshore,Onshore,Onshore,Onshore,Onshore,Onshore,Onshore,Onshore,Onshore,Onshore,Onshore,Onshore",14
5842041f4e65fad6a7708906,2024_07_03,33.90129336911256,-118.42184,El Porto,2.2976190476190474,0.41594285714285717,0.7214092857142858,19,19,"NIGHT_MIST,NIGHT_MIST,NIGHT_MIST,NIGHT_MIST,NIGHT_MIST,MIST,MIST,MIST,BRIEF_SHOWERS,BRIEF_SHOWERS,BRIEF_SHOWERS,BRIEF_SHOWERS,BRIEF_SHOWERS,BRIEF_SHOWERS","Onshore,Onshore,Onshore,Onshore,Onshore,Onshore,Onshore,Onshore,Onshore,Onshore,Onshore,Onshore,Onshore,Onshore",14
5842041f4e65fad6a7708907,2024_07_03,33.87963506431794,-118.41102,Manhattan Beach Pier,2.2142857142857144,0.36475214285714286,0.6680764285714286,19,19,"NIGHT_MIST,NIGHT_MIST,NIGHT_MIST,NIGHT_BRIEF_SHOWERS,NIGHT_MIST,MIST,MIST,MIST,BRIEF_SHOWERS,BRIEF_SHOWERS,BRIEF_SHOWERS,BRIEF_SHOWERS,BRIEF_SHOWERS,BRIEF_SHOWERS","Onshore,Onshore,Onshore,Onshore,Onshore,Onshore,Onshore,Onshore,Onshore,Onshore,Onshore,Onshore,Onshore,Onshore",14
5842041f4e65fad6a7708914,2024_07_03,34.038053387863464,-118.5532,Sunset Point,2,0.07214285714285715,0.3742857142857143,19.714285714285715,19.714285714285715,"NIGHT_MIST,NIGHT_MOSTLY_CLEAR,NIGHT_MIST,NIGHT_MIST,NIGHT_MIST,MIST,MIST,MIST,MIST,MIST,MIST,MIST,MIST,MIST","Onshore,Cross-shore,Offshore,Onshore,Cross-shore,Offshore,Offshore,Onshore,Onshore,Cross-shore,Onshore,Onshore,Onshore,Cross-shore",14
5842041f4e65fad6a7708920,2024_07_03,33.80282,-118.39989,Haggerty's,1.8571428571428572,0.15028571428571427,0.39485714285714285,20,20,"NIGHT_MIST,NIGHT_MIST,NIGHT_MIST,NIGHT_BRIEF_SHOWERS,NIGHT_BRIEF_SHOWERS,BRIEF_SHOWERS,BRIEF_SHOWERS,BRIEF_SHOWERS,MIST,MIST,BRIEF_SHOWERS,BRIEF_SHOWERS,BRIEF_SHOWERS,BRIEF_SHOWERS","Onshore,Onshore,Onshore,Onshore,Onshore,Onshore,Onshore,Onshore,Onshore,Onshore,Onshore,Onshore,Onshore,Onshore",14
5842041f4e65fad6a7708921,2024_07_03,33.85044519861206,-118.40048,Redondo Breakwater,2.2142857142857144,0.31142857142857144,0.615,20,20,"NIGHT_BRIEF_SHOWERS,NIGHT_MIST,NIGHT_MIST,NIGHT_MIST,NIGHT_MIST,MIST,MIST,MIST,MIST,MIST,MIST,MIST,MIST,MIST","Onshore,Onshore,Onshore,Onshore,Onshore,Onshore,Onshore,Onshore,Onshore,Onshore,Onshore,Onshore,Onshore,Onshore",14
5842041f4e65fad6a7708927,2024_07_03,33.70877301002487,-118.2840112858389,Cabrillo Beach,1.9285714285714286,0.09071428571428572,0.39571428571428574,20,20,"NIGHT_CLEAR,NIGHT_CLEAR,NIGHT_CLEAR,NIGHT_CLEAR,NIGHT_CLEAR,CLEAR,CLEAR,CLEAR,CLEAR,CLEAR,CLEAR,CLEAR,CLEAR,CLEAR","Offshore,Offshore,Cross-shore,Cross-shore,Offshore,Offshore,Offshore,Offshore,Onshore,Onshore,Cross-shore,Cross-shore,Onshore,Offshore",14
5842041f4e65fad6a770892c,2024_07_03,33.77209986806257,-118.4268428476672,Lunada Bay,1,0.2571428571428571,0.5642857142857143,20,20,"NIGHT_BRIEF_SHOWERS,NIGHT_MIST,NIGHT_MIST,NIGHT_MIST,NIGHT_MIST,BRIEF_SHOWERS,BRIEF_SHOWERS,BRIEF_SHOWERS,MIST,BRIEF_SHOWERS,MIST,MIST,MIST,MIST","Cross-shore,Cross-shore,Cross-shore,Cross-shore,Cross-shore,Cross-shore,Cross-shore,Cross-shore,Onshore,Onshore,Onshore,Onshore,Onshore,Onshore",14
5842041f4e65fad6a770892d,2024_07_03,33.79294656286144,-118.40703,PV Cove,1.8571428571428572,0.18785714285714286,0.49357142857142855,20,20,"NIGHT_MIST,NIGHT_MIST,NIGHT_MIST,NIGHT_BRIEF_SHOWERS,NIGHT_BRIEF_SHOWERS,BRIEF_SHOWERS,BRIEF_SHOWERS,BRIEF_SHOWERS,MIST,MIST,BRIEF_SHOWERS,BRIEF_SHOWERS,BRIEF_SHOWERS,BRIEF_SHOWERS","Onshore,Onshore,Onshore,Onshore,Onshore,Onshore,Onshore,Onshore,Onshore,Onshore,Onshore,Onshore,Onshore,Onshore",14
5842041f4e65fad6a7708930,2024_07_03,34.03944902292561,-118.57539,Chart House,0,0,0.11,19.714285714285715,19.714285714285715,"NIGHT_CLEAR,NIGHT_CLEAR,NIGHT_CLEAR,NIGHT_CLEAR,NIGHT_CLEAR,CLEAR,CLEAR,CLEAR,CLEAR,CLEAR,CLEAR,CLEAR,CLEAR,CLEAR","Onshore,Cross-shore,Offshore,Onshore,Offshore,Offshore,Offshore,Cross-shore,Cross-shore,Cross-shore,Cross-shore,Cross-shore,Cross-shore,Cross-shore",14
5842041f4e65fad6a7708936,2024_07_03,34.0016731994772,-118.80456,Point Dume,1.8452380952380953,0.05972857142857143,0.36606428571428573,19,19,"NIGHT_MIST,NIGHT_MOSTLY_CLOUDY,NIGHT_MOSTLY_CLOUDY,NIGHT_BRIEF_SHOWERS,NIGHT_MIST,MIST,MIST,MIST,MIST,MIST,MIST,MIST,MIST,MIST","Cross-shore,Cross-shore,Offshore,Offshore,Offshore,Cross-shore,Cross-shore,Cross-shore,Cross-shore,Cross-shore,Cross-shore,Cross-shore,Cross-shore,Cross-shore",14
5842041f4e65fad6a7708937,2024_07_03,34.02587527588963,-118.7554939066114,Latigo Point,2,0.20357142857142857,0.51,19,19,"NIGHT_CLEAR,NIGHT_MOSTLY_CLOUDY,NIGHT_MOSTLY_CLOUDY,NIGHT_MOSTLY_CLOUDY,NIGHT_MOSTLY_CLOUDY,MOSTLY_CLOUDY,MOSTLY_CLOUDY,MIST,MIST,MIST,MIST,MIST,MIST,MIST","Offshore,Offshore,Offshore,Offshore,Offshore,Offshore,Offshore,Offshore,Onshore,Cross-shore,Onshore,Onshore,Onshore,Onshore",14
5842041f4e65fad6a770893f,2024_07_03,34.043762,-118.93294,Leo Carrillo,1.9880952380952381,0.3579428571428571,0.6605285714285715,17,17,"NIGHT_MOSTLY_CLOUDY,NIGHT_MOSTLY_CLOUDY,NIGHT_MOSTLY_CLOUDY,NIGHT_MOSTLY_CLOUDY,NIGHT_MOSTLY_CLOUDY,MOSTLY_CLOUDY,MOSTLY_CLOUDY,MOSTLY_CLOUDY,BRIEF_SHOWERS,MIST,BRIEF_SHOWERS,MIST,MIST,MIST","Cross-shore,Onshore,Onshore,Cross-shore,Cross-shore,Offshore,Offshore,Cross-shore,Onshore,Onshore,Onshore,Onshore,Onshore,Onshore",14
5842041f4e65fad6a7708941,2024_07_03,36.69388179265737,-121.81289,Marina State Beach,2.9285714285714284,1.1492857142857142,1.4535714285714285,14,14,"NIGHT_BRIEF_SHOWERS,NIGHT_MIST,NIGHT_MIST,NIGHT_MIST,NIGHT_MIST,MOSTLY_CLEAR,MOSTLY_CLEAR,MOSTLY_CLEAR,CLEAR,CLEAR,CLEAR,CLEAR,CLEAR,CLEAR","Onshore,Onshore,Onshore,Onshore,Onshore,Offshore,Offshore,Offshore,Cross-shore,Cross-shore,Onshore,Onshore,Onshore,Onshore",14
5842041f4e65fad6a7708944,2024_07_03,34.34145077331085,-119.416999352654,Stanley's,2,0.03571428571428571,0.34071428571428575,18,18,"NIGHT_CLEAR,NIGHT_CLEAR,NIGHT_CLEAR,NIGHT_CLEAR,NIGHT_CLEAR,CLEAR,CLEAR,CLEAR,CLEAR,CLEAR,CLEAR,CLEAR,CLEAR,CLEAR","Offshore,Offshore,Cross-shore,Offshore,Offshore,Cross-shore,Cross-shore,Onshore,Onshore,Onshore,Onshore,Onshore,Onshore,Onshore",14
5842041f4e65fad6a7708945,2024_07_03,34.35113017313915,-119.426921498899,Oil Piers,2,0.03571428571428571,0.34071428571428575,18,18,"NIGHT_CLEAR,NIGHT_CLEAR,NIGHT_CLEAR,NIGHT_CLEAR,NIGHT_CLEAR,CLEAR,CLEAR,CLEAR,CLEAR,CLEAR,CLEAR,CLEAR,CLEAR,CLEAR","Onshore,Offshore,Offshore,Offshore,Offshore,Offshore,Offshore,Offshore,Onshore,Onshore,Onshore,Onshore,Onshore,Onshore",14
5842041f4e65fad6a770894c,2024_07_03,34.17876333306018,-119.23995,Oxnard,2.4285714285714284,0.3771428571428571,0.6828571428571428,18,18,"NIGHT_CLEAR,NIGHT_MOSTLY_CLOUDY,NIGHT_MOSTLY_CLOUDY,NIGHT_MOSTLY_CLOUDY,NIGHT_MOSTLY_CLOUDY,MOSTLY_CLOUDY,MOSTLY_CLOUDY,MOSTLY_CLOUDY,CLEAR,CLEAR,CLEAR,CLEAR,CLEAR,CLEAR","Onshore,Onshore,Onshore,Onshore,Onshore,Onshore,Onshore,Onshore,Onshore,Onshore,Onshore,Onshore,Onshore,Onshore",14
5842041f4e65fad6a7708957,2024_07_03,34.31720331100517,-119.3882324751725,Pitas Point,2,0.13571428571428573,0.44142857142857145,18,18,"NIGHT_MOSTLY_CLEAR,NIGHT_MOSTLY_CLEAR,NIGHT_MOSTLY_CLEAR,NIGHT_MOSTLY_CLOUDY,NIGHT_MOSTLY_CLOUDY,MOSTLY_CLOUDY,MOSTLY_CLOUDY,MIST,MIST,MIST,MIST,MIST,MIST,BRIEF_SHOWERS","Offshore,Onshore,Onshore,Offshore,Onshore,Offshore,Offshore,Offshore,Offshore,Offshore,Cross-shore,Offshore,Offshore,Onshore",14
5842041f4e65fad6a7708959,2024_07_03,34.27851754384724,-119.3162,Emma Wood,2,0.2642857142857143,0.5678571428571428,18,18,"NIGHT_MIST,NIGHT_MOSTLY_CLEAR,NIGHT_MOSTLY_CLEAR,NIGHT_MOSTLY_CLOUDY,NIGHT_MOSTLY_CLOUDY,MOSTLY_CLOUDY,MOSTLY_CLOUDY,MIST,MIST,MIST,MIST,MIST,MIST,MIST","Onshore,Cross-shore,Onshore,Onshore,Offshore,Offshore,Onshore,Onshore,Onshore,Onshore,Onshore,Onshore,Onshore,Onshore",14
5842041f4e65fad6a770895a,2024_07_03,34.35513640390276,-119.4400589884255,Mussel Shoals (aka Little Rincon),2,0.05642857142857143,0.3628571428571428,18,18,"NIGHT_MOSTLY_CLEAR,NIGHT_MOSTLY_CLEAR,NIGHT_MOSTLY_CLEAR,NIGHT_MOSTLY_CLOUDY,NIGHT_MOSTLY_CLOUDY,MOSTLY_CLOUDY,MOSTLY_CLOUDY,MIST,MIST,MIST,MIST,MIST,MIST,MIST","Onshore,Onshore,Offshore,Cross-shore,Offshore,Offshore,Offshore,Offshore,Onshore,Onshore,Onshore,Onshore,Onshore,Onshore",14
5842041f4e65fad6a770895e,2024_07_03,34.28991757054902,-119.3366646794652,Summer Beach,1.9285714285714286,0.12071428571428572,0.425,18,18,"NIGHT_MIST,NIGHT_MOSTLY_CLEAR,NIGHT_MOSTLY_CLEAR,NIGHT_MOSTLY_CLOUDY,NIGHT_MOSTLY_CLOUDY,MOSTLY_CLOUDY,MOSTLY_CLOUDY,MIST,MIST,MIST,MIST,MIST,MIST,MIST","Onshore,Cross-shore,Onshore,Onshore,Offshore,Cross-shore,Onshore,Onshore,Onshore,Onshore,Onshore,Onshore,Onshore,Onshore",14
5842041f4e65fad6a770895f,2024_07_03,34.30897456105926,-119.3582501170116,Solimar,2,0.12071428571428572,0.425,18,18,"NIGHT_MOSTLY_CLEAR,NIGHT_MOSTLY_CLEAR,NIGHT_MOSTLY_CLEAR,NIGHT_MOSTLY_CLOUDY,NIGHT_MOSTLY_CLOUDY,MOSTLY_CLOUDY,MOSTLY_CLOUDY,MIST,MIST,MIST,MIST,MIST,MIST,BRIEF_SHOWERS","Onshore,Onshore,Onshore,Offshore,Onshore,Offshore,Offshore,Offshore,Offshore,Offshore,Cross-shore,Offshore,Offshore,Onshore",14
5842041f4e65fad6a7708960,2024_07_03,34.39836265281686,-119.70213,Leadbetter Point,0.8571428571428571,0,0.13214285714285715,17,17,"NIGHT_CLEAR,NIGHT_CLEAR,NIGHT_CLEAR,NIGHT_CLEAR,NIGHT_MOSTLY_CLOUDY,MOSTLY_CLOUDY,MOSTLY_CLOUDY,MOSTLY_CLOUDY,CLEAR,CLEAR,CLEAR,CLEAR,CLEAR,CLEAR","Offshore,Offshore,Onshore,Offshore,Offshore,Offshore,Offshore,Offshore,Onshore,Offshore,Offshore,Cross-shore,Cross-shore,Cross-shore",14
5842041f4e65fad6a7708961,2024_07_03,34.46052293893899,-120.07328,Refugio,1,0,0.2864285714285714,16,16,"NIGHT_CLEAR,NIGHT_CLEAR,NIGHT_CLEAR,NIGHT_CLEAR,NIGHT_CLEAR,CLEAR,CLEAR,CLEAR,CLEAR,CLEAR,CLEAR,CLEAR,CLEAR,CLEAR","Offshore,Cross-shore,Onshore,Offshore,Cross-shore,Cross-shore,Offshore,Onshore,Onshore,Onshore,Onshore,Onshore,Onshore,Cross-shore",14
5842041f4e65fad6a7708962,2024_07_03,34.40754276777778,-119.87639,Devereux,1,0,0.2692857142857143,17,17,"NIGHT_MIST,NIGHT_MOSTLY_CLOUDY,NIGHT_MOSTLY_CLOUDY,NIGHT_MIST,NIGHT_MOSTLY_CLOUDY,MOSTLY_CLOUDY,MOSTLY_CLOUDY,MOSTLY_CLOUDY,MOSTLY_CLOUDY,MIST,MIST,BRIEF_SHOWERS,BRIEF_SHOWERS,BRIEF_SHOWERS","Cross-shore,Onshore,Cross-shore,Cross-shore,Cross-shore,Cross-shore,Cross-shore,Cross-shore,Onshore,Onshore,Onshore,Cross-shore,Cross-shore,Cross-shore",14
5842041f4e65fad6a7708963,2024_07_03,34.27479983305182,-119.3133222656776,Ventura Overhead,2,0.265,0.5685714285714286,18,18,"NIGHT_MIST,NIGHT_MOSTLY_CLEAR,NIGHT_MOSTLY_CLEAR,NIGHT_MIST,NIGHT_MOSTLY_CLOUDY,MOSTLY_CLOUDY,MOSTLY_CLOUDY,MIST,MIST,BRIEF_SHOWERS,BRIEF_SHOWERS,BRIEF_SHOWERS,BRIEF_SHOWERS,BRIEF_SHOWERS","Onshore,Offshore,Onshore,Onshore,Offshore,Cross-shore,Onshore,Onshore,Onshore,Onshore,Onshore,Onshore,Onshore,Onshore",14
5842041f4e65fad6a7708964,2024_07_03,34.41023236011655,-119.88261,Sands,1,0,0.25857142857142856,17,17,"NIGHT_MIST,NIGHT_MOSTLY_CLOUDY,NIGHT_MOSTLY_CLOUDY,NIGHT_MIST,NIGHT_MOSTLY_CLOUDY,MOSTLY_CLOUDY,MOSTLY_CLOUDY,MOSTLY_CLOUDY,MOSTLY_CLOUDY,MIST,MIST,BRIEF_SHOWERS,BRIEF_SHOWERS,BRIEF_SHOWERS","Onshore,Onshore,Onshore,Onshore,Onshore,Onshore,Onshore,Onshore,Onshore,Onshore,Onshore,Onshore,Onshore,Onshore",14
5842041f4e65fad6a7708966,2024_07_03,34.40450193869233,-119.68752,Sandspit,0.35714285714285715,0,0.13214285714285715,17,17,"NIGHT_CLEAR,NIGHT_CLEAR,NIGHT_CLEAR,NIGHT_CLEAR,NIGHT_CLEAR,MOSTLY_CLOUDY,MOSTLY_CLOUDY,CLEAR,CLEAR,CLEAR,CLEAR,CLEAR,CLEAR,CLEAR","Offshore,Offshore,Onshore,Offshore,Offshore,Offshore,Offshore,Offshore,Offshore,Offshore,Offshore,Onshore,Cross-shore,Cross-shore",14
5842041f4e65fad6a7708967,2024_07_03,34.41549098334453,-119.6375149840203,Hammond's,1,0,0.23714285714285716,17,17,"NIGHT_CLEAR,NIGHT_CLEAR,NIGHT_CLEAR,NIGHT_CLEAR,NIGHT_MOSTLY_CLOUDY,MOSTLY_CLOUDY,MOSTLY_CLOUDY,MOSTLY_CLOUDY,MOSTLY_CLEAR,MOSTLY_CLEAR,CLEAR,CLEAR,CLEAR,CLEAR","Onshore,Onshore,Onshore,Onshore,Onshore,Onshore,Onshore,Onshore,Onshore,Onshore,Onshore,Onshore,Onshore,Onshore",14
5842041f4e65fad6a7708968,2024_07_03,34.45759322742309,-120.02203,El Capitan,1,0,0.28785714285714287,16,16,"NIGHT_CLEAR,NIGHT_MOSTLY_CLEAR,NIGHT_MOSTLY_CLEAR,NIGHT_MOSTLY_CLEAR,NIGHT_MOSTLY_CLOUDY,MOSTLY_CLOUDY,MOSTLY_CLOUDY,MOSTLY_CLOUDY,CLEAR,CLEAR,CLEAR,CLEAR,CLEAR,CLEAR","Onshore,Onshore,Cross-shore,Onshore,Onshore,Offshore,Offshore,Cross-shore,Onshore,Onshore,Onshore,Onshore,Cross-shore,Cross-shore",14
5842041f4e65fad6a770896c,2024_07_03,34.405117655616,-119.84317,Campus Point,1,0,0.25857142857142856,17,17,"NIGHT_CLEAR,NIGHT_CLEAR,NIGHT_CLEAR,NIGHT_CLEAR,NIGHT_MOSTLY_CLOUDY,MOSTLY_CLOUDY,MOSTLY_CLOUDY,MOSTLY_CLOUDY,CLEAR,CLEAR,CLEAR,CLEAR,CLEAR,CLEAR","Onshore,Onshore,Cross-shore,Cross-shore,Cross-shore,Cross-shore,Cross-shore,Onshore,Onshore,Onshore,Onshore,Onshore,Onshore,Cross-shore",14
5842041f4e65fad6a770896e,2024_07_03,34.38935162233354,-119.51955,Carpinteria State Beach,2,0.010714285714285714,0.31714285714285717,17,17,"NIGHT_CLEAR,NIGHT_MOSTLY_CLEAR,NIGHT_MOSTLY_CLEAR,NIGHT_MOSTLY_CLEAR,NIGHT_MOSTLY_CLOUDY,MOSTLY_CLOUDY,MOSTLY_CLOUDY,MOSTLY_CLOUDY,MIST,MIST,MIST,MIST,MIST,BRIEF_SHOWERS","Onshore,Offshore,Cross-shore,Onshore,Onshore,Onshore,Onshore,Onshore,Onshore,Onshore,Onshore,Onshore,Onshore,Onshore",14
5842041f4e65fad6a770896f,2024_07_03,37.48296565175612,-122.45493,Half Moon Bay,3,0.9664285714285714,1.207142857142857,13,13,"NIGHT_MOSTLY_CLEAR,NIGHT_MOSTLY_CLEAR,NIGHT_MOSTLY_CLEAR,NIGHT_CLEAR,NIGHT_CLEAR,MIST,CLEAR,CLEAR,CLEAR,CLEAR,MIST,MIST,MIST,MIST","Onshore,Onshore,Onshore,Offshore,Cross-shore,Cross-shore,Cross-shore,Onshore,Onshore,Onshore,Onshore,Onshore,Onshore,Onshore",14
5842041f4e65fad6a7708970,2024_07_03,37.499,-122.471,Princeton Jetty,3,0.7414285714285714,1.0085714285714285,13,13,"NIGHT_CLEAR,NIGHT_CLEAR,NIGHT_CLEAR,NIGHT_CLEAR,NIGHT_CLEAR,CLEAR,CLEAR,CLEAR,CLEAR,CLEAR,CLEAR,CLEAR,CLEAR,CLEAR","Cross-shore,Offshore,Offshore,Offshore,Offshore,Cross-shore,Cross-shore,Cross-shore,Onshore,Onshore,Onshore,Onshore,Onshore,Onshore",14
5842041f4e65fad6a7708972,2024_07_03,37.35699547365155,-122.4069534707252,Tunitas Creek,3,2.1357142857142857,2.349285714285714,14,14,"NIGHT_CLEAR,NIGHT_CLEAR,NIGHT_CLEAR,NIGHT_CLEAR,NIGHT_MIST,MIST,MIST,MIST,MIST,MIST,MIST,MIST,MIST,MIST","Cross-shore,Cross-shore,Onshore,Cross-shore,Onshore,Onshore,Cross-shore,Onshore,Onshore,Onshore,Onshore,Onshore,Onshore,Onshore",14
5842041f4e65fad6a7708974,2024_07_03,37.54735589428842,-122.51611,Montara,3,1.7257142857142858,2.012857142857143,13,13,"NIGHT_MIST,NIGHT_MIST,NIGHT_MIST,NIGHT_CLEAR,NIGHT_CLEAR,CLEAR,CLEAR,CLEAR,CLEAR,CLEAR,CLEAR,CLEAR,CLEAR,CLEAR","Cross-shore,Cross-shore,Cross-shore,Cross-shore,Cross-shore,Cross-shore,Offshore,Offshore,Cross-shore,Cross-shore,Cross-shore,Cross-shore,Cross-shore,Cross-shore",14
5842041f4e65fad6a7708975,2024_07_03,34.3869373724559,-119.5142334209018,Tarpits,2,0.020714285714285716,0.32571428571428573,17,17,"NIGHT_MOSTLY_CLEAR,NIGHT_MOSTLY_CLEAR,NIGHT_MOSTLY_CLEAR,NIGHT_MOSTLY_CLEAR,NIGHT_MOSTLY_CLOUDY,MOSTLY_CLOUDY,MOSTLY_CLEAR,MOSTLY_CLEAR,MOSTLY_CLEAR,CLEAR,CLEAR,CLEAR,CLEAR,CLEAR","Onshore,Cross-shore,Onshore,Onshore,Onshore,Onshore,Onshore,Onshore,Onshore,Onshore,Onshore,Onshore,Onshore,Onshore",14
5842041f4e65fad6a7708976,2024_07_03,37.59881852720143,-122.50463,Linda Mar,2.5595238095238093,0.6569528571428571,1.0357207142857143,12,12,"NIGHT_BRIEF_SHOWERS,NIGHT_BRIEF_SHOWERS,NIGHT_MIST,NIGHT_MIST,NIGHT_CLEAR,CLEAR,CLEAR,CLEAR,CLEAR,MIST,MIST,MIST,MIST,MIST","Onshore,Onshore,Onshore,Offshore,Cross-shore,Onshore,Onshore,Onshore,Onshore,Onshore,Onshore,Onshore,Onshore,Onshore",14
5842041f4e65fad6a7708978,2024_07_03,37.59883098461164,-122.5143843582282,Pedro Point,3,1.687857142857143,1.9735714285714285,13,13,"NIGHT_MIST,NIGHT_MIST,NIGHT_MIST,NIGHT_CLEAR,NIGHT_MIST,MIST,MIST,MIST,MIST,MIST,MIST,CLEAR,CLEAR,MIST","Cross-shore,Onshore,Offshore,Offshore,Cross-shore,Cross-shore,Cross-shore,Cross-shore,Onshore,Onshore,Cross-shore,Onshore,Onshore,Onshore",14
5842041f4e65fad6a7708979,2024_07_03,37.61081996647663,-122.49733,Rockaway,3,1.6407142857142858,1.897857142857143,13,13,"NIGHT_BRIEF_SHOWERS,NIGHT_BRIEF_SHOWERS,NIGHT_MIST,NIGHT_MIST,NIGHT_CLEAR,CLEAR,CLEAR,CLEAR,CLEAR,MIST,MIST,MIST,MIST,MIST","Onshore,Onshore,Onshore,Cross-shore,Onshore,Onshore,Onshore,Onshore,Offshore,Onshore,Onshore,Onshore,Onshore,Onshore",14
5842041f4e65fad6a770897a,2024_07_03,37.809987384424446,-122.47514,Fort Point,2.5,0.8557142857142856,1.14,13,13,"NIGHT_BRIEF_SHOWERS,NIGHT_BRIEF_SHOWERS,NIGHT_MIST,NIGHT_MIST,NIGHT_CLEAR,CLEAR,CLEAR,CLEAR,CLEAR,CLEAR,MIST,MIST,MIST,MIST","Cross-shore,Onshore,Cross-shore,Onshore,Onshore,Onshore,Onshore,Onshore,Onshore,Onshore,Onshore,Onshore,Onshore,Onshore",14
5842041f4e65fad6a770897c,2024_07_03,37.63422542967464,-122.4951,Sharp Park,2.7142857142857144,1.7571428571428571,2.0185714285714287,13,13,"NIGHT_BRIEF_SHOWERS,NIGHT_SHOWERS,NIGHT_BRIEF_SHOWERS,NIGHT_MIST,NIGHT_MIST,MIST,MIST,MIST,MIST,MIST,MIST,MIST,MIST,MIST","Onshore,Onshore,Onshore,Onshore,Onshore,Onshore,Onshore,Onshore,Cross-shore,Onshore,Onshore,Onshore,Onshore,Onshore",14
5842041f4e65fad6a770897d,2024_07_03,37.27313605072472,-122.4127387912554,Pescadero,3,2.0014285714285713,2.2664285714285715,13.714285714285714,13.714285714285714,"NIGHT_MIST,NIGHT_MOSTLY_CLOUDY,NIGHT_MOSTLY_CLOUDY,NIGHT_MOSTLY_CLOUDY,NIGHT_MIST,MIST,MIST,MIST,MIST,MIST,MIST,MIST,MIST,MIST","Onshore,Onshore,Onshore,Onshore,Cross-shore,Cross-shore,Cross-shore,Cross-shore,Cross-shore,Cross-shore,Onshore,Onshore,Onshore,Onshore",14
5842041f4e65fad6a770897e,2024_07_03,37.18140279972666,-122.3926685899327,Pigeon Point,3.2857142857142856,1.8571428571428572,2.1107142857142858,13.714285714285714,13.714285714285714,"NIGHT_MIST,NIGHT_MOSTLY_CLOUDY,NIGHT_MOSTLY_CLOUDY,NIGHT_MOSTLY_CLOUDY,NIGHT_MIST,MIST,MIST,MIST,MIST,CLEAR,CLEAR,CLEAR,CLEAR,CLEAR","Offshore,Offshore,Offshore,Offshore,Onshore,Onshore,Onshore,Onshore,Onshore,Onshore,Onshore,Onshore,Onshore,Onshore",14
5842041f4e65fad6a770897f,2024_07_03,37.11578956919415,-122.314699271291,Ano Nuevo,3.2142857142857144,1.2128571428571429,1.427142857142857,13.714285714285714,13.714285714285714,"NIGHT_CLEAR,NIGHT_MOSTLY_CLOUDY,NIGHT_MOSTLY_CLOUDY,NIGHT_MOSTLY_CLOUDY,NIGHT_MIST,MIST,MIST,MIST,MIST,MIST,CLEAR,CLEAR,CLEAR,CLEAR","Offshore,Offshore,Offshore,Onshore,Onshore,Onshore,Onshore,Onshore,Onshore,Onshore,Onshore,Onshore,Onshore,Onshore",14
5842041f4e65fad6a7708980,2024_07_03,37.09520872681598,-122.2805474707768,Waddell Creek,3,1.5607142857142857,1.7735714285714286,13.714285714285714,13.714285714285714,"NIGHT_CLEAR,NIGHT_CLEAR,NIGHT_CLEAR,NIGHT_CLEAR,NIGHT_MIST,MIST,MIST,MIST,MIST,MIST,CLEAR,CLEAR,CLEAR,CLEAR","Onshore,Cross-shore,Cross-shore,Offshore,Cross-shore,Onshore,Cross-shore,Onshore,Onshore,Onshore,Cross-shore,Onshore,Onshore,Onshore",14
5842041f4e65fad6a7708981,2024_07_03,36.96512852130351,-122.1252825495626,Four Mile,3,1.0057142857142858,1.2207142857142856,14,14,"NIGHT_MOSTLY_CLOUDY,NIGHT_MOSTLY_CLOUDY,NIGHT_MOSTLY_CLOUDY,NIGHT_MIST,NIGHT_MIST,MIST,MIST,MIST,CLEAR,CLEAR,CLEAR,MIST,MIST,CLEAR","Cross-shore,Offshore,Onshore,Offshore,Onshore,Offshore,Cross-shore,Cross-shore,Onshore,Onshore,Onshore,Onshore,Onshore,Onshore",14
5842041f4e65fad6a7708982,2024_07_03,37.04122807048655,-122.23337,Scott Creek,3,1.4242857142857144,1.6921428571428572,13.714285714285714,13.714285714285714,"NIGHT_CLEAR,NIGHT_CLEAR,NIGHT_CLEAR,NIGHT_CLEAR,NIGHT_MIST,MIST,MIST,MIST,CLEAR,CLEAR,CLEAR,CLEAR,CLEAR,CLEAR","Cross-shore,Offshore,Cross-shore,Onshore,Cross-shore,Cross-shore,Cross-shore,Cross-shore,Onshore,Cross-shore,Onshore,Onshore,Onshore,Onshore",14
5842041f4e65fad6a7708983,2024_07_03,37.02350229387179,-122.21908,Davenport,3.5714285714285716,1.2314285714285713,1.4657142857142857,13.714285714285714,13.714285714285714,"NIGHT_MOSTLY_CLOUDY,NIGHT_MOSTLY_CLOUDY,NIGHT_MOSTLY_CLOUDY,NIGHT_MOSTLY_CLEAR,NIGHT_MIST,MIST,MIST,MIST,CLEAR,CLEAR,CLEAR,CLEAR,CLEAR,CLEAR","Cross-shore,Offshore,Offshore,Onshore,Cross-shore,Cross-shore,Cross-shore,Onshore,Cross-shore,Onshore,Onshore,Onshore,Onshore,Onshore",14
5842041f4e65fad6a7708986,2024_07_03,36.94905295955728,-122.06118,Natural Bridges,3,0.9664285714285714,1.157142857142857,14,14,"NIGHT_CLEAR,NIGHT_CLEAR,NIGHT_CLEAR,NIGHT_CLEAR,NIGHT_CLEAR,CLEAR,CLEAR,CLEAR,CLEAR,CLEAR,CLEAR,CLEAR,CLEAR,CLEAR","Onshore,Onshore,Offshore,Cross-shore,Cross-shore,Cross-shore,Cross-shore,Offshore,Onshore,Onshore,Onshore,Onshore,Onshore,Onshore",14
5842041f4e65fad6a7708987,2024_07_03,36.95154854910425,-122.04207,Mitchell's Cove,2.9285714285714284,0.46499999999999997,0.7721428571428571,14,14,"NIGHT_CLEAR,NIGHT_CLEAR,NIGHT_CLEAR,NIGHT_CLEAR,NIGHT_CLEAR,CLEAR,CLEAR,CLEAR,CLEAR,CLEAR,CLEAR,CLEAR,CLEAR,CLEAR","Onshore,Onshore,Onshore,Onshore,Onshore,Cross-shore,Cross-shore,Onshore,Onshore,Onshore,Onshore,Onshore,Cross-shore,Onshore",14
5842041f4e65fad6a770898a,2024_07_03,36.9572312370203,-121.98177,26th Ave,2.7857142857142856,0.7614285714285715,1.0135714285714286,14,14,"NIGHT_CLEAR,NIGHT_CLEAR,NIGHT_CLEAR,NIGHT_CLEAR,NIGHT_CLEAR,CLEAR,CLEAR,CLEAR,CLEAR,CLEAR,CLEAR,CLEAR,CLEAR,CLEAR","Cross-shore,Cross-shore,Cross-shore,Offshore,Offshore,Offshore,Cross-shore,Cross-shore,Onshore,Onshore,Onshore,Onshore,Onshore,Onshore",14
5842041f4e65fad6a770898e,2024_07_03,36.91899972819882,-121.85536,Manresa,2.9285714285714284,0.9621428571428572,1.1942857142857144,14,14,"NIGHT_MIST,NIGHT_MOSTLY_CLEAR,NIGHT_MOSTLY_CLEAR,NIGHT_MIST,NIGHT_MOSTLY_CLEAR,MOSTLY_CLEAR,MOSTLY_CLEAR,MOSTLY_CLEAR,CLEAR,CLEAR,CLEAR,MIST,MIST,MIST","Onshore,Onshore,Onshore,Onshore,Onshore,Offshore,Offshore,Onshore,Onshore,Onshore,Onshore,Onshore,Onshore,Onshore",14
5842041f4e65fad6a7708990,2024_07_03,34.45747731928454,-120.34242,The Ranch,2,0.22857142857142856,0.5342857142857143,16,16,"NIGHT_CLEAR,NIGHT_CLEAR,NIGHT_MOSTLY_CLEAR,NIGHT_MOSTLY_CLOUDY,NIGHT_MOSTLY_CLOUDY,MOSTLY_CLOUDY,MOSTLY_CLOUDY,MOSTLY_CLOUDY,MOSTLY_CLOUDY,CLEAR,CLEAR,CLEAR,CLEAR,CLEAR","Onshore,Onshore,Cross-shore,Cross-shore,Offshore,Offshore,Offshore,Onshore,Onshore,Onshore,Onshore,Onshore,Onshore,Onshore",14
5842041f4e65fad6a7708991,2024_07_03,34.50875036590315,-120.50348,Jalama,2.2142857142857144,0.4878571428571429,0.7921428571428571,15,15,"NIGHT_CLEAR,NIGHT_MIST,NIGHT_MIST,NIGHT_MIST,NIGHT_MIST,MOSTLY_CLOUDY,MOSTLY_CLOUDY,MOSTLY_CLOUDY,MIST,MIST,MIST,MIST,BRIEF_SHOWERS,BRIEF_SHOWERS","Offshore,Cross-shore,Cross-shore,Cross-shore,Cross-shore,Cross-shore,Onshore,Onshore,Onshore,Onshore,Onshore,Onshore,Onshore,Onshore",14
5842041f4e65fad6a7708996,2024_07_03,34.68700870220497,-120.6111611019887,Surf Beach,3,1.5807142857142857,1.8857142857142857,15,15,"NIGHT_MIST,NIGHT_MOSTLY_CLEAR,NIGHT_MIST,NIGHT_MIST,NIGHT_MOSTLY_CLOUDY,BRIEF_SHOWERS,MOSTLY_CLOUDY,MOSTLY_CLOUDY,MIST,MIST,MIST,MIST,MIST,BRIEF_SHOWERS","Onshore,Onshore,Onshore,Onshore,Onshore,Cross-shore,Cross-shore,Cross-shore,Onshore,Onshore,Onshore,Onshore,Onshore,Onshore",14
5842041f4e65fad6a770899c,2024_07_03,35.5730538161116,-121.1143362345574,Moonstone,3,0.6992857142857143,0.9935714285714285,15,15,"NIGHT_MOSTLY_CLEAR,NIGHT_MOSTLY_CLOUDY,NIGHT_MOSTLY_CLOUDY,NIGHT_MOSTLY_CLOUDY,NIGHT_MOSTLY_CLEAR,MOSTLY_CLEAR,MOSTLY_CLEAR,MIST,MIST,MIST,MIST,MIST,BRIEF_SHOWERS,BRIEF_SHOWERS","Onshore,Onshore,Onshore,Cross-shore,Offshore,Offshore,Cross-shore,Onshore,Onshore,Onshore,Onshore,Onshore,Onshore,Onshore",14
5842041f4e65fad6a770899d,2024_07_03,35.61533716776573,-121.1502053073914,Pico Creek,3,0.9685714285714285,1.237142857142857,15,15,"NIGHT_MOSTLY_CLOUDY,NIGHT_MOSTLY_CLOUDY,NIGHT_MOSTLY_CLOUDY,NIGHT_MOSTLY_CLEAR,NIGHT_MOSTLY_CLEAR,MIST,MOSTLY_CLEAR,MIST,MIST,MIST,MIST,MIST,BRIEF_SHOWERS,BRIEF_SHOWERS","Cross-shore,Onshore,Offshore,Offshore,Offshore,Offshore,Offshore,Offshore,Cross-shore,Cross-shore,Cross-shore,Cross-shore,Onshore,Onshore",14
5842041f4e65fad6a770899e,2024_07_03,35.56829031927379,-121.11207,Santa Rosa Creek,3,0.6992857142857143,0.9935714285714285,15,15,"NIGHT_MOSTLY_CLOUDY,NIGHT_MOSTLY_CLOUDY,NIGHT_MOSTLY_CLOUDY,NIGHT_MOSTLY_CLOUDY,NIGHT_MOSTLY_CLEAR,MOSTLY_CLEAR,MOSTLY_CLEAR,MIST,CLEAR,MIST,MIST,MIST,MIST,MIST","Onshore,Onshore,Onshore,Onshore,Cross-shore,Cross-shore,Cross-shore,Onshore,Onshore,Onshore,Onshore,Onshore,Onshore,Onshore",14
5842041f4e65fad6a77089a2,2024_07_03,35.44820114936284,-120.90715,"Cayucos Pier, Southside ",2.7142857142857144,0.3542857142857143,0.6585714285714286,15,15,"NIGHT_CLEAR,NIGHT_MOSTLY_CLEAR,NIGHT_MOSTLY_CLEAR,NIGHT_MOSTLY_CLOUDY,NIGHT_MOSTLY_CLEAR,MOSTLY_CLEAR,MOSTLY_CLEAR,MOSTLY_CLEAR,CLEAR,CLEAR,CLEAR,CLEAR,CLEAR,CLEAR","Onshore,Onshore,Onshore,Onshore,Cross-shore,Onshore,Onshore,Onshore,Onshore,Onshore,Onshore,Onshore,Onshore,Onshore",14
5842041f4e65fad6a77089a4,2024_07_03,35.30143372628852,-120.877819239902,Cable Landing,2.9285714285714284,2.1664285714285714,2.3285714285714283,15,15,"NIGHT_MOSTLY_CLEAR,NIGHT_MOSTLY_CLEAR,NIGHT_MIST,NIGHT_MIST,NIGHT_CLEAR,CLEAR,CLEAR,MIST,MIST,MIST,MIST,MIST,MIST,BRIEF_SHOWERS","Onshore,Onshore,Onshore,Onshore,Cross-shore,Offshore,Offshore,Onshore,Onshore,Onshore,Onshore,Onshore,Onshore,Onshore",14
5842041f4e65fad6a77089a9,2024_07_03,35.61269103500222,-121.14807,San Simeon,3,0.504,0.7105,15,15,"NIGHT_MOSTLY_CLEAR,NIGHT_MOSTLY_CLEAR,NIGHT_MOSTLY_CLEAR,NIGHT_MOSTLY_CLOUDY,NIGHT_MOSTLY_CLEAR,MOSTLY_CLEAR,MOSTLY_CLEAR,MOSTLY_CLEAR,CLEAR,CLEAR,CLEAR,CLEAR,CLEAR,CLEAR","Onshore,Cross-shore,Cross-shore,Cross-shore,Cross-shore,Cross-shore,Cross-shore,Onshore,Onshore,Onshore,Onshore,Onshore,Onshore,Onshore",14
5842041f4e65fad6a77089ab,2024_07_03,35.1775325966252,-120.73411,Avila Beach,1.2142857142857142,7.142857142857143e-4,0.2792857142857143,15,15,"NIGHT_CLEAR,NIGHT_CLEAR,NIGHT_CLEAR,NIGHT_MOSTLY_CLEAR,NIGHT_BRIEF_SHOWERS,BRIEF_SHOWERS,MOSTLY_CLOUDY,MOSTLY_CLOUDY,MOSTLY_CLEAR,MOSTLY_CLEAR,BRIEF_SHOWERS,BRIEF_SHOWERS,BRIEF_SHOWERS,BRIEF_SHOWERS","Onshore,Offshore,Offshore,Cross-shore,Cross-shore,Cross-shore,Cross-shore,Onshore,Onshore,Cross-shore,Onshore,Onshore,Onshore,Onshore",14
5842041f4e65fad6a77089ac,2024_07_03,35.13877877884115,-120.64535,Pismo Beach Pier,2.857142857142857,0.6222428571428571,1.0056214285714287,12,12,"NIGHT_CLEAR,NIGHT_CLEAR,NIGHT_CLEAR,NIGHT_CLEAR,NIGHT_MOSTLY_CLOUDY,MOSTLY_CLOUDY,MOSTLY_CLOUDY,MOSTLY_CLOUDY,CLEAR,CLEAR,CLEAR,CLEAR,CLEAR,CLEAR","Cross-shore,Onshore,Cross-shore,Onshore,Onshore,Onshore,Offshore,Onshore,Onshore,Onshore,Onshore,Onshore,Onshore,Onshore",14
5842041f4e65fad6a77089ad,2024_07_03,46.8907710233147,-124.12964,Westport/Olympic Peninsula,2.5714285714285716,0.9421428571428572,1.1228571428571428,14,14,"NIGHT_MIST,NIGHT_OVERCAST,NIGHT_OVERCAST,NIGHT_OVERCAST,NIGHT_OVERCAST,OVERCAST,OVERCAST,OVERCAST,OVERCAST,OVERCAST,MOSTLY_CLOUDY,MOSTLY_CLOUDY,MOSTLY_CLOUDY,MOSTLY_CLOUDY","Onshore,Cross-shore,Cross-shore,Cross-shore,Cross-shore,Cross-shore,Offshore,Cross-shore,Cross-shore,Onshore,Onshore,Onshore,Onshore,Onshore",14
5842041f4e65fad6a77089ae,2024_07_03,46.35185177248545,-124.06747,Long Beach Peninsula,2.5714285714285716,1.0750000000000002,1.3792857142857142,14.714285714285714,14.714285714285714,"NIGHT_MOSTLY_CLOUDY,NIGHT_CLOUDY,NIGHT_OVERCAST,NIGHT_OVERCAST,NIGHT_OVERCAST,MIST,MIST,MIST,OVERCAST,OVERCAST,OVERCAST,OVERCAST,CLOUDY,CLOUDY","Onshore,Cross-shore,Cross-shore,Cross-shore,Cross-shore,Cross-shore,Cross-shore,Cross-shore,Cross-shore,Cross-shore,Cross-shore,Cross-shore,Cross-shore,Cross-shore",14
5842041f4e65fad6a77089af,2024_07_03,47.90649175554033,-124.63709,La Push,2.7857142857142856,0.9014285714285715,1.207142857142857,14,14,"NIGHT_CLOUDY,NIGHT_MOSTLY_CLOUDY,NIGHT_CLEAR,NIGHT_CLOUDY,NIGHT_CLOUDY,MIST,CLOUDY,CLOUDY,CLOUDY,CLOUDY,MIST,MIST,MIST,MIST","Cross-shore,Onshore,Cross-shore,Offshore,Onshore,Offshore,Cross-shore,Onshore,Onshore,Onshore,Onshore,Onshore,Onshore,Onshore",14
5842041f4e65fad6a77089b0,2024_07_03,42.04368239985442,-124.26828,Brookings Jetty,1,0.23332857142857144,0.3645778571428571,13.428571428571429,13.428571428571429,"NIGHT_CLEAR,NIGHT_CLEAR,NIGHT_CLEAR,NIGHT_CLEAR,NIGHT_CLEAR,CLEAR,CLEAR,CLEAR,CLEAR,CLEAR,CLEAR,CLEAR,CLEAR,CLEAR","Offshore,Offshore,Offshore,Offshore,Offshore,Offshore,Offshore,Offshore,Offshore,Offshore,Offshore,Offshore,Offshore,Offshore",14
5842041f4e65fad6a77089b1,2024_07_03,42.74071837900346,-124.4983727491047,Port Orford,1.7142857142857142,0.33,0.635,13,13,"NIGHT_CLEAR,NIGHT_CLEAR,NIGHT_CLEAR,NIGHT_CLEAR,NIGHT_CLEAR,CLEAR,CLEAR,CLEAR,CLEAR,CLEAR,CLEAR,CLEAR,CLEAR,CLEAR","Offshore,Offshore,Offshore,Offshore,Offshore,Offshore,Offshore,Offshore,Offshore,Offshore,Offshore,Offshore,Offshore,Offshore",14
5842041f4e65fad6a77089b2,2024_07_03,44.01532689312291,-124.13865,Florence South Jetty,2.5,1.1707142857142858,1.4785714285714286,14,14,"NIGHT_MIST,NIGHT_MOSTLY_CLEAR,NIGHT_MOSTLY_CLEAR,NIGHT_CLEAR,NIGHT_CLEAR,CLEAR,CLEAR,CLEAR,CLEAR,CLEAR,CLEAR,CLEAR,CLEAR,CLEAR","Cross-shore,Cross-shore,Cross-shore,Cross-shore,Cross-shore,Cross-shore,Cross-shore,Cross-shore,Cross-shore,Cross-shore,Cross-shore,Cross-shore,Cross-shore,Cross-shore",14
5842041f4e65fad6a77089b3,2024_07_03,42.41812540774362,-124.42945,Gold Beach South Jetty,2.7857142857142856,1.0292857142857144,1.2535714285714286,12.714285714285714,12.714285714285714,"NIGHT_CLEAR,NIGHT_CLEAR,NIGHT_CLEAR,NIGHT_CLEAR,NIGHT_CLEAR,CLEAR,CLEAR,CLEAR,CLEAR,CLEAR,CLEAR,CLEAR,CLEAR,CLEAR","Offshore,Offshore,Offshore,Offshore,Offshore,Offshore,Offshore,Offshore,Offshore,Offshore,Offshore,Offshore,Offshore,Offshore",14
5842041f4e65fad6a77089b4,2024_07_03,44.95857310226525,-124.0219,Lincoln City,1.6428571428571428,1.0092857142857143,1.3135714285714286,14.285714285714286,14.285714285714286,"NIGHT_MOSTLY_CLOUDY,NIGHT_MOSTLY_CLOUDY,NIGHT_MOSTLY_CLOUDY,NIGHT_MOSTLY_CLOUDY,NIGHT_MOSTLY_CLOUDY,MOSTLY_CLOUDY,MIST,MOSTLY_CLOUDY,MOSTLY_CLOUDY,CLEAR,CLEAR,CLEAR,CLEAR,CLEAR","Cross-shore,Cross-shore,Cross-shore,Cross-shore,Cross-shore,Cross-shore,Cross-shore,Cross-shore,Cross-shore,Cross-shore,Cross-shore,Cross-shore,Cross-shore,Cross-shore",14
5842041f4e65fad6a77089b5,2024_07_03,44.63792761362982,-124.0657,Newport,2.357142857142857,1.0792857142857142,1.385,14,14,"NIGHT_MOSTLY_CLOUDY,NIGHT_MOSTLY_CLOUDY,NIGHT_CLEAR,NIGHT_MOSTLY_CLOUDY,NIGHT_MOSTLY_CLOUDY,MOSTLY_CLOUDY,MOSTLY_CLOUDY,MOSTLY_CLOUDY,MOSTLY_CLEAR,CLEAR,MOSTLY_CLEAR,CLEAR,MIST,MIST","Cross-shore,Offshore,Offshore,Cross-shore,Cross-shore,Cross-shore,Cross-shore,Cross-shore,Cross-shore,Onshore,Onshore,Cross-shore,Cross-shore,Cross-shore",14
5842041f4e65fad6a77089b6,2024_07_03,45.61468496266301,-123.94643,Rockaway Beach,2.9285714285714284,1.0914285714285714,1.3964285714285714,15.285714285714286,15.285714285714286,"NIGHT_BRIEF_SHOWERS,NIGHT_MIST,NIGHT_MIST,NIGHT_MIST,NIGHT_MIST,MIST,MIST,MOSTLY_CLOUDY,MIST,MIST,MIST,MIST,MIST,MIST","Cross-shore,Cross-shore,Cross-shore,Cross-shore,Cross-shore,Cross-shore,Cross-shore,Cross-shore,Cross-shore,Cross-shore,Onshore,Onshore,Onshore,Onshore",14
5842041f4e65fad6a77089b7,2024_07_03,45.20252914186085,-123.96975,Pacific City,2.357142857142857,0.685,0.9914285714285714,15.285714285714286,15.285714285714286,"NIGHT_CLEAR,NIGHT_MIST,NIGHT_MOSTLY_CLOUDY,NIGHT_MOSTLY_CLOUDY,NIGHT_BRIEF_SHOWERS,MOSTLY_CLOUDY,MIST,MOSTLY_CLOUDY,CLEAR,MOSTLY_CLOUDY,MOSTLY_CLOUDY,MOSTLY_CLOUDY,MOSTLY_CLOUDY,CLEAR","Cross-shore,Offshore,Offshore,Offshore,Offshore,Offshore,Offshore,Offshore,Offshore,Cross-shore,Cross-shore,Cross-shore,Cross-shore,Cross-shore",14
5842041f4e65fad6a77089b8,2024_07_03,45.88179930310263,-123.96681,Cannon Beach,3,1.0485714285714287,1.3535714285714286,15,15,"NIGHT_MOSTLY_CLOUDY,NIGHT_FOG,NIGHT_FOG,NIGHT_MIST,NIGHT_MIST,MIST,MIST,MIST,DRIZZLE,BRIEF_SHOWERS,MIST,MIST,MOSTLY_CLOUDY,MOSTLY_CLOUDY","Cross-shore,Cross-shore,Cross-shore,Cross-shore,Cross-shore,Cross-shore,Cross-shore,Offshore,Cross-shore,Cross-shore,Cross-shore,Cross-shore,Cross-shore,Cross-shore",14
5842041f4e65fad6a77089ba,2024_07_03,40.02528754746774,-124.06372,Shelter Cove,1.7142857142857142,0.28550857142857144,0.4461092857142857,13.428571428571429,13.428571428571429,"NIGHT_CLEAR,NIGHT_CLEAR,NIGHT_CLEAR,NIGHT_CLEAR,NIGHT_CLEAR,CLEAR,CLEAR,CLEAR,CLEAR,CLEAR,CLEAR,CLEAR,CLEAR,CLEAR","Offshore,Offshore,Offshore,Offshore,Offshore,Offshore,Offshore,Offshore,Offshore,Offshore,Offshore,Offshore,Offshore,Offshore",14
5842041f4e65fad6a77089bb,2024_07_03,40.76816197136951,-124.24248,Humboldt Harbor Entrance,3,2.475,2.7814285714285716,14.428571428571429,14.428571428571429,"NIGHT_MIST,NIGHT_MIST,NIGHT_MIST,NIGHT_MIST,NIGHT_MIST,MIST,MIST,MIST,CLEAR,CLEAR,CLEAR,MOSTLY_CLEAR,MOSTLY_CLEAR,MIST","Onshore,Onshore,Onshore,Onshore,Offshore,Offshore,Offshore,Onshore,Onshore,Onshore,Onshore,Onshore,Onshore,Onshore",14
5842041f4e65fad6a77089bc,2024_07_03,40.76684246920174,-124.23107,North Jetty,3.142857142857143,3.119285714285714,3.425,14.428571428571429,14.428571428571429,"NIGHT_MIST,NIGHT_MIST,NIGHT_MIST,NIGHT_MIST,NIGHT_MIST,MIST,MIST,MIST,MIST,CLEAR,CLEAR,CLEAR,MOSTLY_CLEAR,MIST","Onshore,Onshore,Onshore,Onshore,Offshore,Offshore,Offshore,Onshore,Onshore,Onshore,Onshore,Onshore,Onshore,Onshore",14
5842041f4e65fad6a77089be,2024_07_03,41.13016238153297,-124.16466,Sue-meg,2,2.5557142857142856,2.8592857142857144,14.428571428571429,14.428571428571429,"NIGHT_MIST,NIGHT_MIST,NIGHT_MIST,NIGHT_MIST,NIGHT_MIST,MIST,MIST,MIST,MIST,MIST,MIST,BRIEF_SHOWERS,BRIEF_SHOWERS,BRIEF_SHOWERS","Cross-shore,Cross-shore,Cross-shore,Cross-shore,Cross-shore,Cross-shore,Cross-shore,Cross-shore,Cross-shore,Cross-shore,Cross-shore,Cross-shore,Cross-shore,Cross-shore",14
5842041f4e65fad6a77089bf,2024_07_03,37.8289474958188,-122.53768,Fort Cronkite/Rodeo Beach,2.4285714285714284,0.9764285714285714,1.2607142857142857,13,13,"NIGHT_MIST,NIGHT_MIST,NIGHT_MIST,NIGHT_MIST,NIGHT_MIST,MIST,MIST,MIST,MIST,MIST,MIST,MIST,MIST,MIST","Onshore,Onshore,Onshore,Onshore,Onshore,Onshore,Onshore,Onshore,Onshore,Onshore,Onshore,Onshore,Onshore,Onshore",14
5842041f4e65fad6a77089c0,2024_07_03,41.74415759876137,-124.17717,South Beach CA,2.7857142857142856,0.38357142857142856,0.6871428571428572,13.428571428571429,13.428571428571429,"NIGHT_CLEAR,NIGHT_CLEAR,NIGHT_CLEAR,NIGHT_CLEAR,NIGHT_CLEAR,CLEAR,CLEAR,CLEAR,CLEAR,CLEAR,CLEAR,CLEAR,CLEAR,CLEAR","Offshore,Offshore,Offshore,Offshore,Offshore,Offshore,Offshore,Offshore,Offshore,Offshore,Offshore,Offshore,Offshore,Offshore",14
5842041f4e65fad6a77089c1,2024_07_03,37.89801283969752,-122.64519,Stinson Beach,2.642857142857143,0.33214285714285713,0.6378571428571429,12.714285714285714,12.714285714285714,"NIGHT_CLEAR,NIGHT_CLEAR,NIGHT_CLEAR,NIGHT_CLEAR,NIGHT_CLEAR,CLEAR,CLEAR,CLEAR,CLEAR,CLEAR,CLEAR,CLEAR,CLEAR,CLEAR","Cross-shore,Offshore,Cross-shore,Onshore,Cross-shore,Cross-shore,Onshore,Offshore,Cross-shore,Onshore,Cross-shore,Cross-shore,Cross-shore,Cross-shore",14
5842041f4e65fad6a77089c2,2024_07_03,37.90514516176495,-122.68151,Bolinas,2.0714285714285716,0.3408007142857143,0.5325007142857143,12.714285714285714,12.714285714285714,"NIGHT_CLEAR,NIGHT_CLEAR,NIGHT_CLEAR,NIGHT_CLEAR,NIGHT_CLEAR,CLEAR,CLEAR,CLEAR,CLEAR,CLEAR,CLEAR,CLEAR,CLEAR,CLEAR","Cross-shore,Offshore,Cross-shore,Onshore,Onshore,Cross-shore,Onshore,Offshore,Cross-shore,Offshore,Cross-shore,Offshore,Offshore,Offshore",14
5842041f4e65fad6a77089c3,2024_07_03,38.04892513158693,-122.98925,Point Reyes (north),2.642857142857143,2.6664285714285714,2.9335714285714287,12,12,"NIGHT_CLEAR,NIGHT_MIST,NIGHT_MIST,NIGHT_MIST,NIGHT_CLEAR,CLEAR,MIST,MIST,CLEAR,CLEAR,CLEAR,CLEAR,CLEAR,CLEAR","Onshore,Onshore,Onshore,Onshore,Onshore,Offshore,Cross-shore,Cross-shore,Cross-shore,Cross-shore,Cross-shore,Cross-shore,Cross-shore,Cross-shore",14
5842041f4e65fad6a77089c6,2024_07_03,38.31088736605785,-123.0496777333731,Doran Beach,2,0.085,0.39071428571428574,11.714285714285714,11.714285714285714,"NIGHT_CLEAR,NIGHT_CLEAR,NIGHT_CLEAR,NIGHT_CLEAR,NIGHT_CLEAR,CLEAR,CLEAR,CLEAR,CLEAR,CLEAR,CLEAR,CLEAR,CLEAR,CLEAR","Onshore,Onshore,Onshore,Onshore,Offshore,Onshore,Onshore,Onshore,Cross-shore,Cross-shore,Onshore,Onshore,Onshore,Onshore",14
5842041f4e65fad6a77089c7,2024_07_03,38.45077228660809,-123.13008,Russian Rivermouth,3.142857142857143,1.4285714285714286,1.6407142857142856,11.714285714285714,11.714285714285714,"NIGHT_CLEAR,NIGHT_CLEAR,NIGHT_CLEAR,NIGHT_CLEAR,NIGHT_CLEAR,CLEAR,CLEAR,CLEAR,CLEAR,CLEAR,CLEAR,CLEAR,CLEAR,CLEAR","Offshore,Offshore,Offshore,Offshore,Offshore,Offshore,Offshore,Onshore,Offshore,Onshore,Onshore,Onshore,Onshore,Onshore",14
5842041f4e65fad6a77089c8,2024_07_03,38.35329968518107,-123.06906,Salmon Creek,3,2.0707142857142857,2.3578571428571427,11.714285714285714,11.714285714285714,"NIGHT_CLEAR,NIGHT_CLEAR,NIGHT_CLEAR,NIGHT_CLEAR,NIGHT_CLEAR,CLEAR,CLEAR,CLEAR,CLEAR,MIST,MIST,MIST,MIST,MIST","Cross-shore,Offshore,Cross-shore,Cross-shore,Offshore,Cross-shore,Cross-shore,Cross-shore,Onshore,Onshore,Cross-shore,Cross-shore,Cross-shore,Cross-shore",14
5842041f4e65fad6a77089c9,2024_07_03,38.6845180197959,-123.4322714291198,Black Point Beach,3,0.49785714285714283,0.8014285714285714,11.714285714285714,11.714285714285714,"NIGHT_CLEAR,NIGHT_CLEAR,NIGHT_CLEAR,NIGHT_CLEAR,NIGHT_CLEAR,CLEAR,CLEAR,CLEAR,CLEAR,CLEAR,CLEAR,CLEAR,CLEAR,CLEAR","Onshore,Onshore,Onshore,Cross-shore,Onshore,Cross-shore,Onshore,Onshore,Onshore,Onshore,Onshore,Cross-shore,Cross-shore,Cross-shore",14
5842041f4e65fad6a77089ca,2024_07_03,43.251076,-70.59144,Ogunquit,1.3928571428571428,0.12428571428571429,0.4303471428571429,14.071428571428571,14.071428571428571,"NIGHT_CLEAR,NIGHT_MOSTLY_CLEAR,NIGHT_CLEAR,CLEAR,CLEAR,CLEAR,CLEAR,CLEAR,CLEAR,CLEAR,CLEAR,CLEAR,CLEAR,CLEAR","Offshore,Offshore,Offshore,Offshore,Onshore,Onshore,Onshore,Onshore,Onshore,Onshore,Onshore,Onshore,Onshore,Onshore",14
5842041f4e65fad6a77089cb,2024_07_03,41.362631366305415,-71.48007,Point Judith,0.8214285714285714,-0.0016664285714285715,0.2750571428571429,19,19,"NIGHT_CLEAR,NIGHT_CLEAR,NIGHT_CLEAR,CLEAR,CLEAR,CLEAR,CLEAR,MIST,CLEAR,CLEAR,CLEAR,CLEAR,CLEAR,CLEAR","Offshore,Offshore,Offshore,Offshore,Offshore,Cross-shore,Offshore,Offshore,Offshore,Offshore,Offshore,Offshore,Offshore,Offshore",14
5842041f4e65fad6a77089cd,2024_07_03,41.422678090954726,-71.45413,Monahan's - Narragansett,1.5714285714285714,0.2688542857142857,0.4200842857142857,19,19,"NIGHT_CLEAR,NIGHT_CLEAR,NIGHT_CLEAR,CLEAR,CLEAR,CLEAR,CLEAR,CLEAR,CLEAR,CLEAR,CLEAR,CLEAR,CLEAR,CLEAR","Cross-shore,Offshore,Offshore,Offshore,Cross-shore,Cross-shore,Cross-shore,Cross-shore,Cross-shore,Cross-shore,Cross-shore,Offshore,Offshore,Offshore",14
5842041f4e65fad6a77089ce,2024_07_03,41.469,-71.293,Ruggles - Newport,1.6428571428571428,0.3541814285714286,0.5534107142857143,19,19,"NIGHT_CLEAR,NIGHT_CLEAR,NIGHT_CLEAR,CLEAR,CLEAR,CLEAR,MIST,MIST,CLEAR,CLEAR,CLEAR,CLEAR,CLEAR,CLEAR","Onshore,Onshore,Onshore,Onshore,Onshore,Onshore,Onshore,Onshore,Onshore,Onshore,Onshore,Onshore,Onshore,Onshore",14
5842041f4e65fad6a77089cf,2024_07_03,43.175394,-70.606351,Short Sands Beach,2.0714285714285716,0.32,0.625,17.285714285714285,17.285714285714285,"NIGHT_CLEAR,NIGHT_MOSTLY_CLEAR,NIGHT_MOSTLY_CLEAR,CLEAR,CLEAR,CLEAR,CLEAR,CLEAR,CLEAR,CLEAR,CLEAR,CLEAR,CLEAR,CLEAR","Offshore,Offshore,Offshore,Offshore,Cross-shore,Cross-shore,Cross-shore,Cross-shore,Cross-shore,Cross-shore,Cross-shore,Cross-shore,Cross-shore,Cross-shore",14
5842041f4e65fad6a77089d0,2024_07_03,41.487408,-71.29017,First Beach,1.6428571428571428,0.08642857142857142,0.39285714285714285,19,19,"NIGHT_CLEAR,NIGHT_CLEAR,NIGHT_CLEAR,CLEAR,CLEAR,CLEAR,CLEAR,CLEAR,CLEAR,CLEAR,CLEAR,CLEAR,CLEAR,CLEAR","Onshore,Onshore,Onshore,Onshore,Onshore,Onshore,Onshore,Onshore,Onshore,Onshore,Onshore,Onshore,Onshore,Onshore",14
5842041f4e65fad6a77089d1,2024_07_03,42.27916830233153,-70.86498,Nantasket Beach,0.39285714285714285,0,0.15106714285714287,16.642857142857142,16.642857142857142,"NIGHT_CLEAR,NIGHT_CLEAR,NIGHT_CLEAR,CLEAR,CLEAR,CLEAR,CLEAR,CLEAR,CLEAR,CLEAR,MOSTLY_CLEAR,CLEAR,CLEAR,CLEAR","Offshore,Offshore,Offshore,Offshore,Offshore,Cross-shore,Cross-shore,Cross-shore,Cross-shore,Cross-shore,Cross-shore,Cross-shore,Offshore,Offshore",14
5842041f4e65fad6a77089d2,2024_07_03,41.817,-69.935,Cape Cod,1.7857142857142858,0.12142857142857143,0.4257142857142857,17,17,"NIGHT_CLEAR,NIGHT_CLEAR,NIGHT_CLEAR,CLEAR,CLEAR,CLEAR,CLEAR,CLEAR,CLEAR,CLEAR,CLEAR,CLEAR,CLEAR,CLEAR","Offshore,Offshore,Offshore,Offshore,Cross-shore,Cross-shore,Cross-shore,Cross-shore,Onshore,Onshore,Cross-shore,Cross-shore,Cross-shore,Cross-shore",14
5842041f4e65fad6a77089d3,2024_07_03,42.22055448975661,-70.70634873403819,Egypt Beach,0.35714285714285715,0,0.155,18,18,"NIGHT_CLEAR,NIGHT_CLEAR,NIGHT_CLEAR,CLEAR,CLEAR,CLEAR,CLEAR,CLEAR,CLEAR,CLEAR,CLEAR,CLEAR,CLEAR,CLEAR","Offshore,Offshore,Offshore,Offshore,Cross-shore,Cross-shore,Cross-shore,Cross-shore,Onshore,Onshore,Onshore,Cross-shore,Cross-shore,Cross-shore",14
5842041f4e65fad6a77089d4,2024_07_03,41.48739647744607,-71.25723,Second Beach,0.8333333333333333,0.0833807142857143,0.3153378571428571,19,19,"NIGHT_CLEAR,NIGHT_CLEAR,NIGHT_CLEAR,CLEAR,CLEAR,CLEAR,MIST,MIST,CLEAR,CLEAR,CLEAR,CLEAR,CLEAR,CLEAR","Onshore,Onshore,Onshore,Onshore,Onshore,Onshore,Onshore,Onshore,Onshore,Onshore,Onshore,Onshore,Onshore,Onshore",14
5842041f4e65fad6a77089d5,2024_07_03,42.964,-70.769,Fox Hill,1.1785714285714286,0.06761928571428572,0.36999,14.071428571428571,14.071428571428571,"NIGHT_CLEAR,NIGHT_CLEAR,NIGHT_CLEAR,MOSTLY_CLEAR,CLEAR,CLEAR,CLEAR,CLEAR,CLEAR,CLEAR,CLEAR,CLEAR,CLEAR,CLEAR","Offshore,Offshore,Offshore,Offshore,Offshore,Onshore,Onshore,Onshore,Onshore,Onshore,Onshore,Onshore,Onshore,Onshore",14
5842041f4e65fad6a77089d6,2024_07_03,42.991359,-70.75149,Straws Point,1.1904761904761905,0.07714285714285714,0.38368071428571426,14.071428571428571,14.071428571428571,"NIGHT_CLEAR,NIGHT_CLEAR,NIGHT_MOSTLY_CLEAR,CLEAR,CLEAR,CLEAR,CLEAR,CLEAR,CLEAR,CLEAR,CLEAR,CLEAR,CLEAR,CLEAR","Offshore,Offshore,Offshore,Offshore,Offshore,Onshore,Onshore,Onshore,Onshore,Onshore,Onshore,Onshore,Onshore,Onshore",14
5842041f4e65fad6a77089d7,2024_07_03,42.946,-70.786,Plaice Cove,1.1904761904761905,0.06761928571428572,0.36999,14.071428571428571,14.071428571428571,"NIGHT_CLEAR,NIGHT_MOSTLY_CLEAR,NIGHT_CLEAR,CLEAR,CLEAR,CLEAR,CLEAR,CLEAR,CLEAR,CLEAR,CLEAR,CLEAR,CLEAR,CLEAR","Offshore,Offshore,Offshore,Offshore,Offshore,Cross-shore,Onshore,Onshore,Onshore,Onshore,Onshore,Onshore,Onshore,Onshore",14
5842041f4e65fad6a77089d9,2024_07_03,42.911574,-70.80831,The Main Beach,1.0357142857142858,0.018260714285714286,0.31518857142857143,15.071428571428571,14.428571428571429,"NIGHT_CLEAR,NIGHT_CLEAR,NIGHT_MOSTLY_CLEAR,CLEAR,CLEAR,CLEAR,CLEAR,CLEAR,CLEAR,MIST,MIST,CLEAR,CLEAR,CLEAR","Cross-shore,Offshore,Offshore,Offshore,Offshore,Onshore,Onshore,Onshore,Onshore,Onshore,Onshore,Onshore,Onshore,Onshore",14
5842041f4e65fad6a77089da,2024_07_03,42.97583846220203,-70.764,Sawyer's Beach,1.1785714285714286,0.09059571428571428,0.3973714285714286,14.071428571428571,14.071428571428571,"NIGHT_CLEAR,NIGHT_CLEAR,NIGHT_CLEAR,MOSTLY_CLEAR,CLEAR,CLEAR,CLEAR,CLEAR,CLEAR,CLEAR,CLEAR,CLEAR,CLEAR,CLEAR","Offshore,Offshore,Offshore,Offshore,Offshore,Cross-shore,Onshore,Onshore,Onshore,Onshore,Onshore,Onshore,Onshore,Onshore",14
5842041f4e65fad6a77089db,2024_07_03,42.97,-70.77,Rye on the Rocks / 5-0's,1.1547619047619047,0.032862857142857145,0.3325564285714286,15.071428571428571,14.428571428571429,"NIGHT_CLEAR,NIGHT_CLEAR,NIGHT_CLEAR,MOSTLY_CLEAR,CLEAR,CLEAR,CLEAR,CLEAR,CLEAR,CLEAR,CLEAR,CLEAR,CLEAR,CLEAR","Offshore,Offshore,Offshore,Offshore,Offshore,Onshore,Onshore,Onshore,Onshore,Onshore,Onshore,Onshore,Onshore,Onshore",14
5842041f4e65fad6a77089dc,2024_07_03,43.55902946610303,-70.27795,Higgins Beach,1.3095238095238095,0.01767857142857143,0.32151428571428575,14.071428571428571,14.071428571428571,"NIGHT_CLEAR,NIGHT_CLEAR,NIGHT_CLEAR,CLEAR,CLEAR,CLEAR,CLEAR,CLEAR,CLEAR,CLEAR,CLEAR,CLEAR,CLEAR,CLEAR","Cross-shore,Offshore,Offshore,Offshore,Cross-shore,Onshore,Onshore,Onshore,Onshore,Onshore,Onshore,Onshore,Onshore,Onshore",14
5842041f4e65fad6a77089dd,2024_07_03,43.302676,-70.5652,Wells Beach,1.1904761904761905,0.10702357142857143,0.41237142857142856,14.071428571428571,14.071428571428571,"NIGHT_CLEAR,NIGHT_CLEAR,NIGHT_CLEAR,CLEAR,CLEAR,CLEAR,CLEAR,CLEAR,CLEAR,CLEAR,CLEAR,CLEAR,CLEAR,CLEAR","Offshore,Offshore,Offshore,Offshore,Onshore,Onshore,Onshore,Onshore,Onshore,Onshore,Onshore,Onshore,Onshore,Onshore",14
5842041f4e65fad6a77089de,2024_07_03,43.545359,-70.30479,Scarborough Beach State Park,1.1785714285714286,0.17225142857142858,0.46508428571428573,14.071428571428571,14.071428571428571,"NIGHT_CLEAR,NIGHT_CLEAR,NIGHT_CLEAR,CLEAR,CLEAR,CLEAR,CLEAR,CLEAR,CLEAR,CLEAR,CLEAR,MIST,MIST,MIST","Offshore,Offshore,Offshore,Offshore,Cross-shore,Onshore,Onshore,Onshore,Onshore,Onshore,Onshore,Onshore,Onshore,Onshore",14
5842041f4e65fad6a77089df,2024_07_03,43.514481,-70.37215,Old Orchard Beach,1.4047619047619049,0.04306714285714286,0.34572357142857146,14.071428571428571,14.071428571428571,"NIGHT_CLEAR,NIGHT_MOSTLY_CLEAR,NIGHT_CLEAR,CLEAR,CLEAR,CLEAR,CLEAR,CLEAR,CLEAR,CLEAR,CLEAR,CLEAR,CLEAR,CLEAR","Offshore,Offshore,Offshore,Offshore,Onshore,Onshore,Onshore,Onshore,Onshore,Onshore,Onshore,Onshore,Onshore,Onshore",14
5842041f4e65fad6a77089e0,2024_07_03,43.34711,-70.48165,Gooch's Beach,1.119047619047619,0.10869071428571428,0.4145142857142857,14.071428571428571,14.071428571428571,"NIGHT_CLEAR,NIGHT_CLEAR,NIGHT_CLEAR,CLEAR,CLEAR,CLEAR,CLEAR,CLEAR,CLEAR,CLEAR,CLEAR,CLEAR,CLEAR,CLEAR","Cross-shore,Cross-shore,Cross-shore,Offshore,Onshore,Onshore,Onshore,Onshore,Onshore,Onshore,Onshore,Onshore,Onshore,Onshore",14
5842041f4e65fad6a77089e2,2024_07_03,40.58433,-73.62953,Lido Beach,0.7261904761904762,0.15662857142857142,0.46185714285714285,18.357142857142858,18.357142857142858,"NIGHT_CLEAR,NIGHT_CLEAR,NIGHT_CLEAR,CLEAR,MIST,MIST,MIST,MIST,MIST,MIST,MIST,MIST,MIST,MIST","Onshore,Onshore,Onshore,Onshore,Cross-shore,Onshore,Onshore,Onshore,Onshore,Onshore,Onshore,Onshore,Onshore,Onshore",14
5842041f4e65fad6a77089e3,2024_07_03,43.163135,-70.61689,Long Sands Beach,1.4047619047619049,0.039555714285714284,0.3421142857142857,14.071428571428571,14.071428571428571,"NIGHT_CLEAR,NIGHT_CLEAR,NIGHT_MOSTLY_CLOUDY,CLEAR,CLEAR,CLEAR,CLEAR,CLEAR,CLEAR,CLEAR,CLEAR,MIST,MIST,MIST","Cross-shore,Offshore,Offshore,Offshore,Onshore,Onshore,Onshore,Onshore,Onshore,Onshore,Onshore,Onshore,Onshore,Onshore",14
5842041f4e65fad6a77089e4,2024_07_03,40.61695351251805,-73.39376,Gilgo Beach,1.4404761904761905,0.13851,0.4420192857142857,18,17,"NIGHT_CLEAR,NIGHT_CLEAR,NIGHT_CLEAR,CLEAR,MIST,MIST,MIST,MIST,MIST,MIST,MIST,MIST,MIST,MIST","Onshore,Onshore,Onshore,Onshore,Onshore,Onshore,Onshore,Onshore,Onshore,Onshore,Onshore,Onshore,Onshore,Onshore",14
5842041f4e65fad6a77089e5,2024_07_03,40.62530081928036,-73.23827,Robert Moses,1.6428571428571428,0.08785714285714286,0.39142857142857146,20,20,"NIGHT_CLEAR,NIGHT_CLEAR,NIGHT_CLEAR,CLEAR,MIST,MIST,MIST,MIST,MIST,MIST,MIST,MIST,MIST,MIST","Onshore,Cross-shore,Onshore,Onshore,Cross-shore,Onshore,Onshore,Onshore,Onshore,Onshore,Onshore,Onshore,Onshore,Onshore",14
5842041f4e65fad6a77089e6,2024_07_03,40.64313317632791,-73.15727,Fire Island,1.6428571428571428,0.08142857142857143,0.38571428571428573,20,20,"NIGHT_CLEAR,NIGHT_CLEAR,NIGHT_CLEAR,CLEAR,CLEAR,MIST,MIST,MIST,MIST,MIST,MIST,MIST,MIST,MIST","Onshore,Cross-shore,Onshore,Onshore,Onshore,Onshore,Onshore,Onshore,Onshore,Onshore,Onshore,Onshore,Onshore,Onshore",14
5842041f4e65fad6a77089e8,2024_07_03,40.76653118828782,-72.7458,Cupsogue,2.0714285714285716,0.3535714285714286,0.6585714285714286,19.285714285714285,19.285714285714285,"NIGHT_CLEAR,NIGHT_CLEAR,NIGHT_CLEAR,CLEAR,MIST,MIST,MIST,MIST,MIST,MIST,MIST,MIST,MIST,MIST","Onshore,Cross-shore,Cross-shore,Offshore,Onshore,Onshore,Onshore,Onshore,Onshore,Onshore,Onshore,Onshore,Onshore,Onshore",14
5842041f4e65fad6a77089e9,2024_07_03,42.9376373334092,-70.79141,The Wall ,1.0357142857142858,0.01115,0.30408,15.071428571428571,14.428571428571429,"NIGHT_CLEAR,NIGHT_CLEAR,NIGHT_MOSTLY_CLEAR,CLEAR,CLEAR,CLEAR,CLEAR,CLEAR,CLEAR,MIST,MIST,CLEAR,CLEAR,CLEAR","Offshore,Offshore,Offshore,Offshore,Offshore,Cross-shore,Cross-shore,Onshore,Onshore,Onshore,Onshore,Onshore,Cross-shore,Cross-shore",14
5842041f4e65fad6a77089ea,2024_07_03,40.887088,-72.33856,Flys,2,0.27785714285714286,0.5828571428571429,19.714285714285715,19.714285714285715,"NIGHT_CLEAR,NIGHT_CLEAR,NIGHT_CLEAR,CLEAR,CLEAR,CLEAR,MIST,MIST,MIST,MIST,MIST,MIST,MIST,MIST","Onshore,Onshore,Onshore,Onshore,Onshore,Onshore,Onshore,Onshore,Onshore,Onshore,Onshore,Onshore,Onshore,Onshore",14
5842041f4e65fad6a77089eb,2024_07_03,41.0389266436591,-71.91068529316958,Trailer Park,1.9642857142857142,0.3836778571428571,0.6666928571428572,18,17,"NIGHT_CLEAR,NIGHT_CLEAR,NIGHT_CLEAR,CLEAR,CLEAR,CLEAR,CLEAR,CLEAR,CLEAR,CLEAR,CLEAR,CLEAR,CLEAR,CLEAR","Onshore,Onshore,Onshore,Onshore,Onshore,Onshore,Onshore,Onshore,Onshore,Onshore,Onshore,Onshore,Onshore,Onshore",14
5842041f4e65fad6a77089ec,2024_07_03,41.039505402729105,-71.9142,Ditch Plains,1.7857142857142858,0.39692357142857143,0.6201928571428571,19,19,"NIGHT_CLEAR,NIGHT_CLEAR,NIGHT_CLEAR,CLEAR,CLEAR,CLEAR,CLEAR,CLEAR,CLEAR,CLEAR,CLEAR,MIST,MIST,MIST","Onshore,Cross-shore,Cross-shore,Onshore,Onshore,Onshore,Onshore,Onshore,Onshore,Onshore,Onshore,Cross-shore,Cross-shore,Cross-shore",14
5842041f4e65fad6a77089ee,2024_07_03,40.57633275206492,-73.56895305108567,"West End, Jones Beach",1.3333333333333333,0.262795,0.5661857142857143,18.357142857142858,18.357142857142858,"NIGHT_CLEAR,NIGHT_CLEAR,NIGHT_CLEAR,CLEAR,MIST,MIST,MIST,MIST,MIST,MIST,MIST,MIST,MIST,MIST","Onshore,Onshore,Onshore,Onshore,Onshore,Onshore,Onshore,Onshore,Onshore,Onshore,Onshore,Onshore,Onshore,Onshore",14
5842041f4e65fad6a77089f1,2024_07_03,41.038286691230795,-71.91991567611694,Poles,2,0.3528342857142857,0.6563528571428572,18,17,"NIGHT_CLEAR,NIGHT_CLEAR,NIGHT_CLEAR,CLEAR,CLEAR,CLEAR,CLEAR,CLEAR,CLEAR,CLEAR,CLEAR,CLEAR,CLEAR,CLEAR","Onshore,Onshore,Onshore,Onshore,Onshore,Onshore,Onshore,Onshore,Onshore,Onshore,Onshore,Onshore,Onshore,Onshore",14
5842041f4e65fad6a77089f3,2024_07_03,40.84077769766295,-72.47989493724765,The Bowl,2,0.3,0.605,19.714285714285715,19.714285714285715,"NIGHT_CLEAR,NIGHT_CLEAR,NIGHT_CLEAR,CLEAR,CLEAR,CLEAR,MIST,MIST,MIST,MIST,MIST,MIST,MIST,MIST","Onshore,Onshore,Onshore,Onshore,Onshore,Onshore,Onshore,Onshore,Onshore,Onshore,Onshore,Onshore,Onshore,Onshore",14
5842041f4e65fad6a77089f4,2024_07_03,40.94235535243154,-72.19286,Main Beach,1.6904761904761905,0.2983907142857143,0.6009471428571429,19,18,"NIGHT_CLEAR,NIGHT_CLEAR,NIGHT_CLEAR,CLEAR,CLEAR,CLEAR,CLEAR,CLEAR,CLEAR,CLEAR,CLEAR,CLEAR,CLEAR,CLEAR","Onshore,Onshore,Onshore,Onshore,Onshore,Onshore,Onshore,Onshore,Onshore,Onshore,Onshore,Onshore,Onshore,Onshore",14
