_id,date,lat,lon,name,daily_mean_swell_rating,daily_mean_wave_height_min,daily_mean_wave_height_max,daily_mean_water_temperature_max,daily_mean_water_temperature_min,weather_per_timestamp,wind_per_timestamp,n_samples_per_day
5842041f4e65fad6a77087f9,2024_03_12,37.741668,-122.51038,South Ocean Beach,1.805,3.9388611111111116,4.718744444444444,14,14,"CLOUDY,CLOUDY,CLEAR,CLEAR,NIGHT_MOSTLY_CLOUDY,NIGHT_MOSTLY_CLOUDY","Onshore,Onshore,Onshore,Onshore,Onshore,Onshore",6
5842041f4e65fad6a7708801,2024_03_12,37.49142,-122.50428,Maverick's,NA,3.854277777777778,4.946444444444444,13,13,"OVERCAST,DRIZZLE,OVERCAST,MOSTLY_CLOUDY,NIGHT_MOSTLY_CLOUDY,NIGHT_MOSTLY_CLEAR","Onshore,Onshore,Onshore,Onshore,Onshore,Onshore",6
5842041f4e65fad6a7708804,2024_03_12,44.997,-124.018,Roads End,0.3333333333333333,3.893333333333333,4.651666666666666,10,10,"RAIN,DRIZZLE,HEAVY_RAIN,SHOWERS,NIGHT_BRIEF_SHOWERS,NIGHT_OVERCAST","Cross-shore,Cross-shore,Cross-shore,Cross-shore,Onshore,Onshore",6
5842041f4e65fad6a7708805,2024_03_12,36.95188851423011,-122.02522,Steamer Lane,3.6666666666666665,2.3358000000000003,3.1957833333333334,14,14,"CLEAR,CLEAR,CLEAR,CLEAR,NIGHT_CLEAR,NIGHT_CLEAR","Offshore,Offshore,Offshore,Offshore,Offshore,Offshore",6
5842041f4e65fad6a7708806,2024_03_12,36.95918781542251,-122.02489,Cowells,2.805,0.5055777777777778,0.9728611111111111,14,14,"CLEAR,CLEAR,CLEAR,CLEAR,NIGHT_CLEAR,NIGHT_CLEAR","Offshore,Offshore,Offshore,Offshore,Offshore,Offshore",6
5842041f4e65fad6a7708807,2024_03_12,36.95468082526536,-121.97234,Pleasure Point,3.305,1.9037944444444443,2.742111111111111,14,14,"CLOUDY,CLOUDY,CLEAR,CLEAR,NIGHT_CLEAR,NIGHT_CLEAR","Cross-shore,Cross-shore,Cross-shore,Cross-shore,Cross-shore,Cross-shore",6
5842041f4e65fad6a770880a,2024_03_12,35.37815414378748,-120.86589,Morro Bay,2.805,2.241016666666667,2.8116333333333334,14,14,"MOSTLY_CLOUDY,MOSTLY_CLOUDY,CLEAR,CLOUDY,NIGHT_CLEAR,NIGHT_CLEAR","Onshore,Onshore,Onshore,Onshore,Onshore,Onshore",6
5842041f4e65fad6a770880b,2024_03_12,36.95782765000708,-121.9672887511276,Jack's,3.6666666666666665,1.0860944444444445,1.5315722222222223,14,14,"CLOUDY,CLOUDY,CLEAR,CLEAR,NIGHT_CLEAR,NIGHT_CLEAR","Cross-shore,Offshore,Offshore,Cross-shore,Offshore,Offshore",6
5842041f4e65fad6a770880d,2024_03_12,34.29982939936656,-119.3489016603669,Gold Coast Beachbreaks,1.5,0.4666666666666667,0.7683333333333333,14,14,"CLEAR,CLEAR,MOSTLY_CLEAR,MIST,NIGHT_CLEAR,NIGHT_CLEAR","Onshore,Onshore,Onshore,Onshore,Onshore,Onshore",6
5842041f4e65fad6a7708811,2024_03_12,34.245076,-119.26799,Ventura Harbor,2,1.3562820833333333,1.7615075,14,14,"CLEAR,MOSTLY_CLEAR,CLEAR,MIST,NIGHT_MOSTLY_CLEAR,NIGHT_CLEAR","Onshore,Onshore,Onshore,Onshore,Onshore,Onshore",6
5842041f4e65fad6a7708813,2024_03_12,34.051,-118.964,County Line,2,0.7397166666666666,1.1219,15,15,"MOSTLY_CLEAR,MOSTLY_CLEAR,MOSTLY_CLEAR,NIGHT_MOSTLY_CLEAR,NIGHT_MIST,NIGHT_MIST","Onshore,Onshore,Onshore,Onshore,Cross-shore,Cross-shore",6
5842041f4e65fad6a7708814,2024_03_12,34.37256264378892,-119.47797,Rincon,3,1.0316666666666667,1.2516666666666667,14,14,"CLEAR,MOSTLY_CLEAR,MOSTLY_CLEAR,CLEAR,NIGHT_CLEAR,NIGHT_CLEAR","Cross-shore,Cross-shore,Cross-shore,Cross-shore,Cross-shore,Cross-shore",6
5842041f4e65fad6a7708817,2024_03_12,34.03096101876324,-118.68109,Malibu Third Point,2.5,0.44,0.7483333333333333,15,15,"MOSTLY_CLEAR,CLEAR,CLEAR,NIGHT_CLEAR,NIGHT_CLEAR,NIGHT_CLEAR","Cross-shore,Cross-shore,Offshore,Cross-shore,Offshore,Offshore",6
5842041f4e65fad6a7708819,2024_03_12,33.984079047970035,-118.47381591796875,Venice Beach,1.305,0.8064166666666667,1.0810833333333332,14,14,"CLEAR,CLEAR,CLEAR,NIGHT_CLEAR,NIGHT_CLEAR,NIGHT_CLEAR","Cross-shore,Cross-shore,Cross-shore,Cross-shore,Cross-shore,Cross-shore",6
5842041f4e65fad6a770881e,2024_03_12,34.037508438646746,-118.58339846155594,Topanga Beach,2.1666666666666665,0.5676333333333333,0.8681166666666666,15,15,"MOSTLY_CLEAR,CLEAR,MOSTLY_CLEAR,NIGHT_CLEAR,NIGHT_MIST,NIGHT_CLEAR","Onshore,Onshore,Onshore,Onshore,Cross-shore,Cross-shore",6
5842041f4e65fad6a7708820,2024_03_12,33.73954373690184,-118.11414,Seal Beach Jetty,2,0.45666666666666667,0.7633333333333333,15,15,"CLEAR,CLEAR,CLEAR,NIGHT_MOSTLY_CLEAR,NIGHT_CLEAR,NIGHT_MOSTLY_CLEAR","Onshore,Onshore,Onshore,Onshore,Onshore,Onshore",6
5842041f4e65fad6a7708822,2024_03_12,33.72309983348433,-118.08078,Anderson Street,1.5,0.575,0.8816666666666666,15,15,"CLEAR,CLEAR,CLEAR,NIGHT_MOSTLY_CLEAR,NIGHT_MOSTLY_CLOUDY,NIGHT_MOSTLY_CLOUDY","Onshore,Onshore,Onshore,Onshore,Onshore,Onshore",6
5842041f4e65fad6a7708827,2024_03_12,33.65574085629463,-118.00397,Huntington Beach Pier Northside,2,1.1048833333333332,1.4350333333333332,15,15,"CLEAR,CLEAR,CLEAR,NIGHT_MOSTLY_CLEAR,NIGHT_CLEAR,NIGHT_CLEAR","Onshore,Onshore,Onshore,Onshore,Onshore,Onshore",6
5842041f4e65fad6a7708828,2024_03_12,34.272041739333,-119.2997646331,C St.,3,1.0127000000000002,1.3115500000000002,14,14,"MIST,MIST,CLEAR,MOSTLY_CLEAR,NIGHT_CLEAR,NIGHT_CLEAR","Cross-shore,Cross-shore,Cross-shore,Cross-shore,Cross-shore,Cross-shore",6
5842041f4e65fad6a770882a,2024_03_12,33.61555743705257,-117.93676,Newport Lower Jetties,2,0.5363500000000001,0.8472833333333334,15,15,"CLEAR,CLEAR,MOSTLY_CLEAR,NIGHT_CLEAR,NIGHT_MOSTLY_CLOUDY,NIGHT_CLEAR","Onshore,Onshore,Cross-shore,Onshore,Cross-shore,Onshore",6
5842041f4e65fad6a770882b,2024_03_12,33.5930302087,-117.88199,The Wedge,1.6666666666666667,0.7945645833333332,1.1425620833333334,17,17,"CLEAR,CLEAR,MOSTLY_CLEAR,NIGHT_CLEAR,NIGHT_CLEAR,NIGHT_MOSTLY_CLEAR","Onshore,Onshore,Cross-shore,Onshore,Onshore,Cross-shore",6
5842041f4e65fad6a770882c,2024_03_12,33.60577342582,-117.9315376281,Newport Beach Pier,2,0.43010000000000004,0.7377,15,15,"CLEAR,CLEAR,CLEAR,NIGHT_CLEAR,NIGHT_CLEAR,NIGHT_CLEAR","Onshore,Onshore,Cross-shore,Cross-shore,Cross-shore,Cross-shore",6
5842041f4e65fad6a770882e,2024_03_12,33.475793399792984,-117.72291,Salt Creek,3,1.0232166666666667,1.4442,15,15,"CLEAR,CLEAR,CLEAR,NIGHT_MOSTLY_CLOUDY,NIGHT_MOSTLY_CLOUDY,NIGHT_MOSTLY_CLOUDY","Onshore,Onshore,Onshore,Onshore,Onshore,Onshore",6
5842041f4e65fad6a7708830,2024_03_12,33.41800974113613,-117.61952,T-Street,3,1.07905,1.3575333333333333,16,16,"CLEAR,CLEAR,MOSTLY_CLEAR,NIGHT_CLEAR,NIGHT_CLEAR,NIGHT_MOSTLY_CLOUDY","Onshore,Onshore,Onshore,Cross-shore,Cross-shore,Cross-shore",6
5842041f4e65fad6a7708832,2024_03_12,33.202391008646,-117.39475,Oceanside Harbor,3,1.009,1.3939166666666665,16,16,"CLEAR,CLEAR,CLEAR,NIGHT_CLEAR,NIGHT_MOSTLY_CLOUDY,NIGHT_MOSTLY_CLOUDY","Onshore,Onshore,Onshore,Onshore,Onshore,Onshore",6
5842041f4e65fad6a7708835,2024_03_12,33.19477795952803,-117.38667,Oceanside Pier,2.6666666666666665,1.04775,1.2495,16,16,"MOSTLY_CLOUDY,MOSTLY_CLOUDY,CLEAR,NIGHT_CLEAR,NIGHT_MOSTLY_CLOUDY,NIGHT_CLEAR","Onshore,Onshore,Onshore,Onshore,Onshore,Onshore",6
5842041f4e65fad6a7708837,2024_03_12,33.14948100706,-117.35029,Tamarack,2.1666666666666665,0.44333333333333336,0.7483333333333333,15,15,"MOSTLY_CLOUDY,CLEAR,CLEAR,NIGHT_CLEAR,NIGHT_CLOUDY,NIGHT_MOSTLY_CLOUDY","Onshore,Onshore,Onshore,Cross-shore,Cross-shore,Cross-shore",6
5842041f4e65fad6a7708839,2024_03_12,32.865777159358856,-117.25614295356122,Scripps,1.6933333333333334,1.0219166666666666,1.3490833333333334,16,16,"MOSTLY_CLOUDY,MOSTLY_CLOUDY,CLEAR,NIGHT_CLOUDY,NIGHT_CLOUDY,NIGHT_MOSTLY_CLOUDY","Onshore,Onshore,Onshore,Onshore,Onshore,Onshore",6
5842041f4e65fad6a770883a,2024_03_12,32.813094,-117.27381,Birdrock,3,1.3916666666666666,1.6633333333333333,16,16,"MOSTLY_CLOUDY,MOSTLY_CLOUDY,MOSTLY_CLOUDY,NIGHT_OVERCAST,NIGHT_MOSTLY_CLOUDY,NIGHT_MOSTLY_CLOUDY","Onshore,Cross-shore,Onshore,Cross-shore,Cross-shore,Offshore",6
5842041f4e65fad6a770883b,2024_03_12,32.877231,-117.25303,Blacks,2.4166666666666665,1.3539999999999999,1.8824999999999998,16,16,"MOSTLY_CLOUDY,MOSTLY_CLOUDY,CLEAR,NIGHT_CLOUDY,NIGHT_CLOUDY,NIGHT_MOSTLY_CLOUDY","Onshore,Onshore,Onshore,Onshore,Onshore,Onshore",6
5842041f4e65fad6a770883c,2024_03_12,32.82978974229765,-117.28161740727381,Windansea,2.6933333333333334,1.224,1.7354166666666666,15,15,"MOSTLY_CLOUDY,CLEAR,CLEAR,NIGHT_OVERCAST,NIGHT_OVERCAST,NIGHT_MOSTLY_CLOUDY","Onshore,Onshore,Onshore,Onshore,Onshore,Onshore",6
5842041f4e65fad6a770883d,2024_03_12,32.838278,-117.28396,Horseshoe,3,1.4666666666666666,1.755,16,16,"MOSTLY_CLOUDY,CLEAR,CLEAR,NIGHT_OVERCAST,NIGHT_MOSTLY_CLOUDY,NIGHT_MOSTLY_CLOUDY","Onshore,Onshore,Onshore,Onshore,Cross-shore,Offshore",6
5842041f4e65fad6a770883f,2024_03_12,32.75034717673179,-117.25337,Ocean Beach,1.86,1.2302499999999998,1.74,15,15,"CLEAR,CLEAR,CLEAR,NIGHT_CLOUDY,NIGHT_CLOUDY,NIGHT_MOSTLY_CLOUDY","Onshore,Onshore,Onshore,Onshore,Onshore,Cross-shore",6
5842041f4e65fad6a7708840,2024_03_12,32.73693,-117.25718,Sunset Cliffs,3,1.4616666666666667,1.7533333333333334,15,15,"MOSTLY_CLEAR,CLEAR,CLEAR,NIGHT_OVERCAST,NIGHT_OVERCAST,NIGHT_MOSTLY_CLOUDY","Onshore,Onshore,Onshore,Onshore,Onshore,Cross-shore",6
5842041f4e65fad6a7708841,2024_03_12,32.796582258728826,-117.25779,Pacific Beach,2.526666666666667,1.2715,1.6968333333333334,15,15,"MOSTLY_CLOUDY,CLEAR,CLEAR,NIGHT_CLOUDY,NIGHT_MOSTLY_CLOUDY,NIGHT_MOSTLY_CLOUDY","Onshore,Cross-shore,Onshore,Cross-shore,Cross-shore,Offshore",6
5842041f4e65fad6a7708842,2024_03_12,32.776636,-117.25514,Mission Beach,2.3316666666666666,1.2769166666666667,1.6976666666666667,15,15,"MOSTLY_CLOUDY,CLEAR,CLEAR,NIGHT_CLOUDY,NIGHT_CLOUDY,NIGHT_MOSTLY_CLOUDY","Onshore,Onshore,Onshore,Onshore,Onshore,Offshore",6
5842041f4e65fad6a7708844,2024_03_12,32.577195519016,-117.13475,Imperial Beach Pier,2.1666666666666665,1.5666666666666667,1.8716666666666666,15,15,"MOSTLY_CLEAR,CLEAR,CLEAR,NIGHT_CLOUDY,NIGHT_CLOUDY,NIGHT_OVERCAST","Onshore,Onshore,Onshore,Onshore,Onshore,Cross-shore",6
5842041f4e65fad6a770884a,2024_03_12,42.88678181061,-70.80843,Seabrook,1.8333333333333333,0.5448416666666667,0.8402008333333333,4,3,"NIGHT_CLEAR,NIGHT_CLEAR,NIGHT_CLEAR,NIGHT_CLEAR,NIGHT_CLEAR,NIGHT_CLEAR","Offshore,Offshore,Offshore,Offshore,Offshore,Offshore",6
5842041f4e65fad6a770884e,2024_03_12,41.434181432898335,-71.45312118111178,Narragansett,1.445,0.055150000000000005,0.35363333333333336,6,4,"NIGHT_CLEAR,NIGHT_CLEAR,NIGHT_CLEAR,NIGHT_CLEAR,NIGHT_CLEAR,NIGHT_CLEAR","Offshore,Offshore,Offshore,Offshore,Offshore,Offshore",6
5842041f4e65fad6a7708850,2024_03_12,40.582703230722,-73.65247,Lincoln Blvd,0.6666666666666666,0.017083333333333325,0.32681666666666664,7,6,"NIGHT_CLEAR,NIGHT_CLEAR,NIGHT_CLEAR,NIGHT_CLEAR,NIGHT_CLEAR,NIGHT_CLEAR","Onshore,Onshore,Onshore,Onshore,Onshore,Onshore",6
5842041f4e65fad6a7708852,2024_03_12,40.58342841721757,-73.81182,Rockaways,0,-0.035,0.23306666666666667,7,6,"NIGHT_CLEAR,NIGHT_CLEAR,NIGHT_CLEAR,NIGHT_CLEAR,NIGHT_CLEAR,NIGHT_CLEAR","Offshore,Cross-shore,Cross-shore,Cross-shore,Cross-shore,Cross-shore",6
5842041f4e65fad6a7708853,2024_03_12,40.330474,-73.9734,Monmouth Beach,0.5,-0.01708333333333334,0.2880666666666667,7,6,"NIGHT_CLEAR,NIGHT_CLEAR,NIGHT_CLEAR,NIGHT_CLEAR,NIGHT_CLEAR,NIGHT_CLEAR","Offshore,Offshore,Offshore,Offshore,Offshore,Offshore",6
5842041f4e65fad6a7708856,2024_03_12,40.113,-74.028,Manasquan Inlet,1,-0.03208333333333334,0.23931666666666668,7,6,"NIGHT_CLEAR,NIGHT_CLEAR,NIGHT_CLEAR,NIGHT_CLEAR,NIGHT_CLEAR,NIGHT_CLEAR","Offshore,Offshore,Offshore,Offshore,Offshore,Offshore",6
5842041f4e65fad6a7708857,2024_03_12,39.941519877445664,-74.06829,Casino Pier,1,-0.03208333333333334,0.2414,7,6,"NIGHT_CLEAR,NIGHT_CLEAR,NIGHT_CLEAR,NIGHT_CLEAR,NIGHT_CLEAR,NIGHT_CLEAR","Offshore,Offshore,Offshore,Offshore,Offshore,Offshore",6
5842041f4e65fad6a7708858,2024_03_12,39.28223089949212,-74.55766,North End OC,1.445,-0.020416666666666666,0.25598333333333334,8,6,"NIGHT_CLEAR,NIGHT_CLEAR,NIGHT_CLEAR,NIGHT_CLEAR,NIGHT_CLEAR,NIGHT_CLEAR","Offshore,Offshore,Offshore,Offshore,Offshore,Offshore",6
5842041f4e65fad6a770885b,2024_03_12,39.65080599934257,-74.17146,Ship Bottom,1.445,-0.036250000000000004,0.2489,8,6,"NIGHT_CLEAR,NIGHT_CLEAR,NIGHT_CLEAR,NIGHT_CLEAR,NIGHT_CLEAR,NIGHT_CLEAR","Offshore,Offshore,Offshore,Offshore,Offshore,Offshore",6
5842041f4e65fad6a7708863,2024_03_12,36.034151543144,-75.66791,Third Street,3,0.4908666666666667,0.8247666666666666,9,8,"CLEAR,NIGHT_CLEAR,NIGHT_CLEAR,NIGHT_CLEAR,NIGHT_CLEAR,NIGHT_CLEAR","Offshore,Offshore,Offshore,Offshore,Offshore,Offshore",6
5842041f4e65fad6a7708867,2024_03_12,35.605833221351425,-75.46303,S-Turns,1.555,0.7187833333333333,1.0296333333333334,10,9,"CLEAR,NIGHT_CLEAR,NIGHT_CLEAR,NIGHT_CLEAR,NIGHT_CLEAR,NIGHT_CLEAR","Offshore,Offshore,Offshore,Offshore,Offshore,Offshore",6
5842041f4e65fad6a770886d,2024_03_12,38.338461,-75.08117,Ocean City Boardwalk,1,-0.0175,0.25723333333333337,8,7,"CLEAR,NIGHT_CLEAR,NIGHT_CLEAR,NIGHT_CLEAR,NIGHT_CLEAR,NIGHT_CLEAR","Offshore,Offshore,Offshore,Offshore,Offshore,Offshore",6
5842041f4e65fad6a770886f,2024_03_12,29.844757212379562,-81.26136,A St.,2,0.555,0.86,18,18,"CLEAR,NIGHT_CLEAR,NIGHT_CLEAR,NIGHT_CLEAR,NIGHT_CLEAR,NIGHT_CLEAR","Onshore,Onshore,Onshore,Onshore,Onshore,Onshore",6
5842041f4e65fad6a7708871,2024_03_12,29.069417851135093,-80.90824,New Smyrna Beach,2,0.9493999999999999,1.4107666666666665,19,17,"CLEAR,NIGHT_CLEAR,NIGHT_CLEAR,NIGHT_CLEAR,NIGHT_CLEAR,NIGHT_CLEAR","Onshore,Onshore,Onshore,Onshore,Onshore,Onshore",6
5842041f4e65fad6a7708872,2024_03_12,28.367707417566,-80.60171,Cocoa Beach Pier,2,0.62085,0.9252333333333334,23,21,"MOSTLY_CLEAR,NIGHT_MOSTLY_CLEAR,NIGHT_CLEAR,NIGHT_MOSTLY_CLOUDY,NIGHT_MOSTLY_CLOUDY,NIGHT_CLEAR","Onshore,Onshore,Onshore,Onshore,Onshore,Onshore",6
5842041f4e65fad6a7708873,2024_03_12,28.091782738658846,-80.56479,Indialantic,1.9716666666666667,0.6286,0.99255,23,21,"MOSTLY_CLEAR,NIGHT_CLEAR,NIGHT_CLEAR,NIGHT_CLEAR,NIGHT_MOSTLY_CLEAR,NIGHT_CLEAR","Onshore,Onshore,Onshore,Onshore,Onshore,Onshore",6
5842041f4e65fad6a7708876,2024_03_12,27.25392904143517,-80.19455,Jensen Beach,1.555,0.8152333333333333,1.1346166666666666,23,22,"MOSTLY_CLOUDY,NIGHT_MOSTLY_CLOUDY,NIGHT_MOSTLY_CLOUDY,NIGHT_OVERCAST,NIGHT_MOSTLY_CLOUDY,NIGHT_OVERCAST","Onshore,Onshore,Onshore,Onshore,Onshore,Onshore",6
5842041f4e65fad6a7708879,2024_03_12,26.76346795333825,-80.0360655784607,Reef Road,2,0.48460000000000003,0.8281499999999999,24,23,"OVERCAST,NIGHT_OVERCAST,NIGHT_MOSTLY_CLOUDY,NIGHT_CLOUDY,NIGHT_OVERCAST,NIGHT_OVERCAST","Onshore,Onshore,Onshore,Onshore,Onshore,Onshore",6
5842041f4e65fad6a770887c,2024_03_12,26.336499228484,-80.06956100463,Boca Raton Inlet,0.9716666666666667,0.13416666666666666,0.43555,25,23,"OVERCAST,NIGHT_CLOUDY,NIGHT_MOSTLY_CLOUDY,NIGHT_MOSTLY_CLOUDY,NIGHT_MOSTLY_CLOUDY,NIGHT_MOSTLY_CLOUDY","Onshore,Onshore,Onshore,Onshore,Onshore,Onshore",6
5842041f4e65fad6a770887d,2024_03_12,26.31719311695038,-80.07452525176168,Deerfield Beach Pier,1,0.19513055555555558,0.501275,25,23,"OVERCAST,NIGHT_CLOUDY,NIGHT_SHOWERS,NIGHT_MOSTLY_CLOUDY,NIGHT_OVERCAST,NIGHT_MOSTLY_CLOUDY","Onshore,Onshore,Onshore,Onshore,Onshore,Onshore",6
5842041f4e65fad6a7708881,2024_03_12,30.20276320866628,-85.85626528676136,"Spyglass Dr., Panama City",0,0,0.15115000000000003,19,18,"CLEAR,NIGHT_CLEAR,NIGHT_CLEAR,NIGHT_CLEAR,NIGHT_CLEAR,NIGHT_CLEAR","Offshore,Offshore,Offshore,Offshore,Offshore,Offshore",6
5842041f4e65fad6a7708884,2024_03_12,33.39000832738053,-117.59852,Cottons,3,1.0354,1.3009166666666667,16,16,"MOSTLY_CLEAR,CLEAR,CLEAR,NIGHT_MOSTLY_CLOUDY,NIGHT_MOSTLY_CLOUDY,NIGHT_MOSTLY_CLOUDY","Onshore,Onshore,Onshore,Onshore,Onshore,Cross-shore",6
5842041f4e65fad6a7708885,2024_03_12,33.359416282661,-117.54167901405711,Trails,2.3333333333333335,0.6766666666666666,0.9866666666666667,15,15,"MOSTLY_CLEAR,CLEAR,CLEAR,NIGHT_BRIEF_SHOWERS,NIGHT_BRIEF_SHOWERS,NIGHT_CLEAR","Onshore,Onshore,Onshore,Cross-shore,Cross-shore,Offshore",6
5842041f4e65fad6a7708886,2024_03_12,33.38042605929805,-117.58332,Middles,3,0.8644666666666667,1.3138333333333334,16,16,"MOSTLY_CLEAR,CLEAR,CLEAR,NIGHT_MOSTLY_CLOUDY,NIGHT_MOSTLY_CLOUDY,NIGHT_MOSTLY_CLOUDY","Onshore,Onshore,Onshore,Onshore,Cross-shore,Offshore",6
5842041f4e65fad6a7708887,2024_03_12,33.38445596302903,-117.59445,Upper Trestles,3,1.1599833333333334,1.4755,16,16,"MOSTLY_CLEAR,CLEAR,CLEAR,NIGHT_MOSTLY_CLOUDY,NIGHT_MOSTLY_CLOUDY,NIGHT_MOSTLY_CLOUDY","Onshore,Onshore,Onshore,Cross-shore,Cross-shore,Offshore",6
5842041f4e65fad6a7708889,2024_03_12,28.944414,-95.28883,Surfside,1,0.257715,0.4026783333333333,19,19,"CLEAR,CLEAR,NIGHT_CLEAR,NIGHT_CLEAR,NIGHT_CLEAR,NIGHT_CLEAR","Onshore,Onshore,Onshore,Onshore,Onshore,Onshore",6
5842041f4e65fad6a770888a,2024_03_12,33.38143999849023,-117.58843,Lower Trestles,3,1.1304,1.6610166666666668,16,16,"MOSTLY_CLEAR,CLEAR,CLEAR,NIGHT_MOSTLY_CLOUDY,NIGHT_MOSTLY_CLOUDY,NIGHT_MOSTLY_CLOUDY","Onshore,Onshore,Onshore,Cross-shore,Cross-shore,Offshore",6
5842041f4e65fad6a770888b,2024_03_12,33.379622288757,-117.57894,Church,3,0.8982166666666667,1.3055,16,16,"MOSTLY_CLEAR,CLEAR,CLEAR,NIGHT_MOSTLY_CLOUDY,NIGHT_CLEAR,NIGHT_MOSTLY_CLOUDY","Onshore,Onshore,Onshore,Onshore,Cross-shore,Offshore",6
5842041f4e65fad6a770888d,2024_03_12,21.679,-158.042,Sunset Beach,4,2.019083333333333,2.50355,26,25,"BRIEF_SHOWERS,OVERCAST,BRIEF_SHOWERS,CLEAR,BRIEF_SHOWERS,MOSTLY_CLOUDY","Cross-shore,Offshore,Cross-shore,Offshore,Cross-shore,Cross-shore",6
5842041f4e65fad6a770888e,2024_03_12,21.670550036401,-158.0482,Rocky Point,3,1.5201833333333334,1.9686833333333333,26,25,"CLEAR,CLEAR,BRIEF_SHOWERS_POSSIBLE,CLEAR,CLEAR,BRIEF_SHOWERS","Cross-shore,Cross-shore,Cross-shore,Cross-shore,Onshore,Cross-shore",6
5842041f4e65fad6a770888f,2024_03_12,21.668,-158.05,Chambers,3,1.97,2.3566666666666665,24,24,"CLEAR,CLEAR,BRIEF_SHOWERS_POSSIBLE,CLEAR,BRIEF_SHOWERS_POSSIBLE,BRIEF_SHOWERS","Cross-shore,Cross-shore,Cross-shore,Cross-shore,Onshore,Cross-shore",6
5842041f4e65fad6a7708890,2024_03_12,21.66522,-158.0526,Pipeline,4,2.1414333333333335,2.5774166666666667,26,25,"CLEAR,CLEAR,BRIEF_SHOWERS_POSSIBLE,CLEAR,BRIEF_SHOWERS_POSSIBLE,BRIEF_SHOWERS","Cross-shore,Cross-shore,Cross-shore,Cross-shore,Cross-shore,Cross-shore",6
5842041f4e65fad6a7708891,2024_03_12,21.665,-158.054,Backdoor,4,2.1414333333333335,2.5774166666666667,26,25,"CLEAR,CLEAR,BRIEF_SHOWERS_POSSIBLE,CLEAR,BRIEF_SHOWERS_POSSIBLE,BRIEF_SHOWERS","Cross-shore,Cross-shore,Cross-shore,Cross-shore,Cross-shore,Cross-shore",6
5842041f4e65fad6a7708892,2024_03_12,21.662,-158.057,Rockpile,3,1.78,2.1266666666666665,24,24,"CLEAR,CLEAR,BRIEF_SHOWERS_POSSIBLE,CLEAR,BRIEF_SHOWERS_POSSIBLE,BRIEF_SHOWERS","Cross-shore,Cross-shore,Cross-shore,Cross-shore,Cross-shore,Cross-shore",6
5842041f4e65fad6a7708893,2024_03_12,21.65870453806827,-158.06058,Log Cabins,3,1.5516666666666667,1.8583333333333334,24,24,"CLEAR,CLEAR,BRIEF_SHOWERS_POSSIBLE,CLEAR,BRIEF_SHOWERS_POSSIBLE,BRIEF_SHOWERS","Cross-shore,Cross-shore,Cross-shore,Cross-shore,Cross-shore,Cross-shore",6
5842041f4e65fad6a7708894,2024_03_12,21.66203493640557,-158.05495,Off-The-Wall,3,1.8199999999999998,2.1733333333333333,24,24,"CLEAR,CLEAR,BRIEF_SHOWERS_POSSIBLE,CLEAR,CLEAR,BRIEF_SHOWERS","Cross-shore,Cross-shore,Cross-shore,Cross-shore,Onshore,Cross-shore",6
5842041f4e65fad6a7708895,2024_03_12,21.643,-158.067,Waimea Bay,NA,2.0301833333333335,2.5795166666666667,26,25,"CLEAR,CLEAR,BRIEF_SHOWERS_POSSIBLE,CLEAR,BRIEF_SHOWERS_POSSIBLE,BRIEF_SHOWERS","Offshore,Offshore,Offshore,Offshore,Cross-shore,Cross-shore",6
5842041f4e65fad6a7708896,2024_03_12,21.622,-158.087,Hultin's,4,2.5006,3.1436833333333336,26,25,"CLEAR,CLEAR,CLEAR,CLEAR,CLEAR,MOSTLY_CLOUDY","Offshore,Offshore,Offshore,Offshore,Offshore,Offshore",6
5842041f4e65fad6a7708897,2024_03_12,21.623,-158.085,Jocko's,3,1.625,1.9416666666666667,24,24,"CLEAR,CLEAR,CLEAR,CLEAR,CLEAR,MOSTLY_CLOUDY","Cross-shore,Cross-shore,Cross-shore,Cross-shore,Cross-shore,Cross-shore",6
5842041f4e65fad6a7708898,2024_03_12,21.62,-158.088,Laniakea,3.6666666666666665,1.4439333333333333,1.75575,26,25,"CLEAR,CLEAR,CLEAR,CLEAR,CLEAR,MOSTLY_CLOUDY","Offshore,Offshore,Offshore,Offshore,Offshore,Offshore",6
5842041f4e65fad6a7708899,2024_03_12,21.625,-158.083,Chun's,3.5,1.705,2.0366666666666666,24,24,"CLEAR,CLEAR,CLEAR,CLEAR,CLEAR,MOSTLY_CLOUDY","Offshore,Offshore,Offshore,Offshore,Offshore,Offshore",6
5842041f4e65fad6a770889c,2024_03_12,21.286357895152136,-157.8515,South Shore - Ala Moana Park,2,0.5033333333333333,0.8066666666666666,24,24,"CLEAR,CLEAR,SHOWERS,MOSTLY_CLOUDY,CLEAR,BRIEF_SHOWERS","Offshore,Offshore,Offshore,Offshore,Offshore,Offshore",6
5842041f4e65fad6a770889d,2024_03_12,19.606,-155.978,Banyans,2,0.4457166666666667,0.7475333333333334,26,25,"OVERCAST,CLOUDY,CLEAR,CLEAR,CLEAR,MOSTLY_CLOUDY","Onshore,Onshore,Cross-shore,Onshore,Onshore,Cross-shore",6
5842041f4e65fad6a770889e,2024_03_12,20.029,-155.831,Kawaihae,1.8333333333333333,0.4444,0.5619166666666667,24,24,"CLEAR,CLEAR,MOSTLY_CLOUDY,MOSTLY_CLOUDY,CLEAR,MOSTLY_CLOUDY","Onshore,Onshore,Onshore,Onshore,Onshore,Onshore",6
5842041f4e65fad6a770889f,2024_03_12,33.07541383424675,-117.3105,Grandview,3,0.9216666666666666,1.125,15,15,"MOSTLY_CLOUDY,CLEAR,CLEAR,NIGHT_CLEAR,NIGHT_CLEAR,NIGHT_MOSTLY_CLOUDY","Onshore,Onshore,Onshore,Onshore,Onshore,Cross-shore",6
5842041f4e65fad6a77088a0,2024_03_12,33.065267421296596,-117.30577,Beacons,2.5,0.87,1.0999999999999999,15,15,"MOSTLY_CLOUDY,CLEAR,CLEAR,NIGHT_CLEAR,NIGHT_CLEAR,NIGHT_MOSTLY_CLOUDY","Onshore,Onshore,Onshore,Onshore,Cross-shore,Onshore",6
5842041f4e65fad6a77088a2,2024_03_12,21.252,-157.805,Diamond Head,3,0.9661704166666667,1.2802108333333333,26,25,"CLEAR,MOSTLY_CLOUDY,MOSTLY_CLOUDY,MOSTLY_CLOUDY,CLEAR,BRIEF_SHOWERS","Cross-shore,Cross-shore,Cross-shore,Cross-shore,Cross-shore,Cross-shore",6
5842041f4e65fad6a77088a3,2024_03_12,33.04694255008896,-117.29966,Moonlight State Beach,2.1666666666666665,0.97,1.1566666666666667,15,15,"MOSTLY_CLOUDY,MOSTLY_CLOUDY,CLEAR,NIGHT_CLEAR,NIGHT_CLEAR,NIGHT_MOSTLY_CLOUDY","Onshore,Onshore,Onshore,Onshore,Onshore,Cross-shore",6
5842041f4e65fad6a77088a5,2024_03_12,33.08685865930869,-117.31532,Ponto,2,1.03,1.32,15,15,"MOSTLY_CLOUDY,CLEAR,CLEAR,NIGHT_CLEAR,NIGHT_CLEAR,NIGHT_MOSTLY_CLOUDY","Onshore,Onshore,Onshore,Onshore,Onshore,Onshore",6
5842041f4e65fad6a77088a6,2024_03_12,33.130343587871906,-117.33667796442558,Terra Mar Point,3,0.8365,1.2351666666666665,16,16,"MOSTLY_CLOUDY,MOSTLY_CLOUDY,CLEAR,NIGHT_CLEAR,NIGHT_CLEAR,NIGHT_MOSTLY_CLOUDY","Onshore,Onshore,Onshore,Onshore,Cross-shore,Onshore",6
5842041f4e65fad6a77088af,2024_03_12,32.95916304183685,-117.26963,Del Mar,2.3333333333333335,1.1816666666666666,1.4166666666666665,16,16,"MOSTLY_CLOUDY,CLEAR,CLEAR,NIGHT_CLOUDY,NIGHT_CLEAR,NIGHT_MOSTLY_CLOUDY","Onshore,Onshore,Onshore,Onshore,Onshore,Offshore",6
5842041f4e65fad6a77088b0,2024_03_12,32.97527261243354,-117.2721061331305,Del Mar Rivermouth,2.1666666666666665,1.1166666666666667,1.3833333333333333,15,15,"MOSTLY_CLOUDY,CLEAR,CLEAR,NIGHT_CLOUDY,NIGHT_MOSTLY_CLOUDY,NIGHT_MOSTLY_CLOUDY","Onshore,Onshore,Onshore,Onshore,Onshore,Cross-shore",6
5842041f4e65fad6a77088b1,2024_03_12,33.01352178146273,-117.28219,Cardiff Reef,3,1.1469166666666668,1.6391666666666669,16,16,"MOSTLY_CLOUDY,CLEAR,CLEAR,NIGHT_CLEAR,NIGHT_CLOUDY,NIGHT_MOSTLY_CLOUDY","Onshore,Onshore,Onshore,Onshore,Cross-shore,Cross-shore",6
5842041f4e65fad6a77088b3,2024_03_12,33.00211185876003,-117.2811,Seaside Reef,3,1.159,1.5925,16,16,"MOSTLY_CLOUDY,CLEAR,CLEAR,NIGHT_CLOUDY,NIGHT_CLEAR,NIGHT_CLEAR","Onshore,Onshore,Onshore,Onshore,Cross-shore,Cross-shore",6
5842041f4e65fad6a77088b4,2024_03_12,33.0341859796287,-117.29552,Swami's,2.8333333333333335,1.2156666666666667,1.571,16,16,"MOSTLY_CLOUDY,CLEAR,CLEAR,NIGHT_CLEAR,NIGHT_CLOUDY,NIGHT_MOSTLY_CLOUDY","Onshore,Onshore,Onshore,Onshore,Onshore,Cross-shore",6
5842041f4e65fad6a77088b7,2024_03_12,33.04569760260221,-117.2994,D Street,2,1.0333333333333334,1.2883333333333333,15,15,"MOSTLY_CLOUDY,MOSTLY_CLOUDY,CLEAR,NIGHT_CLEAR,NIGHT_CLEAR,NIGHT_MOSTLY_CLOUDY","Onshore,Onshore,Onshore,Onshore,Onshore,Cross-shore",6
5842041f4e65fad6a77088b8,2024_03_12,33.02090944350196,-117.28535,San Elijo State Beach,3,1.0419166666666666,1.4591666666666667,16,16,"MOSTLY_CLOUDY,CLEAR,CLEAR,NIGHT_CLEAR,NIGHT_CLOUDY,NIGHT_MOSTLY_CLOUDY","Onshore,Onshore,Onshore,Onshore,Cross-shore,Cross-shore",6
5842041f4e65fad6a77088c2,2024_03_12,32.80662846492798,-117.2688764333725,PB Point,3,1.31,1.5733333333333333,16,16,"MOSTLY_CLOUDY,MOSTLY_CLOUDY,MOSTLY_CLOUDY,NIGHT_OVERCAST,NIGHT_OVERCAST,NIGHT_MOSTLY_CLOUDY","Cross-shore,Cross-shore,Cross-shore,Cross-shore,Offshore,Offshore",6
5842041f4e65fad6a77088c4,2024_03_12,32.8060476681448,-117.26479,Old Man's at Tourmaline,3,1.01,1.2266666666666666,16,16,"MOSTLY_CLOUDY,MOSTLY_CLOUDY,MOSTLY_CLOUDY,NIGHT_OVERCAST,NIGHT_OVERCAST,NIGHT_MOSTLY_CLOUDY","Cross-shore,Cross-shore,Cross-shore,Cross-shore,Offshore,Offshore",6
5842041f4e65fad6a77088cb,2024_03_12,32.557056711256,-117.1327445020322,Tijuana Slough,2.3333333333333335,0.9483333333333334,1.1333333333333333,15,15,"MOSTLY_CLEAR,CLEAR,CLEAR,NIGHT_OVERCAST,NIGHT_MOSTLY_CLOUDY,NIGHT_CLOUDY","Onshore,Onshore,Cross-shore,Cross-shore,Cross-shore,Cross-shore",6
5842041f4e65fad6a77088cc,2024_03_12,32.863,-117.257,La Jolla Shores,2,0.9966666666666667,1.19,16,16,"MOSTLY_CLOUDY,MOSTLY_CLOUDY,CLEAR,NIGHT_CLOUDY,NIGHT_CLOUDY,NIGHT_MOSTLY_CLOUDY","Onshore,Onshore,Onshore,Onshore,Onshore,Onshore",6
5842041f4e65fad6a77088ce,2024_03_12,32.67443657790586,-117.17421316238693,Coronado Beach,2.5,0.7883333333333333,1.035,15,15,"CLEAR,CLEAR,CLEAR,NIGHT_CLOUDY,NIGHT_OVERCAST,NIGHT_CLOUDY","Cross-shore,Cross-shore,Offshore,Offshore,Offshore,Offshore",6
5842041f4e65fad6a77088cf,2024_03_12,33.40484417640326,-117.60749,San Clemente State Beach,2.1666666666666665,0.7233333333333333,1.03,15,15,"MOSTLY_CLEAR,CLEAR,CLEAR,NIGHT_MOSTLY_CLOUDY,NIGHT_MOSTLY_CLOUDY,NIGHT_MOSTLY_CLOUDY","Onshore,Onshore,Onshore,Cross-shore,Cross-shore,Cross-shore",6
5842041f4e65fad6a77088d5,2024_03_12,33.4663042002114,-117.7168352817103,Strands,3,0.96905,1.4133666666666667,15,15,"CLEAR,CLEAR,CLEAR,NIGHT_MOSTLY_CLOUDY,NIGHT_MOSTLY_CLOUDY,NIGHT_MOSTLY_CLOUDY","Onshore,Onshore,Onshore,Onshore,Cross-shore,Cross-shore",6
5842041f4e65fad6a77088d7,2024_03_12,33.4609858001748,-117.68535,Doheny State Beach,2.195,0.2301,0.53395,16,16,"CLEAR,CLEAR,MOSTLY_CLEAR,NIGHT_MOSTLY_CLOUDY,NIGHT_MOSTLY_CLOUDY,NIGHT_MOSTLY_CLOUDY","Onshore,Onshore,Onshore,Cross-shore,Cross-shore,Offshore",6
5842041f4e65fad6a77088dc,2024_03_12,33.50894790083017,-117.75243,Aliso Creek,2,0.695,1.0016666666666667,15,15,"CLEAR,CLEAR,MOSTLY_CLEAR,NIGHT_MOSTLY_CLOUDY,NIGHT_CLEAR,NIGHT_CLEAR","Onshore,Onshore,Onshore,Cross-shore,Cross-shore,Cross-shore",6
5842041f4e65fad6a77088dd,2024_03_12,33.5326591767067,-117.77764,Brooks Street,2,0.445,0.7466666666666667,15,15,"CLEAR,CLEAR,MOSTLY_CLEAR,NIGHT_CLEAR,NIGHT_MIST,NIGHT_CLEAR","Onshore,Onshore,Onshore,Cross-shore,Cross-shore,Cross-shore",6
5842041f4e65fad6a77088de,2024_03_12,33.53561225884637,-117.7799,Thalia Street,2,0.495,0.7983333333333333,15,15,"CLEAR,CLEAR,MOSTLY_CLEAR,NIGHT_CLEAR,NIGHT_CLEAR,NIGHT_CLEAR","Onshore,Onshore,Onshore,Cross-shore,Cross-shore,Cross-shore",6
5842041f4e65fad6a77088e3,2024_03_12,33.54268310353641,-117.7916,Rockpile,3,0.9366666666666666,1.1166666666666667,15,15,"CLEAR,CLEAR,MOSTLY_CLEAR,NIGHT_CLEAR,NIGHT_MIST,NIGHT_CLEAR","Onshore,Onshore,Cross-shore,Cross-shore,Cross-shore,Cross-shore",6
5842041f4e65fad6a77088e4,2024_03_12,33.7368459504689,-118.10342,"Seal Beach Pier, Southside",1,0.20666666666666667,0.5133333333333333,15,15,"CLEAR,CLEAR,CLEAR,NIGHT_MOSTLY_CLEAR,NIGHT_MOSTLY_CLEAR,NIGHT_CLEAR","Onshore,Onshore,Onshore,Onshore,Onshore,Onshore",6
5842041f4e65fad6a77088e5,2024_03_12,33.73933701820233,-118.117,Ray Bay,1,0.21166666666666667,0.515,15,15,"CLEAR,CLEAR,CLEAR,NIGHT_MOSTLY_CLEAR,NIGHT_CLEAR,NIGHT_MOSTLY_CLEAR","Onshore,Onshore,Onshore,Onshore,Onshore,Onshore",6
5842041f4e65fad6a77088e7,2024_03_12,33.728733,-118.08982,Surfside,2,0.8766666666666667,1.1033333333333333,15,15,"CLEAR,CLEAR,CLEAR,NIGHT_MOSTLY_CLEAR,NIGHT_MOSTLY_CLOUDY,NIGHT_MOSTLY_CLOUDY","Onshore,Onshore,Onshore,Onshore,Onshore,Onshore",6
5842041f4e65fad6a77088e8,2024_03_12,33.68760321488161,-118.04236,Bolsa Chica State Beach,1.9716666666666667,1.0728,1.3824833333333333,15,15,"CLEAR,CLEAR,CLEAR,NIGHT_CLEAR,NIGHT_MOSTLY_CLOUDY,NIGHT_BRIEF_SHOWERS","Onshore,Onshore,Onshore,Onshore,Onshore,Onshore",6
5842041f4e65fad6a77088ea,2024_03_12,33.66704400178788,-118.0192,North HB Streets,1.805,1.1248833333333332,1.4416999999999998,15,15,"CLEAR,CLEAR,CLEAR,NIGHT_CLEAR,NIGHT_CLEAR,NIGHT_MOSTLY_CLEAR","Onshore,Onshore,Onshore,Onshore,Cross-shore,Cross-shore",6
5842041f4e65fad6a77088ed,2024_03_12,33.65475101379567,-118.00291,Huntington Beach Pier Southside,2,1.1383166666666666,1.4813333333333334,15,15,"CLEAR,CLEAR,CLEAR,NIGHT_MOSTLY_CLEAR,NIGHT_CLEAR,NIGHT_CLEAR","Onshore,Onshore,Onshore,Onshore,Onshore,Onshore",6
5842041f4e65fad6a77088ee,2024_03_12,33.62778647706099,-117.95939,River Jetties,2,0.9844666666666667,1.3808666666666667,15,15,"CLEAR,CLEAR,MOSTLY_CLEAR,NIGHT_CLEAR,NIGHT_MOSTLY_CLOUDY,NIGHT_CLEAR","Onshore,Onshore,Onshore,Onshore,Onshore,Onshore",6
5842041f4e65fad6a77088f2,2024_03_12,33.605165797643664,-117.92500376701355,Newport Point,2,0.7083333333333334,1.0116666666666667,15,15,"CLEAR,CLEAR,CLEAR,NIGHT_CLEAR,NIGHT_CLEAR,NIGHT_CLEAR","Onshore,Onshore,Cross-shore,Cross-shore,Cross-shore,Cross-shore",6
5842041f4e65fad6a77088f3,2024_03_12,33.58982984726977,-117.87713,Corona del Mar,2,0.27144999999999997,0.42413999999999996,15,15,"CLEAR,CLEAR,MOSTLY_CLEAR,NIGHT_CLEAR,NIGHT_CLEAR,NIGHT_MOSTLY_CLEAR","Onshore,Onshore,Onshore,Onshore,Onshore,Onshore",6
5842041f4e65fad6a77088f7,2024_03_12,34.00750300824362,-118.4971783496269,Santa Monica Pier,2,0.4066666666666667,0.71,15,15,"MOSTLY_CLEAR,CLEAR,CLEAR,NIGHT_CLEAR,NIGHT_CLEAR,NIGHT_CLEAR","Onshore,Onshore,Onshore,Onshore,Onshore,Onshore",6
5842041f4e65fad6a77088ff,2024_03_12,33.94070283102945,-118.44321,Dockweiler Beach,1.6933333333333334,0.8040195833333333,1.1475037499999998,14,14,"CLEAR,CLEAR,CLEAR,NIGHT_MOSTLY_CLOUDY,NIGHT_CLEAR,NIGHT_MOSTLY_CLEAR","Onshore,Onshore,Onshore,Onshore,Onshore,Onshore",6
5842041f4e65fad6a7708900,2024_03_12,33.9231846937237,-118.4341465777908,Shitpipe,1.6933333333333334,0.8143333333333334,1.1825833333333333,14,14,"CLEAR,CLEAR,CLEAR,NIGHT_CLEAR,NIGHT_CLEAR,NIGHT_CLEAR","Onshore,Onshore,Onshore,Onshore,Onshore,Onshore",6
5842041f4e65fad6a7708902,2024_03_12,33.9108528052242,-118.4279133138721,Hammerland,1.6933333333333334,1.1160833333333333,1.4286388888888888,14,14,"CLEAR,CLEAR,CLEAR,NIGHT_CLEAR,NIGHT_CLEAR,NIGHT_CLEAR","Onshore,Onshore,Onshore,Onshore,Onshore,Onshore",6
5842041f4e65fad6a7708904,2024_03_12,33.87201368173932,-118.4075151286262,Hermosa Beach,1.5266666666666666,0.6986388888888889,1.0010833333333333,14,14,"CLEAR,CLEAR,MOSTLY_CLEAR,NIGHT_MOSTLY_CLOUDY,NIGHT_MOSTLY_CLEAR,NIGHT_MOSTLY_CLEAR","Onshore,Onshore,Onshore,Onshore,Onshore,Onshore",6
5842041f4e65fad6a7708906,2024_03_12,33.90129336911256,-118.42184,El Porto,1.6933333333333334,1.1383055555555555,1.5280833333333335,14,14,"CLEAR,CLEAR,CLEAR,NIGHT_MOSTLY_CLOUDY,NIGHT_CLEAR,NIGHT_CLEAR","Onshore,Onshore,Onshore,Onshore,Onshore,Onshore",6
5842041f4e65fad6a7708907,2024_03_12,33.87963506431794,-118.41102,Manhattan Beach Pier,1.6933333333333334,1.1587222222222222,1.3944999999999999,14,14,"CLEAR,CLEAR,CLEAR,NIGHT_MOSTLY_CLOUDY,NIGHT_CLEAR,NIGHT_CLEAR","Onshore,Onshore,Onshore,Onshore,Onshore,Onshore",6
5842041f4e65fad6a7708914,2024_03_12,34.038053387863464,-118.5532,Sunset Point,1.3333333333333333,0.20666666666666667,0.51,15,15,"CLEAR,CLEAR,CLEAR,NIGHT_CLEAR,NIGHT_CLEAR,NIGHT_CLEAR","Onshore,Onshore,Onshore,Onshore,Offshore,Offshore",6
5842041f4e65fad6a7708920,2024_03_12,33.80930828074364,-118.3933198342649,Haggerty's,1,0.202,0.384,15,15,"CLEAR,CLEAR,MOSTLY_CLEAR,NIGHT_MOSTLY_CLOUDY,NIGHT_MOSTLY_CLOUDY,NIGHT_MOSTLY_CLEAR","Onshore,Onshore,Onshore,Onshore,Onshore,Onshore",6
5842041f4e65fad6a7708921,2024_03_12,33.85044519861206,-118.40048,Redondo Breakwater,2.6666666666666665,1.195,1.4416666666666667,16,16,"CLEAR,CLEAR,MOSTLY_CLEAR,NIGHT_MOSTLY_CLOUDY,NIGHT_MOSTLY_CLEAR,NIGHT_MOSTLY_CLEAR","Onshore,Onshore,Onshore,Onshore,Onshore,Onshore",6
5842041f4e65fad6a7708927,2024_03_12,33.70877301002487,-118.2840112858389,Cabrillo Beach,2,0.09166666666666667,0.39666666666666667,15,15,"CLEAR,CLEAR,CLEAR,NIGHT_MOSTLY_CLEAR,NIGHT_MOSTLY_CLOUDY,NIGHT_MOSTLY_CLEAR","Cross-shore,Offshore,Offshore,Offshore,Offshore,Offshore",6
5842041f4e65fad6a770892c,2024_03_12,33.77209986806257,-118.4268428476672,Lunada Bay,1.5,1.035,1.2966666666666666,15,15,"MOSTLY_CLEAR,CLEAR,CLEAR,NIGHT_MOSTLY_CLOUDY,NIGHT_MOSTLY_CLOUDY,NIGHT_MOSTLY_CLEAR","Onshore,Onshore,Onshore,Onshore,Onshore,Onshore",6
5842041f4e65fad6a770892d,2024_03_12,33.79294656286144,-118.4070316699825,PV Cove,1.8333333333333333,0.751285,1.0063083333333334,15,15,"CLEAR,CLEAR,MOSTLY_CLEAR,NIGHT_MOSTLY_CLOUDY,NIGHT_MOSTLY_CLOUDY,NIGHT_MOSTLY_CLEAR","Onshore,Onshore,Onshore,Onshore,Onshore,Onshore",6
5842041f4e65fad6a7708930,2024_03_12,34.03944902292561,-118.57539,Chart House,1,0.07166666666666667,0.37666666666666665,15,15,"MOSTLY_CLEAR,MOSTLY_CLEAR,MOSTLY_CLEAR,NIGHT_CLEAR,NIGHT_CLEAR,NIGHT_CLEAR","Cross-shore,Onshore,Onshore,Onshore,Offshore,Offshore",6
5842041f4e65fad6a7708936,2024_03_12,34.0016731994772,-118.80456,Point Dume,2.445,0.5134666666666666,0.8193666666666667,15,15,"CLEAR,CLEAR,CLEAR,NIGHT_CLEAR,NIGHT_CLEAR,NIGHT_CLEAR","Cross-shore,Cross-shore,Cross-shore,Offshore,Offshore,Offshore",6
5842041f4e65fad6a7708937,2024_03_12,34.02587527588963,-118.7554939066114,Latigo Point,2,0.335,0.6416666666666667,15,15,"CLEAR,CLEAR,CLEAR,NIGHT_CLEAR,NIGHT_CLEAR,NIGHT_CLEAR","Cross-shore,Cross-shore,Offshore,Offshore,Offshore,Offshore",6
5842041f4e65fad6a770893f,2024_03_12,34.043762,-118.93294,Leo Carrillo,1.9716666666666667,0.6159666666666667,1.0323166666666665,15,15,"CLEAR,CLEAR,CLEAR,NIGHT_CLEAR,NIGHT_MOSTLY_CLEAR,NIGHT_MIST","Cross-shore,Cross-shore,Cross-shore,Offshore,Offshore,Offshore",6
5842041f4e65fad6a7708941,2024_03_12,36.69388179265737,-121.81289,Marina State Beach,2,3.0733333333333333,3.6733333333333333,13,13,"MOSTLY_CLOUDY,MOSTLY_CLOUDY,BRIEF_SHOWERS,CLOUDY,NIGHT_MOSTLY_CLOUDY,NIGHT_OVERCAST","Onshore,Onshore,Onshore,Onshore,Onshore,Onshore",6
5842041f4e65fad6a7708944,2024_03_12,34.34145077331085,-119.416999352654,Stanley's,2,0.6283333333333334,0.9316666666666666,14,14,"CLEAR,CLEAR,MOSTLY_CLEAR,MOSTLY_CLEAR,NIGHT_CLOUDY,NIGHT_MIST","Onshore,Onshore,Onshore,Onshore,Onshore,Onshore",6
5842041f4e65fad6a7708945,2024_03_12,34.35113017313915,-119.426921498899,Oil Piers,1.5,0.5783333333333334,0.8816666666666667,14,14,"CLEAR,CLEAR,MOSTLY_CLEAR,MOSTLY_CLEAR,NIGHT_CLEAR,NIGHT_MIST","Onshore,Onshore,Onshore,Onshore,Onshore,Cross-shore",6
5842041f4e65fad6a770894c,2024_03_12,34.17876333306018,-119.2399483564372,Oxnard,2,1.0383333333333333,1.3066666666666666,14,14,"CLEAR,CLEAR,CLEAR,CLEAR,NIGHT_MOSTLY_CLOUDY,NIGHT_CLEAR","Onshore,Onshore,Onshore,Onshore,Onshore,Onshore",6
5842041f4e65fad6a7708957,2024_03_12,34.31720331100517,-119.3882324751725,Pitas Point,1.5,0.63,0.9366666666666666,14,14,"MIST,CLEAR,CLEAR,MOSTLY_CLEAR,NIGHT_OVERCAST,NIGHT_CLEAR","Onshore,Cross-shore,Cross-shore,Cross-shore,Cross-shore,Cross-shore",6
5842041f4e65fad6a7708959,2024_03_12,34.27851754384724,-119.316202617226,Emma Wood,1,0.5516666666666666,0.855,14,14,"MIST,MIST,MOSTLY_CLEAR,MOSTLY_CLEAR,NIGHT_CLEAR,NIGHT_CLEAR","Onshore,Onshore,Onshore,Onshore,Onshore,Onshore",6
5842041f4e65fad6a770895a,2024_03_12,34.35513640390276,-119.4400589884255,Mussel Shoals (aka Little Rincon),2,0.8716666666666667,1.0966666666666667,14,14,"MIST,CLEAR,MOSTLY_CLEAR,CLEAR,NIGHT_CLEAR,NIGHT_CLEAR","Onshore,Cross-shore,Onshore,Onshore,Cross-shore,Cross-shore",6
5842041f4e65fad6a770895e,2024_03_12,34.28991757054902,-119.3366646794652,Summer Beach,1.3333333333333333,0.39166666666666666,0.6966666666666667,14,14,"MIST,MIST,MOSTLY_CLEAR,MOSTLY_CLEAR,NIGHT_MOSTLY_CLOUDY,NIGHT_CLEAR","Onshore,Onshore,Onshore,Onshore,Onshore,Onshore",6
5842041f4e65fad6a770895f,2024_03_12,34.30897456105926,-119.3582501170116,Solimar,1.5,0.42833333333333334,0.7316666666666667,14,14,"MIST,CLEAR,CLEAR,MOSTLY_CLEAR,NIGHT_OVERCAST,NIGHT_CLEAR","Onshore,Cross-shore,Cross-shore,Onshore,Cross-shore,Cross-shore",6
5842041f4e65fad6a7708960,2024_03_12,34.39836265281686,-119.70213,Leadbetter Point,1.6666666666666667,0.11166666666666666,0.42166666666666663,14,14,"CLEAR,CLEAR,CLEAR,CLEAR,NIGHT_CLEAR,NIGHT_CLEAR","Offshore,Offshore,Offshore,Offshore,Offshore,Cross-shore",6
5842041f4e65fad6a7708961,2024_03_12,34.46052293893899,-120.07328,Refugio,1,0.13166666666666668,0.44,14,14,"CLEAR,CLEAR,CLEAR,CLEAR,NIGHT_CLEAR,NIGHT_CLEAR","Offshore,Offshore,Offshore,Offshore,Offshore,Offshore",6
5842041f4e65fad6a7708962,2024_03_12,34.40754276777778,-119.87639,Devereux,2.1666666666666665,0.5966666666666667,0.9,14,14,"MIST,CLEAR,CLEAR,CLEAR,NIGHT_CLEAR,NIGHT_CLEAR","Cross-shore,Offshore,Offshore,Offshore,Offshore,Offshore",6
5842041f4e65fad6a7708963,2024_03_12,34.27479983305182,-119.3133222656776,Ventura Overhead,1.3333333333333333,0.595,0.9,14,14,"MIST,MIST,CLEAR,MOSTLY_CLEAR,NIGHT_CLEAR,NIGHT_CLEAR","Onshore,Onshore,Onshore,Onshore,Onshore,Onshore",6
5842041f4e65fad6a7708964,2024_03_12,34.41023236011655,-119.88261,Sands,1.3333333333333333,0.655,0.9583333333333333,14,14,"MIST,CLEAR,CLEAR,CLEAR,NIGHT_CLEAR,NIGHT_CLEAR","Onshore,Onshore,Onshore,Cross-shore,Cross-shore,Cross-shore",6
5842041f4e65fad6a7708966,2024_03_12,34.40450193869233,-119.68752,Sandspit,1,0,0.27,14,14,"CLEAR,CLEAR,MOSTLY_CLEAR,CLEAR,NIGHT_CLEAR,NIGHT_CLEAR","Offshore,Offshore,Offshore,Offshore,Offshore,Cross-shore",6
5842041f4e65fad6a7708967,2024_03_12,34.41549098334453,-119.6375149840203,Hammond's,2,0.16666666666666669,0.47,14,14,"CLEAR,CLEAR,MOSTLY_CLEAR,CLEAR,NIGHT_CLOUDY,NIGHT_CLEAR","Cross-shore,Cross-shore,Cross-shore,Offshore,Offshore,Offshore",6
5842041f4e65fad6a7708968,2024_03_12,34.45759322742309,-120.0220251867315,El Capitan,1,0.24833333333333332,0.55,14,14,"CLEAR,CLEAR,CLEAR,CLEAR,NIGHT_CLEAR,NIGHT_CLEAR","Offshore,Offshore,Offshore,Offshore,Offshore,Offshore",6
5842041f4e65fad6a770896c,2024_03_12,34.405117655616,-119.84317,Campus Point,1.6666666666666667,0.26333333333333336,0.57,14,14,"CLEAR,CLEAR,CLEAR,CLEAR,NIGHT_CLEAR,NIGHT_CLEAR","Cross-shore,Cross-shore,Offshore,Offshore,Offshore,Offshore",6
5842041f4e65fad6a770896e,2024_03_12,34.38935162233354,-119.51955,Carpinteria State Beach,2.3333333333333335,0.9316666666666666,1.1133333333333333,14,14,"MOSTLY_CLEAR,MOSTLY_CLEAR,MOSTLY_CLEAR,CLEAR,NIGHT_CLEAR,NIGHT_CLEAR","Onshore,Onshore,Onshore,Onshore,Offshore,Offshore",6
5842041f4e65fad6a770896f,2024_03_12,37.48296565175612,-122.4549300127824,Half Moon Bay,2.5,2.2333333333333334,2.6683333333333334,13,13,"OVERCAST,LIGHT_RAIN,LIGHT_RAIN,BRIEF_SHOWERS,NIGHT_BRIEF_SHOWERS,NIGHT_BRIEF_SHOWERS","Onshore,Onshore,Onshore,Onshore,Onshore,Onshore",6
5842041f4e65fad6a7708970,2024_03_12,37.499,-122.471,Princeton Jetty,2.8333333333333335,2.3649999999999998,2.8283333333333336,13,13,"OVERCAST,OVERCAST,MIST,MIST,NIGHT_OVERCAST,NIGHT_MOSTLY_CLEAR","Onshore,Onshore,Onshore,Onshore,Onshore,Onshore",6
5842041f4e65fad6a7708972,2024_03_12,37.35699547365155,-122.4069534707252,Tunitas Creek,2,3.83,4.576666666666667,13,13,"DRIZZLE,OVERCAST,OVERCAST,MOSTLY_CLOUDY,NIGHT_BRIEF_SHOWERS,NIGHT_MOSTLY_CLOUDY","Onshore,Onshore,Onshore,Onshore,Onshore,Onshore",6
5842041f4e65fad6a7708974,2024_03_12,37.54735589428842,-122.5161090212687,Montara,2,2.865,3.425,13,13,"CLOUDY,CLOUDY,MIST,MOSTLY_CLOUDY,NIGHT_MOSTLY_CLOUDY,NIGHT_MOSTLY_CLOUDY","Cross-shore,Cross-shore,Cross-shore,Cross-shore,Cross-shore,Cross-shore",6
5842041f4e65fad6a7708975,2024_03_12,34.3869373724559,-119.5142334209018,Tarpits,1.3333333333333333,0.6983333333333334,1.0033333333333334,14,14,"CLEAR,MOSTLY_CLEAR,MOSTLY_CLEAR,CLEAR,NIGHT_CLEAR,NIGHT_CLEAR","Cross-shore,Cross-shore,Cross-shore,Onshore,Cross-shore,Offshore",6
5842041f4e65fad6a7708976,2024_03_12,37.59881852720143,-122.50463,Pacifica / Linda Mar,2.638333333333333,1.1965111111111113,1.73065,14,14,"MIST,MIST,CLOUDY,CLEAR,NIGHT_MOSTLY_CLOUDY,NIGHT_MOSTLY_CLOUDY","Onshore,Onshore,Onshore,Cross-shore,Cross-shore,Cross-shore",6
5842041f4e65fad6a7708978,2024_03_12,37.59883098461164,-122.5143843582282,Pedro Point,3,2.835,3.39,13,13,"CLOUDY,OVERCAST,CLOUDY,CLEAR,NIGHT_MOSTLY_CLOUDY,NIGHT_MOSTLY_CLOUDY","Cross-shore,Cross-shore,Cross-shore,Cross-shore,Cross-shore,Cross-shore",6
5842041f4e65fad6a7708979,2024_03_12,37.61081996647663,-122.4973287570634,Rockaway,2,2.833333333333333,3.3850000000000002,13,13,"MIST,MIST,CLOUDY,CLEAR,NIGHT_MOSTLY_CLOUDY,NIGHT_MOSTLY_CLOUDY","Onshore,Onshore,Onshore,Onshore,Onshore,Onshore",6
5842041f4e65fad6a770897a,2024_03_12,37.809987384424446,-122.4751353263855,Fort Point,2.6666666666666665,1.7966666666666666,2.15,13,13,"CLOUDY,OVERCAST,CLOUDY,CLEAR,NIGHT_MOSTLY_CLOUDY,NIGHT_MOSTLY_CLOUDY","Cross-shore,Cross-shore,Onshore,Onshore,Cross-shore,Onshore",6
5842041f4e65fad6a770897c,2024_03_12,37.63422542967464,-122.4951,Sharp Park,1.8333333333333333,3.0533333333333332,3.6483333333333334,13,13,"DRIZZLE,OVERCAST,CLOUDY,CLEAR,NIGHT_MOSTLY_CLOUDY,NIGHT_CLEAR","Onshore,Onshore,Onshore,Onshore,Onshore,Onshore",6
5842041f4e65fad6a770897d,2024_03_12,37.27313605072472,-122.4127387912554,Pescadero,2.6666666666666665,3.66,4.373333333333333,13,13,"CLOUDY,CLOUDY,CLOUDY,MOSTLY_CLOUDY,NIGHT_CLOUDY,NIGHT_CLEAR","Onshore,Onshore,Onshore,Cross-shore,Onshore,Cross-shore",6
5842041f4e65fad6a770897e,2024_03_12,37.18140279972666,-122.3926685899327,Pigeon Point,2.8333333333333335,3.585,4.285,13,13,"CLOUDY,CLOUDY,OVERCAST,MOSTLY_CLOUDY,NIGHT_MIST,NIGHT_BRIEF_SHOWERS","Cross-shore,Cross-shore,Cross-shore,Onshore,Onshore,Onshore",6
5842041f4e65fad6a770897f,2024_03_12,37.11578956919415,-122.314699271291,Ano Nuevo,3.8333333333333335,2.8783333333333334,3.4433333333333334,13,13,"MOSTLY_CLOUDY,CLEAR,CLOUDY,MOSTLY_CLOUDY,NIGHT_DRIZZLE,NIGHT_CLEAR","Offshore,Offshore,Offshore,Cross-shore,Cross-shore,Cross-shore",6
5842041f4e65fad6a7708980,2024_03_12,37.09520872681598,-122.2805474707768,Waddell Creek,3,2.8566666666666665,3.4116666666666666,13,13,"MOSTLY_CLOUDY,CLOUDY,CLOUDY,CLEAR,NIGHT_CLEAR,NIGHT_CLEAR","Cross-shore,Cross-shore,Cross-shore,Onshore,Onshore,Onshore",6
5842041f4e65fad6a7708981,2024_03_12,36.96512852130351,-122.1252825495626,Four Mile,3.6666666666666665,3.225,3.8516666666666666,13,13,"CLEAR,CLEAR,CLEAR,MOSTLY_CLOUDY,NIGHT_CLEAR,NIGHT_MOSTLY_CLEAR","Offshore,Offshore,Offshore,Offshore,Offshore,Cross-shore",6
5842041f4e65fad6a7708982,2024_03_12,37.04122807048655,-122.2333684729756,Scott Creek,3,2.8766666666666665,3.4383333333333335,13,13,"CLEAR,CLOUDY,CLEAR,CLEAR,NIGHT_OVERCAST,NIGHT_BRIEF_SHOWERS","Cross-shore,Cross-shore,Cross-shore,Cross-shore,Onshore,Onshore",6
5842041f4e65fad6a7708983,2024_03_12,37.02350229387179,-122.21908,Davenport,3,3.145,3.755,13,13,"CLEAR,CLEAR,CLEAR,CLEAR,NIGHT_OVERCAST,NIGHT_BRIEF_SHOWERS","Cross-shore,Cross-shore,Cross-shore,Cross-shore,Cross-shore,Onshore",6
5842041f4e65fad6a7708986,2024_03_12,36.94905295955728,-122.0611823912244,Natural Bridges,3,2.5616666666666665,3.0616666666666665,13,13,"CLEAR,CLEAR,CLEAR,CLEAR,NIGHT_CLEAR,NIGHT_MOSTLY_CLEAR","Cross-shore,Cross-shore,Cross-shore,Cross-shore,Cross-shore,Cross-shore",6
5842041f4e65fad6a7708987,2024_03_12,36.95154854910425,-122.0420693940968,Mitchell's Cove,4,1.9916666666666667,2.3783333333333334,13,13,"CLEAR,CLEAR,CLEAR,CLEAR,NIGHT_CLEAR,NIGHT_CLEAR","Cross-shore,Cross-shore,Cross-shore,Cross-shore,Cross-shore,Cross-shore",6
5842041f4e65fad6a770898a,2024_03_12,36.9572312370203,-121.98177,26th Ave,3,2.3833333333333333,2.848333333333333,13,13,"CLEAR,CLEAR,CLEAR,CLEAR,NIGHT_CLEAR,NIGHT_CLEAR","Onshore,Onshore,Onshore,Onshore,Onshore,Onshore",6
5842041f4e65fad6a770898e,2024_03_12,36.91899972819882,-121.85536,Manresa,2.1666666666666665,2.6033333333333335,3.11,13,13,"CLEAR,CLEAR,CLEAR,CLEAR,NIGHT_CLEAR,NIGHT_CLEAR","Onshore,Onshore,Onshore,Onshore,Onshore,Onshore",6
5842041f4e65fad6a7708990,2024_03_12,34.45747731928454,-120.34242,The Ranch,3,1.0283333333333333,1.3,13,13,"CLEAR,CLEAR,CLEAR,CLEAR,NIGHT_CLEAR,NIGHT_CLEAR","Offshore,Offshore,Offshore,Offshore,Offshore,Offshore",6
5842041f4e65fad6a7708991,2024_03_12,34.50875036590315,-120.50348,Jalama,2.6666666666666665,1.8733333333333333,2.236666666666667,13,13,"CLEAR,CLEAR,CLEAR,CLEAR,NIGHT_CLEAR,NIGHT_MOSTLY_CLOUDY","Cross-shore,Cross-shore,Cross-shore,Cross-shore,Cross-shore,Cross-shore",6
5842041f4e65fad6a7708996,2024_03_12,34.68700870220497,-120.6111611019887,Surf Beach,1.6666666666666667,4.741666666666667,5.666666666666667,13,13,"CLEAR,MOSTLY_CLOUDY,MOSTLY_CLOUDY,CLOUDY,NIGHT_CLOUDY,NIGHT_MOSTLY_CLOUDY","Onshore,Onshore,Onshore,Onshore,Onshore,Onshore",6
5842041f4e65fad6a770899c,2024_03_12,35.5730538161116,-121.1143362345574,Moonstone,3,3.525,4.21,13,13,"CLEAR,CLEAR,CLEAR,CLEAR,NIGHT_CLEAR,NIGHT_CLEAR","Onshore,Onshore,Onshore,Onshore,Cross-shore,Onshore",6
5842041f4e65fad6a770899d,2024_03_12,35.61533716776573,-121.1502053073914,Pico Creek,3,2.4516666666666667,2.9283333333333332,13,13,"CLEAR,CLEAR,CLEAR,CLEAR,NIGHT_CLOUDY,NIGHT_CLEAR","Onshore,Onshore,Onshore,Onshore,Cross-shore,Cross-shore",6
5842041f4e65fad6a770899e,2024_03_12,35.56829031927379,-121.1120653023953,Santa Rosa Creek,2.5,3.525,4.21,13,13,"CLEAR,CLEAR,CLEAR,MIST,NIGHT_CLEAR,NIGHT_CLEAR","Cross-shore,Cross-shore,Cross-shore,Cross-shore,Cross-shore,Cross-shore",6
5842041f4e65fad6a77089a2,2024_03_12,35.44820114936284,-120.90715,"Cayucos Pier, Southside ",3,1.71,2.0433333333333334,13,13,"MOSTLY_CLOUDY,CLEAR,CLEAR,MIST,NIGHT_CLEAR,NIGHT_CLEAR","Cross-shore,Cross-shore,Cross-shore,Cross-shore,Cross-shore,Offshore",6
5842041f4e65fad6a77089a4,2024_03_12,35.30143372628852,-120.877819239902,Cable Landing,2,4.741666666666667,5.665,13,13,"MOSTLY_CLOUDY,MOSTLY_CLOUDY,CLEAR,CLOUDY,NIGHT_MOSTLY_CLEAR,NIGHT_MOSTLY_CLEAR","Onshore,Onshore,Onshore,Onshore,Onshore,Onshore",6
5842041f4e65fad6a77089a9,2024_03_12,35.61269103500222,-121.1480725356606,San Simeon,3,1.7045,2.037,13,13,"CLEAR,CLEAR,CLEAR,CLEAR,NIGHT_CLEAR,NIGHT_CLEAR","Cross-shore,Cross-shore,Cross-shore,Cross-shore,Cross-shore,Cross-shore",6
5842041f4e65fad6a77089ab,2024_03_12,35.1775325966252,-120.7341125142258,Avila Beach,2,0.21166666666666667,0.515,14,14,"CLEAR,MOSTLY_CLOUDY,CLEAR,CLEAR,NIGHT_CLEAR,NIGHT_CLEAR","Cross-shore,Cross-shore,Cross-shore,Cross-shore,Offshore,Offshore",6
5842041f4e65fad6a77089ac,2024_03_12,35.13877877884115,-120.64535,Pismo Beach Pier,2.805,1.8884166666666666,2.42945,14,14,"CLEAR,MOSTLY_CLOUDY,CLEAR,MOSTLY_CLOUDY,NIGHT_MIST,NIGHT_MOSTLY_CLEAR","Cross-shore,Cross-shore,Cross-shore,Cross-shore,Cross-shore,Cross-shore",6
5842041f4e65fad6a77089ad,2024_03_12,46.8907710233147,-124.12964,Westport/Olympic Peninsula,0.5,3.2983333333333333,3.9416666666666664,9,9,"RAIN,LIGHT_RAIN,DRIZZLE,DRIZZLE,NIGHT_OVERCAST,NIGHT_OVERCAST","Cross-shore,Cross-shore,Cross-shore,Onshore,Onshore,Onshore",6
5842041f4e65fad6a77089ae,2024_03_12,46.35185177248545,-124.06747,Long Beach Peninsula,0,4.025,4.8100000000000005,9,9,"RAIN,RAIN,LIGHT_RAIN,MOSTLY_CLOUDY,NIGHT_OVERCAST,NIGHT_MOSTLY_CLOUDY","Cross-shore,Cross-shore,Cross-shore,Onshore,Onshore,Onshore",6
5842041f4e65fad6a77089af,2024_03_12,47.90649175554033,-124.6370864743483,La Push,0.16666666666666666,3.131666666666667,3.745,9,9,"RAIN,RAIN,LIGHT_RAIN,SHOWERS,NIGHT_OVERCAST,NIGHT_MOSTLY_CLOUDY","Cross-shore,Onshore,Cross-shore,Onshore,Onshore,Onshore",6
5842041f4e65fad6a77089b0,2024_03_12,42.04368239985442,-124.26828,Brookings Jetty,0,1.474485,2.3038833333333333,11,11,"RAIN,RAIN,DRIZZLE,DRIZZLE,NIGHT_OVERCAST,NIGHT_LIGHT_RAIN","Onshore,Onshore,Onshore,Onshore,Onshore,Onshore",6
5842041f4e65fad6a77089b1,2024_03_12,42.74071837900346,-124.4983727491047,Port Orford,0,3.6966666666666668,4.11,10,10,"RAIN,SHOWERS,BRIEF_SHOWERS,CLEAR,NIGHT_RAIN,NIGHT_LIGHT_RAIN","Onshore,Onshore,Onshore,Onshore,Onshore,Onshore",6
5842041f4e65fad6a77089b2,2024_03_12,44.01532689312291,-124.13865,Florence South Jetty,0.16666666666666666,4.125,4.926666666666667,10,10,"LIGHT_RAIN,LIGHT_RAIN,DRIZZLE,DRIZZLE,NIGHT_DRIZZLE,NIGHT_BRIEF_SHOWERS","Cross-shore,Cross-shore,Cross-shore,Onshore,Onshore,Onshore",6
5842041f4e65fad6a77089b3,2024_03_12,42.41812540774362,-124.42945,Gold Beach South Jetty,0,3.575,4.2716666666666665,11,11,"RAIN,DRIZZLE,BRIEF_SHOWERS,BRIEF_SHOWERS,NIGHT_BRIEF_SHOWERS,NIGHT_DRIZZLE","Onshore,Onshore,Onshore,Onshore,Onshore,Onshore",6
5842041f4e65fad6a77089b4,2024_03_12,44.95857310226525,-124.0219017690976,Lincoln City,0.3333333333333333,3.9,4.663333333333333,10,10,"RAIN,RAIN,LIGHT_RAIN,SHOWERS,NIGHT_MOSTLY_CLOUDY,NIGHT_DRIZZLE","Cross-shore,Cross-shore,Cross-shore,Cross-shore,Onshore,Onshore",6
5842041f4e65fad6a77089b5,2024_03_12,44.63792761362982,-124.0657,Newport,0,4.328333333333333,5.155,10,10,"LIGHT_RAIN,LIGHT_RAIN,DRIZZLE,RAIN,NIGHT_BRIEF_SHOWERS,NIGHT_MOSTLY_CLOUDY","Cross-shore,Cross-shore,Cross-shore,Onshore,Onshore,Onshore",6
5842041f4e65fad6a77089b6,2024_03_12,45.61468496266301,-123.94643,Rockaway Beach,1,4.0183333333333335,4.801666666666667,9,9,"LIGHT_RAIN,LIGHT_RAIN,LIGHT_RAIN,MOSTLY_CLOUDY,NIGHT_CLEAR,NIGHT_MIST","Cross-shore,Cross-shore,Cross-shore,Cross-shore,Onshore,Onshore",6
5842041f4e65fad6a77089b7,2024_03_12,45.20252914186085,-123.96975,Pacific City,0,3.921666666666667,4.6883333333333335,10,10,"LIGHT_RAIN,LIGHT_RAIN,DRIZZLE,RAIN,NIGHT_MOSTLY_CLOUDY,NIGHT_LIGHT_RAIN","Cross-shore,Onshore,Onshore,Onshore,Onshore,Onshore",6
5842041f4e65fad6a77089b8,2024_03_12,45.88179930310263,-123.96681,Cannon Beach,0,4.001666666666667,4.783333333333333,9,9,"LIGHT_RAIN,OVERCAST,LIGHT_RAIN,SHOWERS,NIGHT_BRIEF_SHOWERS,NIGHT_MOSTLY_CLOUDY","Cross-shore,Cross-shore,Cross-shore,Onshore,Onshore,Onshore",6
5842041f4e65fad6a77089ba,2024_03_12,40.02528754746774,-124.06372,Shelter Cove,0.8333333333333334,1.0396516666666666,1.6244566666666667,12,12,"RAIN,LIGHT_RAIN,LIGHT_RAIN,RAIN,NIGHT_RAIN,NIGHT_LIGHT_RAIN","Onshore,Onshore,Onshore,Onshore,Onshore,Onshore",6
5842041f4e65fad6a77089bb,2024_03_12,40.76816197136951,-124.24248,Humboldt Harbor Entrance,0.3333333333333333,3.69,4.408333333333333,11,11,"LIGHT_RAIN,LIGHT_RAIN,LIGHT_RAIN,LIGHT_RAIN,NIGHT_LIGHT_RAIN,NIGHT_DRIZZLE","Cross-shore,Cross-shore,Cross-shore,Cross-shore,Cross-shore,Cross-shore",6
5842041f4e65fad6a77089bc,2024_03_12,40.76684246920174,-124.23107,North Jetty,2,3.9916666666666667,4.7716666666666665,11,11,"LIGHT_RAIN,LIGHT_RAIN,LIGHT_RAIN,LIGHT_RAIN,NIGHT_CLEAR,NIGHT_OVERCAST","Cross-shore,Cross-shore,Offshore,Offshore,Offshore,Cross-shore",6
5842041f4e65fad6a77089bd,2024_03_12,41.02731183893966,-124.1149972888982,Westhaven,1,5.076666666666666,6.068333333333333,11,11,"LIGHT_RAIN,LIGHT_RAIN,DRIZZLE,OVERCAST,NIGHT_LIGHT_RAIN,NIGHT_OVERCAST","Cross-shore,Cross-shore,Cross-shore,Cross-shore,Cross-shore,Cross-shore",6
5842041f4e65fad6a77089be,2024_03_12,41.13016238153297,-124.16466,Sue-meg,2,3.31,3.9483333333333333,11,11,"LIGHT_RAIN,LIGHT_RAIN,LIGHT_RAIN,OVERCAST,NIGHT_OVERCAST,NIGHT_DRIZZLE","Offshore,Offshore,Offshore,Offshore,Offshore,Offshore",6
5842041f4e65fad6a77089bf,2024_03_12,37.8289474958188,-122.5376795097543,Fort Cronkite/Rodeo Beach,2,3.5233333333333334,4.215,13,13,"CLOUDY,CLEAR,MOSTLY_CLOUDY,MOSTLY_CLOUDY,NIGHT_MOSTLY_CLOUDY,NIGHT_CLOUDY","Onshore,Onshore,Onshore,Onshore,Onshore,Onshore",6
5842041f4e65fad6a77089c0,2024_03_12,41.74415759876137,-124.17717,South Beach CA,1,2.4516666666666667,2.915,11,11,"RAIN,LIGHT_RAIN,LIGHT_RAIN,OVERCAST,NIGHT_OVERCAST,NIGHT_LIGHT_RAIN","Onshore,Onshore,Onshore,Onshore,Onshore,Onshore",6
5842041f4e65fad6a77089c1,2024_03_12,37.89801283969752,-122.64519,Stinson Beach,3,1.0016666666666667,1.1983333333333333,13,13,"MIST,MIST,MIST,MIST,NIGHT_MIST,NIGHT_OVERCAST","Offshore,Offshore,Offshore,Offshore,Offshore,Cross-shore",6
5842041f4e65fad6a77089c2,2024_03_12,37.90514516176495,-122.68151,Bolinas,3,0.7807233333333333,1.2198783333333334,13,13,"OVERCAST,OVERCAST,MIST,MIST,NIGHT_MOSTLY_CLOUDY,NIGHT_OVERCAST","Offshore,Offshore,Offshore,Offshore,Offshore,Offshore",6
5842041f4e65fad6a77089c3,2024_03_12,38.04892513158693,-122.9892494965416,Point Reyes (north),2,4.433333333333334,5.3,13,13,"CLOUDY,CLOUDY,MOSTLY_CLOUDY,MOSTLY_CLOUDY,NIGHT_DRIZZLE,NIGHT_OVERCAST","Cross-shore,Cross-shore,Cross-shore,Cross-shore,Offshore,Cross-shore",6
5842041f4e65fad6a77089c6,2024_03_12,38.31088736605785,-123.0496777333731,Doran Beach,2.8333333333333335,1.1383333333333334,1.395,12,12,"DRIZZLE,OVERCAST,BRIEF_SHOWERS,OVERCAST,NIGHT_MOSTLY_CLOUDY,NIGHT_OVERCAST","Cross-shore,Cross-shore,Onshore,Onshore,Onshore,Onshore",6
5842041f4e65fad6a77089c7,2024_03_12,38.45077228660809,-123.13008,Russian Rivermouth,2,3.3633333333333333,4.02,12,12,"MIST,OVERCAST,BRIEF_SHOWERS,LIGHT_RAIN,NIGHT_BRIEF_SHOWERS,NIGHT_LIGHT_RAIN","Onshore,Onshore,Onshore,Onshore,Onshore,Onshore",6
5842041f4e65fad6a77089c8,2024_03_12,38.35329968518107,-123.06906,Salmon Creek,2,3.2583333333333333,3.8933333333333335,12,12,"MIST,CLEAR,MOSTLY_CLOUDY,OVERCAST,NIGHT_MOSTLY_CLOUDY,NIGHT_DRIZZLE","Onshore,Onshore,Onshore,Onshore,Cross-shore,Onshore",6
5842041f4e65fad6a77089c9,2024_03_12,38.6845180197959,-123.4322714291198,Black Point Beach,4,2.408333333333333,2.876666666666667,12,12,"CLOUDY,CLOUDY,DRIZZLE,OVERCAST,NIGHT_LIGHT_RAIN,NIGHT_LIGHT_RAIN","Cross-shore,Cross-shore,Cross-shore,Offshore,Offshore,Offshore",6
5842041f4e65fad6a77089ca,2024_03_12,43.251076,-70.59144,Ogunquit,2,0.41363333333333335,0.76615,4,3,"NIGHT_CLEAR,NIGHT_CLEAR,NIGHT_CLEAR,NIGHT_CLEAR,NIGHT_CLEAR,NIGHT_CLEAR","Offshore,Offshore,Offshore,Offshore,Offshore,Offshore",6
5842041f4e65fad6a77089cb,2024_03_12,41.362631366305415,-71.48006772942608,Point Judith,1.445,0.05265000000000001,0.34405,6,4,"NIGHT_CLEAR,NIGHT_CLEAR,NIGHT_CLEAR,NIGHT_CLEAR,NIGHT_CLEAR,NIGHT_CLEAR","Offshore,Offshore,Offshore,Offshore,Offshore,Offshore",6
5842041f4e65fad6a77089cd,2024_03_12,41.422678090954726,-71.45413,Monahan's - Narragansett,1,0.211535,0.330525,5,5,"NIGHT_CLEAR,NIGHT_CLEAR,NIGHT_CLEAR,NIGHT_CLEAR,NIGHT_CLEAR,NIGHT_CLEAR","Offshore,Offshore,Offshore,Offshore,Offshore,Offshore",6
5842041f4e65fad6a77089ce,2024_03_12,41.469,-71.293,Ruggles - Newport,0.5,0.263625,0.41191666666666665,5,5,"NIGHT_CLEAR,NIGHT_CLEAR,NIGHT_CLEAR,NIGHT_CLEAR,NIGHT_CLEAR,NIGHT_CLEAR","Offshore,Offshore,Offshore,Offshore,Offshore,Offshore",6
5842041f4e65fad6a77089cf,2024_03_12,43.175394,-70.606351,Short Sands Beach,1,0.4716666666666667,0.7783333333333333,5,5,"NIGHT_CLEAR,NIGHT_CLEAR,NIGHT_CLEAR,NIGHT_CLEAR,NIGHT_CLEAR,NIGHT_CLEAR","Offshore,Offshore,Offshore,Offshore,Offshore,Offshore",6
5842041f4e65fad6a77089d0,2024_03_12,41.487408,-71.29017,First Beach,1,0.015,0.30833333333333335,5,5,"NIGHT_CLEAR,NIGHT_CLEAR,NIGHT_CLEAR,NIGHT_CLEAR,NIGHT_CLEAR,NIGHT_CLEAR","Offshore,Offshore,Offshore,Offshore,Offshore,Offshore",6
5842041f4e65fad6a77089d1,2024_03_12,42.27916830233153,-70.86498,Nantasket Beach,0,0.23515000000000003,0.5448833333333334,4,3,"NIGHT_CLEAR,NIGHT_CLEAR,NIGHT_CLEAR,NIGHT_CLEAR,NIGHT_CLEAR,NIGHT_CLEAR","Cross-shore,Cross-shore,Cross-shore,Cross-shore,Cross-shore,Cross-shore",6
5842041f4e65fad6a77089d2,2024_03_12,41.817,-69.935,Cape Cod,1.5,0.9433333333333334,1.2466666666666666,5,5,"NIGHT_CLEAR,NIGHT_CLEAR,NIGHT_CLEAR,NIGHT_CLEAR,NIGHT_CLEAR,NIGHT_CLEAR","Offshore,Offshore,Offshore,Offshore,Offshore,Offshore",6
5842041f4e65fad6a77089d3,2024_03_12,42.22055448975661,-70.70634873403819,Egypt Beach,1,0.38666666666666666,0.6916666666666667,5,5,"NIGHT_CLEAR,NIGHT_CLEAR,NIGHT_CLEAR,NIGHT_CLEAR,NIGHT_CLEAR,NIGHT_CLEAR","Offshore,Offshore,Offshore,Offshore,Offshore,Offshore",6
5842041f4e65fad6a77089d4,2024_03_12,41.48739647744607,-71.25723,Second Beach,0.6666666666666666,0.23043333333333332,0.39894625,6,4,"NIGHT_CLEAR,NIGHT_CLEAR,NIGHT_CLEAR,NIGHT_CLEAR,NIGHT_CLEAR,NIGHT_CLEAR","Cross-shore,Cross-shore,Cross-shore,Cross-shore,Cross-shore,Cross-shore",6
5842041f4e65fad6a77089d5,2024_03_12,42.964,-70.769,Fox Hill,2,0.3498833333333333,0.6912833333333334,4,3,"NIGHT_CLEAR,NIGHT_CLEAR,NIGHT_CLEAR,NIGHT_CLEAR,NIGHT_CLEAR,NIGHT_CLEAR","Offshore,Offshore,Offshore,Offshore,Offshore,Offshore",6
5842041f4e65fad6a77089d6,2024_03_12,42.991359,-70.75149,Straws Point,1.6666666666666667,0.3632166666666667,0.6650333333333334,4,3,"NIGHT_CLEAR,NIGHT_CLEAR,NIGHT_CLEAR,NIGHT_CLEAR,NIGHT_CLEAR,NIGHT_CLEAR","Offshore,Offshore,Offshore,Offshore,Offshore,Offshore",6
5842041f4e65fad6a77089d7,2024_03_12,42.946,-70.786,Plaice Cove,2,0.3498833333333333,0.6896166666666667,4,3,"NIGHT_CLEAR,NIGHT_CLEAR,NIGHT_CLEAR,NIGHT_CLEAR,NIGHT_CLEAR,NIGHT_CLEAR","Offshore,Offshore,Offshore,Offshore,Offshore,Offshore",6
5842041f4e65fad6a77089d9,2024_03_12,42.911574,-70.80831,The Main Beach,2.445,0.5016291666666667,0.7956995833333333,4,3,"NIGHT_CLEAR,NIGHT_CLEAR,NIGHT_CLEAR,NIGHT_CLEAR,NIGHT_CLEAR,NIGHT_CLEAR","Offshore,Offshore,Offshore,Offshore,Offshore,Offshore",6
5842041f4e65fad6a77089da,2024_03_12,42.97583846220203,-70.764,Sawyer's Beach,1.3333333333333333,0.27113333333333334,0.5746166666666667,4,3,"NIGHT_CLEAR,NIGHT_CLEAR,NIGHT_CLEAR,NIGHT_CLEAR,NIGHT_CLEAR,NIGHT_CLEAR","Offshore,Offshore,Offshore,Offshore,Offshore,Offshore",6
5842041f4e65fad6a77089db,2024_03_12,42.97,-70.77,Rye on the Rocks / 5-0's,2.445,0.48930875000000007,0.79346125,4,3,"NIGHT_CLEAR,NIGHT_CLEAR,NIGHT_CLEAR,NIGHT_CLEAR,NIGHT_CLEAR,NIGHT_CLEAR","Offshore,Offshore,Offshore,Offshore,Offshore,Offshore",6
5842041f4e65fad6a77089dc,2024_03_12,43.55902946610303,-70.27795,Higgins Beach,2.4166666666666665,0.3884666666666667,0.6964611111111111,4,3,"NIGHT_CLEAR,NIGHT_CLEAR,NIGHT_CLEAR,NIGHT_CLEAR,NIGHT_CLEAR,NIGHT_CLEAR","Offshore,Offshore,Offshore,Offshore,Offshore,Offshore",6
5842041f4e65fad6a77089dd,2024_03_12,43.302676,-70.5652,Wells Beach,2,0.40571666666666667,0.7519833333333333,4,3,"NIGHT_CLEAR,NIGHT_CLEAR,NIGHT_CLEAR,NIGHT_CLEAR,NIGHT_CLEAR,NIGHT_CLEAR","Offshore,Offshore,Offshore,Offshore,Offshore,Offshore",6
5842041f4e65fad6a77089de,2024_03_12,43.545359,-70.30479,Scarborough Beach State Park,2,0.56778625,0.9205037500000001,4,3,"NIGHT_CLEAR,NIGHT_CLEAR,NIGHT_CLEAR,NIGHT_CLEAR,NIGHT_CLEAR,NIGHT_CLEAR","Offshore,Offshore,Offshore,Offshore,Offshore,Offshore",6
5842041f4e65fad6a77089df,2024_03_12,43.514481,-70.372146,Old Orchard Beach,2.4166666666666665,0.40680000000000005,0.7081277777777778,4,3,"NIGHT_CLEAR,NIGHT_CLEAR,NIGHT_CLEAR,NIGHT_CLEAR,NIGHT_CLEAR,NIGHT_CLEAR","Offshore,Offshore,Offshore,Offshore,Offshore,Offshore",6
5842041f4e65fad6a77089e0,2024_03_12,43.34711,-70.48165,Gooch's Beach,1,0.4071166666666666,0.7139333333333333,4,3,"NIGHT_CLEAR,NIGHT_CLEAR,NIGHT_CLEAR,NIGHT_CLEAR,NIGHT_CLEAR,NIGHT_CLEAR","Offshore,Offshore,Offshore,Offshore,Offshore,Offshore",6
5842041f4e65fad6a77089e2,2024_03_12,40.58433,-73.62953,Lido Beach,0.3333333333333333,-0.006666666666666675,0.2968166666666667,7,6,"NIGHT_CLEAR,NIGHT_CLEAR,NIGHT_CLEAR,NIGHT_CLEAR,NIGHT_CLEAR,NIGHT_CLEAR","Cross-shore,Cross-shore,Cross-shore,Cross-shore,Cross-shore,Cross-shore",6
5842041f4e65fad6a77089e3,2024_03_12,43.163135,-70.61689,Long Sands Beach,2.445,0.43779083333333335,0.7459466666666668,4,3,"NIGHT_CLEAR,NIGHT_CLEAR,NIGHT_CLEAR,NIGHT_CLEAR,NIGHT_CLEAR,NIGHT_CLEAR","Offshore,Offshore,Offshore,Offshore,Offshore,Offshore",6
5842041f4e65fad6a77089e4,2024_03_12,40.61695351251805,-73.39376,Gilgo Beach,0,0.05333333333333333,0.3614,5,4,"NIGHT_CLEAR,NIGHT_CLEAR,NIGHT_CLEAR,NIGHT_CLEAR,NIGHT_CLEAR,NIGHT_CLEAR","Cross-shore,Cross-shore,Cross-shore,Cross-shore,Cross-shore,Cross-shore",6
5842041f4e65fad6a77089e5,2024_03_12,40.62530081928036,-73.23827,Robert Moses,0,0.17,0.475,6,6,"NIGHT_CLEAR,NIGHT_CLEAR,NIGHT_CLEAR,NIGHT_CLEAR,NIGHT_CLEAR,NIGHT_CLEAR","Cross-shore,Cross-shore,Cross-shore,Cross-shore,Cross-shore,Cross-shore",6
5842041f4e65fad6a77089e6,2024_03_12,40.64313317632791,-73.15727,Fire Island,0.16666666666666666,0.125,0.43,6,6,"NIGHT_CLEAR,NIGHT_CLEAR,NIGHT_CLEAR,NIGHT_CLEAR,NIGHT_CLEAR,NIGHT_CLEAR","Cross-shore,Cross-shore,Cross-shore,Cross-shore,Cross-shore,Cross-shore",6
5842041f4e65fad6a77089e8,2024_03_12,40.76653118828782,-72.74579619372713,Cupsogue,1,0.37,0.6733333333333333,6,6,"NIGHT_CLEAR,NIGHT_CLEAR,NIGHT_CLEAR,NIGHT_CLEAR,NIGHT_CLEAR,NIGHT_CLEAR","Cross-shore,Cross-shore,Cross-shore,Cross-shore,Cross-shore,Cross-shore",6
5842041f4e65fad6a77089e9,2024_03_12,42.9376373334092,-70.79141,The Wall ,2.14,0.5109380555555556,0.8102493055555555,4,3,"NIGHT_CLEAR,NIGHT_CLEAR,NIGHT_CLEAR,NIGHT_CLEAR,NIGHT_CLEAR,NIGHT_CLEAR","Offshore,Offshore,Offshore,Offshore,Offshore,Offshore",6
5842041f4e65fad6a77089ea,2024_03_12,40.887088,-72.33856,Flys,1,0.3,0.605,6,6,"NIGHT_CLEAR,NIGHT_CLEAR,NIGHT_CLEAR,NIGHT_CLEAR,NIGHT_CLEAR,NIGHT_CLEAR","Cross-shore,Cross-shore,Cross-shore,Cross-shore,Cross-shore,Cross-shore",6
5842041f4e65fad6a77089eb,2024_03_12,41.0389266436591,-71.91068529316958,Trailer Park,1,0.38150958333333335,0.6409591666666667,5,4,"NIGHT_CLEAR,NIGHT_CLEAR,NIGHT_CLEAR,NIGHT_CLEAR,NIGHT_CLEAR,NIGHT_CLEAR","Offshore,Offshore,Offshore,Offshore,Cross-shore,Cross-shore",6
5842041f4e65fad6a77089ec,2024_03_12,41.039505402729105,-71.9142,Ditch Plains,0.3333333333333333,0.31542333333333333,0.492845,6,6,"NIGHT_CLEAR,NIGHT_CLEAR,NIGHT_CLEAR,NIGHT_CLEAR,NIGHT_CLEAR,NIGHT_CLEAR","Offshore,Offshore,Offshore,Offshore,Offshore,Offshore",6
5842041f4e65fad6a77089ee,2024_03_12,40.57633275206492,-73.56895305108567,"West End, Jones Beach",0,0.09125000000000003,0.3930666666666666,7,6,"NIGHT_CLEAR,NIGHT_CLEAR,NIGHT_CLEAR,NIGHT_CLEAR,NIGHT_CLEAR,NIGHT_CLEAR","Cross-shore,Cross-shore,Cross-shore,Cross-shore,Cross-shore,Cross-shore",6
5842041f4e65fad6a77089f1,2024_03_12,41.038286691230795,-71.91991567611694,Poles,0.16666666666666666,0.3792595833333333,0.5969733333333334,5,4,"NIGHT_CLEAR,NIGHT_CLEAR,NIGHT_CLEAR,NIGHT_CLEAR,NIGHT_CLEAR,NIGHT_CLEAR","Offshore,Offshore,Offshore,Offshore,Cross-shore,Cross-shore",6
5842041f4e65fad6a77089f3,2024_03_12,40.84077769766295,-72.47989493724765,The Bowl,1,0.3933333333333333,0.7,6,6,"NIGHT_CLEAR,NIGHT_CLEAR,NIGHT_CLEAR,NIGHT_CLEAR,NIGHT_CLEAR,NIGHT_CLEAR","Cross-shore,Cross-shore,Cross-shore,Cross-shore,Cross-shore,Cross-shore",6
5842041f4e65fad6a77089f4,2024_03_12,40.94235535243154,-72.19286,Main Beach,0.6666666666666666,0.2439,0.5519666666666667,13,12,"NIGHT_CLEAR,NIGHT_CLEAR,NIGHT_CLEAR,NIGHT_CLEAR,NIGHT_CLEAR,NIGHT_CLEAR","Cross-shore,Cross-shore,Cross-shore,Cross-shore,Cross-shore,Cross-shore",6
5842041f4e65fad6a77089f5,2024_03_12,40.58270702399518,-73.67251552079799,Laurelton Blvd.,1,0.2808641666666667,0.4875333333333333,7,6,"NIGHT_CLEAR,NIGHT_CLEAR,NIGHT_CLEAR,NIGHT_CLEAR,NIGHT_CLEAR,NIGHT_CLEAR","Onshore,Onshore,Onshore,Onshore,Cross-shore,Onshore",6
5842041f4e65fad6a77089f6,2024_03_12,41.033752854071416,-71.93695522488403,Terrace,0,0.19015,0.49488333333333334,5,4,"NIGHT_CLEAR,NIGHT_CLEAR,NIGHT_CLEAR,NIGHT_CLEAR,NIGHT_CLEAR,NIGHT_CLEAR","Offshore,Offshore,Offshore,Offshore,Cross-shore,Cross-shore",6
5842041f4e65fad6a77089f7,2024_03_12,40.83372943645748,-72.50426173210144,K Road,1,0.45833333333333337,0.7616666666666667,6,6,"NIGHT_CLEAR,NIGHT_CLEAR,NIGHT_CLEAR,NIGHT_CLEAR,NIGHT_CLEAR,NIGHT_CLEAR","Offshore,Offshore,Offshore,Offshore,Offshore,Cross-shore",6
5842041f4e65fad6a77089f8,2024_03_12,40.58456099581507,-73.80730032920837,84th Street,0.4166666666666667,-0.03208333333333334,0.21306666666666668,7,6,"NIGHT_CLEAR,NIGHT_CLEAR,NIGHT_CLEAR,NIGHT_CLEAR,NIGHT_CLEAR,NIGHT_CLEAR","Cross-shore,Cross-shore,Cross-shore,Cross-shore,Cross-shore,Cross-shore",6
5842041f4e65fad6a77089fa,2024_03_12,40.1319,-74.02788,Sea Girt,1,-0.03791666666666667,0.23348333333333335,7,6,"NIGHT_CLEAR,NIGHT_CLEAR,NIGHT_CLEAR,NIGHT_CLEAR,NIGHT_CLEAR,NIGHT_CLEAR","Offshore,Offshore,Offshore,Offshore,Offshore,Offshore",6
5842041f4e65fad6a77089fb,2024_03_12,40.54698301868125,-73.9268,Breezy Point,0,0,0.27166666666666667,7,7,"NIGHT_CLEAR,NIGHT_CLEAR,NIGHT_CLEAR,NIGHT_CLEAR,NIGHT_CLEAR,NIGHT_CLEAR","Cross-shore,Cross-shore,Cross-shore,Cross-shore,Cross-shore,Cross-shore",6
5842041f4e65fad6a77089fc,2024_03_12,40.152504,-74.021383,Spring Lake,1,-0.03916666666666667,0.24431666666666668,7,6,"NIGHT_CLEAR,NIGHT_CLEAR,NIGHT_CLEAR,NIGHT_CLEAR,NIGHT_CLEAR,NIGHT_CLEAR","Offshore,Offshore,Offshore,Offshore,Offshore,Offshore",6
5842041f4e65fad6a77089fd,2024_03_12,40.591277,-73.770792,30th - 39th Streets,1,-0.014583333333333337,0.20015000000000002,7,6,"NIGHT_CLEAR,NIGHT_CLEAR,NIGHT_CLEAR,NIGHT_CLEAR,NIGHT_CLEAR,NIGHT_CLEAR","Cross-shore,Cross-shore,Cross-shore,Cross-shore,Cross-shore,Cross-shore",6
5842041f4e65fad6a77089fe,2024_03_12,40.18834955871439,-74.00860982500222,Avon,1,-0.03666666666666667,0.25848333333333334,7,6,"NIGHT_CLEAR,NIGHT_CLEAR,NIGHT_CLEAR,NIGHT_CLEAR,NIGHT_CLEAR,NIGHT_CLEAR","Offshore,Offshore,Offshore,Offshore,Offshore,Offshore",6
5842041f4e65fad6a77089ff,2024_03_12,40.1974229100932,-74.00650533798255,Bradley Beach,1,-0.036250000000000004,0.24848333333333336,7,6,"NIGHT_CLEAR,NIGHT_CLEAR,NIGHT_CLEAR,NIGHT_CLEAR,NIGHT_CLEAR,NIGHT_CLEAR","Offshore,Offshore,Offshore,Offshore,Offshore,Offshore",6
5842041f4e65fad6a7708a01,2024_03_12,40.17202,-74.01503,"16th Ave., Belmar",1,-0.020416666666666666,0.22640000000000002,7,6,"NIGHT_CLEAR,NIGHT_CLEAR,NIGHT_CLEAR,NIGHT_CLEAR,NIGHT_CLEAR,NIGHT_CLEAR","Offshore,Offshore,Offshore,Offshore,Offshore,Offshore",6
5842041f4e65fad6a7708a02,2024_03_12,40.217443,-73.99982,Asbury Park,1,-0.03916666666666667,0.24223333333333336,7,6,"NIGHT_CLEAR,NIGHT_CLEAR,NIGHT_CLEAR,NIGHT_CLEAR,NIGHT_CLEAR,NIGHT_CLEAR","Offshore,Offshore,Offshore,Offshore,Offshore,Offshore",6
5842041f4e65fad6a7708a03,2024_03_12,40.229841,-73.996782,Loch Arbour and Deal,1,-0.035,0.22806666666666667,7,6,"NIGHT_CLEAR,NIGHT_CLEAR,NIGHT_CLEAR,NIGHT_CLEAR,NIGHT_CLEAR,NIGHT_CLEAR","Offshore,Offshore,Offshore,Offshore,Offshore,Offshore",6
5842041f4e65fad6a7708a05,2024_03_12,40.41754,-73.97935,Sandy Hook,0,0,0.10166666666666667,7,7,"NIGHT_CLEAR,NIGHT_CLEAR,NIGHT_CLEAR,NIGHT_CLEAR,NIGHT_CLEAR,NIGHT_CLEAR","Offshore,Offshore,Offshore,Offshore,Offshore,Offshore",6
5842041f4e65fad6a7708a06,2024_03_12,39.36353,-74.40873,Crystals,0.3333333333333333,0.134325,0.29878333333333335,8,6,"NIGHT_CLEAR,NIGHT_CLEAR,NIGHT_CLEAR,NIGHT_CLEAR,NIGHT_CLEAR,NIGHT_CLEAR","Offshore,Offshore,Offshore,Offshore,Offshore,Offshore",6
5842041f4e65fad6a7708a07,2024_03_12,39.31443,-74.51863,32nd Street,1.445,0.16014458333333334,0.33912375,8,6,"NIGHT_CLEAR,NIGHT_CLEAR,NIGHT_CLEAR,NIGHT_CLEAR,NIGHT_CLEAR,NIGHT_CLEAR","Offshore,Offshore,Offshore,Offshore,Offshore,Offshore",6
5842041f4e65fad6a7708a08,2024_03_12,39.327688,-74.49524,Margate Pier Northside,1.445,0.16014458333333334,0.33912375,8,6,"NIGHT_CLEAR,NIGHT_CLEAR,NIGHT_CLEAR,NIGHT_CLEAR,NIGHT_CLEAR,NIGHT_CLEAR","Offshore,Offshore,Offshore,Offshore,Offshore,Offshore",6
5842041f4e65fad6a7708a09,2024_03_12,39.336276,-74.47782,Ventnor Pier,0.6666666666666666,0.15347166666666667,0.32870083333333333,8,6,"NIGHT_CLEAR,NIGHT_CLEAR,NIGHT_CLEAR,NIGHT_CLEAR,NIGHT_CLEAR,NIGHT_CLEAR","Offshore,Offshore,Offshore,Offshore,Offshore,Offshore",6
5842041f4e65fad6a7708a0a,2024_03_12,39.35929751441085,-74.41683,States Avenue,0.3333333333333333,0.134325,0.29878333333333335,8,6,"NIGHT_CLEAR,NIGHT_CLEAR,NIGHT_CLEAR,NIGHT_CLEAR,NIGHT_CLEAR,NIGHT_CLEAR","Offshore,Offshore,Offshore,Offshore,Offshore,Offshore",6
5842041f4e65fad6a7708a0b,2024_03_12,39.37274173278517,-74.40454,Brigantine Jetty,0,0.10482249999999999,0.25268375,8,6,"NIGHT_CLEAR,NIGHT_CLEAR,NIGHT_CLEAR,NIGHT_CLEAR,NIGHT_CLEAR,NIGHT_CLEAR","Offshore,Offshore,Offshore,Offshore,Offshore,Offshore",6
5842041f4e65fad6a7708a0c,2024_03_12,39.356505,-74.42263,South Carolina Avenue,0,0.10481249999999999,0.2526670833333333,8,6,"NIGHT_CLEAR,NIGHT_CLEAR,NIGHT_CLEAR,NIGHT_CLEAR,NIGHT_CLEAR,NIGHT_CLEAR","Offshore,Offshore,Offshore,Offshore,Offshore,Offshore",6
5842041f4e65fad6a7708a0d,2024_03_12,39.413485,-74.35476,14th Street North,1,0.009166666666666658,0.3172333333333333,8,6,"NIGHT_CLEAR,NIGHT_CLEAR,NIGHT_CLEAR,NIGHT_CLEAR,NIGHT_CLEAR,NIGHT_CLEAR","Offshore,Offshore,Offshore,Offshore,Offshore,Offshore",6
5842041f4e65fad6a7708a0e,2024_03_12,39.531319,-74.263252,The Wooden Jetty,1.445,0.17343166666666665,0.38937625,8,6,"NIGHT_CLEAR,NIGHT_CLEAR,NIGHT_CLEAR,NIGHT_CLEAR,NIGHT_CLEAR,NIGHT_CLEAR","Offshore,Offshore,Offshore,Offshore,Offshore,Offshore",6
5842041f4e65fad6a7708a0f,2024_03_12,39.552472,-74.24344,Holyoke,1.445,0.16122916666666667,0.34082625,8,6,"NIGHT_CLEAR,NIGHT_CLEAR,NIGHT_CLEAR,NIGHT_CLEAR,NIGHT_CLEAR,NIGHT_CLEAR","Offshore,Offshore,Offshore,Offshore,Offshore,Offshore",6
5842041f4e65fad6a7708a10,2024_03_12,39.692364,-74.14068,Hudson Ave.,1.445,-0.04208333333333334,0.2414,8,6,"NIGHT_CLEAR,NIGHT_CLEAR,NIGHT_CLEAR,NIGHT_CLEAR,NIGHT_CLEAR,NIGHT_CLEAR","Offshore,Offshore,Offshore,Offshore,Offshore,Offshore",6
5842041f4e65fad6a7708a11,2024_03_12,39.79614,-74.09248,Island Beach State Park,1,4.16666666666667e-4,0.3034833333333333,7,6,"NIGHT_CLEAR,NIGHT_CLEAR,NIGHT_CLEAR,NIGHT_CLEAR,NIGHT_CLEAR,NIGHT_CLEAR","Offshore,Offshore,Offshore,Offshore,Offshore,Offshore",6
5842041f4e65fad6a7708a12,2024_03_12,39.91813588078152,-74.07527,Seaside Park,1,-0.03875000000000001,0.2543166666666667,7,6,"NIGHT_CLEAR,NIGHT_CLEAR,NIGHT_CLEAR,NIGHT_CLEAR,NIGHT_CLEAR,NIGHT_CLEAR","Offshore,Offshore,Offshore,Offshore,Offshore,Offshore",6
5842041f4e65fad6a7708a14,2024_03_12,39.946638,-74.06884,Seaside Heights,1,-0.004583333333333342,0.30015,7,6,"NIGHT_CLEAR,NIGHT_CLEAR,NIGHT_CLEAR,NIGHT_CLEAR,NIGHT_CLEAR,NIGHT_CLEAR","Offshore,Offshore,Offshore,Offshore,Offshore,Offshore",6
5842041f4e65fad6a7708a15,2024_03_12,39.95745637606704,-74.06736,Ortley Beach,1,-0.03208333333333334,0.2414,7,6,"NIGHT_CLEAR,NIGHT_CLEAR,NIGHT_CLEAR,NIGHT_CLEAR,NIGHT_CLEAR,NIGHT_CLEAR","Offshore,Offshore,Offshore,Offshore,Offshore,Offshore",6
5842041f4e65fad6a7708a16,2024_03_12,39.98313468342945,-74.06265685577506,Lavallette,1,-0.037083333333333336,0.2547333333333333,7,6,"NIGHT_CLEAR,NIGHT_CLEAR,NIGHT_CLEAR,NIGHT_CLEAR,NIGHT_CLEAR,NIGHT_CLEAR","Offshore,Offshore,Offshore,Offshore,Offshore,Offshore",6
5842041f4e65fad6a7708a17,2024_03_12,40.0699319967757,-74.04144910856634,Bay Head,1,-0.03833333333333334,0.2614,7,6,"NIGHT_CLEAR,NIGHT_CLEAR,NIGHT_CLEAR,NIGHT_CLEAR,NIGHT_CLEAR,NIGHT_CLEAR","Offshore,Offshore,Offshore,Offshore,Offshore,Offshore",6
5842041f4e65fad6a7708a18,2024_03_12,40.094041,-74.034859,Jenkinson's,1,-0.04083333333333332,0.25723333333333337,7,6,"NIGHT_CLEAR,NIGHT_CLEAR,NIGHT_CLEAR,NIGHT_CLEAR,NIGHT_CLEAR,NIGHT_CLEAR","Offshore,Offshore,Offshore,Offshore,Offshore,Offshore",6
5842041f4e65fad6a7708a1a,2024_03_12,38.148058,-75.17704,Assateague,1,0.013749999999999984,0.31723333333333337,8,7,"CLEAR,NIGHT_CLEAR,NIGHT_CLEAR,NIGHT_CLEAR,NIGHT_CLEAR,NIGHT_CLEAR","Offshore,Offshore,Offshore,Offshore,Offshore,Offshore",6
5842041f4e65fad6a7708a1b,2024_03_12,38.33889038664497,-75.08017670566352,North End to Ocean City Inlet,1,0.001249999999999997,0.3014,8,7,"CLEAR,NIGHT_CLEAR,NIGHT_CLEAR,NIGHT_CLEAR,NIGHT_CLEAR,NIGHT_CLEAR","Offshore,Offshore,Offshore,Offshore,Offshore,Offshore",6
5842041f4e65fad6a7708a1c,2024_03_12,38.603993,-75.06271,Indian River Inlet,0.8333333333333334,0.22901124999999997,0.4467316666666667,8,7,"CLEAR,NIGHT_CLEAR,NIGHT_CLEAR,NIGHT_CLEAR,NIGHT_CLEAR,NIGHT_CLEAR","Offshore,Offshore,Offshore,Offshore,Offshore,Offshore",6
5842041f4e65fad6a7708a1d,2024_03_12,38.460477,-75.052069,Fenwick Island,1,-0.030000000000000006,0.2564,8,7,"CLEAR,NIGHT_CLEAR,NIGHT_CLEAR,NIGHT_CLEAR,NIGHT_CLEAR,NIGHT_CLEAR","Offshore,Offshore,Offshore,Offshore,Offshore,Offshore",6
5842041f4e65fad6a7708a1e,2024_03_12,38.538767,-75.05619,Bethany Beach,1,0.2279825,0.44512416666666665,8,7,"CLEAR,NIGHT_CLEAR,NIGHT_CLEAR,NIGHT_CLEAR,NIGHT_CLEAR,NIGHT_CLEAR","Offshore,Offshore,Offshore,Offshore,Offshore,Offshore",6
5842041f4e65fad6a7708a1f,2024_03_12,38.697657,-75.075951,Dewey Beach,1,-0.00875,0.23098333333333335,8,7,"CLEAR,NIGHT_CLEAR,NIGHT_CLEAR,NIGHT_CLEAR,NIGHT_CLEAR,NIGHT_CLEAR","Offshore,Offshore,Offshore,Offshore,Offshore,Offshore",6
5842041f4e65fad6a7708a20,2024_03_12,38.75034741676525,-75.08194,Gordons Pond,0.8333333333333334,0.15382791666666668,0.32925583333333336,8,7,"CLEAR,NIGHT_CLEAR,NIGHT_CLEAR,NIGHT_CLEAR,NIGHT_CLEAR,NIGHT_CLEAR","Offshore,Offshore,Offshore,Offshore,Offshore,Offshore",6
5842041f4e65fad6a7708a21,2024_03_12,38.767837,-75.082841,Naval Jetties,1,-0.020416666666666666,0.24973333333333336,8,7,"CLEAR,NIGHT_CLEAR,NIGHT_CLEAR,NIGHT_CLEAR,NIGHT_CLEAR,NIGHT_CLEAR","Offshore,Offshore,Offshore,Offshore,Offshore,Offshore",6
5842041f4e65fad6a7708a22,2024_03_12,36.81735875786576,-75.96624,Camp Pendleton,0.41833333333333333,0.028333333333333297,0.3338166666666667,9,8,"CLEAR,NIGHT_CLEAR,NIGHT_CLEAR,NIGHT_CLEAR,NIGHT_CLEAR,NIGHT_CLEAR","Offshore,Offshore,Offshore,Offshore,Offshore,Offshore",6
5842041f4e65fad6a7708a23,2024_03_12,36.9102212316428,-75.98732471466064,North End,0,-0.03375,0.26715,9,8,"CLEAR,NIGHT_CLEAR,NIGHT_CLEAR,NIGHT_CLEAR,NIGHT_CLEAR,NIGHT_CLEAR","Offshore,Offshore,Offshore,Offshore,Offshore,Offshore",6
5842041f4e65fad6a7708a24,2024_03_12,36.737117517621314,-75.93923719853362,Sandbridge Beach,1.6666666666666667,0.010833333333333325,0.31598333333333334,9,8,"CLEAR,NIGHT_CLEAR,NIGHT_CLEAR,NIGHT_CLEAR,NIGHT_CLEAR,NIGHT_CLEAR","Offshore,Offshore,Offshore,Offshore,Offshore,Offshore",6
5842041f4e65fad6a7708a26,2024_03_12,36.818257440557794,-75.96666,Croatan to Pendleton,0.445,-0.035416666666666666,0.27631666666666665,9,8,"CLEAR,NIGHT_CLEAR,NIGHT_CLEAR,NIGHT_CLEAR,NIGHT_CLEAR,NIGHT_CLEAR","Offshore,Offshore,Offshore,Offshore,Offshore,Offshore",6
5842041f4e65fad6a7708a27,2024_03_12,36.84318777204769,-75.9719,South End,1,-0.017083333333333346,0.2864,9,8,"CLEAR,NIGHT_CLEAR,NIGHT_CLEAR,NIGHT_CLEAR,NIGHT_CLEAR,NIGHT_CLEAR","Offshore,Offshore,Offshore,Offshore,Offshore,Offshore",6
5842041f4e65fad6a7708a28,2024_03_12,37.08612627584661,-75.976121638199,Fishermans Island,0,0,0.068,10,10,"CLEAR,NIGHT_CLEAR,NIGHT_CLEAR,NIGHT_CLEAR,NIGHT_CLEAR,NIGHT_CLEAR","Offshore,Offshore,Offshore,Offshore,Offshore,Offshore",6
5842041f4e65fad6a7708a38,2024_03_12,35.254619418229026,-75.52074,Cape Hatteras Lighthouse,2.6933333333333334,0.6546620833333333,1.0562475,11,9,"CLEAR,NIGHT_CLEAR,NIGHT_CLEAR,NIGHT_CLEAR,NIGHT_CLEAR,NIGHT_CLEAR","Offshore,Offshore,Offshore,Offshore,Offshore,Offshore",6
5842041f4e65fad6a7708a3a,2024_03_12,35.54572934093336,-75.46477,Waves and Salvo,3,0.94295,1.2454666666666667,10,9,"CLEAR,NIGHT_CLEAR,NIGHT_CLEAR,NIGHT_CLEAR,NIGHT_CLEAR,NIGHT_CLEAR","Offshore,Offshore,Offshore,Offshore,Offshore,Offshore",6
5842041f4e65fad6a7708a3b,2024_03_12,35.22565892751075,-75.63606,Frisco,1,0.1974666666666667,0.50615,13,11,"CLEAR,NIGHT_CLEAR,NIGHT_CLEAR,NIGHT_CLEAR,NIGHT_CLEAR,NIGHT_CLEAR","Offshore,Cross-shore,Cross-shore,Cross-shore,Cross-shore,Cross-shore",6
5842041f4e65fad6a7708a3c,2024_03_12,35.13086,-75.90591,Ocracoke,0.5,0.215415,0.3365883333333333,15,15,"CLEAR,NIGHT_CLEAR,NIGHT_CLEAR,NIGHT_CLEAR,NIGHT_CLEAR,NIGHT_CLEAR","Offshore,Offshore,Offshore,Offshore,Offshore,Offshore",6
5842041f4e65fad6a7708a3d,2024_03_12,35.34721340158342,-75.50084,Avon Pier,3,0.8824166666666666,1.2007833333333333,10,9,"CLEAR,NIGHT_CLEAR,NIGHT_CLEAR,NIGHT_CLEAR,NIGHT_CLEAR,NIGHT_CLEAR","Offshore,Offshore,Offshore,Offshore,Offshore,Offshore",6
5842041f4e65fad6a7708a3f,2024_03_12,35.71680821253768,-75.49243,Pea Island,3,0.7683333333333333,1.03,11,11,"CLEAR,NIGHT_CLEAR,NIGHT_CLEAR,NIGHT_CLEAR,NIGHT_CLEAR,NIGHT_CLEAR","Offshore,Offshore,Offshore,Offshore,Offshore,Offshore",6
5842041f4e65fad6a7708a40,2024_03_12,35.97427620657821,-75.62984,Nags Head Pier,1.555,0.6232500000000001,0.95855,9,8,"CLEAR,NIGHT_CLEAR,NIGHT_CLEAR,NIGHT_CLEAR,NIGHT_CLEAR,NIGHT_CLEAR","Offshore,Offshore,Offshore,Offshore,Offshore,Offshore",6
5842041f4e65fad6a7708a41,2024_03_12,36.0439998039079,-75.67288,Avalon Pier,2,0.5458666666666667,0.8556,9,8,"CLEAR,NIGHT_CLEAR,NIGHT_CLEAR,NIGHT_CLEAR,NIGHT_CLEAR,NIGHT_CLEAR","Offshore,Offshore,Offshore,Offshore,Offshore,Offshore",6
5842041f4e65fad6a7708a42,2024_03_12,36.03043116489792,-75.66413,First Street,1.555,0.4881000000000001,0.8697944444444444,9,8,"CLEAR,NIGHT_CLEAR,NIGHT_CLEAR,NIGHT_CLEAR,NIGHT_CLEAR,NIGHT_CLEAR","Offshore,Offshore,Offshore,Offshore,Offshore,Offshore",6
5842041f4e65fad6a7708a43,2024_03_12,36.06829910590498,-75.6899,Old Station/Laundromats,2,0.4942,0.8281000000000001,9,8,"CLEAR,NIGHT_CLEAR,NIGHT_CLEAR,NIGHT_CLEAR,NIGHT_CLEAR,NIGHT_CLEAR","Offshore,Offshore,Offshore,Offshore,Offshore,Offshore",6
5842041f4e65fad6a7708a44,2024_03_12,36.10126676607491,-75.71107462163894,Kitty Hawk Pier,1.555,0.622,0.9272999999999999,9,8,"CLEAR,NIGHT_CLEAR,NIGHT_CLEAR,NIGHT_CLEAR,NIGHT_CLEAR,NIGHT_CLEAR","Offshore,Offshore,Offshore,Offshore,Offshore,Offshore",6
5842041f4e65fad6a7708a45,2024_03_12,36.18220630068973,-75.75013580649097,Duck Pier,1,0.21015,0.5148833333333334,9,8,"CLEAR,NIGHT_CLEAR,NIGHT_CLEAR,NIGHT_CLEAR,NIGHT_CLEAR,NIGHT_CLEAR","Offshore,Offshore,Offshore,Offshore,Offshore,Offshore",6
5842041f4e65fad6a7708a46,2024_03_12,36.37660668125033,-75.82409701687456,Corolla,1,0.1905666666666667,0.4969666666666667,9,8,"CLEAR,NIGHT_CLEAR,NIGHT_CLEAR,NIGHT_CLEAR,NIGHT_CLEAR,NIGHT_CLEAR","Offshore,Offshore,Offshore,Offshore,Offshore,Offshore",6
5842041f4e65fad6a7708a47,2024_03_12,33.90373404124834,-78.08241431707907,Oak Island,1,0,0.24666666666666667,14,14,"CLEAR,NIGHT_CLEAR,NIGHT_CLEAR,NIGHT_CLEAR,NIGHT_CLEAR,NIGHT_CLEAR","Cross-shore,Cross-shore,Cross-shore,Cross-shore,Cross-shore,Cross-shore",6
5842041f4e65fad6a7708a48,2024_03_12,33.91108837766468,-78.29653,South Brunswick Beaches,1,0.16022,0.250345,15,15,"CLEAR,NIGHT_CLEAR,NIGHT_CLEAR,NIGHT_CLEAR,NIGHT_CLEAR,NIGHT_CLEAR","Offshore,Cross-shore,Offshore,Cross-shore,Cross-shore,Cross-shore",6
5842041f4e65fad6a7708a49,2024_03_12,34.05683595651973,-77.88128,Carolina Beach Pier,2,0.22215000000000001,0.5265333333333333,14,13,"CLEAR,NIGHT_CLEAR,NIGHT_CLEAR,NIGHT_CLEAR,NIGHT_CLEAR,NIGHT_CLEAR","Offshore,Offshore,Offshore,Offshore,Offshore,Offshore",6
5842041f4e65fad6a7708a4a,2024_03_12,33.96841191816696,-77.9180242565498,Fort Fisher,1.9716666666666667,0.2159,0.5240333333333334,14,13,"CLEAR,NIGHT_CLEAR,NIGHT_CLEAR,NIGHT_CLEAR,NIGHT_CLEAR,NIGHT_CLEAR","Offshore,Offshore,Offshore,Offshore,Offshore,Offshore",6
5842041f4e65fad6a7708a4b,2024_03_12,34.46776662988774,-77.47083191635772,Topsail Beach,0.5,0,0.2672333333333333,14,13,"CLEAR,NIGHT_CLEAR,NIGHT_CLEAR,NIGHT_CLEAR,NIGHT_CLEAR,NIGHT_CLEAR","Offshore,Offshore,Offshore,Cross-shore,Cross-shore,Cross-shore",6
5842041f4e65fad6a7708a4c,2024_03_12,34.69270354752445,-76.82854854446575,Iron Steamer,0,-0.007083333333333333,0.25785,14,13,"CLEAR,NIGHT_CLEAR,NIGHT_CLEAR,NIGHT_CLEAR,NIGHT_CLEAR,NIGHT_CLEAR","Cross-shore,Cross-shore,Cross-shore,Cross-shore,Cross-shore,Cross-shore",6
5842041f4e65fad6a7708a4f,2024_03_12,30.85132684893727,-81.42283496231143,Cumberland Island,1.3333333333333333,0.2583333333333333,0.565,17,17,"CLEAR,NIGHT_CLEAR,NIGHT_CLEAR,NIGHT_CLEAR,NIGHT_CLEAR,NIGHT_CLEAR","Cross-shore,Onshore,Onshore,Onshore,Onshore,Onshore",6
5842041f4e65fad6a7708a50,2024_03_12,34.686741128540874,-76.47516712138378,Cape Lookout National Seashore,1,0.075,0.385,16,16,"CLEAR,NIGHT_CLEAR,NIGHT_CLEAR,NIGHT_CLEAR,NIGHT_CLEAR,NIGHT_CLEAR","Offshore,Offshore,Offshore,Offshore,Offshore,Offshore",6
5842041f4e65fad6a7708a51,2024_03_12,31.10585419260024,-81.40422767604812,Jekyll Island,1,0.07,0.37666666666666665,16,16,"CLEAR,NIGHT_CLEAR,NIGHT_CLEAR,NIGHT_CLEAR,NIGHT_CLEAR,NIGHT_CLEAR","Onshore,Onshore,Onshore,Onshore,Onshore,Cross-shore",6
5842041f4e65fad6a7708a52,2024_03_12,31.16212806376699,-81.32512426500224,Harbor Marker Buoys,1.6666666666666667,0.08166666666666667,0.38666666666666666,16,16,"CLEAR,NIGHT_CLEAR,NIGHT_CLEAR,NIGHT_CLOUDY,NIGHT_CLEAR,NIGHT_CLEAR","Cross-shore,Cross-shore,Onshore,Onshore,Onshore,Onshore",6
5842041f4e65fad6a7708a53,2024_03_12,31.20076299997009,-81.32629,Sea Island,1.1666666666666667,0.16166666666666668,0.4683333333333333,16,16,"CLEAR,NIGHT_CLEAR,NIGHT_CLEAR,NIGHT_CLEAR,NIGHT_CLEAR,NIGHT_CLEAR","Cross-shore,Cross-shore,Onshore,Onshore,Onshore,Onshore",6
5842041f4e65fad6a7708a54,2024_03_12,31.13553222995767,-81.38457634790909,St. Simons Island,1.1666666666666667,0.12833333333333333,0.43166666666666664,16,16,"CLEAR,NIGHT_CLEAR,NIGHT_CLEAR,NIGHT_CLEAR,NIGHT_MOSTLY_CLOUDY,NIGHT_CLEAR","Cross-shore,Cross-shore,Cross-shore,Onshore,Onshore,Onshore",6
5842041f4e65fad6a7708a55,2024_03_12,31.33550077186516,-81.28383377408417,Wolf Island,1,0.018333333333333333,0.32166666666666666,16,16,"CLEAR,NIGHT_CLEAR,NIGHT_CLEAR,NIGHT_MOSTLY_CLOUDY,NIGHT_CLEAR,NIGHT_CLEAR","Onshore,Onshore,Onshore,Onshore,Onshore,Cross-shore",6
5842041f4e65fad6a7708a56,2024_03_12,31.2704493877174,-81.27324039152315,Little St. Simons Island,1,0.09166666666666667,0.395,16,16,"CLEAR,NIGHT_CLEAR,NIGHT_CLEAR,NIGHT_MOSTLY_CLOUDY,NIGHT_CLEAR,NIGHT_CLEAR","Onshore,Onshore,Onshore,Onshore,Onshore,Cross-shore",6
5842041f4e65fad6a7708a57,2024_03_12,31.39261761368919,-81.26190520231917,Sapelo Island,1.1666666666666667,0.075,0.37833333333333335,16,16,"CLEAR,NIGHT_CLEAR,NIGHT_CLEAR,NIGHT_CLEAR,NIGHT_CLEAR,NIGHT_CLEAR","Onshore,Onshore,Onshore,Onshore,Onshore,Cross-shore",6
5842041f4e65fad6a7708a58,2024_03_12,34.42458783809001,-77.54492,Surf City Pier,1,0,0.27348333333333336,14,13,"CLEAR,NIGHT_CLEAR,NIGHT_CLEAR,NIGHT_CLEAR,NIGHT_CLEAR,NIGHT_CLEAR","Offshore,Offshore,Offshore,Offshore,Offshore,Offshore",6
5842041f4e65fad6a7708a59,2024_03_12,31.4231993614213,-81.24725340591522,Cabretta Island,1.3333333333333333,0.07,0.37666666666666665,16,16,"CLEAR,NIGHT_CLEAR,NIGHT_CLEAR,NIGHT_CLEAR,NIGHT_CLEAR,NIGHT_MOSTLY_CLEAR","Onshore,Onshore,Onshore,Onshore,Onshore,Cross-shore",6
5842041f4e65fad6a7708a5a,2024_03_12,31.46684389030369,-81.2100056410468,Blackbeard Island,1.1666666666666667,0.075,0.37833333333333335,16,16,"CLEAR,NIGHT_CLEAR,NIGHT_CLEAR,NIGHT_CLEAR,NIGHT_CLEAR,NIGHT_MOSTLY_CLOUDY","Onshore,Onshore,Onshore,Onshore,Onshore,Onshore",6
5842041f4e65fad6a7708a5b,2024_03_12,31.85953587631629,-80.99031310336719,Wassaw Island/South End,0.3333333333333333,0,0.15166666666666667,16,16,"CLEAR,NIGHT_CLEAR,NIGHT_CLEAR,NIGHT_CLEAR,NIGHT_CLEAR,NIGHT_MOSTLY_CLOUDY","Onshore,Onshore,Cross-shore,Cross-shore,Cross-shore,Cross-shore",6
5842041f4e65fad6a7708a5c,2024_03_12,31.62535662342983,-81.13328352167974,St. Catherines Island,1.3333333333333333,0.04,0.345,16,16,"CLEAR,NIGHT_CLEAR,NIGHT_CLEAR,NIGHT_CLEAR,NIGHT_CLEAR,NIGHT_MOSTLY_CLOUDY","Onshore,Onshore,Cross-shore,Cross-shore,Cross-shore,Cross-shore",6
5842041f4e65fad6a7708a5d,2024_03_12,31.76502169596568,-81.07655443806622,Ossabaw Island,1,0.011666666666666667,0.31833333333333336,16,16,"CLEAR,NIGHT_CLEAR,NIGHT_CLEAR,NIGHT_CLEAR,NIGHT_MOSTLY_CLEAR,NIGHT_CLEAR","Onshore,Onshore,Cross-shore,Cross-shore,Cross-shore,Cross-shore",6
5842041f4e65fad6a7708a5e,2024_03_12,31.90593619092352,-80.93589231700857,Wassaw Island/North End,1,0.08,0.38666666666666666,16,16,"CLEAR,NIGHT_CLEAR,NIGHT_CLEAR,NIGHT_CLEAR,NIGHT_CLEAR,NIGHT_CLEAR","Onshore,Onshore,Cross-shore,Cross-shore,Cross-shore,Cross-shore",6
5842041f4e65fad6a7708a5f,2024_03_12,31.96738675414547,-80.86977980706155,Little Tybee Island,1,0,0.28833333333333333,16,16,"CLEAR,NIGHT_CLEAR,NIGHT_CLEAR,NIGHT_CLEAR,NIGHT_CLEAR,NIGHT_CLEAR","Onshore,Onshore,Cross-shore,Cross-shore,Cross-shore,Cross-shore",6
5842041f4e65fad6a7708a60,2024_03_12,31.9812255780179,-80.84773973467009,South Tybee Sandbars,1,0,0.25166666666666665,16,16,"CLEAR,NIGHT_CLEAR,NIGHT_CLEAR,NIGHT_CLEAR,NIGHT_CLEAR,NIGHT_CLEAR","Cross-shore,Cross-shore,Cross-shore,Cross-shore,Cross-shore,Offshore",6
5842041f4e65fad6a7708a61,2024_03_12,32.01226,-80.83983,Sugar Shack,1,0,0.21166666666666667,16,16,"CLEAR,NIGHT_CLEAR,NIGHT_CLEAR,NIGHT_CLEAR,NIGHT_CLEAR,NIGHT_CLEAR","Offshore,Offshore,Offshore,Offshore,Offshore,Offshore",6
5842041f4e65fad6a7708a62,2024_03_12,31.98722842396969,-80.84773,18th St. Jetty,1,0.18279833333333334,0.28562,16,16,"CLEAR,NIGHT_CLEAR,NIGHT_CLEAR,NIGHT_CLEAR,NIGHT_CLEAR,NIGHT_CLEAR","Cross-shore,Cross-shore,Cross-shore,Offshore,Offshore,Offshore",6
5842041f4e65fad6a7708a64,2024_03_12,34.013473721006676,-77.8991,"Alabama Ave., Kure Beach",1.6666666666666667,0.045,0.3466666666666667,14,14,"CLEAR,NIGHT_CLEAR,NIGHT_CLEAR,NIGHT_CLEAR,NIGHT_CLEAR,NIGHT_CLEAR","Cross-shore,Cross-shore,Cross-shore,Cross-shore,Cross-shore,Cross-shore",6
5842041f4e65fad6a7708a65,2024_03_12,34.20859853336924,-77.79293,"C Street, Wrightsville Beach",2,0.2159,0.5227833333333334,14,13,"CLEAR,NIGHT_CLEAR,NIGHT_CLEAR,NIGHT_CLEAR,NIGHT_CLEAR,NIGHT_CLEAR","Offshore,Offshore,Offshore,Offshore,Offshore,Offshore",6
5842041f4e65fad6a7708a66,2024_03_12,32.831,-79.71,Dewees Island,1,0,0.18,16,16,"CLEAR,NIGHT_CLEAR,NIGHT_CLEAR,NIGHT_CLEAR,NIGHT_CLEAR,NIGHT_CLEAR","Offshore,Offshore,Offshore,Offshore,Offshore,Offshore",6
5842041f4e65fad6a7708a67,2024_03_12,33.82924423172106,-78.62813,Cherry Grove Pier,0,0,0.31479999999999997,15,15,"CLEAR,NIGHT_CLEAR,NIGHT_CLEAR,NIGHT_CLEAR,NIGHT_CLEAR,NIGHT_CLEAR","Offshore,Offshore,Offshore,Offshore,Cross-shore,Offshore",6
5842041f4e65fad6a7708a69,2024_03_12,34.27197439666496,-77.74050223196774,Figure Eight and Shell Islands,2,0.2275666666666667,0.5257000000000001,14,13,"CLEAR,NIGHT_CLEAR,NIGHT_CLEAR,NIGHT_CLEAR,NIGHT_CLEAR,NIGHT_CLEAR","Offshore,Offshore,Offshore,Offshore,Offshore,Offshore",6
5842041f4e65fad6a7708a6b,2024_03_12,33.49041958261793,-79.07666070599386,North End,1,0,0.17,16,16,"CLEAR,NIGHT_CLEAR,NIGHT_CLEAR,NIGHT_CLEAR,NIGHT_CLEAR,NIGHT_CLEAR","Offshore,Offshore,Offshore,Offshore,Offshore,Offshore",6
5842041f4e65fad6a7708a6c,2024_03_12,33.39537062495087,-79.13835037835189,The South End,1,0,0.19,16,16,"CLEAR,NIGHT_CLEAR,NIGHT_CLEAR,NIGHT_CLEAR,NIGHT_CLEAR,NIGHT_CLEAR","Offshore,Offshore,Offshore,Offshore,Offshore,Offshore",6
5842041f4e65fad6a7708a6d,2024_03_12,33.29001727666697,-79.17190003352977,North Island,1,0,0.195,16,16,"CLEAR,NIGHT_CLEAR,NIGHT_CLEAR,NIGHT_CLEAR,NIGHT_CLEAR,NIGHT_CLEAR","Offshore,Offshore,Offshore,Offshore,Offshore,Offshore",6
5842041f4e65fad6a7708a6e,2024_03_12,32.90929771158952,-79.57810400297359,Bull Island,1,0,0.235,17,17,"CLEAR,NIGHT_CLEAR,NIGHT_CLEAR,NIGHT_CLEAR,NIGHT_CLEAR,NIGHT_CLEAR","Offshore,Offshore,Offshore,Offshore,Offshore,Offshore",6
5842041f4e65fad6a7708a6f,2024_03_12,31.99153112815895,-80.84543050470074,Tybee Island Pier,0,0,0.14166666666666666,16,16,"CLEAR,NIGHT_CLEAR,NIGHT_CLEAR,NIGHT_CLEAR,NIGHT_CLEAR,NIGHT_CLEAR","Cross-shore,Cross-shore,Cross-shore,Cross-shore,Cross-shore,Offshore",6
5842041f4e65fad6a7708a70,2024_03_12,33.03478144356316,-79.35021028265125,Cape Romain,1,0,0.23,17,17,"CLEAR,NIGHT_CLEAR,NIGHT_CLEAR,NIGHT_CLEAR,NIGHT_CLEAR,NIGHT_CLEAR","Offshore,Offshore,Offshore,Offshore,Offshore,Offshore",6
5842041f4e65fad6a7708a71,2024_03_12,33.43231073271028,-79.11789,The Pier,1,0.18549666666666667,0.2898366666666667,16,16,"CLEAR,NIGHT_CLEAR,NIGHT_CLEAR,NIGHT_CLEAR,NIGHT_CLEAR,NIGHT_CLEAR","Offshore,Offshore,Offshore,Offshore,Offshore,Offshore",6
5842041f4e65fad6a7708a72,2024_03_12,33.45423621397969,-79.10497798178424,South Litchfield,1,0,0.23666666666666666,16,16,"CLEAR,NIGHT_CLEAR,NIGHT_CLEAR,NIGHT_CLEAR,NIGHT_CLEAR,NIGHT_CLEAR","Offshore,Offshore,Offshore,Offshore,Offshore,Offshore",6
5842041f4e65fad6a7708a73,2024_03_12,34.19316590251396,-77.8045,Crystal Pier,2,0.2159,0.5223666666666666,14,13,"CLEAR,NIGHT_CLEAR,NIGHT_CLEAR,NIGHT_CLEAR,NIGHT_CLEAR,NIGHT_CLEAR","Offshore,Offshore,Offshore,Offshore,Offshore,Offshore",6
5842041f4e65fad6a7708a74,2024_03_12,33.68628680045124,-78.883460274301,Myrtle Beach,0,0,0.3048,15,15,"CLEAR,NIGHT_CLEAR,NIGHT_CLEAR,NIGHT_CLEAR,NIGHT_CLEAR,NIGHT_CLEAR","Offshore,Offshore,Offshore,Offshore,Offshore,Offshore",6
5842041f4e65fad6a7708a75,2024_03_12,32.66166297145973,-79.91951806398808,10th Street,1,0,0.235,16,16,"CLEAR,NIGHT_CLEAR,NIGHT_CLEAR,NIGHT_CLEAR,NIGHT_CLEAR,NIGHT_CLEAR","Offshore,Cross-shore,Cross-shore,Offshore,Cross-shore,Offshore",6
5842041f4e65fad6a7708a76,2024_03_12,33.16729555197199,-79.19829236867845,South Island,1,0,0.22833333333333333,17,17,"CLEAR,NIGHT_CLEAR,NIGHT_CLEAR,NIGHT_CLEAR,NIGHT_CLEAR,NIGHT_CLEAR","Offshore,Offshore,Offshore,Offshore,Offshore,Offshore",6
5842041f4e65fad6a7708a77,2024_03_12,32.595,-80.088,Kiawah Island/Seabrook Island,1,0,0.16833333333333333,16,16,"CLEAR,NIGHT_CLEAR,NIGHT_CLEAR,NIGHT_CLEAR,NIGHT_CLEAR,NIGHT_CLEAR","Onshore,Onshore,Onshore,Cross-shore,Cross-shore,Cross-shore",6
5842041f4e65fad6a7708a78,2024_03_12,32.51356930575787,-80.28223,Edisto Beach,1,0.1489,0.23265833333333333,16,16,"CLEAR,NIGHT_CLEAR,NIGHT_CLEAR,NIGHT_CLEAR,NIGHT_CLEAR,NIGHT_CLEAR","Cross-shore,Cross-shore,Cross-shore,Cross-shore,Cross-shore,Cross-shore",6
5842041f4e65fad6a7708a79,2024_03_12,32.366270751262,-80.43911,Hunting Island,1,0.16402333333333333,0.25628666666666666,16,16,"CLEAR,NIGHT_CLEAR,NIGHT_CLEAR,NIGHT_CLEAR,NIGHT_CLEAR,NIGHT_CLEAR","Offshore,Offshore,Offshore,Offshore,Offshore,Offshore",6
5842041f4e65fad6a7708a7a,2024_03_12,32.65337734408365,-79.93983,Folly Beach Pier,0,0,0.3077166666666667,16,14,"CLEAR,NIGHT_CLEAR,NIGHT_CLEAR,NIGHT_CLEAR,NIGHT_CLEAR,NIGHT_MOSTLY_CLOUDY","Cross-shore,Onshore,Onshore,Cross-shore,Onshore,Cross-shore",6
5842041f4e65fad6a7708a7b,2024_03_12,33.41209545530049,-79.13026341393126,South Jetty,1,0,0.19,16,16,"CLEAR,NIGHT_CLEAR,NIGHT_CLEAR,NIGHT_CLEAR,NIGHT_CLEAR,NIGHT_CLEAR","Offshore,Offshore,Offshore,Offshore,Offshore,Offshore",6
5842041f4e65fad6a7708a7c,2024_03_12,32.31115640606869,-80.48564,Fripp Island,1,0.15732333333333334,0.24581833333333333,16,16,"CLEAR,NIGHT_CLEAR,NIGHT_CLEAR,NIGHT_CLEAR,NIGHT_CLEAR,NIGHT_CLEAR","Onshore,Onshore,Onshore,Cross-shore,Cross-shore,Cross-shore",6
5842041f4e65fad6a7708a7d,2024_03_12,32.14365226036034,-80.74402,Hilton Head Island,0,0,0.08,16,16,"CLEAR,NIGHT_CLEAR,NIGHT_CLEAR,NIGHT_CLEAR,NIGHT_CLEAR,NIGHT_CLEAR","Onshore,Cross-shore,Cross-shore,Cross-shore,Cross-shore,Cross-shore",6
5842041f4e65fad6a7708a7e,2024_03_12,29.70405364733744,-81.22426004725459,Matanzas Inlet,2,0.405,0.71,18,18,"CLEAR,NIGHT_CLEAR,NIGHT_CLEAR,NIGHT_CLEAR,NIGHT_CLEAR,NIGHT_CLEAR","Onshore,Onshore,Onshore,Onshore,Onshore,Onshore",6
5842041f4e65fad6a7708a81,2024_03_12,29.76878537149042,-81.25109,Crescent Beach,2,0.415,0.72,18,18,"CLEAR,NIGHT_CLEAR,NIGHT_CLEAR,NIGHT_CLEAR,NIGHT_CLEAR,NIGHT_CLEAR","Onshore,Onshore,Onshore,Onshore,Onshore,Onshore",6
5842041f4e65fad6a7708a82,2024_03_12,32.80251718689188,-79.73221919500764,Wild Dunes,1,0,0.21,16,16,"CLEAR,NIGHT_CLEAR,NIGHT_CLEAR,NIGHT_CLEAR,NIGHT_CLEAR,NIGHT_CLEAR","Offshore,Offshore,Cross-shore,Cross-shore,Cross-shore,Cross-shore",6
5842041f4e65fad6a7708a84,2024_03_12,32.75733539419244,-79.83258856064796,Bert's Bar,1,0,0.17,16,16,"CLEAR,NIGHT_CLEAR,NIGHT_CLEAR,NIGHT_CLEAR,NIGHT_CLEAR,NIGHT_CLEAR","Offshore,Offshore,Cross-shore,Cross-shore,Offshore,Offshore",6
5842041f4e65fad6a7708a85,2024_03_12,32.66829212943039,-79.90735,Washout,0,0,0.30063333333333336,16,14,"CLEAR,NIGHT_CLEAR,NIGHT_CLEAR,NIGHT_CLEAR,NIGHT_CLEAR,NIGHT_MOSTLY_CLOUDY","Offshore,Cross-shore,Cross-shore,Cross-shore,Cross-shore,Offshore",6
5842041f4e65fad6a7708a86,2024_03_12,32.78452968219067,-79.78540233488354,The Pier/Windjammer,1,0,0.18333333333333332,16,16,"CLEAR,NIGHT_CLEAR,NIGHT_CLEAR,NIGHT_CLEAR,NIGHT_CLEAR,NIGHT_CLEAR","Offshore,Cross-shore,Cross-shore,Cross-shore,Cross-shore,Cross-shore",6
5842041f4e65fad6a7708a87,2024_03_12,29.86618162637438,-81.2662150259608,Anastasia Park (The Entrance),1.8333333333333333,0.375,0.6816666666666666,18,18,"CLEAR,NIGHT_CLEAR,NIGHT_CLEAR,NIGHT_CLEAR,NIGHT_CLEAR,NIGHT_CLEAR","Onshore,Onshore,Onshore,Onshore,Onshore,Onshore",6
5842041f4e65fad6a7708a89,2024_03_12,29.89149785916623,-81.2723223244215,Blowholes,1.805,0.3826333333333334,0.6840166666666666,23,21,"CLEAR,NIGHT_CLEAR,NIGHT_CLEAR,NIGHT_CLEAR,NIGHT_CLEAR,NIGHT_CLEAR","Onshore,Onshore,Onshore,Onshore,Onshore,Onshore",6
5842041f4e65fad6a7708a8a,2024_03_12,30.16227112983666,-81.35502907491218,Crossroads,1.945,0.3522166666666667,0.65735,23,21,"CLEAR,NIGHT_CLEAR,NIGHT_CLEAR,NIGHT_CLEAR,NIGHT_CLEAR,NIGHT_CLEAR","Onshore,Onshore,Onshore,Onshore,Onshore,Onshore",6
5842041f4e65fad6a7708a8b,2024_03_12,30.19308537587637,-81.36314247820911,Sawgrass,1.945,0.3488833333333333,0.6486000000000001,23,21,"CLEAR,NIGHT_CLEAR,NIGHT_CLEAR,NIGHT_CLEAR,NIGHT_CLEAR,NIGHT_CLEAR","Onshore,Onshore,Onshore,Onshore,Onshore,Onshore",6
5842041f4e65fad6a7708a8c,2024_03_12,30.34696027700899,-81.39451,18th Street,1.6666666666666667,0.360355,0.5630566666666666,17,17,"CLEAR,NIGHT_CLEAR,NIGHT_CLEAR,NIGHT_CLEAR,NIGHT_CLEAR,NIGHT_CLEAR","Onshore,Onshore,Onshore,Onshore,Onshore,Onshore",6
5842041f4e65fad6a7708a8d,2024_03_12,30.381793,-81.39686,Mayport Poles,2,0.44833333333333336,0.7566666666666667,17,17,"CLEAR,NIGHT_CLEAR,NIGHT_CLEAR,NIGHT_CLEAR,NIGHT_CLEAR,NIGHT_MOSTLY_CLEAR","Onshore,Onshore,Onshore,Onshore,Onshore,Onshore",6
5842041f4e65fad6a7708a8e,2024_03_12,30.390516,-81.395591,Blue Roofs,2,0.355,0.66,17,17,"CLEAR,NIGHT_CLEAR,NIGHT_CLEAR,NIGHT_CLEAR,NIGHT_CLEAR,NIGHT_MOSTLY_CLEAR","Cross-shore,Onshore,Onshore,Onshore,Onshore,Onshore",6
5842041f4e65fad6a7708a8f,2024_03_12,30.40517712722211,-81.40074116169004,Huguenot Park (North Jetty),2,0.3783333333333333,0.6866666666666666,17,17,"CLEAR,NIGHT_CLEAR,NIGHT_CLEAR,NIGHT_CLEAR,NIGHT_CLEAR,NIGHT_MOSTLY_CLEAR","Onshore,Onshore,Onshore,Onshore,Onshore,Onshore",6
5842041f4e65fad6a7708a90,2024_03_12,30.47788918872762,-81.41055821335078,Talbot Island,2,0.6047325,0.9113041666666667,18,16,"CLEAR,NIGHT_CLEAR,NIGHT_CLEAR,NIGHT_CLEAR,NIGHT_CLEAR,NIGHT_CLEAR","Onshore,Onshore,Onshore,Onshore,Onshore,Onshore",6
5842041f4e65fad6a7708a91,2024_03_12,30.66753984549761,-81.42983,Main Beach,1.1666666666666667,0.20666666666666667,0.5116666666666667,17,17,"CLEAR,NIGHT_CLEAR,NIGHT_CLEAR,NIGHT_CLEAR,NIGHT_CLEAR,NIGHT_CLEAR","Cross-shore,Onshore,Onshore,Onshore,Onshore,Onshore",6
5842041f4e65fad6a7708a92,2024_03_12,30.69983581209126,-81.42483,Ft. Clinch State Park,2,0.3883333333333333,0.6916666666666667,17,17,"CLEAR,NIGHT_CLEAR,NIGHT_CLEAR,NIGHT_CLEAR,NIGHT_CLEAR,NIGHT_MOSTLY_CLEAR","Onshore,Onshore,Onshore,Onshore,Onshore,Onshore",6
5842041f4e65fad6a7708a93,2024_03_12,30.62059700777582,-81.437252942757425,Amelia Pier,1.3333333333333333,0.225,0.5316666666666667,17,17,"CLEAR,NIGHT_CLEAR,NIGHT_CLEAR,NIGHT_CLEAR,NIGHT_CLEAR,NIGHT_CLEAR","Onshore,Onshore,Onshore,Onshore,Onshore,Onshore",6
5842041f4e65fad6a7708a95,2024_03_12,28.95125170929067,-80.83837,Bethune Beach,1.5,0.78,1.0416666666666667,20,20,"CLEAR,NIGHT_CLEAR,NIGHT_CLEAR,NIGHT_CLEAR,NIGHT_CLEAR,NIGHT_CLEAR","Onshore,Onshore,Onshore,Onshore,Onshore,Onshore",6
5842041f4e65fad6a7708a96,2024_03_12,29.03874288905362,-80.8933424949646,Flagler Ave.,1.9716666666666667,0.7995666666666666,1.1042833333333333,23,22,"CLEAR,NIGHT_CLEAR,NIGHT_CLEAR,NIGHT_CLEAR,NIGHT_CLEAR,NIGHT_CLEAR","Onshore,Onshore,Onshore,Onshore,Onshore,Onshore",6
5842041f4e65fad6a7708a98,2024_03_12,30.332297686992757,-81.39319,Atlantic Beach,2,0.3618033333333333,0.5653216666666666,17,17,"CLEAR,NIGHT_CLEAR,NIGHT_CLEAR,NIGHT_CLEAR,NIGHT_CLEAR,NIGHT_CLEAR","Onshore,Onshore,Onshore,Onshore,Onshore,Onshore",6
5842041f4e65fad6a7708a99,2024_03_12,29.87530059952514,-81.26757958498874,Middles,1.805,0.35805000000000003,0.6631833333333333,23,21,"CLEAR,NIGHT_CLEAR,NIGHT_CLEAR,NIGHT_CLEAR,NIGHT_CLEAR,NIGHT_CLEAR","Onshore,Onshore,Onshore,Onshore,Onshore,Onshore",6
5842041f4e65fad6a7708a9a,2024_03_12,29.146475528378218,-80.96347,Sunglow Pier,1.8333333333333333,0.6533333333333333,0.9566666666666667,19,19,"CLEAR,NIGHT_CLEAR,NIGHT_CLEAR,NIGHT_CLEAR,NIGHT_CLEAR,NIGHT_CLEAR","Onshore,Onshore,Onshore,Onshore,Onshore,Onshore",6
5842041f4e65fad6a7708a9b,2024_03_12,30.02251238001095,-81.32183077344881,Gate Station,1.945,0.3463833333333334,0.6511,23,21,"CLEAR,NIGHT_CLEAR,NIGHT_CLEAR,NIGHT_CLEAR,NIGHT_CLEAR,NIGHT_CLEAR","Onshore,Onshore,Onshore,Onshore,Onshore,Onshore",6
5842041f4e65fad6a7708a9c,2024_03_12,29.33976495417899,-81.0606,Bicentennial Park,1.5,0.5566666666666668,0.8583333333333333,19,19,"CLEAR,NIGHT_CLEAR,NIGHT_CLEAR,NIGHT_CLEAR,NIGHT_CLEAR,NIGHT_CLEAR","Onshore,Onshore,Onshore,Onshore,Onshore,Onshore",6
5842041f4e65fad6a7708a9d,2024_03_12,29.08257353385602,-80.92136998257725,Ponce Inlet,2,1.0319,1.2671166666666667,19,17,"CLEAR,NIGHT_CLEAR,NIGHT_CLEAR,NIGHT_CLEAR,NIGHT_CLEAR,NIGHT_CLEAR","Onshore,Onshore,Onshore,Onshore,Onshore,Onshore",6
5842041f4e65fad6a7708a9f,2024_03_12,27.862962005874696,-80.44668,Sebastian Inlet,1.8333333333333333,0.6583883333333334,1.06854,23,21,"CLEAR,NIGHT_CLEAR,NIGHT_MOSTLY_CLOUDY,NIGHT_MOSTLY_CLOUDY,NIGHT_CLEAR,NIGHT_MOSTLY_CLOUDY","Onshore,Onshore,Onshore,Onshore,Onshore,Onshore",6
5842041f4e65fad6a7708aa0,2024_03_12,30.292626880836885,-81.38579,Jacksonville Beach Pier,2,0.61085,0.9118999999999999,18,16,"CLEAR,NIGHT_CLEAR,NIGHT_CLEAR,NIGHT_CLEAR,NIGHT_CLEAR,NIGHT_CLEAR","Onshore,Onshore,Onshore,Onshore,Onshore,Onshore",6
5842041f4e65fad6a7708aa1,2024_03_12,29.22878213864532,-81.00551,Main Street North,1.5,0.640275,0.8116766666666666,19,19,"CLEAR,NIGHT_CLEAR,NIGHT_CLEAR,NIGHT_CLEAR,NIGHT_CLEAR,NIGHT_CLEAR","Cross-shore,Cross-shore,Onshore,Onshore,Onshore,Onshore",6
5842041f4e65fad6a7708aa2,2024_03_12,29.21860397328164,-81.0019,Daytona Beach,1.5,0.62,0.9266666666666666,19,19,"CLEAR,NIGHT_CLEAR,NIGHT_CLEAR,NIGHT_CLEAR,NIGHT_CLEAR,NIGHT_CLEAR","Cross-shore,Cross-shore,Onshore,Onshore,Onshore,Onshore",6
5842041f4e65fad6a7708aa3,2024_03_12,27.47531255634912,-80.28914,Ft. Pierce Inlet,2,0.8399444444444444,1.1957222222222224,23,21,"MOSTLY_CLOUDY,NIGHT_MOSTLY_CLOUDY,NIGHT_MOSTLY_CLOUDY,NIGHT_OVERCAST,NIGHT_MOSTLY_CLOUDY,NIGHT_MOSTLY_CLOUDY","Onshore,Onshore,Onshore,Onshore,Onshore,Onshore",6
5842041f4e65fad6a7708aa4,2024_03_12,29.29239875585548,-81.0386,Ormond Beach,1.6666666666666667,0.6766666666666666,0.9816666666666667,19,19,"CLEAR,NIGHT_CLEAR,NIGHT_CLEAR,NIGHT_CLEAR,NIGHT_CLEAR,NIGHT_CLEAR","Onshore,Onshore,Onshore,Onshore,Onshore,Onshore",6
5842041f4e65fad6a7708aa5,2024_03_12,29.91629441498523,-81.28801,Vilano,2,0.3783333333333333,0.6833333333333333,18,18,"CLEAR,NIGHT_CLEAR,NIGHT_CLEAR,NIGHT_CLEAR,NIGHT_CLEAR,NIGHT_CLEAR","Onshore,Onshore,Onshore,Onshore,Onshore,Onshore",6
5842041f4e65fad6a7708aa6,2024_03_12,27.876230736320828,-80.4551,Spanish House,1.5,1.1074833333333334,1.3476166666666667,23,21,"CLEAR,NIGHT_CLEAR,NIGHT_MOSTLY_CLOUDY,NIGHT_MOSTLY_CLOUDY,NIGHT_CLEAR,NIGHT_MOSTLY_CLOUDY","Onshore,Onshore,Onshore,Onshore,Onshore,Onshore",6
5842041f4e65fad6a7708aa7,2024_03_12,28.64397251741012,-80.62328519781694,Playalinda,1.5,0.6683333333333333,0.9716666666666667,21,21,"CLEAR,NIGHT_CLEAR,NIGHT_CLEAR,NIGHT_CLEAR,NIGHT_CLEAR,NIGHT_CLEAR","Onshore,Onshore,Onshore,Onshore,Onshore,Onshore",6
5842041f4e65fad6a7708aa8,2024_03_12,28.406142,-80.588858,Jetty Park,1.1666666666666667,0.185,0.49166666666666664,21,21,"CLEAR,NIGHT_CLEAR,NIGHT_CLEAR,NIGHT_MOSTLY_CLOUDY,NIGHT_CLEAR,NIGHT_CLEAR","Cross-shore,Cross-shore,Cross-shore,Cross-shore,Cross-shore,Cross-shore",6
5842041f4e65fad6a7708aa9,2024_03_12,28.49083243010974,-80.58001715986319,Kennedy Space Center,2,0.97,1.1833333333333333,21,21,"CLEAR,NIGHT_MOSTLY_CLEAR,NIGHT_CLEAR,NIGHT_CLEAR,NIGHT_CLEAR,NIGHT_CLEAR","Onshore,Onshore,Onshore,Onshore,Onshore,Onshore",6
5842041f4e65fad6a7708aab,2024_03_12,28.336757013024314,-80.60568,Lori Wilson Park,1.1666666666666667,0.35096666666666665,0.6540166666666667,23,21,"MOSTLY_CLEAR,NIGHT_MOSTLY_CLEAR,NIGHT_MOSTLY_CLEAR,NIGHT_MOSTLY_CLOUDY,NIGHT_CLEAR,NIGHT_CLEAR","Onshore,Onshore,Onshore,Onshore,Onshore,Onshore",6
5842041f4e65fad6a7708aad,2024_03_12,27.76388821683801,-80.3962958234027,Wabasso,1.5,0.6966666666666667,1.0050000000000001,23,23,"MOSTLY_CLOUDY,NIGHT_MOSTLY_CLOUDY,NIGHT_MOSTLY_CLOUDY,NIGHT_MOSTLY_CLOUDY,NIGHT_MOSTLY_CLOUDY,NIGHT_CLEAR","Onshore,Onshore,Onshore,Onshore,Onshore,Onshore",6
5842041f4e65fad6a7708aae,2024_03_12,27.521583322459,-80.30987620353699,P.V. Martin's,1.3333333333333333,0.4669333333333333,0.8717166666666667,23,21,"CLEAR,NIGHT_MOSTLY_CLOUDY,NIGHT_MOSTLY_CLOUDY,NIGHT_MOSTLY_CLOUDY,NIGHT_MOSTLY_CLOUDY,NIGHT_MOSTLY_CLOUDY","Onshore,Onshore,Onshore,Onshore,Onshore,Onshore",6
5842041f4e65fad6a7708aaf,2024_03_12,27.644996047720046,-80.35242676734924,Riomar,1,0.8390166666666666,1.11165,23,21,"MOSTLY_CLOUDY,NIGHT_MOSTLY_CLOUDY,NIGHT_MOSTLY_CLOUDY,NIGHT_CLEAR,NIGHT_CLEAR,NIGHT_CLEAR","Onshore,Onshore,Onshore,Onshore,Onshore,Onshore",6
