_id,date,lat,lon,name,daily_mean_swell_rating,daily_mean_wave_height_min,daily_mean_wave_height_max,daily_mean_water_temperature_max,daily_mean_water_temperature_min,weather_per_timestamp,wind_per_timestamp,n_samples_per_day
5842041f4e65fad6a77087f9,2024_02_09,37.741668,-122.51038,South Ocean Beach,3.2,2.0482,2.5041333333333333,14,14,"NIGHT_CLEAR,NIGHT_MIST,NIGHT_MIST,NIGHT_MIST,NIGHT_MIST","Offshore,Offshore,Offshore,Offshore,Cross-shore",5
5842041f4e65fad6a7708801,2024_02_09,37.49142,-122.50428,Maverick's,NA,1.9565,2.2428666666666666,13,13,"NIGHT_CLEAR,NIGHT_CLEAR,NIGHT_CLEAR,NIGHT_CLEAR,NIGHT_CLEAR","Offshore,Offshore,Offshore,Offshore,Offshore",5
5842041f4e65fad6a7708804,2024_02_09,44.997,-124.018,Roads End,2,1.76,2.092,11,11,"NIGHT_MOSTLY_CLOUDY,NIGHT_CLEAR,NIGHT_OVERCAST,NIGHT_CLEAR,NIGHT_OVERCAST","Onshore,Onshore,Onshore,Onshore,Onshore",5
5842041f4e65fad6a7708805,2024_02_09,36.95188851423011,-122.02522,Steamer Lane,4,1.3494666666666668,1.64912,14,14,"NIGHT_CLEAR,NIGHT_CLEAR,NIGHT_CLEAR,NIGHT_CLEAR,NIGHT_CLEAR","Offshore,Offshore,Offshore,Offshore,Offshore",5
5842041f4e65fad6a7708806,2024_02_09,36.95918781542251,-122.02489,Cowells,1,0.00682666666666667,0.26465333333333335,14,14,"NIGHT_CLEAR,NIGHT_CLEAR,NIGHT_CLEAR,NIGHT_CLEAR,NIGHT_CLEAR","Offshore,Cross-shore,Cross-shore,Cross-shore,Cross-shore",5
5842041f4e65fad6a7708807,2024_02_09,36.95468082526536,-121.97234,Pleasure Point,3.2,1.0589733333333333,1.3663733333333334,14,14,"NIGHT_CLEAR,NIGHT_CLEAR,NIGHT_CLEAR,NIGHT_CLEAR,NIGHT_CLEAR","Offshore,Offshore,Offshore,Offshore,Offshore",5
5842041f4e65fad6a770880a,2024_02_09,35.37815414378748,-120.86589,Morro Bay,3.8,1.5513333333333335,1.9058666666666666,14,14,"NIGHT_MOSTLY_CLEAR,NIGHT_CLEAR,NIGHT_MOSTLY_CLEAR,NIGHT_CLEAR,NIGHT_CLEAR","Offshore,Onshore,Offshore,Onshore,Cross-shore",5
5842041f4e65fad6a770880b,2024_02_09,36.95782765000708,-121.9672887511276,Jack's,3,0.39798666666666666,0.7018133333333333,14,14,"NIGHT_CLEAR,NIGHT_CLEAR,NIGHT_CLEAR,NIGHT_CLEAR,NIGHT_CLEAR","Offshore,Cross-shore,Cross-shore,Cross-shore,Cross-shore",5
5842041f4e65fad6a770880d,2024_02_09,34.29982939936656,-119.3489016603669,Gold Coast Beachbreaks,2.2,0.28600000000000003,0.588,14.4,14.4,"NIGHT_CLEAR,NIGHT_CLEAR,NIGHT_CLEAR,NIGHT_CLEAR,NIGHT_CLEAR","Cross-shore,Cross-shore,Onshore,Cross-shore,Cross-shore",5
5842041f4e65fad6a7708811,2024_02_09,34.245076,-119.26799,Ventura Harbor,3,1.0960750000000001,1.357659,14,14,"NIGHT_CLEAR,NIGHT_CLEAR,NIGHT_CLEAR,NIGHT_CLEAR,NIGHT_CLEAR","Cross-shore,Offshore,Offshore,Offshore,Offshore",5
5842041f4e65fad6a7708813,2024_02_09,34.051,-118.964,County Line,3,0.7251466666666667,1.0309733333333333,15,15,"NIGHT_CLEAR,NIGHT_CLEAR,NIGHT_CLEAR,NIGHT_CLEAR,NIGHT_CLEAR","Offshore,Offshore,Offshore,Offshore,Offshore",5
5842041f4e65fad6a7708814,2024_02_09,34.37256264378892,-119.47797,Rincon,3,0.45,0.754,14.4,14.4,"NIGHT_CLEAR,NIGHT_CLEAR,NIGHT_CLEAR,NIGHT_CLEAR,NIGHT_CLEAR","Cross-shore,Cross-shore,Cross-shore,Cross-shore,Offshore",5
5842041f4e65fad6a7708817,2024_02_09,34.03096101876324,-118.68109,Malibu Third Point,2.4,0.322,0.628,15,15,"NIGHT_CLEAR,NIGHT_CLEAR,NIGHT_MIST,NIGHT_CLEAR,NIGHT_CLEAR","Cross-shore,Cross-shore,Cross-shore,Cross-shore,Cross-shore",5
5842041f4e65fad6a7708819,2024_02_09,33.984079047970035,-118.47381591796875,Venice Beach,2.8,0.85248,1.0948,15,15,"NIGHT_MIST,NIGHT_MOSTLY_CLOUDY,NIGHT_MOSTLY_CLOUDY,NIGHT_MOSTLY_CLOUDY,NIGHT_MOSTLY_CLOUDY","Cross-shore,Offshore,Offshore,Offshore,Offshore",5
5842041f4e65fad6a770881e,2024_02_09,34.037508438646746,-118.58339846155594,Topanga Beach,3,0.4666533333333333,0.7708133333333334,15,15,"NIGHT_CLEAR,NIGHT_CLEAR,NIGHT_CLEAR,NIGHT_MIST,NIGHT_BRIEF_SHOWERS","Offshore,Offshore,Offshore,Offshore,Offshore",5
5842041f4e65fad6a7708820,2024_02_09,33.73954373690184,-118.11414,Seal Beach Jetty,2.4,0.314,0.62,14.4,14.4,"NIGHT_FOG,NIGHT_MOSTLY_CLOUDY,NIGHT_BRIEF_SHOWERS,NIGHT_MOSTLY_CLOUDY,NIGHT_CLEAR","Onshore,Cross-shore,Offshore,Offshore,Offshore",5
5842041f4e65fad6a7708822,2024_02_09,33.72309983348433,-118.08078,Anderson Street,2.2,0.452,0.758,14.4,14.4,"NIGHT_MIST,NIGHT_MOSTLY_CLOUDY,NIGHT_MOSTLY_CLOUDY,NIGHT_CLEAR,NIGHT_BRIEF_SHOWERS","Onshore,Offshore,Offshore,Offshore,Offshore",5
5842041f4e65fad6a7708827,2024_02_09,33.65574085629463,-118.00397,Huntington Beach Pier Northside,2.8,1.0649600000000001,1.3212,14,14,"NIGHT_FOG,NIGHT_CLEAR,NIGHT_MOSTLY_CLOUDY,NIGHT_MOSTLY_CLOUDY,NIGHT_CLEAR","Onshore,Offshore,Offshore,Offshore,Offshore",5
5842041f4e65fad6a7708828,2024_02_09,34.272041739333,-119.2997646331,C St.,3,0.6856533333333333,0.98748,14,14,"NIGHT_CLEAR,NIGHT_CLEAR,NIGHT_CLEAR,NIGHT_CLEAR,NIGHT_CLEAR","Offshore,Offshore,Offshore,Offshore,Offshore",5
5842041f4e65fad6a770882a,2024_02_09,33.61555743705257,-117.93676,Newport Lower Jetties,2.4,0.62522,0.9462,15,15,"NIGHT_FOG,NIGHT_MOSTLY_CLOUDY,NIGHT_MOSTLY_CLOUDY,NIGHT_MOSTLY_CLOUDY,NIGHT_CLEAR","Onshore,Offshore,Offshore,Onshore,Offshore",5
5842041f4e65fad6a770882b,2024_02_09,33.5930302087,-117.88199,The Wedge,2,0.35186,0.782372,14.4,14.4,"NIGHT_FOG,NIGHT_MOSTLY_CLOUDY,NIGHT_MOSTLY_CLOUDY,NIGHT_FOG,NIGHT_HEAVY_SHOWERS","Offshore,Offshore,Cross-shore,Onshore,Offshore",5
5842041f4e65fad6a770882c,2024_02_09,33.60577342582,-117.9315376281,Newport Beach Pier,2,0.67022,0.98208,15,15,"NIGHT_FOG,NIGHT_CLEAR,NIGHT_MOSTLY_CLOUDY,NIGHT_MOSTLY_CLOUDY,NIGHT_CLEAR","Cross-shore,Cross-shore,Cross-shore,Cross-shore,Cross-shore",5
5842041f4e65fad6a770882e,2024_02_09,33.475793399792984,-117.72291,Salt Creek,2.2,0.95496,1.1652,15,15,"NIGHT_MOSTLY_CLOUDY,NIGHT_MOSTLY_CLOUDY,NIGHT_MOSTLY_CLOUDY,NIGHT_MOSTLY_CLOUDY,NIGHT_MOSTLY_CLOUDY","Offshore,Onshore,Onshore,Cross-shore,Onshore",5
5842041f4e65fad6a7708830,2024_02_09,33.41800974113613,-117.61952,T-Street,2.8,0.8272200000000001,1.1261999999999999,16,16,"NIGHT_CLEAR,NIGHT_MOSTLY_CLOUDY,NIGHT_CLEAR,NIGHT_MOSTLY_CLOUDY,NIGHT_MOSTLY_CLOUDY","Offshore,Cross-shore,Cross-shore,Offshore,Offshore",5
5842041f4e65fad6a7708832,2024_02_09,33.202391008646,-117.39475,Oceanside Harbor,2.2,0.76246,1.0737,16,16,"NIGHT_CLEAR,NIGHT_FOG,NIGHT_SHOWERS,NIGHT_MOSTLY_CLEAR,NIGHT_CLEAR","Onshore,Onshore,Onshore,Cross-shore,Onshore",5
5842041f4e65fad6a7708835,2024_02_09,33.19477795952803,-117.38667,Oceanside Pier,2.4,0.89746,1.2082,16,16,"NIGHT_MOSTLY_CLOUDY,NIGHT_CLEAR,NIGHT_MOSTLY_CLOUDY,NIGHT_MOSTLY_CLEAR,NIGHT_CLEAR","Onshore,Onshore,Onshore,Cross-shore,Onshore",5
5842041f4e65fad6a7708837,2024_02_09,33.14948100706,-117.35029,Tamarack,2.2,0.45799999999999996,0.762,15,15,"NIGHT_BRIEF_SHOWERS,NIGHT_CLEAR,NIGHT_MOSTLY_CLOUDY,NIGHT_MOSTLY_CLEAR,NIGHT_MOSTLY_CLEAR","Onshore,Onshore,Onshore,Cross-shore,Cross-shore",5
5842041f4e65fad6a7708839,2024_02_09,32.865777159358856,-117.25614295356122,Scripps,2.2,1.0729600000000001,1.29744,14,14,"NIGHT_MOSTLY_CLOUDY,NIGHT_CLEAR,NIGHT_MOSTLY_CLOUDY,NIGHT_MOSTLY_CLOUDY,NIGHT_MOSTLY_CLOUDY","Onshore,Onshore,Onshore,Onshore,Onshore",5
5842041f4e65fad6a770883a,2024_02_09,32.813094,-117.27381,Birdrock,2.8,1.188,1.444,15,15,"NIGHT_MOSTLY_CLOUDY,NIGHT_MOSTLY_CLOUDY,NIGHT_CLEAR,NIGHT_FOG,NIGHT_MOSTLY_CLOUDY","Onshore,Offshore,Offshore,Offshore,Offshore",5
5842041f4e65fad6a770883b,2024_02_09,32.877231,-117.25303,Blacks,2.4,1.3822,1.70042,14,14,"NIGHT_MOSTLY_CLOUDY,NIGHT_CLEAR,NIGHT_MOSTLY_CLOUDY,NIGHT_MOSTLY_CLOUDY,NIGHT_MOSTLY_CLOUDY","Onshore,Onshore,Onshore,Onshore,Onshore",5
5842041f4e65fad6a770883c,2024_02_09,32.82978974229765,-117.28161740727381,Windansea,2.4,1.31596,1.59906,14,14,"NIGHT_MOSTLY_CLOUDY,NIGHT_MOSTLY_CLOUDY,NIGHT_MOSTLY_CLOUDY,NIGHT_MOSTLY_CLOUDY,NIGHT_MOSTLY_CLOUDY","Onshore,Onshore,Onshore,Onshore,Onshore",5
5842041f4e65fad6a770883d,2024_02_09,32.838278,-117.28396,Horseshoe,2.8,1.334,1.594,15,15,"NIGHT_MOSTLY_CLOUDY,NIGHT_MOSTLY_CLOUDY,NIGHT_MOSTLY_CLOUDY,NIGHT_MOSTLY_CLOUDY,NIGHT_MOSTLY_CLOUDY","Onshore,Offshore,Offshore,Offshore,Offshore",5
5842041f4e65fad6a770883f,2024_02_09,32.75034717673179,-117.25337,Ocean Beach,2,1.4132,1.72642,14,14,"NIGHT_MOSTLY_CLOUDY,NIGHT_MOSTLY_CLOUDY,NIGHT_CLEAR,NIGHT_CLEAR,NIGHT_MOSTLY_CLOUDY","Onshore,Onshore,Onshore,Onshore,Onshore",5
5842041f4e65fad6a7708840,2024_02_09,32.73693,-117.25718,Sunset Cliffs,2.2,1.308,1.562,15,15,"NIGHT_MOSTLY_CLOUDY,NIGHT_FOG,NIGHT_MOSTLY_CLOUDY,NIGHT_CLEAR,NIGHT_MOSTLY_CLOUDY","Onshore,Onshore,Onshore,Onshore,Onshore",5
5842041f4e65fad6a7708841,2024_02_09,32.796582258728826,-117.25779,Pacific Beach,2.8,1.3627,1.66092,14,14,"NIGHT_MOSTLY_CLOUDY,NIGHT_CLEAR,NIGHT_CLEAR,NIGHT_MOSTLY_CLOUDY,NIGHT_CLEAR","Onshore,Offshore,Offshore,Offshore,Offshore",5
5842041f4e65fad6a7708842,2024_02_09,32.776636,-117.25514,Mission Beach,2.8,1.2907,1.57692,14,14,"NIGHT_MOSTLY_CLOUDY,NIGHT_CLEAR,NIGHT_CLEAR,NIGHT_MOSTLY_CLOUDY,NIGHT_CLEAR","Onshore,Offshore,Offshore,Offshore,Offshore",5
5842041f4e65fad6a7708844,2024_02_09,32.577195519016,-117.13475,Imperial Beach Pier,2.4,1.3900000000000001,1.66,15,15,"NIGHT_MOSTLY_CLOUDY,NIGHT_MOSTLY_CLOUDY,NIGHT_CLEAR,NIGHT_OVERCAST,NIGHT_FOG","Onshore,Onshore,Onshore,Onshore,Onshore",5
5842041f4e65fad6a770884a,2024_02_09,42.88678181061,-70.80843,Seabrook,1.966,0.5234555000000001,0.8617138333333333,5,4,"NIGHT_CLEAR,NIGHT_CLEAR,NIGHT_CLEAR,CLEAR,CLEAR","Offshore,Cross-shore,Cross-shore,Cross-shore,Cross-shore",5
5842041f4e65fad6a770884e,2024_02_09,41.434181432898335,-71.45312118111178,Narragansett,2,0.22792,0.53088,7,6,"NIGHT_CLEAR,NIGHT_CLEAR,NIGHT_CLEAR,CLEAR,CLEAR","Onshore,Onshore,Onshore,Onshore,Onshore",5
5842041f4e65fad6a7708850,2024_02_09,40.582703230722,-73.65247,Lincoln Blvd,1.168,0.3146266666666667,0.6174266666666667,7,6,"NIGHT_CLEAR,NIGHT_CLEAR,NIGHT_CLEAR,CLEAR,CLEAR","Onshore,Onshore,Onshore,Onshore,Onshore",5
5842041f4e65fad6a7708852,2024_02_09,40.58342841721757,-73.81182,Rockaways,1.766,0.6097666666666667,1.0551,7,6,"NIGHT_CLEAR,NIGHT_CLEAR,NIGHT_MIST,CLEAR,CLEAR","Onshore,Onshore,Onshore,Onshore,Onshore",5
5842041f4e65fad6a7708853,2024_02_09,40.330474,-73.9734,Monmouth Beach,1.4,0.42592,0.75936,6,5,"NIGHT_CLEAR,NIGHT_CLEAR,NIGHT_CLEAR,CLEAR,CLOUDY","Cross-shore,Cross-shore,Cross-shore,Cross-shore,Cross-shore",5
5842041f4e65fad6a7708856,2024_02_09,40.113,-74.028,Manasquan Inlet,2,0.9090666666666667,1.2317333333333333,6,5,"NIGHT_CLEAR,NIGHT_CLEAR,NIGHT_CLEAR,CLOUDY,CLOUDY","Cross-shore,Cross-shore,Cross-shore,Cross-shore,Cross-shore",5
5842041f4e65fad6a7708857,2024_02_09,39.941519877445664,-74.06829,Casino Pier,1.8,0.9104,1.4106133333333333,6,5,"NIGHT_CLEAR,NIGHT_CLEAR,NIGHT_CLEAR,CLOUDY,MIST","Cross-shore,Cross-shore,Cross-shore,Onshore,Cross-shore",5
5842041f4e65fad6a7708858,2024_02_09,39.28223089949212,-74.55766,North End OC,1.168,0.8496066666666666,1.1865533333333333,6,5,"NIGHT_CLEAR,NIGHT_CLOUDY,NIGHT_MIST,MIST,MIST","Onshore,Onshore,Onshore,Onshore,Onshore",5
5842041f4e65fad6a770885b,2024_02_09,39.65080599934257,-74.17146,Ship Bottom,1.168,0.9082333333333333,1.3838,6,5,"NIGHT_CLEAR,NIGHT_CLEAR,NIGHT_CLOUDY,CLOUDY,MIST","Onshore,Cross-shore,Onshore,Onshore,Onshore",5
5842041f4e65fad6a7708863,2024_02_09,36.034151543144,-75.66791,Third Street,3.4,1.03976,1.40664,8,5,"NIGHT_MIST,NIGHT_MIST,NIGHT_MIST,MIST,CLEAR","Cross-shore,Offshore,Offshore,Offshore,Offshore",5
5842041f4e65fad6a7708867,2024_02_09,35.605833221351425,-75.46303,S-Turns,3.468,1.2150333333333334,1.8257133333333333,10,8,"NIGHT_MIST,NIGHT_MIST,NIGHT_MIST,MIST,MIST","Onshore,Offshore,Offshore,Offshore,Offshore",5
5842041f4e65fad6a770886d,2024_02_09,38.338461,-75.08117,Ocean City Boardwalk,1.168,0.9095666666666666,1.3293733333333333,7,5,"NIGHT_MIST,NIGHT_MIST,NIGHT_MIST,MIST,MIST","Cross-shore,Cross-shore,Cross-shore,Cross-shore,Cross-shore",5
5842041f4e65fad6a770886f,2024_02_09,29.844757212379562,-81.26136,A St.,3,0.862,1.164,13,13,"NIGHT_MIST,NIGHT_MIST,NIGHT_MOSTLY_CLOUDY,NIGHT_MIST,MIST","Onshore,Offshore,Offshore,Cross-shore,Offshore",5
5842041f4e65fad6a7708871,2024_02_09,29.069417851135093,-80.90824,New Smyrna Beach,2,1.45688,2.04468,17,15,"NIGHT_MIST,NIGHT_MIST,NIGHT_DRIZZLE,NIGHT_MIST,BRIEF_SHOWERS","Cross-shore,Cross-shore,Onshore,Onshore,Onshore",5
5842041f4e65fad6a7708872,2024_02_09,28.367707417566,-80.60171,Cocoa Beach Pier,2.798,0.8333666666666667,1.2207666666666668,18,17,"NIGHT_MIST,NIGHT_OVERCAST,NIGHT_OVERCAST,NIGHT_OVERCAST,MOSTLY_CLOUDY","Offshore,Onshore,Onshore,Onshore,Onshore",5
5842041f4e65fad6a7708873,2024_02_09,28.091782738658846,-80.56479,Indialantic,2.8,1.3538400000000002,1.6168,19,18,"NIGHT_CLEAR,NIGHT_CLEAR,NIGHT_MOSTLY_CLOUDY,NIGHT_MOSTLY_CLOUDY,CLEAR","Onshore,Onshore,Onshore,Onshore,Onshore",5
5842041f4e65fad6a7708876,2024_02_09,27.25392904143517,-80.19455,Jensen Beach,2.398,1.28584,1.5488,22,21,"NIGHT_BRIEF_SHOWERS,NIGHT_OVERCAST,NIGHT_CLOUDY,NIGHT_CLEAR,MOSTLY_CLOUDY","Onshore,Onshore,Onshore,Onshore,Onshore",5
5842041f4e65fad6a7708879,2024_02_09,26.76346795333825,-80.0360655784607,Reef Road,1.8,1.09392,1.42736,24,22,"NIGHT_MOSTLY_CLOUDY,NIGHT_OVERCAST,NIGHT_OVERCAST,NIGHT_MOSTLY_CLOUDY,MOSTLY_CLOUDY","Onshore,Onshore,Onshore,Onshore,Onshore",5
5842041f4e65fad6a770887c,2024_02_09,26.336499228484,-80.06956100463,Boca Raton Inlet,0.8,0.47496,0.7779200000000001,24,22,"NIGHT_MOSTLY_CLOUDY,NIGHT_MOSTLY_CLOUDY,NIGHT_MOSTLY_CLOUDY,MOSTLY_CLOUDY,MOSTLY_CLOUDY","Onshore,Onshore,Onshore,Onshore,Onshore",5
5842041f4e65fad6a770887d,2024_02_09,26.31719311695038,-80.07452525176168,Deerfield Beach Pier,0.766,-0.03464383333333335,0.29661966666666667,24,23,"NIGHT_MOSTLY_CLOUDY,NIGHT_BRIEF_SHOWERS,NIGHT_MOSTLY_CLOUDY,MOSTLY_CLOUDY,MOSTLY_CLOUDY","Onshore,Onshore,Onshore,Onshore,Onshore",5
5842041f4e65fad6a7708881,2024_02_09,30.20276320866628,-85.85626528676136,"Spyglass Dr., Panama City",0.8,0,0.28696,16,14,"NIGHT_MIST,NIGHT_MIST,NIGHT_MIST,NIGHT_MIST,MIST","Onshore,Cross-shore,Onshore,Cross-shore,Cross-shore",5
5842041f4e65fad6a7708884,2024_02_09,33.39000832738053,-117.59852,Cottons,3,0.85272,1.1432,16,16,"NIGHT_CLEAR,NIGHT_MOSTLY_CLOUDY,NIGHT_MOSTLY_CLOUDY,NIGHT_MOSTLY_CLOUDY,NIGHT_CLEAR","Offshore,Offshore,Offshore,Offshore,Offshore",5
5842041f4e65fad6a7708885,2024_02_09,33.359416282661,-117.54167901405711,Trails,3,0.646,0.9480000000000001,15,15,"NIGHT_MOSTLY_CLEAR,NIGHT_MOSTLY_CLOUDY,NIGHT_MOSTLY_CLOUDY,NIGHT_MOSTLY_CLEAR,NIGHT_MOSTLY_CLOUDY","Offshore,Offshore,Offshore,Offshore,Offshore",5
5842041f4e65fad6a7708886,2024_02_09,33.38042605929805,-117.58332,Middles,3,0.57348,0.87922,16,16,"NIGHT_CLEAR,NIGHT_MOSTLY_CLOUDY,NIGHT_MOSTLY_CLOUDY,NIGHT_MOSTLY_CLOUDY,NIGHT_CLEAR","Offshore,Offshore,Offshore,Offshore,Offshore",5
5842041f4e65fad6a7708887,2024_02_09,33.38445596302903,-117.59445,Upper Trestles,3,0.71422,1.0111999999999999,16,16,"NIGHT_CLEAR,NIGHT_MOSTLY_CLOUDY,NIGHT_MOSTLY_CLOUDY,NIGHT_MOSTLY_CLOUDY,NIGHT_CLEAR","Offshore,Offshore,Offshore,Offshore,Offshore",5
5842041f4e65fad6a7708889,2024_02_09,28.944414,-95.28883,Surfside,2,0.855836,1.337248,14,14,"NIGHT_MIST,NIGHT_MIST,NIGHT_MIST,NIGHT_MIST,NIGHT_MIST","Onshore,Onshore,Onshore,Onshore,Onshore",5
5842041f4e65fad6a770888a,2024_02_09,33.38143999849023,-117.58843,Lower Trestles,3.8,0.87622,1.17796,16,16,"NIGHT_CLEAR,NIGHT_MOSTLY_CLOUDY,NIGHT_MOSTLY_CLOUDY,NIGHT_MOSTLY_CLOUDY,NIGHT_CLEAR","Offshore,Offshore,Offshore,Offshore,Offshore",5
5842041f4e65fad6a770888b,2024_02_09,33.379622288757,-117.57894,Church,3,0.5859800000000001,0.89772,16,16,"NIGHT_CLEAR,NIGHT_MOSTLY_CLOUDY,NIGHT_MOSTLY_CLOUDY,NIGHT_MOSTLY_CLOUDY,NIGHT_CLEAR","Offshore,Offshore,Offshore,Offshore,Offshore",5
5842041f4e65fad6a770888d,2024_02_09,21.679,-158.042,Sunset Beach,3.8,1.284,1.486,26,25,"NIGHT_MOSTLY_CLEAR,NIGHT_SHOWERS,NIGHT_CLEAR,NIGHT_BRIEF_SHOWERS,NIGHT_BRIEF_SHOWERS","Cross-shore,Offshore,Offshore,Cross-shore,Offshore",5
5842041f4e65fad6a770888e,2024_02_09,21.670550036401,-158.0482,Rocky Point,3,1.316,1.526,26,25,"NIGHT_SHOWERS,NIGHT_BRIEF_SHOWERS,NIGHT_MOSTLY_CLEAR,NIGHT_MOSTLY_CLOUDY,NIGHT_BRIEF_SHOWERS","Cross-shore,Offshore,Offshore,Cross-shore,Cross-shore",5
5842041f4e65fad6a770888f,2024_02_09,21.668,-158.05,Chambers,3,1.208,1.424,24,24,"NIGHT_SHOWERS,NIGHT_BRIEF_SHOWERS,NIGHT_MOSTLY_CLEAR,NIGHT_MOSTLY_CLOUDY,NIGHT_BRIEF_SHOWERS","Cross-shore,Offshore,Offshore,Cross-shore,Cross-shore",5
5842041f4e65fad6a7708890,2024_02_09,21.66522,-158.0526,Pipeline,2,1.264,1.478,26,25,"NIGHT_SHOWERS,NIGHT_BRIEF_SHOWERS,NIGHT_MOSTLY_CLEAR,NIGHT_MOSTLY_CLOUDY,NIGHT_BRIEF_SHOWERS","Cross-shore,Offshore,Offshore,Cross-shore,Cross-shore",5
5842041f4e65fad6a7708891,2024_02_09,21.665,-158.054,Backdoor,3.8,1.264,1.478,26,25,"NIGHT_SHOWERS,NIGHT_BRIEF_SHOWERS,NIGHT_MOSTLY_CLEAR,NIGHT_MOSTLY_CLOUDY,NIGHT_BRIEF_SHOWERS","Cross-shore,Offshore,Offshore,Cross-shore,Cross-shore",5
5842041f4e65fad6a7708892,2024_02_09,21.662,-158.057,Rockpile,3.8,1.326,1.538,24,24,"NIGHT_SHOWERS,NIGHT_BRIEF_SHOWERS,NIGHT_MOSTLY_CLEAR,NIGHT_MOSTLY_CLOUDY,NIGHT_BRIEF_SHOWERS","Cross-shore,Offshore,Offshore,Offshore,Cross-shore",5
5842041f4e65fad6a7708893,2024_02_09,21.65870453806827,-158.06058,Log Cabins,3,1.024,1.232,24,24,"NIGHT_SHOWERS,NIGHT_BRIEF_SHOWERS,NIGHT_MOSTLY_CLEAR,NIGHT_MOSTLY_CLOUDY,NIGHT_BRIEF_SHOWERS","Cross-shore,Offshore,Offshore,Cross-shore,Cross-shore",5
5842041f4e65fad6a7708894,2024_02_09,21.66203493640557,-158.05495,Off-The-Wall,3.8,1.302,1.496,24,24,"NIGHT_SHOWERS,NIGHT_BRIEF_SHOWERS,NIGHT_MOSTLY_CLEAR,NIGHT_MOSTLY_CLOUDY,NIGHT_BRIEF_SHOWERS","Cross-shore,Offshore,Offshore,Offshore,Cross-shore",5
5842041f4e65fad6a7708895,2024_02_09,21.643,-158.067,Waimea Bay,NA,1.252,1.468,26,25,"NIGHT_SHOWERS,NIGHT_BRIEF_SHOWERS,NIGHT_MOSTLY_CLEAR,NIGHT_MOSTLY_CLOUDY,NIGHT_BRIEF_SHOWERS","Offshore,Offshore,Offshore,Cross-shore,Cross-shore",5
5842041f4e65fad6a7708896,2024_02_09,21.622,-158.087,Hultin's,4,1.304,1.542,26,25,"NIGHT_MOSTLY_CLEAR,NIGHT_MOSTLY_CLEAR,NIGHT_MOSTLY_CLEAR,NIGHT_MOSTLY_CLOUDY,NIGHT_MOSTLY_CLOUDY","Offshore,Offshore,Offshore,Offshore,Offshore",5
5842041f4e65fad6a7708897,2024_02_09,21.623,-158.085,Jocko's,3,1.066,1.332,24,24,"NIGHT_MOSTLY_CLEAR,NIGHT_MOSTLY_CLEAR,NIGHT_MOSTLY_CLEAR,NIGHT_MOSTLY_CLOUDY,NIGHT_MOSTLY_CLOUDY","Onshore,Cross-shore,Cross-shore,Cross-shore,Cross-shore",5
5842041f4e65fad6a7708898,2024_02_09,21.62,-158.088,Laniakea,3,1.054,1.308,26,25,"NIGHT_MOSTLY_CLEAR,NIGHT_MOSTLY_CLEAR,NIGHT_MOSTLY_CLEAR,NIGHT_MOSTLY_CLOUDY,NIGHT_MOSTLY_CLOUDY","Cross-shore,Offshore,Offshore,Offshore,Offshore",5
5842041f4e65fad6a7708899,2024_02_09,21.625,-158.083,Chun's,3.6,1.166,1.42,24,24,"NIGHT_MOSTLY_CLEAR,NIGHT_MOSTLY_CLEAR,NIGHT_MOSTLY_CLEAR,NIGHT_MOSTLY_CLOUDY,NIGHT_MOSTLY_CLOUDY","Offshore,Offshore,Offshore,Offshore,Offshore",5
5842041f4e65fad6a770889c,2024_02_09,21.286357895152136,-157.8515,South Shore - Ala Moana Park,2,0.456,0.762,24,24,"NIGHT_CLEAR,NIGHT_MOSTLY_CLOUDY,NIGHT_CLEAR,NIGHT_CLEAR,NIGHT_BRIEF_SHOWERS","Offshore,Offshore,Offshore,Offshore,Offshore",5
5842041f4e65fad6a770889d,2024_02_09,19.606,-155.978,Banyans,3,0.916,1.092,26,25,"NIGHT_CLEAR,NIGHT_MOSTLY_CLEAR,NIGHT_MOSTLY_CLEAR,NIGHT_MOSTLY_CLEAR,NIGHT_CLEAR","Cross-shore,Offshore,Offshore,Offshore,Offshore",5
5842041f4e65fad6a770889e,2024_02_09,20.029,-155.831,Kawaihae,2,0.4444,0.736696,25,25,"NIGHT_MOSTLY_CLEAR,NIGHT_CLEAR,NIGHT_MOSTLY_CLEAR,NIGHT_MOSTLY_CLEAR,NIGHT_MOSTLY_CLEAR","Offshore,Offshore,Offshore,Offshore,Offshore",5
5842041f4e65fad6a770889f,2024_02_09,33.07541383424675,-117.3105,Grandview,3,0.95,1.166,15,15,"NIGHT_MOSTLY_CLOUDY,NIGHT_BRIEF_SHOWERS,NIGHT_CLEAR,NIGHT_CLEAR,NIGHT_CLEAR","Offshore,Offshore,Offshore,Offshore,Offshore",5
5842041f4e65fad6a77088a0,2024_02_09,33.065267421296596,-117.30577,Beacons,3,0.948,1.156,15,15,"NIGHT_MOSTLY_CLOUDY,NIGHT_BRIEF_SHOWERS,NIGHT_CLEAR,NIGHT_CLEAR,NIGHT_CLEAR","Offshore,Offshore,Offshore,Offshore,Offshore",5
5842041f4e65fad6a77088a2,2024_02_09,21.252,-157.805,Diamond Head,3,0.856272,1.175228,26,25,"NIGHT_CLEAR,NIGHT_MOSTLY_CLOUDY,NIGHT_MOSTLY_CLEAR,NIGHT_MOSTLY_CLEAR,NIGHT_MOSTLY_CLOUDY","Cross-shore,Cross-shore,Cross-shore,Cross-shore,Cross-shore",5
5842041f4e65fad6a77088a3,2024_02_09,33.04694255008896,-117.29966,Moonlight State Beach,3,0.878,1.136,15,15,"NIGHT_CLEAR,NIGHT_MOSTLY_CLOUDY,NIGHT_CLEAR,NIGHT_CLEAR,NIGHT_FOG","Offshore,Offshore,Onshore,Offshore,Offshore",5
5842041f4e65fad6a77088a5,2024_02_09,33.08685865930869,-117.31532,Ponto,3,0.96,1.182,15,15,"NIGHT_MOSTLY_CLOUDY,NIGHT_BRIEF_SHOWERS,NIGHT_CLEAR,NIGHT_CLEAR,NIGHT_CLEAR","Offshore,Offshore,Offshore,Offshore,Offshore",5
5842041f4e65fad6a77088a6,2024_02_09,33.130343587871906,-117.33667796442558,Terra Mar Point,2.2,0.65596,0.98994,16,16,"NIGHT_MOSTLY_CLOUDY,NIGHT_MOSTLY_CLOUDY,NIGHT_CLEAR,NIGHT_CLEAR,NIGHT_MIST","Onshore,Onshore,Onshore,Onshore,Offshore",5
5842041f4e65fad6a77088af,2024_02_09,32.95916304183685,-117.26963,Del Mar,3,1.064,1.336,15,15,"NIGHT_MOSTLY_CLOUDY,NIGHT_CLEAR,NIGHT_CLEAR,NIGHT_FOG,NIGHT_MOSTLY_CLOUDY","Offshore,Offshore,Cross-shore,Onshore,Onshore",5
5842041f4e65fad6a77088b0,2024_02_09,32.97527261243354,-117.2721061331305,Del Mar Rivermouth,3,1.164,1.424,15,15,"NIGHT_MOSTLY_CLOUDY,NIGHT_CLEAR,NIGHT_CLEAR,NIGHT_FOG,NIGHT_CLEAR","Offshore,Offshore,Cross-shore,Onshore,Onshore",5
5842041f4e65fad6a77088b1,2024_02_09,33.01352178146273,-117.28219,Cardiff Reef,1.8,1.2722,1.55668,16,16,"NIGHT_CLEAR,NIGHT_MOSTLY_CLOUDY,NIGHT_CLEAR,NIGHT_MOSTLY_CLOUDY,NIGHT_FOG","Onshore,Onshore,Onshore,Onshore,Cross-shore",5
5842041f4e65fad6a77088b3,2024_02_09,33.00211185876003,-117.2811,Seaside Reef,1.8,1.1707,1.46168,16,16,"NIGHT_MOSTLY_CLOUDY,NIGHT_CLEAR,NIGHT_CLEAR,NIGHT_MOSTLY_CLOUDY,NIGHT_CLEAR","Onshore,Onshore,Onshore,Onshore,Onshore",5
5842041f4e65fad6a77088b4,2024_02_09,33.0341859796287,-117.29552,Swami's,3,1.0472,1.26768,16,16,"NIGHT_CLEAR,NIGHT_MOSTLY_CLOUDY,NIGHT_CLEAR,NIGHT_MOSTLY_CLOUDY,NIGHT_FOG","Offshore,Offshore,Cross-shore,Offshore,Offshore",5
5842041f4e65fad6a77088b7,2024_02_09,33.04569760260221,-117.2994,D Street,3,0.962,1.224,15,15,"NIGHT_CLEAR,NIGHT_MOSTLY_CLOUDY,NIGHT_CLEAR,NIGHT_CLEAR,NIGHT_FOG","Offshore,Offshore,Cross-shore,Offshore,Offshore",5
5842041f4e65fad6a77088b8,2024_02_09,33.02090944350196,-117.28535,San Elijo State Beach,2.2,0.8142,1.11218,16,16,"NIGHT_CLEAR,NIGHT_MOSTLY_CLOUDY,NIGHT_CLEAR,NIGHT_MOSTLY_CLOUDY,NIGHT_FOG","Onshore,Onshore,Onshore,Onshore,Cross-shore",5
5842041f4e65fad6a77088c2,2024_02_09,32.80662846492798,-117.2688764333725,PB Point,3,1.188,1.43,15,15,"NIGHT_MOSTLY_CLOUDY,NIGHT_MOSTLY_CLOUDY,NIGHT_CLEAR,NIGHT_FOG,NIGHT_MOSTLY_CLOUDY","Onshore,Cross-shore,Offshore,Offshore,Offshore",5
5842041f4e65fad6a77088c4,2024_02_09,32.8060476681448,-117.26479,Old Man's at Tourmaline,2.8,0.858,1.11,15,15,"NIGHT_MOSTLY_CLOUDY,NIGHT_MOSTLY_CLOUDY,NIGHT_CLEAR,NIGHT_FOG,NIGHT_MOSTLY_CLOUDY","Onshore,Cross-shore,Offshore,Cross-shore,Offshore",5
5842041f4e65fad6a77088cb,2024_02_09,32.557056711256,-117.1327445020322,Tijuana Slough,2.6,0.852,1.082,15,15,"NIGHT_MOSTLY_CLOUDY,NIGHT_MOSTLY_CLOUDY,NIGHT_CLEAR,NIGHT_OVERCAST,NIGHT_FOG","Onshore,Onshore,Onshore,Onshore,Onshore",5
5842041f4e65fad6a77088cc,2024_02_09,32.863,-117.257,La Jolla Shores,2,1.018,1.24,15,15,"NIGHT_MOSTLY_CLOUDY,NIGHT_CLEAR,NIGHT_MOSTLY_CLOUDY,NIGHT_MOSTLY_CLOUDY,NIGHT_MOSTLY_CLOUDY","Onshore,Onshore,Onshore,Onshore,Onshore",5
5842041f4e65fad6a77088ce,2024_02_09,32.67443657790586,-117.17421316238693,Coronado Beach,2,0.508,0.812,15,15,"NIGHT_OVERCAST,NIGHT_CLEAR,NIGHT_MOSTLY_CLOUDY,NIGHT_BRIEF_SHOWERS,NIGHT_MOSTLY_CLOUDY","Cross-shore,Cross-shore,Cross-shore,Cross-shore,Onshore",5
5842041f4e65fad6a77088cf,2024_02_09,33.40484417640326,-117.60749,San Clemente State Beach,2.6,0.74,1.044,15,15,"NIGHT_CLEAR,NIGHT_MOSTLY_CLOUDY,NIGHT_BRIEF_SHOWERS,NIGHT_MOSTLY_CLOUDY,NIGHT_MOSTLY_CLOUDY","Offshore,Onshore,Onshore,Offshore,Offshore",5
5842041f4e65fad6a77088d5,2024_02_09,33.4663042002114,-117.7168352817103,Strands,2.4,0.94396,1.1572,15,15,"NIGHT_MOSTLY_CLOUDY,NIGHT_MOSTLY_CLOUDY,NIGHT_MOSTLY_CLOUDY,NIGHT_MOSTLY_CLOUDY,NIGHT_MOSTLY_CLOUDY","Offshore,Onshore,Cross-shore,Cross-shore,Onshore",5
5842041f4e65fad6a77088d7,2024_02_09,33.4609858001748,-117.68535,Doheny State Beach,2,0.047999999999999994,0.35424,16,16,"NIGHT_MIST,NIGHT_MOSTLY_CLOUDY,NIGHT_MOSTLY_CLOUDY,NIGHT_MOSTLY_CLOUDY,NIGHT_MOSTLY_CLOUDY","Offshore,Offshore,Offshore,Offshore,Cross-shore",5
5842041f4e65fad6a77088dc,2024_02_09,33.50894790083017,-117.75243,Aliso Creek,2,0.56,0.866,14.4,14.4,"NIGHT_CLEAR,NIGHT_MOSTLY_CLOUDY,NIGHT_CLEAR,NIGHT_MOSTLY_CLOUDY,NIGHT_BRIEF_SHOWERS","Offshore,Onshore,Cross-shore,Cross-shore,Onshore",5
5842041f4e65fad6a77088dd,2024_02_09,33.5326591767067,-117.77764,Brooks Street,2.4,0.428,0.73,14.4,14.4,"NIGHT_CLEAR,NIGHT_MOSTLY_CLOUDY,NIGHT_MOSTLY_CLOUDY,NIGHT_MOSTLY_CLOUDY,NIGHT_FOG","Cross-shore,Cross-shore,Cross-shore,Cross-shore,Cross-shore",5
5842041f4e65fad6a77088de,2024_02_09,33.53561225884637,-117.7799,Thalia Street,2,0.47,0.774,14.4,14.4,"NIGHT_CLEAR,NIGHT_MOSTLY_CLOUDY,NIGHT_MOSTLY_CLOUDY,NIGHT_MOSTLY_CLOUDY,NIGHT_FOG","Cross-shore,Cross-shore,Cross-shore,Cross-shore,Cross-shore",5
5842041f4e65fad6a77088e3,2024_02_09,33.54268310353641,-117.7916,Rockpile,2,0.442,0.748,14.4,14.4,"NIGHT_CLEAR,NIGHT_MOSTLY_CLOUDY,NIGHT_MOSTLY_CLOUDY,NIGHT_MOSTLY_CLOUDY,NIGHT_FOG","Cross-shore,Cross-shore,Cross-shore,Cross-shore,Cross-shore",5
5842041f4e65fad6a77088e4,2024_02_09,33.7368459504689,-118.10342,"Seal Beach Pier, Southside",2,0.122,0.424,14.4,14.4,"NIGHT_FOG,NIGHT_MOSTLY_CLOUDY,NIGHT_MOSTLY_CLOUDY,NIGHT_CLEAR,NIGHT_CLEAR","Onshore,Offshore,Offshore,Offshore,Offshore",5
5842041f4e65fad6a77088e5,2024_02_09,33.73933701820233,-118.117,Ray Bay,2,0.08800000000000001,0.392,14.4,14.4,"NIGHT_FOG,NIGHT_MOSTLY_CLOUDY,NIGHT_BRIEF_SHOWERS,NIGHT_MOSTLY_CLOUDY,NIGHT_CLEAR","Onshore,Cross-shore,Offshore,Offshore,Offshore",5
5842041f4e65fad6a77088e7,2024_02_09,33.728733,-118.08982,Surfside,2.8,0.338,0.646,14.4,14.4,"NIGHT_MIST,NIGHT_MOSTLY_CLOUDY,NIGHT_MOSTLY_CLOUDY,NIGHT_CLEAR,NIGHT_BRIEF_SHOWERS","Onshore,Offshore,Offshore,Offshore,Offshore",5
5842041f4e65fad6a77088e8,2024_02_09,33.68760321488161,-118.04236,Bolsa Chica State Beach,2.2,0.90072,1.1297,14,14,"NIGHT_FOG,NIGHT_CLEAR,NIGHT_MOSTLY_CLOUDY,NIGHT_MOSTLY_CLOUDY,NIGHT_SHOWERS","Offshore,Onshore,Onshore,Onshore,Onshore",5
5842041f4e65fad6a77088ea,2024_02_09,33.66704400178788,-118.0192,North HB Streets,2.2,0.89246,1.1242,14,14,"NIGHT_CLEAR,NIGHT_CLEAR,NIGHT_CLEAR,NIGHT_FOG,NIGHT_SHOWERS","Offshore,Cross-shore,Cross-shore,Onshore,Onshore",5
5842041f4e65fad6a77088ed,2024_02_09,33.65475101379567,-118.00291,Huntington Beach Pier Southside,2.8,1.00446,1.2026999999999999,14,14,"NIGHT_FOG,NIGHT_CLEAR,NIGHT_MOSTLY_CLOUDY,NIGHT_MOSTLY_CLOUDY,NIGHT_CLEAR","Onshore,Offshore,Offshore,Offshore,Offshore",5
5842041f4e65fad6a77088ee,2024_02_09,33.62778647706099,-117.95939,River Jetties,2.6,0.88622,1.16958,15,15,"NIGHT_FOG,NIGHT_MOSTLY_CLOUDY,NIGHT_MOSTLY_CLOUDY,NIGHT_MOSTLY_CLOUDY,NIGHT_CLEAR","Onshore,Offshore,Cross-shore,Offshore,Cross-shore",5
5842041f4e65fad6a77088f2,2024_02_09,33.605165797643664,-117.92500376701355,Newport Point,2.2,0.414,0.724,14.4,14.4,"NIGHT_FOG,NIGHT_CLEAR,NIGHT_MOSTLY_CLOUDY,NIGHT_MOSTLY_CLOUDY,NIGHT_CLEAR","Cross-shore,Cross-shore,Cross-shore,Cross-shore,Cross-shore",5
5842041f4e65fad6a77088f3,2024_02_09,33.58982984726977,-117.87713,Corona del Mar,1,0.144886,0.226382,14.4,14.4,"NIGHT_FOG,NIGHT_CLEAR,NIGHT_MOSTLY_CLOUDY,NIGHT_BRIEF_SHOWERS,NIGHT_BRIEF_SHOWERS","Offshore,Cross-shore,Onshore,Onshore,Offshore",5
5842041f4e65fad6a77088f7,2024_02_09,34.00750300824362,-118.4971783496269,Santa Monica Pier,2.6,0.472,0.776,14.4,14.4,"NIGHT_MIST,NIGHT_CLEAR,NIGHT_MIST,NIGHT_CLEAR,NIGHT_MOSTLY_CLOUDY","Offshore,Offshore,Offshore,Offshore,Offshore",5
5842041f4e65fad6a77088ff,2024_02_09,33.94070283102945,-118.44321,Dockweiler Beach,2.4,0.9926296666666666,1.1938846666666667,15,15,"NIGHT_MIST,NIGHT_MOSTLY_CLOUDY,NIGHT_MOSTLY_CLOUDY,NIGHT_MOSTLY_CLOUDY,NIGHT_CLEAR","Offshore,Onshore,Onshore,Onshore,Cross-shore",5
5842041f4e65fad6a7708900,2024_02_09,33.9231846937237,-118.4341465777908,Shitpipe,2.2,0.76964,1.07888,15,15,"NIGHT_CLEAR,NIGHT_MOSTLY_CLOUDY,NIGHT_CLOUDY,NIGHT_MOSTLY_CLOUDY,NIGHT_MOSTLY_CLOUDY","Offshore,Onshore,Onshore,Onshore,Onshore",5
5842041f4e65fad6a7708902,2024_02_09,33.9108528052242,-118.4279133138721,Hammerland,2.2,0.74564,1.06304,15,15,"NIGHT_CLEAR,NIGHT_MOSTLY_CLOUDY,NIGHT_CLOUDY,NIGHT_MOSTLY_CLOUDY,NIGHT_MOSTLY_CLOUDY","Offshore,Onshore,Onshore,Onshore,Onshore",5
5842041f4e65fad6a7708904,2024_02_09,33.87201368173932,-118.4075151286262,Hermosa Beach,2.2,0.76248,1.0768,15,15,"NIGHT_MOSTLY_CLEAR,NIGHT_CLOUDY,NIGHT_CLOUDY,NIGHT_CLOUDY,NIGHT_MOSTLY_CLOUDY","Cross-shore,Onshore,Onshore,Onshore,Onshore",5
5842041f4e65fad6a7708906,2024_02_09,33.90129336911256,-118.42184,El Porto,2.2,1.2429733333333333,1.5037066666666667,15,15,"NIGHT_MOSTLY_CLEAR,NIGHT_CLOUDY,NIGHT_FOG,NIGHT_MOSTLY_CLOUDY,NIGHT_CLEAR","Offshore,Onshore,Onshore,Onshore,Onshore",5
5842041f4e65fad6a7708907,2024_02_09,33.87963506431794,-118.41102,Manhattan Beach Pier,2.2,1.1283066666666666,1.3948,15,15,"NIGHT_MOSTLY_CLEAR,NIGHT_CLOUDY,NIGHT_FOG,NIGHT_MOSTLY_CLOUDY,NIGHT_CLEAR","Offshore,Onshore,Onshore,Onshore,Onshore",5
5842041f4e65fad6a7708914,2024_02_09,34.038053387863464,-118.5532,Sunset Point,2,0.294,0.594,15,15,"NIGHT_MOSTLY_CLEAR,NIGHT_CLEAR,NIGHT_CLEAR,NIGHT_CLEAR,NIGHT_CLEAR","Offshore,Offshore,Offshore,Offshore,Offshore",5
5842041f4e65fad6a7708920,2024_02_09,33.80930828074364,-118.3933198342649,Haggerty's,1.2,0.2532,0.4356,14.4,14.4,"NIGHT_CLEAR,NIGHT_MOSTLY_CLOUDY,NIGHT_DRIZZLE,NIGHT_MOSTLY_CLOUDY,NIGHT_MOSTLY_CLOUDY","Onshore,Onshore,Onshore,Onshore,Onshore",5
5842041f4e65fad6a7708921,2024_02_09,33.85044519861206,-118.40048,Redondo Breakwater,2.4,1.034,1.232,14.4,14.4,"NIGHT_MOSTLY_CLEAR,NIGHT_CLOUDY,NIGHT_CLOUDY,NIGHT_CLOUDY,NIGHT_MOSTLY_CLOUDY","Cross-shore,Onshore,Onshore,Onshore,Onshore",5
5842041f4e65fad6a7708927,2024_02_09,33.70877301002487,-118.2840112858389,Cabrillo Beach,1.6,0.14400000000000002,0.448,14.4,14.4,"NIGHT_MOSTLY_CLOUDY,NIGHT_CLEAR,NIGHT_MOSTLY_CLOUDY,NIGHT_MOSTLY_CLOUDY,NIGHT_MOSTLY_CLOUDY","Cross-shore,Offshore,Offshore,Offshore,Offshore",5
5842041f4e65fad6a770892c,2024_02_09,33.77209986806257,-118.4268428476672,Lunada Bay,1.2,0.982,1.16,14.4,14.4,"NIGHT_MOSTLY_CLOUDY,NIGHT_MOSTLY_CLOUDY,NIGHT_CLOUDY,NIGHT_CLEAR,NIGHT_MOSTLY_CLOUDY","Onshore,Onshore,Onshore,Onshore,Onshore",5
5842041f4e65fad6a770892d,2024_02_09,33.79294656286144,-118.4070316699825,PV Cove,2,0.849136,1.1002779999999999,14.4,14.4,"NIGHT_CLEAR,NIGHT_MOSTLY_CLOUDY,NIGHT_DRIZZLE,NIGHT_MOSTLY_CLOUDY,NIGHT_MOSTLY_CLOUDY","Onshore,Onshore,Onshore,Onshore,Onshore",5
5842041f4e65fad6a7708930,2024_02_09,34.03944902292561,-118.57539,Chart House,2,0.196,0.5,15,15,"NIGHT_CLEAR,NIGHT_MOSTLY_CLEAR,NIGHT_FOG,NIGHT_FOG,NIGHT_FOG","Offshore,Offshore,Offshore,Offshore,Offshore",5
5842041f4e65fad6a7708936,2024_02_09,34.0016731994772,-118.80456,Point Dume,1.6,0.14049333333333333,0.44232,15,15,"NIGHT_CLEAR,NIGHT_CLEAR,NIGHT_CLEAR,NIGHT_CLEAR,NIGHT_CLEAR","Cross-shore,Offshore,Offshore,Offshore,Cross-shore",5
5842041f4e65fad6a7708937,2024_02_09,34.02587527588963,-118.7554939066114,Latigo Point,2,0.092,0.398,15,15,"NIGHT_CLEAR,NIGHT_CLEAR,NIGHT_CLEAR,NIGHT_CLEAR,NIGHT_CLEAR","Cross-shore,Offshore,Offshore,Cross-shore,Cross-shore",5
5842041f4e65fad6a770893f,2024_02_09,34.043762,-118.93294,Leo Carrillo,2,0.43781333333333333,0.74164,15,15,"NIGHT_CLEAR,NIGHT_CLEAR,NIGHT_CLEAR,NIGHT_CLEAR,NIGHT_CLEAR","Offshore,Offshore,Offshore,Offshore,Offshore",5
5842041f4e65fad6a7708941,2024_02_09,36.69388179265737,-121.81289,Marina State Beach,3.6,1.882,2.214,13,13,"NIGHT_FOG,NIGHT_CLEAR,NIGHT_MIST,NIGHT_MIST,NIGHT_MIST","Offshore,Offshore,Offshore,Offshore,Offshore",5
5842041f4e65fad6a7708944,2024_02_09,34.34145077331085,-119.416999352654,Stanley's,2.8,0.352,0.656,14.4,14.4,"NIGHT_CLEAR,NIGHT_CLEAR,NIGHT_CLEAR,NIGHT_CLEAR,NIGHT_CLEAR","Offshore,Offshore,Offshore,Offshore,Offshore",5
5842041f4e65fad6a7708945,2024_02_09,34.35113017313915,-119.426921498899,Oil Piers,2.2,0.276,0.584,14.4,14.4,"NIGHT_CLEAR,NIGHT_CLEAR,NIGHT_CLEAR,NIGHT_CLEAR,NIGHT_CLEAR","Offshore,Offshore,Offshore,Offshore,Offshore",5
5842041f4e65fad6a770894c,2024_02_09,34.17876333306018,-119.2399483564372,Oxnard,3,0.6819999999999999,0.986,15,15,"NIGHT_MIST,NIGHT_MIST,NIGHT_MIST,NIGHT_MIST,NIGHT_MIST","Offshore,Offshore,Offshore,Offshore,Offshore",5
5842041f4e65fad6a7708957,2024_02_09,34.31720331100517,-119.3882324751725,Pitas Point,2.8,0.352,0.654,14.4,14.4,"NIGHT_CLEAR,NIGHT_CLEAR,NIGHT_CLEAR,NIGHT_CLEAR,NIGHT_CLEAR","Offshore,Offshore,Cross-shore,Offshore,Offshore",5
5842041f4e65fad6a7708959,2024_02_09,34.27851754384724,-119.316202617226,Emma Wood,2.6,0.33,0.636,14.4,14.4,"NIGHT_CLEAR,NIGHT_CLEAR,NIGHT_CLEAR,NIGHT_CLEAR,NIGHT_CLEAR","Offshore,Offshore,Offshore,Offshore,Offshore",5
5842041f4e65fad6a770895a,2024_02_09,34.35513640390276,-119.4400589884255,Mussel Shoals (aka Little Rincon),3,0.39,0.6960000000000001,14.4,14.4,"NIGHT_CLEAR,NIGHT_CLEAR,NIGHT_CLEAR,NIGHT_CLEAR,NIGHT_CLEAR","Cross-shore,Cross-shore,Cross-shore,Offshore,Offshore",5
5842041f4e65fad6a770895e,2024_02_09,34.28991757054902,-119.3366646794652,Summer Beach,2,0.204,0.508,14.4,14.4,"NIGHT_CLEAR,NIGHT_CLEAR,NIGHT_CLEAR,NIGHT_CLEAR,NIGHT_CLEAR","Offshore,Offshore,Offshore,Offshore,Offshore",5
5842041f4e65fad6a770895f,2024_02_09,34.30897456105926,-119.3582501170116,Solimar,2.2,0.23600000000000002,0.544,14.4,14.4,"NIGHT_CLEAR,NIGHT_CLEAR,NIGHT_CLEAR,NIGHT_CLEAR,NIGHT_CLEAR","Offshore,Offshore,Cross-shore,Offshore,Offshore",5
5842041f4e65fad6a7708960,2024_02_09,34.39836265281686,-119.70213,Leadbetter Point,1.2,0.004,0.294,14.4,14.4,"NIGHT_CLEAR,NIGHT_CLEAR,NIGHT_CLEAR,NIGHT_CLEAR,NIGHT_CLEAR","Offshore,Offshore,Offshore,Offshore,Offshore",5
5842041f4e65fad6a7708961,2024_02_09,34.46052293893899,-120.07328,Refugio,1.2,0.034,0.34,14,14,"NIGHT_CLEAR,NIGHT_CLEAR,NIGHT_CLEAR,NIGHT_CLEAR,NIGHT_CLEAR","Offshore,Offshore,Offshore,Offshore,Offshore",5
5842041f4e65fad6a7708962,2024_02_09,34.40754276777778,-119.87639,Devereux,3,0.346,0.65,14.4,14.4,"NIGHT_CLEAR,NIGHT_CLEAR,NIGHT_CLEAR,NIGHT_CLEAR,NIGHT_CLEAR","Offshore,Offshore,Offshore,Offshore,Offshore",5
5842041f4e65fad6a7708963,2024_02_09,34.27479983305182,-119.3133222656776,Ventura Overhead,2.8,0.348,0.652,14.4,14.4,"NIGHT_CLEAR,NIGHT_CLEAR,NIGHT_CLEAR,NIGHT_CLEAR,NIGHT_CLEAR","Offshore,Offshore,Offshore,Offshore,Offshore",5
5842041f4e65fad6a7708964,2024_02_09,34.41023236011655,-119.88261,Sands,2.2,0.424,0.728,14.4,14.4,"NIGHT_CLEAR,NIGHT_CLEAR,NIGHT_CLEAR,NIGHT_CLEAR,NIGHT_CLEAR","Cross-shore,Offshore,Offshore,Offshore,Offshore",5
5842041f4e65fad6a7708966,2024_02_09,34.40450193869233,-119.68752,Sandspit,1,0,0.196,14.4,14.4,"NIGHT_CLEAR,NIGHT_CLEAR,NIGHT_CLEAR,NIGHT_CLEAR,NIGHT_CLEAR","Offshore,Offshore,Offshore,Offshore,Offshore",5
5842041f4e65fad6a7708967,2024_02_09,34.41549098334453,-119.6375149840203,Hammond's,1.2,0.006,0.28600000000000003,14.4,14.4,"NIGHT_CLEAR,NIGHT_CLEAR,NIGHT_CLEAR,NIGHT_CLEAR,NIGHT_CLEAR","Offshore,Offshore,Offshore,Offshore,Offshore",5
5842041f4e65fad6a7708968,2024_02_09,34.45759322742309,-120.0220251867315,El Capitan,2,0.134,0.444,14,14,"NIGHT_CLEAR,NIGHT_CLEAR,NIGHT_CLEAR,NIGHT_CLEAR,NIGHT_CLEAR","Offshore,Offshore,Offshore,Offshore,Offshore",5
5842041f4e65fad6a770896c,2024_02_09,34.405117655616,-119.84317,Campus Point,2,0.108,0.416,14.4,14.4,"NIGHT_CLEAR,NIGHT_CLEAR,NIGHT_CLEAR,NIGHT_CLEAR,NIGHT_CLEAR","Offshore,Offshore,Offshore,Offshore,Offshore",5
5842041f4e65fad6a770896e,2024_02_09,34.38935162233354,-119.51955,Carpinteria State Beach,2,0.214,0.52,14.4,14.4,"NIGHT_CLEAR,NIGHT_CLEAR,NIGHT_CLEAR,NIGHT_CLEAR,NIGHT_CLEAR","Offshore,Offshore,Offshore,Offshore,Offshore",5
5842041f4e65fad6a770896f,2024_02_09,37.48296565175612,-122.4549300127824,Half Moon Bay,3.8,1.064,1.338,13,13,"NIGHT_CLEAR,NIGHT_CLEAR,NIGHT_CLEAR,NIGHT_CLEAR,NIGHT_CLEAR","Offshore,Offshore,Offshore,Offshore,Offshore",5
5842041f4e65fad6a7708970,2024_02_09,37.499,-122.471,Princeton Jetty,4,1.294,1.53,13,13,"NIGHT_CLEAR,NIGHT_CLEAR,NIGHT_CLEAR,NIGHT_CLEAR,NIGHT_CLEAR","Offshore,Offshore,Offshore,Offshore,Offshore",5
5842041f4e65fad6a7708972,2024_02_09,37.35699547365155,-122.4069534707252,Tunitas Creek,3.8,2.292,2.7359999999999998,13,13,"NIGHT_CLEAR,NIGHT_CLEAR,NIGHT_CLEAR,NIGHT_CLEAR,NIGHT_CLEAR","Offshore,Offshore,Offshore,Offshore,Offshore",5
5842041f4e65fad6a7708974,2024_02_09,37.54735589428842,-122.5161090212687,Montara,3.8,1.726,2.06,13,13,"NIGHT_CLEAR,NIGHT_CLEAR,NIGHT_CLEAR,NIGHT_CLEAR,NIGHT_CLEAR","Offshore,Offshore,Offshore,Offshore,Cross-shore",5
5842041f4e65fad6a7708975,2024_02_09,34.3869373724559,-119.5142334209018,Tarpits,2,0.202,0.506,14.4,14.4,"NIGHT_CLEAR,NIGHT_CLEAR,NIGHT_CLEAR,NIGHT_CLEAR,NIGHT_CLEAR","Offshore,Offshore,Offshore,Offshore,Offshore",5
5842041f4e65fad6a7708976,2024_02_09,37.59881852720143,-122.50463,Pacifica / Linda Mar,3,0.5952,0.9194666666666667,14,14,"NIGHT_CLEAR,NIGHT_CLEAR,NIGHT_CLEAR,NIGHT_CLEAR,NIGHT_CLEAR","Offshore,Offshore,Offshore,Offshore,Offshore",5
5842041f4e65fad6a7708978,2024_02_09,37.59883098461164,-122.5143843582282,Pedro Point,3.2,1.6019999999999999,1.912,13.6,13.6,"NIGHT_CLEAR,NIGHT_CLEAR,NIGHT_CLEAR,NIGHT_CLEAR,NIGHT_CLEAR","Offshore,Offshore,Offshore,Offshore,Cross-shore",5
5842041f4e65fad6a7708979,2024_02_09,37.61081996647663,-122.4973287570634,Rockaway,3.8,1.674,2.002,13,13,"NIGHT_CLEAR,NIGHT_CLEAR,NIGHT_CLEAR,NIGHT_CLEAR,NIGHT_CLEAR","Offshore,Offshore,Offshore,Offshore,Offshore",5
5842041f4e65fad6a770897a,2024_02_09,37.809987384424446,-122.4751353263855,Fort Point,3.2,1.044,1.266,12.6,12.6,"NIGHT_CLEAR,NIGHT_CLEAR,NIGHT_CLEAR,NIGHT_CLEAR,NIGHT_MIST","Cross-shore,Offshore,Offshore,Offshore,Offshore",5
5842041f4e65fad6a770897c,2024_02_09,37.63422542967464,-122.4951,Sharp Park,3,1.726,2.064,13.6,13.6,"NIGHT_MIST,NIGHT_CLEAR,NIGHT_CLEAR,NIGHT_CLEAR,NIGHT_CLEAR","Offshore,Offshore,Offshore,Offshore,Offshore",5
5842041f4e65fad6a770897d,2024_02_09,37.27313605072472,-122.4127387912554,Pescadero,3.6,2.074,2.478,13,13,"NIGHT_CLEAR,NIGHT_CLEAR,NIGHT_CLEAR,NIGHT_CLEAR,NIGHT_CLEAR","Offshore,Offshore,Offshore,Offshore,Offshore",5
5842041f4e65fad6a770897e,2024_02_09,37.18140279972666,-122.3926685899327,Pigeon Point,4,2.2640000000000002,2.708,13,13,"NIGHT_CLEAR,NIGHT_CLEAR,NIGHT_CLEAR,NIGHT_CLEAR,NIGHT_CLEAR","Offshore,Offshore,Offshore,Offshore,Offshore",5
5842041f4e65fad6a770897f,2024_02_09,37.11578956919415,-122.314699271291,Ano Nuevo,4,1.432,1.72,13,13,"NIGHT_CLEAR,NIGHT_CLEAR,NIGHT_CLEAR,NIGHT_CLEAR,NIGHT_CLEAR","Offshore,Cross-shore,Cross-shore,Cross-shore,Cross-shore",5
5842041f4e65fad6a7708980,2024_02_09,37.09520872681598,-122.2805474707768,Waddell Creek,3.8,1.808,2.164,13,13,"NIGHT_CLEAR,NIGHT_CLEAR,NIGHT_CLEAR,NIGHT_CLEAR,NIGHT_CLEAR","Offshore,Offshore,Offshore,Offshore,Offshore",5
5842041f4e65fad6a7708981,2024_02_09,36.96512852130351,-122.1252825495626,Four Mile,4,1.77,2.116,13,13,"NIGHT_CLEAR,NIGHT_CLEAR,NIGHT_CLEAR,NIGHT_CLEAR,NIGHT_CLEAR","Offshore,Offshore,Offshore,Offshore,Offshore",5
5842041f4e65fad6a7708982,2024_02_09,37.04122807048655,-122.2333684729756,Scott Creek,3.8,1.67,1.994,13,13,"NIGHT_CLEAR,NIGHT_CLEAR,NIGHT_CLEAR,NIGHT_CLEAR,NIGHT_CLEAR","Offshore,Offshore,Offshore,Offshore,Cross-shore",5
5842041f4e65fad6a7708983,2024_02_09,37.02350229387179,-122.21908,Davenport,4,1.86,2.222,13,13,"NIGHT_CLEAR,NIGHT_CLEAR,NIGHT_CLEAR,NIGHT_CLEAR,NIGHT_CLEAR","Offshore,Offshore,Offshore,Offshore,Cross-shore",5
5842041f4e65fad6a7708986,2024_02_09,36.94905295955728,-122.0611823912244,Natural Bridges,4,1.286,1.536,13,13,"NIGHT_CLEAR,NIGHT_CLEAR,NIGHT_CLEAR,NIGHT_CLEAR,NIGHT_CLEAR","Offshore,Offshore,Offshore,Offshore,Offshore",5
5842041f4e65fad6a7708987,2024_02_09,36.95154854910425,-122.0420693940968,Mitchell's Cove,3,0.924,1.106,13,13,"NIGHT_CLEAR,NIGHT_CLEAR,NIGHT_CLEAR,NIGHT_CLEAR,NIGHT_CLEAR","Offshore,Offshore,Offshore,Offshore,Offshore",5
5842041f4e65fad6a770898a,2024_02_09,36.9572312370203,-121.98177,26th Ave,3.8,1.292,1.542,13,13,"NIGHT_MIST,NIGHT_CLEAR,NIGHT_CLEAR,NIGHT_CLEAR,NIGHT_CLEAR","Offshore,Offshore,Offshore,Offshore,Offshore",5
5842041f4e65fad6a770898e,2024_02_09,36.91899972819882,-121.85536,Manresa,3.8,1.462,1.748,13,13,"NIGHT_CLEAR,NIGHT_CLEAR,NIGHT_MIST,NIGHT_MIST,NIGHT_MIST","Offshore,Offshore,Offshore,Offshore,Offshore",5
5842041f4e65fad6a7708990,2024_02_09,34.45747731928454,-120.34242,The Ranch,2.2,0.366,0.676,14,14,"NIGHT_CLEAR,NIGHT_CLEAR,NIGHT_CLEAR,NIGHT_CLEAR,NIGHT_CLEAR","Offshore,Offshore,Offshore,Offshore,Offshore",5
5842041f4e65fad6a7708991,2024_02_09,34.50875036590315,-120.50348,Jalama,3,1.054,1.346,14,14,"NIGHT_CLEAR,NIGHT_CLEAR,NIGHT_BRIEF_SHOWERS,NIGHT_CLEAR,NIGHT_MOSTLY_CLEAR","Cross-shore,Cross-shore,Cross-shore,Cross-shore,Cross-shore",5
5842041f4e65fad6a7708996,2024_02_09,34.68700870220497,-120.6111611019887,Surf Beach,2.2,2.786,3.33,14,14,"NIGHT_CLEAR,NIGHT_MOSTLY_CLOUDY,NIGHT_MOSTLY_CLOUDY,NIGHT_CLEAR,NIGHT_FOG","Onshore,Onshore,Onshore,Cross-shore,Cross-shore",5
5842041f4e65fad6a770899c,2024_02_09,35.5730538161116,-121.1143362345574,Moonstone,3.8,1.942,2.3200000000000003,13.6,13.6,"NIGHT_CLEAR,NIGHT_CLEAR,NIGHT_CLEAR,NIGHT_CLEAR,NIGHT_CLEAR","Offshore,Offshore,Offshore,Offshore,Offshore",5
5842041f4e65fad6a770899d,2024_02_09,35.61533716776573,-121.1502053073914,Pico Creek,3.6,1.41,1.692,13.6,13.6,"NIGHT_CLEAR,NIGHT_CLEAR,NIGHT_CLEAR,NIGHT_CLEAR,NIGHT_CLEAR","Offshore,Offshore,Offshore,Offshore,Offshore",5
5842041f4e65fad6a770899e,2024_02_09,35.56829031927379,-121.1120653023953,Santa Rosa Creek,3.4,1.942,2.3200000000000003,13.6,13.6,"NIGHT_CLEAR,NIGHT_MOSTLY_CLEAR,NIGHT_CLEAR,NIGHT_CLEAR,NIGHT_CLEAR","Offshore,Offshore,Offshore,Offshore,Offshore",5
5842041f4e65fad6a77089a2,2024_02_09,35.44820114936284,-120.90715,"Cayucos Pier, Southside ",3,0.8180000000000001,1.068,14,14,"NIGHT_CLEAR,NIGHT_MOSTLY_CLEAR,NIGHT_CLEAR,NIGHT_CLEAR,NIGHT_CLEAR","Offshore,Offshore,Offshore,Offshore,Offshore",5
5842041f4e65fad6a77089a4,2024_02_09,35.30143372628852,-120.877819239902,Cable Landing,3.8,2.812,3.362,14,14,"NIGHT_CLEAR,NIGHT_CLEAR,NIGHT_MOSTLY_CLEAR,NIGHT_CLEAR,NIGHT_CLEAR","Offshore,Offshore,Offshore,Offshore,Offshore",5
5842041f4e65fad6a77089a9,2024_02_09,35.61269103500222,-121.1480725356606,San Simeon,3,1.0332,1.2362,13.6,13.6,"NIGHT_MOSTLY_CLEAR,NIGHT_MOSTLY_CLEAR,NIGHT_MOSTLY_CLEAR,NIGHT_CLEAR,NIGHT_CLEAR","Offshore,Offshore,Offshore,Offshore,Offshore",5
5842041f4e65fad6a77089ab,2024_02_09,35.1775325966252,-120.7341125142258,Avila Beach,1,0,0.248,14,14,"NIGHT_FOG,NIGHT_MOSTLY_CLEAR,NIGHT_CLEAR,NIGHT_CLEAR,NIGHT_CLEAR","Offshore,Offshore,Offshore,Offshore,Offshore",5
5842041f4e65fad6a77089ac,2024_02_09,35.13877877884115,-120.64535,Pismo Beach Pier,3,1.2804333333333333,1.5807666666666667,14,14,"NIGHT_FOG,NIGHT_CLEAR,NIGHT_CLEAR,NIGHT_CLEAR,NIGHT_CLEAR","Cross-shore,Cross-shore,Cross-shore,Cross-shore,Cross-shore",5
5842041f4e65fad6a77089ad,2024_02_09,46.8907710233147,-124.12964,Westport/Olympic Peninsula,2.4,1.342,1.604,10,10,"NIGHT_CLOUDY,NIGHT_CLOUDY,NIGHT_OVERCAST,NIGHT_OVERCAST,NIGHT_OVERCAST","Onshore,Onshore,Onshore,Cross-shore,Cross-shore",5
5842041f4e65fad6a77089ae,2024_02_09,46.35185177248545,-124.06747,Long Beach Peninsula,2.2,1.908,2.284,10,10,"NIGHT_CLOUDY,NIGHT_CLEAR,NIGHT_LIGHT_RAIN,NIGHT_CLEAR,NIGHT_CLOUDY","Onshore,Onshore,Onshore,Onshore,Onshore",5
5842041f4e65fad6a77089af,2024_02_09,47.90649175554033,-124.6370864743483,La Push,3,1.656,1.948,10,10,"NIGHT_CLOUDY,NIGHT_CLOUDY,NIGHT_CLOUDY,NIGHT_MOSTLY_CLOUDY,NIGHT_MOSTLY_CLOUDY","Cross-shore,Cross-shore,Cross-shore,Cross-shore,Cross-shore",5
5842041f4e65fad6a77089b0,2024_02_09,42.04368239985442,-124.26828,Brookings Jetty,4,1.009064,1.576664,11.6,11.6,"NIGHT_CLEAR,NIGHT_CLEAR,NIGHT_CLEAR,NIGHT_CLEAR,NIGHT_CLEAR","Offshore,Offshore,Offshore,Offshore,Offshore",5
5842041f4e65fad6a77089b1,2024_02_09,42.74071837900346,-124.4983727491047,Port Orford,3,1.038,1.282,11.6,11.6,"NIGHT_CLEAR,NIGHT_MOSTLY_CLOUDY,NIGHT_MOSTLY_CLOUDY,NIGHT_CLEAR,NIGHT_CLEAR","Offshore,Offshore,Cross-shore,Cross-shore,Cross-shore",5
5842041f4e65fad6a77089b2,2024_02_09,44.01532689312291,-124.13865,Florence South Jetty,3,2.016,2.344,11,11,"NIGHT_MOSTLY_CLOUDY,NIGHT_MOSTLY_CLOUDY,NIGHT_OVERCAST,NIGHT_OVERCAST,NIGHT_CLOUDY","Onshore,Onshore,Onshore,Onshore,Onshore",5
5842041f4e65fad6a77089b3,2024_02_09,42.41812540774362,-124.42945,Gold Beach South Jetty,3.2,1.612,1.9000000000000001,11.6,11.6,"NIGHT_CLEAR,NIGHT_CLEAR,NIGHT_CLEAR,NIGHT_CLEAR,NIGHT_CLEAR","Offshore,Offshore,Offshore,Offshore,Offshore",5
5842041f4e65fad6a77089b4,2024_02_09,44.95857310226525,-124.0219017690976,Lincoln City,2.8,1.99,2.316,11,11,"NIGHT_MOSTLY_CLOUDY,NIGHT_CLEAR,NIGHT_OVERCAST,NIGHT_CLEAR,NIGHT_LIGHT_RAIN_AND_FOG","Onshore,Onshore,Onshore,Onshore,Onshore",5
5842041f4e65fad6a77089b5,2024_02_09,44.63792761362982,-124.0657,Newport,2.8,2.128,2.472,11,11,"NIGHT_MOSTLY_CLOUDY,NIGHT_CLEAR,NIGHT_OVERCAST,NIGHT_OVERCAST,NIGHT_OVERCAST","Onshore,Onshore,Onshore,Onshore,Onshore",5
5842041f4e65fad6a77089b6,2024_02_09,45.61468496266301,-123.94643,Rockaway Beach,2.8,2.02,2.36,11,11,"NIGHT_MOSTLY_CLOUDY,NIGHT_CLEAR,NIGHT_FOG,NIGHT_CLOUDY,NIGHT_RAIN_AND_FOG","Onshore,Onshore,Onshore,Onshore,Onshore",5
5842041f4e65fad6a77089b7,2024_02_09,45.20252914186085,-123.96975,Pacific City,3,1.712,2.004,11,11,"NIGHT_MOSTLY_CLOUDY,NIGHT_DRIZZLE,NIGHT_CLOUDY,NIGHT_DRIZZLE,NIGHT_OVERCAST","Onshore,Onshore,Onshore,Onshore,Onshore",5
5842041f4e65fad6a77089b8,2024_02_09,45.88179930310263,-123.96681,Cannon Beach,2.8,1.958,2.292,11,11,"NIGHT_CLEAR,NIGHT_CLOUDY,NIGHT_OVERCAST,NIGHT_OVERCAST,NIGHT_MOSTLY_CLOUDY","Onshore,Onshore,Onshore,Onshore,Onshore",5
5842041f4e65fad6a77089ba,2024_02_09,40.02528754746774,-124.06372,Shelter Cove,3,0.579164,0.904942,12,12,"NIGHT_CLEAR,NIGHT_CLEAR,NIGHT_CLEAR,NIGHT_CLEAR,NIGHT_CLEAR","Offshore,Offshore,Offshore,Offshore,Offshore",5
5842041f4e65fad6a77089bb,2024_02_09,40.76816197136951,-124.24248,Humboldt Harbor Entrance,2.2,2.194,2.622,12,12,"NIGHT_MOSTLY_CLOUDY,NIGHT_CLEAR,NIGHT_CLEAR,NIGHT_CLEAR,NIGHT_CLEAR","Cross-shore,Cross-shore,Cross-shore,Cross-shore,Cross-shore",5
5842041f4e65fad6a77089bc,2024_02_09,40.76684246920174,-124.23107,North Jetty,2.4,2.634,3.098,12,12,"NIGHT_CLEAR,NIGHT_CLEAR,NIGHT_CLEAR,NIGHT_CLEAR,NIGHT_MOSTLY_CLEAR","Cross-shore,Cross-shore,Cross-shore,Cross-shore,Cross-shore",5
5842041f4e65fad6a77089bd,2024_02_09,41.02731183893966,-124.1149972888982,Westhaven,3.6,2.7840000000000003,3.328,12,12,"NIGHT_CLEAR,NIGHT_CLEAR,NIGHT_CLEAR,NIGHT_CLEAR,NIGHT_CLEAR","Offshore,Offshore,Offshore,Offshore,Offshore",5
5842041f4e65fad6a77089be,2024_02_09,41.13016238153297,-124.16466,Sue-meg,3,2.062,2.376,12,12,"NIGHT_CLEAR,NIGHT_CLEAR,NIGHT_CLEAR,NIGHT_CLEAR,NIGHT_CLEAR","Cross-shore,Cross-shore,Cross-shore,Cross-shore,Cross-shore",5
5842041f4e65fad6a77089bf,2024_02_09,37.8289474958188,-122.5376795097543,Fort Cronkite/Rodeo Beach,4,1.866,2.172,13,13,"NIGHT_CLEAR,NIGHT_CLEAR,NIGHT_CLEAR,NIGHT_CLEAR,NIGHT_CLEAR","Offshore,Offshore,Offshore,Offshore,Offshore",5
5842041f4e65fad6a77089c0,2024_02_09,41.74415759876137,-124.1771718063073,South Beach CA,3,0.918,1.1280000000000001,11.6,11.6,"NIGHT_CLEAR,NIGHT_CLEAR,NIGHT_CLEAR,NIGHT_CLEAR,NIGHT_CLEAR","Offshore,Offshore,Offshore,Cross-shore,Offshore",5
5842041f4e65fad6a77089c1,2024_02_09,37.89801283969752,-122.64519,Stinson Beach,3,0.438,0.742,13,13,"NIGHT_BRIEF_SHOWERS_POSSIBLE,NIGHT_MIST,NIGHT_CLEAR,NIGHT_CLEAR,NIGHT_MOSTLY_CLEAR","Offshore,Cross-shore,Cross-shore,Cross-shore,Cross-shore",5
5842041f4e65fad6a77089c2,2024_02_09,37.90514516176495,-122.68151,Bolinas,3,0.486494,0.760146,13,13,"NIGHT_CLEAR,NIGHT_CLEAR,NIGHT_CLEAR,NIGHT_CLEAR,NIGHT_MOSTLY_CLEAR","Cross-shore,Onshore,Onshore,Onshore,Cross-shore",5
5842041f4e65fad6a77089c3,2024_02_09,38.04892513158693,-122.9892494965416,Point Reyes (north),3,2.748,3.27,13,13,"NIGHT_MOSTLY_CLEAR,NIGHT_CLEAR,NIGHT_CLEAR,NIGHT_CLEAR,NIGHT_MOSTLY_CLEAR","Offshore,Offshore,Offshore,Offshore,Offshore",5
5842041f4e65fad6a77089c6,2024_02_09,38.31088736605785,-123.0496777333731,Doran Beach,2,0.256,0.558,13,13,"NIGHT_MOSTLY_CLEAR,NIGHT_CLEAR,NIGHT_CLEAR,NIGHT_CLEAR,NIGHT_CLEAR","Onshore,Onshore,Offshore,Offshore,Offshore",5
5842041f4e65fad6a77089c7,2024_02_09,38.45077228660809,-123.13008,Russian Rivermouth,3,1.9040000000000001,2.246,13,13,"NIGHT_MOSTLY_CLEAR,NIGHT_CLEAR,NIGHT_CLEAR,NIGHT_CLEAR,NIGHT_CLEAR","Cross-shore,Onshore,Onshore,Onshore,Offshore",5
5842041f4e65fad6a77089c8,2024_02_09,38.35329968518107,-123.06906,Salmon Creek,3,1.898,2.2680000000000002,13,13,"NIGHT_CLEAR,NIGHT_CLEAR,NIGHT_CLEAR,NIGHT_CLEAR,NIGHT_CLEAR","Cross-shore,Onshore,Onshore,Onshore,Onshore",5
5842041f4e65fad6a77089c9,2024_02_09,38.6845180197959,-123.4322714291198,Black Point Beach,3.8,1.162,1.428,13,13,"NIGHT_CLEAR,NIGHT_CLEAR,NIGHT_CLEAR,NIGHT_CLEAR,NIGHT_CLEAR","Cross-shore,Offshore,Offshore,Cross-shore,Cross-shore",5
5842041f4e65fad6a77089ca,2024_02_09,43.251076,-70.59144,Ogunquit,2.166,0.4515133333333333,0.81194,5,4,"NIGHT_CLEAR,NIGHT_MIST,NIGHT_MIST,MIST,MIST","Offshore,Cross-shore,Cross-shore,Cross-shore,Cross-shore",5
5842041f4e65fad6a77089cb,2024_02_09,41.362631366305415,-71.48006772942608,Point Judith,1.766,0.5250733333333334,0.83104,7,6,"NIGHT_CLEAR,NIGHT_CLEAR,NIGHT_CLEAR,CLEAR,CLEAR","Offshore,Cross-shore,Cross-shore,Offshore,Cross-shore",5
5842041f4e65fad6a77089cd,2024_02_09,41.422678090954726,-71.45413,Monahan's - Narragansett,1.6,0.28057,0.43839,5,5,"NIGHT_CLEAR,NIGHT_CLEAR,NIGHT_CLEAR,CLEAR,CLEAR","Onshore,Cross-shore,Cross-shore,Cross-shore,Cross-shore",5
5842041f4e65fad6a77089ce,2024_02_09,41.469,-71.293,Ruggles - Newport,1.6,0.289928,0.45301400000000003,5,5,"NIGHT_CLEAR,NIGHT_CLEAR,NIGHT_CLEAR,CLEAR,CLEAR","Onshore,Onshore,Onshore,Onshore,Onshore",5
5842041f4e65fad6a77089cf,2024_02_09,43.175394,-70.606351,Short Sands Beach,1.8,0.276,0.584,4,4,"NIGHT_MIST,NIGHT_CLEAR,NIGHT_CLEAR,CLEAR,CLEAR","Offshore,Cross-shore,Cross-shore,Cross-shore,Cross-shore",5
5842041f4e65fad6a77089d0,2024_02_09,41.487408,-71.29017,First Beach,2,0.014,0.32,5,5,"NIGHT_CLEAR,NIGHT_CLEAR,NIGHT_CLEAR,CLEAR,CLEAR","Onshore,Onshore,Onshore,Onshore,Onshore",5
5842041f4e65fad6a77089d1,2024_02_09,42.27916830233153,-70.86498,Nantasket Beach,2.8,0.40392,0.7088800000000001,5,4,"NIGHT_MIST,NIGHT_CLEAR,NIGHT_CLEAR,MIST,CLEAR","Offshore,Offshore,Offshore,Offshore,Offshore",5
5842041f4e65fad6a77089d2,2024_02_09,41.817,-69.935,Cape Cod,2.4,0.41,0.712,5,5,"NIGHT_MIST,NIGHT_CLEAR,NIGHT_CLEAR,CLEAR,CLEAR","Onshore,Offshore,Onshore,Onshore,Cross-shore",5
5842041f4e65fad6a77089d3,2024_02_09,42.22055448975661,-70.70634873403819,Egypt Beach,1.6,0.39,0.696,4,4,"NIGHT_CLEAR,NIGHT_CLEAR,NIGHT_CLEAR,CLEAR,CLEAR","Cross-shore,Cross-shore,Cross-shore,Cross-shore,Cross-shore",5
5842041f4e65fad6a77089d4,2024_02_09,41.48739647744607,-71.25723,Second Beach,1,0.20822400000000002,0.352022,7,6,"NIGHT_CLEAR,NIGHT_CLEAR,NIGHT_CLEAR,CLEAR,CLEAR","Onshore,Onshore,Onshore,Onshore,Onshore",5
5842041f4e65fad6a77089d5,2024_02_09,42.964,-70.769,Fox Hill,1.8,0.3633466666666667,0.7276066666666666,5,4,"NIGHT_CLEAR,NIGHT_CLEAR,NIGHT_CLEAR,CLEAR,CLEAR","Offshore,Onshore,Onshore,Onshore,Onshore",5
5842041f4e65fad6a77089d6,2024_02_09,42.991359,-70.75149,Straws Point,1.966,0.3343466666666667,0.6987733333333332,5,4,"NIGHT_CLEAR,NIGHT_CLEAR,NIGHT_CLEAR,CLEAR,CLEAR","Cross-shore,Onshore,Onshore,Onshore,Onshore",5
5842041f4e65fad6a77089d7,2024_02_09,42.946,-70.786,Plaice Cove,1.8,0.3633466666666667,0.7276066666666666,5,4,"NIGHT_CLEAR,NIGHT_CLEAR,NIGHT_CLEAR,CLEAR,CLEAR","Offshore,Cross-shore,Cross-shore,Cross-shore,Cross-shore",5
5842041f4e65fad6a77089d9,2024_02_09,42.911574,-70.80831,The Main Beach,2.366,0.607335,1.0444687333333333,6,4,"NIGHT_CLEAR,NIGHT_CLEAR,NIGHT_CLEAR,CLEAR,CLEAR","Cross-shore,Onshore,Onshore,Onshore,Onshore",5
5842041f4e65fad6a77089da,2024_02_09,42.97583846220203,-70.764,Sawyer's Beach,1.8,0.29951333333333335,0.6637733333333333,5,4,"NIGHT_CLEAR,NIGHT_CLEAR,NIGHT_CLEAR,CLEAR,CLEAR","Offshore,Onshore,Cross-shore,Cross-shore,Cross-shore",5
5842041f4e65fad6a77089db,2024_02_09,42.97,-70.77,Rye on the Rocks / 5-0's,2.526,0.609029,1.0455682,6,4,"NIGHT_CLEAR,NIGHT_CLEAR,NIGHT_CLEAR,CLEAR,CLEAR","Offshore,Onshore,Onshore,Onshore,Onshore",5
5842041f4e65fad6a77089dc,2024_02_09,43.55902946610303,-70.27795,Higgins Beach,1.96,0.42202000000000006,0.7303866666666667,5,4,"NIGHT_MIST,NIGHT_CLEAR,NIGHT_CLEAR,CLEAR,CLEAR","Onshore,Onshore,Onshore,Onshore,Onshore",5
5842041f4e65fad6a77089dd,2024_02_09,43.302676,-70.5652,Wells Beach,1.966,0.35718,0.71944,5,4,"NIGHT_MOSTLY_CLEAR,NIGHT_CLEAR,NIGHT_MIST,MIST,CLEAR","Offshore,Cross-shore,Cross-shore,Cross-shore,Cross-shore",5
5842041f4e65fad6a77089de,2024_02_09,43.545359,-70.30479,Scarborough Beach State Park,1.6,0.47107000000000004,0.7798626666666667,5,4,"NIGHT_MOSTLY_CLEAR,NIGHT_CLEAR,NIGHT_CLEAR,CLEAR,CLEAR","Cross-shore,Onshore,Onshore,Onshore,Onshore",5
5842041f4e65fad6a77089df,2024_02_09,43.514481,-70.372146,Old Orchard Beach,2.44,0.6088666666666667,0.97486,5,4,"NIGHT_MIST,NIGHT_CLEAR,NIGHT_CLEAR,CLEAR,CLEAR","Cross-shore,Onshore,Onshore,Onshore,Onshore",5
5842041f4e65fad6a77089e0,2024_02_09,43.34711,-70.48165,Gooch's Beach,1.766,0.20117333333333334,0.50518,5,4,"NIGHT_MIST,NIGHT_CLEAR,NIGHT_CLEAR,CLEAR,CLEAR","Onshore,Onshore,Onshore,Onshore,Onshore",5
5842041f4e65fad6a77089e2,2024_02_09,40.58433,-73.62953,Lido Beach,1.966,0.6094333333333334,1.0527666666666666,7,6,"NIGHT_CLEAR,NIGHT_CLEAR,NIGHT_CLEAR,CLEAR,CLOUDY","Onshore,Onshore,Onshore,Onshore,Onshore",5
5842041f4e65fad6a77089e3,2024_02_09,43.163135,-70.61689,Long Sands Beach,2.6,0.6133392666666667,0.9811984666666667,5,4,"NIGHT_CLEAR,NIGHT_CLEAR,NIGHT_CLEAR,CLEAR,CLEAR","Onshore,Onshore,Onshore,Onshore,Onshore",5
5842041f4e65fad6a77089e4,2024_02_09,40.61695351251805,-73.39376,Gilgo Beach,1,0.22992,0.53088,8,6,"NIGHT_CLEAR,NIGHT_CLEAR,NIGHT_CLEAR,CLEAR,CLEAR","Onshore,Onshore,Onshore,Onshore,Onshore",5
5842041f4e65fad6a77089e5,2024_02_09,40.62530081928036,-73.23827,Robert Moses,1,0.154,0.458,5,5,"NIGHT_MIST,NIGHT_CLEAR,NIGHT_CLEAR,CLEAR,CLEAR","Onshore,Onshore,Onshore,Onshore,Onshore",5
5842041f4e65fad6a77089e6,2024_02_09,40.64313317632791,-73.15727,Fire Island,1,0.148,0.454,5.4,5.4,"NIGHT_CLEAR,NIGHT_CLEAR,NIGHT_CLEAR,CLEAR,CLEAR","Onshore,Onshore,Onshore,Onshore,Onshore",5
5842041f4e65fad6a77089e8,2024_02_09,40.76653118828782,-72.74579619372713,Cupsogue,2,0.342,0.646,5,5,"NIGHT_CLEAR,NIGHT_CLEAR,NIGHT_CLEAR,CLEAR,CLEAR","Onshore,Onshore,Onshore,Onshore,Onshore",5
5842041f4e65fad6a77089e9,2024_02_09,42.9376373334092,-70.79141,The Wall ,2.366,0.6082459333333333,1.0458884333333334,6,4,"NIGHT_CLEAR,NIGHT_CLEAR,NIGHT_CLEAR,CLEAR,CLEAR","Offshore,Cross-shore,Cross-shore,Cross-shore,Cross-shore",5
5842041f4e65fad6a77089ea,2024_02_09,40.887088,-72.33856,Flys,2,0.306,0.614,5,5,"NIGHT_CLEAR,NIGHT_CLEAR,NIGHT_CLEAR,CLEAR,CLEAR","Onshore,Onshore,Onshore,Onshore,Onshore",5
5842041f4e65fad6a77089eb,2024_02_09,41.0389266436591,-71.91068529316958,Trailer Park,1.6,0.82804,1.1665,8,6,"NIGHT_CLEAR,NIGHT_CLEAR,NIGHT_CLEAR,CLEAR,CLEAR","Onshore,Onshore,Onshore,Onshore,Onshore",5
5842041f4e65fad6a77089ec,2024_02_09,41.039505402729105,-71.9142,Ditch Plains,1.4,0.43115,0.67367,5,5,"NIGHT_CLEAR,NIGHT_CLEAR,NIGHT_CLEAR,CLEAR,CLEAR","Onshore,Onshore,Onshore,Onshore,Onshore",5
5842041f4e65fad6a77089ee,2024_02_09,40.57633275206492,-73.56895305108567,"West End, Jones Beach",1,0.22696,0.5644,7,6,"NIGHT_CLEAR,NIGHT_CLEAR,NIGHT_CLEAR,CLEAR,CLEAR","Onshore,Onshore,Onshore,Onshore,Onshore",5
5842041f4e65fad6a77089f1,2024_02_09,41.038286691230795,-71.91991567611694,Poles,1.766,0.827705,1.1646683333333334,8,6,"NIGHT_CLEAR,NIGHT_CLEAR,NIGHT_CLEAR,CLEAR,CLEAR","Onshore,Onshore,Onshore,Onshore,Onshore",5
5842041f4e65fad6a77089f3,2024_02_09,40.84077769766295,-72.47989493724765,The Bowl,1,0.29,0.596,5,5,"NIGHT_CLEAR,NIGHT_CLEAR,NIGHT_CLEAR,CLEAR,CLEAR","Onshore,Onshore,Onshore,Onshore,Onshore",5
5842041f4e65fad6a77089f4,2024_02_09,40.94235535243154,-72.19286,Main Beach,1.2,0.35392,0.68536,14,13,"NIGHT_CLEAR,NIGHT_CLEAR,NIGHT_CLEAR,CLOUDY,CLEAR","Onshore,Onshore,Onshore,Onshore,Onshore",5
5842041f4e65fad6a77089f5,2024_02_09,40.58270702399518,-73.67251552079799,Laurelton Blvd.,1.168,0.3152321666666667,0.6204875000000001,7,6,"NIGHT_CLEAR,NIGHT_CLEAR,NIGHT_CLEAR,CLEAR,CLEAR","Onshore,Onshore,Onshore,Onshore,Onshore",5
5842041f4e65fad6a77089f6,2024_02_09,41.033752854071416,-71.93695522488403,Terrace,1.766,0.8297066666666666,1.16782,8,6,"NIGHT_CLEAR,NIGHT_CLEAR,NIGHT_CLEAR,CLEAR,CLEAR","Onshore,Onshore,Onshore,Onshore,Onshore",5
5842041f4e65fad6a77089f7,2024_02_09,40.83372943645748,-72.50426173210144,K Road,2,0.33,0.63,5,5,"NIGHT_CLEAR,NIGHT_CLEAR,NIGHT_CLEAR,CLEAR,CLEAR","Onshore,Onshore,Onshore,Onshore,Onshore",5
5842041f4e65fad6a77089f8,2024_02_09,40.58456099581507,-73.80730032920837,84th Street,1.766,0.6092666666666667,1.0521,7,6,"NIGHT_CLEAR,NIGHT_CLEAR,NIGHT_MIST,CLEAR,CLEAR","Onshore,Onshore,Onshore,Onshore,Onshore",5
5842041f4e65fad6a77089fa,2024_02_09,40.1319,-74.02788,Sea Girt,1.8,0.50488,0.80984,6,5,"NIGHT_CLEAR,NIGHT_CLEAR,NIGHT_CLEAR,CLOUDY,CLOUDY","Cross-shore,Cross-shore,Cross-shore,Cross-shore,Cross-shore",5
5842041f4e65fad6a77089fb,2024_02_09,40.54698301868125,-73.9268,Breezy Point,1,0.20400000000000001,0.51,5,5,"NIGHT_CLEAR,NIGHT_CLEAR,NIGHT_CLEAR,CLEAR,MIST","Onshore,Onshore,Onshore,Onshore,Onshore",5
5842041f4e65fad6a77089fc,2024_02_09,40.152504,-74.021383,Spring Lake,1.8,0.53888,0.84384,6,5,"NIGHT_CLEAR,NIGHT_CLEAR,NIGHT_CLEAR,CLOUDY,CLOUDY","Cross-shore,Offshore,Cross-shore,Cross-shore,Cross-shore",5
5842041f4e65fad6a77089fd,2024_02_09,40.591277,-73.770792,30th - 39th Streets,1,0.13096,0.46840000000000004,7,6,"NIGHT_CLEAR,NIGHT_CLEAR,NIGHT_CLEAR,CLEAR,CLOUDY","Onshore,Onshore,Onshore,Onshore,Onshore",5
5842041f4e65fad6a77089fe,2024_02_09,40.18834955871439,-74.00860982500222,Avon,1.8,0.58688,0.8918400000000001,6,5,"NIGHT_CLEAR,NIGHT_CLEAR,NIGHT_CLEAR,CLOUDY,CLOUDY","Cross-shore,Offshore,Cross-shore,Cross-shore,Cross-shore",5
5842041f4e65fad6a77089ff,2024_02_09,40.1974229100932,-74.00650533798255,Bradley Beach,1.8,0.5648799999999999,0.8698400000000001,6,5,"NIGHT_CLEAR,NIGHT_CLEAR,NIGHT_CLEAR,CLOUDY,CLOUDY","Cross-shore,Offshore,Cross-shore,Cross-shore,Cross-shore",5
5842041f4e65fad6a7708a01,2024_02_09,40.17202,-74.01503,"16th Ave., Belmar",1.766,0.7017866666666667,1.11056,6,5,"NIGHT_CLEAR,NIGHT_CLEAR,NIGHT_CLEAR,CLOUDY,CLOUDY","Cross-shore,Cross-shore,Cross-shore,Cross-shore,Cross-shore",5
5842041f4e65fad6a7708a02,2024_02_09,40.217443,-73.99982,Asbury Park,1.8,0.52488,0.82784,6,5,"NIGHT_CLEAR,NIGHT_CLEAR,NIGHT_CLEAR,CLEAR,CLOUDY","Cross-shore,Offshore,Cross-shore,Onshore,Cross-shore",5
5842041f4e65fad6a7708a03,2024_02_09,40.229841,-73.996782,Loch Arbour and Deal,1.6,0.47888,0.7818400000000001,6,5,"NIGHT_CLEAR,NIGHT_CLEAR,NIGHT_CLEAR,CLOUDY,CLOUDY","Cross-shore,Cross-shore,Cross-shore,Cross-shore,Cross-shore",5
5842041f4e65fad6a7708a05,2024_02_09,40.41754,-73.97935,Sandy Hook,1,0.057999999999999996,0.362,5,5,"NIGHT_CLEAR,NIGHT_CLEAR,NIGHT_CLEAR,CLEAR,MIST","Onshore,Cross-shore,Onshore,Onshore,Cross-shore",5
5842041f4e65fad6a7708a06,2024_02_09,39.36353,-74.40873,Crystals,1.2,0.537174,0.86219,6,5,"NIGHT_CLEAR,NIGHT_CLEAR,NIGHT_MIST,MIST,MIST","Onshore,Onshore,Onshore,Onshore,Onshore",5
5842041f4e65fad6a7708a07,2024_02_09,39.31443,-74.51863,32nd Street,1.134,0.8547525,1.1907758333333334,6,5,"NIGHT_CLEAR,NIGHT_CLOUDY,NIGHT_MIST,MIST,MIST","Onshore,Onshore,Onshore,Onshore,Onshore",5
5842041f4e65fad6a7708a08,2024_02_09,39.327688,-74.49524,Margate Pier Northside,1.134,0.8547525,1.1907758333333334,6,5,"NIGHT_CLEAR,NIGHT_CLOUDY,NIGHT_MIST,MIST,MIST","Onshore,Onshore,Onshore,Onshore,Onshore",5
5842041f4e65fad6a7708a09,2024_02_09,39.336276,-74.47782,Ventnor Pier,1.2,0.555592,0.890976,6,5,"NIGHT_CLEAR,NIGHT_CLOUDY,NIGHT_MIST,MIST,MIST","Onshore,Onshore,Onshore,Onshore,Onshore",5
5842041f4e65fad6a7708a0a,2024_02_09,39.35929751441085,-74.41683,States Avenue,1.2,0.537174,0.86219,6,5,"NIGHT_CLEAR,NIGHT_CLEAR,NIGHT_CLOUDY,MIST,MIST","Onshore,Onshore,Onshore,Onshore,Onshore",5
5842041f4e65fad6a7708a0b,2024_02_09,39.37274173278517,-74.40454,Brigantine Jetty,1.2,0.427924,0.691486,6,5,"NIGHT_CLEAR,NIGHT_CLEAR,NIGHT_MIST,MIST,MIST","Onshore,Onshore,Onshore,Onshore,Onshore",5
5842041f4e65fad6a7708a0c,2024_02_09,39.356505,-74.42263,South Carolina Avenue,1.2,0.427924,0.691486,6,5,"NIGHT_CLEAR,NIGHT_CLEAR,NIGHT_CLOUDY,MIST,MIST","Onshore,Onshore,Onshore,Onshore,Onshore",5
5842041f4e65fad6a7708a0d,2024_02_09,39.413485,-74.35476,14th Street North,1.2,0.47592,0.81136,6,5,"NIGHT_CLEAR,NIGHT_CLEAR,NIGHT_CLOUDY,MIST,MIST","Onshore,Cross-shore,Onshore,Onshore,Onshore",5
5842041f4e65fad6a7708a0e,2024_02_09,39.531319,-74.263252,The Wooden Jetty,1.134,0.9122171666666666,1.3823598333333331,6,5,"NIGHT_CLEAR,NIGHT_CLEAR,NIGHT_CLEAR,MIST,CLOUDY","Onshore,Onshore,Onshore,Onshore,Onshore",5
5842041f4e65fad6a7708a0f,2024_02_09,39.552472,-74.24344,Holyoke,0.968,0.92315,1.3979718333333333,6,5,"NIGHT_CLEAR,NIGHT_CLEAR,NIGHT_CLEAR,MIST,CLOUDY","Onshore,Cross-shore,Onshore,Onshore,Onshore",5
5842041f4e65fad6a7708a10,2024_02_09,39.692364,-74.14068,Hudson Ave.,1.134,0.9108999999999999,1.3809666666666667,6,5,"NIGHT_CLEAR,NIGHT_CLEAR,NIGHT_CLEAR,CLEAR,MIST","Onshore,Onshore,Onshore,Onshore,Onshore",5
5842041f4e65fad6a7708a11,2024_02_09,39.79614,-74.09248,Island Beach State Park,1,0.66088,1.0268,6,5,"NIGHT_CLEAR,NIGHT_CLEAR,NIGHT_CLEAR,CLEAR,CLEAR","Cross-shore,Cross-shore,Cross-shore,Cross-shore,Cross-shore",5
5842041f4e65fad6a7708a12,2024_02_09,39.91813588078152,-74.07527,Seaside Park,1,0.55288,0.9188000000000001,6,5,"NIGHT_CLEAR,NIGHT_CLEAR,NIGHT_CLEAR,CLEAR,CLOUDY","Cross-shore,Cross-shore,Cross-shore,Onshore,Cross-shore",5
5842041f4e65fad6a7708a14,2024_02_09,39.946638,-74.06884,Seaside Heights,1.2,0.67488,1.0408,6,5,"NIGHT_CLEAR,NIGHT_CLEAR,NIGHT_CLEAR,CLOUDY,MIST","Cross-shore,Cross-shore,Cross-shore,Onshore,Cross-shore",5
5842041f4e65fad6a7708a15,2024_02_09,39.95745637606704,-74.06736,Ortley Beach,1,0.52488,0.8908,6,5,"NIGHT_CLEAR,NIGHT_CLEAR,NIGHT_CLEAR,CLOUDY,MIST","Cross-shore,Cross-shore,Cross-shore,Onshore,Cross-shore",5
5842041f4e65fad6a7708a16,2024_02_09,39.98313468342945,-74.06265685577506,Lavallette,1.2,0.5648799999999999,0.9308000000000001,6,5,"NIGHT_CLEAR,NIGHT_CLEAR,NIGHT_CLEAR,CLEAR,MIST","Cross-shore,Cross-shore,Cross-shore,Onshore,Cross-shore",5
5842041f4e65fad6a7708a17,2024_02_09,40.0699319967757,-74.04144910856634,Bay Head,1,0.5648799999999999,0.9308000000000001,6,5,"NIGHT_CLEAR,NIGHT_CLEAR,NIGHT_CLEAR,CLOUDY,CLEAR","Cross-shore,Cross-shore,Cross-shore,Onshore,Cross-shore",5
5842041f4e65fad6a7708a18,2024_02_09,40.094041,-74.034859,Jenkinson's,1.8,0.55288,0.9188000000000001,6,5,"NIGHT_CLEAR,NIGHT_CLEAR,NIGHT_CLEAR,CLOUDY,CLOUDY","Cross-shore,Cross-shore,Onshore,Onshore,Cross-shore",5
5842041f4e65fad6a7708a1a,2024_02_09,38.148058,-75.17704,Assateague,1,0.70392,1.00688,6,5,"NIGHT_MIST,NIGHT_MIST,NIGHT_MIST,MIST,MIST","Onshore,Cross-shore,Cross-shore,Onshore,Onshore",5
5842041f4e65fad6a7708a1b,2024_02_09,38.33889038664497,-75.08017670566352,North End to Ocean City Inlet,1.4,0.67992,0.98488,6,5,"NIGHT_MIST,NIGHT_MIST,NIGHT_MIST,MIST,MIST","Cross-shore,Offshore,Offshore,Offshore,Offshore",5
5842041f4e65fad6a7708a1c,2024_02_09,38.603993,-75.06271,Indian River Inlet,1.8,0.706708,1.09661,6,5,"NIGHT_CLEAR,NIGHT_CLEAR,NIGHT_CLEAR,CLEAR,CLEAR","Cross-shore,Cross-shore,Cross-shore,Cross-shore,Cross-shore",5
5842041f4e65fad6a7708a1d,2024_02_09,38.460477,-75.052069,Fenwick Island,1.8,0.44192000000000004,0.74888,6,5,"NIGHT_CLEAR,NIGHT_CLEAR,NIGHT_CLOUDY,CLOUDY,MIST","Offshore,Offshore,Offshore,Offshore,Offshore",5
5842041f4e65fad6a7708a1e,2024_02_09,38.538767,-75.05619,Bethany Beach,2,0.706622,1.0964800000000001,6,5,"NIGHT_CLEAR,NIGHT_MIST,NIGHT_MIST,MIST,MIST","Cross-shore,Cross-shore,Cross-shore,Cross-shore,Cross-shore",5
5842041f4e65fad6a7708a1f,2024_02_09,38.697657,-75.075951,Dewey Beach,1.8,0.5459200000000001,0.85288,6,5,"NIGHT_CLEAR,NIGHT_MIST,NIGHT_CLEAR,CLEAR,CLEAR","Cross-shore,Cross-shore,Cross-shore,Cross-shore,Offshore",5
5842041f4e65fad6a7708a20,2024_02_09,38.75034741676525,-75.08194,Gordons Pond,1,0.47122600000000003,0.72867,6,5,"NIGHT_CLEAR,NIGHT_CLEAR,NIGHT_CLEAR,CLEAR,CLEAR","Onshore,Cross-shore,Cross-shore,Cross-shore,Cross-shore",5
5842041f4e65fad6a7708a21,2024_02_09,38.767837,-75.082841,Naval Jetties,1.8,0.47992,0.78288,6,5,"NIGHT_CLEAR,NIGHT_CLEAR,NIGHT_CLEAR,CLEAR,CLEAR","Cross-shore,Offshore,Offshore,Offshore,Offshore",5
5842041f4e65fad6a7708a22,2024_02_09,36.81735875786576,-75.96624,Camp Pendleton,2.512,0.8235133333333333,1.1157733333333333,8,6,"NIGHT_MIST,NIGHT_MIST,NIGHT_MIST,CLEAR,CLEAR","Cross-shore,Cross-shore,Cross-shore,Cross-shore,Cross-shore",5
5842041f4e65fad6a7708a23,2024_02_09,36.9102212316428,-75.98732471466064,North End,2.806,0.52118,0.8836066666666667,8,6,"NIGHT_CLEAR,NIGHT_CLEAR,NIGHT_CLEAR,CLEAR,CLEAR","Cross-shore,Cross-shore,Cross-shore,Cross-shore,Cross-shore",5
5842041f4e65fad6a7708a24,2024_02_09,36.737117517621314,-75.93923719853362,Sandbridge Beach,2.366,0.7326866666666667,1.0405266666666666,8,6,"NIGHT_MIST,NIGHT_CLEAR,NIGHT_CLEAR,CLEAR,CLEAR","Cross-shore,Cross-shore,Cross-shore,Cross-shore,Cross-shore",5
5842041f4e65fad6a7708a26,2024_02_09,36.818257440557794,-75.96666,Croatan to Pendleton,2.512,0.55418,0.9184399999999999,8,6,"NIGHT_MIST,NIGHT_MIST,NIGHT_MIST,CLEAR,CLEAR","Cross-shore,Cross-shore,Cross-shore,Cross-shore,Cross-shore",5
5842041f4e65fad6a7708a27,2024_02_09,36.84318777204769,-75.9719,South End,1.966,0.5500133333333334,0.9162733333333333,8,6,"NIGHT_MIST,NIGHT_MIST,NIGHT_MIST,MIST,CLEAR","Cross-shore,Cross-shore,Cross-shore,Cross-shore,Cross-shore",5
5842041f4e65fad6a7708a28,2024_02_09,37.08612627584661,-75.976121638199,Fishermans Island,1,0.0872,0.20959999999999998,6.6,6.6,"NIGHT_MIST,NIGHT_CLEAR,NIGHT_CLEAR,CLEAR,CLEAR","Onshore,Onshore,Onshore,Onshore,Onshore",5
5842041f4e65fad6a7708a38,2024_02_09,35.254619418229026,-75.52074,Cape Hatteras Lighthouse,2.866,1.2133685,1.9416095,11,9,"NIGHT_MIST,NIGHT_CLEAR,NIGHT_CLOUDY,OVERCAST,LIGHT_RAIN","Onshore,Cross-shore,Offshore,Cross-shore,Cross-shore",5
5842041f4e65fad6a7708a3a,2024_02_09,35.54572934093336,-75.46477,Waves and Salvo,3,1.3378400000000001,1.73624,10,8,"NIGHT_MIST,NIGHT_MIST,NIGHT_MIST,MIST,CLEAR","Onshore,Cross-shore,Offshore,Cross-shore,Cross-shore",5
5842041f4e65fad6a7708a3b,2024_02_09,35.22565892751075,-75.63606,Frisco,2,0.34112000000000003,0.59888,12,11,"NIGHT_MIST,NIGHT_CLOUDY,NIGHT_CLOUDY,MIST,CLOUDY","Cross-shore,Onshore,Cross-shore,Cross-shore,Offshore",5
5842041f4e65fad6a7708a3c,2024_02_09,35.13086,-75.90591,Ocracoke,2,0.509908,0.7967339999999999,8.2,8.2,"NIGHT_MIST,NIGHT_CLOUDY,NIGHT_CLOUDY,CLEAR,CLOUDY","Onshore,Cross-shore,Cross-shore,Cross-shore,Cross-shore",5
5842041f4e65fad6a7708a3d,2024_02_09,35.34721340158342,-75.50084,Avon Pier,2.732,1.5073400000000001,2.1211866666666666,11,8,"NIGHT_MIST,NIGHT_MIST,NIGHT_CLEAR,OVERCAST,OVERCAST","Onshore,Cross-shore,Offshore,Onshore,Onshore",5
5842041f4e65fad6a7708a3f,2024_02_09,35.71680821253768,-75.49243,Pea Island,3,1.114,1.366,6.4,6.4,"NIGHT_MIST,NIGHT_MIST,NIGHT_MIST,MIST,MIST","Cross-shore,Offshore,Offshore,Offshore,Offshore",5
5842041f4e65fad6a7708a40,2024_02_09,35.97427620657821,-75.62984,Nags Head Pier,2.832,1.0776133333333333,1.4923066666666667,8,5,"NIGHT_MIST,NIGHT_CLEAR,NIGHT_CLEAR,CLEAR,CLEAR","Offshore,Offshore,Offshore,Offshore,Offshore",5
5842041f4e65fad6a7708a41,2024_02_09,36.0439998039079,-75.67288,Avalon Pier,3,1.03376,1.3986399999999999,8,5,"NIGHT_MIST,NIGHT_MIST,NIGHT_MIST,MIST,CLEAR","Cross-shore,Offshore,Offshore,Offshore,Offshore",5
5842041f4e65fad6a7708a42,2024_02_09,36.03043116489792,-75.66413,First Street,2.832,1.0854466666666667,1.5522666666666667,8,5,"NIGHT_MIST,NIGHT_MIST,NIGHT_MIST,MIST,CLEAR","Cross-shore,Offshore,Offshore,Offshore,Offshore",5
5842041f4e65fad6a7708a43,2024_02_09,36.06829910590498,-75.6899,Old Station/Laundromats,3,0.90576,1.3316,8,5,"NIGHT_MIST,NIGHT_MIST,NIGHT_MIST,MIST,MIST","Cross-shore,Offshore,Offshore,Offshore,Offshore",5
5842041f4e65fad6a7708a44,2024_02_09,36.10126676607491,-75.71107462163894,Kitty Hawk Pier,2.832,1.2173666666666667,1.5562666666666667,8,5,"NIGHT_MIST,NIGHT_MIST,NIGHT_MIST,MIST,MIST","Cross-shore,Offshore,Offshore,Offshore,Offshore",5
5842041f4e65fad6a7708a45,2024_02_09,36.18220630068973,-75.75013580649097,Duck Pier,2.4,0.76976,1.07568,8,5,"NIGHT_MIST,NIGHT_CLEAR,NIGHT_MIST,MIST,MIST","Cross-shore,Offshore,Offshore,Cross-shore,Offshore",5
5842041f4e65fad6a7708a46,2024_02_09,36.37660668125033,-75.82409701687456,Corolla,2,0.73176,1.0356800000000002,8,5,"NIGHT_BRIEF_SHOWERS_POSSIBLE,NIGHT_MIST,NIGHT_MIST,MIST,MIST","Cross-shore,Cross-shore,Cross-shore,Cross-shore,Cross-shore",5
5842041f4e65fad6a7708a47,2024_02_09,33.90373404124834,-78.08241431707907,Oak Island,1,0,0.3,11,11,"NIGHT_CLEAR,NIGHT_CLEAR,NIGHT_CLEAR,NIGHT_CLEAR,CLEAR","Onshore,Cross-shore,Offshore,Offshore,Cross-shore",5
5842041f4e65fad6a7708a48,2024_02_09,33.91108837766468,-78.29653,South Brunswick Beaches,1.2,0.189054,0.295396,11,11,"NIGHT_MIST,NIGHT_CLEAR,NIGHT_MIST,NIGHT_MIST,MIST","Onshore,Cross-shore,Cross-shore,Offshore,Cross-shore",5
5842041f4e65fad6a7708a49,2024_02_09,34.05683595651973,-77.88128,Carolina Beach Pier,2.8,0.59064,0.89696,11,9,"NIGHT_MIST,NIGHT_MIST,NIGHT_MIST,NIGHT_CLEAR,CLEAR","Cross-shore,Offshore,Offshore,Cross-shore,Offshore",5
5842041f4e65fad6a7708a4a,2024_02_09,33.96841191816696,-77.9180242565498,Fort Fisher,2.8,0.6096400000000001,0.90896,11,9,"NIGHT_MIST,NIGHT_MIST,NIGHT_CLEAR,NIGHT_CLEAR,CLEAR","Cross-shore,Offshore,Offshore,Offshore,Offshore",5
5842041f4e65fad6a7708a4b,2024_02_09,34.46776662988774,-77.47083191635772,Topsail Beach,2,0.25696,0.5639200000000001,11,10,"NIGHT_CLEAR,NIGHT_CLEAR,NIGHT_CLEAR,NIGHT_CLEAR,CLEAR","Onshore,Cross-shore,Cross-shore,Onshore,Cross-shore",5
5842041f4e65fad6a7708a4c,2024_02_09,34.69270354752445,-76.82854854446575,Iron Steamer,0.8,-0.001166666666666666,0.26924000000000003,12,11,"NIGHT_CLOUDY,NIGHT_CLOUDY,NIGHT_MIST,MIST,CLOUDY","Onshore,Onshore,Cross-shore,Onshore,Onshore",5
5842041f4e65fad6a7708a4f,2024_02_09,30.85132684893727,-81.42283496231143,Cumberland Island,3,0.912,1.218,12.6,12.6,"NIGHT_CLEAR,NIGHT_MIST,NIGHT_MIST,NIGHT_MIST,CLOUDY","Cross-shore,Offshore,Offshore,Offshore,Offshore",5
5842041f4e65fad6a7708a50,2024_02_09,34.686741128540874,-76.47516712138378,Cape Lookout National Seashore,3,0.658,0.962,12.2,12.2,"NIGHT_CLOUDY,NIGHT_CLEAR,NIGHT_CLEAR,CLOUDY,CLEAR","Onshore,Cross-shore,Cross-shore,Offshore,Offshore",5
5842041f4e65fad6a7708a51,2024_02_09,31.10585419260024,-81.40422767604812,Jekyll Island,3,0.492,0.796,12.6,12.6,"NIGHT_MIST,NIGHT_MIST,NIGHT_MIST,NIGHT_MIST,MIST","Onshore,Offshore,Offshore,Offshore,Offshore",5
5842041f4e65fad6a7708a52,2024_02_09,31.16212806376699,-81.32512426500224,Harbor Marker Buoys,3,0.466,0.768,12.6,12.6,"NIGHT_MIST,NIGHT_MIST,NIGHT_MIST,NIGHT_MIST,MIST","Onshore,Offshore,Offshore,Offshore,Offshore",5
5842041f4e65fad6a7708a53,2024_02_09,31.20076299997009,-81.32629,Sea Island,3,0.638,0.94,12.6,12.6,"NIGHT_MIST,NIGHT_CLEAR,NIGHT_CLEAR,NIGHT_MIST,CLEAR","Cross-shore,Offshore,Offshore,Offshore,Offshore",5
5842041f4e65fad6a7708a54,2024_02_09,31.13553222995767,-81.38457634790909,St. Simons Island,3,0.52,0.822,12.6,12.6,"NIGHT_MIST,NIGHT_CLEAR,NIGHT_CLEAR,NIGHT_MIST,CLEAR","Cross-shore,Offshore,Offshore,Offshore,Offshore",5
5842041f4e65fad6a7708a55,2024_02_09,31.33550077186516,-81.28383377408417,Wolf Island,2.6,0.306,0.612,12,12,"NIGHT_MIST,NIGHT_MIST,NIGHT_CLOUDY,NIGHT_CLEAR,CLEAR","Onshore,Offshore,Offshore,Offshore,Offshore",5
5842041f4e65fad6a7708a56,2024_02_09,31.2704493877174,-81.27324039152315,Little St. Simons Island,3,0.416,0.722,12,12,"NIGHT_MIST,NIGHT_MIST,NIGHT_MIST,NIGHT_MIST,CLEAR","Onshore,Cross-shore,Cross-shore,Offshore,Offshore",5
5842041f4e65fad6a7708a57,2024_02_09,31.39261761368919,-81.26190520231917,Sapelo Island,3,0.392,0.7,12,12,"NIGHT_CLEAR,NIGHT_CLEAR,NIGHT_OVERCAST,NIGHT_OVERCAST,CLEAR","Onshore,Offshore,Offshore,Offshore,Offshore",5
5842041f4e65fad6a7708a58,2024_02_09,34.42458783809001,-77.54492,Surf City Pier,2.8,0.32496,0.62992,11,10,"NIGHT_MIST,NIGHT_MIST,NIGHT_MIST,NIGHT_MIST,MIST","Cross-shore,Cross-shore,Cross-shore,Cross-shore,Cross-shore",5
5842041f4e65fad6a7708a59,2024_02_09,31.4231993614213,-81.24725340591522,Cabretta Island,2.4,0.302,0.608,12,12,"NIGHT_CLEAR,NIGHT_MOSTLY_CLOUDY,NIGHT_OVERCAST,NIGHT_CLOUDY,CLEAR","Onshore,Offshore,Offshore,Offshore,Cross-shore",5
5842041f4e65fad6a7708a5a,2024_02_09,31.46684389030369,-81.2100056410468,Blackbeard Island,3,0.392,0.7,12,12,"NIGHT_CLEAR,NIGHT_MIST,NIGHT_CLEAR,NIGHT_CLEAR,CLEAR","Onshore,Offshore,Offshore,Offshore,Cross-shore",5
5842041f4e65fad6a7708a5b,2024_02_09,31.85953587631629,-80.99031310336719,Wassaw Island/South End,1,0,0.28600000000000003,12,12,"NIGHT_MOSTLY_CLOUDY,NIGHT_MIST,NIGHT_MIST,NIGHT_CLEAR,MOSTLY_CLOUDY","Onshore,Offshore,Offshore,Offshore,Offshore",5
5842041f4e65fad6a7708a5c,2024_02_09,31.62535662342983,-81.13328352167974,St. Catherines Island,3,0.396,0.702,12,12,"NIGHT_CLEAR,NIGHT_MIST,NIGHT_CLEAR,NIGHT_CLEAR,CLEAR","Onshore,Offshore,Offshore,Offshore,Cross-shore",5
5842041f4e65fad6a7708a5d,2024_02_09,31.76502169596568,-81.07655443806622,Ossabaw Island,2.8,0.332,0.64,12,12,"NIGHT_MOSTLY_CLOUDY,NIGHT_MIST,NIGHT_CLEAR,NIGHT_CLEAR,CLEAR","Onshore,Offshore,Offshore,Offshore,Cross-shore",5
5842041f4e65fad6a7708a5e,2024_02_09,31.90593619092352,-80.93589231700857,Wassaw Island/North End,3,0.434,0.736,11.6,11.6,"NIGHT_MOSTLY_CLOUDY,NIGHT_MIST,NIGHT_MIST,NIGHT_CLEAR,CLEAR","Cross-shore,Offshore,Offshore,Offshore,Offshore",5
5842041f4e65fad6a7708a5f,2024_02_09,31.96738675414547,-80.86977980706155,Little Tybee Island,2.8,0.328,0.632,11.6,11.6,"NIGHT_MIST,NIGHT_MIST,NIGHT_MIST,NIGHT_MIST,CLEAR","Onshore,Offshore,Offshore,Offshore,Offshore",5
5842041f4e65fad6a7708a60,2024_02_09,31.9812255780179,-80.84773973467009,South Tybee Sandbars,2,0.246,0.556,11.6,11.6,"NIGHT_MIST,NIGHT_MIST,NIGHT_MIST,NIGHT_MIST,CLEAR","Onshore,Cross-shore,Cross-shore,Offshore,Offshore",5
5842041f4e65fad6a7708a61,2024_02_09,32.01226,-80.83983,Sugar Shack,2,0.174,0.476,11.6,11.6,"NIGHT_MOSTLY_CLOUDY,NIGHT_CLEAR,NIGHT_MIST,NIGHT_CLEAR,CLEAR","Onshore,Onshore,Onshore,Cross-shore,Offshore",5
5842041f4e65fad6a7708a62,2024_02_09,31.98722842396969,-80.84773,18th St. Jetty,2,0.541874,0.846682,11.6,11.6,"NIGHT_MOSTLY_CLOUDY,NIGHT_CLEAR,NIGHT_CLEAR,NIGHT_MIST,CLEAR","Onshore,Cross-shore,Cross-shore,Cross-shore,Offshore",5
5842041f4e65fad6a7708a64,2024_02_09,34.013473721006676,-77.8991,"Alabama Ave., Kure Beach",3,0.378,0.684,11,11,"NIGHT_MIST,NIGHT_MIST,NIGHT_MIST,NIGHT_CLEAR,CLEAR","Cross-shore,Cross-shore,Cross-shore,Offshore,Cross-shore",5
5842041f4e65fad6a7708a65,2024_02_09,34.20859853336924,-77.79293,"C Street, Wrightsville Beach",2.966,0.59064,0.89596,11,9,"NIGHT_MIST,NIGHT_CLEAR,NIGHT_MIST,NIGHT_MIST,CLEAR","Cross-shore,Offshore,Cross-shore,Cross-shore,Cross-shore",5
5842041f4e65fad6a7708a66,2024_02_09,32.831,-79.71,Dewees Island,2,0.25,0.556,11,11,"NIGHT_CLEAR,NIGHT_CLEAR,NIGHT_MIST,NIGHT_MIST,CLEAR","Onshore,Offshore,Offshore,Offshore,Offshore",5
5842041f4e65fad6a7708a67,2024_02_09,33.82924423172106,-78.62813,Cherry Grove Pier,1.9,0.26948666666666665,0.5762866666666667,11,11,"NIGHT_CLOUDY,NIGHT_CLEAR,NIGHT_CLEAR,NIGHT_CLEAR,CLEAR","Onshore,Cross-shore,Cross-shore,Offshore,Cross-shore",5
5842041f4e65fad6a7708a69,2024_02_09,34.27197439666496,-77.74050223196774,Figure Eight and Shell Islands,2.966,0.5926400000000001,0.89396,11,9,"NIGHT_MIST,NIGHT_MIST,NIGHT_MIST,NIGHT_MIST,CLEAR","Cross-shore,Cross-shore,Cross-shore,Cross-shore,Cross-shore",5
5842041f4e65fad6a7708a6b,2024_02_09,33.49041958261793,-79.07666070599386,North End,2,0.11800000000000001,0.42,10.6,10.6,"NIGHT_CLEAR,NIGHT_CLEAR,NIGHT_CLEAR,NIGHT_CLEAR,CLEAR","Onshore,Offshore,Offshore,Offshore,Offshore",5
5842041f4e65fad6a7708a6c,2024_02_09,33.39537062495087,-79.13835037835189,The South End,2,0.13,0.434,10.6,10.6,"NIGHT_CLEAR,NIGHT_CLEAR,NIGHT_CLEAR,NIGHT_CLEAR,CLEAR","Onshore,Offshore,Offshore,Offshore,Offshore",5
5842041f4e65fad6a7708a6d,2024_02_09,33.29001727666697,-79.17190003352977,North Island,2,0.186,0.49,11,11,"NIGHT_CLEAR,NIGHT_CLEAR,NIGHT_CLEAR,NIGHT_CLEAR,CLEAR","Cross-shore,Offshore,Offshore,Offshore,Offshore",5
5842041f4e65fad6a7708a6e,2024_02_09,32.90929771158952,-79.57810400297359,Bull Island,2,0.138,0.446,11,11,"NIGHT_CLEAR,NIGHT_CLEAR,NIGHT_CLEAR,NIGHT_CLEAR,CLEAR","Onshore,Offshore,Offshore,Offshore,Offshore",5
5842041f4e65fad6a7708a6f,2024_02_09,31.99153112815895,-80.84543050470074,Tybee Island Pier,1,0,0.23800000000000002,11.6,11.6,"NIGHT_MIST,NIGHT_CLEAR,NIGHT_MIST,NIGHT_CLEAR,CLEAR","Onshore,Cross-shore,Cross-shore,Offshore,Offshore",5
5842041f4e65fad6a7708a70,2024_02_09,33.03478144356316,-79.35021028265125,Cape Romain,2,0.262,0.5660000000000001,11.6,11.6,"NIGHT_CLEAR,NIGHT_CLEAR,NIGHT_CLEAR,NIGHT_CLEAR,CLEAR","Onshore,Offshore,Offshore,Offshore,Offshore",5
5842041f4e65fad6a7708a71,2024_02_09,33.43231073271028,-79.11789,The Pier,2,0.40726,0.636342,10.6,10.6,"NIGHT_CLEAR,NIGHT_CLEAR,NIGHT_CLEAR,NIGHT_CLEAR,CLEAR","Onshore,Offshore,Offshore,Offshore,Offshore",5
5842041f4e65fad6a7708a72,2024_02_09,33.45423621397969,-79.10497798178424,South Litchfield,2,0.23600000000000002,0.542,10.6,10.6,"NIGHT_CLEAR,NIGHT_CLEAR,NIGHT_CLEAR,NIGHT_CLEAR,CLEAR","Onshore,Offshore,Offshore,Offshore,Offshore",5
5842041f4e65fad6a7708a73,2024_02_09,34.19316590251396,-77.8045,Crystal Pier,2.766,0.56564,0.86696,11,9,"NIGHT_MIST,NIGHT_CLEAR,NIGHT_MIST,NIGHT_MIST,CLEAR","Cross-shore,Offshore,Cross-shore,Cross-shore,Cross-shore",5
5842041f4e65fad6a7708a74,2024_02_09,33.68628680045124,-78.883460274301,Myrtle Beach,1.9,0.27382,0.5744533333333334,10.6,10.6,"NIGHT_CLEAR,NIGHT_CLEAR,NIGHT_CLEAR,NIGHT_CLEAR,CLEAR","Onshore,Offshore,Offshore,Offshore,Offshore",5
5842041f4e65fad6a7708a75,2024_02_09,32.66166297145973,-79.91951806398808,10th Street,2,0.166,0.472,11.6,11.6,"NIGHT_CLEAR,NIGHT_MIST,NIGHT_MIST,NIGHT_CLEAR,CLEAR","Cross-shore,Offshore,Offshore,Cross-shore,Offshore",5
5842041f4e65fad6a7708a76,2024_02_09,33.16729555197199,-79.19829236867845,South Island,2,0.27,0.576,11,11,"NIGHT_MOSTLY_CLEAR,NIGHT_CLEAR,NIGHT_CLEAR,NIGHT_CLEAR,CLEAR","Onshore,Offshore,Offshore,Offshore,Offshore",5
5842041f4e65fad6a7708a77,2024_02_09,32.595,-80.088,Kiawah Island/Seabrook Island,2,0.06,0.364,11.6,11.6,"NIGHT_MOSTLY_CLEAR,NIGHT_CLEAR,NIGHT_CLEAR,NIGHT_CLEAR,CLEAR","Cross-shore,Offshore,Offshore,Offshore,Offshore",5
5842041f4e65fad6a7708a78,2024_02_09,32.51356930575787,-80.28223,Edisto Beach,2,0.393028,0.614108,12,12,"NIGHT_MOSTLY_CLEAR,NIGHT_CLEAR,NIGHT_CLEAR,NIGHT_CLEAR,CLEAR","Onshore,Offshore,Offshore,Cross-shore,Offshore",5
5842041f4e65fad6a7708a79,2024_02_09,32.366270751262,-80.43911,Hunting Island,2,0.494414,0.772526,12,12,"NIGHT_MOSTLY_CLOUDY,NIGHT_CLEAR,NIGHT_CLEAR,NIGHT_CLEAR,CLEAR","Onshore,Cross-shore,Cross-shore,Cross-shore,Offshore",5
5842041f4e65fad6a7708a7a,2024_02_09,32.65337734408365,-79.93983,Folly Beach Pier,1.966,0.3620933333333334,0.67256,12,11,"NIGHT_CLEAR,NIGHT_CLEAR,NIGHT_CLEAR,NIGHT_CLEAR,CLEAR","Cross-shore,Offshore,Offshore,Offshore,Offshore",5
5842041f4e65fad6a7708a7b,2024_02_09,33.41209545530049,-79.13026341393126,South Jetty,2,0.13,0.434,10.6,10.6,"NIGHT_CLEAR,NIGHT_CLEAR,NIGHT_CLEAR,NIGHT_CLEAR,CLEAR","Onshore,Offshore,Offshore,Offshore,Offshore",5
5842041f4e65fad6a7708a7c,2024_02_09,32.31115640606869,-80.48564,Fripp Island,2,0.395346,0.617728,11.6,11.6,"NIGHT_MOSTLY_CLOUDY,NIGHT_CLEAR,NIGHT_CLEAR,NIGHT_CLEAR,CLEAR","Onshore,Offshore,Offshore,Offshore,Offshore",5
5842041f4e65fad6a7708a7d,2024_02_09,32.14365226036034,-80.74402,Hilton Head Island,1,0,0.188,11.6,11.6,"NIGHT_MOSTLY_CLOUDY,NIGHT_MIST,NIGHT_MIST,NIGHT_CLEAR,CLEAR","Cross-shore,Offshore,Offshore,Offshore,Offshore",5
5842041f4e65fad6a7708a7e,2024_02_09,29.70405364733744,-81.22426004725459,Matanzas Inlet,3,0.648,0.954,14,14,"NIGHT_MIST,NIGHT_MOSTLY_CLOUDY,NIGHT_MOSTLY_CLOUDY,NIGHT_OVERCAST,OVERCAST","Onshore,Cross-shore,Offshore,Cross-shore,Cross-shore",5
5842041f4e65fad6a7708a81,2024_02_09,29.76878537149042,-81.25109,Crescent Beach,3,0.664,0.97,13.6,13.6,"NIGHT_MIST,NIGHT_MIST,NIGHT_BRIEF_SHOWERS,NIGHT_MIST,OVERCAST","Onshore,Cross-shore,Offshore,Cross-shore,Cross-shore",5
5842041f4e65fad6a7708a82,2024_02_09,32.80251718689188,-79.73221919500764,Wild Dunes,2,0.162,0.466,11,11,"NIGHT_CLEAR,NIGHT_CLEAR,NIGHT_CLEAR,NIGHT_CLEAR,CLEAR","Onshore,Offshore,Offshore,Offshore,Offshore",5
5842041f4e65fad6a7708a84,2024_02_09,32.75733539419244,-79.83258856064796,Bert's Bar,1.2,0.002,0.3,11,11,"NIGHT_MOSTLY_CLEAR,NIGHT_CLEAR,NIGHT_CLEAR,NIGHT_CLEAR,CLEAR","Cross-shore,Offshore,Offshore,Offshore,Offshore",5
5842041f4e65fad6a7708a85,2024_02_09,32.66829212943039,-79.90735,Washout,1.766,0.3023,0.6091,12,11,"NIGHT_CLEAR,NIGHT_CLEAR,NIGHT_CLEAR,NIGHT_CLEAR,CLEAR","Onshore,Offshore,Offshore,Offshore,Offshore",5
5842041f4e65fad6a7708a86,2024_02_09,32.78452968219067,-79.78540233488354,The Pier/Windjammer,2,0.216,0.522,11,11,"NIGHT_MOSTLY_CLEAR,NIGHT_MIST,NIGHT_MIST,NIGHT_CLEAR,CLEAR","Offshore,Offshore,Offshore,Offshore,Offshore",5
5842041f4e65fad6a7708a87,2024_02_09,29.86618162637438,-81.2662150259608,Anastasia Park (The Entrance),3,0.556,0.86,13,13,"NIGHT_MIST,NIGHT_MIST,NIGHT_MOSTLY_CLOUDY,NIGHT_MIST,MIST","Onshore,Cross-shore,Cross-shore,Cross-shore,Cross-shore",5
5842041f4e65fad6a7708a89,2024_02_09,29.89149785916623,-81.2723223244215,Blowholes,2.8,0.77096,1.0104,22,20,"NIGHT_MIST,NIGHT_MIST,NIGHT_MIST,NIGHT_MIST,MIST","Onshore,Cross-shore,Cross-shore,Cross-shore,Cross-shore",5
5842041f4e65fad6a7708a8a,2024_02_09,30.16227112983666,-81.35502907491218,Crossroads,2.8,0.57296,0.9084,22,20,"NIGHT_CLEAR,NIGHT_MIST,NIGHT_MIST,NIGHT_MIST,MIST","Onshore,Cross-shore,Cross-shore,Cross-shore,Cross-shore",5
5842041f4e65fad6a7708a8b,2024_02_09,30.19308537587637,-81.36314247820911,Sawgrass,2.8,0.79696,1.0344,22,20,"NIGHT_MOSTLY_CLOUDY,NIGHT_MIST,NIGHT_CLEAR,NIGHT_MIST,MIST","Cross-shore,Cross-shore,Cross-shore,Cross-shore,Cross-shore",5
5842041f4e65fad6a7708a8c,2024_02_09,30.34696027700899,-81.39451,18th Street,3,0.762186,1.190914,13,13,"NIGHT_CLEAR,NIGHT_MIST,NIGHT_MIST,NIGHT_MIST,MIST","Offshore,Offshore,Offshore,Cross-shore,Cross-shore",5
5842041f4e65fad6a7708a8d,2024_02_09,30.381793,-81.39686,Mayport Poles,3,1.08,1.338,13,13,"NIGHT_CLEAR,NIGHT_MIST,NIGHT_CLOUDY,NIGHT_CLEAR,CLEAR","Offshore,Offshore,Offshore,Offshore,Cross-shore",5
5842041f4e65fad6a7708a8e,2024_02_09,30.390516,-81.395591,Blue Roofs,3,0.956,1.264,13,13,"NIGHT_CLEAR,NIGHT_MIST,NIGHT_CLOUDY,NIGHT_CLEAR,CLEAR","Offshore,Offshore,Offshore,Offshore,Cross-shore",5
5842041f4e65fad6a7708a8f,2024_02_09,30.40517712722211,-81.40074116169004,Huguenot Park (North Jetty),3,0.994,1.166,13,13,"NIGHT_CLEAR,NIGHT_MIST,NIGHT_CLOUDY,NIGHT_CLEAR,CLEAR","Offshore,Offshore,Offshore,Cross-shore,Onshore",5
5842041f4e65fad6a7708a90,2024_02_09,30.47788918872762,-81.41055821335078,Talbot Island,3.798,0.9088276666666667,1.3405883333333333,15,14,"NIGHT_CLEAR,NIGHT_MIST,NIGHT_OVERCAST,NIGHT_MIST,CLEAR","Offshore,Offshore,Offshore,Offshore,Cross-shore",5
5842041f4e65fad6a7708a91,2024_02_09,30.66753984549761,-81.42983,Main Beach,3,0.522,0.828,13,13,"NIGHT_CLEAR,NIGHT_MIST,NIGHT_MIST,NIGHT_MIST,MIST","Offshore,Offshore,Offshore,Offshore,Offshore",5
5842041f4e65fad6a7708a92,2024_02_09,30.69983581209126,-81.42483,Ft. Clinch State Park,3,0.954,1.138,13,13,"NIGHT_CLEAR,NIGHT_MIST,NIGHT_MIST,NIGHT_MIST,MIST","Cross-shore,Offshore,Offshore,Offshore,Offshore",5
5842041f4e65fad6a7708a93,2024_02_09,30.62059700777582,-81.437252942757425,Amelia Pier,2.2,0.602,0.906,13,13,"NIGHT_CLEAR,NIGHT_MIST,NIGHT_OVERCAST,NIGHT_MIST,CLEAR","Offshore,Offshore,Offshore,Offshore,Cross-shore",5
5842041f4e65fad6a7708a95,2024_02_09,28.95125170929067,-80.83837,Bethune Beach,3,1.072,1.336,15.2,15.2,"NIGHT_MIST,NIGHT_MIST,NIGHT_MIST,NIGHT_MIST,CLEAR","Cross-shore,Cross-shore,Onshore,Onshore,Cross-shore",5
5842041f4e65fad6a7708a96,2024_02_09,29.03874288905362,-80.8933424949646,Flagler Ave.,2.6,0.93088,1.2968,22,21,"NIGHT_MIST,NIGHT_MIST,NIGHT_DRIZZLE,NIGHT_MIST,MOSTLY_CLOUDY","Cross-shore,Cross-shore,Onshore,Onshore,Cross-shore",5
5842041f4e65fad6a7708a98,2024_02_09,30.332297686992757,-81.39319,Atlantic Beach,3,0.758862,1.185722,13,13,"NIGHT_CLEAR,NIGHT_MIST,NIGHT_MIST,NIGHT_MIST,MIST","Offshore,Offshore,Cross-shore,Cross-shore,Cross-shore",5
5842041f4e65fad6a7708a99,2024_02_09,29.87530059952514,-81.26757958498874,Middles,2.8,0.68096,0.9664,22,20,"NIGHT_MIST,NIGHT_MIST,NIGHT_MIST,NIGHT_MIST,MIST","Onshore,Cross-shore,Cross-shore,Cross-shore,Cross-shore",5
5842041f4e65fad6a7708a9a,2024_02_09,29.146475528378218,-80.96347,Sunglow Pier,3,0.898,1.202,14.6,14.6,"NIGHT_MIST,NIGHT_CLEAR,NIGHT_MOSTLY_CLOUDY,NIGHT_MIST,BRIEF_SHOWERS","Cross-shore,Cross-shore,Cross-shore,Onshore,Cross-shore",5
5842041f4e65fad6a7708a9b,2024_02_09,30.02251238001095,-81.32183077344881,Gate Station,2.8,0.58896,0.9264,22,20,"NIGHT_MIST,NIGHT_MIST,NIGHT_CLEAR,NIGHT_OVERCAST,MIST","Onshore,Cross-shore,Cross-shore,Cross-shore,Cross-shore",5
5842041f4e65fad6a7708a9c,2024_02_09,29.33976495417899,-81.0606,Bicentennial Park,3,0.968,1.1260000000000001,14,14,"NIGHT_MIST,NIGHT_CLEAR,NIGHT_CLEAR,NIGHT_MIST,BRIEF_SHOWERS","Cross-shore,Onshore,Cross-shore,Onshore,Cross-shore",5
5842041f4e65fad6a7708a9d,2024_02_09,29.08257353385602,-80.92136998257725,Ponce Inlet,3.832,1.31596,1.6177000000000001,17,15,"NIGHT_MIST,NIGHT_MOSTLY_CLOUDY,NIGHT_FOG,NIGHT_FOG,MIST","Cross-shore,Cross-shore,Onshore,Onshore,Cross-shore",5
5842041f4e65fad6a7708a9f,2024_02_09,27.862962005874696,-80.44668,Sebastian Inlet,1.534,1.2202191666666666,1.7210825,21,19,"NIGHT_MOSTLY_CLOUDY,NIGHT_CLEAR,NIGHT_CLEAR,NIGHT_CLEAR,CLEAR","Onshore,Onshore,Onshore,Onshore,Onshore",5
5842041f4e65fad6a7708aa0,2024_02_09,30.292626880836885,-81.38579,Jacksonville Beach Pier,3.798,0.9775333333333333,1.3628,15,14,"NIGHT_CLEAR,NIGHT_MIST,NIGHT_MOSTLY_CLOUDY,NIGHT_MIST,CLOUDY","Offshore,Cross-shore,Cross-shore,Cross-shore,Cross-shore",5
5842041f4e65fad6a7708aa1,2024_02_09,29.22878213864532,-81.00551,Main Street North,3,0.85467,0.94139,14.6,14.6,"NIGHT_MIST,NIGHT_CLEAR,NIGHT_MOSTLY_CLOUDY,NIGHT_FOG,MIST","Cross-shore,Cross-shore,Cross-shore,Onshore,Cross-shore",5
5842041f4e65fad6a7708aa2,2024_02_09,29.21860397328164,-81.0019,Daytona Beach,3,0.866,1.168,14.6,14.6,"NIGHT_MIST,NIGHT_CLEAR,NIGHT_MOSTLY_CLOUDY,NIGHT_FOG,MIST","Cross-shore,Cross-shore,Cross-shore,Onshore,Cross-shore",5
5842041f4e65fad6a7708aa3,2024_02_09,27.47531255634912,-80.28914,Ft. Pierce Inlet,2.766,1.0658400000000001,1.3528,21,20,"NIGHT_MOSTLY_CLOUDY,NIGHT_MOSTLY_CLOUDY,NIGHT_MOSTLY_CLOUDY,NIGHT_MOSTLY_CLOUDY,MOSTLY_CLOUDY","Onshore,Onshore,Onshore,Onshore,Onshore",5
5842041f4e65fad6a7708aa4,2024_02_09,29.29239875585548,-81.0386,Ormond Beach,3,0.922,1.23,14,14,"NIGHT_MIST,NIGHT_CLEAR,NIGHT_CLEAR,NIGHT_MIST,DRIZZLE","Cross-shore,Onshore,Cross-shore,Onshore,Cross-shore",5
5842041f4e65fad6a7708aa5,2024_02_09,29.91629441498523,-81.28801,Vilano,3,0.516,0.82,13,13,"NIGHT_MIST,NIGHT_MIST,NIGHT_MIST,NIGHT_MIST,MIST","Onshore,Cross-shore,Cross-shore,Cross-shore,Cross-shore",5
5842041f4e65fad6a7708aa6,2024_02_09,27.876230736320828,-80.4551,Spanish House,2.2,1.61784,1.94576,20,18,"NIGHT_MOSTLY_CLOUDY,NIGHT_MOSTLY_CLOUDY,NIGHT_CLEAR,NIGHT_CLEAR,CLEAR","Onshore,Onshore,Onshore,Onshore,Onshore",5
5842041f4e65fad6a7708aa7,2024_02_09,28.64397251741012,-80.62328519781694,Playalinda,3,1.024,1.328,17.2,17.2,"NIGHT_MIST,NIGHT_OVERCAST,NIGHT_MIST,NIGHT_CLOUDY,CLOUDY","Offshore,Onshore,Onshore,Onshore,Onshore",5
5842041f4e65fad6a7708aa8,2024_02_09,28.406142,-80.588858,Jetty Park,2.2,0.446,0.752,18.2,18.2,"NIGHT_CLEAR,NIGHT_CLOUDY,NIGHT_OVERCAST,NIGHT_OVERCAST,MOSTLY_CLOUDY","Offshore,Onshore,Onshore,Onshore,Onshore",5
5842041f4e65fad6a7708aa9,2024_02_09,28.49083243010974,-80.58001715986319,Kennedy Space Center,3.2,1.438,1.66,17.2,17.2,"NIGHT_MIST,NIGHT_MIST,NIGHT_OVERCAST,NIGHT_OVERCAST,OVERCAST","Cross-shore,Cross-shore,Onshore,Onshore,Cross-shore",5
5842041f4e65fad6a7708aab,2024_02_09,28.336757013024314,-80.60568,Lori Wilson Park,2.8,0.84288,1.12832,18,17,"NIGHT_FOG,NIGHT_OVERCAST,NIGHT_OVERCAST,NIGHT_OVERCAST,MOSTLY_CLOUDY","Offshore,Onshore,Onshore,Onshore,Onshore",5
5842041f4e65fad6a7708aad,2024_02_09,27.76388821683801,-80.3962958234027,Wabasso,2.2,1.282,1.588,21,21,"NIGHT_MOSTLY_CLOUDY,NIGHT_CLEAR,NIGHT_CLEAR,NIGHT_MOSTLY_CLEAR,MOSTLY_CLEAR","Onshore,Onshore,Onshore,Onshore,Onshore",5
5842041f4e65fad6a7708aae,2024_02_09,27.521583322459,-80.30987620353699,P.V. Martin's,2,1.60384,1.8708,21,19,"NIGHT_MOSTLY_CLOUDY,NIGHT_MOSTLY_CLOUDY,NIGHT_MOSTLY_CLOUDY,NIGHT_MOSTLY_CLOUDY,MOSTLY_CLOUDY","Onshore,Onshore,Onshore,Onshore,Onshore",5
5842041f4e65fad6a7708aaf,2024_02_09,27.644996047720046,-80.35242676734924,Riomar,2,1.61384,1.8688,21,19,"NIGHT_FOG,NIGHT_MOSTLY_CLEAR,NIGHT_MOSTLY_CLEAR,NIGHT_MOSTLY_CLEAR,CLEAR","Cross-shore,Onshore,Onshore,Onshore,Onshore",5
5842041f4e65fad6a7708ab1,2024_02_09,27.670121806659253,-80.36026954650879,Vero Pier,2.2,2.00784,2.2728,21,19,"NIGHT_MIST,NIGHT_MOSTLY_CLEAR,NIGHT_MOSTLY_CLEAR,NIGHT_CLEAR,MOSTLY_CLOUDY","Onshore,Onshore,Onshore,Onshore,Onshore",5
5842041f4e65fad6a7708ab2,2024_02_09,28.047705032021486,-80.54680109024048,Spessard Holland,2.732,1.2159621666666667,1.7890228333333333,20,18,"NIGHT_MOSTLY_CLEAR,NIGHT_MOSTLY_CLOUDY,NIGHT_MOSTLY_CLEAR,NIGHT_MOSTLY_CLEAR,MOSTLY_CLEAR","Onshore,Onshore,Onshore,Onshore,Onshore",5
5842041f4e65fad6a7708ab7,2024_02_09,28.135426226217064,-80.57895541191101,The Radisson,2.4,1.51384,1.6908,19,18,"NIGHT_CLEAR,NIGHT_CLEAR,NIGHT_MOSTLY_CLOUDY,NIGHT_MOSTLY_CLOUDY,MOSTLY_CLEAR","Onshore,Onshore,Onshore,Onshore,Onshore",5
5842041f4e65fad6a7708ab8,2024_02_09,28.26664623907351,-80.60448467731476,Picnic Tables,3,1.6,1.734,18.2,18.2,"NIGHT_MIST,NIGHT_CLOUDY,NIGHT_OVERCAST,NIGHT_OVERCAST,MOSTLY_CLOUDY","Cross-shore,Onshore,Onshore,Onshore,Onshore",5
5842041f4e65fad6a7708ab9,2024_02_09,28.200840983180232,-80.59493,Perkins,2.8,1.37984,1.73376,19,17,"NIGHT_CLEAR,NIGHT_CLOUDY,NIGHT_MOSTLY_CLOUDY,NIGHT_MOSTLY_CLOUDY,CLEAR","Cross-shore,Onshore,Onshore,Onshore,Onshore",5
5842041f4e65fad6a7708aba,2024_02_09,28.185652556759443,-80.59154,RC's,2.8,1.2347000000000001,1.84314,19,17,"NIGHT_MIST,NIGHT_OVERCAST,NIGHT_MOSTLY_CLOUDY,NIGHT_MOSTLY_CLOUDY,CLEAR","Cross-shore,Cross-shore,Cross-shore,Cross-shore,Cross-shore",5
5842041f4e65fad6a7708abc,2024_02_09,28.252541991968208,-80.60269,2nd Light,3,1.508,1.684,18.6,18.6,"NIGHT_MIST,NIGHT_CLOUDY,NIGHT_OVERCAST,NIGHT_OVERCAST,MOSTLY_CLOUDY","Cross-shore,Onshore,Onshore,Onshore,Onshore",5
5842041f4e65fad6a7708abd,2024_02_09,27.901611308716447,-80.4697,Bonsteel Park,2.2,1.27384,1.64176,20,18,"NIGHT_MOSTLY_CLOUDY,NIGHT_CLEAR,NIGHT_MOSTLY_CLEAR,NIGHT_CLEAR,CLEAR","Onshore,Cross-shore,Onshore,Onshore,Onshore",5
5842041f4e65fad6a7708abe,2024_02_09,28.2423394657007,-80.60104,Hangar's Beach,2.8,1.3718400000000002,1.69576,19,17,"NIGHT_CLEAR,NIGHT_OVERCAST,NIGHT_OVERCAST,NIGHT_MOSTLY_CLOUDY,MOSTLY_CLOUDY","Cross-shore,Onshore,Onshore,Onshore,Onshore",5
5842041f4e65fad6a7708abf,2024_02_09,27.34018197146798,-80.23278,Walton Rocks,2.398,1.75584,1.9828000000000001,22,21,"NIGHT_MOSTLY_CLOUDY,NIGHT_MOSTLY_CLOUDY,NIGHT_CLOUDY,NIGHT_OVERCAST,BRIEF_SHOWERS","Onshore,Onshore,Onshore,Onshore,Onshore",5
5842041f4e65fad6a7708ac0,2024_02_09,25.80407401902198,-80.1222227290161,30th Street,1,0.402,0.704,23,23,"NIGHT_MOSTLY_CLOUDY,NIGHT_MOSTLY_CLOUDY,NIGHT_HEAVY_SHOWERS,CLEAR,CLEAR","Onshore,Onshore,Onshore,Onshore,Onshore",5
5842041f4e65fad6a7708ac1,2024_02_09,25.76570280215999,-80.12983304957051,South Beach,0.632,-0.0023333333333333426,0.26915333333333336,24,23,"NIGHT_MOSTLY_CLOUDY,NIGHT_MOSTLY_CLOUDY,NIGHT_SHOWERS,MOSTLY_CLEAR,CLEAR","Onshore,Onshore,Onshore,Onshore,Onshore",5
5842041f4e65fad6a7708ac2,2024_02_09,26.058022412197,-80.10873562327671,Dania Pier,1,0.544,0.85,23,23,"NIGHT_MOSTLY_CLOUDY,NIGHT_MOSTLY_CLOUDY,NIGHT_MOSTLY_CLOUDY,MOSTLY_CLOUDY,CLEAR","Onshore,Onshore,Onshore,Onshore,Onshore",5
5842041f4e65fad6a7708ac3,2024_02_09,26.04825428257198,-80.11153150137932,Franklin Street,1,0.524,0.834,23,23,"NIGHT_MOSTLY_CLOUDY,NIGHT_MOSTLY_CLOUDY,NIGHT_MOSTLY_CLOUDY,MOSTLY_CLOUDY,CLEAR","Onshore,Onshore,Onshore,Onshore,Onshore",5
5842041f4e65fad6a7708ac4,2024_02_09,26.09086461141498,-80.10728410144065,John Lloyd State Park,1,0.494,0.798,23,23,"NIGHT_MOSTLY_CLOUDY,NIGHT_MOSTLY_CLOUDY,NIGHT_CLEAR,CLEAR,MOSTLY_CLOUDY","Onshore,Onshore,Onshore,Onshore,Onshore",5
5842041f4e65fad6a7708ac5,2024_02_09,26.0971397396683,-80.10298876028907,Spoils,1,0.54,0.844,23,23,"NIGHT_MOSTLY_CLOUDY,NIGHT_MOSTLY_CLOUDY,NIGHT_MOSTLY_CLOUDY,MOSTLY_CLOUDY,MOSTLY_CLOUDY","Onshore,Onshore,Onshore,Onshore,Onshore",5
5842041f4e65fad6a7708ac6,2024_02_09,26.18920557475824,-80.09224470008016,Commercial Pier,1,0.672,0.982,24,24,"NIGHT_MOSTLY_CLOUDY,NIGHT_MOSTLY_CLOUDY,NIGHT_MOSTLY_CLOUDY,CLEAR,BRIEF_SHOWERS","Onshore,Onshore,Onshore,Onshore,Onshore",5
5842041f4e65fad6a7708ac7,2024_02_09,28.289851576629342,-80.6063,16th St. South,3,1.25784,1.50728,18,17,"NIGHT_MIST,NIGHT_CLEAR,NIGHT_CLOUDY,NIGHT_OVERCAST,CLEAR","Cross-shore,Onshore,Onshore,Onshore,Onshore",5
5842041f4e65fad6a7708ac8,2024_02_09,26.23467460139735,-80.08739675534814,Pompano Pier,0.8,0.126,0.40248,24,23,"NIGHT_MOSTLY_CLOUDY,NIGHT_MOSTLY_CLOUDY,NIGHT_MOSTLY_CLOUDY,MOSTLY_CLOUDY,MOSTLY_CLOUDY","Onshore,Onshore,Onshore,Onshore,Onshore",5
5842041f4e65fad6a7708acb,2024_02_09,26.44179551370651,-80.05928855229453,Atlantic Dunes Park,1,0.549844,0.750224,24,22,"NIGHT_MOSTLY_CLOUDY,NIGHT_MOSTLY_CLOUDY,NIGHT_MOSTLY_CLOUDY,MOSTLY_CLOUDY,CLEAR","Onshore,Onshore,Onshore,Onshore,Onshore",5
5842041f4e65fad6a7708acd,2024_02_09,26.62215707439298,-80.03599398392342,Hilton Hotel Backyard,1.8,0.95088,1.28632,24,22,"NIGHT_MOSTLY_CLOUDY,NIGHT_OVERCAST,NIGHT_OVERCAST,MOSTLY_CLOUDY,MOSTLY_CLOUDY","Onshore,Onshore,Onshore,Onshore,Onshore",5
5842041f4e65fad6a7708ace,2024_02_09,26.96418190555367,-80.07769168113562,Coral Cove Park,1.8,1.95584,2.1548,22,21,"NIGHT_MOSTLY_CLOUDY,NIGHT_CLOUDY,NIGHT_CLOUDY,NIGHT_DRIZZLE,MOSTLY_CLOUDY","Onshore,Onshore,Onshore,Onshore,Onshore",5
5842041f4e65fad6a7708acf,2024_02_09,26.7029496416037,-80.0318372872607,Palm Beach,1.8,1.14088,1.47432,24,22,"NIGHT_MOSTLY_CLOUDY,NIGHT_OVERCAST,NIGHT_OVERCAST,MOSTLY_CLOUDY,MOSTLY_CLOUDY","Onshore,Onshore,Onshore,Onshore,Onshore",5
5842041f4e65fad6a7708ad0,2024_02_09,26.97679878167375,-80.08141631388132,Blowing Rocks,1.8,1.49184,1.7548000000000001,22,21,"NIGHT_MOSTLY_CLOUDY,NIGHT_OVERCAST,NIGHT_OVERCAST,NIGHT_DRIZZLE,MOSTLY_CLOUDY","Onshore,Onshore,Onshore,Onshore,Onshore",5
5842041f4e65fad6a7708ad2,2024_02_09,26.45661880078336,-80.05699952321751,Delray Beach,1,0.5029600000000001,0.80992,24,22,"NIGHT_MOSTLY_CLOUDY,NIGHT_MOSTLY_CLOUDY,NIGHT_MOSTLY_CLOUDY,MOSTLY_CLOUDY,CLEAR","Onshore,Onshore,Onshore,Onshore,Onshore",5
5842041f4e65fad6a7708ad3,2024_02_09,27.205685534312778,-80.16826629638672,Fletcher's,1.8,1.49184,1.7968,22,21,"NIGHT_MOSTLY_CLOUDY,NIGHT_OVERCAST,NIGHT_OVERCAST,NIGHT_CLOUDY,MOSTLY_CLOUDY","Onshore,Onshore,Onshore,Onshore,Onshore",5
5842041f4e65fad6a7708ad5,2024_02_09,26.5848450388814,-80.03649735753257,Lantana Public Beach,1.8,0.96696,1.3024,24,22,"NIGHT_MOSTLY_CLOUDY,NIGHT_CLOUDY,NIGHT_CLOUDY,MOSTLY_CLOUDY,MOSTLY_CLOUDY","Onshore,Onshore,Onshore,Onshore,Onshore",5
5842041f4e65fad6a7708ad6,2024_02_09,25.77468432731322,-80.12884045797499,5th Street,1,0.34,0.646,22.6,22.6,"NIGHT_MOSTLY_CLOUDY,NIGHT_MOSTLY_CLOUDY,NIGHT_BRIEF_SHOWERS,MOSTLY_CLEAR,CLEAR","Onshore,Onshore,Onshore,Onshore,Onshore",5
5842041f4e65fad6a7708ad7,2024_02_09,25.795157990715975,-80.12527585029602,21st Street,1,0.442,0.744,23,23,"NIGHT_MOSTLY_CLOUDY,NIGHT_MOSTLY_CLOUDY,NIGHT_BRIEF_SHOWERS,MOSTLY_CLEAR,CLEAR","Onshore,Onshore,Onshore,Onshore,Onshore",5
5842041f4e65fad6a7708ad8,2024_02_09,25.897806453088073,-80.1211827993393,Haulover Inlet (South Jetty),1,0.634,0.942,23,23,"NIGHT_MOSTLY_CLOUDY,NIGHT_CLEAR,NIGHT_MOSTLY_CLOUDY,BRIEF_SHOWERS,CLEAR","Onshore,Onshore,Onshore,Onshore,Onshore",5
5842041f4e65fad6a7708ad9,2024_02_09,25.90147392328634,-80.12110769748688,Haulover Inlet (North Jetty),1,0.516,0.824,23,23,"NIGHT_MOSTLY_CLOUDY,NIGHT_CLEAR,NIGHT_MOSTLY_CLOUDY,BRIEF_SHOWERS,CLEAR","Onshore,Onshore,Onshore,Onshore,Onshore",5
5842041f4e65fad6a7708ada,2024_02_09,25.87049374242476,-80.11828560342356,85th Street,1,0.486,0.792,23,23,"NIGHT_MOSTLY_CLOUDY,NIGHT_CLEAR,NIGHT_MOSTLY_CLOUDY,MOSTLY_CLEAR,CLEAR","Onshore,Onshore,Onshore,Onshore,Onshore",5
5842041f4e65fad6a7708adb,2024_02_09,26.25486382031396,-80.0805,Hillsboro Inlet,0.8,0.527346,0.884938,27,26,"NIGHT_MOSTLY_CLOUDY,NIGHT_MOSTLY_CLOUDY,NIGHT_MOSTLY_CLOUDY,MOSTLY_CLOUDY,BRIEF_SHOWERS","Onshore,Onshore,Onshore,Onshore,Onshore",5
5842041f4e65fad6a7708add,2024_02_09,26.29705672965111,-80.07612393274484,Hillsboro Beach,0.8,0.446,0.74896,27,26,"NIGHT_MOSTLY_CLOUDY,NIGHT_MOSTLY_CLOUDY,NIGHT_CLEAR,MOSTLY_CLOUDY,BRIEF_SHOWERS","Onshore,Onshore,Onshore,Onshore,Onshore",5
5842041f4e65fad6a7708ade,2024_02_09,26.36569956413266,-80.06717936869391,Red Reef Park,1.6,0.8349599999999999,1.04992,24,22,"NIGHT_OVERCAST,NIGHT_MOSTLY_CLOUDY,NIGHT_MOSTLY_CLOUDY,MOSTLY_CLOUDY,MOSTLY_CLEAR","Onshore,Onshore,Onshore,Onshore,Onshore",5
5842041f4e65fad6a7708adf,2024_02_09,26.54593873498907,-80.04104359585143,Boynton Beach Inlet (Northside),1.8,0.88296,1.0244,24,22,"NIGHT_MOSTLY_CLOUDY,NIGHT_OVERCAST,NIGHT_OVERCAST,MOSTLY_CLOUDY,MOSTLY_CLOUDY","Onshore,Onshore,Onshore,Onshore,Onshore",5
5842041f4e65fad6a7708ae0,2024_02_09,26.92746505629809,-80.06721138954163,Corners,1.766,1.2548251666666668,1.560304,24,22,"NIGHT_MOSTLY_CLOUDY,NIGHT_OVERCAST,NIGHT_DRIZZLE,NIGHT_DRIZZLE,MOSTLY_CLOUDY","Onshore,Onshore,Onshore,Onshore,Onshore",5
5842041f4e65fad6a7708ae1,2024_02_09,26.76983179886943,-80.03413481937037,The Cove,1.8,1.17088,1.47584,24,22,"NIGHT_MOSTLY_CLOUDY,NIGHT_OVERCAST,NIGHT_OVERCAST,NIGHT_MOSTLY_CLOUDY,MOSTLY_CLOUDY","Onshore,Onshore,Onshore,Onshore,Onshore",5
5842041f4e65fad6a7708ae3,2024_02_09,26.39224485175123,-80.0650461233983,Japanese Rock,0.8,0.71096,0.95792,24,22,"NIGHT_OVERCAST,NIGHT_MOSTLY_CLOUDY,NIGHT_MOSTLY_CLOUDY,MOSTLY_CLOUDY,MOSTLY_CLEAR","Onshore,Onshore,Onshore,Onshore,Onshore",5
5842041f4e65fad6a7708ae4,2024_02_09,29.94810928551321,-85.42545434612366,Mexico Beach,1,0,0.276,14,14,"NIGHT_MIST,NIGHT_MOSTLY_CLOUDY,NIGHT_MIST,NIGHT_MIST,MIST","Cross-shore,Offshore,Offshore,Offshore,Offshore",5
5842041f4e65fad6a7708ae5,2024_02_09,30.11752500931267,-85.7306039427457,Shell Island,1,0.03,0.336,15,15,"NIGHT_MIST,NIGHT_MIST,NIGHT_MIST,NIGHT_MIST,MIST","Onshore,Cross-shore,Cross-shore,Cross-shore,Cross-shore",5
5842041f4e65fad6a7708ae7,2024_02_09,29.94901514702268,-85.43042978529013,D.J.'s,1,0,0.276,14,14,"NIGHT_MIST,NIGHT_MOSTLY_CLOUDY,NIGHT_MIST,NIGHT_MIST,MIST","Onshore,Cross-shore,Cross-shore,Offshore,Offshore",5
5842041f4e65fad6a7708ae8,2024_02_09,30.12396111446713,-85.73636797034509,St. Andrew's Park,0.766,0.022,0.32896000000000003,16,14,"NIGHT_MIST,NIGHT_MIST,NIGHT_MIST,NIGHT_MIST,MIST","Cross-shore,Cross-shore,Cross-shore,Cross-shore,Offshore",5
5842041f4e65fad6a7708ae9,2024_02_09,30.16781531760227,-85.79604918824084,Spinnaker,0.766,0.088,0.39096,16,14,"NIGHT_MIST,NIGHT_MIST,NIGHT_MIST,NIGHT_MIST,MIST","Onshore,Onshore,Onshore,Cross-shore,Cross-shore",5
5842041f4e65fad6a7708aea,2024_02_09,30.18877050526983,-85.83243530466363,Wood Pier,0.8,0.15696000000000002,0.46192,16,14,"NIGHT_MIST,NIGHT_MIST,NIGHT_MIST,NIGHT_MIST,MIST","Onshore,Cross-shore,Cross-shore,Cross-shore,Cross-shore",5
5842041f4e65fad6a7708aeb,2024_02_09,30.2676205895555,-85.9938578144113,Inlet Beach Pier,1.6,0.18696000000000002,0.49192,16,14,"NIGHT_MIST,NIGHT_CLEAR,NIGHT_MIST,NIGHT_MIST,MIST","Onshore,Cross-shore,Cross-shore,Cross-shore,Cross-shore",5
5842041f4e65fad6a7708aec,2024_02_09,30.31815542759119,-86.1383771867044,Bud and Alley's,0.8,0.19696,0.50592,16,14,"NIGHT_CLEAR,NIGHT_CLEAR,NIGHT_MOSTLY_CLOUDY,NIGHT_MIST,MIST","Onshore,Onshore,Onshore,Cross-shore,Cross-shore",5
5842041f4e65fad6a7708aed,2024_02_09,30.32686082481946,-86.16650590275447,Grayton Beach,0.8,0.22496000000000002,0.5279200000000001,16,14,"NIGHT_CLEAR,NIGHT_CLEAR,NIGHT_MOSTLY_CLOUDY,NIGHT_MIST,MIST","Onshore,Onshore,Onshore,Cross-shore,Cross-shore",5
