_id,date,lat,lon,name,daily_mean_swell_rating,daily_mean_wave_height_min,daily_mean_wave_height_max,daily_mean_water_temperature_max,daily_mean_water_temperature_min,weather_per_timestamp,wind_per_timestamp,n_samples_per_day
5842041f4e65fad6a77087f9,2024_03_18,37.741668,-122.51038,South Ocean Beach,2,1.5978333333333332,1.9378,14,14,NIGHT_BRIEF_SHOWERS,Onshore,1
5842041f4e65fad6a7708801,2024_03_18,37.49142,-122.50428,Maverick's,NA,1.37,1.64,13,13,NIGHT_MOSTLY_CLOUDY,Onshore,1
5842041f4e65fad6a7708804,2024_03_18,44.997,-124.018,Roads End,2,0.99,1.3,11,11,NIGHT_MIST,Cross-shore,1
5842041f4e65fad6a7708805,2024_03_18,36.95188851423011,-122.02522,Steamer Lane,3,1.0511666666666666,1.3911333333333333,14,14,NIGHT_MOSTLY_CLOUDY,Offshore,1
5842041f4e65fad6a7708806,2024_03_18,36.95918781542251,-122.02489,Cowells,1,0.025399999999999978,0.27080000000000004,14,14,NIGHT_MOSTLY_CLOUDY,Offshore,1
5842041f4e65fad6a7708807,2024_03_18,36.95468082526536,-121.97234,Pleasure Point,3,1.0257666666666667,1.3809333333333336,14,14,NIGHT_MOSTLY_CLOUDY,Onshore,1
5842041f4e65fad6a770880a,2024_03_18,35.37815414378748,-120.86589,Morro Bay,4,1.2120333333333333,1.482,14,14,NIGHT_MOSTLY_CLEAR,Offshore,1
5842041f4e65fad6a770880b,2024_03_18,36.95782765000708,-121.9672887511276,Jack's,2,0.5033,0.8255666666666667,14,14,NIGHT_MOSTLY_CLOUDY,Onshore,1
5842041f4e65fad6a770880d,2024_03_18,34.29982939936656,-119.3489016603669,Gold Coast Beachbreaks,2,0.17,0.47,15,15,NIGHT_CLEAR,Cross-shore,1
5842041f4e65fad6a7708811,2024_03_18,34.245076,-119.26799,Ventura Harbor,3,0.8014991666666667,1.0827849999999999,14,14,NIGHT_MIST,Onshore,1
5842041f4e65fad6a7708813,2024_03_18,34.051,-118.964,County Line,3,0.48829999999999996,0.7987,15,15,NIGHT_CLEAR,Offshore,1
5842041f4e65fad6a7708814,2024_03_18,34.37256264378892,-119.47797,Rincon,2,0.23,0.54,15,15,NIGHT_CLEAR,Cross-shore,1
5842041f4e65fad6a7708817,2024_03_18,34.03096101876324,-118.68109,Malibu Third Point,3,0.33,0.63,15,15,NIGHT_MOSTLY_CLEAR,Onshore,1
5842041f4e65fad6a7708819,2024_03_18,33.984079047970035,-118.47381591796875,Venice Beach,3,0.4183,0.7178666666666667,14,14,NIGHT_MOSTLY_CLOUDY,Onshore,1
5842041f4e65fad6a770881e,2024_03_18,34.037508438646746,-118.58339846155594,Topanga Beach,2,0.24706666666666666,0.5474666666666668,15,15,NIGHT_MOSTLY_CLOUDY,Offshore,1
5842041f4e65fad6a7708820,2024_03_18,33.73954373690184,-118.11414,Seal Beach Jetty,2,0.25,0.55,15,15,NIGHT_MOSTLY_CLOUDY,Offshore,1
5842041f4e65fad6a7708822,2024_03_18,33.72309983348433,-118.08078,Anderson Street,2,0.14,0.44,15,15,NIGHT_MIST,Offshore,1
5842041f4e65fad6a7708827,2024_03_18,33.65574085629463,-118.00397,Huntington Beach Pier Northside,3,0.6637,0.9732666666666666,14,14,NIGHT_MIST,Offshore,1
5842041f4e65fad6a7708828,2024_03_18,34.272041739333,-119.29976,C St.,3,0.46663333333333334,0.7888999999999999,14,14,NIGHT_MIST,Offshore,1
5842041f4e65fad6a770882a,2024_03_18,33.61555743705257,-117.93676,Newport Lower Jetties,2,0.26206666666666667,0.5616333333333334,14,14,NIGHT_MIST,Offshore,1
5842041f4e65fad6a770882b,2024_03_18,33.5930302087,-117.88199,The Wedge,2,0.7384275,1.177495,14,14,NIGHT_MIST,Offshore,1
5842041f4e65fad6a770882c,2024_03_18,33.60577342582,-117.9315376281,Newport Beach Pier,2,0.10833333333333334,0.4179,14,14,NIGHT_MIST,Onshore,1
5842041f4e65fad6a770882e,2024_03_18,33.475793399792984,-117.72291,Salt Creek,3,0.5762,0.8984666666666666,15,15,NIGHT_MOSTLY_CLOUDY,Cross-shore,1
5842041f4e65fad6a7708830,2024_03_18,33.41800974113613,-117.61952,T-Street,3,0.5186999999999999,0.8291000000000001,16,16,NIGHT_MOSTLY_CLOUDY,Onshore,1
5842041f4e65fad6a7708832,2024_03_18,33.202391008646,-117.39475,Oceanside Harbor,3,0.6120333333333332,0.9116,16,16,NIGHT_CLEAR,Offshore,1
5842041f4e65fad6a7708835,2024_03_18,33.19477795952803,-117.38667,Oceanside Pier,3,0.5316333333333334,0.8438999999999999,16,16,NIGHT_CLEAR,Offshore,1
5842041f4e65fad6a7708837,2024_03_18,33.14948100706,-117.35029,Tamarack,3,0.35,0.66,15,15,NIGHT_CLEAR,Offshore,1
5842041f4e65fad6a7708839,2024_03_18,32.865777159358856,-117.25614295356122,Scripps,3,0.5974666666666666,0.9078666666666667,16,16,NIGHT_CLEAR,Offshore,1
5842041f4e65fad6a770883a,2024_03_18,32.813094,-117.27381,Birdrock,3,0.91,1.09,16,16,NIGHT_MOSTLY_CLOUDY,Cross-shore,1
5842041f4e65fad6a770883b,2024_03_18,32.877231,-117.25303,Blacks,3,0.9820333333333333,1.2034666666666667,16,16,NIGHT_CLEAR,Onshore,1
5842041f4e65fad6a770883c,2024_03_18,32.82978974229765,-117.28161740727381,Windansea,3,1.0037,1.1941,15,15,NIGHT_MOSTLY_CLOUDY,Offshore,1
5842041f4e65fad6a770883d,2024_03_18,32.838278,-117.28396,Horseshoe,3,0.99,1.18,16,16,NIGHT_MOSTLY_CLOUDY,Offshore,1
5842041f4e65fad6a770883f,2024_03_18,32.75034717673179,-117.25337,Ocean Beach,3,1.0145333333333333,1.2368,15,15,NIGHT_CLEAR,Offshore,1
5842041f4e65fad6a7708840,2024_03_18,32.73693,-117.25718,Sunset Cliffs,3,0.91,1.09,15,15,NIGHT_MOSTLY_CLOUDY,Offshore,1
5842041f4e65fad6a7708841,2024_03_18,32.796582258728826,-117.25779,Pacific Beach,3,0.9187000000000001,1.1091000000000002,15,15,NIGHT_CLEAR,Cross-shore,1
5842041f4e65fad6a7708842,2024_03_18,32.776636,-117.25514,Mission Beach,3,0.9303666666666667,1.1207666666666667,15,15,NIGHT_CLEAR,Offshore,1
5842041f4e65fad6a7708844,2024_03_18,32.577195519016,-117.13475,Imperial Beach Pier,3,0.94,1.12,15,15,NIGHT_MOSTLY_CLOUDY,Offshore,1
5842041f4e65fad6a770884a,2024_03_18,42.88678181061,-70.80843,Seabrook,2,0.36421,0.56907,4,3,NIGHT_CLEAR,Offshore,1
5842041f4e65fad6a770884e,2024_03_18,41.434181432898335,-71.45312118111178,Narragansett,2,0.6046,0.9094,6,4,NIGHT_MOSTLY_CLOUDY,Cross-shore,1
5842041f4e65fad6a7708850,2024_03_18,40.582703230722,-73.65247,Lincoln Blvd,1.5,0.35350000000000004,0.6683,7,6,NIGHT_CLEAR,Offshore,1
5842041f4e65fad6a7708852,2024_03_18,40.58342841721757,-73.81182,Rockaways,2,0.366,0.6633,7,6,NIGHT_CLEAR,Offshore,1
5842041f4e65fad6a7708853,2024_03_18,40.330474,-73.9734,Monmouth Beach,2,0.4,0.71,7,6,NIGHT_MOSTLY_CLOUDY,Offshore,1
5842041f4e65fad6a7708856,2024_03_18,40.113,-74.028,Manasquan Inlet,2,0.396,0.7008000000000001,7,6,NIGHT_MOSTLY_CLOUDY,Cross-shore,1
5842041f4e65fad6a7708857,2024_03_18,39.941519877445664,-74.06829,Casino Pier,2,0.39849999999999997,0.6958,7,6,NIGHT_CLEAR,Offshore,1
5842041f4e65fad6a7708858,2024_03_18,39.28223089949212,-74.55766,North End OC,1.5,0.09870000000000001,0.4059999999999999,8,6,NIGHT_CLEAR,Offshore,1
5842041f4e65fad6a770885b,2024_03_18,39.65080599934257,-74.17146,Ship Bottom,2,0.391,0.6983,8,6,NIGHT_CLEAR,Offshore,1
5842041f4e65fad6a7708863,2024_03_18,36.034151543144,-75.66791,Third Street,2,0.25,0.55,9,8,NIGHT_OVERCAST,Onshore,1
5842041f4e65fad6a7708867,2024_03_18,35.605833221351425,-75.46303,S-Turns,1,0.4037,0.7024,10,9,NIGHT_CLEAR,Offshore,1
5842041f4e65fad6a770886d,2024_03_18,38.338461,-75.08117,Ocean City Boardwalk,1.5,0.1137,0.4109999999999999,8,7,NIGHT_CLEAR,Cross-shore,1
5842041f4e65fad6a770886f,2024_03_18,29.844757212379562,-81.26136,A St.,2,0.03,0.33,18,18,NIGHT_CLEAR,Offshore,1
5842041f4e65fad6a7708871,2024_03_18,29.069417851135093,-80.90824,New Smyrna Beach,2,0.20370000000000002,0.5124,19,18,NIGHT_CLEAR,Offshore,1
5842041f4e65fad6a7708872,2024_03_18,28.367707417566,-80.60171,Cocoa Beach Pier,1,-0.0075,0.2973,23,21,NIGHT_CLEAR,Offshore,1
5842041f4e65fad6a7708873,2024_03_18,28.091782738658846,-80.56479,Indialantic,2,0.03,0.34,23,21,NIGHT_CLEAR,Offshore,1
5842041f4e65fad6a7708876,2024_03_18,27.25392904143517,-80.19455,Jensen Beach,2,0.06,0.3712,23,22,NIGHT_CLEAR,Offshore,1
5842041f4e65fad6a7708879,2024_03_18,26.76346795333825,-80.0360655784607,Reef Road,2,0.08249999999999999,0.38370000000000004,24,23,NIGHT_MIST,Offshore,1
5842041f4e65fad6a770887c,2024_03_18,26.336499228484,-80.06956100463,Boca Raton Inlet,1,0,0.26,25,23,NIGHT_CLEAR,Cross-shore,1
5842041f4e65fad6a770887d,2024_03_18,26.31719311695038,-80.07452525176168,Deerfield Beach Pier,0,0.06475249999999999,0.23553000000000002,25,23,NIGHT_CLEAR,Cross-shore,1
5842041f4e65fad6a7708881,2024_03_18,30.20276320866628,-85.85626528676136,"Spyglass Dr., Panama City",0,0,0.15080000000000002,18,18,NIGHT_CLEAR,Offshore,1
5842041f4e65fad6a7708884,2024_03_18,33.39000832738053,-117.59852,Cottons,3,0.5607666666666666,0.8603333333333333,16,16,NIGHT_MIST,Offshore,1
5842041f4e65fad6a7708885,2024_03_18,33.359416282661,-117.54167901405711,Trails,3,0.36,0.66,15,15,NIGHT_MOSTLY_CLOUDY,Offshore,1
5842041f4e65fad6a7708886,2024_03_18,33.38042605929805,-117.58332,Middles,3,0.5287,0.8282666666666667,16,16,NIGHT_MIST,Offshore,1
5842041f4e65fad6a7708887,2024_03_18,33.38445596302903,-117.59445,Upper Trestles,3,0.7091000000000001,1.0086666666666666,16,16,NIGHT_MIST,Offshore,1
5842041f4e65fad6a7708889,2024_03_18,28.944414,-95.28883,Surfside,2,0.4915,0.76797,19,19,NIGHT_OVERCAST,Offshore,1
5842041f4e65fad6a770888a,2024_03_18,33.38143999849023,-117.58843,Lower Trestles,3,0.7882666666666667,1.0978333333333334,16,16,NIGHT_MIST,Offshore,1
5842041f4e65fad6a770888b,2024_03_18,33.379622288757,-117.57894,Church,3,0.6778666666666666,0.9782666666666666,16,16,NIGHT_MIST,Offshore,1
5842041f4e65fad6a770888d,2024_03_18,21.679,-158.042,Sunset Beach,3,3.1,3.7,26,25,NIGHT_MOSTLY_CLOUDY,Offshore,1
5842041f4e65fad6a770888e,2024_03_18,21.670550036401,-158.0482,Rocky Point,3,2.96,3.53,26,25,NIGHT_CLEAR,Cross-shore,1
5842041f4e65fad6a770888f,2024_03_18,21.668,-158.05,Chambers,3,2.81,3.36,24,24,NIGHT_CLEAR,Cross-shore,1
5842041f4e65fad6a7708890,2024_03_18,21.66522,-158.0526,Pipeline,4,2.45,2.93,26,25,NIGHT_CLEAR,Cross-shore,1
5842041f4e65fad6a7708891,2024_03_18,21.665,-158.054,Backdoor,3,2.45,2.93,26,25,NIGHT_CLEAR,Cross-shore,1
5842041f4e65fad6a7708892,2024_03_18,21.662,-158.057,Rockpile,3,3.02,3.62,24,24,NIGHT_CLEAR,Cross-shore,1
5842041f4e65fad6a7708893,2024_03_18,21.65870453806827,-158.06058,Log Cabins,3,2.38,2.85,24,24,NIGHT_CLEAR,Cross-shore,1
5842041f4e65fad6a7708894,2024_03_18,21.66203493640557,-158.05495,Off-The-Wall,3,3.1,3.7,24,24,NIGHT_CLEAR,Cross-shore,1
5842041f4e65fad6a7708895,2024_03_18,21.643,-158.067,Waimea Bay,NA,2.98,3.57,26,25,NIGHT_CLEAR,Offshore,1
5842041f4e65fad6a7708896,2024_03_18,21.622,-158.087,Hultin's,3,2.74,3.28,26,25,NIGHT_MOSTLY_CLEAR,Offshore,1
5842041f4e65fad6a7708897,2024_03_18,21.623,-158.085,Jocko's,3,2.3,2.75,24,24,NIGHT_MOSTLY_CLEAR,Onshore,1
5842041f4e65fad6a7708898,2024_03_18,21.62,-158.088,Laniakea,3,2.23,2.66,26,25,NIGHT_MOSTLY_CLEAR,Cross-shore,1
5842041f4e65fad6a7708899,2024_03_18,21.625,-158.083,Chun's,3,2.31,2.76,24,24,NIGHT_MOSTLY_CLEAR,Offshore,1
5842041f4e65fad6a770889c,2024_03_18,21.286357895152136,-157.8515,South Shore - Ala Moana Park,3,0.68,0.98,24,24,NIGHT_CLEAR,Offshore,1
5842041f4e65fad6a770889d,2024_03_18,19.606,-155.978,Banyans,3,0.92,1.1,26,25,NIGHT_MOSTLY_CLEAR,Onshore,1
5842041f4e65fad6a770889e,2024_03_18,20.029,-155.831,Kawaihae,2,0.4444,0.68798,24,24,NIGHT_CLEAR,Offshore,1
5842041f4e65fad6a770889f,2024_03_18,33.07541383424675,-117.3105,Grandview,3,0.44,0.74,16,16,NIGHT_MOSTLY_CLOUDY,Cross-shore,1
5842041f4e65fad6a77088a0,2024_03_18,33.065267421296596,-117.30577,Beacons,3,0.42,0.73,16,16,NIGHT_MOSTLY_CLOUDY,Cross-shore,1
5842041f4e65fad6a77088a2,2024_03_18,21.252,-157.805,Diamond Head,3,0.70729,1.03254,26,25,NIGHT_MOSTLY_CLEAR,Offshore,1
5842041f4e65fad6a77088a3,2024_03_18,33.04694255008896,-117.29966,Moonlight State Beach,3,0.45,0.76,16,16,NIGHT_CLEAR,Cross-shore,1
5842041f4e65fad6a77088a5,2024_03_18,33.08685865930869,-117.31532,Ponto,3,0.6,0.91,16,16,NIGHT_MOSTLY_CLOUDY,Offshore,1
5842041f4e65fad6a77088a6,2024_03_18,33.130343587871906,-117.33667796442558,Terra Mar Point,3,0.37579999999999997,0.6753666666666667,16,16,NIGHT_CLEAR,Cross-shore,1
5842041f4e65fad6a77088af,2024_03_18,32.95916304183685,-117.26963,Del Mar,3,0.61,0.92,16,16,NIGHT_CLEAR,Onshore,1
5842041f4e65fad6a77088b0,2024_03_18,32.97527261243354,-117.2721061331305,Del Mar Rivermouth,3,0.61,0.92,16,16,NIGHT_CLEAR,Onshore,1
5842041f4e65fad6a77088b1,2024_03_18,33.01352178146273,-117.28219,Cardiff Reef,3,0.6520333333333332,0.9616,16,16,NIGHT_CLEAR,Offshore,1
5842041f4e65fad6a77088b3,2024_03_18,33.00211185876003,-117.2811,Seaside Reef,3,0.6445333333333334,0.9449333333333334,16,16,NIGHT_MOSTLY_CLOUDY,Offshore,1
5842041f4e65fad6a77088b4,2024_03_18,33.0341859796287,-117.29552,Swami's,3,0.6982999999999999,1.0114,16,16,NIGHT_CLEAR,Cross-shore,1
5842041f4e65fad6a77088b7,2024_03_18,33.04569760260221,-117.2994,D Street,3,0.56,0.86,16,16,NIGHT_CLEAR,Cross-shore,1
5842041f4e65fad6a77088b8,2024_03_18,33.02090944350196,-117.28535,San Elijo State Beach,3,0.39163333333333333,0.6920333333333334,16,16,NIGHT_CLEAR,Offshore,1
5842041f4e65fad6a77088c2,2024_03_18,32.80662846492798,-117.2688764333725,PB Point,3,0.61,0.92,15,15,NIGHT_MOSTLY_CLOUDY,Cross-shore,1
5842041f4e65fad6a77088c4,2024_03_18,32.8060476681448,-117.26479,Old Man's at Tourmaline,3,0.51,0.82,15,15,NIGHT_MOSTLY_CLOUDY,Cross-shore,1
5842041f4e65fad6a77088cb,2024_03_18,32.557056711256,-117.1327445020322,Tijuana Slough,2,0.39,0.69,15,15,NIGHT_MOSTLY_CLOUDY,Offshore,1
5842041f4e65fad6a77088cc,2024_03_18,32.863,-117.257,La Jolla Shores,3,0.51,0.81,16,16,NIGHT_CLEAR,Offshore,1
5842041f4e65fad6a77088ce,2024_03_18,32.67443657790586,-117.17421316238693,Coronado Beach,3,0.44,0.75,15,15,NIGHT_MOSTLY_CLOUDY,Onshore,1
5842041f4e65fad6a77088cf,2024_03_18,33.40484417640326,-117.60749,San Clemente State Beach,3,0.35,0.65,15,15,NIGHT_MOSTLY_CLOUDY,Onshore,1
5842041f4e65fad6a77088d5,2024_03_18,33.4663042002114,-117.7168352817103,Strands,3,0.5470333333333334,0.8601333333333333,15,15,NIGHT_MOSTLY_CLOUDY,Onshore,1
5842041f4e65fad6a77088d7,2024_03_18,33.4609858001748,-117.68535,Doheny State Beach,2,0.13540000000000002,0.43579999999999997,16,16,NIGHT_MOSTLY_CLOUDY,Offshore,1
5842041f4e65fad6a77088dc,2024_03_18,33.50894790083017,-117.75243,Aliso Creek,3,0.35,0.66,15,15,NIGHT_MOSTLY_CLOUDY,Cross-shore,1
5842041f4e65fad6a77088dd,2024_03_18,33.5326591767067,-117.77764,Brooks Street,2,0.2,0.51,15,15,NIGHT_MOSTLY_CLOUDY,Onshore,1
5842041f4e65fad6a77088de,2024_03_18,33.53561225884637,-117.7799,Thalia Street,2,0.26,0.57,15,15,NIGHT_MOSTLY_CLOUDY,Onshore,1
5842041f4e65fad6a77088e3,2024_03_18,33.54268310353641,-117.7916,Rockpile,3,0.4,0.71,15,15,NIGHT_MOSTLY_CLOUDY,Onshore,1
5842041f4e65fad6a77088e4,2024_03_18,33.7368459504689,-118.10342,"Seal Beach Pier, Southside",2,0.08,0.38,15,15,NIGHT_MOSTLY_CLOUDY,Offshore,1
5842041f4e65fad6a77088e5,2024_03_18,33.73933701820233,-118.117,Ray Bay,2,0.13,0.44,15,15,NIGHT_MOSTLY_CLOUDY,Offshore,1
5842041f4e65fad6a77088e7,2024_03_18,33.728733,-118.08982,Surfside,2,0.22,0.52,15,15,NIGHT_MIST,Offshore,1
5842041f4e65fad6a77088e8,2024_03_18,33.68760321488161,-118.04236,Bolsa Chica State Beach,2,0.48496666666666666,0.8080666666666667,14,14,NIGHT_MIST,Onshore,1
5842041f4e65fad6a77088ea,2024_03_18,33.66704400178788,-118.0192,North HB Streets,3,0.5316333333333334,0.8447333333333333,14,14,NIGHT_MIST,Onshore,1
5842041f4e65fad6a77088ed,2024_03_18,33.65475101379567,-118.00291,Huntington Beach Pier Southside,3,0.5653666666666668,0.8776333333333333,14,14,NIGHT_MIST,Cross-shore,1
5842041f4e65fad6a77088ee,2024_03_18,33.62778647706099,-117.95939,River Jetties,3,0.5245333333333333,0.8241,14,14,NIGHT_MIST,Cross-shore,1
5842041f4e65fad6a77088f2,2024_03_18,33.605165797643664,-117.92500376701355,Newport Point,3,0.65,0.95,15,15,NIGHT_MIST,Onshore,1
5842041f4e65fad6a77088f3,2024_03_18,33.58982984726977,-117.87713,Corona del Mar,1,0.18559,0.28999,15,15,NIGHT_MOSTLY_CLOUDY,Cross-shore,1
5842041f4e65fad6a77088f7,2024_03_18,34.00750300824362,-118.4971783496269,Santa Monica Pier,2,0.28,0.58,15,15,NIGHT_MOSTLY_CLOUDY,Onshore,1
5842041f4e65fad6a77088ff,2024_03_18,33.94070283102945,-118.44321,Dockweiler Beach,3,0.7281391666666667,0.9270041666666667,14,14,NIGHT_MOSTLY_CLOUDY,Onshore,1
5842041f4e65fad6a7708900,2024_03_18,33.9231846937237,-118.4341465777908,Shitpipe,2,0.3258,0.6362,14,14,NIGHT_MOSTLY_CLOUDY,Onshore,1
5842041f4e65fad6a7708902,2024_03_18,33.9108528052242,-118.4279133138721,Hammerland,3,0.4353666666666667,0.7357666666666667,14,14,NIGHT_MOSTLY_CLOUDY,Onshore,1
5842041f4e65fad6a7708904,2024_03_18,33.87201368173932,-118.4075151286262,Hermosa Beach,3,0.32746666666666663,0.6370333333333333,14,14,NIGHT_BRIEF_SHOWERS,Onshore,1
5842041f4e65fad6a7708906,2024_03_18,33.90129336911256,-118.42184,El Porto,3,0.6845333333333334,0.9849333333333333,14,14,NIGHT_MOSTLY_CLOUDY,Onshore,1
5842041f4e65fad6a7708907,2024_03_18,33.87963506431794,-118.41102,Manhattan Beach Pier,3,0.5033,0.8137000000000001,14,14,NIGHT_MOSTLY_CLOUDY,Onshore,1
5842041f4e65fad6a7708914,2024_03_18,34.038053387863464,-118.5532,Sunset Point,2,0.13,0.43,15,15,NIGHT_CLEAR,Cross-shore,1
5842041f4e65fad6a7708920,2024_03_18,33.80930828074364,-118.3933198342649,Haggerty's,1,0.048,0.234,16,16,NIGHT_MOSTLY_CLOUDY,Cross-shore,1
5842041f4e65fad6a7708921,2024_03_18,33.85044519861206,-118.40048,Redondo Breakwater,2,0.39,0.69,16,16,NIGHT_BRIEF_SHOWERS,Onshore,1
5842041f4e65fad6a7708927,2024_03_18,33.70877301002487,-118.2840112858389,Cabrillo Beach,1,0,0.27,15,15,NIGHT_CLEAR,Cross-shore,1
5842041f4e65fad6a770892c,2024_03_18,33.77209986806257,-118.4268428476672,Lunada Bay,2,0.4,0.7,15,15,NIGHT_BRIEF_SHOWERS,Onshore,1
5842041f4e65fad6a770892d,2024_03_18,33.79294656286144,-118.4070316699825,PV Cove,2,0.49487,0.75267,16,16,NIGHT_MOSTLY_CLOUDY,Cross-shore,1
5842041f4e65fad6a7708930,2024_03_18,34.03944902292561,-118.57539,Chart House,1,0.05,0.35,15,15,NIGHT_MOSTLY_CLOUDY,Offshore,1
5842041f4e65fad6a7708936,2024_03_18,34.0016731994772,-118.80456,Point Dume,2,0.20206666666666667,0.5016333333333334,15,15,NIGHT_MIST,Onshore,1
5842041f4e65fad6a7708937,2024_03_18,34.02587527588963,-118.7554939066114,Latigo Point,2,0.28,0.58,14,14,NIGHT_CLEAR,Onshore,1
5842041f4e65fad6a770893f,2024_03_18,34.043762,-118.93294,Leo Carrillo,2,0.46830000000000005,0.7778666666666667,15,15,NIGHT_CLEAR,Offshore,1
5842041f4e65fad6a7708941,2024_03_18,36.69388179265737,-121.81289,Marina State Beach,3,1.05,1.35,14,14,NIGHT_CLEAR,Onshore,1
5842041f4e65fad6a7708944,2024_03_18,34.34145077331085,-119.416999352654,Stanley's,2,0.16,0.47,15,15,NIGHT_CLEAR,Offshore,1
5842041f4e65fad6a7708945,2024_03_18,34.35113017313915,-119.426921498899,Oil Piers,2,0.19,0.49,15,15,NIGHT_CLEAR,Offshore,1
5842041f4e65fad6a770894c,2024_03_18,34.17876333306018,-119.2399483564372,Oxnard,3,0.63,0.93,15,15,NIGHT_CLEAR,Offshore,1
5842041f4e65fad6a7708957,2024_03_18,34.31720331100517,-119.3882324751725,Pitas Point,2,0.2,0.5,15,15,NIGHT_MIST,Offshore,1
5842041f4e65fad6a7708959,2024_03_18,34.27851754384724,-119.316202617226,Emma Wood,2,0.16,0.47,15,15,NIGHT_MIST,Offshore,1
5842041f4e65fad6a770895a,2024_03_18,34.35513640390276,-119.4400589884255,Mussel Shoals (aka Little Rincon),2,0.21,0.51,15,15,NIGHT_CLEAR,Offshore,1
5842041f4e65fad6a770895e,2024_03_18,34.28991757054902,-119.3366646794652,Summer Beach,2,0.15,0.45,15,15,NIGHT_MIST,Offshore,1
5842041f4e65fad6a770895f,2024_03_18,34.30897456105926,-119.3582501170116,Solimar,2,0.14,0.44,15,15,NIGHT_MIST,Offshore,1
5842041f4e65fad6a7708960,2024_03_18,34.39836265281686,-119.70213,Leadbetter Point,1,0,0.21,14,14,NIGHT_MIST,Offshore,1
5842041f4e65fad6a7708961,2024_03_18,34.46052293893899,-120.07328,Refugio,2,0.01,0.32,13,13,NIGHT_CLEAR,Cross-shore,1
5842041f4e65fad6a7708962,2024_03_18,34.40754276777778,-119.87639,Devereux,2,0.19,0.49,14,14,NIGHT_MIST,Onshore,1
5842041f4e65fad6a7708963,2024_03_18,34.27479983305182,-119.3133222656776,Ventura Overhead,2,0.19,0.49,15,15,NIGHT_MIST,Offshore,1
5842041f4e65fad6a7708964,2024_03_18,34.41023236011655,-119.88261,Sands,2,0.2,0.5,14,14,NIGHT_MIST,Cross-shore,1
5842041f4e65fad6a7708966,2024_03_18,34.40450193869233,-119.68752,Sandspit,0,0,0.14,14,14,NIGHT_MIST,Offshore,1
5842041f4e65fad6a7708967,2024_03_18,34.41549098334453,-119.6375149840203,Hammond's,1,0,0.18,14,14,NIGHT_MIST,Cross-shore,1
5842041f4e65fad6a7708968,2024_03_18,34.45759322742309,-120.0220251867315,El Capitan,2,0.05,0.36,13,13,NIGHT_CLEAR,Onshore,1
5842041f4e65fad6a770896c,2024_03_18,34.405117655616,-119.84317,Campus Point,1,0,0.28,14,14,NIGHT_CLEAR,Onshore,1
5842041f4e65fad6a770896e,2024_03_18,34.38935162233354,-119.51955,Carpinteria State Beach,2,0.13,0.43,15,15,NIGHT_CLEAR,Offshore,1
5842041f4e65fad6a770896f,2024_03_18,37.48296565175612,-122.4549300127824,Half Moon Bay,3,0.7,1.01,14,14,NIGHT_MOSTLY_CLOUDY,Onshore,1
5842041f4e65fad6a7708970,2024_03_18,37.499,-122.471,Princeton Jetty,3,0.96,1.15,14,14,NIGHT_MOSTLY_CLOUDY,Onshore,1
5842041f4e65fad6a7708972,2024_03_18,37.35699547365155,-122.4069534707252,Tunitas Creek,3,1.41,1.68,14,14,NIGHT_MOSTLY_CLOUDY,Cross-shore,1
5842041f4e65fad6a7708974,2024_03_18,37.54735589428842,-122.5161090212687,Montara,3,0.99,1.29,14,14,NIGHT_BRIEF_SHOWERS,Cross-shore,1
5842041f4e65fad6a7708975,2024_03_18,34.3869373724559,-119.5142334209018,Tarpits,2,0.1,0.41,15,15,NIGHT_CLEAR,Cross-shore,1
5842041f4e65fad6a7708976,2024_03_18,37.59881852720143,-122.50463,Pacifica / Linda Mar,2,0.3949666666666667,0.6945333333333333,14,14,NIGHT_BRIEF_SHOWERS,Onshore,1
5842041f4e65fad6a7708978,2024_03_18,37.59883098461164,-122.5143843582282,Pedro Point,2,1.04,1.25,14,14,NIGHT_MIST,Cross-shore,1
5842041f4e65fad6a7708979,2024_03_18,37.61081996647663,-122.4973287570634,Rockaway,2,0.99,1.29,14,14,NIGHT_BRIEF_SHOWERS,Onshore,1
5842041f4e65fad6a770897a,2024_03_18,37.809987384424446,-122.4751353263855,Fort Point,1,0.52,0.82,14,14,NIGHT_BRIEF_SHOWERS,Cross-shore,1
5842041f4e65fad6a770897c,2024_03_18,37.63422542967464,-122.4951,Sharp Park,2,1.18,1.41,14,14,NIGHT_BRIEF_SHOWERS,Onshore,1
5842041f4e65fad6a770897d,2024_03_18,37.27313605072472,-122.4127387912554,Pescadero,3,1.23,1.47,14,14,NIGHT_MIST,Cross-shore,1
5842041f4e65fad6a770897e,2024_03_18,37.18140279972666,-122.3926685899327,Pigeon Point,4,1.36,1.63,14,14,NIGHT_BRIEF_SHOWERS,Offshore,1
5842041f4e65fad6a770897f,2024_03_18,37.11578956919415,-122.314699271291,Ano Nuevo,4,1.16,1.39,13,13,NIGHT_CLEAR,Offshore,1
5842041f4e65fad6a7708980,2024_03_18,37.09520872681598,-122.2805474707768,Waddell Creek,3,1.2,1.43,13,13,NIGHT_CLEAR,Onshore,1
5842041f4e65fad6a7708981,2024_03_18,36.96512852130351,-122.1252825495626,Four Mile,4,1.23,1.47,13,13,NIGHT_MOSTLY_CLOUDY,Onshore,1
5842041f4e65fad6a7708982,2024_03_18,37.04122807048655,-122.2333684729756,Scott Creek,3,1.16,1.39,13,13,NIGHT_CLEAR,Onshore,1
5842041f4e65fad6a7708983,2024_03_18,37.02350229387179,-122.21908,Davenport,4,1.36,1.63,13,13,NIGHT_CLEAR,Onshore,1
5842041f4e65fad6a7708986,2024_03_18,36.94905295955728,-122.0611823912244,Natural Bridges,3,1.02,1.33,14,14,NIGHT_CLEAR,Offshore,1
5842041f4e65fad6a7708987,2024_03_18,36.95154854910425,-122.0420693940968,Mitchell's Cove,3,1.01,1.21,14,14,NIGHT_MOSTLY_CLOUDY,Cross-shore,1
5842041f4e65fad6a770898a,2024_03_18,36.9572312370203,-121.98177,26th Ave,3,1.21,1.45,14,14,NIGHT_MOSTLY_CLOUDY,Offshore,1
5842041f4e65fad6a770898e,2024_03_18,36.91899972819882,-121.85536,Manresa,3,1.06,1.26,14,14,NIGHT_MIST,Offshore,1
5842041f4e65fad6a7708990,2024_03_18,34.45747731928454,-120.34242,The Ranch,2,0.35,0.65,13,13,NIGHT_CLEAR,Offshore,1
5842041f4e65fad6a7708991,2024_03_18,34.50875036590315,-120.50348,Jalama,3,0.96,1.14,13,13,NIGHT_CLEAR,Offshore,1
5842041f4e65fad6a7708996,2024_03_18,34.68700870220497,-120.6111611019887,Surf Beach,3,1.79,2.14,13,13,NIGHT_MIST,Cross-shore,1
5842041f4e65fad6a770899c,2024_03_18,35.5730538161116,-121.1143362345574,Moonstone,3,1.31,1.57,13,13,NIGHT_CLEAR,Onshore,1
5842041f4e65fad6a770899d,2024_03_18,35.61533716776573,-121.1502053073914,Pico Creek,3,0.98,1.17,13,13,NIGHT_CLEAR,Offshore,1
5842041f4e65fad6a770899e,2024_03_18,35.56829031927379,-121.1120653023953,Santa Rosa Creek,3,1.31,1.57,13,13,NIGHT_CLEAR,Onshore,1
5842041f4e65fad6a77089a2,2024_03_18,35.44820114936284,-120.90715,"Cayucos Pier, Southside ",3,0.49,0.79,13,13,NIGHT_CLEAR,Offshore,1
5842041f4e65fad6a77089a4,2024_03_18,35.30143372628852,-120.877819239902,Cable Landing,3,1.69,2.03,13,13,NIGHT_CLEAR,Onshore,1
5842041f4e65fad6a77089a9,2024_03_18,35.61269103500222,-121.1480725356606,San Simeon,3,0.658,0.784,13,13,NIGHT_MIST,Offshore,1
5842041f4e65fad6a77089ab,2024_03_18,35.1775325966252,-120.7341125142258,Avila Beach,2,0.07,0.38,13,13,NIGHT_CLEAR,Offshore,1
5842041f4e65fad6a77089ac,2024_03_18,35.13877877884115,-120.64535,Pismo Beach Pier,3,1.0412000000000001,1.2726333333333333,14,14,NIGHT_CLEAR,Cross-shore,1
5842041f4e65fad6a77089ad,2024_03_18,46.8907710233147,-124.12964,Westport/Olympic Peninsula,3,1.04,1.25,9,9,NIGHT_CLEAR,Cross-shore,1
5842041f4e65fad6a77089ae,2024_03_18,46.35185177248545,-124.06747,Long Beach Peninsula,3,1.34,1.65,9,9,NIGHT_MIST,Cross-shore,1
5842041f4e65fad6a77089af,2024_03_18,47.90649175554033,-124.6370864743483,La Push,3,1.22,1.46,9,9,NIGHT_MIST,Offshore,1
5842041f4e65fad6a77089b0,2024_03_18,42.04368239985442,-124.26828,Brookings Jetty,3,0.76022,1.18784,11,11,NIGHT_BRIEF_SHOWERS,Onshore,1
5842041f4e65fad6a77089b1,2024_03_18,42.74071837900346,-124.4983727491047,Port Orford,3,0.92,1.1,11,11,NIGHT_CLEAR,Offshore,1
5842041f4e65fad6a77089b2,2024_03_18,44.01532689312291,-124.13865,Florence South Jetty,3,1.37,1.64,11,11,NIGHT_CLEAR,Cross-shore,1
5842041f4e65fad6a77089b3,2024_03_18,42.41812540774362,-124.42945,Gold Beach South Jetty,4,1.31,1.57,11,11,NIGHT_CLEAR,Offshore,1
5842041f4e65fad6a77089b4,2024_03_18,44.95857310226525,-124.0219017690976,Lincoln City,3,1.24,1.48,11,11,NIGHT_CLEAR,Cross-shore,1
5842041f4e65fad6a77089b5,2024_03_18,44.63792761362982,-124.0657,Newport,3,1.34,1.64,11,11,NIGHT_MIST,Cross-shore,1
5842041f4e65fad6a77089b6,2024_03_18,45.61468496266301,-123.94643,Rockaway Beach,4,1.28,1.53,10,10,NIGHT_MIST,Cross-shore,1
5842041f4e65fad6a77089b7,2024_03_18,45.20252914186085,-123.96975,Pacific City,4,1.2,1.43,10,10,NIGHT_CLEAR,Offshore,1
5842041f4e65fad6a77089b8,2024_03_18,45.88179930310263,-123.96681,Cannon Beach,4,1.29,1.55,9,9,NIGHT_CLEAR,Offshore,1
5842041f4e65fad6a77089ba,2024_03_18,40.02528754746774,-124.06372,Shelter Cove,3,0.45659,0.71342,11,11,NIGHT_CLEAR,Cross-shore,1
5842041f4e65fad6a77089bb,2024_03_18,40.76816197136951,-124.24248,Humboldt Harbor Entrance,3,1.55,1.86,12,12,NIGHT_MIST,Cross-shore,1
5842041f4e65fad6a77089bc,2024_03_18,40.76684246920174,-124.23107,North Jetty,3,1.55,1.85,12,12,NIGHT_MIST,Cross-shore,1
5842041f4e65fad6a77089bd,2024_03_18,41.02731183893966,-124.1149972888982,Westhaven,3,2.01,2.41,11,11,NIGHT_MOSTLY_CLOUDY,Onshore,1
5842041f4e65fad6a77089be,2024_03_18,41.13016238153297,-124.16466,Sue-meg,3,1.28,1.53,11,11,NIGHT_BRIEF_SHOWERS,Onshore,1
5842041f4e65fad6a77089bf,2024_03_18,37.8289474958188,-122.5376795097543,Fort Cronkite/Rodeo Beach,2,1.4,1.68,14,14,NIGHT_MIST,Onshore,1
5842041f4e65fad6a77089c0,2024_03_18,41.74415759876137,-124.17717,South Beach CA,3,0.9,1.08,11,11,NIGHT_MIST,Onshore,1
5842041f4e65fad6a77089c1,2024_03_18,37.89801283969752,-122.64519,Stinson Beach,3,0.3,0.61,14,14,NIGHT_CLEAR,Cross-shore,1
5842041f4e65fad6a77089c2,2024_03_18,37.90514516176495,-122.68151,Bolinas,3,0.52941,0.8272,14,14,NIGHT_MOSTLY_CLOUDY,Onshore,1
5842041f4e65fad6a77089c3,2024_03_18,38.04892513158693,-122.9892494965416,Point Reyes (north),2,1.64,1.96,13,13,NIGHT_MIST,Onshore,1
5842041f4e65fad6a77089c6,2024_03_18,38.31088736605785,-123.0496777333731,Doran Beach,2,0.28,0.59,13,13,NIGHT_MOSTLY_CLOUDY,Onshore,1
5842041f4e65fad6a77089c7,2024_03_18,38.45077228660809,-123.13008,Russian Rivermouth,3,1.25,1.5,13,13,NIGHT_CLEAR,Offshore,1
5842041f4e65fad6a77089c8,2024_03_18,38.35329968518107,-123.06906,Salmon Creek,3,1.2,1.44,13,13,NIGHT_CLEAR,Cross-shore,1
5842041f4e65fad6a77089c9,2024_03_18,38.6845180197959,-123.4322714291198,Black Point Beach,3,1.04,1.25,12,12,NIGHT_CLEAR,Onshore,1
5842041f4e65fad6a77089ca,2024_03_18,43.251076,-70.59144,Ogunquit,2,0.41,0.71,4,3,NIGHT_CLEAR,Offshore,1
5842041f4e65fad6a77089cb,2024_03_18,41.362631366305415,-71.48006772942608,Point Judith,3,0.6271,0.97,6,4,NIGHT_CLEAR,Offshore,1
5842041f4e65fad6a77089cd,2024_03_18,41.422678090954726,-71.45413,Monahan's - Narragansett,2,0.24795,0.38743,5,5,NIGHT_MOSTLY_CLOUDY,Offshore,1
5842041f4e65fad6a77089ce,2024_03_18,41.469,-71.293,Ruggles - Newport,3,0.71548,1.11794,5,5,NIGHT_CLEAR,Onshore,1
5842041f4e65fad6a77089cf,2024_03_18,43.175394,-70.606351,Short Sands Beach,2,0.44,0.74,5,5,NIGHT_CLEAR,Offshore,1
5842041f4e65fad6a77089d0,2024_03_18,41.487408,-71.29017,First Beach,2,0.37,0.68,5,5,NIGHT_CLEAR,Onshore,1
5842041f4e65fad6a77089d1,2024_03_18,42.27916830233153,-70.86498,Nantasket Beach,2,0.16,0.46,4,3,NIGHT_CLEAR,Offshore,1
5842041f4e65fad6a77089d2,2024_03_18,41.817,-69.935,Cape Cod,2,0.17,0.47,5,5,NIGHT_CLEAR,Offshore,1
5842041f4e65fad6a77089d3,2024_03_18,42.22055448975661,-70.70634873403819,Egypt Beach,2,0.17,0.48,5,5,NIGHT_CLEAR,Offshore,1
5842041f4e65fad6a77089d4,2024_03_18,41.48739647744607,-71.25723,Second Beach,2,0.46292,0.72332,6,4,NIGHT_CLEAR,Onshore,1
5842041f4e65fad6a77089d5,2024_03_18,42.964,-70.769,Fox Hill,2,0.21,0.51,4,3,NIGHT_CLEAR,Offshore,1
5842041f4e65fad6a77089d6,2024_03_18,42.991359,-70.75149,Straws Point,1,0.18,0.48,4,3,NIGHT_CLEAR,Offshore,1
5842041f4e65fad6a77089d7,2024_03_18,42.946,-70.786,Plaice Cove,2,0.21,0.51,4,3,NIGHT_CLEAR,Offshore,1
5842041f4e65fad6a77089d9,2024_03_18,42.911574,-70.80831,The Main Beach,0,0.033165,0.313755,4,3,NIGHT_CLEAR,Cross-shore,1
5842041f4e65fad6a77089da,2024_03_18,42.97583846220203,-70.764,Sawyer's Beach,2,0.17,0.48,4,3,NIGHT_CLEAR,Offshore,1
5842041f4e65fad6a77089db,2024_03_18,42.97,-70.77,Rye on the Rocks / 5-0's,0,0.06454500000000002,0.36935250000000003,4,3,NIGHT_CLEAR,Offshore,1
5842041f4e65fad6a77089dc,2024_03_18,43.55902946610303,-70.27795,Higgins Beach,2,0.6633,0.9706,4,3,NIGHT_CLEAR,Cross-shore,1
5842041f4e65fad6a77089dd,2024_03_18,43.302676,-70.5652,Wells Beach,2,0.32,0.63,4,3,NIGHT_CLEAR,Offshore,1
5842041f4e65fad6a77089de,2024_03_18,43.545359,-70.30479,Scarborough Beach State Park,2,0.56094,0.87647,4,3,NIGHT_CLEAR,Cross-shore,1
5842041f4e65fad6a77089df,2024_03_18,43.514481,-70.372146,Old Orchard Beach,2,0.3735,0.7189,4,3,NIGHT_CLEAR,Offshore,1
5842041f4e65fad6a77089e0,2024_03_18,43.34711,-70.48165,Gooch's Beach,1,0.34,0.64,4,3,NIGHT_CLEAR,Cross-shore,1
5842041f4e65fad6a77089e2,2024_03_18,40.58433,-73.62953,Lido Beach,1.5,0.366,0.6608,7,6,NIGHT_MOSTLY_CLEAR,Offshore,1
5842041f4e65fad6a77089e3,2024_03_18,43.163135,-70.61689,Long Sands Beach,2,0.35546000000000005,0.6839875,4,3,NIGHT_CLEAR,Cross-shore,1
5842041f4e65fad6a77089e4,2024_03_18,40.61695351251805,-73.39376,Gilgo Beach,2,0.44,0.75,5,4,NIGHT_CLEAR,Offshore,1
5842041f4e65fad6a77089e5,2024_03_18,40.62530081928036,-73.23827,Robert Moses,2,0.32,0.63,7,7,NIGHT_CLEAR,Offshore,1
5842041f4e65fad6a77089e6,2024_03_18,40.64313317632791,-73.15727,Fire Island,2,0.32,0.63,7,7,NIGHT_CLEAR,Offshore,1
5842041f4e65fad6a77089e8,2024_03_18,40.76653118828782,-72.74579619372713,Cupsogue,3,0.77,1.07,7,7,NIGHT_CLEAR,Offshore,1
5842041f4e65fad6a77089e9,2024_03_18,42.9376373334092,-70.79141,The Wall ,0,0.09029500000000007,0.40302750000000004,4,3,NIGHT_CLEAR,Offshore,1
5842041f4e65fad6a77089ea,2024_03_18,40.887088,-72.33856,Flys,2,0.66,0.96,7,7,NIGHT_MOSTLY_CLOUDY,Cross-shore,1
5842041f4e65fad6a77089eb,2024_03_18,41.0389266436591,-71.91068529316958,Trailer Park,2,0.6798375,1.02075,5,4,NIGHT_MOSTLY_CLOUDY,Onshore,1
5842041f4e65fad6a77089ec,2024_03_18,41.039505402729105,-71.9142,Ditch Plains,2,0.64998,1.01559,6,6,NIGHT_MOSTLY_CLOUDY,Onshore,1
5842041f4e65fad6a77089ee,2024_03_18,40.57633275206492,-73.56895305108567,"West End, Jones Beach",2,0.46,0.76,7,6,NIGHT_MOSTLY_CLEAR,Offshore,1
5842041f4e65fad6a77089f1,2024_03_18,41.038286691230795,-71.91991567611694,Poles,2,0.68075,1.026175,5,4,NIGHT_MOSTLY_CLOUDY,Onshore,1
5842041f4e65fad6a77089f3,2024_03_18,40.84077769766295,-72.47989493724765,The Bowl,2,0.66,0.97,7,7,NIGHT_CLEAR,Cross-shore,1
5842041f4e65fad6a77089f4,2024_03_18,40.94235535243154,-72.19286,Main Beach,2,0.66,0.96,13,12,NIGHT_CLEAR,Onshore,1
5842041f4e65fad6a77089f5,2024_03_18,40.58270702399518,-73.67251552079799,Laurelton Blvd.,1.5,0.3687450000000001,0.673545,7,6,NIGHT_CLEAR,Offshore,1
5842041f4e65fad6a77089f6,2024_03_18,41.033752854071416,-71.93695522488403,Terrace,2,0.6883,1.0312,5,4,NIGHT_MOSTLY_CLOUDY,Onshore,1
5842041f4e65fad6a77089f7,2024_03_18,40.83372943645748,-72.50426173210144,K Road,2,0.74,1.04,7,7,NIGHT_MOSTLY_CLOUDY,Cross-shore,1
5842041f4e65fad6a77089f8,2024_03_18,40.58456099581507,-73.80730032920837,84th Street,2,0.36350000000000005,0.6783,7,6,NIGHT_CLEAR,Offshore,1
5842041f4e65fad6a77089fa,2024_03_18,40.1319,-74.02788,Sea Girt,1,0.25,0.56,7,6,NIGHT_MOSTLY_CLOUDY,Cross-shore,1
5842041f4e65fad6a77089fb,2024_03_18,40.54698301868125,-73.9268,Breezy Point,1,0.24,0.54,7,7,NIGHT_CLEAR,Offshore,1
5842041f4e65fad6a77089fc,2024_03_18,40.152504,-74.021383,Spring Lake,2,0.24,0.55,7,6,NIGHT_MOSTLY_CLOUDY,Cross-shore,1
5842041f4e65fad6a77089fd,2024_03_18,40.591277,-73.770792,30th - 39th Streets,2,0.26,0.57,7,6,NIGHT_CLEAR,Offshore,1
5842041f4e65fad6a77089fe,2024_03_18,40.18834955871439,-74.00860982500222,Avon,1,0.22,0.53,7,6,NIGHT_MOSTLY_CLOUDY,Cross-shore,1
5842041f4e65fad6a77089ff,2024_03_18,40.1974229100932,-74.00650533798255,Bradley Beach,2,0.25,0.56,7,6,NIGHT_MOSTLY_CLOUDY,Offshore,1
5842041f4e65fad6a7708a01,2024_03_18,40.17202,-74.01503,"16th Ave., Belmar",2,0.16990000000000005,0.47470000000000007,7,6,NIGHT_MOSTLY_CLOUDY,Offshore,1
5842041f4e65fad6a7708a02,2024_03_18,40.217443,-73.99982,Asbury Park,2,0.27,0.57,7,6,NIGHT_MOSTLY_CLOUDY,Offshore,1
5842041f4e65fad6a7708a03,2024_03_18,40.229841,-73.996782,Loch Arbour and Deal,2,0.24,0.54,7,6,NIGHT_MOSTLY_CLOUDY,Offshore,1
5842041f4e65fad6a7708a05,2024_03_18,40.41754,-73.97935,Sandy Hook,1,0.05,0.36,7,7,NIGHT_CLEAR,Offshore,1
5842041f4e65fad6a7708a06,2024_03_18,39.36353,-74.40873,Crystals,2,0.48205,0.75321,8,6,NIGHT_CLEAR,Offshore,1
5842041f4e65fad6a7708a07,2024_03_18,39.31443,-74.51863,32nd Street,1,0.08373499999999995,0.39276999999999995,8,6,NIGHT_CLEAR,Offshore,1
5842041f4e65fad6a7708a08,2024_03_18,39.327688,-74.49524,Margate Pier Northside,1,0.08373499999999995,0.39276999999999995,8,6,NIGHT_CLEAR,Offshore,1
5842041f4e65fad6a7708a09,2024_03_18,39.336276,-74.47782,Ventnor Pier,2,0.44854,0.70085,8,6,NIGHT_CLEAR,Offshore,1
5842041f4e65fad6a7708a0a,2024_03_18,39.35929751441085,-74.41683,States Avenue,2,0.48205,0.75321,8,6,NIGHT_CLEAR,Offshore,1
5842041f4e65fad6a7708a0b,2024_03_18,39.37274173278517,-74.40454,Brigantine Jetty,2,0.51485,0.80445,8,6,NIGHT_CLEAR,Offshore,1
5842041f4e65fad6a7708a0c,2024_03_18,39.356505,-74.42263,South Carolina Avenue,2,0.51485,0.80445,8,6,NIGHT_CLEAR,Offshore,1
5842041f4e65fad6a7708a0d,2024_03_18,39.413485,-74.35476,14th Street North,2,0.12,0.42,8,6,NIGHT_CLEAR,Offshore,1
5842041f4e65fad6a7708a0e,2024_03_18,39.531319,-74.263252,The Wooden Jetty,2,0.38646250000000004,0.683985,8,6,NIGHT_CLEAR,Offshore,1
5842041f4e65fad6a7708a0f,2024_03_18,39.552472,-74.24344,Holyoke,2,0.4049175,0.7231700000000001,8,6,NIGHT_CLEAR,Offshore,1
5842041f4e65fad6a7708a10,2024_03_18,39.692364,-74.14068,Hudson Ave.,2,0.3885,0.7033,8,6,NIGHT_CLEAR,Offshore,1
5842041f4e65fad6a7708a11,2024_03_18,39.79614,-74.09248,Island Beach State Park,2,0.28,0.58,7,6,NIGHT_CLEAR,Offshore,1
5842041f4e65fad6a7708a12,2024_03_18,39.91813588078152,-74.07527,Seaside Park,1,0.22,0.52,7,6,NIGHT_MOSTLY_CLEAR,Cross-shore,1
5842041f4e65fad6a7708a14,2024_03_18,39.946638,-74.06884,Seaside Heights,2,0.24,0.55,7,6,NIGHT_CLEAR,Offshore,1
5842041f4e65fad6a7708a15,2024_03_18,39.95745637606704,-74.06736,Ortley Beach,2,0.21,0.51,7,6,NIGHT_CLEAR,Offshore,1
5842041f4e65fad6a7708a16,2024_03_18,39.98313468342945,-74.06265685577506,Lavallette,2,0.24,0.55,7,6,NIGHT_CLEAR,Offshore,1
5842041f4e65fad6a7708a17,2024_03_18,40.0699319967757,-74.04144910856634,Bay Head,2,0.24,0.55,7,6,NIGHT_MOSTLY_CLOUDY,Offshore,1
5842041f4e65fad6a7708a18,2024_03_18,40.094041,-74.034859,Jenkinson's,1,0.23,0.54,7,6,NIGHT_MOSTLY_CLOUDY,Cross-shore,1
5842041f4e65fad6a7708a1a,2024_03_18,38.148058,-75.17704,Assateague,2,0.35,0.66,8,7,NIGHT_MOSTLY_CLOUDY,Offshore,1
5842041f4e65fad6a7708a1b,2024_03_18,38.33889038664497,-75.08017670566352,North End to Ocean City Inlet,1,0.39,0.69,8,7,NIGHT_CLEAR,Cross-shore,1
5842041f4e65fad6a7708a1c,2024_03_18,38.603993,-75.06271,Indian River Inlet,1,0.25406,0.39697,8,7,NIGHT_MOSTLY_CLEAR,Offshore,1
5842041f4e65fad6a7708a1d,2024_03_18,38.460477,-75.052069,Fenwick Island,1,0.12,0.43,8,7,NIGHT_MOSTLY_CLOUDY,Cross-shore,1
5842041f4e65fad6a7708a1e,2024_03_18,38.538767,-75.05619,Bethany Beach,1,0.2309,0.36078,8,7,NIGHT_CLEAR,Offshore,1
5842041f4e65fad6a7708a1f,2024_03_18,38.697657,-75.075951,Dewey Beach,1,0.17,0.48,8,7,NIGHT_MOSTLY_CLEAR,Cross-shore,1
5842041f4e65fad6a7708a20,2024_03_18,38.75034741676525,-75.08194,Gordons Pond,0,0.21357,0.3337,8,7,NIGHT_CLEAR,Offshore,1
5842041f4e65fad6a7708a21,2024_03_18,38.767837,-75.082841,Naval Jetties,0,0.16,0.46,8,7,NIGHT_CLEAR,Cross-shore,1
5842041f4e65fad6a7708a22,2024_03_18,36.81735875786576,-75.96624,Camp Pendleton,0,0.012499999999999983,0.31980000000000003,9,8,NIGHT_MOSTLY_CLEAR,Cross-shore,1
5842041f4e65fad6a7708a23,2024_03_18,36.9102212316428,-75.98732471466064,North End,0,0.0075,0.3123,9,8,NIGHT_CLEAR,Cross-shore,1
5842041f4e65fad6a7708a24,2024_03_18,36.737117517621314,-75.93923719853362,Sandbridge Beach,1,0.08,0.38,9,8,NIGHT_MOSTLY_CLEAR,Cross-shore,1
5842041f4e65fad6a7708a26,2024_03_18,36.818257440557794,-75.96666,Croatan to Pendleton,0,0.015,0.31229999999999997,9,8,NIGHT_MOSTLY_CLEAR,Cross-shore,1
5842041f4e65fad6a7708a27,2024_03_18,36.84318777204769,-75.9719,South End,1,0.06,0.36,9,8,NIGHT_CLEAR,Cross-shore,1
5842041f4e65fad6a7708a28,2024_03_18,37.08612627584661,-75.976121638199,Fishermans Island,0,0.012,0.132,10,10,NIGHT_MOSTLY_CLOUDY,Offshore,1
5842041f4e65fad6a7708a38,2024_03_18,35.254619418229026,-75.52074,Cape Hatteras Lighthouse,1.5,0.6070625000000001,0.91043,11,9,NIGHT_DRIZZLE,Cross-shore,1
5842041f4e65fad6a7708a3a,2024_03_18,35.54572934093336,-75.46477,Waves and Salvo,1,0.68,0.98,10,9,NIGHT_CLOUDY,Offshore,1
5842041f4e65fad6a7708a3b,2024_03_18,35.22565892751075,-75.63606,Frisco,1,0.6,0.848,13,11,NIGHT_LIGHT_RAIN,Onshore,1
5842041f4e65fad6a7708a3c,2024_03_18,35.13086,-75.90591,Ocracoke,1,0.48301,0.75471,15,15,NIGHT_BRIEF_SHOWERS_POSSIBLE,Cross-shore,1
5842041f4e65fad6a7708a3d,2024_03_18,35.34721340158342,-75.50084,Avon Pier,2,0.6196,0.9344,10,9,NIGHT_DRIZZLE,Cross-shore,1
5842041f4e65fad6a7708a3f,2024_03_18,35.71680821253768,-75.49243,Pea Island,1,0.28,0.58,11,11,NIGHT_CLOUDY,Offshore,1
5842041f4e65fad6a7708a40,2024_03_18,35.97427620657821,-75.62984,Nags Head Pier,2,0.2462,0.5474,9,8,NIGHT_OVERCAST,Offshore,1
5842041f4e65fad6a7708a41,2024_03_18,36.0439998039079,-75.67288,Avalon Pier,1,0.24,0.55,9,8,NIGHT_OVERCAST,Cross-shore,1
5842041f4e65fad6a7708a42,2024_03_18,36.03043116489792,-75.66413,First Street,1,0.2462,0.5449,9,8,NIGHT_OVERCAST,Cross-shore,1
5842041f4e65fad6a7708a43,2024_03_18,36.06829910590498,-75.6899,Old Station/Laundromats,1,0.19,0.49,9,8,NIGHT_OVERCAST,Cross-shore,1
5842041f4e65fad6a7708a44,2024_03_18,36.10126676607491,-75.71107462163894,Kitty Hawk Pier,1,0.25370000000000004,0.5649,9,8,NIGHT_OVERCAST,Cross-shore,1
5842041f4e65fad6a7708a45,2024_03_18,36.18220630068973,-75.75013580649097,Duck Pier,1,0.09,0.4,9,8,NIGHT_OVERCAST,Offshore,1
5842041f4e65fad6a7708a46,2024_03_18,36.37660668125033,-75.82409701687456,Corolla,1,0.14,0.45,9,8,NIGHT_OVERCAST,Cross-shore,1
5842041f4e65fad6a7708a47,2024_03_18,33.90373404124834,-78.08241431707907,Oak Island,1,0.35,0.66,15,15,NIGHT_CLEAR,Onshore,1
5842041f4e65fad6a7708a48,2024_03_18,33.91108837766468,-78.29653,South Brunswick Beaches,1,0.51016,0.79713,14,14,NIGHT_CLOUDY,Onshore,1
5842041f4e65fad6a7708a49,2024_03_18,34.05683595651973,-77.88128,Carolina Beach Pier,1,0.10620000000000002,0.4085000000000001,14,13,NIGHT_OVERCAST,Offshore,1
5842041f4e65fad6a7708a4a,2024_03_18,33.96841191816696,-77.9180242565498,Fort Fisher,1,0.13620000000000002,0.4335,14,13,NIGHT_OVERCAST,Offshore,1
5842041f4e65fad6a7708a4b,2024_03_18,34.46776662988774,-77.47083191635772,Topsail Beach,2,0.47,0.77,14,13,NIGHT_CLEAR,Cross-shore,1
5842041f4e65fad6a7708a4c,2024_03_18,34.69270354752445,-76.82854854446575,Iron Steamer,2,0.4585,0.7658,14,13,NIGHT_CLEAR,Onshore,1
5842041f4e65fad6a7708a4f,2024_03_18,30.85132684893727,-81.42283496231143,Cumberland Island,2,0.07,0.37,17,17,NIGHT_CLEAR,Offshore,1
5842041f4e65fad6a7708a50,2024_03_18,34.686741128540874,-76.47516712138378,Cape Lookout National Seashore,1,0.62,0.92,14,14,NIGHT_OVERCAST,Cross-shore,1
5842041f4e65fad6a7708a51,2024_03_18,31.10585419260024,-81.40422767604812,Jekyll Island,1,0,0.2,17,17,NIGHT_CLEAR,Offshore,1
5842041f4e65fad6a7708a52,2024_03_18,31.16212806376699,-81.32512426500224,Harbor Marker Buoys,1,0,0.29,17,17,NIGHT_CLEAR,Offshore,1
5842041f4e65fad6a7708a53,2024_03_18,31.20076299997009,-81.32629,Sea Island,2,0.02,0.33,17,17,NIGHT_CLEAR,Offshore,1
5842041f4e65fad6a7708a54,2024_03_18,31.13553222995767,-81.38457634790909,St. Simons Island,2,0.06,0.36,17,17,NIGHT_CLEAR,Offshore,1
5842041f4e65fad6a7708a55,2024_03_18,31.33550077186516,-81.28383377408417,Wolf Island,1,0,0.29,17,17,NIGHT_MOSTLY_CLOUDY,Offshore,1
5842041f4e65fad6a7708a56,2024_03_18,31.2704493877174,-81.27324039152315,Little St. Simons Island,1,0,0.29,17,17,NIGHT_CLEAR,Offshore,1
5842041f4e65fad6a7708a57,2024_03_18,31.39261761368919,-81.26190520231917,Sapelo Island,1,0,0.29,17,17,NIGHT_MOSTLY_CLOUDY,Offshore,1
5842041f4e65fad6a7708a58,2024_03_18,34.42458783809001,-77.54492,Surf City Pier,2,0.47,0.78,14,13,NIGHT_CLEAR,Cross-shore,1
5842041f4e65fad6a7708a59,2024_03_18,31.4231993614213,-81.24725340591522,Cabretta Island,1,0,0.29,17,17,NIGHT_MOSTLY_CLEAR,Offshore,1
5842041f4e65fad6a7708a5a,2024_03_18,31.46684389030369,-81.2100056410468,Blackbeard Island,1,0,0.29,17,17,NIGHT_CLEAR,Offshore,1
5842041f4e65fad6a7708a5b,2024_03_18,31.85953587631629,-80.99031310336719,Wassaw Island/South End,1,0,0.2,17,17,NIGHT_MIST,Offshore,1
5842041f4e65fad6a7708a5c,2024_03_18,31.62535662342983,-81.13328352167974,St. Catherines Island,2,0.01,0.31,17,17,NIGHT_CLEAR,Offshore,1
5842041f4e65fad6a7708a5d,2024_03_18,31.76502169596568,-81.07655443806622,Ossabaw Island,1,0,0.29,17,17,NIGHT_MIST,Offshore,1
5842041f4e65fad6a7708a5e,2024_03_18,31.90593619092352,-80.93589231700857,Wassaw Island/North End,1,0,0.3,17,17,NIGHT_MIST,Offshore,1
5842041f4e65fad6a7708a5f,2024_03_18,31.96738675414547,-80.86977980706155,Little Tybee Island,1,0,0.31,17,17,NIGHT_FOG,Offshore,1
5842041f4e65fad6a7708a60,2024_03_18,31.9812255780179,-80.84773973467009,South Tybee Sandbars,2,0,0.31,16,16,NIGHT_FOG,Offshore,1
5842041f4e65fad6a7708a61,2024_03_18,32.01226,-80.83983,Sugar Shack,1,0.02,0.32,16,16,NIGHT_MIST,Offshore,1
5842041f4e65fad6a7708a62,2024_03_18,31.98722842396969,-80.84773,18th St. Jetty,1,0.15995,0.24992,16,16,NIGHT_MIST,Offshore,1
5842041f4e65fad6a7708a64,2024_03_18,34.013473721006676,-77.8991,"Alabama Ave., Kure Beach",2,0.14,0.44,14,14,NIGHT_OVERCAST,Offshore,1
5842041f4e65fad6a7708a65,2024_03_18,34.20859853336924,-77.79293,"C Street, Wrightsville Beach",1,0.1262,0.43350000000000005,14,13,NIGHT_CLEAR,Offshore,1
5842041f4e65fad6a7708a66,2024_03_18,32.831,-79.71,Dewees Island,1,0.02,0.32,16,16,NIGHT_MOSTLY_CLOUDY,Offshore,1
5842041f4e65fad6a7708a67,2024_03_18,33.82924423172106,-78.62813,Cherry Grove Pier,1,0.022499999999999992,0.33730000000000004,14,14,NIGHT_CLOUDY,Cross-shore,1
5842041f4e65fad6a7708a69,2024_03_18,34.27197439666496,-77.74050223196774,Figure Eight and Shell Islands,1,0.14370000000000002,0.44600000000000006,14,13,NIGHT_OVERCAST,Cross-shore,1
5842041f4e65fad6a7708a6b,2024_03_18,33.49041958261793,-79.07666070599386,North End,2,0.18,0.49,16,16,NIGHT_MOSTLY_CLOUDY,Offshore,1
5842041f4e65fad6a7708a6c,2024_03_18,33.39537062495087,-79.13835037835189,The South End,1,0.07,0.37,16,16,NIGHT_CLOUDY,Offshore,1
5842041f4e65fad6a7708a6d,2024_03_18,33.29001727666697,-79.17190003352977,North Island,1,0.05,0.35,16,16,NIGHT_CLEAR,Offshore,1
5842041f4e65fad6a7708a6e,2024_03_18,32.90929771158952,-79.57810400297359,Bull Island,1,0.11,0.42,16,16,NIGHT_MOSTLY_CLOUDY,Offshore,1
5842041f4e65fad6a7708a6f,2024_03_18,31.99153112815895,-80.84543050470074,Tybee Island Pier,1,0,0.17,16,16,NIGHT_FOG,Offshore,1
5842041f4e65fad6a7708a70,2024_03_18,33.03478144356316,-79.35021028265125,Cape Romain,2,0.19,0.5,16,16,NIGHT_MOSTLY_CLOUDY,Offshore,1
5842041f4e65fad6a7708a71,2024_03_18,33.43231073271028,-79.11789,The Pier,1,0.19597,0.30620000000000003,16,16,NIGHT_CLEAR,Offshore,1
5842041f4e65fad6a7708a72,2024_03_18,33.45423621397969,-79.10497798178424,South Litchfield,1,0.04,0.34,16,16,NIGHT_MOSTLY_CLOUDY,Offshore,1
5842041f4e65fad6a7708a73,2024_03_18,34.19316590251396,-77.8045,Crystal Pier,1,0.11869999999999997,0.42100000000000004,14,13,NIGHT_CLEAR,Offshore,1
5842041f4e65fad6a7708a74,2024_03_18,33.68628680045124,-78.883460274301,Myrtle Beach,1,0.03,0.3323,15,15,NIGHT_MOSTLY_CLOUDY,Offshore,1
5842041f4e65fad6a7708a75,2024_03_18,32.66166297145973,-79.91951806398808,10th Street,1,0.15,0.45,16,16,NIGHT_MOSTLY_CLEAR,Offshore,1
5842041f4e65fad6a7708a76,2024_03_18,33.16729555197199,-79.19829236867845,South Island,2,0.34,0.64,16,16,NIGHT_CLOUDY,Offshore,1
5842041f4e65fad6a7708a77,2024_03_18,32.595,-80.088,Kiawah Island/Seabrook Island,1,0.1,0.41,16,16,NIGHT_CLEAR,Cross-shore,1
5842041f4e65fad6a7708a78,2024_03_18,32.51356930575787,-80.28223,Edisto Beach,0,0.17284,0.27007,16,16,NIGHT_MOSTLY_CLOUDY,Cross-shore,1
5842041f4e65fad6a7708a79,2024_03_18,32.366270751262,-80.43911,Hunting Island,1,0.15506,0.24228,16,16,NIGHT_BRIEF_SHOWERS,Offshore,1
5842041f4e65fad6a7708a7a,2024_03_18,32.65337734408365,-79.93983,Folly Beach Pier,1,-0.005000000000000008,0.30620000000000003,16,14,NIGHT_MOSTLY_CLOUDY,Cross-shore,1
5842041f4e65fad6a7708a7b,2024_03_18,33.41209545530049,-79.13026341393126,South Jetty,1,0.07,0.37,16,16,NIGHT_CLEAR,Offshore,1
5842041f4e65fad6a7708a7c,2024_03_18,32.31115640606869,-80.48564,Fripp Island,0,0.18339,0.28655,17,17,NIGHT_OVERCAST,Cross-shore,1
5842041f4e65fad6a7708a7d,2024_03_18,32.14365226036034,-80.74402,Hilton Head Island,0,0,0.12,16,16,NIGHT_MOSTLY_CLOUDY,Offshore,1
5842041f4e65fad6a7708a7e,2024_03_18,29.70405364733744,-81.22426004725459,Matanzas Inlet,1,0,0.27,18,18,NIGHT_CLEAR,Offshore,1
5842041f4e65fad6a7708a81,2024_03_18,29.76878537149042,-81.25109,Crescent Beach,1,0,0.29,18,18,NIGHT_MOSTLY_CLOUDY,Offshore,1
5842041f4e65fad6a7708a82,2024_03_18,32.80251718689188,-79.73221919500764,Wild Dunes,1,0.14,0.44,16,16,NIGHT_MOSTLY_CLOUDY,Cross-shore,1
5842041f4e65fad6a7708a84,2024_03_18,32.75733539419244,-79.83258856064796,Bert's Bar,1,0,0.26,16,16,NIGHT_CLEAR,Cross-shore,1
5842041f4e65fad6a7708a85,2024_03_18,32.66829212943039,-79.90735,Washout,0,-0.005000000000000008,0.3037,16,14,NIGHT_MOSTLY_CLEAR,Cross-shore,1
5842041f4e65fad6a7708a86,2024_03_18,32.78452968219067,-79.78540233488354,The Pier/Windjammer,1,0.14,0.44,16,16,NIGHT_MOSTLY_CLEAR,Cross-shore,1
5842041f4e65fad6a7708a87,2024_03_18,29.86618162637438,-81.2662150259608,Anastasia Park (The Entrance),1,0,0.27,18,18,NIGHT_CLEAR,Offshore,1
5842041f4e65fad6a7708a89,2024_03_18,29.89149785916623,-81.2723223244215,Blowholes,1,0,0.29,24,22,NIGHT_CLEAR,Offshore,1
5842041f4e65fad6a7708a8a,2024_03_18,30.16227112983666,-81.35502907491218,Crossroads,2,0.04,0.34,24,22,NIGHT_CLEAR,Offshore,1
5842041f4e65fad6a7708a8b,2024_03_18,30.19308537587637,-81.36314247820911,Sawgrass,2,0.06,0.36,24,22,NIGHT_CLEAR,Offshore,1
5842041f4e65fad6a7708a8c,2024_03_18,30.34696027700899,-81.39451,18th Street,2,0.20473,0.31989,18,18,NIGHT_CLEAR,Offshore,1
5842041f4e65fad6a7708a8d,2024_03_18,30.381793,-81.39686,Mayport Poles,2,0.07,0.37,18,18,NIGHT_CLEAR,Offshore,1
5842041f4e65fad6a7708a8e,2024_03_18,30.390516,-81.395591,Blue Roofs,2,0.09,0.39,18,18,NIGHT_CLEAR,Offshore,1
5842041f4e65fad6a7708a8f,2024_03_18,30.40517712722211,-81.40074116169004,Huguenot Park (North Jetty),2,0.01,0.32,18,18,NIGHT_CLEAR,Offshore,1
5842041f4e65fad6a7708a90,2024_03_18,30.47788918872762,-81.41055821335078,Talbot Island,1,0.0013299999999999979,0.30613,19,17,NIGHT_CLEAR,Offshore,1
5842041f4e65fad6a7708a91,2024_03_18,30.66753984549761,-81.42983,Main Beach,1,0,0.3,17,17,NIGHT_CLEAR,Offshore,1
5842041f4e65fad6a7708a92,2024_03_18,30.69983581209126,-81.42483,Ft. Clinch State Park,1,0.03,0.33,17,17,NIGHT_CLEAR,Offshore,1
5842041f4e65fad6a7708a93,2024_03_18,30.62059700777582,-81.437252942757425,Amelia Pier,1,0.03,0.33,18,18,NIGHT_CLEAR,Offshore,1
5842041f4e65fad6a7708a95,2024_03_18,28.95125170929067,-80.83837,Bethune Beach,2,0.04,0.35,19,19,NIGHT_CLEAR,Offshore,1
5842041f4e65fad6a7708a96,2024_03_18,29.03874288905362,-80.8933424949646,Flagler Ave.,2,0.02,0.33,23,22,NIGHT_CLEAR,Offshore,1
5842041f4e65fad6a7708a98,2024_03_18,30.332297686992757,-81.39319,Atlantic Beach,1,0.18726,0.29259,18,18,NIGHT_CLEAR,Offshore,1
5842041f4e65fad6a7708a99,2024_03_18,29.87530059952514,-81.26757958498874,Middles,1,0,0.3,24,22,NIGHT_CLEAR,Offshore,1
5842041f4e65fad6a7708a9a,2024_03_18,29.146475528378218,-80.96347,Sunglow Pier,2,0.01,0.31,18,18,NIGHT_CLEAR,Offshore,1
5842041f4e65fad6a7708a9b,2024_03_18,30.02251238001095,-81.32183077344881,Gate Station,1,0,0.27,24,22,NIGHT_CLEAR,Offshore,1
5842041f4e65fad6a7708a9c,2024_03_18,29.33976495417899,-81.0606,Bicentennial Park,1,0,0.3,18,18,NIGHT_CLEAR,Offshore,1
5842041f4e65fad6a7708a9d,2024_03_18,29.08257353385602,-80.92136998257725,Ponce Inlet,1,0,0.29730000000000006,19,18,NIGHT_CLEAR,Offshore,1
5842041f4e65fad6a7708a9f,2024_03_18,27.862962005874696,-80.44668,Sebastian Inlet,2,-4.999999999977245e-6,0.3008950000000001,23,21,NIGHT_CLEAR,Offshore,1
5842041f4e65fad6a7708aa0,2024_03_18,30.292626880836885,-81.38579,Jacksonville Beach Pier,1,-0.0049999999999999975,0.3098,19,17,NIGHT_CLEAR,Offshore,1
5842041f4e65fad6a7708aa1,2024_03_18,29.22878213864532,-81.00551,Main Street North,1,0.3299,0.50223,18,18,NIGHT_CLEAR,Offshore,1
5842041f4e65fad6a7708aa2,2024_03_18,29.21860397328164,-81.0019,Daytona Beach,2,0.02,0.32,18,18,NIGHT_CLEAR,Offshore,1
5842041f4e65fad6a7708aa3,2024_03_18,27.47531255634912,-80.28914,Ft. Pierce Inlet,1,0,0.29,23,21,NIGHT_CLEAR,Offshore,1
5842041f4e65fad6a7708aa4,2024_03_18,29.29239875585548,-81.0386,Ormond Beach,2,0.03,0.33,18,18,NIGHT_CLEAR,Offshore,1
5842041f4e65fad6a7708aa5,2024_03_18,29.91629441498523,-81.28801,Vilano,1,0,0.26,18,18,NIGHT_CLEAR,Offshore,1
5842041f4e65fad6a7708aa6,2024_03_18,27.876230736320828,-80.4551,Spanish House,2,0.1,0.41,23,21,NIGHT_CLEAR,Offshore,1
5842041f4e65fad6a7708aa7,2024_03_18,28.64397251741012,-80.62328519781694,Playalinda,2,0.05,0.36,20,20,NIGHT_CLEAR,Offshore,1
5842041f4e65fad6a7708aa8,2024_03_18,28.406142,-80.588858,Jetty Park,1,0,0.27,20,20,NIGHT_CLEAR,Offshore,1
5842041f4e65fad6a7708aa9,2024_03_18,28.49083243010974,-80.58001715986319,Kennedy Space Center,1,0.1,0.41,20,20,NIGHT_CLEAR,Offshore,1
5842041f4e65fad6a7708aab,2024_03_18,28.336757013024314,-80.60568,Lori Wilson Park,1,0,0.27,23,21,NIGHT_CLEAR,Offshore,1
5842041f4e65fad6a7708aad,2024_03_18,27.76388821683801,-80.3962958234027,Wabasso,2,0.02,0.33,21,21,NIGHT_CLEAR,Offshore,1
5842041f4e65fad6a7708aae,2024_03_18,27.521583322459,-80.30987620353699,P.V. Martin's,2,0.09,0.39,23,21,NIGHT_CLEAR,Offshore,1
5842041f4e65fad6a7708aaf,2024_03_18,27.644996047720046,-80.35242676734924,Riomar,1,0.12,0.42,23,21,NIGHT_CLEAR,Offshore,1
5842041f4e65fad6a7708ab1,2024_03_18,27.670121806659253,-80.36026954650879,Vero Pier,2,0.14,0.44,23,21,NIGHT_CLEAR,Offshore,1
5842041f4e65fad6a7708ab2,2024_03_18,28.047705032021486,-80.54680109024048,Spessard Holland,0.67,-0.00411499999999998,0.300685,23,21,NIGHT_CLEAR,Offshore,1
5842041f4e65fad6a7708ab7,2024_03_18,28.135426226217064,-80.57895541191101,The Radisson,2,0.07,0.37,23,21,NIGHT_CLEAR,Offshore,1
5842041f4e65fad6a7708ab8,2024_03_18,28.26664623907351,-80.60448467731476,Picnic Tables,2,0.12,0.43,21,21,NIGHT_CLEAR,Offshore,1
5842041f4e65fad6a7708ab9,2024_03_18,28.200840983180232,-80.59493,Perkins,2,0.06,0.37,23,21,NIGHT_CLEAR,Offshore,1
5842041f4e65fad6a7708aba,2024_03_18,28.185652556759443,-80.59154,RC's,1,-0.015,0.2898,23,21,NIGHT_CLEAR,Offshore,1
5842041f4e65fad6a7708abc,2024_03_18,28.252541991968208,-80.60269,2nd Light,2,0.1,0.41,21,21,NIGHT_CLEAR,Offshore,1
5842041f4e65fad6a7708abd,2024_03_18,27.901611308716447,-80.4697,Bonsteel Park,2,0.06,0.36,23,21,NIGHT_CLEAR,Offshore,1
5842041f4e65fad6a7708abe,2024_03_18,28.2423394657007,-80.60104,Hangar's Beach,2,0.08,0.38,23,21,NIGHT_CLEAR,Offshore,1
5842041f4e65fad6a7708abf,2024_03_18,27.34018197146798,-80.23278,Walton Rocks,2,0.07999999999999999,0.3812,23,22,NIGHT_CLEAR,Offshore,1
5842041f4e65fad6a7708ac0,2024_03_18,25.80407401902198,-80.1222227290161,30th Street,0,0,0.23,25,25,NIGHT_OVERCAST,Cross-shore,1
5842041f4e65fad6a7708ac1,2024_03_18,25.76570280215999,-80.12983304957051,South Beach,0,-0.0025000000000000005,0.17050000000000004,25,23,NIGHT_CLOUDY,Cross-shore,1
5842041f4e65fad6a7708ac2,2024_03_18,26.058022412197,-80.10873562327671,Dania Pier,1,0,0.22,24,24,NIGHT_CLEAR,Cross-shore,1
5842041f4e65fad6a7708ac3,2024_03_18,26.04825428257198,-80.11153150137932,Franklin Street,1,0,0.28,24,24,NIGHT_CLEAR,Cross-shore,1
5842041f4e65fad6a7708ac4,2024_03_18,26.09086461141498,-80.10728410144065,John Lloyd State Park,0,0,0.27,24,24,NIGHT_CLEAR,Cross-shore,1
5842041f4e65fad6a7708ac5,2024_03_18,26.0971397396683,-80.10298876028907,Spoils,0,0,0.23,24,24,NIGHT_CLEAR,Cross-shore,1
5842041f4e65fad6a7708ac6,2024_03_18,26.18920557475824,-80.09224470008016,Commercial Pier,0,0,0.26,24,24,NIGHT_CLEAR,Cross-shore,1
5842041f4e65fad6a7708ac7,2024_03_18,28.289851576629342,-80.6063,16th St. South,2,0.03,0.34,23,21,NIGHT_CLEAR,Offshore,1
5842041f4e65fad6a7708ac8,2024_03_18,26.23467460139735,-80.08739675534814,Pompano Pier,1,0,0.19,25,23,NIGHT_CLEAR,Cross-shore,1
5842041f4e65fad6a7708acb,2024_03_18,26.44179551370651,-80.05928855229453,Atlantic Dunes Park,1,0.06048999999999999,0.270965,25,23,NIGHT_CLEAR,Cross-shore,1
5842041f4e65fad6a7708acd,2024_03_18,26.62215707439298,-80.03599398392342,Hilton Hotel Backyard,1,0.08,0.38,24,23,NIGHT_CLEAR,Offshore,1
5842041f4e65fad6a7708ace,2024_03_18,26.96418190555367,-80.07769168113562,Coral Cove Park,2,0.15,0.46,24,22,NIGHT_CLEAR,Offshore,1
5842041f4e65fad6a7708acf,2024_03_18,26.7029496416037,-80.0318372872607,Palm Beach,2,0.13,0.44,24,23,NIGHT_MIST,Offshore,1
5842041f4e65fad6a7708ad0,2024_03_18,26.97679878167375,-80.08141631388132,Blowing Rocks,2,0.18,0.48,24,22,NIGHT_CLEAR,Offshore,1
5842041f4e65fad6a7708ad2,2024_03_18,26.45661880078336,-80.05699952321751,Delray Beach,1,-0.0075,0.2212,25,23,NIGHT_CLEAR,Cross-shore,1
5842041f4e65fad6a7708ad3,2024_03_18,27.205685534312778,-80.16826629638672,Fletcher's,2,0.12,0.42,24,22,NIGHT_CLEAR,Offshore,1
5842041f4e65fad6a7708ad5,2024_03_18,26.5848450388814,-80.03649735753257,Lantana Public Beach,1,0.11,0.41,24,23,NIGHT_CLEAR,Offshore,1
5842041f4e65fad6a7708ad6,2024_03_18,25.77468432731322,-80.12884045797499,5th Street,0,0,0.22,25,25,NIGHT_CLEAR,Cross-shore,1
5842041f4e65fad6a7708ad7,2024_03_18,25.795157990715975,-80.12527585029602,21st Street,0,0,0.21,25,25,NIGHT_CLEAR,Cross-shore,1
5842041f4e65fad6a7708ad8,2024_03_18,25.897806453088073,-80.1211827993393,Haulover Inlet (South Jetty),0,0,0.2,24,24,NIGHT_MIST,Cross-shore,1
5842041f4e65fad6a7708ad9,2024_03_18,25.90147392328634,-80.12110769748688,Haulover Inlet (North Jetty),0,0,0.26,24,24,NIGHT_MIST,Cross-shore,1
5842041f4e65fad6a7708ada,2024_03_18,25.87049374242476,-80.11828560342356,85th Street,1,0,0.18,24,24,NIGHT_CLEAR,Cross-shore,1
5842041f4e65fad6a7708adb,2024_03_18,26.25486382031396,-80.0805,Hillsboro Inlet,2,0.20842,0.32566,28,26,NIGHT_CLEAR,Cross-shore,1
5842041f4e65fad6a7708add,2024_03_18,26.29705672965111,-80.07612393274484,Hillsboro Beach,1,0,0.23,28,26,NIGHT_CLEAR,Cross-shore,1
5842041f4e65fad6a7708ade,2024_03_18,26.36569956413266,-80.06717936869391,Red Reef Park,1,0,0.27,25,23,NIGHT_CLEAR,Cross-shore,1
5842041f4e65fad6a7708adf,2024_03_18,26.54593873498907,-80.04104359585143,Boynton Beach Inlet (Northside),1,0,0.3,24,23,NIGHT_CLEAR,Offshore,1
5842041f4e65fad6a7708ae0,2024_03_18,26.92746505629809,-80.06721138954163,Corners,2,0.36088,0.5781799999999999,24,23,NIGHT_CLEAR,Offshore,1
5842041f4e65fad6a7708ae1,2024_03_18,26.76983179886943,-80.03413481937037,The Cove,2,0.13,0.44,24,23,NIGHT_MIST,Offshore,1
5842041f4e65fad6a7708ae3,2024_03_18,26.39224485175123,-80.0650461233983,Japanese Rock,1,0,0.29,25,23,NIGHT_CLEAR,Cross-shore,1
5842041f4e65fad6a7708ae4,2024_03_18,29.94810928551321,-85.42545434612366,Mexico Beach,1,0,0.18,18,18,NIGHT_FOG,Onshore,1
5842041f4e65fad6a7708ae5,2024_03_18,30.11752500931267,-85.7306039427457,Shell Island,1,0,0.21,18,18,NIGHT_BRIEF_SHOWERS,Offshore,1
5842041f4e65fad6a7708ae7,2024_03_18,29.94901514702268,-85.43042978529013,D.J.'s,1,0,0.18,18,18,NIGHT_FOG,Cross-shore,1
5842041f4e65fad6a7708ae8,2024_03_18,30.12396111446713,-85.73636797034509,St. Andrew's Park,1,0,0.18080000000000002,18,18,NIGHT_BRIEF_SHOWERS,Cross-shore,1
5842041f4e65fad6a7708ae9,2024_03_18,30.16781531760227,-85.79604918824084,Spinnaker,1,0,0.1741333333333333,18,18,NIGHT_FOG,Offshore,1
5842041f4e65fad6a7708aea,2024_03_18,30.18877050526983,-85.83243530466363,Wood Pier,1,0,0.22,18,18,NIGHT_FOG,Offshore,1
5842041f4e65fad6a7708aeb,2024_03_18,30.2676205895555,-85.9938578144113,Inlet Beach Pier,1,0,0.23,18,18,NIGHT_FOG,Offshore,1
5842041f4e65fad6a7708aec,2024_03_18,30.31815542759119,-86.1383771867044,Bud and Alley's,1,0,0.23,18,18,NIGHT_BRIEF_SHOWERS,Offshore,1
5842041f4e65fad6a7708aed,2024_03_18,30.32686082481946,-86.16650590275447,Grayton Beach,1,0,0.23,18,18,NIGHT_FOG,Offshore,1
5842041f4e65fad6a7708aee,2024_03_18,30.33661488976303,-86.20094370184573,Blue Mountain Beach,1,0,0.23,18,18,NIGHT_MOSTLY_CLOUDY,Offshore,1
5842041f4e65fad6a7708aef,2024_03_18,30.37677202831587,-86.38513326644897,Pompano Joe's,1,0,0.24,18,18,NIGHT_MOSTLY_CLOUDY,Offshore,1
5842041f4e65fad6a7708af0,2024_03_18,30.37429731725911,-86.36686966905461,Seascape,1,0,0.23,18,18,NIGHT_CLEAR,Offshore,1
5842041f4e65fad6a7708af1,2024_03_18,30.382815988547186,-86.45838975906372,The Back Porch,1,0,0.24,18,18,NIGHT_CLEAR,Offshore,1
5842041f4e65fad6a7708af2,2024_03_18,30.21207176798612,-85.87989730830542,Panama City Pier,1,0,0.22,18,18,NIGHT_CLEAR,Offshore,1
5842041f4e65fad6a7708af3,2024_03_18,30.37521499110326,-86.37169944119874,Whale's Tail,1,0,0.24,18,18,NIGHT_CLEAR,Offshore,1
5842041f4e65fad6a7708af4,2024_03_18,30.38120596658251,-86.43045768307817,Old Crystal Pier,1,0,0.23,18,18,NIGHT_MOSTLY_CLOUDY,Offshore,1
5842041f4e65fad6a7708af5,2024_03_18,30.38090573159031,-86.50654862060082,Jetty East,1,0,0.24,18,18,NIGHT_CLEAR,Offshore,1
5842041f4e65fad6a7708af6,2024_03_18,30.37584509640838,-86.50563273884252,HMO's,0,0,0.24,18,18,NIGHT_CLEAR,Offshore,1
5842041f4e65fad6a7708af7,2024_03_18,30.38124006131522,-86.50052254675529,Two By Fours,0,0,0.24,18,18,NIGHT_CLEAR,Offshore,1
5842041f4e65fad6a7708af8,2024_03_18,30.38250751017554,-86.45775957227345,The Pumphouse,1,0,0.25,18,18,NIGHT_CLEAR,Offshore,1
5842041f4e65fad6a7708af9,2024_03_18,30.38655981578935,-86.52475380603576,NCO Club,1,0,0.24,18,18,NIGHT_CLEAR,Offshore,1
5842041f4e65fad6a7708afa,2024_03_18,30.39024516541047,-86.59341,Okaloosa Pier,1,0,0.24,18,18,NIGHT_CLEAR,Offshore,1
5842041f4e65fad6a7708afb,2024_03_18,30.39281125722673,-86.59766184693287,Dead Man's,1,0,0.24,18,18,NIGHT_CLEAR,Offshore,1
5842041f4e65fad6a7708afc,2024_03_18,30.32703176167034,-87.14196,Pensacola Pier,1,0,0.26,19,19,NIGHT_MOSTLY_CLEAR,Offshore,1
5842041f4e65fad6a7708afd,2024_03_18,30.37920054094992,-86.85583,Navarre Beach,1,0.1631,0.25485,18,18,NIGHT_CLEAR,Offshore,1
5842041f4e65fad6a7708afe,2024_03_18,30.39491626029151,-86.61248004999744,Blue Horizon Motel,1,0,0.24,18,18,NIGHT_CLEAR,Offshore,1
5842041f4e65fad6a7708aff,2024_03_18,30.29345899260828,-87.43546812169637,First Parking Lot,0,0,0.24,18,18,NIGHT_CLEAR,Offshore,1
5842041f4e65fad6a7708b00,2024_03_18,30.29767401311303,-87.41361598257893,Johnsons Beach,1,0,0.25,18,18,NIGHT_MOSTLY_CLEAR,Offshore,1
5842041f4e65fad6a7708b01,2024_03_18,30.29513397370759,-87.42642359089679,Sandy Key,1,0,0.24,18,18,NIGHT_CLEAR,Offshore,1
5842041f4e65fad6a7708b03,2024_03_18,30.377504907388026,-86.86444,Navarre Pier,1,0,0.19,18,18,NIGHT_CLEAR,Offshore,1
5842041f4e65fad6a7708b04,2024_03_18,30.31482647791307,-87.26163894669438,Pickens Point Dunes,1,0,0.26,18,18,NIGHT_CLEAR,Offshore,1
5842041f4e65fad6a7708b05,2024_03_18,30.32632110836516,-87.16019503253068,Slabs,1,0,0.27,19,19,NIGHT_MOSTLY_CLEAR,Offshore,1
5842041f4e65fad6a7708b06,2024_03_18,30.32739721382043,-87.30406515493348,Pickens Point,1,0,0.26,18,18,NIGHT_CLEAR,Offshore,1
5842041f4e65fad6a7708b07,2024_03_18,30.27406893266753,-87.5436749948929,Bungalows,1,0,0.25,18,18,NIGHT_MOSTLY_CLEAR,Offshore,1
5842041f4e65fad6a7708b08,2024_03_18,27.99627311846992,-82.82942,880,0,0.07831,0.12236,21,21,NIGHT_MIST,Onshore,1
5842041f4e65fad6a7708b09,2024_03_18,27.97779860371595,-82.83246509090527,Pier 60,0,0,0.1,21,21,NIGHT_MIST,Onshore,1
5842041f4e65fad6a7708b0a,2024_03_18,27.96296387618043,-82.8332635965418,Sand Key,0,0,0.1,21,21,NIGHT_MIST,Cross-shore,1
5842041f4e65fad6a7708b0b,2024_03_18,27.92492619212885,-82.8449122845279,Belleair,0,0,0.11,22,22,NIGHT_MIST,Cross-shore,1
5842041f4e65fad6a7708b0c,2024_03_18,27.882,-82.854,Indian Rocks Beach,0,0,0.11,22,22,NIGHT_MIST,Cross-shore,1
5842041f4e65fad6a7708b0d,2024_03_18,27.83106104966094,-82.83550218771384,Redington Breakwater,0,0,0.1,22,22,NIGHT_MIST,Onshore,1
5842041f4e65fad6a7708b0e,2024_03_18,27.74369029906206,-82.76053473435867,Middle Jetty,0,0,0.1,22,22,NIGHT_MIST,Onshore,1
5842041f4e65fad6a7708b0f,2024_03_18,27.82174178852146,-82.83148664631841,Redington Pier,0,0,0.1,22,22,NIGHT_MIST,Onshore,1
5842041f4e65fad6a7708b10,2024_03_18,27.31496308261514,-82.5830466912004,Lido Beach,0,0,0.09,22,22,NIGHT_MIST,Cross-shore,1
5842041f4e65fad6a7708b11,2024_03_18,27.31122010159892,-82.57833234007632,Coolidge,0,0,0.09,22,22,NIGHT_MIST,Cross-shore,1
5842041f4e65fad6a7708b12,2024_03_18,27.26471672017615,-82.55464835167173,Siesta Key,0,0,0.06,23,21,NIGHT_MIST,Onshore,1
5842041f4e65fad6a7708b13,2024_03_18,27.24638693488133,-82.53809115716797,Stickney Point,0,0,0.07,22,22,NIGHT_MIST,Onshore,1
5842041f4e65fad6a7708b14,2024_03_18,27.21907878229092,-82.51813937562073,Turtles,0,0,0.07,22,22,NIGHT_MIST,Onshore,1
5842041f4e65fad6a7708b15,2024_03_18,27.11375765852028,-82.47039,Venice Jetties North,0,0,0.08310000000000001,23,21,NIGHT_MIST,Cross-shore,1
5842041f4e65fad6a7708b16,2024_03_18,27.111485758834025,-82.46756550419744,Venice Jetties South,0,0,0.06,23,21,NIGHT_MIST,Cross-shore,1
5842041f4e65fad6a7708b17,2024_03_18,27.07249378831575,-82.4530285256104,Venice Pier,0,0,0.07,23,21,NIGHT_MIST,Onshore,1
5842041f4e65fad6a7708b19,2024_03_18,27.49680446426314,-82.7140145455959,Holmes Beach Pier,0,0,0.08,22,22,NIGHT_MIST,Cross-shore,1
5842041f4e65fad6a7708b1a,2024_03_18,27.7390348493064,-82.75763,Sunset Beach,0,0,0.1,22,22,NIGHT_MIST,Onshore,1
5842041f4e65fad6a7708b1b,2024_03_18,26.80347307599041,-82.28564775623539,Gasparilla Point,0,0,0.06,22,22,NIGHT_MIST,Onshore,1
5842041f4e65fad6a7708b1c,2024_03_18,27.45365831548911,-82.69609,Coquina Jetties,0,0,0.08,22,22,NIGHT_MIST,Cross-shore,1
5842041f4e65fad6a7708b1d,2024_03_18,27.46077315206043,-82.69924,Twin Piers,0,0,0.0906,23,21,NIGHT_MIST,Cross-shore,1
5842041f4e65fad6a7708b1e,2024_03_18,26.91007316019612,-82.35352,Englewood,0,0,0.04,22,22,NIGHT_MIST,Onshore,1
5842041f4e65fad6a7708b1f,2024_03_18,26.88221101560038,-82.3359828282636,Knight's Point,0,0,0.06,22,22,NIGHT_MIST,Onshore,1
5842041f4e65fad6a7708b20,2024_03_18,26.51219285784982,-82.1928203289264,Tween Waters,0,0,0.07,23,23,NIGHT_MIST,Cross-shore,1
5842041f4e65fad6a7708b21,2024_03_18,26.55130241615096,-82.20222762415648,Redfish Pass,0,0,0.07,23,23,NIGHT_DRIZZLE,Cross-shore,1
5842041f4e65fad6a7708b22,2024_03_18,26.71713432926596,-82.26287777058234,Boca Grande,0,0,0.07,23,23,NIGHT_MIST,Cross-shore,1
5842041f4e65fad6a7708b23,2024_03_18,26.47856785808584,-82.181288592828,Blind Pass,0,0,0.07,23,23,NIGHT_MIST,Onshore,1
5842041f4e65fad6a7708b24,2024_03_18,26.25358330618783,-81.82429246081317,The Wall,0,0,0.06,23,23,NIGHT_OVERCAST,Onshore,1
5842041f4e65fad6a7708b25,2024_03_18,26.17456407516186,-81.81588575623482,Doctor's Pass,0,0,0.06,23,23,NIGHT_MOSTLY_CLOUDY,Onshore,1
5842041f4e65fad6a7708b26,2024_03_18,27.427134501874612,-82.68110766159296,Whitney Beach,0,0,0.09,22,22,NIGHT_MIST,Cross-shore,1
5842041f4e65fad6a7708b27,2024_03_18,26.17300183052463,-81.81515842430267,Doctor's Pass (South Jetty),0,0,0.06,23,23,NIGHT_MOSTLY_CLOUDY,Onshore,1
5842041f4e65fad6a7708b28,2024_03_18,27.73496421495629,-82.75268962468695,Upham Beach Park,0,0,0.1,22,22,NIGHT_MIST,Onshore,1
5842041f4e65fad6a7708b29,2024_03_18,26.13144856766723,-81.8090395116521,Naples Pier,0,0,0.06,23,23,NIGHT_CLEAR,Onshore,1
5842041f4e65fad6a7708b2a,2024_03_18,20.63474,-156.45211,Little Beach,2,0.26,0.56,24,24,NIGHT_CLEAR,Offshore,1
5842041f4e65fad6a7708b2b,2024_03_18,20.613,-156.438,Dumps,3,0.62,0.93,24,24,NIGHT_CLEAR,Cross-shore,1
5842041f4e65fad6a7708b2c,2024_03_18,22.216,-159.502,Hanalei Bay,4,1.87,2.23,24,24,NIGHT_MOSTLY_CLOUDY,Offshore,1
5842041f4e65fad6a7708b2d,2024_03_18,22.225,-159.567,Ha'Ena Bay (Cannons/Tunnels),3,2.45,2.93,24,24,NIGHT_MOSTLY_CLOUDY,Cross-shore,1
5842041f4e65fad6a7708b2f,2024_03_18,22.148,-159.301,Anahola Bay,1,0.49,0.8,24,24,NIGHT_CLOUDY,Onshore,1
5842041f4e65fad6a7708b30,2024_03_18,21.872,-159.462,Poipu Outer Reef,3,1.01,1.32,24,24,NIGHT_CLEAR,Offshore,1
5842041f4e65fad6a7708b31,2024_03_18,21.936,-159.652,Pakala,2,0.25,0.56,24,24,NIGHT_CLEAR,Offshore,1
5842041f4e65fad6a7708b32,2024_03_18,21.272,-157.832,Populars,2,0.37,0.68,26,25,NIGHT_MOSTLY_CLEAR,Offshore,1
5842041f4e65fad6a7708b33,2024_03_18,21.26841992117695,-157.82329,Publics,3,0.99,1.18,26,25,NIGHT_MOSTLY_CLEAR,Offshore,1
5842041f4e65fad6a7708b34,2024_03_18,21.25460513357954,-157.79432,Black Point,1,0.62148,0.95346,24,24,NIGHT_CLEAR,Offshore,1
5842041f4e65fad6a7708b35,2024_03_18,21.27394674233747,-157.82777,Canoes,3,0.63,0.93,26,25,NIGHT_MOSTLY_CLEAR,Offshore,1
5842041f4e65fad6a7708b36,2024_03_18,21.273658410008455,-157.8263,Queen's,3,0.63,0.93,26,25,NIGHT_MOSTLY_CLEAR,Offshore,1
5842041f4e65fad6a7708b37,2024_03_18,20.869,-156.679,Lahaina Harbor - Breakwall,3,0.72,1.02,24,24,NIGHT_CLEAR,Offshore,1
5842041f4e65fad6a7708b38,2024_03_18,21.277,-157.841,Kaiser's,2,0.37,0.68,26,25,NIGHT_MOSTLY_CLEAR,Offshore,1
5842041f4e65fad6a7708b39,2024_03_18,21.280537020769913,-157.84107,Rockpiles,1,0.24,0.55,26,25,NIGHT_MOSTLY_CLEAR,Offshore,1
5842041f4e65fad6a7708b3a,2024_03_18,21.2745,-157.8395,Four's,3,0.69,0.99,24,24,NIGHT_MOSTLY_CLEAR,Offshore,1
5842041f4e65fad6a7708b3b,2024_03_18,21.576,-158.282,Kaena Point,0,3.32,3.97,24,24,NIGHT_CLEAR,Cross-shore,1
5842041f4e65fad6a7708b3c,2024_03_18,21.31110306220024,-157.6590697786346,Makapu'u,1,0.43,0.74,24,24,NIGHT_MOSTLY_CLOUDY,Onshore,1
5842041f4e65fad6a7708b3d,2024_03_18,21.276618032562773,-157.83386,Three's,1,0.22,0.52,26,25,NIGHT_MOSTLY_CLEAR,Offshore,1
5842041f4e65fad6a7708b3f,2024_03_18,39.63537452931482,-123.7858735430881,Westport,3,1.15,1.37,12,12,NIGHT_MOSTLY_CLOUDY,Onshore,1
5842041f4e65fad6a7708b40,2024_03_18,39.47339314374171,-123.8053109861082,MacKerricher,3,1.62,1.94,11,11,NIGHT_MOSTLY_CLOUDY,Cross-shore,1
5842041f4e65fad6a7708b41,2024_03_18,39.30271935445495,-123.79757,Mendocino Township,3,1.15,1.37,11,11,NIGHT_MOSTLY_CLOUDY,Offshore,1
5842041f4e65fad6a7708b42,2024_03_18,21.281416779283845,-157.8457,Ala Moana Bowls,3,0.73,1.04,26,25,NIGHT_MOSTLY_CLEAR,Offshore,1
5842041f4e65fad6a7708b43,2024_03_18,15.846,-97.06,Puerto Escondido,4,1.34,1.64,28,28,NIGHT_CLEAR,Offshore,1
5842041f4e65fad6a7708b44,2024_03_18,11.44175,-86.08519,Santana,3,0.95,1.14,27,27,NIGHT_CLEAR,Offshore,1
5842041f4e65fad6a7708b46,2024_03_18,38.91444690804076,-123.7104245288878,Point Arena,3,1.79,2.14,12,12,NIGHT_MIST,Cross-shore,1
5842041f4e65fad6a7708b47,2024_03_18,18.46,-66.07383728027,San Juan,2,0.5699000000000001,0.9092,27,26,NIGHT_CLEAR,Cross-shore,1
5842041f4e65fad6a7708b48,2024_03_18,13.21526058417982,-59.52183,Soup Bowl,1,0.68,0.98,28,28,NIGHT_CLEAR,Onshore,1
5842041f4e65fad6a7708b49,2024_03_18,18.371581,-67.25941,Puntas,1.5,0.22870000000000001,0.5399,28,27,NIGHT_CLEAR,Cross-shore,1
5842041f4e65fad6a7708b4d,2024_03_18,9.94,-85.668,Guiones,3,0.66,0.96,30,30,NIGHT_CLEAR,Offshore,1
5842041f4e65fad6a7708b4e,2024_03_18,9.56516,-84.59148,Playa Hermosa South,3,0.66751,1.04299,30,30,NIGHT_CLEAR,Offshore,1
5842041f4e65fad6a7708b4f,2024_03_18,9.526305556,-84.48822,Playa Esterillos,4,1.43,1.71,31,31,NIGHT_CLEAR,Offshore,1
5842041f4e65fad6a7708b50,2024_03_18,9.576,-84.608,Playa Hermosa North,4,1.48,1.77,30,30,NIGHT_CLEAR,Offshore,1
5842041f4e65fad6a7708b53,2024_03_18,-12.337,-76.839,Pico Alto,3,1.52489,2.38264,22,22,NIGHT_MOSTLY_CLOUDY,Onshore,1
5842041f4e65fad6a7708b55,2024_03_18,-12.17155,-77.08515,Peruazul,3,1.72,2.06,22,22,NIGHT_CLEAR,Cross-shore,1
5842041f4e65fad6a7708b56,2024_03_18,-12.133164,-77.03916,Makaha,3,1.54567,2.41511,22,22,NIGHT_CLEAR,Cross-shore,1
5842041f4e65fad6a7708b5b,2024_03_18,39.276101,-74.56709,7th Street,1.5,0.08143,0.38916,8,6,NIGHT_CLEAR,Offshore,1
5842041f4e65fad6a7708b5d,2024_03_18,39.321896,-74.506191,Sumner Avenue,1,0.13,0.44,8,6,NIGHT_CLEAR,Offshore,1
5842041f4e65fad6a7708b5e,2024_03_18,39.093673,-74.71653,26th to 30th Street Pier,1.5,0.0887,0.401,8,6,NIGHT_CLEAR,Offshore,1
5842041f4e65fad6a7708b5f,2024_03_18,39.039903,-74.76417,Nun's Beach,1,0.34866,0.54479,8,7,NIGHT_CLEAR,Offshore,1
5842041f4e65fad6a7708b60,2024_03_18,38.96768,-74.82565,Rambler Road,1,0.15,0.46,8,7,NIGHT_MOSTLY_CLEAR,Offshore,1
5842041f4e65fad6a7708b61,2024_03_18,38.99931,-74.78814,2nd St. to 10th St.,1,0.12,0.42,8,7,NIGHT_CLEAR,Offshore,1
5842041f4e65fad6a7708b62,2024_03_18,38.929886,-74.91718,Stockton Avenue,1,0.26842,0.41941,8,7,NIGHT_CLEAR,Cross-shore,1
5842041f4e65fad6a7708b63,2024_03_18,38.942988,-74.862452,The Rocks,1,0.08,0.39,8,7,NIGHT_CLEAR,Offshore,1
5842041f4e65fad6a7708b64,2024_03_18,38.93036,-74.91257,Queen Street,2,0.11,0.42,8,7,NIGHT_CLEAR,Offshore,1
5842041f4e65fad6a7708b65,2024_03_18,38.942757,-74.880791,Poverty Beach,1,0.14,0.45,8,7,NIGHT_CLEAR,Offshore,1
5842041f4e65fad6a7708b66,2024_03_18,38.929441,-74.93129,Broadway Beach,2,0.11,0.41,8,7,NIGHT_CLEAR,Offshore,1
5842041f4e65fad6a7708b67,2024_03_18,38.92870117926206,-74.92116,Grant Street Beach,2,0.11,0.41,8,7,NIGHT_CLEAR,Offshore,1
5842041f4e65fad6a7708b68,2024_03_18,38.928934874358276,-74.93582,The Cove,2,0.11,0.42,8,8,NIGHT_CLEAR,Offshore,1
5842041f4e65fad6a7708b69,2024_03_18,26.775154329102108,-80.03124833106995,Pumphouse,2,0.14,0.44,24,24,NIGHT_MIST,Offshore,1
5842041f4e65fad6a7708b6a,2024_03_18,26.72114353296791,-80.03310374527736,Sunrise,2,0.1,0.41,24,23,NIGHT_MIST,Offshore,1
5842041f4e65fad6a7708b6b,2024_03_18,26.71306786153966,-80.03222170715443,Breakers,2,0.12,0.42,24,23,NIGHT_MIST,Offshore,1
5842041f4e65fad6a7708b6c,2024_03_18,26.699075556703683,-80.03263235092163,Charlie's Crab,2,0.13,0.44,24,23,NIGHT_MIST,Offshore,1
5842041f4e65fad6a7708b6d,2024_03_18,26.79441490392914,-80.0306161110009,Ocean Reef Park,2,0.07,0.38,24,23,NIGHT_CLEAR,Offshore,1
5842041f4e65fad6a7708b6f,2024_03_18,26.93134670517399,-80.06760115579169,Civic Center,2,0.34848750000000006,0.5674224999999999,24,23,NIGHT_CLEAR,Offshore,1
5842041f4e65fad6a7708b70,2024_03_18,26.90524197396177,-80.0593609780092,Kite Beach,2,0.10753,0.340375,24,23,NIGHT_CLEAR,Offshore,1
5842041f4e65fad6a7708b71,2024_03_18,26.54279208054373,-80.04292130470276,Boynton Beach Inlet (Southside),0,0,0.3,24,23,NIGHT_CLEAR,Offshore,1
5842041f4e65fad6a7708b72,2024_03_18,26.613511029817357,-80.03534198871253,Lake Worth Pier,1,-0.0025000000000000005,0.2187,24,23,NIGHT_CLEAR,Offshore,1
5842041f4e65fad6a7708b73,2024_03_18,27.06670219261476,-80.11447191238403,Hobe Sound Public Beach,1,0.19,0.5,24,22,NIGHT_CLEAR,Offshore,1
5842041f4e65fad6a7708b75,2024_03_18,27.21467611230439,-80.17308280299079,Stuart Public Beach,2,0.11,0.41,24,22,NIGHT_CLEAR,Offshore,1
5842041f4e65fad6a7708b76,2024_03_18,27.36627923374593,-80.24622,Blind Creek Park,2,0.115,0.4237,23,22,NIGHT_CLEAR,Offshore,1
5842041f4e65fad6a7708b77,2024_03_18,26.94256932088346,-80.0705677063405,Jupiter Inlet,2,0.17,0.47,24,22,NIGHT_CLEAR,Offshore,1
5842041f4e65fad6a7708b78,2024_03_18,26.89365359499372,-80.056,Juno Pier,1,0,0.27370000000000005,24,23,NIGHT_CLEAR,Offshore,1
5842041f4e65fad6a7708b7a,2024_03_18,29.67671206577928,-85.3689474172784,Cape San Blas,2,0,0.22,19,19,NIGHT_DRIZZLE,Onshore,1
5842041f4e65fad6a7708b7b,2024_03_18,26.706551543472415,-80.03280401229858,Flagpole,2,0.13,0.43,24,23,NIGHT_MIST,Offshore,1
5842041f4e65fad6a7708b7c,2024_03_18,29.94036477533054,-85.40953557392244,El Governor,1,0,0.18,18,18,NIGHT_FOG,Onshore,1
5842041f4e65fad6a7708b7d,2024_03_18,29.68231979841189,-85.30627194238092,Toilet Bowls,1,0,0.23,19,19,NIGHT_DRIZZLE,Cross-shore,1
5842041f4e65fad6a7708b7e,2024_03_18,29.6607153445246,-84.86361191991014,St. George Island,1,0,0.16,18,18,NIGHT_MIST,Cross-shore,1
5842041f4e65fad6a7708b7f,2024_03_18,29.77441172865639,-84.65942657000329,Dog Island,0,0,0.15,18,18,NIGHT_LIGHT_RAIN,Offshore,1
5842041f4e65fad6a7708b80,2024_03_18,28.59674155718017,-95.97559064551533,Matagorda,2,0.38,0.68,19,19,NIGHT_MOSTLY_CLOUDY,Offshore,1
5842041f4e65fad6a7708b81,2024_03_18,27.84601633294622,-97.04372701603208,St. Joe's Island,1,0.42,0.73,19,19,NIGHT_MOSTLY_CLOUDY,Cross-shore,1
5842041f4e65fad6a7708b82,2024_03_18,27.64327897922308,-97.18612,J.P. Luby Surf Park,2,0.46076,0.71994,19,19,NIGHT_CLEAR,Cross-shore,1
5842041f4e65fad6a7708b83,2024_03_18,27.82704888028459,-97.05277,Horace Caldwell Pier,2,0.48745,0.76164,19,19,NIGHT_MOSTLY_CLOUDY,Offshore,1
5842041f4e65fad6a7708b84,2024_03_18,27.67634780977739,-97.16473,Fish Pass,2,0.46076,0.71994,19,19,NIGHT_MOSTLY_CLOUDY,Cross-shore,1
5842041f4e65fad6a7708b85,2024_03_18,27.58118015227788,-97.2191,Bob Hall Pier,2,0.46076,0.71994,19,19,NIGHT_CLEAR,Offshore,1
5842041f4e65fad6a7708b86,2024_03_18,28.93236038480434,-95.30205,Quintana,2,0.49143,0.76787,19,19,NIGHT_OVERCAST,Offshore,1
5842041f4e65fad6a7708b87,2024_03_18,28.94367955201253,-95.28969,Octagon,2,0.49143,0.76787,19,19,NIGHT_DRIZZLE,Offshore,1
5842041f4e65fad6a7708b88,2024_03_18,29.02647703020454,-95.18702498902157,Boilers,1,0.3,0.6,19,19,NIGHT_OVERCAST,Offshore,1
5842041f4e65fad6a7708b89,2024_03_18,28.9653363517684,-95.26739753922841,Assholes,2,0.35,0.66,19,19,NIGHT_DRIZZLE,Offshore,1
5842041f4e65fad6a7708b8a,2024_03_18,29.27159138874912,-94.81532732168617,51st Street,1,0.27,0.58,19,19,NIGHT_OVERCAST,Cross-shore,1
5842041f4e65fad6a7708b8b,2024_03_18,29.13902635892794,-95.04070493829546,West Galveston,1,0.28,0.58,19,19,NIGHT_OVERCAST,Cross-shore,1
5842041f4e65fad6a7708b8c,2024_03_18,29.26596874354759,-94.82556,61st Street,1,0.36982,0.57784,19,19,NIGHT_OVERCAST,Offshore,1
5842041f4e65fad6a7708b8d,2024_03_18,29.279815639798642,-94.80146,37th Street,1,0.29754,0.46491,19,19,NIGHT_OVERCAST,Offshore,1
5842041f4e65fad6a7708b8e,2024_03_18,29.28680654948785,-94.79106,Flagship,1,0.29626,0.46291,20,20,NIGHT_OVERCAST,Cross-shore,1
5842041f4e65fad6a7708b8f,2024_03_18,29.4702751255731,-94.59146640261427,A-Frames,1,0.22,0.52,20,20,NIGHT_MOSTLY_CLOUDY,Offshore,1
5842041f4e65fad6a7708b90,2024_03_18,29.52172627288487,-94.45911,Meacom's Pier,1,0.29359,0.45874,19,19,NIGHT_MOSTLY_CLOUDY,Offshore,1
5842041f4e65fad6a7708b91,2024_03_18,29.4510876813709,-94.63230467945758,Crystal Beach,1,0.2,0.51,20,20,NIGHT_MOSTLY_CLOUDY,Offshore,1
5842041f4e65fad6a7708b92,2024_03_18,26.06123118244004,-97.14769,Boca Chica,1,0.42669,0.6667,19,19,NIGHT_DRIZZLE,Cross-shore,1
5842041f4e65fad6a7708b93,2024_03_18,26.06961904983808,-97.15243,Isla Blanca State Park,1,0.38298,0.59841,19,19,NIGHT_DRIZZLE,Cross-shore,1
5842041f4e65fad6a7708b96,2024_03_18,26.56132001354785,-97.26967,Port Mansfield,0,0.43632,0.68174,19,19,NIGHT_MOSTLY_CLOUDY,Cross-shore,1
5842041f4e65fad6a7708b98,2024_03_18,10.85099440725964,-85.79981,Ollie's Point,3,0.46,0.77,28,28,NIGHT_CLEAR,Offshore,1
5842041f4e65fad6a7708b99,2024_03_18,10.79489213393012,-85.68066,Witches Rock,3,0.66,0.97,28,28,NIGHT_CLEAR,Offshore,1
5842041f4e65fad6a7708b9a,2024_03_18,9.570222044864844,-85.14184,Mal Pais,3,1.41,1.68,30,30,NIGHT_CLEAR,Cross-shore,1
5842041f4e65fad6a7708b9b,2024_03_18,10.29970304257365,-85.84398,Tamarindo,3,0.32,0.63,29,29,NIGHT_CLEAR,Offshore,1
5842041f4e65fad6a7708b9c,2024_03_18,9.250593929300813,-83.86522,Dominical,4,1.02,1.22,31,31,NIGHT_CLEAR,Offshore,1
5842041f4e65fad6a7708b9d,2024_03_18,9.48278011021258,-84.28883991550364,Bejuco,4,1.19,1.43,31,31,NIGHT_CLEAR,Offshore,1
5842041f4e65fad6a7708ba1,2024_03_18,9.616940559391795,-84.63541,Playa Jaco,3,0.76049,1.18827,31,31,NIGHT_CLEAR,Offshore,1
5842041f4e65fad6a7708ba3,2024_03_18,9.661646156842439,-84.67316883195207,Playa Escondida,3,0.7,1.01,31,31,NIGHT_CLEAR,Cross-shore,1
5842041f4e65fad6a7708ba4,2024_03_18,9.635059578319176,-84.66159522794959,Herradura,3,0.66,0.97,31,31,NIGHT_CLEAR,Cross-shore,1
5842041f4e65fad6a7708ba5,2024_03_18,9.958235741436532,-84.74122,Boca Barranca,4,0.8355,1.30547,29,29,NIGHT_CLEAR,Offshore,1
5842041f4e65fad6a7708ba6,2024_03_18,9.922484732656224,-84.7158981889118,Caldera Jetty,3,1.06,1.27,29,29,NIGHT_CLEAR,Offshore,1
5842041f4e65fad6a7708ba7,2024_03_18,9.661180947362254,-82.75273,Salsa Brava,3,0.72596,1.13432,29,29,NIGHT_BRIEF_SHOWERS,Cross-shore,1
5842041f4e65fad6a7708ba8,2024_03_18,8.38230022212565,-83.2833208585971,Matapalo,4,1.41,1.69,31,31,NIGHT_CLEAR,Offshore,1
5842041f4e65fad6a7708ba9,2024_03_18,8.394937,-83.13952,Pavones,3,0.75,1.06,31,31,NIGHT_CLEAR,Onshore,1
5842041f4e65fad6a7708baa,2024_03_18,13.47971255664387,-89.28610104791234,Playa San Diego,3,0.92,1.09,29,29,NIGHT_CLEAR,Offshore,1
5842041f4e65fad6a7708bab,2024_03_18,13.4834740494465,-89.32376,La Paz,3,0.47686,0.7451,29,29,NIGHT_CLEAR,Offshore,1
5842041f4e65fad6a7708bac,2024_03_18,13.48587874937462,-89.31998852531258,El Muelle (Pier),3,1.02,1.32,29,29,NIGHT_CLEAR,Offshore,1
5842041f4e65fad6a7708bad,2024_03_18,13.47973883183636,-89.32655,Punta Roca,3,1.04,1.34,29,29,NIGHT_CLEAR,Offshore,1
5842041f4e65fad6a7708bae,2024_03_18,13.491596878346689,-89.38104,La Bocana,3,0.71489,1.11701,29,29,NIGHT_CLEAR,Offshore,1
5842041f4e65fad6a7708baf,2024_03_18,13.48324995683858,-89.33946,Playa Conchalio,3,0.74019,1.15655,29,29,NIGHT_CLEAR,Cross-shore,1
5842041f4e65fad6a7708bb0,2024_03_18,13.49167561061991,-89.39,Sunzal,3,0.6994,1.09281,29,29,NIGHT_CLEAR,Offshore,1
5842041f4e65fad6a7708bb1,2024_03_18,35.92499624829542,-121.4695748415559,Sand Dollar Beach,4,2.06,2.46,13,13,NIGHT_CLEAR,Cross-shore,1
5842041f4e65fad6a7708bb3,2024_03_18,36.55448900657569,-121.9311417414934,Carmel Beach,3,0.74,1.04,14,14,NIGHT_CLEAR,Cross-shore,1
5842041f4e65fad6a7708bb4,2024_03_18,36.27968576518622,-121.85962,Big Sur Rivermouth,4,1.6,1.91,13,13,NIGHT_CLEAR,Offshore,1
5842041f4e65fad6a7708bb5,2024_03_18,36.60883280895963,-121.9603486684287,Mole Point,3,1.37,1.64,14,14,NIGHT_MIST,Onshore,1
5842041f4e65fad6a7708bb6,2024_03_18,36.63788026219399,-121.9311174079908,Boneyard,3,1.28,1.53,14,14,NIGHT_MIST,Onshore,1
5842041f4e65fad6a7708bb7,2024_03_18,36.61880091818895,-121.9422482210244,Asilomar,3,1.66,1.98,14,14,NIGHT_MIST,Onshore,1
5842041f4e65fad6a7708bb8,2024_03_18,36.56037685095311,-121.9516152313922,Ghost Tree,3,0.97,1.28,14,14,NIGHT_MIST,Cross-shore,1
5842041f4e65fad6a7708bbb,2024_03_18,35.89412279173619,-121.462380148047,Willow Creek,4,1.49,1.78,13,13,NIGHT_CLEAR,Offshore,1
5842041f4e65fad6a7708bbc,2024_03_18,36.6260658643635,-121.9154753515004,Lover's Point,3,1.05,1.26,14,14,NIGHT_MIST,Onshore,1
5842041f4e65fad6a7708bbf,2024_03_18,36.80821791915616,-121.7905508507365,Moss Landing,4,1.93,2.28,14,14,NIGHT_MOSTLY_CLOUDY,Offshore,1
5842041f4e65fad6a7708bc7,2024_03_18,31.80902927937703,-116.8081979700041,Todos Santos / Killers,NA,3.59,4.3,15,15,NIGHT_CLEAR,Onshore,1
5842041f4e65fad6a7708bc9,2024_03_18,31.90016519474307,-116.7311659566412,San Miguel,3,0.63,0.93,15,15,NIGHT_CLEAR,Cross-shore,1
5842041f4e65fad6a7708bd0,2024_03_18,32.3489432986615,-117.0668043482785,Rosarito Beach,3,0.66,0.97,15,15,NIGHT_CLEAR,Offshore,1
5842041f4e65fad6a7708bd1,2024_03_18,23.44473573026049,-110.2452466338192,Todos Santos,3,0.63,0.94,21,21,NIGHT_CLEAR,Offshore,1
5842041f4e65fad6a7708bd2,2024_03_18,31.97636522717259,-116.7913888957552,Salsipuedes,3,1.01,1.21,15,15,NIGHT_CLEAR,Offshore,1
5842041f4e65fad6a7708bd3,2024_03_18,23.39151658553801,-110.2143952234506,Las Palmas,3,0.62,0.92,22,22,NIGHT_CLEAR,Offshore,1
5842041f4e65fad6a7708bd4,2024_03_18,23.02358192684975,-109.7147,Old Man's,2,0.25,0.56,22,22,NIGHT_CLEAR,Offshore,1
5842041f4e65fad6a7708bd5,2024_03_18,23.32877869857464,-110.17715,Cerritos,2,0.6,0.9,21,21,NIGHT_CLEAR,Offshore,1
5842041f4e65fad6a7708bd6,2024_03_18,23.36729303816202,-110.20268,San Pedrito,2,0.4,0.7,22,22,NIGHT_CLEAR,Offshore,1
5842041f4e65fad6a7708bd7,2024_03_18,23.02506324659338,-109.71456,The Rock,2,0.25,0.56,22,22,NIGHT_CLEAR,Offshore,1
5842041f4e65fad6a7708bd8,2024_03_18,22.896,-109.869,Monuments,3,0.48,0.78,22,22,NIGHT_CLEAR,Offshore,1
5842041f4e65fad6a7708bd9,2024_03_18,23.04871261564847,-109.6800082320905,The Estuary,3,0.37,0.68,22,22,NIGHT_CLEAR,Offshore,1
5842041f4e65fad6a7708bda,2024_03_18,23.029,-109.714,Zippers,2,0.25,0.56,22,22,NIGHT_CLEAR,Offshore,1
5842041f4e65fad6a7708bdb,2024_03_18,23.12,-109.527,Shipwreck,3,0.38,0.68,22,22,NIGHT_CLEAR,Cross-shore,1
5842041f4e65fad6a7708bdc,2024_03_18,23.174,-109.476,Nine Palms,3,0.47,0.78,22,22,NIGHT_CLEAR,Offshore,1
5842041f4e65fad6a7708bed,2024_03_18,40.028403115215,-74.04836654663,Mantoloking,2,0.15,0.45,7,6,NIGHT_MOSTLY_CLOUDY,Offshore,1
5842041f4e65fad6a7708c33,2024_03_18,9.746222222,-82.85211111,Cahuita,3,1.2,1.5,29,29,NIGHT_BRIEF_SHOWERS,Offshore,1
5842041f4e65fad6a7708c35,2024_03_18,10.22975,-85.84058,Avellanas,3,0.69,1,30,30,NIGHT_CLEAR,Offshore,1
5842041f4e65fad6a7708c36,2024_03_18,10.313,-85.843,Playa Grande,3,0.73,1.03,29,29,NIGHT_CLEAR,Offshore,1
5842041f4e65fad6a7708c37,2024_03_18,9.389333333,-84.15386111,Manuel Antonio,4,1.31,1.57,31,31,NIGHT_CLEAR,Offshore,1
5842041f4e65fad6a7708c38,2024_03_18,10.28630556,-85.85227778,Playa Langosta,3,0.91,1.09,29,29,NIGHT_CLEAR,Offshore,1
5842041f4e65fad6a7708c46,2024_03_18,20.934,-105.401,Costa Azul,1,0.4,0.7,26,26,NIGHT_CLEAR,Cross-shore,1
5842041f4e65fad6a7708c47,2024_03_18,18.51369499135283,-67.03911,Middles,1,0.71,1.01,27,27,NIGHT_BRIEF_SHOWERS,Cross-shore,1
5842041f4e65fad6a7708c48,2024_03_18,18.515,-67.077,Jobos,2,0.43989999999999996,0.7867,28,27,NIGHT_BRIEF_SHOWERS_POSSIBLE,Cross-shore,1
5842041f4e65fad6a7708c49,2024_03_18,18.50659587388844,-67.14095,Surfer's Beach,2,0.46,0.77,27,27,NIGHT_MOSTLY_CLEAR,Offshore,1
5842041f4e65fad6a7708c4a,2024_03_18,18.4724771991133,-67.16964903636637,Wishing Well,1,0,0.24,27,27,NIGHT_CLEAR,Offshore,1
5842041f4e65fad6a7708c4b,2024_03_18,18.48507943247522,-67.16805,Wilderness,2,0.53,0.83,27,27,NIGHT_CLEAR,Offshore,1
5842041f4e65fad6a7708c4c,2024_03_18,18.46090012303478,-67.16701,Chambers,0,0,0.09,27,27,NIGHT_CLEAR,Offshore,1
5842041f4e65fad6a7708c4d,2024_03_18,18.45734083137307,-67.16435,Crash Boat,0,0,0.06,27,27,NIGHT_CLEAR,Offshore,1
5842041f4e65fad6a7708c4f,2024_03_18,18.36085983178037,-67.27182288542944,Indicators,2,0.18,0.48,27,27,NIGHT_CLEAR,Offshore,1
5842041f4e65fad6a7708c50,2024_03_18,18.42530999756879,-67.15604263628627,Bridges,1,0,0.07,27,27,NIGHT_CLEAR,Offshore,1
5842041f4e65fad6a7708c51,2024_03_18,18.50806588732911,-67.1388404959542,Table Top,1,0.46,0.77,27,27,NIGHT_MOSTLY_CLEAR,Cross-shore,1
5842041f4e65fad6a7708c53,2024_03_18,18.37335029722464,-67.25282708189441,Antonio's,2,0.27,0.58,27,27,NIGHT_CLEAR,Cross-shore,1
5842041f4e65fad6a7708c54,2024_03_18,18.3717999427746,-67.2592,Sandy Beach,1.5,0.2087,0.5099,28,27,NIGHT_CLEAR,Cross-shore,1
5842041f4e65fad6a7708c55,2024_03_18,18.36591901691329,-67.27130709907874,Domes,2,0.22,0.52,27,27,NIGHT_CLEAR,Offshore,1
5842041f4e65fad6a7708c56,2024_03_18,18.37093775805671,-67.26124188960489,Pools,2,0.37903,0.6872975,28,27,NIGHT_CLEAR,Cross-shore,1
5842041f4e65fad6a7708c58,2024_03_18,18.359052,-67.271765,The Point,2,0.28828,0.53467,27,27,NIGHT_CLEAR,Offshore,1
5842041f4e65fad6a7708c59,2024_03_18,18.343578,-67.26082,Little Malibu,1,0.20158,0.31497000000000003,27,27,NIGHT_CLEAR,Offshore,1
5842041f4e65fad6a7708c5a,2024_03_18,18.35046796998277,-67.26958496140767,Tres Palmas,0,0,0.29,27,27,NIGHT_CLEAR,Offshore,1
5842041f4e65fad6a7708c5c,2024_03_18,18.358457148373724,-67.27163,Maria's,2,0.10370000000000001,0.4024,28,27,NIGHT_CLEAR,Offshore,1
5842041f4e65fad6a7708c5d,2024_03_18,18.36436193914082,-65.67175850608821,La Selva,1,0.27,0.57,27,27,NIGHT_CLEAR,Cross-shore,1
5842041f4e65fad6a7708c5e,2024_03_18,18.377237,-65.714583,La Pared,1,0.53,0.83,27,27,NIGHT_MOSTLY_CLOUDY,Cross-shore,1
5842041f4e65fad6a7708c5f,2024_03_18,18.47587365739435,-66.73093579970327,Margara,2,0.44,0.75,27,27,NIGHT_CLEAR,Cross-shore,1
5842041f4e65fad6a7708c60,2024_03_18,18.49042886903135,-66.9558167601821,Guajataca,2,0.67,0.97,27,27,NIGHT_FOG,Cross-shore,1
5842041f4e65fad6a7708c61,2024_03_18,18.47273941014759,-66.44904622785756,Los Tubos,1,0.29,0.6,27,27,NIGHT_MOSTLY_CLOUDY,Offshore,1
5842041f4e65fad6a7708c62,2024_03_18,18.467168313149315,-66.09311,La Ocho,2,0.4699,0.8067,27,26,NIGHT_CLEAR,Cross-shore,1
5842041f4e65fad6a7708c63,2024_03_18,18.45529355651344,-65.96670584112921,Chatarra,1,0.67,0.97,27,27,NIGHT_BRIEF_SHOWERS,Cross-shore,1
5842041f4e65fad6a7708c64,2024_03_18,18.452,-65.957871,Aviones,0,0.61,0.91,27,27,NIGHT_MOSTLY_CLOUDY,Cross-shore,1
5842041f4e65fad6a7708c65,2024_03_18,18.451764,-65.956416,Tocones,0,0.61,0.91,27,27,NIGHT_MOSTLY_CLOUDY,Cross-shore,1
5842041f4e65fad6a7708c66,2024_03_18,23.09289784805277,-82.49361057903533,Old Man's,0,0,0.05,27,27,NIGHT_CLEAR,Offshore,1
5842041f4e65fad6a7708c67,2024_03_18,17.97138086645092,-65.96246497134709,Inches,2,0.38,0.68,27,27,NIGHT_CLEAR,Offshore,1
5842041f4e65fad6a7708c68,2024_03_18,21.18269590184542,-76.17425732522923,Gibara Coast,2,0.37,0.68,26,26,NIGHT_BRIEF_SHOWERS_POSSIBLE,Cross-shore,1
5842041f4e65fad6a7708c69,2024_03_18,20.29935933410474,-74.38513580703325,Baracoa Coast,2,0.21,0.52,27,27,NIGHT_MIST,Onshore,1
5842041f4e65fad6a7708c6a,2024_03_18,17.90850736737134,-76.18979571186617,Ranch,2,1.36,1.66,27,27,NIGHT_BRIEF_SHOWERS,Onshore,1
5842041f4e65fad6a7708c6b,2024_03_18,20.062663,-74.4972,Cajo Babo,2,0,0.29,28,28,NIGHT_CLEAR,Onshore,1
5842041f4e65fad6a7708c6c,2024_03_18,17.869517,-76.582916,Makka,0,0.25,0.55,28,28,NIGHT_CLEAR,Onshore,1
5842041f4e65fad6a7708c6d,2024_03_18,17.927946,-76.77929,Lighthouse,3,0.81,1.12,28,28,NIGHT_CLEAR,Onshore,1
5842041f4e65fad6a7708c6e,2024_03_18,17.945043,-76.717493,Zoo,3,0.67,0.97,28,28,NIGHT_CLEAR,Cross-shore,1
5842041f4e65fad6a7708c6f,2024_03_18,17.94222896363424,-76.69415558555534,Copa,3,0.53,0.84,28,28,NIGHT_CLEAR,Cross-shore,1
5842041f4e65fad6a7708c70,2024_03_18,18.1586,-76.3553,Boston Bay,0,0.21,0.51,27,27,NIGHT_CLEAR,Cross-shore,1
5842041f4e65fad6a7708c71,2024_03_18,19.760009,-70.51905,Sosua,0,0,0.21,26,26,NIGHT_CLEAR,Onshore,1
5842041f4e65fad6a7708c72,2024_03_18,19.783,-70.45,Encuentro,1,0.65106,1.01728,27,27,NIGHT_CLEAR,Cross-shore,1
5842041f4e65fad6a7708c73,2024_03_18,18.229,-70.189,Patho Beach,2,0.74708,1.16731,27,27,NIGHT_MOSTLY_CLOUDY,Cross-shore,1
5842041f4e65fad6a7708c74,2024_03_18,18.433,-69.631,La Boya,3,0.7219,1.12797,27,27,NIGHT_CLEAR,Cross-shore,1
5842041f4e65fad6a7708c75,2024_03_18,18.420275,-70.01139,El Chinchorro,3,0.77193,1.20614,28,28,NIGHT_CLEAR,Offshore,1
5842041f4e65fad6a7708c76,2024_03_18,18.4469967022155,-64.59065,Josiah's Bay,1,0.41005,0.6407,27,27,NIGHT_MOSTLY_CLOUDY,Cross-shore,1
5842041f4e65fad6a7708c77,2024_03_18,17.988754,-71.16075,Bahoruco,1,0.8865,1.38516,27,27,NIGHT_MOSTLY_CLOUDY,Cross-shore,1
5842041f4e65fad6a7708c78,2024_03_18,18.40133856648012,-64.68076,Apple Bay,1,0.24,0.54,27,27,NIGHT_CLEAR,Offshore,1
5842041f4e65fad6a7708c79,2024_03_18,11.15033417501753,-60.84783,Airports,0,0.63111,0.98611,28,28,NIGHT_CLEAR,Cross-shore,1
5842041f4e65fad6a7708c7b,2024_03_18,10.83550342228099,-60.920248032489326,Salybia Bay,1,0.67,0.98,28,28,NIGHT_CLEAR,Cross-shore,1
5842041f4e65fad6a7708c7c,2024_03_18,10.717707,-60.98962,Balandra Bay,1,0.46,0.77,28,28,NIGHT_CLEAR,Onshore,1
5842041f4e65fad6a7708c7d,2024_03_18,10.839254,-61.00207,Sans Souci Bay,1,0.38778,0.60591,28,28,NIGHT_CLEAR,Cross-shore,1
5842041f4e65fad6a7708c7e,2024_03_18,13.21452297223763,-59.51781,Parlour,1,0.75396,1.17807,28,28,NIGHT_CLEAR,Onshore,1
5842041f4e65fad6a7708c7f,2024_03_18,13.220009,-59.529543,Cattle Wash,1,0.68,0.99,28,28,NIGHT_CLEAR,Onshore,1
5842041f4e65fad6a7708c80,2024_03_18,13.316799,-59.647131,Duppies,2,0.65,0.95,28,28,NIGHT_CLEAR,Offshore,1
5842041f4e65fad6a7708c81,2024_03_18,13.07622829845154,-59.60844,Brandon's,2,0.92905,1.45164,28,28,NIGHT_CLEAR,Offshore,1
5842041f4e65fad6a7708cba,2024_03_18,-34.423495820297,-72.04571,Punta De Lobos,3,1.42207,2.22199,17,17,NIGHT_CLEAR,Cross-shore,1
5842041f4e65fad6a7708cbd,2024_03_18,-32.83471254202934,-71.52493,Ritoque,0,1.16742,1.82409,18,18,NIGHT_CLEAR,Cross-shore,1
5842041f4e65fad6a7708cbe,2024_03_18,-34.40005602954382,-72.02983,Infiernillo,3,1.00028,1.56294,16,16,NIGHT_CLEAR,Cross-shore,1
5842041f4e65fad6a7708cc0,2024_03_18,-34.08631568896031,-71.96406,Puertecillo,3,0.68,0.98,16,16,NIGHT_CLEAR,Offshore,1
5842041f4e65fad6a7708cc1,2024_03_18,-32.7797253656226,-71.54022,Papagayo,0,1.16742,1.82409,18,18,NIGHT_CLEAR,Cross-shore,1
5842041f4e65fad6a7708cc2,2024_03_18,-32.96650495157324,-71.54756,Renaca,4,1.78,2.78126,18,18,NIGHT_CLEAR,Offshore,1
5842041f4e65fad6a7708cc3,2024_03_18,-33.9609330136559,-71.87877,Matanzas,1,0.97318,1.52059,16,16,NIGHT_CLEAR,Cross-shore,1
5842041f4e65fad6a7708cc4,2024_03_18,-34.3876776285385,-72.0253,Pichilemu,3,1.00028,1.56294,16,16,NIGHT_CLEAR,Cross-shore,1
5842041f4e65fad6a7708cc5,2024_03_18,-35.35833333,-72.46361111,El Puerto,3,1.21,1.45,14,14,NIGHT_CLEAR,Offshore,1
5842041f4e65fad6a7708cc6,2024_03_18,-32.7134435173592,-71.48194,El Claron,0,1.16742,1.82409,18,18,NIGHT_CLEAR,Cross-shore,1
5842041f4e65fad6a7708cc7,2024_03_18,-18.48166667,-70.33333,El Gringo,3,1.67696,2.62025,24,24,NIGHT_LIGHT_SHOWERS,Cross-shore,1
5842041f4e65fad6a7708cc8,2024_03_18,-18.45166667,-70.30528,Las Machas,3,1.67696,2.62025,24,24,NIGHT_LIGHT_SHOWERS,Cross-shore,1
5842041f4e65fad6a7708ccb,2024_03_18,-35.47416667,-72.50611111,Pellines,4,1.22,1.42,14,14,NIGHT_CLEAR,Offshore,1
5842041f4e65fad6a7708ccc,2024_03_18,-8.081944444,-79.12417,Punta Huanchaco,3,1.47353,2.3024,23,23,NIGHT_LIGHT_SHOWERS,Onshore,1
5842041f4e65fad6a7708ccd,2024_03_18,-7.705555556,-79.45472,Chicama,3,0.97,1.28,23,23,NIGHT_CLEAR,Offshore,1
5842041f4e65fad6a7708cce,2024_03_18,-4.110833333,-81.06722,Mancora,3,0.6887,1.07609,25,25,NIGHT_OVERCAST,Offshore,1
5842041f4e65fad6a7708ccf,2024_03_18,-7.411666667,-79.5875,Pacasmayo,3,1.48865,2.32602,23,23,NIGHT_BRIEF_SHOWERS_POSSIBLE,Onshore,1
5842041f4e65fad6a7708cd0,2024_03_18,-13.02602,-76.49459,Cerro Azul,3,1.2407,1.9386,21,21,NIGHT_CLEAR,Cross-shore,1
5842041f4e65fad6a7708cd1,2024_03_18,-18.48861111,-70.33278,El Buey,3,2.15363,3.36505,24,24,NIGHT_LIGHT_SHOWERS,Onshore,1
5842041f4e65fad6a7708cd2,2024_03_18,-4.248611111,-81.22861,Cabo Blanco,3,0.78219,1.22217,24,24,NIGHT_OVERCAST,Offshore,1
5842041f4e65fad6a7708cd3,2024_03_18,-23.74138889,-70.44556,La Cupula,3,0.76266,1.19166,21,21,NIGHT_CLEAR,Onshore,1
5842041f4e65fad6a7708cd4,2024_03_18,-20.23333333,-70.155,La Bestia,4,2.31,2.77,23,23,NIGHT_CLEAR,Offshore,1
5842041f4e65fad6a7708cd5,2024_03_18,-20.22694444,-70.15028,El Colegio,4,1.43435,2.24117,23,23,NIGHT_CLEAR,Offshore,1
5842041f4e65fad6a7708cd6,2024_03_18,-12.44166667,-76.77861,Penascal,4,1.77,2.11,22,22,NIGHT_CLOUDY,Cross-shore,1
5842041f4e65fad6a7708cd7,2024_03_18,-12.341,-76.823,La Isla,3,1.45809,2.27826,22,22,NIGHT_MOSTLY_CLOUDY,Onshore,1
5842041f4e65fad6a7708cd8,2024_03_18,-12.354,-76.819,Punta Rocas,3,0.89633,1.40052,22,22,NIGHT_MIST,Offshore,1
5842041f4e65fad6a7708cd9,2024_03_18,-12.18027778,-77.03806,Herradura,3,0.86674,1.35428,22,22,NIGHT_CLEAR,Offshore,1
5842041f4e65fad6a7708cda,2024_03_18,-38.01472222,-57.52611111,El Cabo Corrientes,1,0.17,0.47,20,20,NIGHT_RAIN,Offshore,1
5842041f4e65fad6a7708cdc,2024_03_18,-38.168776738575794,-57.62956,La Paloma,1,0.24153,0.37739,20,20,NIGHT_LIGHT_SHOWERS_POSSIBLE,Offshore,1
5842041f4e65fad6a7708cdd,2024_03_18,-26.52,-70.704,Portofino,2,0.2,0.51,20,20,NIGHT_MOSTLY_CLOUDY,Cross-shore,1
5842041f4e65fad6a7708cde,2024_03_18,-37.97666667,-57.54027778,Puerto Cardiel,1,0.23,0.53,20,20,NIGHT_RAIN,Offshore,1
5842041f4e65fad6a7708ce3,2024_03_18,-38.03111111,-57.52666667,Playa Grande,1,0.34,0.64,20,20,NIGHT_RAIN,Offshore,1
5842041f4e65fad6a7708ceb,2024_03_18,-27.63111944,-48.44852,Joaquina,1,0.34005,0.53133,26,26,NIGHT_CLEAR,Onshore,1
5842041f4e65fad6a7708cec,2024_03_18,-27.71779167,-48.50169,Morro das Pedras,1,0.31347,0.4898,26,26,NIGHT_CLEAR,Onshore,1
5842041f4e65fad6a7708ced,2024_03_18,-27.68897778,-48.47757778,Campeche,3,0.34,0.64,26,26,NIGHT_CLOUDY,Offshore,1
5842041f4e65fad6a7708cee,2024_03_18,-27.51835,-48.39218,Mocambique,1,0.31396,0.49057,26,26,NIGHT_CLEAR,Onshore,1
5842041f4e65fad6a7708cef,2024_03_18,-28.25247222,-48.66185,Praia da Vila Imbituba,2,0.27408,0.42825,23,23,NIGHT_OVERCAST,Offshore,1
5842041f4e65fad6a7708cf0,2024_03_18,-28.07924167,-48.62392,Ferrugem,2,0.40209,0.62826,24,24,NIGHT_CLEAR,Cross-shore,1
5842041f4e65fad6a7708cf1,2024_03_18,-27.60800556,-48.43142,Praia Mole,2,0.40706,0.63604,26,26,NIGHT_CLEAR,Onshore,1
5842041f4e65fad6a7708cf2,2024_03_18,-28.04470833,-48.60693,Silveira Garopaba,3,0.43236,0.67557,24,24,NIGHT_CLEAR,Offshore,1
5842041f4e65fad6a7708cf4,2024_03_18,-27.59744167,-48.42205,Galhetas,2,0.39415,0.61586,26,26,NIGHT_CLEAR,Onshore,1
5842041f4e65fad6a7708cf8,2024_03_18,-27.9078,-48.58476,Guarda do Embaú,2,0.30174,0.47147,25,25,NIGHT_CLEAR,Onshore,1
5842041f4e65fad6a7708d5b,2024_03_18,-17.63333333,-149.6202778,Maraa,3,1.15,1.37,29,29,NIGHT_CLEAR,Offshore,1
5842041f4e65fad6a7708d5f,2024_03_18,-17.60305556,-149.6216667,Taapuna,3,1.15,1.38,29,29,NIGHT_MOSTLY_CLEAR,Offshore,1
5842041f4e65fad6a7708d61,2024_03_18,-17.51083333,-149.41972,Papenoo Rivermouth,3,0.68367,1.06824,29,29,NIGHT_MOSTLY_CLEAR,Cross-shore,1
5842041f4e65fad6a7708d62,2024_03_18,-17.76388889,-149.5016667,Papara,3,1.01,1.31,29,29,NIGHT_CLEAR,Cross-shore,1
5842041f4e65fad6a7708d63,2024_03_18,-17.802,-149.313,Vairao,3,0.93,1.11,29,29,NIGHT_CLEAR,Offshore,1
5842041f4e65fad6a7708da5,2024_03_18,20.791,-156.509,Ma'alaea Harbor,1,0.17,0.47,24,24,NIGHT_CLEAR,Cross-shore,1
5842041f4e65fad6a7708daf,2024_03_18,44.66404,-63.25845,The Cove,2,0.91,1.22,1,1,NIGHT_MIST,Cross-shore,1
5842041f4e65fad6a7708db0,2024_03_18,44.689901957432156,-63.13179,Martinique,2,1.54,1.85,1,1,NIGHT_MIST,Offshore,1
5842041f4e65fad6a7708db1,2024_03_18,44.657329,-63.25684,Right Point,2,0.91,1.22,1,1,NIGHT_MIST,Cross-shore,1
5842041f4e65fad6a7708db2,2024_03_18,44.61774,-63.417031,Osbourne,2,1.11,1.41,1,1,NIGHT_MIST,Cross-shore,1
5842041f4e65fad6a7708db3,2024_03_18,49.0641,-125.7682,Long Beach,3,0.72,1.03,9,9,NIGHT_CLEAR,Cross-shore,1
5842041f4e65fad6a7708db4,2024_03_18,49.12833333,-125.9027778,Rosie Bay,3,0.55,0.86,9,9,NIGHT_CLEAR,Cross-shore,1
5842041f4e65fad6a7708db5,2024_03_18,49.0168,-125.686,Wickaninnish,3,0.80913,1.26427,9,9,NIGHT_MIST,Offshore,1
5842041f4e65fad6a7708db6,2024_03_18,49.11805556,-125.89444,Chesterman Beach,3,0.49863,0.7791,9,9,NIGHT_MIST,Cross-shore,1
5842041f4e65fad6a7708db7,2024_03_18,49.1025,-125.87389,Cox Bay,3,0.71549,1.11795,9,9,NIGHT_MIST,Onshore,1
5842041f4e65fad6a7708db9,2024_03_18,11.45905865759882,-86.11157,Popoyo,1,0.69588,1.08732,27,27,NIGHT_CLEAR,Offshore,1
5842041f4e65fad6a7708dba,2024_03_18,11.4549634092428,-86.11003,Popoyo Outer Reef,2,1.05,1.36,27,27,NIGHT_CLEAR,Offshore,1
5842041f4e65fad6a7708dbb,2024_03_18,44.632158,-63.415339,Minutes,2,1.2,1.51,1,1,NIGHT_MIST,Cross-shore,1
5842041f4e65fad6a7708dbd,2024_03_18,11.36577672698044,-86.0100626486595,Manzanillo,1,0.49,0.8,27,27,NIGHT_CLEAR,Offshore,1
5842041f4e65fad6a7708dbe,2024_03_18,13.167687,-88.11798,Las Flores,4,1.21,1.45,30,30,NIGHT_CLEAR,Offshore,1
5842041f4e65fad6a7708dbf,2024_03_18,-17.868,-149.253,Teahupoo,3.17,1.1645333333333334,1.4673333333333334,27,26,NIGHT_CLEAR,Offshore,1
5842041f4e65fad6a7708dc0,2024_03_18,11.28249124556028,-85.90446,Playa Maderas,1,0.62991,0.98424,27,27,NIGHT_CLEAR,Offshore,1
5842041f4e65fad6a7708dc1,2024_03_18,9.389,-82.202,Bocas del Toro,3,1.13,1.43,29,29,NIGHT_BRIEF_SHOWERS,Cross-shore,1
5842041f4e65fad6a7708dc8,2024_03_18,7.635,-81.28,Punta Rocas,3,1.21,1.45,30,30,NIGHT_CLEAR,Offshore,1
5842041f4e65fad6a7708dca,2024_03_18,-24.015,-46.354,Santos,2,0.23,0.53,26,26,NIGHT_THUNDER_STORMS,Onshore,1
5842041f4e65fad6a7708dcc,2024_03_18,-24.004249,-46.2652,Pitangueiras,2,0.30509,0.4767,26,26,NIGHT_THUNDER_STORMS,Cross-shore,1
5842041f4e65fad6a7708dcd,2024_03_18,-23.793693257540447,-45.55976,Maresias,2,0.3716,0.58063,26,26,NIGHT_CLEAR,Offshore,1
5842041f4e65fad6a7708ddc,2024_03_18,41.32227463715753,-71.80342,Misquamicut State Beach,2,0.53434,0.83491,6,6,NIGHT_MOSTLY_CLOUDY,Cross-shore,1
5842041f4e65fad6a7708ddf,2024_03_18,36.971492,-121.9486,Capitola,2,0.336,0.553,14,14,NIGHT_MOSTLY_CLOUDY,Onshore,1
5842041f4e65fad6a7708de0,2024_03_18,20.808,-156.624,Olowalu,2,0.15,0.46,24,24,NIGHT_CLEAR,Offshore,1
5842041f4e65fad6a7708de1,2024_03_18,20.728,-156.453,The Cove,2,0.62,0.92,24,24,NIGHT_CLEAR,Offshore,1
5842041f4e65fad6a7708de2,2024_03_18,20.591,-156.415,La Perouse Bay,3,0.64,0.95,24,24,NIGHT_CLEAR,Cross-shore,1
5842041f4e65fad6a7708de3,2024_03_18,20.948,-156.693,Rainbows,1,0,0.23,24,24,NIGHT_CLEAR,Offshore,1
5842041f4e65fad6a7708de4,2024_03_18,21.024,-156.642,Honolua Bay,2,0.51,0.81,24,24,NIGHT_CLEAR,Offshore,1
5842041f4e65fad6a7708de5,2024_03_18,20.905,-156.442,Kanaha,1,0.49,0.79,23,23,NIGHT_CLEAR,Cross-shore,1
5842041f4e65fad6a7708de6,2024_03_18,20.904,-156.463,Kahului Harbor,1,0.7,1,24,24,NIGHT_CLEAR,Onshore,1
5842041f4e65fad6a7708de7,2024_03_18,21.024,-156.61,Honokohau Bay,2,1.33,1.59,24,24,NIGHT_CLEAR,Offshore,1
5842041f4e65fad6a7708de8,2024_03_18,20.936,-156.359,Ho'okipa,2,2.12,2.54,23,23,NIGHT_MOSTLY_CLOUDY,Cross-shore,1
5842041f4e65fad6a7708de9,2024_03_18,20.945,-156.298,Peahi (Jaws),NA,2.55,3.05,23,23,NIGHT_MOSTLY_CLOUDY,Cross-shore,1
5842041f4e65fad6a7708dea,2024_03_18,20.76,-155.983,Hana Bay,1,0.64,0.94,24,24,NIGHT_BRIEF_SHOWERS,Cross-shore,1
5842041f4e65fad6a7708deb,2024_03_18,20.866,-156.166,Honomanu Bay,3,1.17,1.4,24,24,NIGHT_MOSTLY_CLOUDY,Onshore,1
5842041f4e65fad6a7708dec,2024_03_18,19.756,-155.09,Honoli'i,2,0.28,0.59,23,23,NIGHT_MOSTLY_CLOUDY,Cross-shore,1
5842041f4e65fad6a7708ded,2024_03_18,19.695,-156.046,Pinetrees,2,0.66,0.97,25,25,NIGHT_CLEAR,Cross-shore,1
5842041f4e65fad6a7708dee,2024_03_18,19.594,-155.973,Magic Sands Beach,3,0.41,0.72,24,24,NIGHT_MOSTLY_CLEAR,Onshore,1
5842041f4e65fad6a7708def,2024_03_18,19.993,-155.827,Hapuna Bay,2,0.01,0.31,24,24,NIGHT_CLEAR,Offshore,1
5842041f4e65fad6a7708df0,2024_03_18,18.91,-155.678,South Point,2,1.51,1.8,24,24,NIGHT_CLEAR,Cross-shore,1
5842041f4e65fad6a7708df1,2024_03_18,22.101,-159.747,Polihale,3,2.49,2.98,24,24,NIGHT_CLEAR,Cross-shore,1
5842041f4e65fad6a7708df2,2024_03_18,21.705402859819525,-158.00333,Turtle Bay West,2,2.19,2.62,24,24,NIGHT_MOSTLY_CLOUDY,Offshore,1
5842041f4e65fad6a7708df3,2024_03_18,22.013,-159.785,Mana Point,4,1.56,1.86,24,24,NIGHT_CLEAR,Cross-shore,1
5842041f4e65fad6a7708df4,2024_03_18,21.685,-158.033,Velzyland,3,1.67,1.99,24,24,NIGHT_MOSTLY_CLOUDY,Cross-shore,1
5842041f4e65fad6a7708df5,2024_03_18,21.597,-158.109,Hale'iwa,3,2.02,2.42,26,25,NIGHT_CLEAR,Cross-shore,1
5842041f4e65fad6a7708df6,2024_03_18,21.284,-157.673,Sandy Beach,1,0.43,0.74,24,24,NIGHT_MOSTLY_CLOUDY,Cross-shore,1
5842041f4e65fad6a7708df7,2024_03_18,21.401,-157.718,Popoia Island Kailua,1,0.7,1,24,24,NIGHT_MOSTLY_CLOUDY,Onshore,1
5842041f4e65fad6a7708df8,2024_03_18,21.586,-158.191,Mokuleia,2,3.08,3.68,26,25,NIGHT_CLEAR,Cross-shore,1
5842041f4e65fad6a7708dfa,2024_03_18,21.566,-157.861,Crouching Lion,1,0.53,0.83,24,24,NIGHT_MOSTLY_CLOUDY,Onshore,1
5842041f4e65fad6a7708dfb,2024_03_18,21.679,-157.935,Kahuku,2,2.73,3.27,24,24,NIGHT_MOSTLY_CLOUDY,Onshore,1
5842041f4e65fad6a7708dfc,2024_03_18,21.544,-158.243,Yokohama Bay / Keawa’ula ,1,0.18,0.48,24,24,NIGHT_CLEAR,Offshore,1
5842041f4e65fad6a7708dfd,2024_03_18,21.475,-158.227,Makaha,3,0.46,0.77,24,24,NIGHT_CLEAR,Offshore,1
5842041f4e65fad6a7708dfe,2024_03_18,21.295,-158.107,Barbers Point,3,0.67,0.98,26,25,NIGHT_CLEAR,Offshore,1
5842041f4e65fad6a7708dff,2024_03_18,21.417,-158.185,Ma'ili,3,0.45,0.75,24,24,NIGHT_CLEAR,Offshore,1
