_id,date,lat,lon,name,daily_mean_swell_rating,daily_mean_wave_height_min,daily_mean_wave_height_max,daily_mean_water_temperature_max,daily_mean_water_temperature_min,weather_per_timestamp,wind_per_timestamp,n_samples_per_day
5842041f4e65fad6a77087f9,2024_02_27,37.741668,-122.51038,South Ocean Beach,0.632,1.7276,2.7135000000000002,14,14,"CLEAR,CLEAR,MOSTLY_CLEAR,NIGHT_MOSTLY_CLEAR,NIGHT_MOSTLY_CLEAR","Onshore,Onshore,Onshore,Onshore,Onshore",5
5842041f4e65fad6a7708801,2024_02_27,37.49142,-122.50428,Maverick's,NA,1.5,1.748,13,13,"MIST,CLEAR,MOSTLY_CLOUDY,NIGHT_MOSTLY_CLOUDY,NIGHT_MOSTLY_CLOUDY","Offshore,Offshore,Offshore,Offshore,Offshore",5
5842041f4e65fad6a7708804,2024_02_27,44.997,-124.018,Roads End,1,4.122,4.572,11,11,"CLEAR,BRIEF_SHOWERS,MOSTLY_CLEAR,NIGHT_MOSTLY_CLOUDY,NIGHT_CLEAR","Onshore,Onshore,Onshore,Onshore,Onshore",5
5842041f4e65fad6a7708805,2024_02_27,36.95188851423011,-122.02522,Steamer Lane,3,1.3595,1.8657000000000001,14,14,"CLEAR,CLEAR,MOSTLY_CLOUDY,NIGHT_MOSTLY_CLOUDY,NIGHT_MOSTLY_CLOUDY","Cross-shore,Onshore,Cross-shore,Offshore,Offshore",5
5842041f4e65fad6a7708806,2024_02_27,36.95918781542251,-122.02489,Cowells,1,-9.999999999999996e-4,0.1943,14,14,"CLEAR,CLEAR,MOSTLY_CLOUDY,NIGHT_MOSTLY_CLOUDY,NIGHT_MOSTLY_CLOUDY","Offshore,Onshore,Onshore,Offshore,Offshore",5
5842041f4e65fad6a7708807,2024_02_27,36.95468082526536,-121.97234,Pleasure Point,3.466,1.2019,1.6601,14,14,"MOSTLY_CLEAR,CLEAR,CLEAR,NIGHT_CLEAR,NIGHT_MOSTLY_CLOUDY","Onshore,Onshore,Onshore,Onshore,Onshore",5
5842041f4e65fad6a770880a,2024_02_27,35.37815414378748,-120.86589,Morro Bay,3,0.958,1.4996666666666667,14,14,"CLEAR,MOSTLY_CLOUDY,MOSTLY_CLEAR,NIGHT_CLEAR,NIGHT_MOSTLY_CLOUDY","Onshore,Onshore,Cross-shore,Onshore,Cross-shore",5
5842041f4e65fad6a770880b,2024_02_27,36.95782765000708,-121.9672887511276,Jack's,1.466,0.08049999999999999,0.3806,14,14,"MOSTLY_CLEAR,CLEAR,CLEAR,NIGHT_CLEAR,NIGHT_MOSTLY_CLOUDY","Cross-shore,Cross-shore,Onshore,Onshore,Onshore",5
5842041f4e65fad6a770880d,2024_02_27,34.29982939936656,-119.3489016603669,Gold Coast Beachbreaks,2,0.09,0.392,15,15,"CLEAR,MOSTLY_CLOUDY,MIST,NIGHT_MOSTLY_CLOUDY,NIGHT_MOSTLY_CLOUDY","Cross-shore,Offshore,Cross-shore,Cross-shore,Cross-shore",5
5842041f4e65fad6a7708811,2024_02_27,34.245076,-119.26799,Ventura Harbor,2.6,0.6015395,0.891786,14,14,"MOSTLY_CLEAR,MIST,MIST,NIGHT_MIST,NIGHT_MOSTLY_CLOUDY","Onshore,Onshore,Cross-shore,Onshore,Cross-shore",5
5842041f4e65fad6a7708813,2024_02_27,34.051,-118.964,County Line,2,0.2985333333333333,0.6017333333333333,15,15,"MOSTLY_CLOUDY,MIST,MIST,NIGHT_MIST,NIGHT_BRIEF_SHOWERS","Onshore,Onshore,Cross-shore,Onshore,Cross-shore",5
5842041f4e65fad6a7708814,2024_02_27,34.37256264378892,-119.47797,Rincon,2,0.034,0.338,15,15,"MIST,MIST,MIST,NIGHT_MIST,NIGHT_MOSTLY_CLOUDY","Onshore,Cross-shore,Cross-shore,Onshore,Onshore",5
5842041f4e65fad6a7708817,2024_02_27,34.03096101876324,-118.68109,Malibu Third Point,2,0.274,0.58,15,15,"MOSTLY_CLOUDY,MOSTLY_CLOUDY,BRIEF_SHOWERS,NIGHT_MIST,NIGHT_MIST","Onshore,Onshore,Cross-shore,Cross-shore,Onshore",5
5842041f4e65fad6a7708819,2024_02_27,33.984079047970035,-118.47381591796875,Venice Beach,2.368,0.4877333333333333,0.7922666666666667,14,14,"CLEAR,CLEAR,BRIEF_SHOWERS,NIGHT_MIST,NIGHT_MIST","Onshore,Onshore,Onshore,Onshore,Onshore",5
5842041f4e65fad6a770881e,2024_02_27,34.037508438646746,-118.58339846155594,Topanga Beach,2,0.2572,0.5617333333333333,15,15,"MIST,MIST,BRIEF_SHOWERS,NIGHT_MIST,NIGHT_MIST","Onshore,Onshore,Onshore,Cross-shore,Offshore",5
5842041f4e65fad6a7708820,2024_02_27,33.73954373690184,-118.11414,Seal Beach Jetty,2,0.078,0.384,15,15,"OVERCAST,CLEAR,CLEAR,NIGHT_MOSTLY_CLOUDY,NIGHT_MOSTLY_CLOUDY","Onshore,Onshore,Onshore,Cross-shore,Cross-shore",5
5842041f4e65fad6a7708822,2024_02_27,33.72309983348433,-118.08078,Anderson Street,1.6,0.064,0.368,15,15,"OVERCAST,MOSTLY_CLOUDY,CLEAR,NIGHT_MOSTLY_CLOUDY,NIGHT_MOSTLY_CLOUDY","Onshore,Onshore,Onshore,Cross-shore,Cross-shore",5
5842041f4e65fad6a7708827,2024_02_27,33.65574085629463,-118.00397,Huntington Beach Pier Northside,2.3,0.5242,0.9460999999999999,14,14,"OVERCAST,CLEAR,MOSTLY_CLEAR,NIGHT_MOSTLY_CLOUDY,NIGHT_MOSTLY_CLEAR","Onshore,Onshore,Onshore,Onshore,Onshore",5
5842041f4e65fad6a7708828,2024_02_27,34.272041739333,-119.2997646331,C St.,2,0.2646,0.5667,14,14,"BRIEF_SHOWERS,MIST,MIST,NIGHT_MIST,NIGHT_MOSTLY_CLOUDY","Cross-shore,Cross-shore,Offshore,Offshore,Offshore",5
5842041f4e65fad6a770882a,2024_02_27,33.61555743705257,-117.93676,Newport Lower Jetties,2,0.2601,0.5677,15,15,"OVERCAST,CLEAR,CLEAR,NIGHT_MOSTLY_CLOUDY,NIGHT_MOSTLY_CLEAR","Onshore,Onshore,Cross-shore,Cross-shore,Onshore",5
5842041f4e65fad6a770882b,2024_02_27,33.5930302087,-117.88199,The Wedge,2,0.56008,0.984964,15,15,"OVERCAST,CLEAR,CLEAR,NIGHT_MOSTLY_CLOUDY,NIGHT_CLEAR","Onshore,Cross-shore,Cross-shore,Offshore,Offshore",5
5842041f4e65fad6a770882c,2024_02_27,33.60577342582,-117.9315376281,Newport Beach Pier,2,0.2346,0.5347,15,15,"CLOUDY,MOSTLY_CLOUDY,CLEAR,NIGHT_MOSTLY_CLOUDY,NIGHT_MOSTLY_CLEAR","Offshore,Cross-shore,Onshore,Onshore,Onshore",5
5842041f4e65fad6a770882e,2024_02_27,33.475793399792984,-117.72291,Salt Creek,3,0.5282,0.9446,14,14,"DRIZZLE,MOSTLY_CLOUDY,CLEAR,NIGHT_CLEAR,NIGHT_MOSTLY_CLOUDY","Cross-shore,Offshore,Offshore,Cross-shore,Onshore",5
5842041f4e65fad6a7708830,2024_02_27,33.41800974113613,-117.61952,T-Street,2.966,0.5162,0.8238,14,14,"OVERCAST,MOSTLY_CLOUDY,CLEAR,NIGHT_MOSTLY_CLOUDY,NIGHT_MOSTLY_CLOUDY","Offshore,Offshore,Cross-shore,Onshore,Onshore",5
5842041f4e65fad6a7708832,2024_02_27,33.202391008646,-117.39475,Oceanside Harbor,3,0.81,1.12,15,15,"OVERCAST,DRIZZLE,OVERCAST,NIGHT_CLEAR,NIGHT_MOSTLY_CLOUDY","Cross-shore,Onshore,Cross-shore,Cross-shore,Onshore",5
5842041f4e65fad6a7708835,2024_02_27,33.19477795952803,-117.38667,Oceanside Pier,3,0.5573333333333333,0.986,15,15,"OVERCAST,LIGHT_RAIN,CLEAR,NIGHT_MOSTLY_CLOUDY,NIGHT_MOSTLY_CLOUDY","Onshore,Onshore,Cross-shore,Cross-shore,Onshore",5
5842041f4e65fad6a7708837,2024_02_27,33.14948100706,-117.35029,Tamarack,3,0.314,0.616,15,15,"OVERCAST,OVERCAST,CLEAR,NIGHT_MOSTLY_CLEAR,NIGHT_CLEAR","Cross-shore,Cross-shore,Cross-shore,Onshore,Cross-shore",5
5842041f4e65fad6a7708839,2024_02_27,32.865777159358856,-117.25614295356122,Scripps,2,0.5713333333333334,0.8753333333333333,14,14,"OVERCAST,MOSTLY_CLOUDY,MOSTLY_CLOUDY,NIGHT_CLEAR,NIGHT_MOSTLY_CLOUDY","Onshore,Onshore,Offshore,Offshore,Offshore",5
5842041f4e65fad6a770883a,2024_02_27,32.813094,-117.27381,Birdrock,2.6,0.52,0.824,15,15,"OVERCAST,MOSTLY_CLOUDY,MOSTLY_CLOUDY,NIGHT_MOSTLY_CLEAR,NIGHT_MOSTLY_CLOUDY","Cross-shore,Cross-shore,Cross-shore,Cross-shore,Cross-shore",5
5842041f4e65fad6a770883b,2024_02_27,32.877231,-117.25303,Blacks,3.7,0.8450000000000001,1.409,14,14,"OVERCAST,MOSTLY_CLOUDY,MOSTLY_CLOUDY,NIGHT_CLEAR,NIGHT_MOSTLY_CLOUDY","Onshore,Onshore,Onshore,Onshore,Onshore",5
5842041f4e65fad6a770883c,2024_02_27,32.82978974229765,-117.28161740727381,Windansea,2.634,0.828,1.1360000000000001,14,14,"OVERCAST,MOSTLY_CLOUDY,MOSTLY_CLOUDY,NIGHT_MOSTLY_CLEAR,NIGHT_MOSTLY_CLOUDY","Cross-shore,Cross-shore,Offshore,Offshore,Offshore",5
5842041f4e65fad6a770883d,2024_02_27,32.838278,-117.28396,Horseshoe,2.2,0.516,0.82,15,15,"OVERCAST,MOSTLY_CLOUDY,MOSTLY_CLOUDY,NIGHT_MOSTLY_CLEAR,NIGHT_MOSTLY_CLOUDY","Onshore,Onshore,Cross-shore,Cross-shore,Cross-shore",5
5842041f4e65fad6a770883f,2024_02_27,32.75034717673179,-117.25337,Ocean Beach,3,0.8413333333333333,1.1513333333333333,14,14,"CLOUDY,BRIEF_SHOWERS,MOSTLY_CLOUDY,NIGHT_CLEAR,NIGHT_MOSTLY_CLOUDY","Cross-shore,Cross-shore,Offshore,Offshore,Cross-shore",5
5842041f4e65fad6a7708840,2024_02_27,32.73693,-117.25718,Sunset Cliffs,2,0.5,0.802,15,15,"CLOUDY,MOSTLY_CLOUDY,CLEAR,NIGHT_MOSTLY_CLEAR,NIGHT_CLOUDY","Cross-shore,Cross-shore,Offshore,Offshore,Cross-shore",5
5842041f4e65fad6a7708841,2024_02_27,32.796582258728826,-117.25779,Pacific Beach,2.3,0.8323333333333334,1.1383333333333334,14,14,"OVERCAST,MOSTLY_CLOUDY,MOSTLY_CLOUDY,NIGHT_MOSTLY_CLEAR,NIGHT_MOSTLY_CLOUDY","Cross-shore,Cross-shore,Cross-shore,Cross-shore,Cross-shore",5
5842041f4e65fad6a7708842,2024_02_27,32.776636,-117.25514,Mission Beach,2.3,0.8323333333333334,1.1383333333333334,14,14,"OVERCAST,MOSTLY_CLOUDY,MOSTLY_CLOUDY,NIGHT_MOSTLY_CLEAR,NIGHT_MOSTLY_CLOUDY","Onshore,Onshore,Cross-shore,Cross-shore,Cross-shore",5
5842041f4e65fad6a7708844,2024_02_27,32.577195519016,-117.13475,Imperial Beach Pier,3,0.664,0.97,16,16,"CLOUDY,OVERCAST,MOSTLY_CLOUDY,NIGHT_MOSTLY_CLEAR,NIGHT_MOSTLY_CLOUDY","Cross-shore,Offshore,Offshore,Offshore,Offshore",5
5842041f4e65fad6a770884a,2024_02_27,42.88678181061,-70.80843,Seabrook,2.8,0.4186018333333334,0.7096266666666666,4,3,"NIGHT_CLEAR,NIGHT_CLEAR,NIGHT_CLEAR,NIGHT_CLEAR,NIGHT_CLEAR","Offshore,Offshore,Offshore,Offshore,Offshore",5
5842041f4e65fad6a770884e,2024_02_27,41.434181432898335,-71.45312118111178,Narragansett,1.4,0.22633333333333333,0.5343333333333333,5,4,"NIGHT_CLEAR,NIGHT_CLEAR,NIGHT_CLEAR,NIGHT_MIST,NIGHT_MIST","Cross-shore,Cross-shore,Cross-shore,Cross-shore,Onshore",5
5842041f4e65fad6a7708850,2024_02_27,40.582703230722,-73.65247,Lincoln Blvd,0.9,0.4111666666666667,0.7171666666666667,5,4,"NIGHT_MIST,NIGHT_MIST,NIGHT_MIST,NIGHT_MIST,NIGHT_MIST","Onshore,Onshore,Onshore,Onshore,Onshore",5
5842041f4e65fad6a7708852,2024_02_27,40.58342841721757,-73.81182,Rockaways,1,0.3896666666666667,0.6936666666666667,5,4,"NIGHT_CLEAR,NIGHT_MIST,NIGHT_MIST,NIGHT_CLEAR,NIGHT_CLEAR","Onshore,Onshore,Onshore,Onshore,Onshore",5
5842041f4e65fad6a7708853,2024_02_27,40.330474,-73.9734,Monmouth Beach,1.366,0.4590000000000001,0.7628333333333333,6,5,"NIGHT_CLEAR,NIGHT_CLEAR,NIGHT_CLEAR,NIGHT_MIST,NIGHT_MIST","Cross-shore,Cross-shore,Cross-shore,Cross-shore,Cross-shore",5
5842041f4e65fad6a7708856,2024_02_27,40.113,-74.028,Manasquan Inlet,2,0.35663333333333336,0.6674333333333333,6,5,"NIGHT_CLEAR,NIGHT_CLEAR,NIGHT_CLEAR,NIGHT_CLEAR,NIGHT_MIST","Cross-shore,Cross-shore,Cross-shore,Cross-shore,Cross-shore",5
5842041f4e65fad6a7708857,2024_02_27,39.941519877445664,-74.06829,Casino Pier,1.966,0.495,0.8029999999999999,6,5,"NIGHT_CLEAR,NIGHT_CLEAR,NIGHT_CLEAR,NIGHT_CLEAR,NIGHT_CLEAR","Cross-shore,Cross-shore,Cross-shore,Cross-shore,Cross-shore",5
5842041f4e65fad6a7708858,2024_02_27,39.28223089949212,-74.55766,North End OC,1,0.36050000000000004,0.6643333333333333,6,5,"NIGHT_MIST,NIGHT_MIST,NIGHT_MIST,NIGHT_MIST,NIGHT_MIST","Onshore,Onshore,Onshore,Onshore,Onshore",5
5842041f4e65fad6a770885b,2024_02_27,39.65080599934257,-74.17146,Ship Bottom,0.966,0.5283333333333333,0.8323333333333334,6,5,"NIGHT_CLEAR,NIGHT_CLEAR,NIGHT_CLEAR,NIGHT_CLEAR,NIGHT_CLEAR","Onshore,Onshore,Cross-shore,Cross-shore,Onshore",5
5842041f4e65fad6a7708863,2024_02_27,36.034151543144,-75.66791,Third Street,1,0.1414,0.4448,7,6,"NIGHT_CLEAR,NIGHT_CLEAR,NIGHT_CLEAR,NIGHT_CLEAR,NIGHT_CLEAR","Offshore,Offshore,Offshore,Offshore,Offshore",5
5842041f4e65fad6a7708867,2024_02_27,35.605833221351425,-75.46303,S-Turns,2,0.516,0.82,8,7,"NIGHT_CLEAR,NIGHT_CLEAR,NIGHT_CLEAR,NIGHT_CLEAR,NIGHT_CLEAR","Offshore,Offshore,Offshore,Offshore,Offshore",5
5842041f4e65fad6a770886d,2024_02_27,38.338461,-75.08117,Ocean City Boardwalk,0.4,0.2781666666666667,0.5800000000000001,7,5,"NIGHT_CLEAR,NIGHT_CLEAR,NIGHT_CLEAR,NIGHT_BRIEF_SHOWERS,NIGHT_MOSTLY_CLEAR","Cross-shore,Cross-shore,Cross-shore,Cross-shore,Cross-shore",5
5842041f4e65fad6a770886f,2024_02_27,29.844757212379562,-81.26136,A St.,1,0.128,0.432,15,15,"CLEAR,NIGHT_CLEAR,NIGHT_CLEAR,NIGHT_CLEAR,NIGHT_CLEAR","Onshore,Onshore,Onshore,Onshore,Onshore",5
5842041f4e65fad6a7708871,2024_02_27,29.069417851135093,-80.90824,New Smyrna Beach,1.3,0.3201333333333333,0.6309333333333333,17,16,"CLEAR,NIGHT_CLEAR,NIGHT_CLEAR,NIGHT_CLEAR,NIGHT_CLEAR","Onshore,Onshore,Cross-shore,Cross-shore,Cross-shore",5
5842041f4e65fad6a7708872,2024_02_27,28.367707417566,-80.60171,Cocoa Beach Pier,0.7,3.333333333333341e-4,0.30913333333333337,18,17,"CLEAR,NIGHT_CLEAR,NIGHT_CLEAR,NIGHT_CLEAR,NIGHT_CLEAR","Onshore,Onshore,Onshore,Onshore,Onshore",5
5842041f4e65fad6a7708873,2024_02_27,28.091782738658846,-80.56479,Indialantic,0.866,0.059,0.3674,19,18,"CLEAR,NIGHT_CLEAR,NIGHT_CLEAR,NIGHT_CLEAR,NIGHT_CLEAR","Onshore,Onshore,Onshore,Onshore,Onshore",5
5842041f4e65fad6a7708876,2024_02_27,27.25392904143517,-80.19455,Jensen Beach,0,-0.009666666666666667,0.29746666666666666,22,20,"CLEAR,NIGHT_MOSTLY_CLEAR,NIGHT_CLEAR,NIGHT_CLEAR,NIGHT_CLEAR","Onshore,Onshore,Onshore,Onshore,Cross-shore",5
5842041f4e65fad6a7708879,2024_02_27,26.76346795333825,-80.0360655784607,Reef Road,0,-0.013333333333333332,0.16213333333333338,23,22,"CLEAR,NIGHT_CLEAR,NIGHT_CLEAR,NIGHT_CLEAR,NIGHT_CLEAR","Onshore,Onshore,Onshore,Onshore,Onshore",5
5842041f4e65fad6a770887c,2024_02_27,26.336499228484,-80.06956100463,Boca Raton Inlet,0.866,0,0.2474,24,22,"CLEAR,NIGHT_CLEAR,NIGHT_MOSTLY_CLOUDY,NIGHT_MOSTLY_CLOUDY,NIGHT_MOSTLY_CLOUDY","Onshore,Onshore,Onshore,Onshore,Onshore",5
5842041f4e65fad6a770887d,2024_02_27,26.31719311695038,-80.07452525176168,Deerfield Beach Pier,0,-0.0014666666666666689,0.1726666666666667,24,23,"CLEAR,NIGHT_CLEAR,NIGHT_MOSTLY_CLOUDY,NIGHT_MOSTLY_CLOUDY,NIGHT_MOSTLY_CLOUDY","Onshore,Onshore,Onshore,Onshore,Onshore",5
5842041f4e65fad6a7708881,2024_02_27,30.20276320866628,-85.85626528676136,"Spyglass Dr., Panama City",1.1320000000000001,0.02296,0.3374266666666667,16,15,"CLEAR,NIGHT_CLEAR,NIGHT_CLEAR,NIGHT_CLEAR,NIGHT_CLEAR","Onshore,Onshore,Onshore,Onshore,Onshore",5
5842041f4e65fad6a7708884,2024_02_27,33.39000832738053,-117.59852,Cottons,3,0.5282,0.9521,14,14,"OVERCAST,MOSTLY_CLOUDY,MOSTLY_CLEAR,NIGHT_MOSTLY_CLOUDY,NIGHT_MOSTLY_CLOUDY","Onshore,Onshore,Cross-shore,Onshore,Onshore",5
5842041f4e65fad6a7708885,2024_02_27,33.359416282661,-117.54167901405711,Trails,2,0.196,0.502,15,15,"OVERCAST,MOSTLY_CLOUDY,MOSTLY_CLOUDY,NIGHT_MOSTLY_CLOUDY,NIGHT_MOSTLY_CLOUDY","Cross-shore,Cross-shore,Offshore,Cross-shore,Offshore",5
5842041f4e65fad6a7708886,2024_02_27,33.38042605929805,-117.58332,Middles,2.466,0.3081,0.7300000000000001,14,14,"OVERCAST,MOSTLY_CLOUDY,MOSTLY_CLEAR,NIGHT_MOSTLY_CLOUDY,NIGHT_MOSTLY_CLOUDY","Onshore,Cross-shore,Cross-shore,Cross-shore,Cross-shore",5
5842041f4e65fad6a7708887,2024_02_27,33.38445596302903,-117.59445,Upper Trestles,3,0.5332,0.9571000000000001,14,14,"OVERCAST,MOSTLY_CLOUDY,MOSTLY_CLEAR,NIGHT_MOSTLY_CLOUDY,NIGHT_MOSTLY_CLOUDY","Onshore,Cross-shore,Cross-shore,Cross-shore,Cross-shore",5
5842041f4e65fad6a7708889,2024_02_27,28.944414,-95.28883,Surfside,1,0.6031299999999999,0.942392,17,17,"MIST,DRIZZLE,NIGHT_MIST,NIGHT_MIST,NIGHT_MIST","Onshore,Onshore,Onshore,Onshore,Onshore",5
5842041f4e65fad6a770888a,2024_02_27,33.38143999849023,-117.58843,Lower Trestles,3,0.5562,0.9706,14,14,"OVERCAST,MOSTLY_CLOUDY,MOSTLY_CLEAR,NIGHT_MOSTLY_CLOUDY,NIGHT_MOSTLY_CLOUDY","Onshore,Cross-shore,Cross-shore,Cross-shore,Cross-shore",5
5842041f4e65fad6a770888b,2024_02_27,33.379622288757,-117.57894,Church,2.466,0.21960000000000002,0.6435,14,14,"OVERCAST,MOSTLY_CLOUDY,MOSTLY_CLEAR,NIGHT_MOSTLY_CLOUDY,NIGHT_MOSTLY_CLOUDY","Onshore,Onshore,Cross-shore,Onshore,Cross-shore",5
5842041f4e65fad6a770888d,2024_02_27,21.679,-158.042,Sunset Beach,2.966,1.3496666666666666,1.834,26,25,"MOSTLY_CLEAR,BRIEF_SHOWERS,CLEAR,CLEAR,MOSTLY_CLEAR","Cross-shore,Cross-shore,Offshore,Cross-shore,Cross-shore",5
5842041f4e65fad6a770888e,2024_02_27,21.670550036401,-158.0482,Rocky Point,2.966,1.8545,2.4383333333333335,26,25,"CLEAR,SHOWERS,BRIEF_SHOWERS,CLEAR,SHOWERS","Cross-shore,Cross-shore,Cross-shore,Cross-shore,Cross-shore",5
5842041f4e65fad6a770888f,2024_02_27,21.668,-158.05,Chambers,3,2.07,2.474,24,24,"CLEAR,SHOWERS,BRIEF_SHOWERS,CLEAR,SHOWERS","Cross-shore,Cross-shore,Cross-shore,Cross-shore,Cross-shore",5
5842041f4e65fad6a7708890,2024_02_27,21.66522,-158.0526,Pipeline,2.034,1.4396666666666667,1.8586666666666667,26,25,"CLEAR,SHOWERS,BRIEF_SHOWERS,CLEAR,SHOWERS","Cross-shore,Cross-shore,Cross-shore,Cross-shore,Cross-shore",5
5842041f4e65fad6a7708891,2024_02_27,21.665,-158.054,Backdoor,2.966,1.4396666666666667,1.8586666666666667,26,25,"CLEAR,SHOWERS,BRIEF_SHOWERS,CLEAR,SHOWERS","Cross-shore,Cross-shore,Cross-shore,Cross-shore,Cross-shore",5
5842041f4e65fad6a7708892,2024_02_27,21.662,-158.057,Rockpile,3,1.698,2.03,24,24,"CLEAR,SHOWERS,BRIEF_SHOWERS,CLEAR,SHOWERS","Cross-shore,Cross-shore,Cross-shore,Cross-shore,Cross-shore",5
5842041f4e65fad6a7708893,2024_02_27,21.65870453806827,-158.06058,Log Cabins,2.6,1.352,1.622,24,24,"CLEAR,SHOWERS,BRIEF_SHOWERS,CLEAR,SHOWERS","Cross-shore,Cross-shore,Cross-shore,Cross-shore,Cross-shore",5
5842041f4e65fad6a7708894,2024_02_27,21.66203493640557,-158.05495,Off-The-Wall,3,1.404,1.688,24,24,"CLEAR,SHOWERS,BRIEF_SHOWERS,CLEAR,SHOWERS","Cross-shore,Cross-shore,Cross-shore,Cross-shore,Cross-shore",5
5842041f4e65fad6a7708895,2024_02_27,21.643,-158.067,Waimea Bay,NA,1.1846666666666668,1.6373333333333333,26,25,"CLEAR,SHOWERS,BRIEF_SHOWERS,CLEAR,SHOWERS","Offshore,Cross-shore,Cross-shore,Offshore,Cross-shore",5
5842041f4e65fad6a7708896,2024_02_27,21.622,-158.087,Hultin's,3,1.1443333333333334,1.595,26,25,"CLEAR,CLEAR,MOSTLY_CLEAR,CLEAR,BRIEF_SHOWERS_POSSIBLE","Offshore,Offshore,Offshore,Offshore,Offshore",5
5842041f4e65fad6a7708897,2024_02_27,21.623,-158.085,Jocko's,2.4,1.472,1.762,24,24,"CLEAR,CLEAR,MOSTLY_CLEAR,CLEAR,BRIEF_SHOWERS_POSSIBLE","Onshore,Onshore,Onshore,Cross-shore,Onshore",5
5842041f4e65fad6a7708898,2024_02_27,21.62,-158.088,Laniakea,3,1.2228333333333334,1.6126666666666667,26,25,"CLEAR,CLEAR,MOSTLY_CLEAR,CLEAR,BRIEF_SHOWERS_POSSIBLE","Cross-shore,Cross-shore,Cross-shore,Cross-shore,Cross-shore",5
5842041f4e65fad6a7708899,2024_02_27,21.625,-158.083,Chun's,2,1.558,1.864,24,24,"CLEAR,CLEAR,MOSTLY_CLEAR,CLEAR,BRIEF_SHOWERS_POSSIBLE","Offshore,Cross-shore,Offshore,Offshore,Offshore",5
5842041f4e65fad6a770889c,2024_02_27,21.286357895152136,-157.8515,South Shore - Ala Moana Park,2,0.472,0.776,24,24,"CLEAR,CLEAR,CLEAR,CLEAR,CLEAR","Offshore,Offshore,Offshore,Offshore,Offshore",5
5842041f4e65fad6a770889d,2024_02_27,19.606,-155.978,Banyans,2,0.5686666666666667,0.8705,26,25,"CLEAR,CLEAR,CLEAR,CLEAR,MOSTLY_CLEAR","Onshore,Onshore,Onshore,Onshore,Onshore",5
5842041f4e65fad6a770889e,2024_02_27,20.029,-155.831,Kawaihae,2,0.4444,0.644392,25,25,"CLEAR,CLEAR,CLEAR,CLEAR,CLEAR","Offshore,Offshore,Cross-shore,Offshore,Offshore",5
5842041f4e65fad6a770889f,2024_02_27,33.07541383424675,-117.3105,Grandview,3,0.334,0.638,15,15,"OVERCAST,CLOUDY,CLEAR,NIGHT_CLEAR,NIGHT_MOSTLY_CLOUDY","Onshore,Onshore,Onshore,Onshore,Onshore",5
5842041f4e65fad6a77088a0,2024_02_27,33.065267421296596,-117.30577,Beacons,3,0.328,0.63,15,15,"OVERCAST,CLOUDY,CLEAR,NIGHT_CLEAR,NIGHT_MOSTLY_CLOUDY","Onshore,Onshore,Onshore,Onshore,Onshore",5
5842041f4e65fad6a77088a2,2024_02_27,21.252,-157.805,Diamond Head,3,0.711697,1.0877301666666666,26,25,"CLEAR,MOSTLY_CLEAR,CLEAR,CLEAR,CLEAR","Cross-shore,Cross-shore,Cross-shore,Offshore,Offshore",5
5842041f4e65fad6a77088a3,2024_02_27,33.04694255008896,-117.29966,Moonlight State Beach,3,0.326,0.63,15,15,"OVERCAST,OVERCAST,CLEAR,NIGHT_CLEAR,NIGHT_MOSTLY_CLOUDY","Onshore,Onshore,Onshore,Onshore,Onshore",5
5842041f4e65fad6a77088a5,2024_02_27,33.08685865930869,-117.31532,Ponto,2,0.438,0.744,15,15,"OVERCAST,CLOUDY,CLEAR,NIGHT_CLEAR,NIGHT_MOSTLY_CLOUDY","Onshore,Onshore,Onshore,Onshore,Onshore",5
5842041f4e65fad6a77088a6,2024_02_27,33.130343587871906,-117.33667796442558,Terra Mar Point,3,0.8019999999999999,1.106,15,15,"OVERCAST,OVERCAST,CLEAR,NIGHT_MOSTLY_CLEAR,NIGHT_MOSTLY_CLOUDY","Cross-shore,Onshore,Cross-shore,Cross-shore,Offshore",5
5842041f4e65fad6a77088af,2024_02_27,32.95916304183685,-117.26963,Del Mar,3,0.458,0.762,15,15,"CLOUDY,OVERCAST,CLEAR,NIGHT_CLEAR,NIGHT_MOSTLY_CLOUDY","Onshore,Cross-shore,Onshore,Cross-shore,Cross-shore",5
5842041f4e65fad6a77088b0,2024_02_27,32.97527261243354,-117.2721061331305,Del Mar Rivermouth,2.2,0.424,0.728,15,15,"CLEAR,OVERCAST,MOSTLY_CLOUDY,NIGHT_CLEAR,NIGHT_MOSTLY_CLOUDY","Onshore,Cross-shore,Onshore,Cross-shore,Cross-shore",5
5842041f4e65fad6a77088b1,2024_02_27,33.01352178146273,-117.28219,Cardiff Reef,3,0.5546666666666666,0.9793333333333333,15,15,"OVERCAST,OVERCAST,MOSTLY_CLOUDY,NIGHT_CLEAR,NIGHT_MOSTLY_CLOUDY","Cross-shore,Cross-shore,Cross-shore,Offshore,Offshore",5
5842041f4e65fad6a77088b3,2024_02_27,33.00211185876003,-117.2811,Seaside Reef,3,0.5706666666666667,0.9993333333333333,15,15,"OVERCAST,OVERCAST,MOSTLY_CLOUDY,NIGHT_CLEAR,NIGHT_MOSTLY_CLOUDY","Cross-shore,Cross-shore,Offshore,Offshore,Offshore",5
5842041f4e65fad6a77088b4,2024_02_27,33.0341859796287,-117.29552,Swami's,3,0.829,1.137,15,15,"OVERCAST,OVERCAST,MOSTLY_CLOUDY,NIGHT_CLEAR,NIGHT_MOSTLY_CLOUDY","Onshore,Onshore,Onshore,Onshore,Onshore",5
5842041f4e65fad6a77088b7,2024_02_27,33.04569760260221,-117.2994,D Street,3,0.4,0.704,15,15,"OVERCAST,OVERCAST,CLEAR,NIGHT_CLEAR,NIGHT_MOSTLY_CLOUDY","Onshore,Onshore,Onshore,Onshore,Onshore",5
5842041f4e65fad6a77088b8,2024_02_27,33.02090944350196,-117.28535,San Elijo State Beach,3,0.5346666666666666,0.9656666666666667,15,15,"OVERCAST,OVERCAST,MOSTLY_CLOUDY,NIGHT_CLEAR,NIGHT_MOSTLY_CLOUDY","Cross-shore,Cross-shore,Cross-shore,Offshore,Offshore",5
5842041f4e65fad6a77088c2,2024_02_27,32.80662846492798,-117.2688764333725,PB Point,2.4,0.444,0.75,15,15,"OVERCAST,MOSTLY_CLOUDY,MOSTLY_CLOUDY,NIGHT_MOSTLY_CLEAR,NIGHT_MOSTLY_CLOUDY","Cross-shore,Offshore,Offshore,Cross-shore,Offshore",5
5842041f4e65fad6a77088c4,2024_02_27,32.8060476681448,-117.26479,Old Man's at Tourmaline,2.6,0.384,0.688,15,15,"OVERCAST,MOSTLY_CLOUDY,MOSTLY_CLOUDY,NIGHT_MOSTLY_CLEAR,NIGHT_MOSTLY_CLOUDY","Cross-shore,Cross-shore,Offshore,Offshore,Offshore",5
5842041f4e65fad6a77088cb,2024_02_27,32.557056711256,-117.1327445020322,Tijuana Slough,2,0.318,0.624,16,16,"CLEAR,MOSTLY_CLOUDY,MOSTLY_CLOUDY,NIGHT_MOSTLY_CLEAR,NIGHT_MOSTLY_CLOUDY","Cross-shore,Offshore,Offshore,Offshore,Offshore",5
5842041f4e65fad6a77088cc,2024_02_27,32.863,-117.257,La Jolla Shores,2,0.342,0.648,15,15,"OVERCAST,MOSTLY_CLOUDY,MOSTLY_CLOUDY,NIGHT_CLEAR,NIGHT_MOSTLY_CLOUDY","Onshore,Onshore,Offshore,Offshore,Offshore",5
5842041f4e65fad6a77088ce,2024_02_27,32.67443657790586,-117.17421316238693,Coronado Beach,3,0.364,0.672,15,15,"LIGHT_RAIN,OVERCAST,MOSTLY_CLOUDY,NIGHT_MOSTLY_CLEAR,NIGHT_OVERCAST","Offshore,Offshore,Cross-shore,Cross-shore,Cross-shore",5
5842041f4e65fad6a77088cf,2024_02_27,33.40484417640326,-117.60749,San Clemente State Beach,2,0.244,0.548,15,15,"OVERCAST,MOSTLY_CLOUDY,CLEAR,NIGHT_MOSTLY_CLOUDY,NIGHT_MOSTLY_CLOUDY","Offshore,Offshore,Onshore,Onshore,Onshore",5
5842041f4e65fad6a77088d5,2024_02_27,33.4663042002114,-117.7168352817103,Strands,3,0.5242,0.9460999999999999,14,14,"DRIZZLE,MOSTLY_CLOUDY,CLEAR,NIGHT_CLEAR,NIGHT_MOSTLY_CLOUDY","Offshore,Offshore,Cross-shore,Onshore,Onshore",5
5842041f4e65fad6a77088d7,2024_02_27,33.4609858001748,-117.68535,Doheny State Beach,2,0.008499999999999997,0.3161,14,14,"OVERCAST,MOSTLY_CLOUDY,CLEAR,NIGHT_CLEAR,NIGHT_MOSTLY_CLOUDY","Onshore,Cross-shore,Offshore,Cross-shore,Offshore",5
5842041f4e65fad6a77088dc,2024_02_27,33.50894790083017,-117.75243,Aliso Creek,2,0.28600000000000003,0.588,15,15,"DRIZZLE,MOSTLY_CLOUDY,CLEAR,NIGHT_CLEAR,NIGHT_CLEAR","Offshore,Offshore,Cross-shore,Onshore,Onshore",5
5842041f4e65fad6a77088dd,2024_02_27,33.5326591767067,-117.77764,Brooks Street,2,0.152,0.456,15,15,"OVERCAST,MOSTLY_CLOUDY,CLEAR,NIGHT_CLEAR,NIGHT_MOSTLY_CLEAR","Offshore,Offshore,Cross-shore,Onshore,Onshore",5
5842041f4e65fad6a77088de,2024_02_27,33.53561225884637,-117.7799,Thalia Street,2,0.178,0.484,15,15,"OVERCAST,MOSTLY_CLOUDY,CLEAR,NIGHT_CLEAR,NIGHT_MOSTLY_CLEAR","Offshore,Offshore,Onshore,Onshore,Onshore",5
5842041f4e65fad6a77088e3,2024_02_27,33.54268310353641,-117.7916,Rockpile,2.4,0.304,0.606,15,15,"OVERCAST,MOSTLY_CLOUDY,CLEAR,NIGHT_CLEAR,NIGHT_MOSTLY_CLEAR","Offshore,Offshore,Onshore,Onshore,Onshore",5
5842041f4e65fad6a77088e4,2024_02_27,33.7368459504689,-118.10342,"Seal Beach Pier, Southside",1,0,0.254,15,15,"OVERCAST,CLEAR,CLEAR,NIGHT_MOSTLY_CLOUDY,NIGHT_MOSTLY_CLOUDY","Onshore,Onshore,Cross-shore,Cross-shore,Cross-shore",5
5842041f4e65fad6a77088e5,2024_02_27,33.73933701820233,-118.117,Ray Bay,1,0,0.274,15,15,"OVERCAST,CLEAR,CLEAR,NIGHT_MOSTLY_CLOUDY,NIGHT_MOSTLY_CLOUDY","Onshore,Onshore,Onshore,Onshore,Cross-shore",5
5842041f4e65fad6a77088e7,2024_02_27,33.728733,-118.08982,Surfside,1.4,0.03,0.336,15,15,"OVERCAST,MOSTLY_CLOUDY,CLEAR,NIGHT_MOSTLY_CLOUDY,NIGHT_MOSTLY_CLOUDY","Onshore,Onshore,Cross-shore,Cross-shore,Cross-shore",5
5842041f4e65fad6a77088e8,2024_02_27,33.68760321488161,-118.04236,Bolsa Chica State Beach,2,0.49620000000000003,0.8038,14,14,"OVERCAST,MOSTLY_CLOUDY,CLEAR,NIGHT_MOSTLY_CLOUDY,NIGHT_MOSTLY_CLEAR","Cross-shore,Cross-shore,Onshore,Onshore,Onshore",5
5842041f4e65fad6a77088ea,2024_02_27,33.66704400178788,-118.0192,North HB Streets,2.434,0.5132,0.9296,14,14,"OVERCAST,CLEAR,MOSTLY_CLEAR,NIGHT_MOSTLY_CLOUDY,NIGHT_CLEAR","Offshore,Cross-shore,Onshore,Onshore,Onshore",5
5842041f4e65fad6a77088ed,2024_02_27,33.65475101379567,-118.00291,Huntington Beach Pier Southside,2.3,0.5182,0.9381,14,14,"OVERCAST,CLEAR,MOSTLY_CLEAR,NIGHT_MOSTLY_CLOUDY,NIGHT_MOSTLY_CLEAR","Onshore,Onshore,Onshore,Onshore,Onshore",5
5842041f4e65fad6a77088ee,2024_02_27,33.62778647706099,-117.95939,River Jetties,2.7,0.5277000000000001,0.9460999999999999,15,15,"OVERCAST,CLEAR,CLEAR,NIGHT_MOSTLY_CLOUDY,NIGHT_MOSTLY_CLEAR","Onshore,Onshore,Onshore,Cross-shore,Onshore",5
5842041f4e65fad6a77088f2,2024_02_27,33.605165797643664,-117.92500376701355,Newport Point,2,0.276,0.582,15,15,"CLOUDY,MOSTLY_CLOUDY,CLEAR,NIGHT_MOSTLY_CLOUDY,NIGHT_MOSTLY_CLEAR","Offshore,Cross-shore,Onshore,Onshore,Onshore",5
5842041f4e65fad6a77088f3,2024_02_27,33.58982984726977,-117.87713,Corona del Mar,1.2,0.189676,0.296368,15,15,"OVERCAST,CLEAR,CLEAR,NIGHT_CLEAR,NIGHT_CLEAR","Onshore,Cross-shore,Cross-shore,Offshore,Offshore",5
5842041f4e65fad6a77088f7,2024_02_27,34.00750300824362,-118.4971783496269,Santa Monica Pier,2,0.264,0.57,15,15,"OVERCAST,MOSTLY_CLOUDY,MOSTLY_CLOUDY,NIGHT_DRIZZLE,NIGHT_MIST","Onshore,Onshore,Onshore,Onshore,Onshore",5
5842041f4e65fad6a77088ff,2024_02_27,33.94070283102945,-118.44321,Dockweiler Beach,2.368,0.6293533333333333,0.8941353333333333,14,14,"BRIEF_SHOWERS,MIST,MIST,NIGHT_DRIZZLE,NIGHT_MIST","Onshore,Onshore,Onshore,Onshore,Onshore",5
5842041f4e65fad6a7708900,2024_02_27,33.9231846937237,-118.4341465777908,Shitpipe,2.368,0.47640000000000005,0.7789333333333333,14,14,"BRIEF_SHOWERS,CLEAR,MOSTLY_CLOUDY,NIGHT_LIGHT_RAIN,NIGHT_BRIEF_SHOWERS","Onshore,Onshore,Onshore,Onshore,Onshore",5
5842041f4e65fad6a7708902,2024_02_27,33.9108528052242,-118.4279133138721,Hammerland,2.368,0.49373333333333336,0.7982666666666667,14,14,"BRIEF_SHOWERS,CLEAR,MOSTLY_CLOUDY,NIGHT_LIGHT_RAIN,NIGHT_BRIEF_SHOWERS","Onshore,Onshore,Onshore,Onshore,Onshore",5
5842041f4e65fad6a7708904,2024_02_27,33.87201368173932,-118.4075151286262,Hermosa Beach,1.3679999999999999,0.26453333333333334,0.5737333333333334,14,14,"CLOUDY,CLEAR,MOSTLY_CLOUDY,NIGHT_MIST,NIGHT_BRIEF_SHOWERS","Cross-shore,Onshore,Onshore,Onshore,Onshore",5
5842041f4e65fad6a7708906,2024_02_27,33.90129336911256,-118.42184,El Porto,2.368,0.5144,0.8129333333333334,14,14,"MIST,CLEAR,MOSTLY_CLOUDY,NIGHT_MIST,NIGHT_MIST","Cross-shore,Onshore,Onshore,Onshore,Onshore",5
5842041f4e65fad6a7708907,2024_02_27,33.87963506431794,-118.41102,Manhattan Beach Pier,2.368,0.4924,0.7929333333333333,14,14,"MIST,CLEAR,MOSTLY_CLOUDY,NIGHT_MIST,NIGHT_MIST","Cross-shore,Onshore,Onshore,Onshore,Onshore",5
5842041f4e65fad6a7708914,2024_02_27,34.038053387863464,-118.5532,Sunset Point,2,0.14200000000000002,0.444,15,15,"MOSTLY_CLOUDY,CLEAR,MIST,NIGHT_MIST,NIGHT_MIST","Onshore,Cross-shore,Onshore,Offshore,Offshore",5
5842041f4e65fad6a7708920,2024_02_27,33.80930828074364,-118.3933198342649,Haggerty's,1,0.0372,0.2208,15,15,"CLEAR,CLEAR,CLEAR,NIGHT_CLOUDY,NIGHT_MIST","Offshore,Offshore,Cross-shore,Cross-shore,Cross-shore",5
5842041f4e65fad6a7708921,2024_02_27,33.85044519861206,-118.40048,Redondo Breakwater,2,0.28400000000000003,0.588,15,15,"CLOUDY,CLEAR,MOSTLY_CLOUDY,NIGHT_MIST,NIGHT_BRIEF_SHOWERS","Cross-shore,Onshore,Onshore,Onshore,Onshore",5
5842041f4e65fad6a7708927,2024_02_27,33.70877301002487,-118.2840112858389,Cabrillo Beach,1,0,0.242,15,15,"CLEAR,MOSTLY_CLEAR,MOSTLY_CLOUDY,NIGHT_MOSTLY_CLOUDY,NIGHT_OVERCAST","Onshore,Onshore,Onshore,Onshore,Onshore",5
5842041f4e65fad6a770892c,2024_02_27,33.77209986806257,-118.4268428476672,Lunada Bay,1,0.288,0.594,15,15,"MIST,CLEAR,MIST,NIGHT_MIST,NIGHT_MIST","Offshore,Onshore,Onshore,Onshore,Onshore",5
5842041f4e65fad6a770892d,2024_02_27,33.79294656286144,-118.4070316699825,PV Cove,2,0.449968,0.70111,15,15,"CLEAR,CLEAR,CLEAR,NIGHT_CLOUDY,NIGHT_MIST","Offshore,Offshore,Cross-shore,Cross-shore,Cross-shore",5
5842041f4e65fad6a7708930,2024_02_27,34.03944902292561,-118.57539,Chart House,1.6,0.07200000000000001,0.378,15,15,"MIST,MIST,BRIEF_SHOWERS,NIGHT_MIST,NIGHT_BRIEF_SHOWERS","Onshore,Cross-shore,Cross-shore,Offshore,Offshore",5
5842041f4e65fad6a7708936,2024_02_27,34.0016731994772,-118.80456,Point Dume,2,0.23786666666666667,0.5450666666666667,15,15,"CLEAR,MOSTLY_CLOUDY,MIST,NIGHT_MIST,NIGHT_BRIEF_SHOWERS","Onshore,Onshore,Onshore,Onshore,Onshore",5
5842041f4e65fad6a7708937,2024_02_27,34.02587527588963,-118.7554939066114,Latigo Point,2,0.20400000000000001,0.508,15,15,"MIST,MOSTLY_CLOUDY,MIST,NIGHT_MIST,NIGHT_BRIEF_SHOWERS","Onshore,Onshore,Onshore,Onshore,Onshore",5
5842041f4e65fad6a770893f,2024_02_27,34.043762,-118.93294,Leo Carrillo,1.6,0.3052,0.6104,15,15,"MOSTLY_CLOUDY,MIST,MIST,NIGHT_MIST,NIGHT_BRIEF_SHOWERS","Onshore,Cross-shore,Offshore,Cross-shore,Onshore",5
5842041f4e65fad6a7708941,2024_02_27,36.69388179265737,-121.81289,Marina State Beach,3,1.178,1.41,13,13,"MOSTLY_CLOUDY,BRIEF_SHOWERS,BRIEF_SHOWERS,NIGHT_MIST,NIGHT_FOG","Onshore,Onshore,Onshore,Onshore,Onshore",5
5842041f4e65fad6a7708944,2024_02_27,34.34145077331085,-119.416999352654,Stanley's,2,0.044000000000000004,0.35,15,15,"CLEAR,MOSTLY_CLOUDY,MIST,NIGHT_MIST,NIGHT_MOSTLY_CLOUDY","Onshore,Onshore,Onshore,Onshore,Cross-shore",5
5842041f4e65fad6a7708945,2024_02_27,34.35113017313915,-119.426921498899,Oil Piers,2,0.082,0.388,15,15,"CLEAR,MOSTLY_CLOUDY,MIST,NIGHT_MIST,NIGHT_MOSTLY_CLOUDY","Onshore,Onshore,Cross-shore,Cross-shore,Cross-shore",5
5842041f4e65fad6a770894c,2024_02_27,34.17876333306018,-119.2399483564372,Oxnard,2,0.362,0.666,15,15,"MOSTLY_CLOUDY,OVERCAST,MIST,NIGHT_MIST,NIGHT_OVERCAST","Onshore,Onshore,Onshore,Onshore,Onshore",5
5842041f4e65fad6a7708957,2024_02_27,34.31720331100517,-119.3882324751725,Pitas Point,2,0.07200000000000001,0.38,15,15,"BRIEF_SHOWERS,MIST,MIST,NIGHT_BRIEF_SHOWERS,NIGHT_MOSTLY_CLOUDY","Onshore,Cross-shore,Onshore,Offshore,Offshore",5
5842041f4e65fad6a7708959,2024_02_27,34.27851754384724,-119.316202617226,Emma Wood,2,0.06,0.364,15,15,"MIST,MIST,MIST,NIGHT_MIST,NIGHT_BRIEF_SHOWERS","Onshore,Cross-shore,Offshore,Cross-shore,Offshore",5
5842041f4e65fad6a770895a,2024_02_27,34.35513640390276,-119.4400589884255,Mussel Shoals (aka Little Rincon),2,0.038,0.34400000000000003,15,15,"MIST,MIST,MIST,NIGHT_MIST,NIGHT_MOSTLY_CLOUDY","Onshore,Cross-shore,Cross-shore,Cross-shore,Onshore",5
5842041f4e65fad6a770895e,2024_02_27,34.28991757054902,-119.3366646794652,Summer Beach,2,0.07,0.374,15,15,"MIST,MIST,MIST,NIGHT_MIST,NIGHT_BRIEF_SHOWERS","Onshore,Onshore,Offshore,Cross-shore,Cross-shore",5
5842041f4e65fad6a770895f,2024_02_27,34.30897456105926,-119.3582501170116,Solimar,2,0.052000000000000005,0.356,15,15,"BRIEF_SHOWERS,MIST,MIST,NIGHT_BRIEF_SHOWERS,NIGHT_MOSTLY_CLOUDY","Onshore,Cross-shore,Cross-shore,Offshore,Offshore",5
5842041f4e65fad6a7708960,2024_02_27,34.39836265281686,-119.70213,Leadbetter Point,1,0,0.212,15,15,"CLEAR,MOSTLY_CLOUDY,MOSTLY_CLOUDY,NIGHT_MOSTLY_CLOUDY,NIGHT_MOSTLY_CLOUDY","Cross-shore,Onshore,Cross-shore,Offshore,Cross-shore",5
5842041f4e65fad6a7708961,2024_02_27,34.46052293893899,-120.07328,Refugio,2,0.036,0.336,15,15,"MOSTLY_CLEAR,MOSTLY_CLOUDY,MOSTLY_CLOUDY,NIGHT_MOSTLY_CLOUDY,NIGHT_MOSTLY_CLOUDY","Onshore,Cross-shore,Offshore,Offshore,Offshore",5
5842041f4e65fad6a7708962,2024_02_27,34.40754276777778,-119.87639,Devereux,2,0.188,0.494,15,15,"MIST,MIST,MIST,NIGHT_MOSTLY_CLOUDY,NIGHT_MOSTLY_CLOUDY","Onshore,Cross-shore,Offshore,Offshore,Cross-shore",5
5842041f4e65fad6a7708963,2024_02_27,34.27479983305182,-119.3133222656776,Ventura Overhead,2,0.07400000000000001,0.38,15,15,"BRIEF_SHOWERS,MIST,MIST,NIGHT_MIST,NIGHT_MOSTLY_CLOUDY","Onshore,Cross-shore,Offshore,Cross-shore,Cross-shore",5
5842041f4e65fad6a7708964,2024_02_27,34.41023236011655,-119.88261,Sands,2,0.198,0.506,15,15,"MIST,MIST,MIST,NIGHT_MOSTLY_CLOUDY,NIGHT_MOSTLY_CLOUDY","Onshore,Onshore,Onshore,Cross-shore,Offshore",5
5842041f4e65fad6a7708966,2024_02_27,34.40450193869233,-119.68752,Sandspit,1,0,0.164,15,15,"MOSTLY_CLOUDY,MOSTLY_CLOUDY,MOSTLY_CLOUDY,NIGHT_MOSTLY_CLOUDY,NIGHT_MOSTLY_CLOUDY","Cross-shore,Onshore,Cross-shore,Offshore,Cross-shore",5
5842041f4e65fad6a7708967,2024_02_27,34.41549098334453,-119.6375149840203,Hammond's,1,0,0.16,15,15,"MOSTLY_CLEAR,CLEAR,CLEAR,NIGHT_MOSTLY_CLOUDY,NIGHT_MOSTLY_CLOUDY","Onshore,Cross-shore,Onshore,Onshore,Onshore",5
5842041f4e65fad6a7708968,2024_02_27,34.45759322742309,-120.0220251867315,El Capitan,2,0.076,0.384,15,15,"MOSTLY_CLEAR,MOSTLY_CLOUDY,MOSTLY_CLOUDY,NIGHT_MOSTLY_CLOUDY,NIGHT_CLEAR","Onshore,Offshore,Offshore,Offshore,Offshore",5
5842041f4e65fad6a770896c,2024_02_27,34.405117655616,-119.84317,Campus Point,1,0,0.272,15,15,"CLEAR,MOSTLY_CLOUDY,MOSTLY_CLOUDY,NIGHT_MOSTLY_CLOUDY,NIGHT_MOSTLY_CLOUDY","Onshore,Cross-shore,Offshore,Offshore,Onshore",5
5842041f4e65fad6a770896e,2024_02_27,34.38935162233354,-119.51955,Carpinteria State Beach,1.6,0.004,0.308,15,15,"MIST,MIST,MIST,NIGHT_MOSTLY_CLOUDY,NIGHT_MOSTLY_CLOUDY","Onshore,Onshore,Onshore,Onshore,Onshore",5
5842041f4e65fad6a770896f,2024_02_27,37.48296565175612,-122.4549300127824,Half Moon Bay,2,0.756,1.062,14,14,"MIST,CLEAR,MOSTLY_CLOUDY,NIGHT_MOSTLY_CLOUDY,NIGHT_MOSTLY_CLOUDY","Onshore,Onshore,Cross-shore,Cross-shore,Cross-shore",5
5842041f4e65fad6a7708970,2024_02_27,37.499,-122.471,Princeton Jetty,3,0.952,1.142,14,14,"MIST,MOSTLY_CLEAR,BRIEF_SHOWERS,NIGHT_BRIEF_SHOWERS,NIGHT_MIST","Cross-shore,Cross-shore,Cross-shore,Cross-shore,Cross-shore",5
5842041f4e65fad6a7708972,2024_02_27,37.35699547365155,-122.4069534707252,Tunitas Creek,3,1.916,2.29,14,14,"BRIEF_SHOWERS,MIST,MOSTLY_CLEAR,NIGHT_MOSTLY_CLOUDY,NIGHT_MOSTLY_CLOUDY","Cross-shore,Cross-shore,Cross-shore,Cross-shore,Cross-shore",5
5842041f4e65fad6a7708974,2024_02_27,37.54735589428842,-122.5161090212687,Montara,2.2,1.14,1.404,14,14,"MOSTLY_CLEAR,MOSTLY_CLOUDY,MIST,NIGHT_MOSTLY_CLOUDY,NIGHT_MIST","Onshore,Onshore,Onshore,Onshore,Onshore",5
5842041f4e65fad6a7708975,2024_02_27,34.3869373724559,-119.5142334209018,Tarpits,1,0,0.294,15,15,"MOSTLY_CLEAR,MOSTLY_CLOUDY,MOSTLY_CLOUDY,NIGHT_MIST,NIGHT_MOSTLY_CLOUDY","Onshore,Onshore,Cross-shore,Cross-shore,Onshore",5
5842041f4e65fad6a7708976,2024_02_27,37.59881852720143,-122.50463,Pacifica / Linda Mar,1.834,0.5567000000000001,0.9806,14,14,"MOSTLY_CLEAR,MIST,MOSTLY_CLOUDY,NIGHT_BRIEF_SHOWERS,NIGHT_MIST","Onshore,Onshore,Onshore,Onshore,Onshore",5
5842041f4e65fad6a7708978,2024_02_27,37.59883098461164,-122.5143843582282,Pedro Point,2.4,1.158,1.404,14,14,"MOSTLY_CLEAR,MOSTLY_CLOUDY,MOSTLY_CLOUDY,NIGHT_MOSTLY_CLOUDY,NIGHT_MOSTLY_CLOUDY","Onshore,Onshore,Onshore,Onshore,Onshore",5
5842041f4e65fad6a7708979,2024_02_27,37.61081996647663,-122.4973287570634,Rockaway,2,1.214,1.454,14,14,"MOSTLY_CLEAR,MIST,MOSTLY_CLOUDY,NIGHT_BRIEF_SHOWERS,NIGHT_MIST","Onshore,Onshore,Onshore,Onshore,Onshore",5
5842041f4e65fad6a770897a,2024_02_27,37.809987384424446,-122.4751353263855,Fort Point,1.4,0.5680000000000001,0.872,13,13,"CLEAR,CLEAR,CLEAR,NIGHT_CLEAR,NIGHT_CLEAR","Cross-shore,Cross-shore,Cross-shore,Cross-shore,Cross-shore",5
5842041f4e65fad6a770897c,2024_02_27,37.63422542967464,-122.4951,Sharp Park,2,1.236,1.476,14,14,"MOSTLY_CLEAR,MOSTLY_CLEAR,MOSTLY_CLEAR,NIGHT_MOSTLY_CLOUDY,NIGHT_MOSTLY_CLOUDY","Onshore,Onshore,Onshore,Onshore,Onshore",5
5842041f4e65fad6a770897d,2024_02_27,37.27313605072472,-122.4127387912554,Pescadero,2.8,1.894,2.266,14,14,"SHOWERS,BRIEF_SHOWERS,CLEAR,NIGHT_MOSTLY_CLOUDY,NIGHT_MOSTLY_CLOUDY","Cross-shore,Cross-shore,Cross-shore,Cross-shore,Cross-shore",5
5842041f4e65fad6a770897e,2024_02_27,37.18140279972666,-122.3926685899327,Pigeon Point,4,1.798,2.15,14,14,"LIGHT_RAIN,BRIEF_SHOWERS,MOSTLY_CLOUDY,NIGHT_MOSTLY_CLOUDY,NIGHT_MOSTLY_CLOUDY","Offshore,Offshore,Offshore,Offshore,Offshore",5
5842041f4e65fad6a770897f,2024_02_27,37.11578956919415,-122.314699271291,Ano Nuevo,4,1.26,1.506,14,14,"BRIEF_SHOWERS,BRIEF_SHOWERS,MOSTLY_CLOUDY,NIGHT_MOSTLY_CLOUDY,NIGHT_MOSTLY_CLOUDY","Offshore,Offshore,Offshore,Offshore,Offshore",5
5842041f4e65fad6a7708980,2024_02_27,37.09520872681598,-122.2805474707768,Waddell Creek,3,1.44,1.726,14,14,"MOSTLY_CLOUDY,BRIEF_SHOWERS,MOSTLY_CLOUDY,NIGHT_MOSTLY_CLOUDY,NIGHT_MOSTLY_CLOUDY","Cross-shore,Offshore,Offshore,Offshore,Offshore",5
5842041f4e65fad6a7708981,2024_02_27,36.96512852130351,-122.1252825495626,Four Mile,4,1.466,1.752,14,14,"MOSTLY_CLEAR,MOSTLY_CLOUDY,MOSTLY_CLEAR,NIGHT_MOSTLY_CLOUDY,NIGHT_MOSTLY_CLOUDY","Offshore,Offshore,Offshore,Offshore,Offshore",5
5842041f4e65fad6a7708982,2024_02_27,37.04122807048655,-122.2333684729756,Scott Creek,3,1.306,1.56,14,14,"MIST,MOSTLY_CLOUDY,MOSTLY_CLOUDY,NIGHT_MOSTLY_CLOUDY,NIGHT_MOSTLY_CLOUDY","Cross-shore,Cross-shore,Offshore,Cross-shore,Offshore",5
5842041f4e65fad6a7708983,2024_02_27,37.02350229387179,-122.21908,Davenport,3,1.594,1.906,14,14,"MOSTLY_CLEAR,MOSTLY_CLOUDY,MOSTLY_CLOUDY,NIGHT_MOSTLY_CLOUDY,NIGHT_MOSTLY_CLOUDY","Cross-shore,Cross-shore,Offshore,Cross-shore,Cross-shore",5
5842041f4e65fad6a7708986,2024_02_27,36.94905295955728,-122.0611823912244,Natural Bridges,3,1.174,1.424,14,14,"CLEAR,CLEAR,MOSTLY_CLOUDY,NIGHT_MOSTLY_CLOUDY,NIGHT_MOSTLY_CLOUDY","Onshore,Cross-shore,Cross-shore,Offshore,Offshore",5
5842041f4e65fad6a7708987,2024_02_27,36.95154854910425,-122.0420693940968,Mitchell's Cove,3,0.862,1.094,14,14,"CLEAR,CLEAR,MOSTLY_CLOUDY,NIGHT_MOSTLY_CLOUDY,NIGHT_MOSTLY_CLOUDY","Cross-shore,Cross-shore,Cross-shore,Offshore,Offshore",5
5842041f4e65fad6a770898a,2024_02_27,36.9572312370203,-121.98177,26th Ave,3,1.054,1.274,14,14,"CLEAR,CLEAR,CLEAR,NIGHT_MOSTLY_CLOUDY,NIGHT_MOSTLY_CLOUDY","Onshore,Onshore,Cross-shore,Offshore,Offshore",5
5842041f4e65fad6a770898e,2024_02_27,36.91899972819882,-121.85536,Manresa,3,1.14,1.386,14,14,"MOSTLY_CLEAR,CLEAR,MOSTLY_CLEAR,NIGHT_CLEAR,NIGHT_MOSTLY_CLOUDY","Onshore,Onshore,Onshore,Onshore,Onshore",5
5842041f4e65fad6a7708990,2024_02_27,34.45747731928454,-120.34242,The Ranch,3,0.404,0.708,15,15,"MOSTLY_CLOUDY,OVERCAST,OVERCAST,NIGHT_MOSTLY_CLOUDY,NIGHT_OVERCAST","Onshore,Cross-shore,Cross-shore,Offshore,Offshore",5
5842041f4e65fad6a7708991,2024_02_27,34.50875036590315,-120.50348,Jalama,3,0.924,1.106,15,15,"OVERCAST,MOSTLY_CLOUDY,MOSTLY_CLOUDY,NIGHT_BRIEF_SHOWERS,NIGHT_MOSTLY_CLOUDY","Onshore,Cross-shore,Offshore,Offshore,Offshore",5
5842041f4e65fad6a7708996,2024_02_27,34.68700870220497,-120.6111611019887,Surf Beach,3,2.372,2.838,14,14,"OVERCAST,CLEAR,MIST,NIGHT_MOSTLY_CLOUDY,NIGHT_MOSTLY_CLOUDY","Onshore,Onshore,Onshore,Cross-shore,Offshore",5
5842041f4e65fad6a770899c,2024_02_27,35.5730538161116,-121.1143362345574,Moonstone,3,1.736,2.072,14,14,"MOSTLY_CLOUDY,BRIEF_SHOWERS,MIST,NIGHT_CLEAR,NIGHT_CLEAR","Onshore,Onshore,Onshore,Cross-shore,Offshore",5
5842041f4e65fad6a770899d,2024_02_27,35.61533716776573,-121.1502053073914,Pico Creek,3,1.238,1.484,14,14,"MOSTLY_CLOUDY,MOSTLY_CLOUDY,MOSTLY_CLOUDY,NIGHT_MOSTLY_CLOUDY,NIGHT_CLEAR","Onshore,Onshore,Onshore,Cross-shore,Offshore",5
5842041f4e65fad6a770899e,2024_02_27,35.56829031927379,-121.1120653023953,Santa Rosa Creek,3,1.736,2.072,14,14,"BRIEF_SHOWERS,BRIEF_SHOWERS,MIST,NIGHT_MIST,NIGHT_MOSTLY_CLOUDY","Onshore,Onshore,Onshore,Cross-shore,Offshore",5
5842041f4e65fad6a77089a2,2024_02_27,35.44820114936284,-120.90715,"Cayucos Pier, Southside ",3,0.626,0.932,14,14,"MOSTLY_CLOUDY,MOSTLY_CLOUDY,MOSTLY_CLEAR,NIGHT_MOSTLY_CLOUDY,NIGHT_MIST","Onshore,Onshore,Onshore,Onshore,Onshore",5
5842041f4e65fad6a77089a4,2024_02_27,35.30143372628852,-120.877819239902,Cable Landing,3,2.42,2.894,14,14,"CLEAR,MOSTLY_CLOUDY,CLEAR,NIGHT_CLEAR,NIGHT_MIST","Onshore,Onshore,Onshore,Onshore,Onshore",5
5842041f4e65fad6a77089a9,2024_02_27,35.61269103500222,-121.1480725356606,San Simeon,3,0.8343999999999999,0.9967999999999999,14,14,"MOSTLY_CLOUDY,BRIEF_SHOWERS,MOSTLY_CLOUDY,NIGHT_MOSTLY_CLOUDY,NIGHT_MIST","Onshore,Onshore,Onshore,Offshore,Offshore",5
5842041f4e65fad6a77089ab,2024_02_27,35.1775325966252,-120.7341125142258,Avila Beach,2,0.044000000000000004,0.352,14,14,"MOSTLY_CLOUDY,MOSTLY_CLOUDY,BRIEF_SHOWERS,NIGHT_MOSTLY_CLEAR,NIGHT_MOSTLY_CLEAR","Onshore,Onshore,Onshore,Offshore,Offshore",5
5842041f4e65fad6a77089ac,2024_02_27,35.13877877884115,-120.64535,Pismo Beach Pier,3,0.9279999999999999,1.3423333333333332,14,14,"CLEAR,MOSTLY_CLOUDY,FOG,NIGHT_MIST,NIGHT_MIST","Cross-shore,Cross-shore,Cross-shore,Cross-shore,Offshore",5
5842041f4e65fad6a77089ad,2024_02_27,46.8907710233147,-124.12964,Westport/Olympic Peninsula,0,2.568,3.072,10,10,"BRIEF_SHOWERS,CLEAR,CLEAR,NIGHT_CLEAR,NIGHT_BRIEF_SHOWERS","Onshore,Onshore,Onshore,Onshore,Onshore",5
5842041f4e65fad6a77089ae,2024_02_27,46.35185177248545,-124.06747,Long Beach Peninsula,0,4.204,4.668,10,10,"MOSTLY_CLOUDY,CLEAR,CLEAR,NIGHT_CLEAR,NIGHT_CLEAR","Onshore,Onshore,Onshore,Onshore,Onshore",5
5842041f4e65fad6a77089af,2024_02_27,47.90649175554033,-124.6370864743483,La Push,0.4,3.246,3.606,10,10,"MOSTLY_CLEAR,MOSTLY_CLEAR,CLEAR,NIGHT_MOSTLY_CLOUDY,NIGHT_CLEAR","Cross-shore,Cross-shore,Cross-shore,Cross-shore,Cross-shore",5
5842041f4e65fad6a77089b0,2024_02_27,42.04368239985442,-124.26828,Brookings Jetty,3,0.9349839999999999,1.460912,12,12,"CLEAR,CLEAR,CLEAR,CLEAR,NIGHT_CLEAR","Offshore,Offshore,Cross-shore,Cross-shore,Offshore",5
5842041f4e65fad6a77089b1,2024_02_27,42.74071837900346,-124.4983727491047,Port Orford,4,1.696,2.026,12,12,"MOSTLY_CLOUDY,MOSTLY_CLOUDY,MOSTLY_CLOUDY,MOSTLY_CLEAR,NIGHT_MOSTLY_CLOUDY","Offshore,Offshore,Offshore,Offshore,Offshore",5
5842041f4e65fad6a77089b2,2024_02_27,44.01532689312291,-124.13865,Florence South Jetty,1,3.9779999999999998,4.628,11,11,"MOSTLY_CLOUDY,MOSTLY_CLOUDY,CLEAR,NIGHT_MOSTLY_CLOUDY,NIGHT_SHOWERS","Onshore,Onshore,Onshore,Onshore,Onshore",5
5842041f4e65fad6a77089b3,2024_02_27,42.41812540774362,-124.42945,Gold Beach South Jetty,3,2.302,2.752,11,11,"MOSTLY_CLEAR,MOSTLY_CLOUDY,MOSTLY_CLOUDY,MOSTLY_CLOUDY,NIGHT_MOSTLY_CLOUDY","Offshore,Offshore,Offshore,Offshore,Offshore",5
5842041f4e65fad6a77089b4,2024_02_27,44.95857310226525,-124.0219017690976,Lincoln City,1,4.094,4.542,11,11,"CLEAR,MOSTLY_CLOUDY,CLEAR,NIGHT_MOSTLY_CLOUDY,NIGHT_CLEAR","Onshore,Onshore,Onshore,Onshore,Onshore",5
5842041f4e65fad6a77089b5,2024_02_27,44.63792761362982,-124.0657,Newport,1.4,4.264,4.734,12,12,"CLEAR,BRIEF_SHOWERS,CLEAR,NIGHT_MOSTLY_CLEAR,NIGHT_CLEAR","Cross-shore,Cross-shore,Onshore,Onshore,Onshore",5
5842041f4e65fad6a77089b6,2024_02_27,45.61468496266301,-123.94643,Rockaway Beach,1,4.336,4.812,11,11,"HEAVY_SHOWERS,MIST,CLEAR,NIGHT_MOSTLY_CLOUDY,NIGHT_MOSTLY_CLOUDY","Onshore,Onshore,Onshore,Onshore,Onshore",5
5842041f4e65fad6a77089b7,2024_02_27,45.20252914186085,-123.96975,Pacific City,2,3.0540000000000003,3.482,11,11,"CLEAR,MOSTLY_CLOUDY,HEAVY_SHOWERS,NIGHT_BRIEF_SHOWERS,NIGHT_MOSTLY_CLOUDY","Cross-shore,Onshore,Cross-shore,Cross-shore,Onshore",5
5842041f4e65fad6a77089b8,2024_02_27,45.88179930310263,-123.96681,Cannon Beach,2,3.958,4.392,11,11,"CLEAR,CLEAR,CLEAR,NIGHT_MOSTLY_CLEAR,NIGHT_MOSTLY_CLOUDY","Onshore,Cross-shore,Onshore,Onshore,Onshore",5
5842041f4e65fad6a77089ba,2024_02_27,40.02528754746774,-124.06372,Shelter Cove,2.2,0.46340000000000003,0.724058,13,13,"SHOWERS,CLEAR,CLEAR,CLEAR,NIGHT_CLEAR","Offshore,Offshore,Offshore,Offshore,Offshore",5
5842041f4e65fad6a77089bb,2024_02_27,40.76816197136951,-124.24248,Humboldt Harbor Entrance,1,2.396,2.866,12,12,"MOSTLY_CLOUDY,MOSTLY_CLOUDY,MOSTLY_CLOUDY,CLEAR,NIGHT_MOSTLY_CLEAR","Cross-shore,Cross-shore,Cross-shore,Cross-shore,Cross-shore",5
5842041f4e65fad6a77089bc,2024_02_27,40.76684246920174,-124.23107,North Jetty,1.8,3.562,4.212,12,12,"CLEAR,MOSTLY_CLOUDY,BRIEF_SHOWERS,CLEAR,NIGHT_MOSTLY_CLEAR","Cross-shore,Cross-shore,Cross-shore,Cross-shore,Cross-shore",5
5842041f4e65fad6a77089bd,2024_02_27,41.02731183893966,-124.1149972888982,Westhaven,2.6,3.574,4.226,12,12,"MOSTLY_CLEAR,BRIEF_SHOWERS,CLEAR,CLEAR,NIGHT_CLEAR","Cross-shore,Cross-shore,Offshore,Cross-shore,Cross-shore",5
5842041f4e65fad6a77089be,2024_02_27,41.13016238153297,-124.16466,Sue-meg,2,2.722,3.18,12,12,"MOSTLY_CLOUDY,BRIEF_SHOWERS,MOSTLY_CLEAR,BRIEF_SHOWERS,NIGHT_CLEAR","Onshore,Onshore,Cross-shore,Cross-shore,Cross-shore",5
5842041f4e65fad6a77089bf,2024_02_27,37.8289474958188,-122.5376795097543,Fort Cronkite/Rodeo Beach,2.2,1.264,1.51,13,13,"MOSTLY_CLEAR,CLEAR,CLEAR,NIGHT_CLEAR,NIGHT_CLEAR","Cross-shore,Cross-shore,Cross-shore,Cross-shore,Cross-shore",5
5842041f4e65fad6a77089c0,2024_02_27,41.74415759876137,-124.17717,South Beach CA,3,0.872,1.074,12,12,"MOSTLY_CLEAR,CLEAR,CLEAR,MOSTLY_CLEAR,NIGHT_CLEAR","Offshore,Offshore,Offshore,Offshore,Offshore",5
5842041f4e65fad6a77089c1,2024_02_27,37.89801283969752,-122.64519,Stinson Beach,3,0.416,0.72,13,13,"MIST,CLEAR,CLEAR,NIGHT_CLEAR,NIGHT_CLEAR","Offshore,Offshore,Offshore,Offshore,Offshore",5
5842041f4e65fad6a77089c2,2024_02_27,37.90514516176495,-122.68151,Bolinas,2.8,0.485296,0.758274,13,13,"MIST,MOSTLY_CLEAR,CLEAR,NIGHT_MOSTLY_CLEAR,NIGHT_MOSTLY_CLEAR","Offshore,Offshore,Offshore,Cross-shore,Cross-shore",5
5842041f4e65fad6a77089c3,2024_02_27,38.04892513158693,-122.9892494965416,Point Reyes (north),1.2,2.286,2.734,14,14,"MOSTLY_CLEAR,MOSTLY_CLOUDY,CLEAR,CLEAR,NIGHT_MOSTLY_CLEAR","Onshore,Onshore,Onshore,Onshore,Onshore",5
5842041f4e65fad6a77089c6,2024_02_27,38.31088736605785,-123.0496777333731,Doran Beach,2,0.288,0.596,14,14,"MOSTLY_CLEAR,MOSTLY_CLEAR,CLEAR,CLEAR,NIGHT_CLEAR","Offshore,Offshore,Offshore,Offshore,Offshore",5
5842041f4e65fad6a77089c7,2024_02_27,38.45077228660809,-123.13008,Russian Rivermouth,3,1.57,1.8780000000000001,13,13,"CLEAR,CLEAR,CLEAR,CLEAR,NIGHT_CLEAR","Onshore,Onshore,Cross-shore,Cross-shore,Cross-shore",5
5842041f4e65fad6a77089c8,2024_02_27,38.35329968518107,-123.06906,Salmon Creek,2,1.802,2.154,14,14,"MOSTLY_CLEAR,CLEAR,CLEAR,CLEAR,NIGHT_CLEAR","Onshore,Onshore,Onshore,Onshore,Onshore",5
5842041f4e65fad6a77089c9,2024_02_27,38.6845180197959,-123.4322714291198,Black Point Beach,2,0.808,1.062,14,14,"CLEAR,CLEAR,CLEAR,CLEAR,NIGHT_CLEAR","Onshore,Onshore,Onshore,Onshore,Onshore",5
5842041f4e65fad6a77089ca,2024_02_27,43.251076,-70.59144,Ogunquit,2.934,0.518,0.8198333333333333,4,3,"NIGHT_CLEAR,NIGHT_CLEAR,NIGHT_CLEAR,NIGHT_CLEAR,NIGHT_CLEAR","Offshore,Offshore,Offshore,Offshore,Offshore",5
5842041f4e65fad6a77089cb,2024_02_27,41.362631366305415,-71.48006772942608,Point Judith,2,0.25033333333333335,0.5583333333333333,5,4,"NIGHT_CLEAR,NIGHT_CLEAR,NIGHT_CLEAR,NIGHT_MIST,NIGHT_MIST","Offshore,Offshore,Offshore,Offshore,Cross-shore",5
5842041f4e65fad6a77089cd,2024_02_27,41.422678090954726,-71.45413,Monahan's - Narragansett,1.6,0.349714,0.54643,4,4,"NIGHT_CLEAR,NIGHT_CLEAR,NIGHT_CLEAR,NIGHT_MIST,NIGHT_MIST","Offshore,Offshore,Offshore,Offshore,Cross-shore",5
5842041f4e65fad6a77089ce,2024_02_27,41.469,-71.293,Ruggles - Newport,1.6,0.467864,0.731036,4,4,"NIGHT_CLEAR,NIGHT_CLEAR,NIGHT_MIST,NIGHT_MIST,NIGHT_MIST","Onshore,Onshore,Onshore,Onshore,Onshore",5
5842041f4e65fad6a77089cf,2024_02_27,43.175394,-70.606351,Short Sands Beach,3,0.662,0.966,3,3,"NIGHT_CLEAR,NIGHT_CLEAR,NIGHT_CLEAR,NIGHT_CLEAR,NIGHT_CLEAR","Offshore,Offshore,Offshore,Offshore,Offshore",5
5842041f4e65fad6a77089d0,2024_02_27,41.487408,-71.29017,First Beach,1,0.246,0.552,4,4,"NIGHT_CLEAR,NIGHT_CLEAR,NIGHT_CLEAR,NIGHT_CLEAR,NIGHT_MIST","Onshore,Onshore,Onshore,Onshore,Onshore",5
5842041f4e65fad6a77089d1,2024_02_27,42.27916830233153,-70.86498,Nantasket Beach,0.966,0,0.21266666666666667,4,3,"NIGHT_CLEAR,NIGHT_CLEAR,NIGHT_CLEAR,NIGHT_CLEAR,NIGHT_CLEAR","Offshore,Offshore,Offshore,Offshore,Offshore",5
5842041f4e65fad6a77089d2,2024_02_27,41.817,-69.935,Cape Cod,1.6,0.19,0.492,3,3,"NIGHT_CLEAR,NIGHT_CLEAR,NIGHT_CLEAR,NIGHT_CLEAR,NIGHT_CLEAR","Offshore,Offshore,Offshore,Offshore,Offshore",5
5842041f4e65fad6a77089d3,2024_02_27,42.22055448975661,-70.70634873403819,Egypt Beach,1,0,0.202,3,3,"NIGHT_CLEAR,NIGHT_CLEAR,NIGHT_CLEAR,NIGHT_CLEAR,NIGHT_CLEAR","Offshore,Offshore,Offshore,Offshore,Offshore",5
5842041f4e65fad6a77089d4,2024_02_27,41.48739647744607,-71.25723,Second Beach,1,0.4057368333333333,0.6180856666666666,5,4,"NIGHT_CLEAR,NIGHT_CLEAR,NIGHT_MIST,NIGHT_MIST,NIGHT_MIST","Onshore,Onshore,Onshore,Onshore,Onshore",5
5842041f4e65fad6a77089d5,2024_02_27,42.964,-70.769,Fox Hill,2.766,0.35883333333333334,0.6668333333333333,4,3,"NIGHT_CLEAR,NIGHT_CLEAR,NIGHT_CLEAR,NIGHT_CLEAR,NIGHT_CLEAR","Offshore,Offshore,Offshore,Offshore,Offshore",5
5842041f4e65fad6a77089d6,2024_02_27,42.991359,-70.75149,Straws Point,2.566,0.3845,0.6905,4,3,"NIGHT_CLEAR,NIGHT_CLEAR,NIGHT_CLEAR,NIGHT_CLEAR,NIGHT_CLEAR","Cross-shore,Cross-shore,Cross-shore,Offshore,Offshore",5
5842041f4e65fad6a77089d7,2024_02_27,42.946,-70.786,Plaice Cove,2.934,0.35883333333333334,0.6668333333333333,4,3,"NIGHT_CLEAR,NIGHT_CLEAR,NIGHT_CLEAR,NIGHT_CLEAR,NIGHT_CLEAR","Offshore,Offshore,Offshore,Offshore,Offshore",5
5842041f4e65fad6a77089d9,2024_02_27,42.911574,-70.80831,The Main Beach,1.8,0.309985,0.6177013333333334,4,3,"NIGHT_CLEAR,NIGHT_CLEAR,NIGHT_CLEAR,NIGHT_CLEAR,NIGHT_CLEAR","Cross-shore,Cross-shore,Cross-shore,Cross-shore,Offshore",5
5842041f4e65fad6a77089da,2024_02_27,42.97583846220203,-70.764,Sawyer's Beach,2.934,0.41050000000000003,0.7123333333333334,4,3,"NIGHT_CLEAR,NIGHT_CLEAR,NIGHT_CLEAR,NIGHT_CLEAR,NIGHT_CLEAR","Offshore,Offshore,Offshore,Offshore,Offshore",5
5842041f4e65fad6a77089db,2024_02_27,42.97,-70.77,Rye on the Rocks / 5-0's,2,0.2988426666666667,0.6018340000000001,4,3,"NIGHT_CLEAR,NIGHT_CLEAR,NIGHT_CLEAR,NIGHT_CLEAR,NIGHT_CLEAR","Cross-shore,Offshore,Offshore,Offshore,Offshore",5
5842041f4e65fad6a77089dc,2024_02_27,43.55902946610303,-70.27795,Higgins Beach,1.3,0.5758333333333333,0.9493333333333334,4,3,"NIGHT_CLEAR,NIGHT_CLEAR,NIGHT_CLEAR,NIGHT_CLEAR,NIGHT_CLEAR","Cross-shore,Offshore,Offshore,Offshore,Offshore",5
5842041f4e65fad6a77089dd,2024_02_27,43.302676,-70.5652,Wells Beach,2.766,0.5275000000000001,0.8293333333333334,4,3,"NIGHT_CLEAR,NIGHT_CLEAR,NIGHT_CLEAR,NIGHT_CLEAR,NIGHT_CLEAR","Offshore,Offshore,Offshore,Offshore,Offshore",5
5842041f4e65fad6a77089de,2024_02_27,43.545359,-70.30479,Scarborough Beach State Park,2.8,0.6405245,1.0563801666666668,4,3,"NIGHT_CLEAR,NIGHT_CLEAR,NIGHT_CLEAR,NIGHT_CLEAR,NIGHT_CLEAR","Cross-shore,Offshore,Offshore,Cross-shore,Cross-shore",5
5842041f4e65fad6a77089df,2024_02_27,43.514481,-70.372146,Old Orchard Beach,2,0.4706666666666667,0.7745,4,3,"NIGHT_CLEAR,NIGHT_CLEAR,NIGHT_CLEAR,NIGHT_CLEAR,NIGHT_CLEAR","Cross-shore,Offshore,Offshore,Offshore,Cross-shore",5
5842041f4e65fad6a77089e0,2024_02_27,43.34711,-70.48165,Gooch's Beach,2.566,0.6775,0.9854999999999999,4,3,"NIGHT_CLEAR,NIGHT_CLEAR,NIGHT_CLEAR,NIGHT_CLEAR,NIGHT_CLEAR","Onshore,Cross-shore,Offshore,Offshore,Offshore",5
5842041f4e65fad6a77089e2,2024_02_27,40.58433,-73.62953,Lido Beach,1,0.5401666666666667,0.8461666666666667,5,4,"NIGHT_CLEAR,NIGHT_CLEAR,NIGHT_CLEAR,NIGHT_CLEAR,NIGHT_CLEAR","Onshore,Onshore,Cross-shore,Onshore,Onshore",5
5842041f4e65fad6a77089e3,2024_02_27,43.163135,-70.61689,Long Sands Beach,2,0.6372005,0.9797456666666667,4,3,"NIGHT_CLEAR,NIGHT_CLEAR,NIGHT_CLEAR,NIGHT_CLEAR,NIGHT_CLEAR","Cross-shore,Cross-shore,Offshore,Offshore,Offshore",5
5842041f4e65fad6a77089e4,2024_02_27,40.61695351251805,-73.39376,Gilgo Beach,1.966,0.44883333333333336,0.7548333333333332,5,4,"NIGHT_CLEAR,NIGHT_CLEAR,NIGHT_CLEAR,NIGHT_CLEAR,NIGHT_CLEAR","Onshore,Onshore,Onshore,Onshore,Onshore",5
5842041f4e65fad6a77089e5,2024_02_27,40.62530081928036,-73.23827,Robert Moses,2,0.40399999999999997,0.706,4,4,"NIGHT_CLEAR,NIGHT_CLEAR,NIGHT_CLEAR,NIGHT_CLEAR,NIGHT_CLEAR","Onshore,Onshore,Onshore,Onshore,Onshore",5
5842041f4e65fad6a77089e6,2024_02_27,40.64313317632791,-73.15727,Fire Island,2,0.396,0.698,5,5,"NIGHT_CLEAR,NIGHT_CLEAR,NIGHT_CLEAR,NIGHT_CLEAR,NIGHT_MIST","Onshore,Onshore,Onshore,Onshore,Onshore",5
5842041f4e65fad6a77089e8,2024_02_27,40.76653118828782,-72.74579619372713,Cupsogue,2,0.716,1.022,5,5,"NIGHT_CLEAR,NIGHT_CLEAR,NIGHT_MIST,NIGHT_MIST,NIGHT_MIST","Onshore,Onshore,Onshore,Onshore,Onshore",5
5842041f4e65fad6a77089e9,2024_02_27,42.9376373334092,-70.79141,The Wall ,2,0.3024406666666667,0.6059173333333333,4,3,"NIGHT_CLEAR,NIGHT_CLEAR,NIGHT_CLEAR,NIGHT_CLEAR,NIGHT_CLEAR","Offshore,Offshore,Offshore,Offshore,Offshore",5
5842041f4e65fad6a77089ea,2024_02_27,40.887088,-72.33856,Flys,1.6,0.584,0.89,5,5,"NIGHT_MIST,NIGHT_CLEAR,NIGHT_CLEAR,NIGHT_MIST,NIGHT_BRIEF_SHOWERS_POSSIBLE","Onshore,Onshore,Onshore,Onshore,Onshore",5
5842041f4e65fad6a77089eb,2024_02_27,41.0389266436591,-71.91068529316958,Trailer Park,0.9,0.6181036666666667,0.88896166666666665,5,4,"NIGHT_CLEAR,NIGHT_CLEAR,NIGHT_CLEAR,NIGHT_MIST,NIGHT_MIST","Onshore,Onshore,Onshore,Onshore,Onshore",5
5842041f4e65fad6a77089ec,2024_02_27,41.039505402729105,-71.9142,Ditch Plains,1.4,0.578236,0.903494,5,5,"NIGHT_CLEAR,NIGHT_CLEAR,NIGHT_CLEAR,NIGHT_MIST,NIGHT_MIST","Cross-shore,Cross-shore,Cross-shore,Cross-shore,Cross-shore",5
5842041f4e65fad6a77089ee,2024_02_27,40.57633275206492,-73.56895305108567,"West End, Jones Beach",1.966,0.47183333333333327,0.7756666666666667,5,4,"NIGHT_CLEAR,NIGHT_CLEAR,NIGHT_CLEAR,NIGHT_CLEAR,NIGHT_CLEAR","Onshore,Onshore,Onshore,Onshore,Onshore",5
5842041f4e65fad6a77089f1,2024_02_27,41.038286691230795,-71.91991567611694,Poles,0.9,0.5318895,0.8395636666666667,5,4,"NIGHT_CLEAR,NIGHT_CLEAR,NIGHT_CLEAR,NIGHT_MIST,NIGHT_MIST","Onshore,Onshore,Onshore,Onshore,Onshore",5
5842041f4e65fad6a77089f3,2024_02_27,40.84077769766295,-72.47989493724765,The Bowl,1.8,0.612,0.916,5,5,"NIGHT_CLEAR,NIGHT_CLEAR,NIGHT_MIST,NIGHT_MIST,NIGHT_MIST","Onshore,Onshore,Onshore,Onshore,Onshore",5
5842041f4e65fad6a77089f4,2024_02_27,40.94235535243154,-72.19286,Main Beach,1.6,0.6395000000000001,0.9455,13,12,"NIGHT_CLEAR,NIGHT_CLEAR,NIGHT_MOSTLY_CLEAR,NIGHT_MIST,NIGHT_MIST","Onshore,Onshore,Onshore,Onshore,Onshore",5
5842041f4e65fad6a77089f5,2024_02_27,40.58270702399518,-73.67251552079799,Laurelton Blvd.,1,0.5096543333333333,0.7341373333333333,5,4,"NIGHT_MIST,NIGHT_MIST,NIGHT_MIST,NIGHT_MIST,NIGHT_MIST","Onshore,Onshore,Onshore,Onshore,Onshore",5
5842041f4e65fad6a77089f6,2024_02_27,41.033752854071416,-71.93695522488403,Terrace,0.966,0.5286666666666666,0.8325,5,4,"NIGHT_CLEAR,NIGHT_CLEAR,NIGHT_CLEAR,NIGHT_MIST,NIGHT_MIST","Onshore,Onshore,Onshore,Onshore,Onshore",5
5842041f4e65fad6a77089f7,2024_02_27,40.83372943645748,-72.50426173210144,K Road,1.6,0.706,1.01,5,5,"NIGHT_CLEAR,NIGHT_CLEAR,NIGHT_MIST,NIGHT_BRIEF_SHOWERS_POSSIBLE,NIGHT_MIST","Onshore,Onshore,Onshore,Onshore,Onshore",5
5842041f4e65fad6a77089f8,2024_02_27,40.58456099581507,-73.80730032920837,84th Street,1,0.41633333333333333,0.7201666666666667,5,4,"NIGHT_CLEAR,NIGHT_MIST,NIGHT_MIST,NIGHT_CLEAR,NIGHT_CLEAR","Onshore,Onshore,Onshore,Onshore,Onshore",5
5842041f4e65fad6a77089fa,2024_02_27,40.1319,-74.02788,Sea Girt,2.566,0.39483333333333337,0.7008333333333333,6,5,"NIGHT_CLEAR,NIGHT_CLEAR,NIGHT_CLEAR,NIGHT_CLEAR,NIGHT_CLEAR","Cross-shore,Offshore,Cross-shore,Offshore,Offshore",5
5842041f4e65fad6a77089fb,2024_02_27,40.54698301868125,-73.9268,Breezy Point,2,0.346,0.65,5,5,"NIGHT_MIST,NIGHT_MIST,NIGHT_MIST,NIGHT_MIST,NIGHT_MIST","Onshore,Onshore,Onshore,Onshore,Onshore",5
5842041f4e65fad6a77089fc,2024_02_27,40.152504,-74.021383,Spring Lake,2.366,0.3793333333333333,0.68533333333333335,6,5,"NIGHT_CLEAR,NIGHT_CLEAR,NIGHT_CLEAR,NIGHT_CLEAR,NIGHT_CLEAR","Cross-shore,Offshore,Cross-shore,Cross-shore,Offshore",5
5842041f4e65fad6a77089fd,2024_02_27,40.591277,-73.770792,30th - 39th Streets,1.966,0.3641666666666667,0.6701666666666667,5,4,"NIGHT_CLEAR,NIGHT_CLEAR,NIGHT_CLEAR,NIGHT_MIST,NIGHT_MIST","Onshore,Onshore,Onshore,Onshore,Onshore",5
5842041f4e65fad6a77089fe,2024_02_27,40.18834955871439,-74.00860982500222,Avon,2.366,0.3716666666666667,0.6775,6,5,"NIGHT_CLEAR,NIGHT_CLEAR,NIGHT_CLEAR,NIGHT_CLEAR,NIGHT_CLEAR","Cross-shore,Offshore,Cross-shore,Offshore,Offshore",5
5842041f4e65fad6a77089ff,2024_02_27,40.1974229100932,-74.00650533798255,Bradley Beach,2.366,0.3601666666666667,0.66,6,5,"NIGHT_CLEAR,NIGHT_CLEAR,NIGHT_CLEAR,NIGHT_CLEAR,NIGHT_CLEAR","Cross-shore,Offshore,Cross-shore,Offshore,Offshore",5
5842041f4e65fad6a7708a01,2024_02_27,40.17202,-74.01503,"16th Ave., Belmar",1.966,0.3648,0.6699333333333334,6,5,"NIGHT_CLEAR,NIGHT_CLEAR,NIGHT_CLEAR,NIGHT_CLEAR,NIGHT_CLEAR","Cross-shore,Offshore,Cross-shore,Offshore,Offshore",5
5842041f4e65fad6a7708a02,2024_02_27,40.217443,-73.99982,Asbury Park,2.166,0.39316666666666666,0.6950000000000001,6,5,"NIGHT_CLEAR,NIGHT_CLEAR,NIGHT_CLEAR,NIGHT_CLEAR,NIGHT_CLEAR","Cross-shore,Offshore,Cross-shore,Offshore,Offshore",5
5842041f4e65fad6a7708a03,2024_02_27,40.229841,-73.996782,Loch Arbour and Deal,1.566,0.393,0.7010000000000001,6,5,"NIGHT_CLEAR,NIGHT_CLEAR,NIGHT_CLEAR,NIGHT_CLEAR,NIGHT_CLEAR","Cross-shore,Cross-shore,Cross-shore,Cross-shore,Cross-shore",5
5842041f4e65fad6a7708a05,2024_02_27,40.41754,-73.97935,Sandy Hook,1.6,0.126,0.432,5,5,"NIGHT_CLEAR,NIGHT_CLEAR,NIGHT_CLEAR,NIGHT_CLEAR,NIGHT_CLEAR","Onshore,Onshore,Onshore,Onshore,Onshore",5
5842041f4e65fad6a7708a06,2024_02_27,39.36353,-74.40873,Crystals,1.6,0.39326950000000005,0.6700473333333333,6,5,"NIGHT_CLEAR,NIGHT_CLEAR,NIGHT_CLEAR,NIGHT_CLEAR,NIGHT_CLEAR","Onshore,Onshore,Onshore,Onshore,Onshore",5
5842041f4e65fad6a7708a07,2024_02_27,39.31443,-74.51863,32nd Street,0.966,0.4147153333333334,0.7035538333333333,6,5,"NIGHT_MIST,NIGHT_MIST,NIGHT_MIST,NIGHT_MIST,NIGHT_MIST","Onshore,Onshore,Onshore,Onshore,Onshore",5
5842041f4e65fad6a7708a08,2024_02_27,39.327688,-74.49524,Margate Pier Northside,0.966,0.4147153333333334,0.7035538333333333,6,5,"NIGHT_MIST,NIGHT_MIST,NIGHT_MIST,NIGHT_MIST,NIGHT_MIST","Onshore,Onshore,Onshore,Onshore,Onshore",5
5842041f4e65fad6a7708a09,2024_02_27,39.336276,-74.47782,Ventnor Pier,1.6,0.42903383333333334,0.7259271666666667,6,5,"NIGHT_MIST,NIGHT_MIST,NIGHT_MIST,NIGHT_MIST,NIGHT_MIST","Onshore,Onshore,Onshore,Onshore,Onshore",5
5842041f4e65fad6a7708a0a,2024_02_27,39.35929751441085,-74.41683,States Avenue,1.6,0.39326950000000005,0.6700473333333333,6,5,"NIGHT_CLEAR,NIGHT_CLEAR,NIGHT_CLEAR,NIGHT_CLEAR,NIGHT_CLEAR","Onshore,Onshore,Onshore,Onshore,Onshore",5
5842041f4e65fad6a7708a0b,2024_02_27,39.37274173278517,-74.40454,Brigantine Jetty,1.4,0.45568583333333335,0.7675698333333333,6,5,"NIGHT_CLEAR,NIGHT_CLEAR,NIGHT_CLEAR,NIGHT_CLEAR,NIGHT_CLEAR","Onshore,Onshore,Onshore,Onshore,Onshore",5
5842041f4e65fad6a7708a0c,2024_02_27,39.356505,-74.42263,South Carolina Avenue,1.6,0.45568583333333335,0.7675698333333333,6,5,"NIGHT_CLEAR,NIGHT_CLEAR,NIGHT_CLEAR,NIGHT_CLEAR,NIGHT_CLEAR","Onshore,Onshore,Onshore,Onshore,Onshore",5
5842041f4e65fad6a7708a0d,2024_02_27,39.413485,-74.35476,14th Street North,1.6,0.3448333333333334,0.6508333333333333,6,5,"NIGHT_CLEAR,NIGHT_CLEAR,NIGHT_CLEAR,NIGHT_CLEAR,NIGHT_CLEAR","Onshore,Onshore,Onshore,Onshore,Onshore",5
5842041f4e65fad6a7708a0e,2024_02_27,39.531319,-74.263252,The Wooden Jetty,0.9,0.6259203333333333,0.8846338333333333,6,5,"NIGHT_CLEAR,NIGHT_CLEAR,NIGHT_CLEAR,NIGHT_CLEAR,NIGHT_CLEAR","Onshore,Onshore,Onshore,Onshore,Onshore",5
5842041f4e65fad6a7708a0f,2024_02_27,39.552472,-74.24344,Holyoke,0.834,0.5168473333333333,0.791708,6,5,"NIGHT_CLEAR,NIGHT_CLEAR,NIGHT_CLEAR,NIGHT_CLEAR,NIGHT_CLEAR","Onshore,Onshore,Onshore,Onshore,Onshore",5
5842041f4e65fad6a7708a10,2024_02_27,39.692364,-74.14068,Hudson Ave.,0.834,0.5708333333333334,0.8768333333333334,6,5,"NIGHT_CLEAR,NIGHT_CLEAR,NIGHT_CLEAR,NIGHT_CLEAR,NIGHT_MIST","Onshore,Onshore,Onshore,Onshore,Onshore",5
5842041f4e65fad6a7708a11,2024_02_27,39.79614,-74.09248,Island Beach State Park,1,0.53,0.8298333333333333,6,5,"NIGHT_CLEAR,NIGHT_CLEAR,NIGHT_CLEAR,NIGHT_CLEAR,NIGHT_CLEAR","Cross-shore,Cross-shore,Cross-shore,Cross-shore,Cross-shore",5
5842041f4e65fad6a7708a12,2024_02_27,39.91813588078152,-74.07527,Seaside Park,1,0.4791666666666667,0.7789999999999999,6,5,"NIGHT_CLEAR,NIGHT_CLEAR,NIGHT_CLEAR,NIGHT_CLEAR,NIGHT_CLEAR","Cross-shore,Cross-shore,Cross-shore,Cross-shore,Cross-shore",5
5842041f4e65fad6a7708a14,2024_02_27,39.946638,-74.06884,Seaside Heights,1.166,0.383,0.6910000000000001,6,5,"NIGHT_CLEAR,NIGHT_CLEAR,NIGHT_CLEAR,NIGHT_CLEAR,NIGHT_CLEAR","Cross-shore,Cross-shore,Cross-shore,Cross-shore,Cross-shore",5
5842041f4e65fad6a7708a15,2024_02_27,39.95745637606704,-74.06736,Ortley Beach,1.166,0.33666666666666667,0.6425000000000001,6,5,"NIGHT_CLEAR,NIGHT_CLEAR,NIGHT_CLEAR,NIGHT_CLEAR,NIGHT_CLEAR","Cross-shore,Cross-shore,Cross-shore,Cross-shore,Cross-shore",5
5842041f4e65fad6a7708a16,2024_02_27,39.98313468342945,-74.06265685577506,Lavallette,1.166,0.3755,0.6793333333333333,6,5,"NIGHT_CLEAR,NIGHT_CLEAR,NIGHT_CLEAR,NIGHT_CLEAR,NIGHT_CLEAR","Cross-shore,Cross-shore,Cross-shore,Cross-shore,Cross-shore",5
5842041f4e65fad6a7708a17,2024_02_27,40.0699319967757,-74.04144910856634,Bay Head,0.966,0.358,0.662,6,5,"NIGHT_MIST,NIGHT_MIST,NIGHT_MIST,NIGHT_MIST,NIGHT_MIST","Cross-shore,Cross-shore,Cross-shore,Cross-shore,Cross-shore",5
5842041f4e65fad6a7708a18,2024_02_27,40.094041,-74.034859,Jenkinson's,1.366,0.3913333333333333,0.6911666666666667,6,5,"NIGHT_CLEAR,NIGHT_CLEAR,NIGHT_CLEAR,NIGHT_CLEAR,NIGHT_MIST","Cross-shore,Cross-shore,Cross-shore,Cross-shore,Cross-shore",5
5842041f4e65fad6a7708a1a,2024_02_27,38.148058,-75.17704,Assateague,1,0.41383333333333333,0.7218333333333333,6,5,"NIGHT_CLEAR,NIGHT_MOSTLY_CLOUDY,NIGHT_MOSTLY_CLOUDY,NIGHT_MOSTLY_CLOUDY,NIGHT_CLEAR","Cross-shore,Onshore,Onshore,Onshore,Onshore",5
5842041f4e65fad6a7708a1b,2024_02_27,38.33889038664497,-75.08017670566352,North End to Ocean City Inlet,1.966,0.42383333333333334,0.7296666666666667,6,5,"NIGHT_CLEAR,NIGHT_CLEAR,NIGHT_CLEAR,NIGHT_BRIEF_SHOWERS,NIGHT_MOSTLY_CLEAR","Offshore,Cross-shore,Cross-shore,Cross-shore,Cross-shore",5
5842041f4e65fad6a7708a1c,2024_02_27,38.603993,-75.06271,Indian River Inlet,1,0.3563831666666667,0.6124081666666666,6,5,"NIGHT_CLEAR,NIGHT_CLEAR,NIGHT_CLEAR,NIGHT_CLEAR,NIGHT_MOSTLY_CLOUDY","Cross-shore,Cross-shore,Onshore,Cross-shore,Cross-shore",5
5842041f4e65fad6a7708a1d,2024_02_27,38.460477,-75.052069,Fenwick Island,1,0.2121666666666667,0.512,6,5,"NIGHT_CLEAR,NIGHT_CLEAR,NIGHT_MOSTLY_CLEAR,NIGHT_CLEAR,NIGHT_CLEAR","Offshore,Offshore,Cross-shore,Cross-shore,Cross-shore",5
5842041f4e65fad6a7708a1e,2024_02_27,38.538767,-75.05619,Bethany Beach,1,0.35193783333333334,0.6054625,6,5,"NIGHT_CLEAR,NIGHT_CLEAR,NIGHT_CLEAR,NIGHT_MOSTLY_CLOUDY,NIGHT_BRIEF_SHOWERS","Cross-shore,Cross-shore,Cross-shore,Cross-shore,Cross-shore",5
5842041f4e65fad6a7708a1f,2024_02_27,38.697657,-75.075951,Dewey Beach,1.966,0.28883333333333333,0.5906666666666667,6,5,"NIGHT_CLEAR,NIGHT_CLEAR,NIGHT_CLEAR,NIGHT_MOSTLY_CLOUDY,NIGHT_MOSTLY_CLOUDY","Cross-shore,Cross-shore,Cross-shore,Cross-shore,Cross-shore",5
5842041f4e65fad6a7708a20,2024_02_27,38.75034741676525,-75.08194,Gordons Pond,1,0.29108116666666667,0.510382,6,5,"NIGHT_CLEAR,NIGHT_CLEAR,NIGHT_CLEAR,NIGHT_CLEAR,NIGHT_MOSTLY_CLOUDY","Onshore,Cross-shore,Onshore,Onshore,Onshore",5
5842041f4e65fad6a7708a21,2024_02_27,38.767837,-75.082841,Naval Jetties,0.966,0.2145,0.5205000000000001,6,5,"NIGHT_CLEAR,NIGHT_CLEAR,NIGHT_CLEAR,NIGHT_CLEAR,NIGHT_MOSTLY_CLOUDY","Cross-shore,Offshore,Cross-shore,Cross-shore,Cross-shore",5
5842041f4e65fad6a7708a22,2024_02_27,36.81735875786576,-75.96624,Camp Pendleton,1,0.05100000000000001,0.3546666666666667,7,6,"NIGHT_CLEAR,NIGHT_CLEAR,NIGHT_MOSTLY_CLOUDY,NIGHT_CLEAR,NIGHT_CLEAR","Cross-shore,Cross-shore,Cross-shore,Cross-shore,Cross-shore",5
5842041f4e65fad6a7708a23,2024_02_27,36.9102212316428,-75.98732471466064,North End,0.4,0,0.30433333333333334,7,6,"NIGHT_CLEAR,NIGHT_CLEAR,NIGHT_CLEAR,NIGHT_CLEAR,NIGHT_CLEAR","Offshore,Cross-shore,Cross-shore,Offshore,Offshore",5
5842041f4e65fad6a7708a24,2024_02_27,36.737117517621314,-75.93923719853362,Sandbridge Beach,1,0.01850000000000001,0.3243333333333333,7,6,"NIGHT_CLEAR,NIGHT_CLEAR,NIGHT_CLEAR,NIGHT_CLEAR,NIGHT_CLEAR","Offshore,Offshore,Offshore,Offshore,Offshore",5
5842041f4e65fad6a7708a26,2024_02_27,36.818257440557794,-75.96666,Croatan to Pendleton,1,0.016,0.32166666666666666,7,6,"NIGHT_CLEAR,NIGHT_CLEAR,NIGHT_MOSTLY_CLOUDY,NIGHT_CLEAR,NIGHT_CLEAR","Cross-shore,Cross-shore,Cross-shore,Cross-shore,Cross-shore",5
5842041f4e65fad6a7708a27,2024_02_27,36.84318777204769,-75.9719,South End,0.634,0.011166666666666663,0.313,7,6,"NIGHT_CLEAR,NIGHT_CLEAR,NIGHT_CLEAR,NIGHT_MOSTLY_CLOUDY,NIGHT_CLEAR","Cross-shore,Cross-shore,Cross-shore,Cross-shore,Cross-shore",5
5842041f4e65fad6a7708a28,2024_02_27,37.08612627584661,-75.976121638199,Fishermans Island,1,0.1056,0.228,7,7,"NIGHT_CLEAR,NIGHT_CLEAR,NIGHT_CLEAR,NIGHT_MOSTLY_CLOUDY,NIGHT_MOSTLY_CLOUDY","Onshore,Onshore,Onshore,Onshore,Onshore",5
5842041f4e65fad6a7708a38,2024_02_27,35.254619418229026,-75.52074,Cape Hatteras Lighthouse,1,0.5587106666666667,0.8412406666666666,11,9,"NIGHT_CLEAR,NIGHT_CLEAR,NIGHT_CLEAR,NIGHT_CLEAR,NIGHT_CLEAR","Cross-shore,Cross-shore,Cross-shore,Cross-shore,Cross-shore",5
5842041f4e65fad6a7708a3a,2024_02_27,35.54572934093336,-75.46477,Waves and Salvo,1.134,0.3558,0.6532,9,7,"NIGHT_CLEAR,NIGHT_CLEAR,NIGHT_CLEAR,NIGHT_CLEAR,NIGHT_CLEAR","Cross-shore,Cross-shore,Cross-shore,Cross-shore,Cross-shore",5
5842041f4e65fad6a7708a3b,2024_02_27,35.22565892751075,-75.63606,Frisco,0.866,0.22560000000000002,0.5027999999999999,12,11,"NIGHT_CLEAR,NIGHT_CLEAR,NIGHT_CLEAR,NIGHT_CLEAR,NIGHT_CLEAR","Onshore,Onshore,Onshore,Onshore,Onshore",5
5842041f4e65fad6a7708a3c,2024_02_27,35.13086,-75.90591,Ocracoke,0.6,0.30752199999999996,0.480506,9,9,"NIGHT_CLEAR,NIGHT_CLEAR,NIGHT_CLEAR,NIGHT_CLEAR,NIGHT_CLEAR","Onshore,Onshore,Onshore,Onshore,Onshore",5
5842041f4e65fad6a7708a3d,2024_02_27,35.34721340158342,-75.50084,Avon Pier,1,0.5573333333333333,0.857,9,8,"NIGHT_CLEAR,NIGHT_CLEAR,NIGHT_CLEAR,NIGHT_CLEAR,NIGHT_CLEAR","Cross-shore,Cross-shore,Cross-shore,Cross-shore,Cross-shore",5
5842041f4e65fad6a7708a3f,2024_02_27,35.71680821253768,-75.49243,Pea Island,1,0.136,0.442,7,7,"NIGHT_CLEAR,NIGHT_CLEAR,NIGHT_CLEAR,NIGHT_CLEAR,NIGHT_CLEAR","Offshore,Offshore,Offshore,Offshore,Offshore",5
5842041f4e65fad6a7708a40,2024_02_27,35.97427620657821,-75.62984,Nags Head Pier,1.8,0.499,0.8006666666666666,8,6,"NIGHT_CLEAR,NIGHT_CLEAR,NIGHT_CLEAR,NIGHT_CLEAR,NIGHT_CLEAR","Offshore,Offshore,Offshore,Offshore,Offshore",5
5842041f4e65fad6a7708a41,2024_02_27,36.0439998039079,-75.67288,Avalon Pier,1.134,0.1434,0.4518,7,6,"NIGHT_CLEAR,NIGHT_CLEAR,NIGHT_CLEAR,NIGHT_CLEAR,NIGHT_CLEAR","Offshore,Offshore,Offshore,Offshore,Offshore",5
5842041f4e65fad6a7708a42,2024_02_27,36.03043116489792,-75.66413,First Street,1.7,0.49633333333333335,0.8023333333333333,7,6,"NIGHT_CLEAR,NIGHT_CLEAR,NIGHT_CLEAR,NIGHT_CLEAR,NIGHT_CLEAR","Offshore,Offshore,Offshore,Offshore,Offshore",5
5842041f4e65fad6a7708a43,2024_02_27,36.06829910590498,-75.6899,Old Station/Laundromats,1.134,0.16440000000000002,0.4618,7,6,"NIGHT_CLEAR,NIGHT_CLEAR,NIGHT_CLEAR,NIGHT_CLEAR,NIGHT_CLEAR","Offshore,Offshore,Offshore,Offshore,Offshore",5
5842041f4e65fad6a7708a44,2024_02_27,36.10126676607491,-75.71107462163894,Kitty Hawk Pier,1.7,0.4906666666666667,0.8006666666666666,7,6,"NIGHT_CLEAR,NIGHT_CLEAR,NIGHT_CLEAR,NIGHT_CLEAR,NIGHT_CLEAR","Offshore,Offshore,Offshore,Offshore,Offshore",5
5842041f4e65fad6a7708a45,2024_02_27,36.18220630068973,-75.75013580649097,Duck Pier,1,0.1574,0.4588,7,6,"NIGHT_CLEAR,NIGHT_CLEAR,NIGHT_CLEAR,NIGHT_CLEAR,NIGHT_CLEAR","Offshore,Offshore,Offshore,Offshore,Offshore",5
5842041f4e65fad6a7708a46,2024_02_27,36.37660668125033,-75.82409701687456,Corolla,1,0.23040000000000002,0.5338,7,6,"NIGHT_CLEAR,NIGHT_CLEAR,NIGHT_CLEAR,NIGHT_CLEAR,NIGHT_CLEAR","Offshore,Cross-shore,Offshore,Cross-shore,Offshore",5
5842041f4e65fad6a7708a47,2024_02_27,33.90373404124834,-78.08241431707907,Oak Island,1,0.066,0.37,12,12,"CLEAR,NIGHT_CLEAR,NIGHT_CLEAR,NIGHT_CLEAR,NIGHT_CLEAR","Onshore,Onshore,Onshore,Onshore,Onshore",5
5842041f4e65fad6a7708a48,2024_02_27,33.91108837766468,-78.29653,South Brunswick Beaches,1,0.35032,0.547374,11,11,"CLEAR,NIGHT_CLEAR,NIGHT_CLEAR,NIGHT_CLEAR,NIGHT_CLEAR","Onshore,Onshore,Onshore,Onshore,Onshore",5
5842041f4e65fad6a7708a49,2024_02_27,34.05683595651973,-77.88128,Carolina Beach Pier,0,-0.015000000000000001,0.2958,13,12,"CLEAR,NIGHT_CLEAR,NIGHT_CLEAR,NIGHT_CLEAR,NIGHT_CLEAR","Cross-shore,Cross-shore,Cross-shore,Cross-shore,Cross-shore",5
5842041f4e65fad6a7708a4a,2024_02_27,33.96841191816696,-77.9180242565498,Fort Fisher,0,-0.01900000000000001,0.2898,13,12,"CLEAR,NIGHT_CLEAR,NIGHT_CLEAR,NIGHT_CLEAR,NIGHT_CLEAR","Cross-shore,Cross-shore,Cross-shore,Cross-shore,Cross-shore",5
5842041f4e65fad6a7708a4b,2024_02_27,34.46776662988774,-77.47083191635772,Topsail Beach,0.866,0.047999999999999994,0.35140000000000005,12,11,"CLEAR,NIGHT_CLEAR,NIGHT_CLEAR,NIGHT_CLEAR,NIGHT_CLEAR","Onshore,Onshore,Onshore,Onshore,Onshore",5
5842041f4e65fad6a7708a4c,2024_02_27,34.69270354752445,-76.82854854446575,Iron Steamer,0,-0.01833333333333332,0.29046666666666665,12,11,"NIGHT_CLEAR,NIGHT_CLEAR,NIGHT_CLEAR,NIGHT_CLEAR,NIGHT_CLEAR","Onshore,Onshore,Onshore,Onshore,Onshore",5
5842041f4e65fad6a7708a4f,2024_02_27,30.85132684893727,-81.42283496231143,Cumberland Island,1,0.088,0.394,14,14,"MIST,NIGHT_CLEAR,NIGHT_CLEAR,NIGHT_CLEAR,NIGHT_CLEAR","Onshore,Onshore,Onshore,Onshore,Onshore",5
5842041f4e65fad6a7708a50,2024_02_27,34.686741128540874,-76.47516712138378,Cape Lookout National Seashore,1,0.292,0.596,10,10,"NIGHT_CLEAR,NIGHT_CLEAR,NIGHT_CLEAR,NIGHT_CLEAR,NIGHT_CLEAR","Cross-shore,Cross-shore,Cross-shore,Cross-shore,Cross-shore",5
5842041f4e65fad6a7708a51,2024_02_27,31.10585419260024,-81.40422767604812,Jekyll Island,0.6,0,0.27,14,14,"CLEAR,NIGHT_CLEAR,NIGHT_CLEAR,NIGHT_CLEAR,NIGHT_CLEAR","Onshore,Onshore,Onshore,Cross-shore,Cross-shore",5
5842041f4e65fad6a7708a52,2024_02_27,31.16212806376699,-81.32512426500224,Harbor Marker Buoys,1,0.024,0.326,13,13,"CLEAR,NIGHT_CLEAR,NIGHT_CLEAR,NIGHT_CLEAR,NIGHT_CLEAR","Onshore,Onshore,Onshore,Onshore,Onshore",5
5842041f4e65fad6a7708a53,2024_02_27,31.20076299997009,-81.32629,Sea Island,1,0.046,0.35400000000000004,13,13,"MIST,NIGHT_MIST,NIGHT_MIST,NIGHT_MIST,NIGHT_MIST","Onshore,Onshore,Onshore,Onshore,Onshore",5
5842041f4e65fad6a7708a54,2024_02_27,31.13553222995767,-81.38457634790909,St. Simons Island,1,0.022,0.32,13,13,"MIST,NIGHT_MIST,NIGHT_MIST,NIGHT_MIST,NIGHT_MIST","Onshore,Onshore,Onshore,Onshore,Onshore",5
5842041f4e65fad6a7708a55,2024_02_27,31.33550077186516,-81.28383377408417,Wolf Island,1,0.012,0.28200000000000003,13,13,"MIST,NIGHT_MIST,NIGHT_MIST,NIGHT_MIST,NIGHT_MIST","Onshore,Onshore,Onshore,Onshore,Onshore",5
5842041f4e65fad6a7708a56,2024_02_27,31.2704493877174,-81.27324039152315,Little St. Simons Island,1.2,0.04,0.35000000000000003,13,13,"MIST,NIGHT_CLEAR,NIGHT_CLEAR,NIGHT_CLEAR,NIGHT_CLEAR","Onshore,Onshore,Cross-shore,Cross-shore,Cross-shore",5
5842041f4e65fad6a7708a57,2024_02_27,31.39261761368919,-81.26190520231917,Sapelo Island,1,0.018000000000000002,0.316,13,13,"CLEAR,NIGHT_CLEAR,NIGHT_CLEAR,NIGHT_CLEAR,NIGHT_CLEAR","Onshore,Onshore,Onshore,Onshore,Onshore",5
5842041f4e65fad6a7708a58,2024_02_27,34.42458783809001,-77.54492,Surf City Pier,0.866,0.047,0.35340000000000005,12,11,"CLEAR,NIGHT_CLEAR,NIGHT_CLEAR,NIGHT_CLEAR,NIGHT_CLEAR","Onshore,Onshore,Onshore,Onshore,Onshore",5
5842041f4e65fad6a7708a59,2024_02_27,31.4231993614213,-81.24725340591522,Cabretta Island,1,0.034,0.34,13,13,"CLEAR,NIGHT_CLEAR,NIGHT_CLEAR,NIGHT_CLEAR,NIGHT_CLEAR","Onshore,Onshore,Onshore,Onshore,Onshore",5
5842041f4e65fad6a7708a5a,2024_02_27,31.46684389030369,-81.2100056410468,Blackbeard Island,1,0.018000000000000002,0.316,13,13,"CLEAR,NIGHT_CLEAR,NIGHT_CLEAR,NIGHT_CLEAR,NIGHT_CLEAR","Onshore,Onshore,Onshore,Onshore,Onshore",5
5842041f4e65fad6a7708a5b,2024_02_27,31.85953587631629,-80.99031310336719,Wassaw Island/South End,0,0,0.152,13,13,"MIST,NIGHT_MIST,NIGHT_MIST,NIGHT_CLEAR,NIGHT_CLEAR","Onshore,Onshore,Onshore,Onshore,Onshore",5
5842041f4e65fad6a7708a5c,2024_02_27,31.62535662342983,-81.13328352167974,St. Catherines Island,1,0.02,0.322,13,13,"CLEAR,NIGHT_CLEAR,NIGHT_CLEAR,NIGHT_CLEAR,NIGHT_CLEAR","Onshore,Onshore,Onshore,Onshore,Cross-shore",5
5842041f4e65fad6a7708a5d,2024_02_27,31.76502169596568,-81.07655443806622,Ossabaw Island,1,0,0.266,13,13,"MIST,NIGHT_MIST,NIGHT_MIST,NIGHT_MIST,NIGHT_MIST","Onshore,Onshore,Onshore,Onshore,Onshore",5
5842041f4e65fad6a7708a5e,2024_02_27,31.90593619092352,-80.93589231700857,Wassaw Island/North End,1,0.042,0.34600000000000003,13,13,"MIST,NIGHT_MIST,NIGHT_MIST,NIGHT_MIST,NIGHT_MIST","Onshore,Onshore,Onshore,Onshore,Onshore",5
5842041f4e65fad6a7708a5f,2024_02_27,31.96738675414547,-80.86977980706155,Little Tybee Island,1,0.004,0.29200000000000004,13,13,"MIST,NIGHT_MIST,NIGHT_MIST,NIGHT_CLEAR,NIGHT_CLEAR","Onshore,Onshore,Onshore,Onshore,Onshore",5
5842041f4e65fad6a7708a60,2024_02_27,31.9812255780179,-80.84773973467009,South Tybee Sandbars,1,0,0.254,13,13,"MIST,NIGHT_MIST,NIGHT_MIST,NIGHT_CLEAR,NIGHT_CLEAR","Onshore,Cross-shore,Cross-shore,Cross-shore,Cross-shore",5
5842041f4e65fad6a7708a61,2024_02_27,32.01226,-80.83983,Sugar Shack,0.6,0,0.20600000000000002,13,13,"CLEAR,NIGHT_MIST,NIGHT_BRIEF_SHOWERS_POSSIBLE,NIGHT_MIST,NIGHT_MIST","Cross-shore,Cross-shore,Cross-shore,Cross-shore,Cross-shore",5
5842041f4e65fad6a7708a62,2024_02_27,31.98722842396969,-80.84773,18th St. Jetty,1,0.218616,0.341586,13,13,"MIST,NIGHT_MIST,NIGHT_MIST,NIGHT_MIST,NIGHT_MIST","Onshore,Cross-shore,Cross-shore,Cross-shore,Cross-shore",5
5842041f4e65fad6a7708a64,2024_02_27,34.013473721006676,-77.8991,"Alabama Ave., Kure Beach",1,0.048,0.35,12,12,"CLEAR,NIGHT_CLEAR,NIGHT_CLEAR,NIGHT_CLEAR,NIGHT_CLEAR","Offshore,Offshore,Offshore,Offshore,Offshore",5
5842041f4e65fad6a7708a65,2024_02_27,34.20859853336924,-77.79293,"C Street, Wrightsville Beach",0,-0.0036666666666666666,0.29713333333333336,13,12,"CLEAR,NIGHT_CLEAR,NIGHT_CLEAR,NIGHT_CLEAR,NIGHT_CLEAR","Cross-shore,Cross-shore,Cross-shore,Onshore,Cross-shore",5
5842041f4e65fad6a7708a66,2024_02_27,32.831,-79.71,Dewees Island,0,0,0.252,12,12,"CLEAR,NIGHT_CLEAR,NIGHT_CLEAR,NIGHT_MOSTLY_CLOUDY,NIGHT_CLEAR","Cross-shore,Cross-shore,Cross-shore,Cross-shore,Cross-shore",5
5842041f4e65fad6a7708a67,2024_02_27,33.82924423172106,-78.62813,Cherry Grove Pier,0,-0.027666666666666666,0.2728,11,11,"CLEAR,NIGHT_CLEAR,NIGHT_CLEAR,NIGHT_CLEAR,NIGHT_CLEAR","Onshore,Onshore,Onshore,Onshore,Onshore",5
5842041f4e65fad6a7708a69,2024_02_27,34.27197439666496,-77.74050223196774,Figure Eight and Shell Islands,0,-0.01366666666666667,0.2951333333333333,13,12,"CLEAR,NIGHT_CLEAR,NIGHT_CLEAR,NIGHT_CLEAR,NIGHT_CLEAR","Onshore,Onshore,Onshore,Onshore,Onshore",5
5842041f4e65fad6a7708a6b,2024_02_27,33.49041958261793,-79.07666070599386,North End,1,0.094,0.396,11,11,"CLEAR,NIGHT_CLEAR,NIGHT_CLEAR,NIGHT_CLEAR,NIGHT_CLEAR","Onshore,Onshore,Onshore,Onshore,Onshore",5
5842041f4e65fad6a7708a6c,2024_02_27,33.39537062495087,-79.13835037835189,The South End,0.6,0.012,0.312,12,12,"CLEAR,NIGHT_CLEAR,NIGHT_CLEAR,NIGHT_CLEAR,NIGHT_CLEAR","Cross-shore,Cross-shore,Cross-shore,Cross-shore,Cross-shore",5
5842041f4e65fad6a7708a6d,2024_02_27,33.29001727666697,-79.17190003352977,North Island,0,0,0.29,12,12,"CLEAR,NIGHT_CLEAR,NIGHT_CLEAR,NIGHT_CLEAR,NIGHT_MOSTLY_CLEAR","Cross-shore,Cross-shore,Cross-shore,Cross-shore,Cross-shore",5
5842041f4e65fad6a7708a6e,2024_02_27,32.90929771158952,-79.57810400297359,Bull Island,0,0,0.294,12,12,"CLEAR,NIGHT_CLEAR,NIGHT_CLEAR,NIGHT_MOSTLY_CLOUDY,NIGHT_MOSTLY_CLEAR","Cross-shore,Onshore,Onshore,Onshore,Cross-shore",5
5842041f4e65fad6a7708a6f,2024_02_27,31.99153112815895,-80.84543050470074,Tybee Island Pier,0,0,0.14400000000000002,13,13,"CLEAR,NIGHT_MIST,NIGHT_MIST,NIGHT_CLEAR,NIGHT_CLEAR","Onshore,Onshore,Cross-shore,Cross-shore,Onshore",5
5842041f4e65fad6a7708a70,2024_02_27,33.03478144356316,-79.35021028265125,Cape Romain,1,0.058,0.36,12,12,"CLEAR,NIGHT_CLEAR,NIGHT_CLEAR,NIGHT_CLEAR,NIGHT_CLEAR","Cross-shore,Cross-shore,Cross-shore,Cross-shore,Cross-shore",5
5842041f4e65fad6a7708a71,2024_02_27,33.43231073271028,-79.11789,The Pier,0,0.166526,0.260198,11,11,"CLEAR,NIGHT_CLEAR,NIGHT_CLEAR,NIGHT_CLEAR,NIGHT_CLEAR","Cross-shore,Cross-shore,Cross-shore,Cross-shore,Cross-shore",5
5842041f4e65fad6a7708a72,2024_02_27,33.45423621397969,-79.10497798178424,South Litchfield,1,0.024,0.33,11,11,"CLEAR,NIGHT_CLEAR,NIGHT_CLEAR,NIGHT_CLEAR,NIGHT_CLEAR","Cross-shore,Cross-shore,Onshore,Cross-shore,Cross-shore",5
5842041f4e65fad6a7708a73,2024_02_27,34.19316590251396,-77.8045,Crystal Pier,0,-0.0033333333333333335,0.29946666666666666,13,12,"CLEAR,NIGHT_CLEAR,NIGHT_CLEAR,NIGHT_CLEAR,NIGHT_CLEAR","Cross-shore,Cross-shore,Cross-shore,Cross-shore,Cross-shore",5
5842041f4e65fad6a7708a74,2024_02_27,33.68628680045124,-78.883460274301,Myrtle Beach,0,-0.039999999999999994,0.26713333333333333,11,11,"CLEAR,NIGHT_CLEAR,NIGHT_CLEAR,NIGHT_CLEAR,NIGHT_MOSTLY_CLOUDY","Onshore,Onshore,Onshore,Onshore,Onshore",5
5842041f4e65fad6a7708a75,2024_02_27,32.66166297145973,-79.91951806398808,10th Street,1,0.032,0.336,12,12,"CLEAR,NIGHT_CLEAR,NIGHT_CLEAR,NIGHT_CLEAR,NIGHT_CLEAR","Onshore,Onshore,Onshore,Onshore,Onshore",5
5842041f4e65fad6a7708a76,2024_02_27,33.16729555197199,-79.19829236867845,South Island,1,0.138,0.444,12,12,"CLEAR,NIGHT_CLEAR,NIGHT_CLEAR,NIGHT_CLEAR,NIGHT_CLEAR","Cross-shore,Cross-shore,Cross-shore,Cross-shore,Cross-shore",5
5842041f4e65fad6a7708a77,2024_02_27,32.595,-80.088,Kiawah Island/Seabrook Island,0.4,0.004,0.292,12,12,"CLEAR,NIGHT_CLEAR,NIGHT_CLEAR,NIGHT_CLEAR,NIGHT_CLEAR","Onshore,Onshore,Onshore,Onshore,Onshore",5
5842041f4e65fad6a7708a78,2024_02_27,32.51356930575787,-80.28223,Edisto Beach,0.8,0.17794000000000001,0.278032,13,13,"MIST,NIGHT_MIST,NIGHT_CLEAR,NIGHT_CLEAR,NIGHT_CLEAR","Onshore,Onshore,Onshore,Onshore,Onshore",5
5842041f4e65fad6a7708a79,2024_02_27,32.366270751262,-80.43911,Hunting Island,1,0.204228,0.319104,13,13,"CLEAR,NIGHT_CLEAR,NIGHT_CLEAR,NIGHT_CLEAR,NIGHT_CLEAR","Cross-shore,Cross-shore,Cross-shore,Cross-shore,Cross-shore",5
5842041f4e65fad6a7708a7a,2024_02_27,32.65337734408365,-79.93983,Folly Beach Pier,0,-0.013333333333333334,0.2908,13,11,"CLEAR,NIGHT_CLEAR,NIGHT_CLEAR,NIGHT_CLEAR,NIGHT_CLEAR","Onshore,Onshore,Onshore,Onshore,Onshore",5
5842041f4e65fad6a7708a7b,2024_02_27,33.41209545530049,-79.13026341393126,South Jetty,0.6,0.012,0.312,11,11,"CLEAR,NIGHT_CLEAR,NIGHT_CLEAR,NIGHT_CLEAR,NIGHT_CLEAR","Cross-shore,Cross-shore,Cross-shore,Cross-shore,Cross-shore",5
5842041f4e65fad6a7708a7c,2024_02_27,32.31115640606869,-80.48564,Fripp Island,0.6,0.19753,0.308642,13,13,"CLEAR,NIGHT_CLEAR,NIGHT_CLEAR,NIGHT_CLEAR,NIGHT_CLEAR","Onshore,Onshore,Onshore,Onshore,Onshore",5
5842041f4e65fad6a7708a7d,2024_02_27,32.14365226036034,-80.74402,Hilton Head Island,0,0,0.052000000000000005,13,13,"CLEAR,NIGHT_CLEAR,NIGHT_CLEAR,NIGHT_CLEAR,NIGHT_CLEAR","Onshore,Onshore,Onshore,Onshore,Onshore",5
5842041f4e65fad6a7708a7e,2024_02_27,29.70405364733744,-81.22426004725459,Matanzas Inlet,1,0.018,0.32,15,15,"CLEAR,NIGHT_CLEAR,NIGHT_CLEAR,NIGHT_CLEAR,NIGHT_CLEAR","Onshore,Onshore,Cross-shore,Cross-shore,Cross-shore",5
5842041f4e65fad6a7708a81,2024_02_27,29.76878537149042,-81.25109,Crescent Beach,1,0.034,0.336,15,15,"CLEAR,NIGHT_CLEAR,NIGHT_CLEAR,NIGHT_CLEAR,NIGHT_CLEAR","Onshore,Onshore,Onshore,Onshore,Cross-shore",5
5842041f4e65fad6a7708a82,2024_02_27,32.80251718689188,-79.73221919500764,Wild Dunes,1,0.026,0.334,12,12,"CLEAR,NIGHT_CLEAR,NIGHT_CLEAR,NIGHT_MOSTLY_CLOUDY,NIGHT_CLEAR","Onshore,Onshore,Onshore,Onshore,Onshore",5
5842041f4e65fad6a7708a84,2024_02_27,32.75733539419244,-79.83258856064796,Bert's Bar,0,0,0.206,12,12,"CLEAR,NIGHT_CLEAR,NIGHT_CLEAR,NIGHT_CLEAR,NIGHT_CLEAR","Onshore,Onshore,Onshore,Onshore,Onshore",5
5842041f4e65fad6a7708a85,2024_02_27,32.66829212943039,-79.90735,Washout,0,-0.018333333333333333,0.2971333333333333,13,11,"CLEAR,NIGHT_CLEAR,NIGHT_CLEAR,NIGHT_CLEAR,NIGHT_CLEAR","Onshore,Onshore,Onshore,Onshore,Onshore",5
5842041f4e65fad6a7708a86,2024_02_27,32.78452968219067,-79.78540233488354,The Pier/Windjammer,1,0.016,0.32,12,12,"CLEAR,NIGHT_CLEAR,NIGHT_CLEAR,NIGHT_MOSTLY_CLEAR,NIGHT_CLEAR","Onshore,Onshore,Onshore,Onshore,Onshore",5
5842041f4e65fad6a7708a87,2024_02_27,29.86618162637438,-81.2662150259608,Anastasia Park (The Entrance),1,0.018,0.32,15,15,"CLEAR,NIGHT_CLEAR,NIGHT_CLEAR,NIGHT_CLEAR,NIGHT_CLEAR","Onshore,Onshore,Onshore,Cross-shore,Cross-shore",5
5842041f4e65fad6a7708a89,2024_02_27,29.89149785916623,-81.2723223244215,Blowholes,0.866,0.026,0.3304,22,21,"CLEAR,NIGHT_CLEAR,NIGHT_CLEAR,NIGHT_CLEAR,NIGHT_CLEAR","Onshore,Onshore,Cross-shore,Cross-shore,Cross-shore",5
5842041f4e65fad6a7708a8a,2024_02_27,30.16227112983666,-81.35502907491218,Crossroads,0.866,0.097,0.40540000000000004,22,21,"CLEAR,NIGHT_CLEAR,NIGHT_CLEAR,NIGHT_CLEAR,NIGHT_CLEAR","Onshore,Onshore,Cross-shore,Cross-shore,Cross-shore",5
5842041f4e65fad6a7708a8b,2024_02_27,30.19308537587637,-81.36314247820911,Sawgrass,0.866,0.09899999999999999,0.40740000000000004,22,21,"CLEAR,NIGHT_CLEAR,NIGHT_CLEAR,NIGHT_CLEAR,NIGHT_CLEAR","Onshore,Onshore,Cross-shore,Cross-shore,Cross-shore",5
5842041f4e65fad6a7708a8c,2024_02_27,30.34696027700899,-81.39451,18th Street,1,0.255402,0.39907,14,14,"CLEAR,NIGHT_CLEAR,NIGHT_CLEAR,NIGHT_CLEAR,NIGHT_CLEAR","Onshore,Cross-shore,Offshore,Cross-shore,Offshore",5
5842041f4e65fad6a7708a8d,2024_02_27,30.381793,-81.39686,Mayport Poles,1,0.168,0.47,14,14,"MIST,NIGHT_MIST,NIGHT_CLEAR,NIGHT_CLEAR,NIGHT_CLEAR","Onshore,Onshore,Onshore,Onshore,Onshore",5
5842041f4e65fad6a7708a8e,2024_02_27,30.390516,-81.395591,Blue Roofs,1,0.114,0.418,14,14,"MIST,NIGHT_MIST,NIGHT_CLEAR,NIGHT_CLEAR,NIGHT_CLEAR","Onshore,Onshore,Onshore,Onshore,Onshore",5
5842041f4e65fad6a7708a8f,2024_02_27,30.40517712722211,-81.40074116169004,Huguenot Park (North Jetty),1,0.102,0.408,14,14,"MIST,NIGHT_MIST,NIGHT_CLEAR,NIGHT_CLEAR,NIGHT_CLEAR","Onshore,Onshore,Cross-shore,Cross-shore,Cross-shore",5
5842041f4e65fad6a7708a90,2024_02_27,30.47788918872762,-81.41055821335078,Talbot Island,1,0.007619333333333334,0.3136603333333334,16,14,"CLEAR,NIGHT_CLEAR,NIGHT_CLEAR,NIGHT_CLEAR,NIGHT_CLEAR","Onshore,Onshore,Onshore,Cross-shore,Cross-shore",5
5842041f4e65fad6a7708a91,2024_02_27,30.66753984549761,-81.42983,Main Beach,1,0.076,0.378,14,14,"MIST,NIGHT_CLEAR,NIGHT_CLEAR,NIGHT_CLEAR,NIGHT_CLEAR","Onshore,Onshore,Onshore,Onshore,Onshore",5
5842041f4e65fad6a7708a92,2024_02_27,30.69983581209126,-81.42483,Ft. Clinch State Park,1,0.14200000000000002,0.446,14,14,"CLEAR,NIGHT_CLEAR,NIGHT_CLEAR,NIGHT_CLEAR,NIGHT_CLEAR","Onshore,Onshore,Onshore,Onshore,Cross-shore",5
5842041f4e65fad6a7708a93,2024_02_27,30.62059700777582,-81.437252942757425,Amelia Pier,1,0.058,0.362,14,14,"CLEAR,NIGHT_CLEAR,NIGHT_CLEAR,NIGHT_CLEAR,NIGHT_CLEAR","Onshore,Onshore,Onshore,Onshore,Cross-shore",5
5842041f4e65fad6a7708a95,2024_02_27,28.95125170929067,-80.83837,Bethune Beach,1,0.078,0.382,16,16,"CLEAR,NIGHT_CLEAR,NIGHT_CLEAR,NIGHT_CLEAR,NIGHT_CLEAR","Onshore,Onshore,Onshore,Onshore,Cross-shore",5
5842041f4e65fad6a7708a96,2024_02_27,29.03874288905362,-80.8933424949646,Flagler Ave.,1.5,0.3288,0.6352,22,21,"CLEAR,NIGHT_CLEAR,NIGHT_CLEAR,NIGHT_CLEAR,NIGHT_CLEAR","Onshore,Onshore,Cross-shore,Cross-shore,Cross-shore",5
5842041f4e65fad6a7708a98,2024_02_27,30.332297686992757,-81.39319,Atlantic Beach,1,0.243166,0.379948,14,14,"CLEAR,NIGHT_CLEAR,NIGHT_CLEAR,NIGHT_CLEAR,NIGHT_CLEAR","Cross-shore,Cross-shore,Offshore,Offshore,Offshore",5
5842041f4e65fad6a7708a99,2024_02_27,29.87530059952514,-81.26757958498874,Middles,0.866,0.018,0.33440000000000003,22,21,"CLEAR,NIGHT_CLEAR,NIGHT_CLEAR,NIGHT_CLEAR,NIGHT_CLEAR","Onshore,Onshore,Cross-shore,Cross-shore,Cross-shore",5
5842041f4e65fad6a7708a9a,2024_02_27,29.146475528378218,-80.96347,Sunglow Pier,1,0.048,0.354,15,15,"CLEAR,NIGHT_CLEAR,NIGHT_CLEAR,NIGHT_CLEAR,NIGHT_CLEAR","Onshore,Onshore,Onshore,Cross-shore,Cross-shore",5
5842041f4e65fad6a7708a9b,2024_02_27,30.02251238001095,-81.32183077344881,Gate Station,0.866,0.036000000000000004,0.34040000000000004,22,21,"CLEAR,NIGHT_CLEAR,NIGHT_CLEAR,NIGHT_CLEAR,NIGHT_CLEAR","Onshore,Onshore,Onshore,Cross-shore,Cross-shore",5
5842041f4e65fad6a7708a9c,2024_02_27,29.33976495417899,-81.0606,Bicentennial Park,1,0.038,0.34199999999999997,15,15,"CLEAR,NIGHT_CLEAR,NIGHT_CLEAR,NIGHT_CLEAR,NIGHT_CLEAR","Onshore,Onshore,Onshore,Cross-shore,Cross-shore",5
5842041f4e65fad6a7708a9d,2024_02_27,29.08257353385602,-80.92136998257725,Ponce Inlet,2,0.3234666666666667,0.6239333333333333,17,16,"CLEAR,NIGHT_CLEAR,NIGHT_CLEAR,NIGHT_CLEAR,NIGHT_CLEAR","Onshore,Onshore,Cross-shore,Cross-shore,Cross-shore",5
5842041f4e65fad6a7708a9f,2024_02_27,27.862962005874696,-80.44668,Sebastian Inlet,0.7,-0.0017320000000000002,0.3042833333333333,21,19,"CLEAR,NIGHT_CLEAR,NIGHT_CLEAR,NIGHT_CLEAR,NIGHT_CLEAR","Onshore,Onshore,Onshore,Onshore,Onshore",5
5842041f4e65fad6a7708aa0,2024_02_27,30.292626880836885,-81.38579,Jacksonville Beach Pier,1,0.021,0.33013333333333333,16,14,"CLEAR,NIGHT_CLEAR,NIGHT_CLEAR,NIGHT_CLEAR,NIGHT_CLEAR","Cross-shore,Cross-shore,Cross-shore,Cross-shore,Cross-shore",5
5842041f4e65fad6a7708aa1,2024_02_27,29.22878213864532,-81.00551,Main Street North,1,0.35325,0.522242,15,15,"CLEAR,NIGHT_CLEAR,NIGHT_CLEAR,NIGHT_CLEAR,NIGHT_CLEAR","Onshore,Onshore,Onshore,Onshore,Cross-shore",5
5842041f4e65fad6a7708aa2,2024_02_27,29.21860397328164,-81.0019,Daytona Beach,1,0.048,0.354,15,15,"CLEAR,NIGHT_CLEAR,NIGHT_CLEAR,NIGHT_CLEAR,NIGHT_CLEAR","Onshore,Onshore,Onshore,Onshore,Cross-shore",5
5842041f4e65fad6a7708aa3,2024_02_27,27.47531255634912,-80.28914,Ft. Pierce Inlet,1.3,0.04746666666666667,0.3499333333333334,21,19,"CLEAR,NIGHT_CLEAR,NIGHT_CLEAR,NIGHT_CLEAR,NIGHT_CLEAR","Cross-shore,Onshore,Cross-shore,Cross-shore,Cross-shore",5
5842041f4e65fad6a7708aa4,2024_02_27,29.29239875585548,-81.0386,Ormond Beach,1,0.15,0.46,15,15,"CLEAR,NIGHT_CLEAR,NIGHT_CLEAR,NIGHT_CLEAR,NIGHT_CLEAR","Onshore,Onshore,Onshore,Onshore,Cross-shore",5
5842041f4e65fad6a7708aa5,2024_02_27,29.91629441498523,-81.28801,Vilano,1,0.022,0.328,15,15,"CLEAR,NIGHT_CLEAR,NIGHT_CLEAR,NIGHT_CLEAR,NIGHT_CLEAR","Onshore,Onshore,Cross-shore,Cross-shore,Cross-shore",5
5842041f4e65fad6a7708aa6,2024_02_27,27.876230736320828,-80.4551,Spanish House,0.866,0.08800000000000001,0.39840000000000003,20,19,"MOSTLY_CLEAR,NIGHT_CLEAR,NIGHT_CLEAR,NIGHT_CLEAR,NIGHT_CLEAR","Onshore,Onshore,Onshore,Onshore,Onshore",5
5842041f4e65fad6a7708aa7,2024_02_27,28.64397251741012,-80.62328519781694,Playalinda,1.6,0.118,0.424,16,16,"CLEAR,NIGHT_CLEAR,NIGHT_CLEAR,NIGHT_CLEAR,NIGHT_CLEAR","Onshore,Onshore,Onshore,Onshore,Onshore",5
5842041f4e65fad6a7708aa8,2024_02_27,28.406142,-80.588858,Jetty Park,1,0,0.262,17,17,"CLEAR,NIGHT_CLEAR,NIGHT_CLEAR,NIGHT_CLEAR,NIGHT_CLEAR","Onshore,Onshore,Onshore,Onshore,Onshore",5
5842041f4e65fad6a7708aa9,2024_02_27,28.49083243010974,-80.58001715986319,Kennedy Space Center,1,0.08,0.384,16,16,"CLEAR,NIGHT_CLEAR,NIGHT_CLEAR,NIGHT_CLEAR,NIGHT_CLEAR","Onshore,Onshore,Onshore,Onshore,Cross-shore",5
5842041f4e65fad6a7708aab,2024_02_27,28.336757013024314,-80.60568,Lori Wilson Park,0.866,0.06799999999999999,0.2952,18,17,"CLEAR,NIGHT_CLEAR,NIGHT_CLEAR,NIGHT_CLEAR,NIGHT_CLEAR","Onshore,Onshore,Onshore,Onshore,Onshore",5
5842041f4e65fad6a7708aad,2024_02_27,27.76388821683801,-80.3962958234027,Wabasso,1,0.15,0.454,18,18,"MOSTLY_CLEAR,NIGHT_CLEAR,NIGHT_CLEAR,NIGHT_CLEAR,NIGHT_CLEAR","Onshore,Onshore,Onshore,Onshore,Onshore",5
5842041f4e65fad6a7708aae,2024_02_27,27.521583322459,-80.30987620353699,P.V. Martin's,0.866,0.055999999999999994,0.3574,21,19,"CLEAR,NIGHT_CLEAR,NIGHT_CLEAR,NIGHT_CLEAR,NIGHT_CLEAR","Onshore,Onshore,Onshore,Onshore,Onshore",5
5842041f4e65fad6a7708aaf,2024_02_27,27.644996047720046,-80.35242676734924,Riomar,0,0.069,0.3794,21,19,"CLEAR,NIGHT_MOSTLY_CLEAR,NIGHT_CLEAR,NIGHT_CLEAR,NIGHT_CLEAR","Onshore,Onshore,Onshore,Onshore,Onshore",5
5842041f4e65fad6a7708ab1,2024_02_27,27.670121806659253,-80.36026954650879,Vero Pier,0.866,0.09799999999999999,0.40640000000000004,21,19,"MOSTLY_CLEAR,NIGHT_CLEAR,NIGHT_CLEAR,NIGHT_CLEAR,NIGHT_CLEAR","Onshore,Onshore,Onshore,Onshore,Onshore",5
5842041f4e65fad6a7708ab2,2024_02_27,28.047705032021486,-80.54680109024048,Spessard Holland,0,-0.0027446666666666618,0.301781,20,19,"CLEAR,NIGHT_CLEAR,NIGHT_CLEAR,NIGHT_CLEAR,NIGHT_CLEAR","Cross-shore,Onshore,Onshore,Cross-shore,Cross-shore",5
5842041f4e65fad6a7708ab7,2024_02_27,28.135426226217064,-80.57895541191101,The Radisson,0.866,0.09399999999999999,0.4004,19,18,"CLEAR,NIGHT_CLEAR,NIGHT_CLEAR,NIGHT_CLEAR,NIGHT_CLEAR","Onshore,Onshore,Onshore,Onshore,Onshore",5
5842041f4e65fad6a7708ab8,2024_02_27,28.26664623907351,-80.60448467731476,Picnic Tables,1,0.178,0.482,17,17,"CLEAR,NIGHT_CLEAR,NIGHT_CLEAR,NIGHT_CLEAR,NIGHT_CLEAR","Onshore,Onshore,Onshore,Onshore,Onshore",5
5842041f4e65fad6a7708ab9,2024_02_27,28.200840983180232,-80.59493,Perkins,0.866,0.11499999999999998,0.41840000000000005,19,18,"CLEAR,NIGHT_CLEAR,NIGHT_CLEAR,NIGHT_CLEAR,NIGHT_CLEAR","Onshore,Onshore,Onshore,Onshore,Onshore",5
5842041f4e65fad6a7708aba,2024_02_27,28.185652556759443,-80.59154,RC's,0.7,-0.0019999999999999905,0.3068,19,18,"CLEAR,NIGHT_CLEAR,NIGHT_CLEAR,NIGHT_CLEAR,NIGHT_CLEAR","Onshore,Onshore,Cross-shore,Onshore,Cross-shore",5
5842041f4e65fad6a7708abc,2024_02_27,28.252541991968208,-80.60269,2nd Light,1,0.16,0.464,17,17,"CLEAR,NIGHT_CLEAR,NIGHT_CLEAR,NIGHT_CLEAR,NIGHT_CLEAR","Onshore,Onshore,Onshore,Onshore,Onshore",5
5842041f4e65fad6a7708abd,2024_02_27,27.901611308716447,-80.4697,Bonsteel Park,0.866,0.08499999999999999,0.39339999999999997,20,19,"MOSTLY_CLEAR,NIGHT_CLEAR,NIGHT_CLEAR,NIGHT_CLEAR,NIGHT_CLEAR","Onshore,Onshore,Onshore,Onshore,Onshore",5
5842041f4e65fad6a7708abe,2024_02_27,28.2423394657007,-80.60104,Hangar's Beach,0.866,0.086,0.3874,19,18,"CLEAR,NIGHT_CLEAR,NIGHT_CLEAR,NIGHT_CLEAR,NIGHT_CLEAR","Onshore,Onshore,Onshore,Onshore,Onshore",5
5842041f4e65fad6a7708abf,2024_02_27,27.34018197146798,-80.23278,Walton Rocks,0,-0.007333333333333331,0.29713333333333336,22,20,"CLEAR,NIGHT_CLEAR,NIGHT_CLEAR,NIGHT_CLEAR,NIGHT_CLEAR","Onshore,Onshore,Onshore,Onshore,Onshore",5
5842041f4e65fad6a7708ac0,2024_02_27,25.80407401902198,-80.1222227290161,30th Street,0,0,0.15,23,23,"CLEAR,NIGHT_CLEAR,NIGHT_CLEAR,NIGHT_MOSTLY_CLEAR,NIGHT_CLEAR","Onshore,Onshore,Onshore,Onshore,Onshore",5
5842041f4e65fad6a7708ac1,2024_02_27,25.76570280215999,-80.12983304957051,South Beach,0,-0.0016666666666666668,0.1298,24,23,"CLEAR,NIGHT_CLEAR,NIGHT_CLEAR,NIGHT_MOSTLY_CLEAR,NIGHT_MOSTLY_CLEAR","Onshore,Onshore,Onshore,Onshore,Onshore",5
5842041f4e65fad6a7708ac2,2024_02_27,26.058022412197,-80.10873562327671,Dania Pier,1,0,0.17,23,23,"CLEAR,NIGHT_CLEAR,NIGHT_CLEAR,NIGHT_CLEAR,NIGHT_MOSTLY_CLEAR","Onshore,Onshore,Onshore,Onshore,Onshore",5
5842041f4e65fad6a7708ac3,2024_02_27,26.04825428257198,-80.11153150137932,Franklin Street,1,0,0.26,23,23,"CLEAR,NIGHT_CLEAR,NIGHT_CLEAR,NIGHT_CLEAR,NIGHT_MOSTLY_CLEAR","Onshore,Onshore,Onshore,Onshore,Onshore",5
5842041f4e65fad6a7708ac4,2024_02_27,26.09086461141498,-80.10728410144065,John Lloyd State Park,0.8,0,0.26,23,23,"CLEAR,NIGHT_CLEAR,NIGHT_CLEAR,NIGHT_MOSTLY_CLEAR,NIGHT_MOSTLY_CLEAR","Onshore,Onshore,Onshore,Onshore,Onshore",5
5842041f4e65fad6a7708ac5,2024_02_27,26.0971397396683,-80.10298876028907,Spoils,0,0,0.18,23,23,"CLEAR,NIGHT_CLEAR,NIGHT_MOSTLY_CLEAR,NIGHT_CLEAR,NIGHT_CLEAR","Onshore,Onshore,Onshore,Onshore,Onshore",5
5842041f4e65fad6a7708ac6,2024_02_27,26.18920557475824,-80.09224470008016,Commercial Pier,1,0,0.212,23,23,"CLEAR,NIGHT_CLEAR,NIGHT_MOSTLY_CLEAR,NIGHT_CLEAR,NIGHT_CLEAR","Onshore,Onshore,Onshore,Onshore,Onshore",5
5842041f4e65fad6a7708ac7,2024_02_27,28.289851576629342,-80.6063,16th St. South,0.866,0.054,0.35740000000000005,18,17,"CLEAR,NIGHT_CLEAR,NIGHT_CLEAR,NIGHT_CLEAR,NIGHT_CLEAR","Onshore,Onshore,Onshore,Onshore,Onshore",5
5842041f4e65fad6a7708ac8,2024_02_27,26.23467460139735,-80.08739675534814,Pompano Pier,0,0,0.1262,24,23,"CLEAR,NIGHT_MOSTLY_CLEAR,NIGHT_MOSTLY_CLOUDY,NIGHT_MOSTLY_CLOUDY,NIGHT_CLEAR","Onshore,Onshore,Onshore,Onshore,Onshore",5
5842041f4e65fad6a7708acb,2024_02_27,26.44179551370651,-80.05928855229453,Atlantic Dunes Park,0,-0.0028566666666666658,0.14802133333333334,23,22,"CLEAR,NIGHT_CLEAR,NIGHT_CLEAR,NIGHT_MOSTLY_CLOUDY,NIGHT_MOSTLY_CLOUDY","Onshore,Onshore,Onshore,Onshore,Onshore",5
5842041f4e65fad6a7708acd,2024_02_27,26.62215707439298,-80.03599398392342,Hilton Hotel Backyard,0.866,0.022,0.33240000000000003,23,22,"CLEAR,NIGHT_CLEAR,NIGHT_CLEAR,NIGHT_CLEAR,NIGHT_CLEAR","Onshore,Onshore,Onshore,Onshore,Onshore",5
5842041f4e65fad6a7708ace,2024_02_27,26.96418190555367,-80.07769168113562,Coral Cove Park,1.4,0.062,0.3684,22,21,"CLEAR,NIGHT_CLEAR,NIGHT_CLEAR,NIGHT_CLEAR,NIGHT_CLEAR","Onshore,Onshore,Onshore,Onshore,Onshore",5
5842041f4e65fad6a7708acf,2024_02_27,26.7029496416037,-80.0318372872607,Palm Beach,0.866,0.03499999999999999,0.34340000000000004,23,22,"CLEAR,NIGHT_CLEAR,NIGHT_CLEAR,NIGHT_CLEAR,NIGHT_CLEAR","Onshore,Onshore,Onshore,Onshore,Onshore",5
5842041f4e65fad6a7708ad0,2024_02_27,26.97679878167375,-80.08141631388132,Blowing Rocks,0.866,0.045,0.3494,22,21,"CLEAR,NIGHT_CLEAR,NIGHT_CLEAR,NIGHT_CLEAR,NIGHT_CLEAR","Onshore,Onshore,Onshore,Onshore,Onshore",5
5842041f4e65fad6a7708ad2,2024_02_27,26.45661880078336,-80.05699952321751,Delray Beach,0,0,0.14106666666666667,23,22,"CLEAR,NIGHT_CLEAR,NIGHT_CLEAR,NIGHT_MOSTLY_CLOUDY,NIGHT_MOSTLY_CLOUDY","Onshore,Onshore,Onshore,Onshore,Onshore",5
5842041f4e65fad6a7708ad3,2024_02_27,27.205685534312778,-80.16826629638672,Fletcher's,0.866,0.047,0.3534,22,21,"CLEAR,NIGHT_CLEAR,NIGHT_CLEAR,NIGHT_CLEAR,NIGHT_CLEAR","Onshore,Onshore,Onshore,Cross-shore,Cross-shore",5
5842041f4e65fad6a7708ad5,2024_02_27,26.5848450388814,-80.03649735753257,Lantana Public Beach,0.866,0.036000000000000004,0.33540000000000003,23,22,"CLEAR,NIGHT_CLEAR,NIGHT_CLEAR,NIGHT_CLEAR,NIGHT_MOSTLY_CLEAR","Onshore,Onshore,Onshore,Onshore,Onshore",5
5842041f4e65fad6a7708ad6,2024_02_27,25.77468432731322,-80.12884045797499,5th Street,1,0,0.194,23,23,"CLEAR,NIGHT_CLEAR,NIGHT_CLEAR,NIGHT_CLEAR,NIGHT_CLEAR","Onshore,Onshore,Onshore,Onshore,Onshore",5
5842041f4e65fad6a7708ad7,2024_02_27,25.795157990715975,-80.12527585029602,21st Street,0,0,0.132,23,23,"CLEAR,NIGHT_CLEAR,NIGHT_CLEAR,NIGHT_CLEAR,NIGHT_CLEAR","Onshore,Onshore,Onshore,Onshore,Onshore",5
5842041f4e65fad6a7708ad8,2024_02_27,25.897806453088073,-80.1211827993393,Haulover Inlet (South Jetty),0,0,0.19,23,23,"CLEAR,NIGHT_CLEAR,NIGHT_CLEAR,NIGHT_MOSTLY_CLEAR,NIGHT_MOSTLY_CLEAR","Onshore,Onshore,Onshore,Onshore,Onshore",5
5842041f4e65fad6a7708ad9,2024_02_27,25.90147392328634,-80.12110769748688,Haulover Inlet (North Jetty),0,0,0.25,23,23,"CLEAR,NIGHT_CLEAR,NIGHT_CLEAR,NIGHT_MOSTLY_CLEAR,NIGHT_MOSTLY_CLEAR","Onshore,Onshore,Onshore,Onshore,Onshore",5
5842041f4e65fad6a7708ada,2024_02_27,25.87049374242476,-80.11828560342356,85th Street,1,0,0.192,23,23,"CLEAR,NIGHT_CLEAR,NIGHT_MOSTLY_CLEAR,NIGHT_MOSTLY_CLEAR,NIGHT_MOSTLY_CLEAR","Onshore,Onshore,Onshore,Onshore,Onshore",5
5842041f4e65fad6a7708adb,2024_02_27,26.25486382031396,-80.0805,Hillsboro Inlet,1.6,0.104907,0.316315,27,26,"CLEAR,NIGHT_CLEAR,NIGHT_MOSTLY_CLOUDY,NIGHT_MOSTLY_CLOUDY,NIGHT_CLEAR","Onshore,Onshore,Onshore,Onshore,Onshore",5
5842041f4e65fad6a7708add,2024_02_27,26.29705672965111,-80.07612393274484,Hillsboro Beach,0.866,0,0.2594,27,26,"CLEAR,NIGHT_CLEAR,NIGHT_CLEAR,NIGHT_MOSTLY_CLOUDY,NIGHT_MOSTLY_CLEAR","Onshore,Onshore,Onshore,Onshore,Onshore",5
5842041f4e65fad6a7708ade,2024_02_27,26.36569956413266,-80.06717936869391,Red Reef Park,0.866,0,0.2844,24,22,"CLEAR,NIGHT_CLEAR,NIGHT_MOSTLY_CLOUDY,NIGHT_MOSTLY_CLOUDY,NIGHT_MOSTLY_CLOUDY","Onshore,Onshore,Onshore,Onshore,Onshore",5
5842041f4e65fad6a7708adf,2024_02_27,26.54593873498907,-80.04104359585143,Boynton Beach Inlet (Northside),0,0,0.2724,23,22,"CLEAR,NIGHT_CLEAR,NIGHT_CLEAR,NIGHT_CLEAR,NIGHT_MOSTLY_CLOUDY","Onshore,Onshore,Onshore,Onshore,Onshore",5
5842041f4e65fad6a7708ae0,2024_02_27,26.92746505629809,-80.06721138954163,Corners,0,-0.009006666666666663,0.29218900000000003,23,22,"CLEAR,NIGHT_CLEAR,NIGHT_CLEAR,NIGHT_CLEAR,NIGHT_CLEAR","Onshore,Onshore,Onshore,Onshore,Onshore",5
5842041f4e65fad6a7708ae1,2024_02_27,26.76983179886943,-80.03413481937037,The Cove,0.866,0.037000000000000005,0.3474,23,22,"CLEAR,NIGHT_CLEAR,NIGHT_CLEAR,NIGHT_CLEAR,NIGHT_CLEAR","Onshore,Onshore,Onshore,Onshore,Onshore",5
5842041f4e65fad6a7708ae3,2024_02_27,26.39224485175123,-80.0650461233983,Japanese Rock,0.866,0,0.2764,24,22,"CLEAR,NIGHT_CLEAR,NIGHT_MOSTLY_CLEAR,NIGHT_MOSTLY_CLOUDY,NIGHT_MOSTLY_CLOUDY","Onshore,Onshore,Onshore,Onshore,Onshore",5
5842041f4e65fad6a7708ae4,2024_02_27,29.94810928551321,-85.42545434612366,Mexico Beach,0.6,0.042,0.27799999999999997,16,16,"CLEAR,NIGHT_CLEAR,NIGHT_CLEAR,NIGHT_CLEAR,NIGHT_CLEAR","Cross-shore,Cross-shore,Cross-shore,Cross-shore,Cross-shore",5
5842041f4e65fad6a7708ae5,2024_02_27,30.11752500931267,-85.7306039427457,Shell Island,0.4,0.06999999999999999,0.328,16,16,"CLEAR,NIGHT_CLEAR,NIGHT_CLEAR,NIGHT_CLEAR,NIGHT_CLEAR","Cross-shore,Cross-shore,Cross-shore,Onshore,Onshore",5
5842041f4e65fad6a7708ae7,2024_02_27,29.94901514702268,-85.43042978529013,D.J.'s,0.4,0.042,0.27799999999999997,16,16,"CLEAR,NIGHT_CLEAR,NIGHT_CLEAR,NIGHT_CLEAR,NIGHT_CLEAR","Onshore,Onshore,Onshore,Onshore,Onshore",5
5842041f4e65fad6a7708ae8,2024_02_27,30.12396111446713,-85.73636797034509,St. Andrew's Park,1.1,0.07296000000000001,0.4260933333333333,16,15,"CLEAR,NIGHT_CLEAR,NIGHT_CLEAR,NIGHT_CLEAR,NIGHT_CLEAR","Cross-shore,Cross-shore,Cross-shore,Cross-shore,Cross-shore",5
5842041f4e65fad6a7708ae9,2024_02_27,30.16781531760227,-85.79604918824084,Spinnaker,1.1320000000000001,0.011960000000000004,0.3364266666666667,16,15,"CLEAR,NIGHT_CLEAR,NIGHT_CLEAR,NIGHT_CLEAR,NIGHT_CLEAR","Onshore,Onshore,Onshore,Onshore,Onshore",5
5842041f4e65fad6a7708aea,2024_02_27,30.18877050526983,-85.83243530466363,Wood Pier,0.2,0.014000000000000002,0.29574,16,15,"CLEAR,NIGHT_CLEAR,NIGHT_CLEAR,NIGHT_CLEAR,NIGHT_CLEAR","Cross-shore,Cross-shore,Cross-shore,Onshore,Onshore",5
5842041f4e65fad6a7708aeb,2024_02_27,30.2676205895555,-85.9938578144113,Inlet Beach Pier,0.2,0.018,0.30774,16,15,"CLEAR,NIGHT_CLEAR,NIGHT_CLEAR,NIGHT_CLEAR,NIGHT_CLEAR","Onshore,Onshore,Onshore,Onshore,Onshore",5
5842041f4e65fad6a7708aec,2024_02_27,30.31815542759119,-86.1383771867044,Bud and Alley's,0.2,0.018,0.30974,16,15,"CLEAR,NIGHT_CLEAR,NIGHT_MOSTLY_CLOUDY,NIGHT_MIST,NIGHT_CLEAR","Onshore,Onshore,Onshore,Onshore,Onshore",5
5842041f4e65fad6a7708aed,2024_02_27,30.32686082481946,-86.16650590275447,Grayton Beach,0.4,0.02,0.31224,16,15,"CLEAR,NIGHT_CLEAR,NIGHT_MOSTLY_CLOUDY,NIGHT_MOSTLY_CLOUDY,NIGHT_OVERCAST","Onshore,Onshore,Onshore,Onshore,Onshore",5
5842041f4e65fad6a7708aee,2024_02_27,30.33661488976303,-86.20094370184573,Blue Mountain Beach,0.4,0.02,0.31174,16,15,"CLEAR,NIGHT_MOSTLY_CLEAR,NIGHT_MOSTLY_CLOUDY,NIGHT_MIST,NIGHT_OVERCAST","Onshore,Onshore,Onshore,Onshore,Onshore",5
5842041f4e65fad6a7708aef,2024_02_27,30.37677202831587,-86.38513326644897,Pompano Joe's,1,0.046,0.35474,16,15,"CLEAR,NIGHT_MOSTLY_CLOUDY,NIGHT_MIST,NIGHT_MIST,NIGHT_MIST","Onshore,Onshore,Onshore,Onshore,Onshore",5
5842041f4e65fad6a7708af0,2024_02_27,30.37429731725911,-86.36686966905461,Seascape,0.4,0.02,0.31424,16,15,"CLEAR,NIGHT_MOSTLY_CLOUDY,NIGHT_CLOUDY,NIGHT_MIST,NIGHT_MIST","Onshore,Onshore,Onshore,Onshore,Onshore",5
5842041f4e65fad6a7708af1,2024_02_27,30.382815988547186,-86.45838975906372,The Back Porch,1,0.048,0.36074,16,15,"MOSTLY_CLEAR,NIGHT_MIST,NIGHT_MIST,NIGHT_MIST,NIGHT_MIST","Onshore,Onshore,Onshore,Onshore,Onshore",5
5842041f4e65fad6a7708af2,2024_02_27,30.21207176798612,-85.87989730830542,Panama City Pier,0.2,0.016,0.29774,16,15,"CLEAR,NIGHT_CLEAR,NIGHT_CLEAR,NIGHT_CLEAR,NIGHT_CLEAR","Cross-shore,Cross-shore,Cross-shore,Cross-shore,Onshore",5
