_id,date,lat,lon,name,daily_mean_swell_rating,daily_mean_wave_height_min,daily_mean_wave_height_max,daily_mean_water_temperature_max,daily_mean_water_temperature_min,weather_per_timestamp,wind_per_timestamp,n_samples_per_day
5842041f4e65fad6a77087f9,2024_09_10,37.741668,-122.51038,South Ocean Beach,2,0.55611,0.83258,13,13,NIGHT_MOSTLY_CLEAR,Cross-shore,1
5842041f4e65fad6a7708801,2024_09_10,37.49142,-122.50428,Maverick's,NA,0.41,0.71,18,18,NIGHT_MOSTLY_CLOUDY,Onshore,1
5842041f4e65fad6a7708804,2024_09_10,44.997,-124.018,Roads End,2,0.96,1.11,18,18,NIGHT_CLEAR,Cross-shore,1
5842041f4e65fad6a7708805,2024_09_10,36.95188851423011,-122.02522,Steamer Lane,2,0.48604,0.7951,13,13,NIGHT_CLEAR,Offshore,1
5842041f4e65fad6a7708806,2024_09_10,36.95918781542251,-122.02489,Cowells,0,0,0.12946,13,13,NIGHT_CLEAR,Offshore,1
5842041f4e65fad6a7708807,2024_09_10,36.95468082526536,-121.97234,Pleasure Point,3,0.47176,0.78591,13,13,NIGHT_CLEAR,Cross-shore,1
5842041f4e65fad6a770880a,2024_09_10,35.37815414378748,-120.86589,Morro Bay,2,0.28913,0.59993,12,12,NIGHT_CLEAR,Onshore,1
5842041f4e65fad6a770880b,2024_09_10,36.95782765000708,-121.96729,Jack's,3,0.50883,0.82298,13,13,NIGHT_CLEAR,Onshore,1
5842041f4e65fad6a770880d,2024_09_10,34.29982939936656,-119.3489016603669,Gold Coast Beachbreaks,3,0.33,0.64,21,21,NIGHT_CLEAR,Offshore,1
5842041f4e65fad6a7708811,2024_09_10,34.245076,-119.26799,Ventura Harbor,2,0.65327,0.96407,19,19,NIGHT_CLEAR,Onshore,1
5842041f4e65fad6a7708813,2024_09_10,34.051,-118.964,County Line,1,0.6949,0.9961,20,20,NIGHT_CLEAR,Onshore,1
5842041f4e65fad6a7708814,2024_09_10,34.37256264378892,-119.47797,Rincon,1,0.41,0.72,21,21,NIGHT_CLEAR,Cross-shore,1
5842041f4e65fad6a7708817,2024_09_10,34.03096101876324,-118.68109,Malibu Third Point,3,0.5364,0.8496,22,22,NIGHT_CLEAR,Offshore,1
5842041f4e65fad6a7708819,2024_09_10,33.984079047970035,-118.47382,Venice Beach,2,0.7529,1.05089,24,24,NIGHT_CLEAR,Onshore,1
5842041f4e65fad6a770881e,2024_09_10,34.037508438646746,-118.5834,Topanga Beach,3,0.53403,0.84661,23,23,NIGHT_CLEAR,Cross-shore,1
5842041f4e65fad6a7708820,2024_09_10,33.73954373690184,-118.11414,Seal Beach Jetty,3,0.7,1,19,19,NIGHT_CLEAR,Onshore,1
5842041f4e65fad6a7708822,2024_09_10,33.72309983348433,-118.08078,Anderson Street,2,0.34395,0.64651,19,19,NIGHT_CLEAR,Onshore,1
5842041f4e65fad6a7708827,2024_09_10,33.65574085629463,-118.00397,Huntington Beach Pier Northside,2,0.97133,1.28523,20,20,NIGHT_CLEAR,Cross-shore,1
5842041f4e65fad6a7708828,2024_09_10,34.272041739333,-119.29976,C St.,2,0.53585,0.84142,19,19,NIGHT_CLEAR,Onshore,1
5842041f4e65fad6a770882a,2024_09_10,33.61555743705257,-117.93676,Newport Lower Jetties,2,0.56909,0.88165,21,21,NIGHT_CLEAR,Cross-shore,1
5842041f4e65fad6a770882b,2024_09_10,33.5930302087,-117.88199,The Wedge,3,0.9848,1.428,21,21,NIGHT_CLEAR,Onshore,1
5842041f4e65fad6a770882e,2024_09_10,33.475793399792984,-117.72291,Salt Creek,2,1.03965,1.31642,21,21,NIGHT_CLEAR,Onshore,1
5842041f4e65fad6a7708830,2024_09_10,33.41800974113613,-117.61952,T-Street,2,0.60755,0.9868,22,22,NIGHT_CLEAR,Onshore,1
5842041f4e65fad6a7708832,2024_09_10,33.202391008646,-117.39475,Oceanside Harbor,2,0.75216,1.15347,22,22,NIGHT_CLEAR,Onshore,1
5842041f4e65fad6a7708835,2024_09_10,33.19477795952803,-117.38667,Oceanside Pier,2,0.69524,1.10953,22,22,NIGHT_CLEAR,Onshore,1
5842041f4e65fad6a7708837,2024_09_10,33.14948100706,-117.35029,Tamarack,3,0.42987,0.7264,24,24,NIGHT_CLEAR,Onshore,1
5842041f4e65fad6a7708839,2024_09_10,32.865777159358856,-117.25614,Scripps,2,0.94945,1.26208,22,22,NIGHT_CLEAR,Onshore,1
5842041f4e65fad6a770883a,2024_09_10,32.813094,-117.27381,Birdrock,3,0.64,0.94,24,24,NIGHT_CLEAR,Onshore,1
5842041f4e65fad6a770883b,2024_09_10,32.877231,-117.25303,Blacks,2,0.83233,1.05783,22,22,NIGHT_CLEAR,Onshore,1
5842041f4e65fad6a770883c,2024_09_10,32.82978974229765,-117.28162,Windansea,2,0.62567,1.00117,22,22,NIGHT_CLEAR,Onshore,1
5842041f4e65fad6a770883d,2024_09_10,32.838278,-117.28396,Horseshoe,2,0.68,0.99,24,24,NIGHT_CLEAR,Onshore,1
5842041f4e65fad6a770883f,2024_09_10,32.75034717673179,-117.25337,Ocean Beach,2,0.71469,1.01115,22,22,NIGHT_CLEAR,Onshore,1
5842041f4e65fad6a7708840,2024_09_10,32.73693,-117.25718,Sunset Cliffs,2,0.70315,1.01077,24,24,NIGHT_CLEAR,Onshore,1
5842041f4e65fad6a7708841,2024_09_10,32.796582258728826,-117.25779,Pacific Beach,2,0.74617,1.04992,22,22,NIGHT_CLEAR,Onshore,1
5842041f4e65fad6a7708842,2024_09_10,32.776636,-117.25514,Mission Beach,3,0.84733,1.14517,22,22,NIGHT_CLEAR,Cross-shore,1
5842041f4e65fad6a7708844,2024_09_10,32.577195519016,-117.13475,Imperial Beach Pier,2,0.62,0.93,23,23,NIGHT_CLEAR,Onshore,1
5842041f4e65fad6a770884a,2024_09_10,42.88678181061,-70.80843,Seabrook,2,0.28606,0.64364,14,13,NIGHT_CLOUDY,Offshore,1
5842041f4e65fad6a770884e,2024_09_10,41.434181432898335,-71.45312,Narragansett,2,0.11,0.4116,19,19,NIGHT_BRIEF_SHOWERS_POSSIBLE,Cross-shore,1
5842041f4e65fad6a7708850,2024_09_10,40.582703230722,-73.65247,Lincoln Blvd,1,0.04294,0.34774,21,20,NIGHT_OVERCAST,Onshore,1
5842041f4e65fad6a7708852,2024_09_10,40.58342841721757,-73.81182,Rockaways,1,0.41989,0.80069,21,20,NIGHT_OVERCAST,Cross-shore,1
5842041f4e65fad6a7708853,2024_09_10,40.330474,-73.9734,Monmouth Beach,2,0.34,0.64,21,20,NIGHT_MOSTLY_CLOUDY,Offshore,1
5842041f4e65fad6a7708856,2024_09_10,40.113,-74.028,Manasquan Inlet,2,0.03348,0.33393,21,20,NIGHT_CLEAR,Offshore,1
5842041f4e65fad6a7708857,2024_09_10,39.941519877445664,-74.06829,Casino Pier,2,0.3,0.61,20,20,NIGHT_CLEAR,Offshore,1
5842041f4e65fad6a7708858,2024_09_10,39.28223089949212,-74.55766,North End OC,1,0.26,0.56,21,20,NIGHT_CLEAR,Cross-shore,1
5842041f4e65fad6a770885b,2024_09_10,39.65080599934257,-74.17146,Ship Bottom,2,0.45275,0.76575,21,20,NIGHT_CLEAR,Offshore,1
5842041f4e65fad6a7708863,2024_09_10,36.034151543144,-75.66791,Third Street,2,0.28,0.59,22,22,NIGHT_CLEAR,Offshore,1
5842041f4e65fad6a7708867,2024_09_10,35.605833221351425,-75.46303,S-Turns,2,0.44653,0.7448,23,22,NIGHT_CLEAR,Onshore,1
5842041f4e65fad6a770886d,2024_09_10,38.338461,-75.08117,Ocean City Boardwalk,2,0.24,0.54,22,21,NIGHT_CLEAR,Offshore,1
5842041f4e65fad6a770886f,2024_09_10,29.844757212379562,-81.26136,A St.,2,0.71,1.02,29,29,NIGHT_THUNDER_STORMS,Onshore,1
5842041f4e65fad6a7708871,2024_09_10,29.069417851135093,-80.90824,New Smyrna Beach,2.333333333333333,0.58627,1.05013,29,28,NIGHT_OVERCAST,Onshore,1
5842041f4e65fad6a7708872,2024_09_10,28.367707417566,-80.60171,Cocoa Beach Pier,2,0.52152,0.83492,30,29,NIGHT_THUNDER_STORMS,Onshore,1
5842041f4e65fad6a7708873,2024_09_10,28.091782738658846,-80.56479,Indialantic,2,0.44,0.75,30,29,NIGHT_LIGHT_SHOWERS,Cross-shore,1
5842041f4e65fad6a7708876,2024_09_10,27.25392904143517,-80.19455,Jensen Beach,2,0.6196,0.92107000000000006,30,29,NIGHT_OVERCAST,Onshore,1
5842041f4e65fad6a7708879,2024_09_10,26.76346795333825,-80.03607,Reef Road,1,0.32,0.62,31,29,NIGHT_OVERCAST,Onshore,1
5842041f4e65fad6a770887c,2024_09_10,26.336499228484,-80.06956100463,Boca Raton Inlet,1,0.01,0.32,31,29,NIGHT_CLOUDY,Onshore,1
5842041f4e65fad6a770887d,2024_09_10,26.31719311695038,-80.07453,Deerfield Beach Pier,0,0.14939,0.28136,31,29,NIGHT_CLOUDY,Onshore,1
5842041f4e65fad6a7708881,2024_09_10,30.20276320866628,-85.85626528676136,"Spyglass Dr., Panama City",1,0,0.18,29,28,NIGHT_CLOUDY,Offshore,1
5842041f4e65fad6a7708884,2024_09_10,33.39000832738053,-117.59852,Cottons,3,1.0448,1.3472,22,22,NIGHT_CLEAR,Onshore,1
5842041f4e65fad6a7708885,2024_09_10,33.359416282661,-117.54168,Trails,3,0.7,1,23,23,NIGHT_CLEAR,Offshore,1
5842041f4e65fad6a7708886,2024_09_10,33.38042605929805,-117.58332,Middles,3,0.98,1.17,23,23,NIGHT_CLEAR,Onshore,1
5842041f4e65fad6a7708887,2024_09_10,33.38445596302903,-117.59445,Upper Trestles,3,1.06147,1.31387,22,22,NIGHT_CLEAR,Onshore,1
5842041f4e65fad6a7708889,2024_09_10,28.944414,-95.28883,Surfside,0,0.98185,1.3442,29,29,NIGHT_LIGHT_SHOWERS,Cross-shore,1
5842041f4e65fad6a770888a,2024_09_10,33.38143999849023,-117.58843,Lower Trestles,3,0.99105,1.4231,22,22,NIGHT_CLEAR,Onshore,1
5842041f4e65fad6a770888b,2024_09_10,33.379622288757,-117.57894,Church,3,1.08813,1.2664,22,22,NIGHT_CLEAR,Onshore,1
5842041f4e65fad6a770888d,2024_09_10,21.679,-158.042,Sunset Beach,3,0.73964,1.28391,26,25,NIGHT_CLEAR,Offshore,1
5842041f4e65fad6a770888e,2024_09_10,21.670550036401,-158.0482,Rocky Point,4,1.46805,1.78225,26,25,NIGHT_CLEAR,Offshore,1
5842041f4e65fad6a770888f,2024_09_10,21.668,-158.05,Chambers,4,1.40055,1.97145,27,27,NIGHT_CLEAR,Offshore,1
5842041f4e65fad6a7708890,2024_09_10,21.66522,-158.0526,Pipeline,1,0.91,1.22,26,25,NIGHT_CLEAR,Offshore,1
5842041f4e65fad6a7708891,2024_09_10,21.665,-158.054,Backdoor,3,1.18058,1.49484,26,25,NIGHT_CLEAR,Offshore,1
5842041f4e65fad6a7708892,2024_09_10,21.662,-158.057,Rockpile,3,1.15,1.45,27,27,NIGHT_CLEAR,Offshore,1
5842041f4e65fad6a7708893,2024_09_10,21.65870453806827,-158.06058,Log Cabins,4,1.5143,1.8285,27,27,NIGHT_CLEAR,Offshore,1
5842041f4e65fad6a7708894,2024_09_10,21.66203493640557,-158.05495,Off-The-Wall,3,1.21635,1.6639,27,27,NIGHT_CLEAR,Offshore,1
5842041f4e65fad6a7708895,2024_09_10,21.643,-158.067,Waimea Bay,NA,1.31,1.38,26,25,NIGHT_CLEAR,Offshore,1
5842041f4e65fad6a7708896,2024_09_10,21.622,-158.087,Hultin's,3,0.74,1.04,26,25,NIGHT_CLEAR,Offshore,1
5842041f4e65fad6a7708897,2024_09_10,21.623,-158.085,Jocko's,3,1.02,1.32,27,27,NIGHT_CLEAR,Onshore,1
5842041f4e65fad6a7708898,2024_09_10,21.62,-158.088,Laniakea,3,1.18135,1.49555,26,25,NIGHT_CLEAR,Cross-shore,1
5842041f4e65fad6a7708899,2024_09_10,21.625,-158.083,Chun's,3,0.97,1.28,27,27,NIGHT_CLEAR,Cross-shore,1
5842041f4e65fad6a770889c,2024_09_10,21.286357895152136,-157.8515,South Shore - Ala Moana Park,3,0.41,0.72,27,27,NIGHT_MOSTLY_CLEAR,Cross-shore,1
5842041f4e65fad6a770889d,2024_09_10,19.606,-155.978,Banyans,2,0.27,0.57,26,25,NIGHT_CLEAR,Cross-shore,1
5842041f4e65fad6a770889e,2024_09_10,20.029,-155.831,Kawaihae,2,0.4444,0.55978000000000006,27,27,NIGHT_CLEAR,Onshore,1
5842041f4e65fad6a770889f,2024_09_10,33.07541383424675,-117.3105,Grandview,2,0.6264,0.9296,25,25,NIGHT_CLEAR,Onshore,1
5842041f4e65fad6a77088a0,2024_09_10,33.065267421296596,-117.30577,Beacons,2,0.65587,0.95874,25,25,NIGHT_CLEAR,Onshore,1
5842041f4e65fad6a77088a2,2024_09_10,21.252,-157.805,Diamond Head,3,0.73876,1.06402,26,25,NIGHT_CLEAR,Cross-shore,1
5842041f4e65fad6a77088a3,2024_09_10,33.04694255008896,-117.29966,Moonlight State Beach,3,0.66,0.96,24,24,NIGHT_CLEAR,Onshore,1
5842041f4e65fad6a77088a5,2024_09_10,33.08685865930869,-117.31532,Ponto,2,0.71307,1.01627,25,25,NIGHT_CLEAR,Onshore,1
5842041f4e65fad6a77088a6,2024_09_10,33.130343587871906,-117.33668,Terra Mar Point,2,0.55444,0.90556,22,22,NIGHT_CLEAR,Onshore,1
5842041f4e65fad6a77088af,2024_09_10,32.95916304183685,-117.26963,Del Mar,2,0.75863,1.05531,24,24,NIGHT_CLEAR,Onshore,1
5842041f4e65fad6a77088b0,2024_09_10,32.97527261243354,-117.2721061331305,Del Mar Rivermouth,2,0.67,0.98,24,24,NIGHT_CLEAR,Onshore,1
5842041f4e65fad6a77088b1,2024_09_10,33.01352178146273,-117.28219,Cardiff Reef,2,0.97539,1.28255,22,22,NIGHT_CLEAR,Cross-shore,1
5842041f4e65fad6a77088b3,2024_09_10,33.00211185876003,-117.2811,Seaside Reef,2,0.7,1.01,24,24,NIGHT_CLEAR,Onshore,1
5842041f4e65fad6a77088b4,2024_09_10,33.0341859796287,-117.29552,Swami's,2,0.51333,0.825,22,22,NIGHT_CLEAR,Onshore,1
5842041f4e65fad6a77088b7,2024_09_10,33.04569760260221,-117.2994,D Street,2,0.60307,0.8996,24,24,NIGHT_CLEAR,Onshore,1
5842041f4e65fad6a77088b8,2024_09_10,33.02090944350196,-117.28535,San Elijo State Beach,2,0.50215,0.81597,22,22,NIGHT_CLEAR,Cross-shore,1
5842041f4e65fad6a77088c2,2024_09_10,32.80662846492798,-117.26888,PB Point,3,0.71,1.01,24,24,NIGHT_CLEAR,Onshore,1
5842041f4e65fad6a77088c4,2024_09_10,32.8060476681448,-117.26479,Old Man's at Tourmaline,3,0.43987,0.7464,24,24,NIGHT_CLEAR,Onshore,1
5842041f4e65fad6a77088cb,2024_09_10,32.557056711256,-117.1327445020322,Tijuana Slough,2,0.67,0.97,23,23,NIGHT_CLEAR,Onshore,1
5842041f4e65fad6a77088cc,2024_09_10,32.863,-117.257,La Jolla Shores,2,0.6,0.91,24,24,NIGHT_CLEAR,Onshore,1
5842041f4e65fad6a77088ce,2024_09_10,32.67443657790586,-117.17421,Coronado Beach,2,0.33,0.63,23,23,NIGHT_CLEAR,Cross-shore,1
5842041f4e65fad6a77088cf,2024_09_10,33.40484417640326,-117.60749,San Clemente State Beach,2,0.72,1.03,23,23,NIGHT_CLEAR,Onshore,1
5842041f4e65fad6a77088d5,2024_09_10,33.4663042002114,-117.7168352817103,Strands,2,0.80653,1.1656,21,21,NIGHT_CLEAR,Onshore,1
5842041f4e65fad6a77088d7,2024_09_10,33.4609858001748,-117.68535,Doheny State Beach,3,0.50028,0.7961,22,22,NIGHT_CLEAR,Onshore,1
5842041f4e65fad6a77088dc,2024_09_10,33.50894790083017,-117.75243,Aliso Creek,2,0.66,0.96,23,23,NIGHT_CLEAR,Onshore,1
5842041f4e65fad6a77088dd,2024_09_10,33.5326591767067,-117.77764,Brooks Street,2,0.56,0.87,23,23,NIGHT_CLEAR,Onshore,1
5842041f4e65fad6a77088de,2024_09_10,33.53561225884637,-117.7799,Thalia Street,2,0.57,0.87,23,23,NIGHT_CLEAR,Onshore,1
5842041f4e65fad6a77088e3,2024_09_10,33.54268310353641,-117.7916,Rockpile,2,0.56,0.87,23,23,NIGHT_CLEAR,Onshore,1
5842041f4e65fad6a77088e4,2024_09_10,33.7368459504689,-118.10342,"Seal Beach Pier, Southside",2,0.77,1.08,23,23,NIGHT_CLEAR,Cross-shore,1
5842041f4e65fad6a77088e5,2024_09_10,33.73933701820233,-118.117,Ray Bay,2,0.74,1.04,22,22,NIGHT_CLEAR,Onshore,1
5842041f4e65fad6a77088e7,2024_09_10,33.728733,-118.08982,Surfside,2,0.13,0.43,23,23,NIGHT_CLEAR,Cross-shore,1
5842041f4e65fad6a77088e8,2024_09_10,33.68760321488161,-118.04236,Bolsa Chica State Beach,2,0.55842,0.86704,19,19,NIGHT_CLEAR,Offshore,1
5842041f4e65fad6a77088ea,2024_09_10,33.66704400178788,-118.0192,North HB Streets,2,0.86845,1.25548,20,20,NIGHT_CLEAR,Cross-shore,1
5842041f4e65fad6a77088ed,2024_09_10,33.65475101379567,-118.00291,Huntington Beach Pier Southside,2,1.30308,1.39543,20,20,NIGHT_CLEAR,Cross-shore,1
5842041f4e65fad6a77088ee,2024_09_10,33.62778647706099,-117.95939,River Jetties,2,0.9148,1.2164,20,20,NIGHT_CLEAR,Onshore,1
5842041f4e65fad6a77088f2,2024_09_10,33.605165797643664,-117.925,Newport Point,1,0.69,0.99,22,22,NIGHT_CLEAR,Onshore,1
5842041f4e65fad6a77088f3,2024_09_10,33.58982984726977,-117.87713,Corona del Mar,3,0.63,0.94,22,22,NIGHT_CLEAR,Onshore,1
5842041f4e65fad6a77088f7,2024_09_10,34.00750300824362,-118.4971783496269,Santa Monica Pier,2,0.46,0.76,23,23,NIGHT_CLEAR,Cross-shore,1
5842041f4e65fad6a77088ff,2024_09_10,33.94070283102945,-118.44321,Dockweiler Beach,2,0.5412,0.8424,23,23,NIGHT_CLEAR,Cross-shore,1
5842041f4e65fad6a7708900,2024_09_10,33.9231846937237,-118.4341465777908,Shitpipe,2,0.6137,0.92490000000000006,23,23,NIGHT_CLEAR,Cross-shore,1
5842041f4e65fad6a7708902,2024_09_10,33.9108528052242,-118.4279133138721,Hammerland,2,0.6137,0.92490000000000006,23,23,NIGHT_CLEAR,Cross-shore,1
5842041f4e65fad6a7708904,2024_09_10,33.87201368173932,-118.40752,Hermosa Beach,1,0.69295,1.00201,22,22,NIGHT_CLEAR,Onshore,1
5842041f4e65fad6a7708906,2024_09_10,33.90129336911256,-118.42184,El Porto,2,0.58229,0.9933,23,23,NIGHT_CLEAR,Cross-shore,1
5842041f4e65fad6a7708907,2024_09_10,33.87963506431794,-118.41102,Manhattan Beach Pier,2,0.5932,0.90049,22,22,NIGHT_CLEAR,Onshore,1
5842041f4e65fad6a7708914,2024_09_10,34.038053387863464,-118.5532,Sunset Point,2,0.24,0.55,23,23,NIGHT_CLEAR,Onshore,1
5842041f4e65fad6a7708920,2024_09_10,33.80282,-118.39989,Haggerty's,2,0.632,0.872,22,22,NIGHT_CLEAR,Cross-shore,1
5842041f4e65fad6a7708921,2024_09_10,33.85044519861206,-118.40048,Redondo Breakwater,1,0.60126,0.90772,22,22,NIGHT_CLEAR,Onshore,1
5842041f4e65fad6a7708927,2024_09_10,33.70877301002487,-118.2840112858389,Cabrillo Beach,1,0.68,0.98,22,22,NIGHT_CLEAR,Cross-shore,1
5842041f4e65fad6a770892c,2024_09_10,33.77209986806257,-118.4268428476672,Lunada Bay,1,0.75,1.05,23,23,NIGHT_CLEAR,Onshore,1
5842041f4e65fad6a770892d,2024_09_10,33.79294656286144,-118.40703,PV Cove,1,0.79,1.09,22,22,NIGHT_CLEAR,Onshore,1
5842041f4e65fad6a7708930,2024_09_10,34.03944902292561,-118.57539,Chart House,1,0,0.24,23,23,NIGHT_CLEAR,Onshore,1
5842041f4e65fad6a7708936,2024_09_10,34.0016731994772,-118.80456,Point Dume,2,0.3799,0.6811,22,22,NIGHT_CLEAR,Offshore,1
5842041f4e65fad6a7708937,2024_09_10,34.02587527588963,-118.7554939066114,Latigo Point,3,0.35,0.65,22,22,NIGHT_CLEAR,Cross-shore,1
5842041f4e65fad6a770893f,2024_09_10,34.043762,-118.93294,Leo Carrillo,1,0.7399,1.0486,20,20,NIGHT_CLEAR,Cross-shore,1
5842041f4e65fad6a7708941,2024_09_10,36.69388179265737,-121.81289,Marina State Beach,2,0.28,0.58,18,18,NIGHT_CLEAR,Offshore,1
5842041f4e65fad6a7708944,2024_09_10,34.34145077331085,-119.416999352654,Stanley's,1,0.34,0.64,21,21,NIGHT_CLEAR,Onshore,1
5842041f4e65fad6a7708945,2024_09_10,34.35113017313915,-119.426921498899,Oil Piers,2,0.34,0.64,21,21,NIGHT_CLEAR,Offshore,1
5842041f4e65fad6a770894c,2024_09_10,34.17876333306018,-119.23995,Oxnard,2,0.64,0.95,21,21,NIGHT_CLEAR,Onshore,1
5842041f4e65fad6a7708957,2024_09_10,34.31720331100517,-119.3882324751725,Pitas Point,3,0.38,0.69,21,21,NIGHT_CLEAR,Offshore,1
5842041f4e65fad6a7708959,2024_09_10,34.27851754384724,-119.3162,Emma Wood,1,0.52,0.83,21,21,NIGHT_CLEAR,Onshore,1
5842041f4e65fad6a770895a,2024_09_10,34.35513640390276,-119.4400589884255,Mussel Shoals (aka Little Rincon),2,0.38,0.68,21,21,NIGHT_CLEAR,Offshore,1
5842041f4e65fad6a770895e,2024_09_10,34.28991757054902,-119.3366646794652,Summer Beach,1,0.33,0.64,21,21,NIGHT_CLEAR,Onshore,1
5842041f4e65fad6a770895f,2024_09_10,34.30897456105926,-119.3582501170116,Solimar,3,0.33,0.64,21,21,NIGHT_CLEAR,Offshore,1
5842041f4e65fad6a7708960,2024_09_10,34.39836265281686,-119.70213,Leadbetter Point,1,0,0.2,21,21,NIGHT_CLEAR,Cross-shore,1
5842041f4e65fad6a7708961,2024_09_10,34.46052293893899,-120.07328,Refugio,2,0.03,0.33,20,20,NIGHT_CLEAR,Offshore,1
5842041f4e65fad6a7708962,2024_09_10,34.40754276777778,-119.87639,Devereux,2,0.13,0.44,21,21,NIGHT_CLEAR,Offshore,1
5842041f4e65fad6a7708963,2024_09_10,34.27479983305182,-119.3133222656776,Ventura Overhead,1,0.52,0.83,21,21,NIGHT_CLEAR,Onshore,1
5842041f4e65fad6a7708964,2024_09_10,34.41023236011655,-119.88261,Sands,2,0.11,0.42,21,21,NIGHT_CLEAR,Offshore,1
5842041f4e65fad6a7708966,2024_09_10,34.40450193869233,-119.68752,Sandspit,1,0,0.2,21,21,NIGHT_CLEAR,Cross-shore,1
5842041f4e65fad6a7708967,2024_09_10,34.41549098334453,-119.6375149840203,Hammond's,2,0.19,0.5,21,21,NIGHT_CLEAR,Cross-shore,1
5842041f4e65fad6a7708968,2024_09_10,34.45759322742309,-120.02203,El Capitan,2,0.03,0.33,20,20,NIGHT_CLEAR,Cross-shore,1
5842041f4e65fad6a770896c,2024_09_10,34.405117655616,-119.84317,Campus Point,2,0.11,0.42,21,21,NIGHT_CLEAR,Offshore,1
5842041f4e65fad6a770896e,2024_09_10,34.38935162233354,-119.51955,Carpinteria State Beach,2,0.31,0.62,21,21,NIGHT_CLEAR,Onshore,1
5842041f4e65fad6a770896f,2024_09_10,37.48296565175612,-122.45493,Half Moon Bay,2,0.38,0.68,18,18,NIGHT_MOSTLY_CLOUDY,Onshore,1
5842041f4e65fad6a7708970,2024_09_10,37.499,-122.471,Princeton Jetty,2,0.19,0.49,18,18,NIGHT_MOSTLY_CLOUDY,Onshore,1
5842041f4e65fad6a7708972,2024_09_10,37.35699547365155,-122.4069534707252,Tunitas Creek,3,0.57,0.88,18,18,NIGHT_CLOUDY,Onshore,1
5842041f4e65fad6a7708974,2024_09_10,37.54735589428842,-122.51611,Montara,2,0.46,0.76,19,19,NIGHT_MOSTLY_CLOUDY,Cross-shore,1
5842041f4e65fad6a7708975,2024_09_10,34.3869373724559,-119.5142334209018,Tarpits,2,0.33,0.64,21,21,NIGHT_CLEAR,Cross-shore,1
5842041f4e65fad6a7708976,2024_09_10,37.59881852720143,-122.50463,Linda Mar,2,0.42333,0.73898,13,13,NIGHT_MOSTLY_CLOUDY,Cross-shore,1
5842041f4e65fad6a7708978,2024_09_10,37.59883098461164,-122.5143843582282,Pedro Point,2,0.39,0.7,19,19,NIGHT_MOSTLY_CLOUDY,Cross-shore,1
5842041f4e65fad6a7708979,2024_09_10,37.61081996647663,-122.49733,Rockaway,3,0.43,0.73,19,19,NIGHT_MOSTLY_CLOUDY,Cross-shore,1
5842041f4e65fad6a770897a,2024_09_10,37.809987384424446,-122.47514,Fort Point,2,0.17,0.48,19,19,NIGHT_MOSTLY_CLEAR,Onshore,1
5842041f4e65fad6a770897c,2024_09_10,37.63422542967464,-122.4951,Sharp Park,3,0.47,0.78,19,19,NIGHT_MOSTLY_CLEAR,Cross-shore,1
5842041f4e65fad6a770897d,2024_09_10,37.27313605072472,-122.4127387912554,Pescadero,2,0.56,0.87,18,18,NIGHT_CLOUDY,Onshore,1
5842041f4e65fad6a770897e,2024_09_10,37.18140279972666,-122.3926685899327,Pigeon Point,3,0.57,0.88,18,18,NIGHT_CLOUDY,Cross-shore,1
5842041f4e65fad6a770897f,2024_09_10,37.11578956919415,-122.314699271291,Ano Nuevo,3,0.73,1.04,18,18,NIGHT_MOSTLY_CLEAR,Offshore,1
5842041f4e65fad6a7708980,2024_09_10,37.09520872681598,-122.2805474707768,Waddell Creek,3,0.52,0.83,18,18,NIGHT_MOSTLY_CLEAR,Onshore,1
5842041f4e65fad6a7708981,2024_09_10,36.96512852130351,-122.1252825495626,Four Mile,2,0.25,0.56,18,18,NIGHT_MOSTLY_CLEAR,Cross-shore,1
5842041f4e65fad6a7708982,2024_09_10,37.04122807048655,-122.23337,Scott Creek,2,0.54,0.85,18,18,NIGHT_MOSTLY_CLEAR,Onshore,1
5842041f4e65fad6a7708983,2024_09_10,37.02350229387179,-122.21908,Davenport,3,0.48,0.78,18,18,NIGHT_MOSTLY_CLEAR,Onshore,1
5842041f4e65fad6a7708986,2024_09_10,36.94905295955728,-122.06118,Natural Bridges,3,0.65,0.96,18,18,NIGHT_CLEAR,Onshore,1
5842041f4e65fad6a7708987,2024_09_10,36.95154854910425,-122.04207,Mitchell's Cove,3,0.39,0.69,18,18,NIGHT_CLEAR,Cross-shore,1
5842041f4e65fad6a770898a,2024_09_10,36.9572312370203,-121.98177,26th Ave,2,0.36,0.67,18,18,NIGHT_CLEAR,Onshore,1
5842041f4e65fad6a770898e,2024_09_10,36.91899972819882,-121.85536,Manresa,2,0.17,0.47,18,18,NIGHT_MOSTLY_CLOUDY,Onshore,1
5842041f4e65fad6a7708990,2024_09_10,34.45747731928454,-120.34242,The Ranch,2,0.18,0.49,19,19,NIGHT_CLEAR,Onshore,1
5842041f4e65fad6a7708991,2024_09_10,34.50875036590315,-120.50348,Jalama,1,0.37,0.68,19,19,NIGHT_CLEAR,Cross-shore,1
5842041f4e65fad6a7708996,2024_09_10,34.68700870220497,-120.6111611019887,Surf Beach,2,0.5,0.81,19,19,NIGHT_MOSTLY_CLOUDY,Onshore,1
5842041f4e65fad6a770899c,2024_09_10,35.5730538161116,-121.1143362345574,Moonstone,2,0.35,0.66,18,18,NIGHT_CLEAR,Onshore,1
5842041f4e65fad6a770899d,2024_09_10,35.61533716776573,-121.1502053073914,Pico Creek,2,0.43,0.74,18,18,NIGHT_CLEAR,Offshore,1
5842041f4e65fad6a770899e,2024_09_10,35.56829031927379,-121.11207,Santa Rosa Creek,2,0.35,0.66,18,18,NIGHT_CLEAR,Onshore,1
5842041f4e65fad6a77089a2,2024_09_10,35.44820114936284,-120.90715,"Cayucos Pier, Southside",2,0.00319,0.30646,18,18,NIGHT_CLEAR,Cross-shore,1
5842041f4e65fad6a77089a4,2024_09_10,35.30143372628852,-120.877819239902,Cable Landing,1,0.56,0.86,18,18,NIGHT_CLEAR,Onshore,1
5842041f4e65fad6a77089a9,2024_09_10,35.61269103500222,-121.14807,San Simeon,1,0.378,0.595,18,18,NIGHT_CLEAR,Cross-shore,1
5842041f4e65fad6a77089ab,2024_09_10,35.1775325966252,-120.73411,Avila Beach,2,0.15,0.46,18,18,NIGHT_MOSTLY_CLEAR,Onshore,1
5842041f4e65fad6a77089ac,2024_09_10,35.13877877884115,-120.64535,Pismo Beach Pier,2,0.2608,0.5616,12,12,NIGHT_MOSTLY_CLEAR,Onshore,1
5842041f4e65fad6a77089ad,2024_09_10,46.8907710233147,-124.12964,Westport/Olympic Peninsula,2,0.86,1.16,18,18,NIGHT_CLEAR,Onshore,1
5842041f4e65fad6a77089ae,2024_09_10,46.35185177248545,-124.06747,Long Beach Peninsula,3,1.02,1.33,18,18,NIGHT_CLEAR,Onshore,1
5842041f4e65fad6a77089af,2024_09_10,47.90649175554033,-124.63709,La Push,3,0.76,1.06,17,17,NIGHT_CLEAR,Offshore,1
5842041f4e65fad6a77089b0,2024_09_10,42.04368239985442,-124.26828,Brookings Jetty,3,0.39699,0.64815,17,17,NIGHT_CLEAR,Cross-shore,1
5842041f4e65fad6a77089b1,2024_09_10,42.74071837900346,-124.4983727491047,Port Orford,2,0.36,0.66,17,17,NIGHT_CLEAR,Offshore,1
5842041f4e65fad6a77089b2,2024_09_10,44.01532689312291,-124.13865,Florence South Jetty,0,0.96,1.15,17,17,NIGHT_CLEAR,Cross-shore,1
5842041f4e65fad6a77089b3,2024_09_10,42.41812540774362,-124.42945,Gold Beach South Jetty,2,0.63,0.93,17,17,NIGHT_CLEAR,Offshore,1
5842041f4e65fad6a77089b4,2024_09_10,44.95857310226525,-124.0219,Lincoln City,2,0.75,1.06,18,18,NIGHT_CLEAR,Cross-shore,1
5842041f4e65fad6a77089b5,2024_09_10,44.63792761362982,-124.0657,Newport,3,0.92,1.1,18,18,NIGHT_CLEAR,Cross-shore,1
5842041f4e65fad6a77089b6,2024_09_10,45.61468496266301,-123.94643,Rockaway Beach,2,0.89,1.2,18,18,NIGHT_CLEAR,Cross-shore,1
5842041f4e65fad6a77089b7,2024_09_10,45.20252914186085,-123.96975,Pacific City,2,0.6,0.91,18,18,NIGHT_CLEAR,Cross-shore,1
5842041f4e65fad6a77089b8,2024_09_10,45.88179930310263,-123.96681,Cannon Beach,3,0.96,1.27,18,18,NIGHT_CLEAR,Cross-shore,1
5842041f4e65fad6a77089ba,2024_09_10,40.02528754746774,-124.06372,Shelter Cove,2,0.16096,0.33917,18,18,NIGHT_CLEAR,Cross-shore,1
5842041f4e65fad6a77089bb,2024_09_10,40.76816197136951,-124.24248,Humboldt Harbor Entrance,3,0.99,1.09,17,17,NIGHT_CLEAR,Cross-shore,1
5842041f4e65fad6a77089bc,2024_09_10,40.76684246920174,-124.23107,North Jetty,3,1.19,1.42,17,17,NIGHT_CLEAR,Cross-shore,1
5842041f4e65fad6a77089be,2024_09_10,41.13016238153297,-124.16466,Sue-meg,3,0.89,1.19,17,17,NIGHT_CLEAR,Offshore,1
5842041f4e65fad6a77089bf,2024_09_10,37.8289474958188,-122.53768,Fort Cronkite/Rodeo Beach,1,0.22,0.53,19,19,NIGHT_MOSTLY_CLEAR,Onshore,1
5842041f4e65fad6a77089c0,2024_09_10,41.74415759876137,-124.17717,South Beach CA,2,0.28,0.59,17,17,NIGHT_CLEAR,Onshore,1
5842041f4e65fad6a77089c1,2024_09_10,37.89801283969752,-122.64519,Stinson Beach,2,0.16,0.46,19,19,NIGHT_MOSTLY_CLEAR,Offshore,1
5842041f4e65fad6a77089c2,2024_09_10,37.90514516176495,-122.68151,Bolinas,2,0.09898,0.40581,19,19,NIGHT_MOSTLY_CLEAR,Cross-shore,1
5842041f4e65fad6a77089c3,2024_09_10,38.04892513158693,-122.98925,Point Reyes (north),3,0.66,0.97,19,19,NIGHT_CLOUDY,Onshore,1
5842041f4e65fad6a77089c6,2024_09_10,38.31088736605785,-123.0496777333731,Doran Beach,2,0.01,0.31,18,18,NIGHT_MOSTLY_CLOUDY,Cross-shore,1
5842041f4e65fad6a77089c7,2024_09_10,38.45077228660809,-123.13008,Russian Rivermouth,3,0.47,0.78,18,18,NIGHT_CLEAR,Onshore,1
5842041f4e65fad6a77089c8,2024_09_10,38.35329968518107,-123.06906,Salmon Creek,3,0.66,0.97,18,18,NIGHT_MOSTLY_CLOUDY,Onshore,1
5842041f4e65fad6a77089c9,2024_09_10,38.6845180197959,-123.4322714291198,Black Point Beach,3,0.37,0.67,18,18,NIGHT_CLEAR,Offshore,1
5842041f4e65fad6a77089ca,2024_09_10,43.251076,-70.59144,Ogunquit,3,0.46,0.77,14,13,NIGHT_MOSTLY_CLOUDY,Offshore,1
5842041f4e65fad6a77089cb,2024_09_10,41.362631366305415,-71.48007,Point Judith,2,0.21,0.51,19,19,NIGHT_CLEAR,Offshore,1
5842041f4e65fad6a77089cd,2024_09_10,41.422678090954726,-71.45413,Monahan's - Narragansett,1,0.06856,0.36238,20,20,NIGHT_CLEAR,Offshore,1
5842041f4e65fad6a77089ce,2024_09_10,41.469,-71.293,Ruggles - Newport,1,0.40062,0.75546,20,20,NIGHT_BRIEF_SHOWERS_POSSIBLE,Cross-shore,1
5842041f4e65fad6a77089cf,2024_09_10,43.175394,-70.606351,Short Sands Beach,3,0.43,0.74,17,17,NIGHT_MOSTLY_CLOUDY,Offshore,1
5842041f4e65fad6a77089d0,2024_09_10,41.487408,-71.29017,First Beach,1,0.08,0.38,20,20,NIGHT_BRIEF_SHOWERS_POSSIBLE,Cross-shore,1
5842041f4e65fad6a77089d1,2024_09_10,42.27916830233153,-70.86498,Nantasket Beach,1,0.2,0.51,17,16,NIGHT_CLEAR,Offshore,1
5842041f4e65fad6a77089d2,2024_09_10,41.817,-69.935,Cape Cod,1,0.2,0.5,19,19,NIGHT_BRIEF_SHOWERS_POSSIBLE,Offshore,1
5842041f4e65fad6a77089d3,2024_09_10,42.22055448975661,-70.70634873403819,Egypt Beach,2,0.21,0.52,19,19,NIGHT_CLEAR,Offshore,1
5842041f4e65fad6a77089d4,2024_09_10,41.48739647744607,-71.25723,Second Beach,1,0.42458,0.66831,19,19,NIGHT_BRIEF_SHOWERS_POSSIBLE,Onshore,1
5842041f4e65fad6a77089d5,2024_09_10,42.964,-70.769,Fox Hill,2,0.31,0.62,14,13,NIGHT_CLOUDY,Offshore,1
5842041f4e65fad6a77089d6,2024_09_10,42.991359,-70.75149,Straws Point,2,0.25,0.55,14,13,NIGHT_CLOUDY,Cross-shore,1
5842041f4e65fad6a77089d7,2024_09_10,42.946,-70.786,Plaice Cove,3,0.31,0.62,14,13,NIGHT_CLOUDY,Offshore,1
5842041f4e65fad6a77089d9,2024_09_10,42.911574,-70.80831,The Main Beach,2,0.16933,0.4618,14,13,NIGHT_CLOUDY,Cross-shore,1
5842041f4e65fad6a77089da,2024_09_10,42.97583846220203,-70.764,Sawyer's Beach,2,0.26,0.56,14,13,NIGHT_CLOUDY,Offshore,1
5842041f4e65fad6a77089db,2024_09_10,42.97,-70.77,Rye on the Rocks / 5-0's,2,0.13913,0.44824,14,13,NIGHT_CLOUDY,Offshore,1
5842041f4e65fad6a77089dc,2024_09_10,43.55902946610303,-70.27795,Higgins Beach,1,0.24,0.55,14,13,NIGHT_CLEAR,Cross-shore,1
5842041f4e65fad6a77089dd,2024_09_10,43.302676,-70.5652,Wells Beach,3,0.36,0.66,14,13,NIGHT_MOSTLY_CLOUDY,Offshore,1
5842041f4e65fad6a77089de,2024_09_10,43.545359,-70.30479,Scarborough Beach State Park,2,0.34724,0.70645,14,13,NIGHT_CLEAR,Offshore,1
5842041f4e65fad6a77089df,2024_09_10,43.514481,-70.37215,Old Orchard Beach,1,0.2,0.5,14,13,NIGHT_CLEAR,Offshore,1
5842041f4e65fad6a77089e0,2024_09_10,43.34711,-70.48165,Gooch's Beach,2,0.33,0.64,14,13,NIGHT_MOSTLY_CLOUDY,Cross-shore,1
5842041f4e65fad6a77089e2,2024_09_10,40.58433,-73.62953,Lido Beach,1,0.32,0.63,21,20,NIGHT_CLEAR,Cross-shore,1
5842041f4e65fad6a77089e3,2024_09_10,43.163135,-70.61689,Long Sands Beach,2,0.24643,0.50136,14,13,NIGHT_MOSTLY_CLOUDY,Offshore,1
5842041f4e65fad6a77089e4,2024_09_10,40.61695351251805,-73.39376,Gilgo Beach,2,0.4,0.7,21,20,NIGHT_CLEAR,Cross-shore,1
5842041f4e65fad6a77089e5,2024_09_10,40.62530081928036,-73.23827,Robert Moses,1,0.34,0.65,21,21,NIGHT_CLEAR,Cross-shore,1
5842041f4e65fad6a77089e6,2024_09_10,40.64313317632791,-73.15727,Fire Island,1,0.34,0.64,21,21,NIGHT_CLEAR,Cross-shore,1
5842041f4e65fad6a77089e8,2024_09_10,40.76653118828782,-72.7458,Cupsogue,1,0.53,0.84,21,21,NIGHT_CLEAR,Cross-shore,1
5842041f4e65fad6a77089e9,2024_09_10,42.9376373334092,-70.79141,The Wall,2,0.18125,0.47937,14,13,NIGHT_CLOUDY,Offshore,1
5842041f4e65fad6a77089ea,2024_09_10,40.887088,-72.33856,Flys,1,0.45,0.76,20,20,NIGHT_CLEAR,Onshore,1
5842041f4e65fad6a77089eb,2024_09_10,41.0389266436591,-71.91068529316958,Trailer Park,1.3333333333333333,0.59216,0.8306,21,20,NIGHT_THUNDER_SHOWERS,Onshore,1
5842041f4e65fad6a77089ec,2024_09_10,41.039505402729105,-71.9142,Ditch Plains,1,0.33654,0.67307,20,20,NIGHT_THUNDER_SHOWERS,Cross-shore,1
5842041f4e65fad6a77089ee,2024_09_10,40.57633275206492,-73.56895305108567,"West End, Jones Beach",1,0.44,0.75,21,20,NIGHT_CLEAR,Onshore,1
5842041f4e65fad6a77089f1,2024_09_10,41.038286691230795,-71.91991567611694,Poles,1.3333333333333333,0.45271,0.7558,21,20,NIGHT_THUNDER_SHOWERS,Onshore,1
5842041f4e65fad6a77089f3,2024_09_10,40.84077769766295,-72.47989493724765,The Bowl,1,0.49,0.8,20,20,NIGHT_CLEAR,Cross-shore,1
5842041f4e65fad6a77089f4,2024_09_10,40.94235535243154,-72.19286,Main Beach,1,0.48,0.79,21,20,NIGHT_CLEAR,Onshore,1
5842041f4e65fad6a77089f5,2024_09_10,40.58270702399518,-73.67251552079799,Laurelton Blvd.,1,0.03748,0.34773,21,20,NIGHT_OVERCAST,Onshore,1
5842041f4e65fad6a77089f6,2024_09_10,41.033752854071416,-71.93696,Terrace,1.3333333333333333,0.42033,0.71737,21,20,NIGHT_THUNDER_SHOWERS,Onshore,1
5842041f4e65fad6a77089f7,2024_09_10,40.83372943645748,-72.50426173210144,K Road,1,0.59,0.9,20,20,NIGHT_CLEAR,Cross-shore,1
5842041f4e65fad6a77089f8,2024_09_10,40.58456099581507,-73.80730032920837,84th Street,1,0.34,0.64,21,20,NIGHT_OVERCAST,Cross-shore,1
5842041f4e65fad6a77089fa,2024_09_10,40.1319,-74.02788,Sea Girt,2,0.29,0.6,21,20,NIGHT_MOSTLY_CLOUDY,Offshore,1
5842041f4e65fad6a77089fb,2024_09_10,40.54698301868125,-73.9268,Breezy Point,1,0.21,0.51,22,22,NIGHT_MOSTLY_CLOUDY,Cross-shore,1
5842041f4e65fad6a77089fc,2024_09_10,40.152504,-74.02138,Spring Lake,2,0.31,0.61,21,20,NIGHT_MOSTLY_CLOUDY,Offshore,1
5842041f4e65fad6a77089fd,2024_09_10,40.591277,-73.770792,30th - 39th Streets,1,0.26,0.56,21,20,NIGHT_OVERCAST,Cross-shore,1
5842041f4e65fad6a77089fe,2024_09_10,40.18834955871439,-74.00860982500222,Avon,3,0.32,0.63,21,20,NIGHT_MOSTLY_CLOUDY,Offshore,1
5842041f4e65fad6a77089ff,2024_09_10,40.1974229100932,-74.00650533798255,Bradley Beach,2,0.28,0.59,21,20,NIGHT_MOSTLY_CLOUDY,Offshore,1
5842041f4e65fad6a7708a01,2024_09_10,40.17202,-74.01503,"16th Ave., Belmar",2,0.1647,0.4695,21,20,NIGHT_MOSTLY_CLOUDY,Offshore,1
5842041f4e65fad6a7708a02,2024_09_10,40.217443,-73.99982,Asbury Park,2,0.3,0.61,21,20,NIGHT_MOSTLY_CLOUDY,Offshore,1
5842041f4e65fad6a7708a03,2024_09_10,40.229841,-73.99678,Loch Arbour and Deal,1,0.28,0.59,21,20,NIGHT_MOSTLY_CLOUDY,Offshore,1
5842041f4e65fad6a7708a05,2024_09_10,40.41754,-73.97935,Sandy Hook,1,0,0.3,22,22,NIGHT_MOSTLY_CLOUDY,Offshore,1
5842041f4e65fad6a7708a06,2024_09_10,39.36353,-74.40873,Crystals,1,0.26113,0.61309,21,20,NIGHT_CLEAR,Cross-shore,1
5842041f4e65fad6a7708a07,2024_09_10,39.31443,-74.51863,32nd Street,1,0.2373,0.59324,21,20,NIGHT_CLEAR,Cross-shore,1
5842041f4e65fad6a7708a08,2024_09_10,39.327688,-74.49524,Margate Pier Northside,1,0.2373,0.59324,21,20,NIGHT_CLEAR,Cross-shore,1
5842041f4e65fad6a7708a09,2024_09_10,39.336276,-74.47782,Ventnor Pier,1,0.27253,0.61559,21,20,NIGHT_CLEAR,Cross-shore,1
5842041f4e65fad6a7708a0a,2024_09_10,39.35929751441085,-74.41683,States Avenue,1,0.26113,0.61309,21,20,NIGHT_CLEAR,Cross-shore,1
5842041f4e65fad6a7708a0b,2024_09_10,39.37274173278517,-74.40454,Brigantine Jetty,1,0.24753,0.58507,21,20,NIGHT_CLEAR,Cross-shore,1
5842041f4e65fad6a7708a0c,2024_09_10,39.356505,-74.42263,South Carolina Avenue,1,0.24753,0.58507,21,20,NIGHT_CLEAR,Cross-shore,1
5842041f4e65fad6a7708a0d,2024_09_10,39.413485,-74.35476,14th Street North,2,0.32,0.62,21,20,NIGHT_CLEAR,Cross-shore,1
5842041f4e65fad6a7708a0e,2024_09_10,39.531319,-74.263252,The Wooden Jetty,2,0.48456,0.70287,21,20,NIGHT_CLEAR,Offshore,1
5842041f4e65fad6a7708a0f,2024_09_10,39.552472,-74.24344,Holyoke,2,0.2833,0.62326,21,20,NIGHT_CLEAR,Offshore,1
5842041f4e65fad6a7708a10,2024_09_10,39.692364,-74.14068,Hudson Ave.,2,0.34,0.65,21,20,NIGHT_CLEAR,Offshore,1
5842041f4e65fad6a7708a11,2024_09_10,39.79614,-74.09248,Island Beach State Park,2,0.37,0.68,20,20,NIGHT_CLEAR,Offshore,1
5842041f4e65fad6a7708a12,2024_09_10,39.91813588078152,-74.07527,Seaside Park,2,0.42459,0.78711,20,20,NIGHT_CLEAR,Offshore,1
5842041f4e65fad6a7708a15,2024_09_10,39.95745637606704,-74.06736,Ortley Beach,1,0.27089,0.56779,20,20,NIGHT_CLEAR,Offshore,1
5842041f4e65fad6a7708a16,2024_09_10,39.98313468342945,-74.06265685577506,Lavallette,2,0.31,0.62,20,20,NIGHT_CLEAR,Offshore,1
5842041f4e65fad6a7708a17,2024_09_10,40.0699319967757,-74.04145,Bay Head,1,0.3,0.6,20,20,NIGHT_CLEAR,Offshore,1
5842041f4e65fad6a7708a18,2024_09_10,40.094041,-74.034859,Jenkinson's,2,0.31,0.62,20,20,NIGHT_CLEAR,Offshore,1
5842041f4e65fad6a7708a1a,2024_09_10,38.148058,-75.17704,Assateague,2,0.33,0.63,21,21,NIGHT_CLEAR,Offshore,1
5842041f4e65fad6a7708a1b,2024_09_10,38.33889038664497,-75.08017670566352,North End to Ocean City Inlet,2,0.28,0.58,21,21,NIGHT_CLEAR,Offshore,1
5842041f4e65fad6a7708a1c,2024_09_10,38.603993,-75.06271,Indian River Inlet,1,0.17768,0.54489,21,21,NIGHT_CLEAR,Offshore,1
5842041f4e65fad6a7708a1d,2024_09_10,38.460477,-75.05207,Fenwick Island,1,0.12,0.43,21,21,NIGHT_CLEAR,Offshore,1
5842041f4e65fad6a7708a1e,2024_09_10,38.538767,-75.05619,Bethany Beach,1,0.1764,0.54097,21,21,NIGHT_CLEAR,Offshore,1
5842041f4e65fad6a7708a1f,2024_09_10,38.697657,-75.07595,Dewey Beach,1,0.29,0.59,22,22,NIGHT_CLEAR,Offshore,1
5842041f4e65fad6a7708a20,2024_09_10,38.75034741676525,-75.08194,Gordons Pond,1,0,0.37554,22,22,NIGHT_CLEAR,Offshore,1
5842041f4e65fad6a7708a21,2024_09_10,38.767837,-75.08284,Naval Jetties,1,0.17,0.47,22,22,NIGHT_CLEAR,Offshore,1
5842041f4e65fad6a7708a22,2024_09_10,36.81735875786576,-75.96624,Camp Pendleton,2,0.25,0.56,22,21,NIGHT_CLEAR,Offshore,1
5842041f4e65fad6a7708a23,2024_09_10,36.9102212316428,-75.98732471466064,North End,2,0.04,0.35,22,21,NIGHT_CLEAR,Offshore,1
5842041f4e65fad6a7708a24,2024_09_10,36.737117517621314,-75.93924,Sandbridge Beach,2,0.11,0.42,22,21,NIGHT_CLEAR,Offshore,1
5842041f4e65fad6a7708a26,2024_09_10,36.818257440557794,-75.96666,Croatan to Pendleton,2,0.29419,0.59095,22,21,NIGHT_CLEAR,Offshore,1
5842041f4e65fad6a7708a27,2024_09_10,36.84318777204769,-75.9719,South End,2,0.06,0.37,22,21,NIGHT_CLEAR,Offshore,1
5842041f4e65fad6a7708a28,2024_09_10,37.08612627584661,-75.976121638199,Fishermans Island,1,0.052,0.176,22,22,NIGHT_CLEAR,Cross-shore,1
5842041f4e65fad6a7708a38,2024_09_10,35.254619418229026,-75.52074,Cape Hatteras Lighthouse,1,0.39699,0.73337,23,22,NIGHT_CLEAR,Cross-shore,1
5842041f4e65fad6a7708a3a,2024_09_10,35.54572934093336,-75.46477,Waves and Salvo,2,0.37,0.67,23,22,NIGHT_CLEAR,Onshore,1
5842041f4e65fad6a7708a3b,2024_09_10,35.22565892751075,-75.63606,Frisco,2,0.296,0.536,24,23,NIGHT_CLEAR,Offshore,1
5842041f4e65fad6a7708a3c,2024_09_10,35.13086,-75.90591,Ocracoke,1,0.21217,0.56579,25,25,NIGHT_CLEAR,Cross-shore,1
5842041f4e65fad6a7708a3d,2024_09_10,35.34721340158342,-75.50084,Avon Pier,1,0.6432,1.0056,23,22,NIGHT_CLEAR,Onshore,1
5842041f4e65fad6a7708a3f,2024_09_10,35.71680821253768,-75.49243,Pea Island,2,0.32,0.62,24,24,NIGHT_CLEAR,Onshore,1
5842041f4e65fad6a7708a40,2024_09_10,35.97427620657821,-75.62984,Nags Head Pier,2,0.29,0.6,22,22,NIGHT_CLEAR,Offshore,1
5842041f4e65fad6a7708a41,2024_09_10,36.0439998039079,-75.67288,Avalon Pier,2,0.26,0.57,22,22,NIGHT_CLEAR,Offshore,1
5842041f4e65fad6a7708a42,2024_09_10,36.03043116489792,-75.66413,First Street,2,0.29,0.6,22,22,NIGHT_CLEAR,Offshore,1
5842041f4e65fad6a7708a43,2024_09_10,36.06829910590498,-75.6899,Old Station/Laundromats,2,0.26,0.56,22,22,NIGHT_CLEAR,Cross-shore,1
5842041f4e65fad6a7708a44,2024_09_10,36.10126676607491,-75.71107,Kitty Hawk Pier,2,0.28,0.59,22,22,NIGHT_CLEAR,Cross-shore,1
5842041f4e65fad6a7708a45,2024_09_10,36.18220630068973,-75.75013580649097,Duck Pier,2,0.15,0.46,22,21,NIGHT_CLEAR,Offshore,1
5842041f4e65fad6a7708a46,2024_09_10,36.37660668125033,-75.82409701687456,Corolla,2,0.14,0.44,22,21,NIGHT_CLEAR,Offshore,1
5842041f4e65fad6a7708a47,2024_09_10,33.90373404124834,-78.08241431707907,Oak Island,2,0.13,0.43,27,27,NIGHT_CLEAR,Offshore,1
5842041f4e65fad6a7708a48,2024_09_10,33.91108837766468,-78.29653,South Brunswick Beaches,1,0,0.37104,27,27,NIGHT_CLEAR,Offshore,1
5842041f4e65fad6a7708a49,2024_09_10,34.05683595651973,-77.88128,Carolina Beach Pier,1.6666666666666667,0.4868,0.7916,25,25,NIGHT_CLEAR,Cross-shore,1
5842041f4e65fad6a7708a4a,2024_09_10,33.96841191816696,-77.9180242565498,Fort Fisher,1.6666666666666667,0.47637,0.77682,25,25,NIGHT_CLEAR,Cross-shore,1
5842041f4e65fad6a7708a4b,2024_09_10,34.46776662988774,-77.47083,Topsail Beach,3,0.41,0.72,25,24,NIGHT_CLEAR,Offshore,1
5842041f4e65fad6a7708a4c,2024_09_10,34.69270354752445,-76.82854854446575,Iron Steamer,1,0.15,0.46,25,24,NIGHT_CLEAR,Offshore,1
5842041f4e65fad6a7708a4f,2024_09_10,30.85132684893727,-81.42283496231143,Cumberland Island,2,0.87,1.17,28,28,NIGHT_BRIEF_SHOWERS_POSSIBLE,Onshore,1
5842041f4e65fad6a7708a50,2024_09_10,34.686741128540874,-76.47516712138378,Cape Lookout National Seashore,2,0.5,0.81,25,25,NIGHT_CLEAR,Cross-shore,1
5842041f4e65fad6a7708a51,2024_09_10,31.10585419260024,-81.40422767604812,Jekyll Island,2,0.79,1.1,28,28,NIGHT_BRIEF_SHOWERS,Onshore,1
5842041f4e65fad6a7708a52,2024_09_10,31.16212806376699,-81.32512426500224,Harbor Marker Buoys,1,0.82,1.13,28,28,NIGHT_CLEAR,Onshore,1
5842041f4e65fad6a7708a53,2024_09_10,31.20076299997009,-81.32629,Sea Island,1,1,1.31,28,28,NIGHT_CLEAR,Cross-shore,1
5842041f4e65fad6a7708a54,2024_09_10,31.13553222995767,-81.38457634790909,St. Simons Island,3,0.8,1.1,28,28,NIGHT_CLEAR,Cross-shore,1
5842041f4e65fad6a7708a55,2024_09_10,31.33550077186516,-81.28383377408417,Wolf Island,1,0.75,1.05,28,28,NIGHT_CLEAR,Onshore,1
5842041f4e65fad6a7708a56,2024_09_10,31.2704493877174,-81.27324039152315,Little St. Simons Island,1,0.91,1.21,28,28,NIGHT_CLEAR,Onshore,1
5842041f4e65fad6a7708a57,2024_09_10,31.39261761368919,-81.26190520231917,Sapelo Island,1,0.76,1.07,28,28,NIGHT_CLEAR,Onshore,1
5842041f4e65fad6a7708a58,2024_09_10,34.42458783809001,-77.54492,Surf City Pier,3,0.41,0.72,25,24,NIGHT_CLEAR,Cross-shore,1
5842041f4e65fad6a7708a59,2024_09_10,31.4231993614213,-81.24725340591522,Cabretta Island,1,0.76,1.06,28,28,NIGHT_CLEAR,Cross-shore,1
5842041f4e65fad6a7708a5a,2024_09_10,31.46684389030369,-81.2100056410468,Blackbeard Island,1,0.76,1.07,28,28,NIGHT_CLEAR,Cross-shore,1
5842041f4e65fad6a7708a5b,2024_09_10,31.85953587631629,-80.99031310336719,Wassaw Island/South End,0,0.23,0.54,28,28,NIGHT_CLEAR,Cross-shore,1
5842041f4e65fad6a7708a5c,2024_09_10,31.62535662342983,-81.13328352167974,St. Catherines Island,2,0.9,1.2,28,28,NIGHT_CLEAR,Cross-shore,1
5842041f4e65fad6a7708a5d,2024_09_10,31.76502169596568,-81.07655443806622,Ossabaw Island,1,0.85,1.16,28,28,NIGHT_CLEAR,Onshore,1
5842041f4e65fad6a7708a5e,2024_09_10,31.90593619092352,-80.93589231700857,Wassaw Island/North End,2,0.63,0.94,28,28,NIGHT_CLEAR,Cross-shore,1
5842041f4e65fad6a7708a5f,2024_09_10,31.96738675414547,-80.86977980706155,Little Tybee Island,1,0.78,1.09,28,28,NIGHT_CLEAR,Cross-shore,1
5842041f4e65fad6a7708a60,2024_09_10,31.9812255780179,-80.84773973467009,South Tybee Sandbars,1,0.7,1.01,28,28,NIGHT_CLEAR,Onshore,1
5842041f4e65fad6a7708a61,2024_09_10,32.01226,-80.83983,Sugar Shack,1,0.61,0.91,28,28,NIGHT_CLEAR,Onshore,1
5842041f4e65fad6a7708a62,2024_09_10,31.98722842396969,-80.84773,18th St. Jetty,1,0.72646,1.10222,28,28,NIGHT_CLEAR,Onshore,1
5842041f4e65fad6a7708a64,2024_09_10,34.013473721006676,-77.8991,"Alabama Ave., Kure Beach",2,0.42,0.72,27,27,NIGHT_CLEAR,Cross-shore,1
5842041f4e65fad6a7708a65,2024_09_10,34.20859853336924,-77.79293,"C Street, Wrightsville Beach",2,0.37167,0.73273,25,25,NIGHT_CLEAR,Offshore,1
5842041f4e65fad6a7708a66,2024_09_10,32.831,-79.71,Dewees Island,2,0.6,0.91,27,27,NIGHT_CLEAR,Cross-shore,1
5842041f4e65fad6a7708a67,2024_09_10,33.82924423172106,-78.62813,Cherry Grove Pier,1,0.0825,0.3876,27,27,NIGHT_CLEAR,Offshore,1
5842041f4e65fad6a7708a69,2024_09_10,34.27197439666496,-77.74050223196774,Figure Eight and Shell Islands,2,0.40645,0.76751,25,25,NIGHT_CLEAR,Cross-shore,1
5842041f4e65fad6a7708a6b,2024_09_10,33.49041958261793,-79.07666070599386,North End,1,0.39,0.7,27,27,NIGHT_CLEAR,Cross-shore,1
5842041f4e65fad6a7708a6c,2024_09_10,33.39537062495087,-79.13835037835189,The South End,2,0.4,0.7,27,27,NIGHT_CLEAR,Cross-shore,1
5842041f4e65fad6a7708a6d,2024_09_10,33.29001727666697,-79.17190003352977,North Island,2,0.55,0.85,27,27,NIGHT_CLEAR,Cross-shore,1
5842041f4e65fad6a7708a6e,2024_09_10,32.90929771158952,-79.57810400297359,Bull Island,1,0.39,0.69,27,27,NIGHT_CLEAR,Cross-shore,1
5842041f4e65fad6a7708a6f,2024_09_10,31.99153112815895,-80.84543050470074,Tybee Island Pier,0,0.18,0.49,28,28,NIGHT_CLEAR,Onshore,1
5842041f4e65fad6a7708a70,2024_09_10,33.03478144356316,-79.35021028265125,Cape Romain,1,0.63,0.94,27,27,NIGHT_CLEAR,Onshore,1
5842041f4e65fad6a7708a71,2024_09_10,33.43231073271028,-79.11789,The Pier,1,0.32257,0.69476,27,27,NIGHT_CLEAR,Cross-shore,1
5842041f4e65fad6a7708a72,2024_09_10,33.45423621397969,-79.10497798178424,South Litchfield,1,0.47,0.77,27,27,NIGHT_CLEAR,Cross-shore,1
5842041f4e65fad6a7708a73,2024_09_10,34.19316590251396,-77.8045,Crystal Pier,1.6666666666666667,0.41498,0.74191,25,25,NIGHT_CLEAR,Cross-shore,1
5842041f4e65fad6a7708a74,2024_09_10,33.68628680045124,-78.88346,Myrtle Beach,2,0.37,0.68,27,27,NIGHT_CLEAR,Offshore,1
5842041f4e65fad6a7708a75,2024_09_10,32.66166297145973,-79.91951806398808,10th Street,2,0.53,0.83,27,27,NIGHT_CLEAR,Cross-shore,1
5842041f4e65fad6a7708a76,2024_09_10,33.16729555197199,-79.19829236867845,South Island,2,0.6,0.91,27,27,NIGHT_CLEAR,Cross-shore,1
5842041f4e65fad6a7708a77,2024_09_10,32.595,-80.088,Kiawah Island/Seabrook Island,1,0.32,0.63,27,27,NIGHT_CLEAR,Offshore,1
5842041f4e65fad6a7708a78,2024_09_10,32.51356930575787,-80.28223,Edisto Beach,1,0.25207,0.65007,27,27,NIGHT_CLEAR,Cross-shore,1
5842041f4e65fad6a7708a79,2024_09_10,32.366270751262,-80.43911,Hunting Island,1,0.56961,0.9411,28,28,NIGHT_CLEAR,Onshore,1
5842041f4e65fad6a7708a7a,2024_09_10,32.65337734408365,-79.93983,Folly Beach Pier,1,0.38333,0.67845,26,25,NIGHT_CLEAR,Offshore,1
5842041f4e65fad6a7708a7b,2024_09_10,33.41209545530049,-79.13026341393126,South Jetty,2,0.4,0.7,27,27,NIGHT_CLEAR,Cross-shore,1
5842041f4e65fad6a7708a7c,2024_09_10,32.31115640606869,-80.48564,Fripp Island,1,0.35104,0.74108,28,28,NIGHT_CLEAR,Cross-shore,1
5842041f4e65fad6a7708a7d,2024_09_10,32.14365226036034,-80.74402,Hilton Head Island,1,0.26732,0.57952,28,28,NIGHT_CLEAR,Cross-shore,1
5842041f4e65fad6a7708a7e,2024_09_10,29.70405364733744,-81.22426,Matanzas Inlet,2,0.37964,0.65013,29,28,NIGHT_THUNDER_STORMS,Onshore,1
5842041f4e65fad6a7708a81,2024_09_10,29.76878537149042,-81.25109,Crescent Beach,2,0.5,0.8,29,29,NIGHT_THUNDER_STORMS,Onshore,1
5842041f4e65fad6a7708a82,2024_09_10,32.80251718689188,-79.73221919500764,Wild Dunes,1,0.48,0.78,27,27,NIGHT_CLEAR,Cross-shore,1
5842041f4e65fad6a7708a84,2024_09_10,32.75733539419244,-79.83258856064796,Bert's Bar,1,0.17,0.48,27,27,NIGHT_CLEAR,Cross-shore,1
5842041f4e65fad6a7708a85,2024_09_10,32.66829212943039,-79.90735,Washout,2,0.41358,0.75659,26,25,NIGHT_CLEAR,Cross-shore,1
5842041f4e65fad6a7708a86,2024_09_10,32.78452968219067,-79.7854,The Pier/Windjammer,1,0.59,0.89,27,27,NIGHT_CLEAR,Cross-shore,1
5842041f4e65fad6a7708a87,2024_09_10,29.86618162637438,-81.2662150259608,Anastasia Park (The Entrance),2,0.48,0.79,29,29,NIGHT_THUNDER_STORMS,Onshore,1
5842041f4e65fad6a7708a89,2024_09_10,29.89149785916623,-81.2723223244215,Blowholes,1,0.6,0.9,29,27,NIGHT_LIGHT_SHOWERS_POSSIBLE,Onshore,1
5842041f4e65fad6a7708a8a,2024_09_10,30.16227112983666,-81.35502907491218,Crossroads,1,0.87,1.18,29,27,NIGHT_LIGHT_SHOWERS_POSSIBLE,Onshore,1
5842041f4e65fad6a7708a8b,2024_09_10,30.19308537587637,-81.36314247820911,Sawgrass,1,0.87,1.17,29,27,NIGHT_LIGHT_SHOWERS_POSSIBLE,Onshore,1
5842041f4e65fad6a7708a8c,2024_09_10,30.34696027700899,-81.39451,18th Street,1,0.85075,1.21551,29,29,NIGHT_BRIEF_SHOWERS_POSSIBLE,Onshore,1
5842041f4e65fad6a7708a8d,2024_09_10,30.381793,-81.39686,Mayport Poles,2,0.92,1.23,29,29,NIGHT_BRIEF_SHOWERS,Onshore,1
5842041f4e65fad6a7708a8e,2024_09_10,30.390516,-81.395591,Blue Roofs,2,0.96,1.11,29,29,NIGHT_BRIEF_SHOWERS,Onshore,1
5842041f4e65fad6a7708a8f,2024_09_10,30.40517712722211,-81.40074116169004,Huguenot Park (North Jetty),2,0.92,1.22,29,29,NIGHT_BRIEF_SHOWERS,Onshore,1
5842041f4e65fad6a7708a90,2024_09_10,30.47788918872762,-81.41055821335078,Talbot Island,1,0.82731,0.98673,29,28,NIGHT_BRIEF_SHOWERS,Onshore,1
5842041f4e65fad6a7708a91,2024_09_10,30.66753984549761,-81.42983,Main Beach,1,0.7,1,28,28,NIGHT_BRIEF_SHOWERS_POSSIBLE,Onshore,1
5842041f4e65fad6a7708a92,2024_09_10,30.69983581209126,-81.42483,Ft. Clinch State Park,2,0.93,1.23,28,28,NIGHT_BRIEF_SHOWERS_POSSIBLE,Onshore,1
5842041f4e65fad6a7708a93,2024_09_10,30.62059700777582,-81.437252942757425,Amelia Pier,1,0.63,0.94,28,28,NIGHT_BRIEF_SHOWERS,Onshore,1
5842041f4e65fad6a7708a95,2024_09_10,28.95125170929067,-80.83837,Bethune Beach,2,0.46,0.76,29,29,NIGHT_LIGHT_SHOWERS,Onshore,1
5842041f4e65fad6a7708a96,2024_09_10,29.03874288905362,-80.8933424949646,Flagler Ave.,3,0.42,0.72,28,27,NIGHT_OVERCAST,Onshore,1
5842041f4e65fad6a7708a98,2024_09_10,30.332297686992757,-81.39319,Atlantic Beach,1,0.7004,1.08951,29,29,NIGHT_BRIEF_SHOWERS_POSSIBLE,Onshore,1
5842041f4e65fad6a7708a99,2024_09_10,29.87530059952514,-81.26757958498874,Middles,1,0.59,0.9,29,27,NIGHT_LIGHT_SHOWERS_POSSIBLE,Onshore,1
5842041f4e65fad6a7708a9a,2024_09_10,29.146475528378218,-80.96347,Sunglow Pier,2,0.43,0.74,29,29,NIGHT_BRIEF_SHOWERS_POSSIBLE,Onshore,1
5842041f4e65fad6a7708a9b,2024_09_10,30.02251238001095,-81.32183077344881,Gate Station,1,0.59,0.9,29,27,NIGHT_LIGHT_SHOWERS_POSSIBLE,Onshore,1
5842041f4e65fad6a7708a9c,2024_09_10,29.33976495417899,-81.0606,Bicentennial Park,2,0.43,0.74,29,29,NIGHT_BRIEF_SHOWERS_POSSIBLE,Onshore,1
5842041f4e65fad6a7708a9d,2024_09_10,29.08257353385602,-80.92137,Ponce Inlet,3,0.7,1,29,28,NIGHT_OVERCAST,Onshore,1
5842041f4e65fad6a7708a9f,2024_09_10,27.862962005874696,-80.44668,Sebastian Inlet,2,0.66941,0.82553,30,29,NIGHT_OVERCAST,Onshore,1
5842041f4e65fad6a7708aa0,2024_09_10,30.292626880836885,-81.38579,Jacksonville Beach Pier,2,0.67,0.98,29,28,NIGHT_BRIEF_SHOWERS_POSSIBLE,Cross-shore,1
5842041f4e65fad6a7708aa2,2024_09_10,29.21860397328164,-81.0019,Daytona Beach,2,0.56259,0.86013,29,29,NIGHT_BRIEF_SHOWERS_POSSIBLE,Onshore,1
5842041f4e65fad6a7708aa3,2024_09_10,27.47531255634912,-80.28914,Ft. Pierce Inlet,2,0.61627,0.91107,30,29,NIGHT_CLOUDY,Cross-shore,1
5842041f4e65fad6a7708aa4,2024_09_10,29.29239875585548,-81.0386,Ormond Beach,2,0.64,0.94,29,29,NIGHT_BRIEF_SHOWERS_POSSIBLE,Onshore,1
5842041f4e65fad6a7708aa5,2024_09_10,29.91629441498523,-81.28801,Vilano,1,0.59,0.9,29,29,NIGHT_LIGHT_SHOWERS_POSSIBLE,Onshore,1
5842041f4e65fad6a7708aa6,2024_09_10,27.876230736320828,-80.4551,Spanish House,2,0.53,0.84,30,29,NIGHT_LIGHT_SHOWERS,Cross-shore,1
5842041f4e65fad6a7708aa7,2024_09_10,28.64397251741012,-80.62329,Playalinda,2,0.49,0.79,29,29,NIGHT_LIGHT_RAIN,Onshore,1
5842041f4e65fad6a7708aa8,2024_09_10,28.406142,-80.58886,Jetty Park,2,0.17,0.48,29,29,NIGHT_LIGHT_SHOWERS,Cross-shore,1
5842041f4e65fad6a7708aa9,2024_09_10,28.49083243010974,-80.58001715986319,Kennedy Space Center,1,0.4,0.71,29,29,NIGHT_LIGHT_SHOWERS,Cross-shore,1
5842041f4e65fad6a7708aab,2024_09_10,28.336757013024314,-80.60568,Lori Wilson Park,1.3333333333333333,0.39,0.69,30,29,NIGHT_THUNDER_STORMS,Onshore,1
5842041f4e65fad6a7708aad,2024_09_10,27.76388821683801,-80.3962958234027,Wabasso,2,0.5,0.81,29,29,NIGHT_OVERCAST,Onshore,1
5842041f4e65fad6a7708aae,2024_09_10,27.521583322459,-80.30987620353699,P.V. Martin's,2,0.43,0.74,30,29,NIGHT_CLOUDY,Onshore,1
5842041f4e65fad6a7708aaf,2024_09_10,27.644996047720046,-80.35242676734924,Riomar,1,0.5,0.8,30,29,NIGHT_OVERCAST,Onshore,1
5842041f4e65fad6a7708ab1,2024_09_10,27.670121806659253,-80.36026954650879,Vero Pier,2,0.52,0.83,30,29,NIGHT_OVERCAST,Onshore,1
5842041f4e65fad6a7708ab2,2024_09_10,28.047705032021486,-80.54680109024048,Spessard Holland,2,0.49426,0.80271,30,29,NIGHT_LIGHT_SHOWERS,Cross-shore,1
5842041f4e65fad6a7708ab7,2024_09_10,28.135426226217064,-80.57895541191101,The Radisson,2,0.54,0.84,30,29,NIGHT_THUNDER_STORMS,Cross-shore,1
5842041f4e65fad6a7708ab8,2024_09_10,28.26664623907351,-80.60448467731476,Picnic Tables,2,0.54,0.85,30,30,NIGHT_THUNDER_STORMS,Cross-shore,1
5842041f4e65fad6a7708ab9,2024_09_10,28.200840983180232,-80.59493,Perkins,2,0.52,0.83,30,29,NIGHT_THUNDER_STORMS,Cross-shore,1
5842041f4e65fad6a7708aba,2024_09_10,28.185652556759443,-80.59154,RC's,2,0.51,0.81,30,29,NIGHT_THUNDER_STORMS,Cross-shore,1
5842041f4e65fad6a7708abc,2024_09_10,28.252541991968208,-80.60269,2nd Light,2,0.51,0.82,30,30,NIGHT_THUNDER_STORMS,Cross-shore,1
5842041f4e65fad6a7708abd,2024_09_10,27.901611308716447,-80.4697,Bonsteel Park,2,0.55,0.86,30,29,NIGHT_LIGHT_SHOWERS,Cross-shore,1
5842041f4e65fad6a7708abe,2024_09_10,28.2423394657007,-80.60104,Hangar's Beach,2,0.51,0.81,30,29,NIGHT_THUNDER_STORMS,Cross-shore,1
5842041f4e65fad6a7708abf,2024_09_10,27.34018197146798,-80.23278,Walton Rocks,2,0.6196,0.92107000000000006,30,29,NIGHT_OVERCAST,Onshore,1
5842041f4e65fad6a7708ac0,2024_09_10,25.80407401902198,-80.1222227290161,30th Street,1,0,0.25,30,30,NIGHT_CLOUDY,Onshore,1
5842041f4e65fad6a7708ac1,2024_09_10,25.76570280215999,-80.12983,South Beach,0,0,0.13,31,29,NIGHT_CLOUDY,Onshore,1
5842041f4e65fad6a7708ac2,2024_09_10,26.058022412197,-80.10873562327671,Dania Pier,1,0,0.3,30,30,NIGHT_OVERCAST,Onshore,1
5842041f4e65fad6a7708ac3,2024_09_10,26.04825428257198,-80.11153150137932,Franklin Street,2,0.05,0.36,30,30,NIGHT_OVERCAST,Onshore,1
5842041f4e65fad6a7708ac4,2024_09_10,26.09086461141498,-80.10728410144065,John Lloyd State Park,1,0.05,0.35,30,30,NIGHT_OVERCAST,Onshore,1
5842041f4e65fad6a7708ac5,2024_09_10,26.0971397396683,-80.10298876028907,Spoils,0,0,0.3,30,30,NIGHT_OVERCAST,Onshore,1
5842041f4e65fad6a7708ac6,2024_09_10,26.18920557475824,-80.09224470008016,Commercial Pier,1,0.03,0.33,30,30,NIGHT_CLOUDY,Onshore,1
5842041f4e65fad6a7708ac7,2024_09_10,28.289851576629342,-80.6063,16th St. South,2,0.44,0.75,30,29,NIGHT_THUNDER_STORMS,Onshore,1
5842041f4e65fad6a7708ac8,2024_09_10,26.23467460139735,-80.0874,Pompano Pier,1,0,0.17,31,29,NIGHT_CLOUDY,Onshore,1
5842041f4e65fad6a7708acb,2024_09_10,26.44179551370651,-80.05928855229453,Atlantic Dunes Park,0,0.17398,0.3454,31,29,NIGHT_OVERCAST,Onshore,1
5842041f4e65fad6a7708acd,2024_09_10,26.62215707439298,-80.03599398392342,Hilton Hotel Backyard,1,0.25,0.55,31,29,NIGHT_OVERCAST,Onshore,1
5842041f4e65fad6a7708ace,2024_09_10,26.96418190555367,-80.07769168113562,Coral Cove Park,3,0.46,0.77,30,29,NIGHT_CLOUDY,Onshore,1
5842041f4e65fad6a7708acf,2024_09_10,26.7029496416037,-80.03184,Palm Beach,2,0.31,0.61,31,29,NIGHT_OVERCAST,Onshore,1
5842041f4e65fad6a7708ad0,2024_09_10,26.97679878167375,-80.08141631388132,Blowing Rocks,2,0.4,0.7,30,29,NIGHT_CLOUDY,Onshore,1
5842041f4e65fad6a7708ad2,2024_09_10,26.45661880078336,-80.057,Delray Beach,0,0,0.25,31,29,NIGHT_OVERCAST,Onshore,1
5842041f4e65fad6a7708ad3,2024_09_10,27.205685534312778,-80.16826629638672,Fletcher's,2,0.4,0.7,30,29,NIGHT_OVERCAST,Onshore,1
5842041f4e65fad6a7708ad5,2024_09_10,26.5848450388814,-80.03649735753257,Lantana Public Beach,1,0.29,0.59,31,29,NIGHT_OVERCAST,Onshore,1
5842041f4e65fad6a7708ad6,2024_09_10,25.77468432731322,-80.12884045797499,5th Street,1,0,0.26,30,30,NIGHT_CLOUDY,Onshore,1
5842041f4e65fad6a7708ad7,2024_09_10,25.795157990715975,-80.12527585029602,21st Street,1,0,0.24,30,30,NIGHT_CLOUDY,Onshore,1
5842041f4e65fad6a7708ad8,2024_09_10,25.897806453088073,-80.1211827993393,Haulover Inlet (South Jetty),1,0.04,0.34,30,30,NIGHT_OVERCAST,Onshore,1
5842041f4e65fad6a7708ad9,2024_09_10,25.90147392328634,-80.12110769748688,Haulover Inlet (North Jetty),1,0.04,0.34,30,30,NIGHT_OVERCAST,Onshore,1
5842041f4e65fad6a7708ada,2024_09_10,25.87049374242476,-80.11828560342356,85th Street,1,0,0.27,30,30,NIGHT_CLOUDY,Onshore,1
5842041f4e65fad6a7708adb,2024_09_10,26.25486382031396,-80.0805,Hillsboro Inlet,2,0.10462,0.42895,31,29,NIGHT_CLOUDY,Onshore,1
5842041f4e65fad6a7708add,2024_09_10,26.29705672965111,-80.07612393274484,Hillsboro Beach,1,0.01,0.32,31,29,NIGHT_CLOUDY,Onshore,1
5842041f4e65fad6a7708ade,2024_09_10,26.36569956413266,-80.06717936869391,Red Reef Park,1,0.13,0.43,31,29,NIGHT_CLOUDY,Onshore,1
5842041f4e65fad6a7708adf,2024_09_10,26.54593873498907,-80.04104359585143,Boynton Beach Inlet (Northside),1,0.09,0.39,31,29,NIGHT_OVERCAST,Onshore,1
5842041f4e65fad6a7708ae0,2024_09_10,26.92746505629809,-80.06721138954163,Corners,1,0.3008,0.6076,31,29,NIGHT_CLOUDY,Onshore,1
5842041f4e65fad6a7708ae1,2024_09_10,26.76983179886943,-80.03413481937037,The Cove,2,0.32,0.63,31,29,NIGHT_OVERCAST,Onshore,1
5842041f4e65fad6a7708ae3,2024_09_10,26.39224485175123,-80.0650461233983,Japanese Rock,2,0.1,0.4,31,29,NIGHT_OVERCAST,Onshore,1
5842041f4e65fad6a7708ae4,2024_09_10,29.94810928551321,-85.42545434612366,Mexico Beach,1,0,0.18,29,29,NIGHT_CLOUDY,Offshore,1
5842041f4e65fad6a7708ae5,2024_09_10,30.11752500931267,-85.7306,Shell Island,0,0,0.23,29,29,NIGHT_CLOUDY,Offshore,1
5842041f4e65fad6a7708ae7,2024_09_10,29.94901514702268,-85.43042978529013,D.J.'s,1,0,0.18,29,29,NIGHT_CLOUDY,Offshore,1
5842041f4e65fad6a7708ae8,2024_09_10,30.12396111446713,-85.73637,St. Andrew's Park,0,0,0.23,29,28,NIGHT_CLOUDY,Offshore,1
5842041f4e65fad6a7708ae9,2024_09_10,30.16781531760227,-85.79604918824084,Spinnaker,1,0,0.24,29,28,NIGHT_CLOUDY,Offshore,1
5842041f4e65fad6a7708aea,2024_09_10,30.18877050526983,-85.83243530466363,Wood Pier,1,0,0.24,29,28,NIGHT_CLOUDY,Offshore,1
5842041f4e65fad6a7708aeb,2024_09_10,30.2676205895555,-85.9938578144113,Inlet Beach Pier,0,0,0.27,29,28,NIGHT_CLEAR,Offshore,1
5842041f4e65fad6a7708aec,2024_09_10,30.31815542759119,-86.1383771867044,Bud and Alley's,1,0,0.28,29,28,NIGHT_CLEAR,Offshore,1
5842041f4e65fad6a7708aed,2024_09_10,30.32686082481946,-86.16650590275447,Grayton Beach,1,0.02,0.33,29,28,NIGHT_CLEAR,Offshore,1
5842041f4e65fad6a7708aee,2024_09_10,30.33661488976303,-86.20094,Blue Mountain Beach,1,0,0.29,29,28,NIGHT_CLEAR,Offshore,1
5842041f4e65fad6a7708aef,2024_09_10,30.37677202831587,-86.38513,Pompano Joe's,1,0.07,0.38,29,28,NIGHT_CLEAR,Offshore,1
5842041f4e65fad6a7708af0,2024_09_10,30.37429731725911,-86.36687,Seascape,1,0.01,0.31,29,28,NIGHT_CLEAR,Cross-shore,1
5842041f4e65fad6a7708af1,2024_09_10,30.382815988547186,-86.45839,The Back Porch,1,0.11,0.42,29,28,NIGHT_CLEAR,Offshore,1
5842041f4e65fad6a7708af2,2024_09_10,30.21207176798612,-85.87989730830542,Panama City Pier,0,0,0.26,29,28,NIGHT_CLEAR,Offshore,1
5842041f4e65fad6a7708af3,2024_09_10,30.37521499110326,-86.3717,Whale's Tail,2,0.02,0.33,29,28,NIGHT_CLEAR,Offshore,1
5842041f4e65fad6a7708af4,2024_09_10,30.38120596658251,-86.43046,Old Crystal Pier,1,0.02,0.33,29,28,NIGHT_CLEAR,Offshore,1
5842041f4e65fad6a7708af5,2024_09_10,30.38090573159031,-86.50655,Jetty East,1,0.04,0.34,29,28,NIGHT_CLEAR,Cross-shore,1
5842041f4e65fad6a7708af6,2024_09_10,30.37584509640838,-86.50563,HMO's,1,0.04,0.35,29,28,NIGHT_CLEAR,Cross-shore,1
5842041f4e65fad6a7708af7,2024_09_10,30.38124006131522,-86.50052,Two By Fours,1,0.05,0.36,29,28,NIGHT_CLEAR,Cross-shore,1
5842041f4e65fad6a7708af8,2024_09_10,30.38250751017554,-86.45776,The Pumphouse,2,0.06,0.36,29,28,NIGHT_CLEAR,Cross-shore,1
5842041f4e65fad6a7708af9,2024_09_10,30.38655981578935,-86.52475,NCO Club,1,0.04,0.34,29,28,NIGHT_CLEAR,Cross-shore,1
5842041f4e65fad6a7708afa,2024_09_10,30.39024516541047,-86.59341,Okaloosa Pier,1,0.04,0.35,29,28,NIGHT_CLEAR,Offshore,1
5842041f4e65fad6a7708afb,2024_09_10,30.39281125722673,-86.59766,Dead Man's,1,0.15,0.46,29,28,NIGHT_CLEAR,Cross-shore,1
5842041f4e65fad6a7708afc,2024_09_10,30.32703176167034,-87.14196,Pensacola Pier,1,0.26,0.56,29,29,NIGHT_THUNDER_STORMS,Cross-shore,1
5842041f4e65fad6a7708afd,2024_09_10,30.37920054094992,-86.85583,Navarre Beach,0,0.056,0.296,29,28,NIGHT_THUNDER_STORMS,Cross-shore,1
5842041f4e65fad6a7708afe,2024_09_10,30.39491626029151,-86.61248,Blue Horizon Motel,1,0.14,0.45,29,28,NIGHT_CLEAR,Cross-shore,1
5842041f4e65fad6a7708aff,2024_09_10,30.29345899260828,-87.43547,First Parking Lot,1,0.25,0.56,29,29,NIGHT_THUNDER_STORMS,Cross-shore,1
5842041f4e65fad6a7708b00,2024_09_10,30.29767401311303,-87.41362,Johnsons Beach,1,0.26,0.57,29,29,NIGHT_THUNDER_STORMS,Cross-shore,1
5842041f4e65fad6a7708b01,2024_09_10,30.29513397370759,-87.42642,Sandy Key,1,0.25,0.56,29,29,NIGHT_THUNDER_STORMS,Cross-shore,1
5842041f4e65fad6a7708b03,2024_09_10,30.377504907388026,-86.86444,Navarre Pier,1,0.09,0.39,29,28,NIGHT_LIGHT_RAIN,Cross-shore,1
5842041f4e65fad6a7708b04,2024_09_10,30.31482647791307,-87.26164,Pickens Point Dunes,0,0.26,0.57,29,29,NIGHT_THUNDER_STORMS,Cross-shore,1
5842041f4e65fad6a7708b05,2024_09_10,30.32632110836516,-87.16019503253068,Slabs,1,0.28,0.58,29,29,NIGHT_THUNDER_STORMS,Cross-shore,1
5842041f4e65fad6a7708b06,2024_09_10,30.32739721382043,-87.30406515493348,Pickens Point,1,0.27,0.58,29,29,NIGHT_THUNDER_STORMS,Offshore,1
5842041f4e65fad6a7708b07,2024_09_10,30.27406893266753,-87.54367,Bungalows,1,0.3,0.6,29,29,NIGHT_THUNDER_STORMS,Cross-shore,1
5842041f4e65fad6a7708b08,2024_09_10,27.99627311846992,-82.82942,880,0,0,0.15418,31,31,NIGHT_CLEAR,Offshore,1
5842041f4e65fad6a7708b09,2024_09_10,27.97779860371595,-82.83246509090527,Pier 60,0,0,0.15,31,31,NIGHT_CLEAR,Offshore,1
5842041f4e65fad6a7708b0a,2024_09_10,27.96296387618043,-82.8332635965418,Sand Key,0,0,0.15,31,31,NIGHT_CLEAR,Offshore,1
5842041f4e65fad6a7708b0b,2024_09_10,27.92492619212885,-82.8449122845279,Belleair,0,0,0.15,31,31,NIGHT_CLEAR,Offshore,1
5842041f4e65fad6a7708b0c,2024_09_10,27.882,-82.854,Indian Rocks Beach,1,0,0.16,31,31,NIGHT_CLEAR,Offshore,1
5842041f4e65fad6a7708b0d,2024_09_10,27.83106104966094,-82.83550218771384,Redington Breakwater,1,0,0.16,31,31,NIGHT_CLEAR,Offshore,1
5842041f4e65fad6a7708b0e,2024_09_10,27.74369029906206,-82.76053473435867,Middle Jetty,0,0,0.15,31,31,NIGHT_CLEAR,Offshore,1
5842041f4e65fad6a7708b0f,2024_09_10,27.82174178852146,-82.83148664631841,Redington Pier,0,0,0.15,31,31,NIGHT_CLEAR,Offshore,1
5842041f4e65fad6a7708b10,2024_09_10,27.31496308261514,-82.5830466912004,Lido Beach,0,0,0.15,31,31,NIGHT_CLEAR,Offshore,1
5842041f4e65fad6a7708b11,2024_09_10,27.31122010159892,-82.57833234007632,Coolidge,0,0,0.15,31,31,NIGHT_CLEAR,Offshore,1
5842041f4e65fad6a7708b12,2024_09_10,27.26471672017615,-82.55464835167173,Siesta Key,0,0,0.11,31,31,NIGHT_CLEAR,Offshore,1
5842041f4e65fad6a7708b13,2024_09_10,27.24638693488133,-82.53809115716797,Stickney Point,0,0,0.13,31,31,NIGHT_CLEAR,Offshore,1
5842041f4e65fad6a7708b14,2024_09_10,27.21907878229092,-82.51813937562073,Turtles,0,0,0.13,31,31,NIGHT_CLEAR,Offshore,1
5842041f4e65fad6a7708b15,2024_09_10,27.11375765852028,-82.47039,Venice Jetties North,0,0,0.11,31,31,NIGHT_CLEAR,Offshore,1
5842041f4e65fad6a7708b16,2024_09_10,27.111485758834025,-82.46757,Venice Jetties South,0,0,0.11,31,31,NIGHT_CLEAR,Offshore,1
5842041f4e65fad6a7708b17,2024_09_10,27.07249378831575,-82.4530285256104,Venice Pier,0,0,0.13,31,31,NIGHT_CLEAR,Offshore,1
5842041f4e65fad6a7708b19,2024_09_10,27.49680446426314,-82.7140145455959,Holmes Beach Pier,0,0,0.14,31,31,NIGHT_CLEAR,Offshore,1
5842041f4e65fad6a7708b1a,2024_09_10,27.7390348493064,-82.75763,Sunset Beach,0,0,0.15,31,31,NIGHT_CLEAR,Offshore,1
5842041f4e65fad6a7708b1b,2024_09_10,26.80347307599041,-82.28564775623539,Gasparilla Point,0,0,0.11,30,30,NIGHT_CLEAR,Offshore,1
5842041f4e65fad6a7708b1c,2024_09_10,27.45365831548911,-82.69609,Coquina Jetties,0,0,0.14,31,31,NIGHT_CLEAR,Offshore,1
5842041f4e65fad6a7708b1d,2024_09_10,27.46077315206043,-82.69924,Twin Piers,0,0,0.11,31,31,NIGHT_CLEAR,Offshore,1
5842041f4e65fad6a7708b1e,2024_09_10,26.91007316019612,-82.35352,Englewood,0,0,0.06,31,31,NIGHT_CLEAR,Offshore,1
5842041f4e65fad6a7708b1f,2024_09_10,26.88221101560038,-82.3359828282636,Knight's Point,0,0,0.11,31,31,NIGHT_CLEAR,Offshore,1
5842041f4e65fad6a7708b20,2024_09_10,26.51219285784982,-82.1928203289264,Tween Waters,0,0,0.11,30,30,NIGHT_THUNDER_SHOWERS,Offshore,1
5842041f4e65fad6a7708b21,2024_09_10,26.55130241615096,-82.20222762415648,Redfish Pass,0,0,0.11,30,30,NIGHT_THUNDER_SHOWERS,Offshore,1
5842041f4e65fad6a7708b22,2024_09_10,26.71713432926596,-82.26287777058234,Boca Grande,0,0,0.12,30,30,NIGHT_CLEAR,Offshore,1
5842041f4e65fad6a7708b23,2024_09_10,26.47856785808584,-82.181288592828,Blind Pass,0,0,0.11,30,30,NIGHT_THUNDER_SHOWERS,Offshore,1
5842041f4e65fad6a7708b24,2024_09_10,26.25358330618783,-81.82429246081317,The Wall,0,0,0.09,30,30,NIGHT_CLEAR,Offshore,1
5842041f4e65fad6a7708b25,2024_09_10,26.17456407516186,-81.81588575623482,Doctor's Pass,0,0,0.09,30,30,NIGHT_CLEAR,Offshore,1
5842041f4e65fad6a7708b26,2024_09_10,27.427134501874612,-82.68110766159296,Whitney Beach,0,0,0.15,31,31,NIGHT_CLEAR,Offshore,1
5842041f4e65fad6a7708b27,2024_09_10,26.17300183052463,-81.81515842430267,Doctor's Pass (South Jetty),0,0,0.09,30,30,NIGHT_CLEAR,Offshore,1
5842041f4e65fad6a7708b28,2024_09_10,27.73496421495629,-82.75268962468695,Upham Beach Park,0,0,0.15,31,31,NIGHT_CLEAR,Offshore,1
5842041f4e65fad6a7708b29,2024_09_10,26.13144856766723,-81.8090395116521,Naples Pier,0,0,0.07,30,30,NIGHT_CLEAR,Offshore,1
5842041f4e65fad6a7708b2a,2024_09_10,20.63474,-156.45211,Little Beach,2,0.1,0.4,27,27,NIGHT_CLEAR,Cross-shore,1
5842041f4e65fad6a7708b2b,2024_09_10,20.613,-156.438,Dumps,2,0.22,0.53,27,27,NIGHT_CLEAR,Onshore,1
5842041f4e65fad6a7708b2c,2024_09_10,22.216,-159.502,Hanalei Bay,4,1.89,2.26,27,27,NIGHT_CLEAR,Onshore,1
5842041f4e65fad6a7708b2d,2024_09_10,22.225,-159.567,Ha'Ena Bay (Cannons/Tunnels),3,1.47,1.76,26,26,NIGHT_CLEAR,Cross-shore,1
5842041f4e65fad6a7708b2f,2024_09_10,22.148,-159.301,Anahola Bay,3,1.06,1.27,27,27,NIGHT_CLEAR,Onshore,1
5842041f4e65fad6a7708b30,2024_09_10,21.872,-159.462,Poipu Outer Reef,3,1.03,1.24,27,27,NIGHT_CLEAR,Offshore,1
5842041f4e65fad6a7708b31,2024_09_10,21.936,-159.652,Pakala,3,0.33,0.64,27,27,NIGHT_MOSTLY_CLEAR,Onshore,1
5842041f4e65fad6a7708b32,2024_09_10,21.272,-157.832,Populars,3,0.46,0.76,26,25,NIGHT_MOSTLY_CLEAR,Cross-shore,1
5842041f4e65fad6a7708b33,2024_09_10,21.26841992117695,-157.82329,Publics,3,0.61,0.92,26,25,NIGHT_MOSTLY_CLEAR,Cross-shore,1
5842041f4e65fad6a7708b34,2024_09_10,21.25460513357954,-157.79432,Black Point,3,0.74999,1.08197,27,27,NIGHT_CLEAR,Offshore,1
5842041f4e65fad6a7708b35,2024_09_10,21.27394674233747,-157.82777,Canoes,3,0.81169,1.25142,26,25,NIGHT_MOSTLY_CLEAR,Cross-shore,1
5842041f4e65fad6a7708b36,2024_09_10,21.273658410008455,-157.8263,Queen's,2,0.23,0.53,26,25,NIGHT_MOSTLY_CLEAR,Cross-shore,1
5842041f4e65fad6a7708b37,2024_09_10,20.869,-156.679,Lahaina Harbor - Breakwall,3,0.31,0.62,27,27,NIGHT_CLEAR,Onshore,1
5842041f4e65fad6a7708b38,2024_09_10,21.277,-157.841,Kaiser's,3,0.45022,0.75394,26,25,NIGHT_MOSTLY_CLEAR,Cross-shore,1
5842041f4e65fad6a7708b39,2024_09_10,21.280537020769913,-157.84107,Rockpiles,3,0.39,0.7,26,25,NIGHT_MOSTLY_CLEAR,Cross-shore,1
5842041f4e65fad6a7708b3a,2024_09_10,21.2745,-157.8395,Four's,3,0.46,0.76,27,27,NIGHT_MOSTLY_CLEAR,Cross-shore,1
5842041f4e65fad6a7708b3b,2024_09_10,21.576,-158.282,Kaena Point,2,0.55,0.85,27,27,NIGHT_CLEAR,Onshore,1
5842041f4e65fad6a7708b3c,2024_09_10,21.31110306220024,-157.6590697786346,Makapu'u,2,0.18,0.49,27,27,NIGHT_CLEAR,Onshore,1
5842041f4e65fad6a7708b3d,2024_09_10,21.276618032562773,-157.83386,Three's,3,0.54409,0.98382,26,25,NIGHT_MOSTLY_CLEAR,Cross-shore,1
5842041f4e65fad6a7708b3f,2024_09_10,39.63537452931482,-123.7858735430881,Westport,3,0.59,0.89,18,18,NIGHT_CLEAR,Onshore,1
5842041f4e65fad6a7708b40,2024_09_10,39.47339314374171,-123.8053109861082,MacKerricher,3,0.71,1.01,18,18,NIGHT_MOSTLY_CLOUDY,Onshore,1
5842041f4e65fad6a7708b41,2024_09_10,39.30271935445495,-123.79757,Mendocino Township,2,0.22,0.52,18,18,NIGHT_MOSTLY_CLEAR,Offshore,1
5842041f4e65fad6a7708b42,2024_09_10,21.281416779283845,-157.8457,Ala Moana Bowls,3,0.84058,1.14484,26,25,NIGHT_MOSTLY_CLEAR,Cross-shore,1
5842041f4e65fad6a7708b43,2024_09_10,15.846,-97.06,Puerto Escondido,4,1.98,2.36,31,31,NIGHT_LIGHT_SHOWERS_POSSIBLE,Offshore,1
5842041f4e65fad6a7708b44,2024_09_10,11.44175,-86.08519,Santana,4,1.21,1.44,30,30,NIGHT_CLEAR,Offshore,1
5842041f4e65fad6a7708b46,2024_09_10,38.91444690804076,-123.7104245288878,Point Arena,3,0.76,1.06,18,18,NIGHT_CLEAR,Offshore,1
5842041f4e65fad6a7708b47,2024_09_10,18.46,-66.07383728027,San Juan,1,0.59653,0.9048,27,26,NIGHT_CLEAR,Cross-shore,1
5842041f4e65fad6a7708b48,2024_09_10,13.21526058417982,-59.52183,Soup Bowl,2,0.45,0.75,30,30,NIGHT_CLEAR,Cross-shore,1
5842041f4e65fad6a7708b49,2024_09_10,18.371581,-67.25941,Puntas,2,0.3,0.61,28,27,NIGHT_CLEAR,Cross-shore,1
5842041f4e65fad6a7708b4b,2024_09_10,-8.814,115.089,Uluwatu,3,0.9346,1.287,28,28,CLEAR,Offshore,1
5842041f4e65fad6a7708b4c,2024_09_10,-8.950192825865,115.12573242187,Kuta,2,1.78,2.09,26,26,CLEAR,Onshore,1
5842041f4e65fad6a7708b4d,2024_09_10,9.94,-85.668,Guiones,3,1.04,1.24,29,29,NIGHT_CLEAR,Onshore,1
5842041f4e65fad6a7708b4e,2024_09_10,9.56516,-84.59148,Playa Hermosa South,4,1.19244,1.53314,29,29,NIGHT_CLOUDY,Offshore,1
5842041f4e65fad6a7708b4f,2024_09_10,9.526305556,-84.48822,Playa Esterillos,3,1.85,2.21,29,29,NIGHT_CLOUDY,Onshore,1
5842041f4e65fad6a7708b50,2024_09_10,9.576,-84.608,Playa Hermosa North,3,1.47,1.76,29,29,NIGHT_CLOUDY,Cross-shore,1
5842041f4e65fad6a7708b53,2024_09_10,-12.337,-76.839,Pico Alto,3,2.31411,2.76377,16,16,NIGHT_MOSTLY_CLEAR,Onshore,1
5842041f4e65fad6a7708b55,2024_09_10,-12.17155,-77.08515,Peruazul,3,1.99,2.38,16,16,NIGHT_MOSTLY_CLOUDY,Cross-shore,1
5842041f4e65fad6a7708b56,2024_09_10,-12.133164,-77.03916,Makaha,3,2.34003,2.79929,16,16,NIGHT_MOSTLY_CLOUDY,Cross-shore,1
5842041f4e65fad6a7708b57,2024_09_10,43.29,-2.1708,Zarautz,2,0.64873,1.00156,22,22,BRIEF_SHOWERS,Onshore,1
5842041f4e65fad6a7708b58,2024_09_10,54.27129984804951,-8.60171,Strandhill,1,1.96011,3.06267,16,16,LIGHT_SHOWERS,Onshore,1
5842041f4e65fad6a7708b5b,2024_09_10,39.276101,-74.56709,7th Street,1,0.21294,0.56785,21,20,NIGHT_CLEAR,Cross-shore,1
5842041f4e65fad6a7708b5d,2024_09_10,39.321896,-74.506191,Sumner Avenue,1,0.12,0.43,21,20,NIGHT_CLEAR,Cross-shore,1
5842041f4e65fad6a7708b5e,2024_09_10,39.093673,-74.71653,26th to 30th Street Pier,1,0.14,0.45,21,20,NIGHT_CLEAR,Offshore,1
5842041f4e65fad6a7708b5f,2024_09_10,39.039903,-74.76417,Nun's Beach,1,0.13924,0.53166,21,21,NIGHT_CLEAR,Offshore,1
5842041f4e65fad6a7708b60,2024_09_10,38.96768,-74.82565,Rambler Road,1,0.15,0.45,21,21,NIGHT_CLEAR,Cross-shore,1
5842041f4e65fad6a7708b61,2024_09_10,38.99931,-74.78814,2nd St. to 10th St.,1,0.18,0.49,21,21,NIGHT_CLEAR,Cross-shore,1
5842041f4e65fad6a7708b62,2024_09_10,38.929886,-74.91718,Stockton Avenue,1,0,0.36399,21,21,NIGHT_CLEAR,Offshore,1
5842041f4e65fad6a7708b63,2024_09_10,38.942988,-74.862452,The Rocks,1,0.03,0.33,21,21,NIGHT_CLEAR,Cross-shore,1
5842041f4e65fad6a7708b64,2024_09_10,38.93036,-74.91257,Queen Street,1,0.11,0.41,21,21,NIGHT_CLEAR,Cross-shore,1
5842041f4e65fad6a7708b65,2024_09_10,38.942757,-74.880791,Poverty Beach,1,0.09,0.4,21,21,NIGHT_CLEAR,Onshore,1
5842041f4e65fad6a7708b66,2024_09_10,38.929441,-74.93129,Broadway Beach,1,0.1,0.41,21,21,NIGHT_CLEAR,Cross-shore,1
5842041f4e65fad6a7708b67,2024_09_10,38.92870117926206,-74.92116,Grant Street Beach,1,0.1,0.41,21,21,NIGHT_CLEAR,Cross-shore,1
5842041f4e65fad6a7708b68,2024_09_10,38.928934874358276,-74.93582,The Cove,1,0.01,0.31,22,22,NIGHT_CLEAR,Cross-shore,1
5842041f4e65fad6a7708b69,2024_09_10,26.775154329102108,-80.03124833106995,Pumphouse,2,0.33,0.64,30,30,NIGHT_OVERCAST,Onshore,1
5842041f4e65fad6a7708b6a,2024_09_10,26.72114353296791,-80.03310374527736,Sunrise,2,0.24,0.55,31,29,NIGHT_OVERCAST,Onshore,1
5842041f4e65fad6a7708b6b,2024_09_10,26.71306786153966,-80.03222170715443,Breakers,2,0.28,0.59,31,29,NIGHT_OVERCAST,Onshore,1
5842041f4e65fad6a7708b6c,2024_09_10,26.699075556703683,-80.03263235092163,Charlie's Crab,2,0.32,0.62,31,29,NIGHT_OVERCAST,Onshore,1
5842041f4e65fad6a7708b6d,2024_09_10,26.79441490392914,-80.0306161110009,Ocean Reef Park,2,0.2,0.51,31,29,NIGHT_OVERCAST,Onshore,1
5842041f4e65fad6a7708b6f,2024_09_10,26.93134670517399,-80.06760115579169,Civic Center,1,0.30275,0.60755,31,29,NIGHT_CLOUDY,Onshore,1
5842041f4e65fad6a7708b70,2024_09_10,26.90524197396177,-80.0593609780092,Kite Beach,1,0.29369,0.60071,31,29,NIGHT_CLOUDY,Onshore,1
5842041f4e65fad6a7708b71,2024_09_10,26.54279208054373,-80.04292130470276,Boynton Beach Inlet (Southside),1,0.09,0.39,31,29,NIGHT_OVERCAST,Onshore,1
5842041f4e65fad6a7708b72,2024_09_10,26.613511029817357,-80.03534,Lake Worth Pier,1,0,0.24,31,29,NIGHT_OVERCAST,Onshore,1
5842041f4e65fad6a7708b73,2024_09_10,27.06670219261476,-80.11447191238403,Hobe Sound Public Beach,2,0.42,0.73,30,29,NIGHT_CLOUDY,Onshore,1
5842041f4e65fad6a7708b75,2024_09_10,27.21467611230439,-80.17308,Stuart Public Beach,2,0.4,0.71,30,29,NIGHT_OVERCAST,Onshore,1
5842041f4e65fad6a7708b76,2024_09_10,27.36627923374593,-80.24622,Blind Creek Park,2,0.6096,0.90773,30,29,NIGHT_OVERCAST,Onshore,1
5842041f4e65fad6a7708b77,2024_09_10,26.94256932088346,-80.07057,Jupiter Inlet,2,0.35,0.65,30,29,NIGHT_CLOUDY,Onshore,1
5842041f4e65fad6a7708b78,2024_09_10,26.89365359499372,-80.056,Juno Pier,1,0.45164,0.75102,31,29,NIGHT_CLOUDY,Onshore,1
5842041f4e65fad6a7708b7a,2024_09_10,29.67671206577928,-85.3689474172784,Cape San Blas,2,0.04,0.35,30,30,NIGHT_CLEAR,Offshore,1
5842041f4e65fad6a7708b7b,2024_09_10,26.706551543472415,-80.03280401229858,Flagpole,2,0.3,0.61,31,29,NIGHT_OVERCAST,Onshore,1
5842041f4e65fad6a7708b7c,2024_09_10,29.94036477533054,-85.40953557392244,El Governor,1,0,0.18,29,29,NIGHT_CLOUDY,Offshore,1
5842041f4e65fad6a7708b7d,2024_09_10,29.68231979841189,-85.30627194238092,Toilet Bowls,1,0.07,0.38,30,30,NIGHT_CLEAR,Offshore,1
5842041f4e65fad6a7708b7e,2024_09_10,29.6607153445246,-84.86361191991014,St. George Island,1,0.12,0.42,30,30,NIGHT_LIGHT_SHOWERS,Cross-shore,1
5842041f4e65fad6a7708b7f,2024_09_10,29.77441172865639,-84.65942657000329,Dog Island,1,0.09,0.39,30,30,NIGHT_LIGHT_SHOWERS,Cross-shore,1
5842041f4e65fad6a7708b80,2024_09_10,28.59674155718017,-95.97559,Matagorda,1,1,1.3,29,29,NIGHT_THUNDER_STORMS,Cross-shore,1
5842041f4e65fad6a7708b81,2024_09_10,27.84601633294622,-97.04372701603208,St. Joe's Island,1,1.21,1.52,29,29,NIGHT_HEAVY_THUNDER_STORMS,Cross-shore,1
5842041f4e65fad6a7708b82,2024_09_10,27.64327897922308,-97.18612,J.P. Luby Surf Park,0,1.10515,1.47754,30,30,NIGHT_HEAVY_THUNDER_STORMS,Onshore,1
5842041f4e65fad6a7708b83,2024_09_10,27.82704888028459,-97.05277,Horace Caldwell Pier,1,1.06348,1.43811,29,29,NIGHT_HEAVY_THUNDER_STORMS,Offshore,1
5842041f4e65fad6a7708b84,2024_09_10,27.67634780977739,-97.16473,Fish Pass,0,1.10515,1.47754,29,29,NIGHT_HEAVY_THUNDER_STORMS,Onshore,1
5842041f4e65fad6a7708b85,2024_09_10,27.58118015227788,-97.2191,Bob Hall Pier,1,0.981,1.34888,30,30,NIGHT_THUNDER_STORMS,Cross-shore,1
5842041f4e65fad6a7708b86,2024_09_10,28.93236038480434,-95.30205,Quintana,0,0.97865,1.33982,29,29,NIGHT_LIGHT_SHOWERS,Cross-shore,1
5842041f4e65fad6a7708b87,2024_09_10,28.94367955201253,-95.28969,Octagon,1,0.97865,1.33982,29,29,NIGHT_CLOUDY,Cross-shore,1
5842041f4e65fad6a7708b88,2024_09_10,29.02647703020454,-95.18702498902157,Boilers,1,0.66,0.96,29,29,NIGHT_CLOUDY,Cross-shore,1
5842041f4e65fad6a7708b89,2024_09_10,28.9653363517684,-95.26739753922841,Assholes,1,0.66,0.96,29,29,NIGHT_CLOUDY,Cross-shore,1
5842041f4e65fad6a7708b8a,2024_09_10,29.27159138874912,-94.81532732168617,51st Street,0,0.7,1,29,29,NIGHT_CLEAR,Cross-shore,1
5842041f4e65fad6a7708b8b,2024_09_10,29.13902635892794,-95.04070493829546,West Galveston,1,0.71,1.01,29,29,NIGHT_CLEAR,Cross-shore,1
5842041f4e65fad6a7708b8c,2024_09_10,29.26596874354759,-94.82556,61st Street,1,0.51772,0.89095,29,29,NIGHT_CLEAR,Cross-shore,1
5842041f4e65fad6a7708b8d,2024_09_10,29.279815639798642,-94.80146,37th Street,0,0.45578,0.81561,29,29,NIGHT_CLEAR,Cross-shore,1
5842041f4e65fad6a7708b8e,2024_09_10,29.28680654948785,-94.79106,Flagship,0,0.52102,0.8881,29,29,NIGHT_CLEAR,Cross-shore,1
5842041f4e65fad6a7708b8f,2024_09_10,29.4702751255731,-94.59146640261427,A-Frames,1,0.61,0.91,29,29,NIGHT_CLEAR,Cross-shore,1
5842041f4e65fad6a7708b90,2024_09_10,29.52172627288487,-94.45911,Meacom's Pier,1,0.36464,0.72928,29,29,NIGHT_CLEAR,Cross-shore,1
5842041f4e65fad6a7708b91,2024_09_10,29.4510876813709,-94.63230467945758,Crystal Beach,1,0.57,0.87,29,29,NIGHT_CLEAR,Cross-shore,1
5842041f4e65fad6a7708b92,2024_09_10,26.06123118244004,-97.14769,Boca Chica,1,1.25937,1.61428,30,30,NIGHT_THUNDER_SHOWERS,Cross-shore,1
5842041f4e65fad6a7708b93,2024_09_10,26.06961904983808,-97.15243,Isla Blanca State Park,1,1.28384,1.62694,30,30,NIGHT_LIGHT_RAIN,Cross-shore,1
5842041f4e65fad6a7708b96,2024_09_10,26.56132001354785,-97.26967,Port Mansfield,0,1.02877,1.38764,30,30,NIGHT_LIGHT_RAIN,Cross-shore,1
5842041f4e65fad6a7708b98,2024_09_10,10.85099440725964,-85.79981,Ollie's Point,3,1.05,1.25,29,29,NIGHT_CLEAR,Cross-shore,1
5842041f4e65fad6a7708b99,2024_09_10,10.79489213393012,-85.68066,Witches Rock,3,1.21,1.45,29,29,NIGHT_CLEAR,Cross-shore,1
5842041f4e65fad6a7708b9a,2024_09_10,9.570222044864844,-85.14184,Mal Pais,2,1.72,2.05,29,29,NIGHT_THUNDER_SHOWERS,Onshore,1
5842041f4e65fad6a7708b9b,2024_09_10,10.29970304257365,-85.84398,Tamarindo,2,0.65,0.96,29,29,NIGHT_CLEAR,Onshore,1
5842041f4e65fad6a7708b9c,2024_09_10,9.250593929300813,-83.86522,Dominical,4,1.37,1.64,29,29,NIGHT_BRIEF_SHOWERS_POSSIBLE,Offshore,1
5842041f4e65fad6a7708b9d,2024_09_10,9.48278011021258,-84.28883991550364,Bejuco,3,1.42,1.69,29,29,NIGHT_LIGHT_RAIN,Cross-shore,1
5842041f4e65fad6a7708ba1,2024_09_10,9.616940559391795,-84.63541,Playa Jaco,3,1.38361,1.65358,29,29,NIGHT_CLOUDY,Cross-shore,1
5842041f4e65fad6a7708ba3,2024_09_10,9.661646156842439,-84.67316883195207,Playa Escondida,3,0.74,1.04,29,29,NIGHT_LIGHT_SHOWERS,Offshore,1
5842041f4e65fad6a7708ba4,2024_09_10,9.635059578319176,-84.66159522794959,Herradura,3,0.9,1.08,29,29,NIGHT_LIGHT_SHOWERS,Offshore,1
5842041f4e65fad6a7708ba5,2024_09_10,9.958235741436532,-84.74122,Boca Barranca,4,1.40483,1.68816,29,29,NIGHT_OVERCAST,Cross-shore,1
5842041f4e65fad6a7708ba6,2024_09_10,9.922484732656224,-84.7158981889118,Caldera Jetty,3,1.16,1.38,29,29,NIGHT_OVERCAST,Offshore,1
5842041f4e65fad6a7708ba7,2024_09_10,9.661180947362254,-82.75273,Salsa Brava,2,0.09167,0.44687,30,30,NIGHT_CLEAR,Offshore,1
5842041f4e65fad6a7708ba8,2024_09_10,8.38230022212565,-83.28332,Matapalo,4,1.66,1.99,29,29,NIGHT_CLOUDY,Offshore,1
5842041f4e65fad6a7708ba9,2024_09_10,8.394937,-83.13952,Pavones,3,1.02,1.32,29,29,NIGHT_CLOUDY,Onshore,1
5842041f4e65fad6a7708baa,2024_09_10,13.47971255664387,-89.28610104791234,Playa San Diego,3,1.21,1.45,30,30,NIGHT_LIGHT_RAIN,Offshore,1
5842041f4e65fad6a7708bab,2024_09_10,13.4834740494465,-89.32376,La Paz,3,0.66651,0.96595,30,30,NIGHT_LIGHT_RAIN,Cross-shore,1
5842041f4e65fad6a7708bac,2024_09_10,13.48587874937462,-89.31998852531258,El Muelle (Pier),3,1.45,1.74,30,30,NIGHT_LIGHT_RAIN,Offshore,1
5842041f4e65fad6a7708bad,2024_09_10,13.47973883183636,-89.32655,Punta Roca,3,1.44,1.73,30,30,NIGHT_HEAVY_THUNDER_STORMS,Onshore,1
5842041f4e65fad6a7708bae,2024_09_10,13.491596878346689,-89.38104,La Bocana,3,1.15098,1.47983,30,30,NIGHT_HEAVY_THUNDER_STORMS,Offshore,1
5842041f4e65fad6a7708baf,2024_09_10,13.48324995683858,-89.33946,Playa Conchalio,3,1.16495,1.40018,30,30,NIGHT_LIGHT_RAIN,Offshore,1
5842041f4e65fad6a7708bb0,2024_09_10,13.49167561061991,-89.39,Sunzal,3,0.784,1.032,30,30,NIGHT_HEAVY_THUNDER_STORMS,Offshore,1
5842041f4e65fad6a7708bb1,2024_09_10,35.92499624829542,-121.46957,Sand Dollar Beach,2,0.64,0.94,17,17,NIGHT_CLEAR,Cross-shore,1
5842041f4e65fad6a7708bb3,2024_09_10,36.55448900657569,-121.93114,Carmel Beach,3,0.3,0.61,18,18,NIGHT_CLEAR,Offshore,1
5842041f4e65fad6a7708bb4,2024_09_10,36.27968576518622,-121.85962,Big Sur Rivermouth,3,0.66,0.96,18,18,NIGHT_CLEAR,Offshore,1
5842041f4e65fad6a7708bb5,2024_09_10,36.60883280895963,-121.9603486684287,Mole Point,2,0.39,0.69,18,18,NIGHT_CLEAR,Cross-shore,1
5842041f4e65fad6a7708bb6,2024_09_10,36.63788026219399,-121.9311174079908,Boneyard,2,0.37,0.67,18,18,NIGHT_CLEAR,Onshore,1
5842041f4e65fad6a7708bb7,2024_09_10,36.61880091818895,-121.9422482210244,Asilomar,3,0.51,0.82,18,18,NIGHT_CLEAR,Cross-shore,1
5842041f4e65fad6a7708bb8,2024_09_10,36.56037685095311,-121.9516152313922,Ghost Tree,3,0.32,0.62,18,18,NIGHT_CLEAR,Offshore,1
5842041f4e65fad6a7708bbb,2024_09_10,35.89412279173619,-121.462380148047,Willow Creek,3,0.72,1.02,17,17,NIGHT_CLEAR,Onshore,1
5842041f4e65fad6a7708bbc,2024_09_10,36.6260658643635,-121.9154753515004,Lover's Point,2,0.02,0.33,18,18,NIGHT_CLEAR,Onshore,1
5842041f4e65fad6a7708bbd,2024_09_10,38.945,-9.42,Foz de Lizandro,1,0.3971,0.70486,15,15,CLEAR,Cross-shore,1
5842041f4e65fad6a7708bbf,2024_09_10,36.80821791915616,-121.79055,Moss Landing,2,0.16,0.46,18,18,NIGHT_CLEAR,Offshore,1
5842041f4e65fad6a7708bc0,2024_09_10,38.67869246746279,-9.33685,Carcavelos,0,0,0.22531,16,16,CLEAR,Cross-shore,1
5842041f4e65fad6a7708bc1,2024_09_10,38.983,-9.425,Reef,1,0.58,0.88,15,15,CLEAR,Cross-shore,1
5842041f4e65fad6a7708bc2,2024_09_10,38.988,-9.424,Ribeira D'Ilhas,2,0.33,0.63,15,15,CLEAR,Cross-shore,1
5842041f4e65fad6a7708bc3,2024_09_10,39.34167968424256,-9.36331,Supertubos,1,0,0.21,16,16,CLEAR,Offshore,1
5842041f4e65fad6a7708bc4,2024_09_10,39.001,-9.4284,Coxos,1,0.49354,0.80856,15,15,CLEAR,Cross-shore,1
5842041f4e65fad6a7708bc5,2024_09_10,40.13063921100635,-8.87044,Cabedelo,0,0.51078,0.81725,14,14,CLEAR,Cross-shore,1
5842041f4e65fad6a7708bc6,2024_09_10,39.37397686060677,-9.33235,Baleal,1,0.3,0.61,16,16,CLEAR,Onshore,1
5842041f4e65fad6a7708bc7,2024_09_10,31.80902927937703,-116.8081979700041,Todos Santos / Killers,NA,0.68,0.99,22,22,NIGHT_CLEAR,Onshore,1
5842041f4e65fad6a7708bc8,2024_09_10,43.68220203786759,-1.44167,Les Culs Nuls,2,0.78427,1.11105,22,22,LIGHT_SHOWERS,Onshore,1
5842041f4e65fad6a7708bc9,2024_09_10,31.90016519474307,-116.73117,San Miguel,3,0.42,0.73,23,23,NIGHT_CLEAR,Offshore,1
5842041f4e65fad6a7708bca,2024_09_10,43.48469485823068,-1.56023,Biarritz,2,0.62497,0.92738,22,22,LIGHT_SHOWERS,Onshore,1
5842041f4e65fad6a7708bcb,2024_09_10,39.0132,-9.424,Sao Lourenco,1,0.41729,0.72263,15,15,CLEAR,Onshore,1
5842041f4e65fad6a7708bcd,2024_09_10,43.64760422014503,-1.44721,Le Santocha,1,0.33143,0.57036,22,22,LIGHT_SHOWERS,Onshore,1
5842041f4e65fad6a7708bce,2024_09_10,43.51401611768647,-1.53382,Anglet,2,0.91,1.21,22,22,LIGHT_SHOWERS,Onshore,1
5842041f4e65fad6a7708bcf,2024_09_10,43.479,-1.569,La Cote des Basques,2,0.64104,0.95123,22,22,LIGHT_SHOWERS,Onshore,1
5842041f4e65fad6a7708bd0,2024_09_10,32.3489432986615,-117.0668043482785,Rosarito Beach,3,0.71,1.02,23,23,NIGHT_CLEAR,Cross-shore,1
5842041f4e65fad6a7708bd1,2024_09_10,23.44473573026049,-110.2452466338192,Todos Santos,3,0.63,0.93,29,29,NIGHT_CLEAR,Cross-shore,1
5842041f4e65fad6a7708bd2,2024_09_10,31.97636522717259,-116.7913888957552,Salsipuedes,2,0.27,0.57,23,23,NIGHT_CLEAR,Offshore,1
5842041f4e65fad6a7708bd3,2024_09_10,23.39151658553801,-110.2143952234506,Las Palmas,3,0.67,0.98,29,29,NIGHT_CLEAR,Cross-shore,1
5842041f4e65fad6a7708bd4,2024_09_10,23.02358192684975,-109.7147,Old Man's,3,0.51,0.81,30,30,NIGHT_CLEAR,Offshore,1
5842041f4e65fad6a7708bd5,2024_09_10,23.32877869857464,-110.17715,Cerritos,2,0.63,0.94,29,29,NIGHT_CLEAR,Cross-shore,1
5842041f4e65fad6a7708bd6,2024_09_10,23.36729303816202,-110.20268,San Pedrito,2,0.47,0.77,29,29,NIGHT_CLEAR,Cross-shore,1
5842041f4e65fad6a7708bd7,2024_09_10,23.02506324659338,-109.71456,The Rock,3,0.51,0.81,30,30,NIGHT_CLEAR,Offshore,1
5842041f4e65fad6a7708bd8,2024_09_10,22.896,-109.869,Monuments,3,0.9,1.08,30,30,NIGHT_CLEAR,Offshore,1
5842041f4e65fad6a7708bd9,2024_09_10,23.04871261564847,-109.6800082320905,The Estuary,3,0.75,1.05,30,30,NIGHT_CLEAR,Offshore,1
5842041f4e65fad6a7708bda,2024_09_10,23.029,-109.714,Zippers,3,0.51,0.81,30,30,NIGHT_CLEAR,Offshore,1
5842041f4e65fad6a7708bdb,2024_09_10,23.12,-109.527,Shipwreck,2,0.74,1.05,31,31,NIGHT_CLEAR,Cross-shore,1
5842041f4e65fad6a7708bdc,2024_09_10,23.174,-109.476,Nine Palms,3,1.03,1.23,31,31,NIGHT_CLEAR,Offshore,1
5842041f4e65fad6a7708bdd,2024_09_10,4.307463458457968,73.57742,Jailbreaks,3,1.35,1.65,29,29,CLEAR,Offshore,1
5842041f4e65fad6a7708bde,2024_09_10,4.31216545719424,73.58368,Honky's,3,1.2462,1.57923,29,29,CLEAR,Onshore,1
5842041f4e65fad6a7708bdf,2024_09_10,4.313574269102099,73.58541879522511,Sultans,4,1.25023,1.58434,29,29,CLEAR,Offshore,1
5842041f4e65fad6a7708be0,2024_09_10,4.343204315364438,73.6136,Ninja's,3,1.24851,1.58217,29,29,CLEAR,Cross-shore,1
5842041f4e65fad6a7708be1,2024_09_10,4.348032688767217,73.621,Lohi's,3,1.30021,1.63333,29,29,CLEAR,Cross-shore,1
5842041f4e65fad6a7708be2,2024_09_10,4.31537277405848,73.59171,Pasta Point,2,0.99188,1.31184,29,29,CLEAR,Onshore,1
5842041f4e65fad6a7708be3,2024_09_10,-28.3344521240417,153.57739,Cabarita,1.5,0.64633,0.952,21,21,MOSTLY_CLEAR,Cross-shore,1
5842041f4e65fad6a7708be4,2024_09_10,4.372896005883011,73.66323,Chickens,3,1.24594,1.5789,29,29,CLEAR,Cross-shore,1
5842041f4e65fad6a7708be5,2024_09_10,-28.16143481052803,153.55066,Snapper Rocks,2.5,0.6096,0.9144,21,21,MOSTLY_CLEAR,Offshore,1
5842041f4e65fad6a7708be6,2024_09_10,4.370274672691539,73.65602,Colas,3,1.30562,1.63738,29,29,CLEAR,Cross-shore,1
5842041f4e65fad6a7708be8,2024_09_10,-28.08967141602908,153.45956,Burleigh Heads,1,0.374,0.66967,21,21,CLEAR,Cross-shore,1
5842041f4e65fad6a7708be9,2024_09_10,-28.16436510036895,153.53589,Kirra,1.5,0.05167,0.34733,21,21,MOSTLY_CLEAR,Offshore,1
5842041f4e65fad6a7708bea,2024_09_10,-26.809,153.136,Caloundra Bar,1.5,0.304,0.59967,21,21,CLEAR,Cross-shore,1
5842041f4e65fad6a7708beb,2024_09_10,-27.4488954777054,153.5383894760102,North Stradbroke Island,1,0.51,0.81,22,22,MOSTLY_CLOUDY,Onshore,1
5842041f4e65fad6a7708bec,2024_09_10,-26.68680536290502,153.13793,Mooloolaba,1.5,0.29233,0.59633,21,21,CLEAR,Cross-shore,1
5842041f4e65fad6a7708bed,2024_09_10,40.028403115215,-74.04837,Mantoloking,2,0.38392,0.68692,20,20,NIGHT_CLEAR,Offshore,1
5842041f4e65fad6a7708bee,2024_09_10,-26.38257,153.09668,Noosa Heads,1.5,0.01333,0.319,21,21,OVERCAST,Cross-shore,1
5842041f4e65fad6a7708bef,2024_09_10,-28.63764444,153.62803,"The Pass, Byron Bay",1.5,0.3048,0.6096,21,21,CLEAR,Offshore,1
5842041f4e65fad6a7708bf0,2024_09_10,-32.171,152.512,Tuncurry Breakwall,1,0.05,0.36,19,19,CLEAR,Cross-shore,1
5842041f4e65fad6a7708bf1,2024_09_10,-28.87513611,153.59244,Ballina North Wall,2,0.81,1.11,22,22,CLOUDY,Onshore,1
5842041f4e65fad6a7708bf2,2024_09_10,-28.80011944,153.59755,Lennox Head,2,0.68133,1.104,20,20,CLOUDY,Onshore,1
5842041f4e65fad6a7708bf3,2024_09_10,-28.70581667,153.61983,Broken Head,2,0.59,0.9,22,22,CLEAR,Onshore,1
5842041f4e65fad6a7708bf4,2024_09_10,-29.44056667,153.3695194,Pippies/Yamba,1,0.33,0.63,21,21,CLEAR,Onshore,1
5842041f4e65fad6a7708bf5,2024_09_10,-33.94857222,151.25722,Maroubra,1.3333333333333335,0.5572,0.9676,17,17,CLEAR,Onshore,1
5842041f4e65fad6a7708bf6,2024_09_10,-34.05162704152385,151.15646,Cronulla,1,0.5747,0.9851,17,17,CLEAR,Onshore,1
5842041f4e65fad6a7708bf7,2024_09_10,-33.791855902720656,151.28878,Manly,2,0.5522,0.8658,17,17,CLEAR,Onshore,1
5842041f4e65fad6a7708bf8,2024_09_10,-33.892155707636114,151.27793,Bondi Beach,2,0.8408,1.1469,17,17,CLEAR,Cross-shore,1
5842041f4e65fad6a7708bf9,2024_09_10,-29.48278333,153.36727,Angourie,2,0.39,0.7,21,21,CLEAR,Onshore,1
5842041f4e65fad6a7708bfa,2024_09_10,-33.75169106295242,151.29855,Dee Why,1.6666666666666665,0.3711,0.6672,17,17,CLEAR,Onshore,1
5842041f4e65fad6a7708bfb,2024_09_10,-33.77330556,151.29331,Curl Curl,3.3333333333333335,0.9583,1.5005,17,17,CLEAR,Onshore,1
5842041f4e65fad6a7708bfc,2024_09_10,-33.70960382813077,151.30361,Narrabeen,2,0.8433,1.1469,17,17,CLEAR,Onshore,1
5842041f4e65fad6a7708bfd,2024_09_10,-33.63539722,151.33297,Avalon,2.666666666666667,0.8483,1.383,17,17,CLEAR,Onshore,1
5842041f4e65fad6a7708bfe,2024_09_10,-33.65150556,151.32512,Newport,2,0.8208,1.1344,17,17,CLEAR,Onshore,1
5842041f4e65fad6a7708bff,2024_09_10,-36.94544444,149.9151111,Pambula Rivermouth,1,0,0.27,15,15,CLEAR,Onshore,1
5842041f4e65fad6a7708c00,2024_09_10,-33.60841111,151.33339,Whale Beach,1.6666666666666665,0.5122,0.8183,17,17,CLEAR,Onshore,1
5842041f4e65fad6a7708c01,2024_09_10,-36.89662778,149.92144,Merimbula Bar,1,0,0.17,15,15,CLEAR,Cross-shore,1
5842041f4e65fad6a7708c02,2024_09_10,-35.90458333,150.15191,Moruya,1,0.08,0.38,17,17,CLEAR,Cross-shore,1
5842041f4e65fad6a7708c03,2024_09_10,-35.36742222,150.48575,Ulladulla Bommie,1,0.29,0.6,17,17,CLEAR,Offshore,1
5842041f4e65fad6a7708c04,2024_09_10,-35.34604167,150.4773361,Golf Course Reef,1,0.05,0.35,18,18,CLEAR,Onshore,1
5842041f4e65fad6a7708c05,2024_09_10,-35.27280833,150.51393,Green Island,1,0.12,0.43,18,18,CLEAR,Cross-shore,1
5842041f4e65fad6a7708c06,2024_09_10,-35.17533333,150.6881667,Black Rock,1,0.29,0.59,18,18,CLEAR,Offshore,1
5842041f4e65fad6a7708c07,2024_09_10,-34.74260833,150.8332833,Werri Beach,1,0.24,0.55,19,19,CLEAR,Onshore,1
5842041f4e65fad6a7708c08,2024_09_10,-34.54684722,150.8784167,Windang Island,1,0.11,0.41,19,19,CLEAR,Onshore,1
5842041f4e65fad6a7708c09,2024_09_10,-28.64288889,153.63596,Tallows,1,0.7,1,22,22,CLEAR,Onshore,1
5842041f4e65fad6a7708c0a,2024_09_10,-34.32977,150.92931,Sandon Point,1,0.16,0.47,19,19,CLEAR,Onshore,1
5842041f4e65fad6a7708c0b,2024_09_10,-38.347207621284134,144.31065,Jan Juc,3.3333333333333335,0.8683,1.3555,13,13,CLEAR,Offshore,1
5842041f4e65fad6a7708c0c,2024_09_10,-38.2873,144.4652,13th Beach,3,1.1319,1.7709,13,13,CLEAR,Cross-shore,1
5842041f4e65fad6a7708c0d,2024_09_10,-38.76017222,143.37283,Johanna,2,2.54847,2.83047,14,14,CLEAR,Onshore,1
5842041f4e65fad6a7708c0e,2024_09_10,-38.44902778,144.85891,Gunnamatta,3,2.21019,2.57103,13,13,CLEAR,Cross-shore,1
5842041f4e65fad6a7708c0f,2024_09_10,-38.42897222,145.07755,Point Leo,1.3333333333333335,0,0.2761,13,13,CLEAR,Onshore,1
5842041f4e65fad6a7708c10,2024_09_10,-38.55457222,145.33169,Woolamai,3,1.95,2.16,13,13,CLEAR,Onshore,1
5842041f4e65fad6a7708c11,2024_09_10,-28.16708333,153.55169,Duranbah,1.5,0.92867,1.24267,21,21,MOSTLY_CLEAR,Cross-shore,1
5842041f4e65fad6a7708c12,2024_09_10,-38.368504,144.2871,Winkipop,4,1.1044,1.7609,13,13,CLEAR,Offshore,1
5842041f4e65fad6a7708c13,2024_09_10,-38.50596111,145.14044,Cat Bay,3,0.59258,0.688,13,13,CLEAR,Cross-shore,1
5842041f4e65fad6a7708c14,2024_09_10,-28.87768889,153.58828,South Wall Ballina,1,0.59,0.89,22,22,CLEAR,Onshore,1
5842041f4e65fad6a7708c15,2024_09_10,-38.48777,144.97036,Mornington Peninsula,3,1.9,2.21,13,13,CLEAR,Onshore,1
5842041f4e65fad6a7708c17,2024_09_10,-28.93778889,113.9235722,Abrolhos Islands,0,2.75,3.29,21,21,CLEAR,Cross-shore,1
5842041f4e65fad6a7708c19,2024_09_10,-24.031,113.441,The Bluff,2,1.3,1.53,22,22,CLEAR,Offshore,1
5842041f4e65fad6a7708c1a,2024_09_10,-23.882,113.482,Tombstones,1,1.36,1.63,22,22,CLEAR,Cross-shore,1
5842041f4e65fad6a7708c1b,2024_09_10,-23.64909722,113.6129972,Warroora Station,1,2.05,2.39,22,22,CLEAR,Cross-shore,1
5842041f4e65fad6a7708c1c,2024_09_10,-38.62743889,142.9796,Two Mile/Easter Reef,2,2.4384,3.048,14,14,CLEAR,Cross-shore,1
5842041f4e65fad6a7708c1e,2024_09_10,-31.89140556,115.75388,Scarborough,3,0.62,0.93,18,18,CLEAR,Offshore,1
5842041f4e65fad6a7708c1f,2024_09_10,-32.007275,115.75131,Cottesloe,1,0.12939,0.57508,18,18,CLEAR,Onshore,1
5842041f4e65fad6a7708c20,2024_09_10,-32.01661667,115.7511583,Cables,1,0.12764,0.56731,18,18,CLEAR,Onshore,1
5842041f4e65fad6a7708c21,2024_09_10,-33.65305556,115.018,Supertubes,4,1.64,1.82,18,18,CLOUDY,Offshore,1
5842041f4e65fad6a7708c22,2024_09_10,-33.63875278,115.02247,Yallingup,2,1.3,1.48,18,18,CLOUDY,Cross-shore,1
5842041f4e65fad6a7708c23,2024_09_10,-32.01881111,115.48693,Strickland Bay/Rottnest Island,1,1.97,2.29,20,20,CLEAR,Onshore,1
5842041f4e65fad6a7708c24,2024_09_10,-33.69852222,114.98713,Injidup Carpark,3,1.02,1.13,18,18,CLOUDY,Offshore,1
5842041f4e65fad6a7708c25,2024_09_10,-33.858925,114.98469,North Point,2,1.67,1.86,18,18,CLOUDY,Onshore,1
5842041f4e65fad6a7708c26,2024_09_10,-33.65705556,115.01457,Smiths Beach,3,0.98,1.17,18,18,CLOUDY,Offshore,1
5842041f4e65fad6a7708c27,2024_09_10,-33.86301667,114.9767861,South Point,3,2.84,3.3,18,18,CLOUDY,Offshore,1
5842041f4e65fad6a7708c28,2024_09_10,-33.97649722,114.98311,Margaret River,2,2.882,3.201,18,18,MOSTLY_CLEAR,Cross-shore,1
5842041f4e65fad6a7708c29,2024_09_10,-33.978325,114.9863667,Gas Bay,2,2.9,3.22,18,18,MOSTLY_CLEAR,Onshore,1
5842041f4e65fad6a7708c2a,2024_09_10,-33.88036667,114.9803222,Lefthanders (Lefties),2,1.8,2.05,18,18,MOSTLY_CLEAR,Cross-shore,1
5842041f4e65fad6a7708c2b,2024_09_10,-35.29171667,136.875225,Chinamans,3,1.8288,2.4384,14,14,CLEAR,Onshore,1
5842041f4e65fad6a7708c2c,2024_09_10,-32.14336389,133.108996,Cactus,2,1.8288,2.4384,15,15,CLEAR,Cross-shore,1
5842041f4e65fad6a7708c2d,2024_09_10,-35.86224722,137.74371,Pennington Bay,4,1.42807,1.75762,14,14,CLEAR,Offshore,1
5842041f4e65fad6a7708c2e,2024_09_10,-28.12496389,153.48648,Currumbin Alley,1.5,0.628,0.92367,21,21,CLEAR,Cross-shore,1
5842041f4e65fad6a7708c2f,2024_09_10,-35.63450833,138.49829,Waitpinga,3,1.44536,1.80964,14,14,CLEAR,Onshore,1
5842041f4e65fad6a7708c30,2024_09_10,-35.52,138.71,Middleton,4,1.7582,1.94737,14,14,CLEAR,Onshore,1
5842041f4e65fad6a7708c33,2024_09_10,9.746222222,-82.85211111,Cahuita,3,0.34,0.64,30,30,NIGHT_CLEAR,Offshore,1
5842041f4e65fad6a7708c35,2024_09_10,10.22975,-85.84058,Avellanas,3,1,1.31,29,29,NIGHT_CLEAR,Cross-shore,1
5842041f4e65fad6a7708c36,2024_09_10,10.33328,-85.85069,Playa Grande,2,1.04,1.34,29,29,NIGHT_CLEAR,Onshore,1
5842041f4e65fad6a7708c37,2024_09_10,9.389333333,-84.15386111,Manuel Antonio,3,1.73,2.07,29,29,NIGHT_LIGHT_RAIN,Offshore,1
5842041f4e65fad6a7708c38,2024_09_10,10.28630556,-85.85228,Playa Langosta,2,1.01,1.31,29,29,NIGHT_CLEAR,Onshore,1
5842041f4e65fad6a7708c39,2024_09_10,54.55819760353214,-8.21518,Rossnowlagh,1,1.29636,2.02556,16,16,LIGHT_SHOWERS,Onshore,1
5842041f4e65fad6a7708c3a,2024_09_10,54.4924,-8.2709,Tullan Strand,1,1.54665,2.41664,16,16,LIGHT_SHOWERS,Onshore,1
5842041f4e65fad6a7708c3b,2024_09_10,54.47958088962024,-8.29256,Bundoran,1,1.58948,2.48357,16,16,LIGHT_SHOWERS,Onshore,1
5842041f4e65fad6a7708c3c,2024_09_10,54.45887147557389,-8.434952849016696,Mullaghmore Strand,1,1.58054,2.46959,16,16,LIGHT_SHOWERS,Onshore,1
5842041f4e65fad6a7708c3d,2024_09_10,54.29465584522581,-8.965232737720527,Easkey,1,1.86743,2.91786,16,16,LIGHT_SHOWERS,Onshore,1
5842041f4e65fad6a7708c3e,2024_09_10,54.28521527547639,-9.223662106008305,Kilcummin Harbour,2,0.98268,1.53543,16,16,LIGHT_SHOWERS,Offshore,1
5842041f4e65fad6a7708c3f,2024_09_10,54.4123841889832,-8.535520783992467,Streedagh Strand,0,1.66225,2.59727,16,16,LIGHT_SHOWERS,Onshore,1
5842041f4e65fad6a7708c44,2024_09_10,54.266,-8.729,Dunmoran,0,0.08672,0.13549,16,16,LIGHT_SHOWERS,Cross-shore,1
5842041f4e65fad6a7708c46,2024_09_10,20.934,-105.401,Costa Azul,2,0.1,0.41,31,31,NIGHT_CLEAR,Offshore,1
5842041f4e65fad6a7708c47,2024_09_10,18.51369499135283,-67.03911,Middles,1,0.7,1,30,30,NIGHT_CLEAR,Cross-shore,1
5842041f4e65fad6a7708c48,2024_09_10,18.515,-67.077,Jobos,1,0.52,0.82,28,27,NIGHT_CLEAR,Cross-shore,1
5842041f4e65fad6a7708c49,2024_09_10,18.50659587388844,-67.14095,Surfer's Beach,2,0.6,0.91,30,30,NIGHT_CLEAR,Offshore,1
5842041f4e65fad6a7708c4a,2024_09_10,18.4724771991133,-67.16964903636637,Wishing Well,1,0,0.29,30,30,NIGHT_CLEAR,Offshore,1
5842041f4e65fad6a7708c4b,2024_09_10,18.48507943247522,-67.16805,Wilderness,3,0.66,0.96,30,30,NIGHT_CLEAR,Offshore,1
5842041f4e65fad6a7708c4c,2024_09_10,18.46090012303478,-67.16701,Chambers,0,0,0.12,29,29,NIGHT_MIST,Offshore,1
5842041f4e65fad6a7708c4d,2024_09_10,18.45734083137307,-67.16435,Crash Boat,0,0,0.08,29,29,NIGHT_MIST,Offshore,1
5842041f4e65fad6a7708c4f,2024_09_10,18.36085983178037,-67.27182288542944,Indicators,2,0.26,0.57,30,30,NIGHT_CLEAR,Offshore,1
5842041f4e65fad6a7708c50,2024_09_10,18.42530999756879,-67.15604263628627,Bridges,1,0,0.12,29,29,NIGHT_CLEAR,Offshore,1
5842041f4e65fad6a7708c51,2024_09_10,18.50806588732911,-67.1388404959542,Table Top,2,0.6,0.91,30,30,NIGHT_CLEAR,Cross-shore,1
5842041f4e65fad6a7708c53,2024_09_10,18.37335029722464,-67.25282708189441,Antonio's,2,0.38,0.69,30,30,NIGHT_CLEAR,Cross-shore,1
5842041f4e65fad6a7708c54,2024_09_10,18.3717999427746,-67.2592,Sandy Beach,2,0.31,0.61,28,27,NIGHT_CLEAR,Cross-shore,1
5842041f4e65fad6a7708c55,2024_09_10,18.36591901691329,-67.27131,Domes,2,0.31,0.62,30,30,NIGHT_CLEAR,Offshore,1
5842041f4e65fad6a7708c56,2024_09_10,18.37093775805671,-67.26124188960489,Pools,2,0.53241,0.85574,28,27,NIGHT_CLEAR,Cross-shore,1
5842041f4e65fad6a7708c58,2024_09_10,18.359052,-67.271765,The Point,2,0.35187,0.59825,30,30,NIGHT_CLEAR,Offshore,1
5842041f4e65fad6a7708c59,2024_09_10,18.343578,-67.26082,Little Malibu,2,0.24118,0.42354,30,30,NIGHT_CLEAR,Cross-shore,1
5842041f4e65fad6a7708c5a,2024_09_10,18.35046796998277,-67.26958496140767,Tres Palmas,0,0.16,0.46,30,30,NIGHT_CLEAR,Offshore,1
5842041f4e65fad6a7708c5c,2024_09_10,18.358457148373724,-67.27163,Maria's,2,0.04747,0.92993,28,27,NIGHT_CLEAR,Offshore,1
5842041f4e65fad6a7708c5d,2024_09_10,18.36436193914082,-65.67175850608821,La Selva,2,0.34,0.64,30,30,NIGHT_CLEAR,Cross-shore,1
5842041f4e65fad6a7708c5e,2024_09_10,18.377237,-65.714583,La Pared,2,0.44,0.74,29,29,NIGHT_CLEAR,Cross-shore,1
5842041f4e65fad6a7708c5f,2024_09_10,18.47587365739435,-66.73093579970327,Margara,3,0.54,0.84,29,29,NIGHT_CLEAR,Offshore,1
5842041f4e65fad6a7708c60,2024_09_10,18.49042886903135,-66.9558167601821,Guajataca,3,0.8,1.1,30,30,NIGHT_CLEAR,Cross-shore,1
5842041f4e65fad6a7708c61,2024_09_10,18.47273941014759,-66.44904622785756,Los Tubos,3,0.33,0.63,30,30,NIGHT_CLEAR,Offshore,1
5842041f4e65fad6a7708c62,2024_09_10,18.467168313149315,-66.09311,La Ocho,2,0.49653,0.8048,27,26,NIGHT_CLEAR,Offshore,1
5842041f4e65fad6a7708c63,2024_09_10,18.45529355651344,-65.96670584112921,Chatarra,3,0.68,0.99,29,29,NIGHT_CLEAR,Cross-shore,1
5842041f4e65fad6a7708c64,2024_09_10,18.452,-65.957871,Aviones,2,0.66,0.96,29,29,NIGHT_CLEAR,Cross-shore,1
5842041f4e65fad6a7708c65,2024_09_10,18.451764,-65.956416,Tocones,2,0.66,0.96,29,29,NIGHT_CLEAR,Cross-shore,1
5842041f4e65fad6a7708c66,2024_09_10,23.09289784805277,-82.49361057903533,Old Man's,0,0,0.1,31,31,NIGHT_CLEAR,Cross-shore,1
5842041f4e65fad6a7708c67,2024_09_10,17.97138086645092,-65.96246,Inches,2,0.09,0.39,30,30,NIGHT_MOSTLY_CLOUDY,Offshore,1
5842041f4e65fad6a7708c68,2024_09_10,21.18269590184542,-76.17425732522923,Gibara Coast,1,0.56,0.87,29,29,NIGHT_CLEAR,Onshore,1
5842041f4e65fad6a7708c69,2024_09_10,20.29935933410474,-74.38513580703325,Baracoa Coast,1,0.87,1.17,29,29,NIGHT_CLOUDY,Onshore,1
5842041f4e65fad6a7708c6a,2024_09_10,17.90850736737134,-76.18979571186617,Ranch,3,0.37,0.67,30,30,NIGHT_CLEAR,Offshore,1
5842041f4e65fad6a7708c6b,2024_09_10,20.062663,-74.4972,Cajo Babo,2,0.18,0.48,30,30,NIGHT_CLEAR,Cross-shore,1
5842041f4e65fad6a7708c6c,2024_09_10,17.869517,-76.582916,Makka,1,0,0.25,30,30,NIGHT_CLEAR,Cross-shore,1
5842041f4e65fad6a7708c6d,2024_09_10,17.927946,-76.77929,Lighthouse,2,0.22,0.52,30,30,NIGHT_CLEAR,Cross-shore,1
5842041f4e65fad6a7708c6e,2024_09_10,17.945043,-76.717493,Zoo,2,0.17,0.47,30,30,NIGHT_CLEAR,Offshore,1
5842041f4e65fad6a7708c6f,2024_09_10,17.94222896363424,-76.69415558555534,Copa,2,0.11,0.41,30,30,NIGHT_CLEAR,Offshore,1
5842041f4e65fad6a7708c70,2024_09_10,18.1586,-76.3553,Boston Bay,2,0,0.31,30,30,NIGHT_THUNDER_SHOWERS,Onshore,1
5842041f4e65fad6a7708c71,2024_09_10,19.760009,-70.51905,Sosua,0,0,0.3,29,29,NIGHT_CLEAR,Onshore,1
5842041f4e65fad6a7708c72,2024_09_10,19.783,-70.45,Encuentro,2,0.77491,1.12189,29,29,NIGHT_CLEAR,Cross-shore,1
5842041f4e65fad6a7708c73,2024_09_10,18.229,-70.189,Patho Beach,2,0.18887,0.60707,30,30,NIGHT_CLEAR,Offshore,1
5842041f4e65fad6a7708c74,2024_09_10,18.433,-69.631,La Boya,2,0.20014,0.61376,29,29,NIGHT_CLEAR,Cross-shore,1
5842041f4e65fad6a7708c75,2024_09_10,18.420275,-70.01139,El Chinchorro,2,0.24202,0.6454,29,29,NIGHT_CLEAR,Offshore,1
5842041f4e65fad6a7708c76,2024_09_10,18.4469967022155,-64.59065,Josiah's Bay,2,0.38493,0.68102,29,29,NIGHT_OVERCAST,Offshore,1
5842041f4e65fad6a7708c77,2024_09_10,17.988754,-71.16075,Bahoruco,2,0.52954,0.92992,30,30,NIGHT_CLEAR,Offshore,1
5842041f4e65fad6a7708c78,2024_09_10,18.40133856648012,-64.68076,Apple Bay,2,0.17,0.48,30,30,NIGHT_FOG,Cross-shore,1
5842041f4e65fad6a7708c79,2024_09_10,11.15033417501753,-60.84783,Airports,1,0,0.41694,31,31,NIGHT_CLEAR,Cross-shore,1
5842041f4e65fad6a7708c7b,2024_09_10,10.83550342228099,-60.920248032489326,Salybia Bay,2,0.15,0.45,31,31,NIGHT_BRIEF_SHOWERS_POSSIBLE,Cross-shore,1
5842041f4e65fad6a7708c7c,2024_09_10,10.717707,-60.98962,Balandra Bay,2,0.06,0.36,31,31,NIGHT_BRIEF_SHOWERS_POSSIBLE,Onshore,1
5842041f4e65fad6a7708c7d,2024_09_10,10.839254,-61.00207,Sans Souci Bay,2,0.13482,0.44593,31,31,NIGHT_BRIEF_SHOWERS_POSSIBLE,Offshore,1
5842041f4e65fad6a7708c7e,2024_09_10,13.21452297223763,-59.51781,Parlour,2,0.58098,0.92733,30,30,NIGHT_CLEAR,Cross-shore,1
5842041f4e65fad6a7708c7f,2024_09_10,13.220009,-59.52954,Cattle Wash,2,0.46,0.76,30,30,NIGHT_CLEAR,Cross-shore,1
5842041f4e65fad6a7708c80,2024_09_10,13.316799,-59.64713,Duppies,2,0.22,0.52,30,30,NIGHT_CLEAR,Offshore,1
5842041f4e65fad6a7708c81,2024_09_10,13.07622829845154,-59.60844,Brandon's,2,0.53532,0.91248,30,30,NIGHT_CLEAR,Cross-shore,1
5842041f4e65fad6a7708c82,2024_09_10,43.64083333,-8.113611111,Playa de Rodo,1,0.75,1.05,19,19,CLOUDY,Cross-shore,1
5842041f4e65fad6a7708c83,2024_09_10,43.53583333,-5.38583,Rodiles,2,0.25259,0.54261,21,21,CLOUDY,Onshore,1
5842041f4e65fad6a7708c84,2024_09_10,43.44166667,-4.022777778,Playa de los Caballos,3,1.06,1.36,22,22,CLOUDY,Onshore,1
5842041f4e65fad6a7708c85,2024_09_10,43.46972222,-3.731388889,Isla de Santa Marina,2,0.73,1.04,22,22,CLOUDY,Onshore,1
5842041f4e65fad6a7708c86,2024_09_10,43.397,-2.98667,Menakoz,1,0.42683,0.7638,22,22,CLOUDY,Onshore,1
5842041f4e65fad6a7708c87,2024_09_10,43.43388889,-2.80194,Bakio,2,0.8186,1.16152,22,22,CLOUDY,Onshore,1
5842041f4e65fad6a7708c88,2024_09_10,43.40861111,-2.69472,Mundaka,2,0.51542,0.8483,22,22,CLOUDY,Offshore,1
5842041f4e65fad6a7708c89,2024_09_10,43.30777778,-2.239444444,Roca Puta,3,0.75,1.05,22,22,BRIEF_SHOWERS,Onshore,1
5842041f4e65fad6a7708c8b,2024_09_10,47.84083333,-4.35083,La Torche,1,0.50718,0.84897,19,19,CLEAR,Onshore,1
5842041f4e65fad6a7708c8c,2024_09_10,43.41611111,-1.62833,Lafitenia,2,0.74946,1.09623,22,22,LIGHT_SHOWERS,Onshore,1
5842041f4e65fad6a7708c8d,2024_09_10,45.00222222,-1.2025,Lacanau,2,0.76304,1.09006,22,22,CLOUDY,Onshore,1
5842041f4e65fad6a7708c8e,2024_09_10,43.66388889,-1.44389,La Graviere,2,0.9839,1.41963,22,22,LIGHT_SHOWERS,Onshore,1
5842041f4e65fad6a7708c8f,2024_09_10,43.5225,-1.52583,Les Cavaliers,2,0.69769,1.02473,22,22,LIGHT_SHOWERS,Onshore,1
5842041f4e65fad6a7708c90,2024_09_10,53.01055556,-9.400277778,Doolin Point,0,1.67975,2.62462,16,16,LIGHT_SHOWERS,Onshore,1
5842041f4e65fad6a7708c91,2024_09_10,53.01583333,-9.413055556,Crab Island,0,1.67975,2.62462,16,16,LIGHT_SHOWERS,Onshore,1
5842041f4e65fad6a7708c92,2024_09_10,52.1425,-9.993055556,Inch Reef,0,1.47377,2.30276,16,16,LIGHT_SHOWERS,Cross-shore,1
5842041f4e65fad6a7708c93,2024_09_10,50.32127176553899,-5.20277738571167,Trevaunance Cove,1,0.92009,1.43764,17,17,CLEAR,Cross-shore,1
5842041f4e65fad6a7708c94,2024_09_10,50.34833333,-5.15889,Perranporth,0,1.2192,1.8288,17,17,CLEAR,Onshore,1
