_id,date,lat,lon,name,daily_mean_swell_rating,daily_mean_wave_height_min,daily_mean_wave_height_max,daily_mean_water_temperature_max,daily_mean_water_temperature_min,weather_per_timestamp,wind_per_timestamp,n_samples_per_day
5842041f4e65fad6a77087f9,2024_07_22,37.741668,-122.51038,South Ocean Beach,1.935897435897436,1.2492761538461539,1.6351953846153846,13,13,"NIGHT_MIST,NIGHT_MIST,NIGHT_MIST,NIGHT_MIST,NIGHT_MIST,NIGHT_MIST,NIGHT_MIST,NIGHT_MIST,MIST,MIST,MIST,MIST,MIST","Cross-shore,Cross-shore,Cross-shore,Cross-shore,Cross-shore,Cross-shore,Cross-shore,Cross-shore,Cross-shore,Cross-shore,Cross-shore,Cross-shore,Onshore",13
5842041f4e65fad6a7708801,2024_07_22,37.49142,-122.50428,Maverick's,NA,2.0484615384615386,2.356923076923077,18.615384615384617,18.615384615384617,"NIGHT_BRIEF_SHOWERS,NIGHT_MIST,NIGHT_BRIEF_SHOWERS,NIGHT_MIST,NIGHT_BRIEF_SHOWERS,NIGHT_BRIEF_SHOWERS,NIGHT_BRIEF_SHOWERS,NIGHT_MIST,MIST,MIST,MIST,BRIEF_SHOWERS,MIST","Cross-shore,Onshore,Onshore,Onshore,Cross-shore,Cross-shore,Onshore,Onshore,Onshore,Onshore,Onshore,Onshore,Onshore",13
5842041f4e65fad6a7708804,2024_07_22,44.997,-124.018,Roads End,1.3076923076923077,1.0253846153846153,1.1953846153846153,15,15,"NIGHT_CLOUDY,NIGHT_MIST,NIGHT_MIST,NIGHT_MIST,NIGHT_MIST,NIGHT_MIST,NIGHT_MIST,NIGHT_MIST,MIST,MIST,MIST,MIST,MIST","Cross-shore,Cross-shore,Cross-shore,Onshore,Cross-shore,Cross-shore,Cross-shore,Cross-shore,Cross-shore,Cross-shore,Cross-shore,Cross-shore,Cross-shore",13
5842041f4e65fad6a7708805,2024_07_22,36.95188851423011,-122.02522,Steamer Lane,2.6538461538461537,0.588956923076923,0.9049592307692308,14,14,"NIGHT_CLEAR,NIGHT_CLEAR,NIGHT_CLEAR,NIGHT_CLEAR,NIGHT_MOSTLY_CLOUDY,NIGHT_MOSTLY_CLOUDY,NIGHT_MOSTLY_CLOUDY,NIGHT_MOSTLY_CLOUDY,CLEAR,CLEAR,CLEAR,CLEAR,CLEAR","Onshore,Onshore,Onshore,Onshore,Onshore,Onshore,Onshore,Cross-shore,Onshore,Onshore,Onshore,Cross-shore,Offshore",13
5842041f4e65fad6a7708806,2024_07_22,36.95918781542251,-122.02489,Cowells,1.2179487179487178,0.08499153846153847,0.3064923076923077,14,14,"NIGHT_CLEAR,NIGHT_CLEAR,NIGHT_CLEAR,NIGHT_CLEAR,NIGHT_MOSTLY_CLOUDY,NIGHT_MOSTLY_CLOUDY,NIGHT_MOSTLY_CLOUDY,NIGHT_MOSTLY_CLOUDY,CLEAR,CLEAR,CLEAR,CLEAR,CLEAR","Onshore,Onshore,Cross-shore,Cross-shore,Onshore,Onshore,Onshore,Onshore,Onshore,Onshore,Onshore,Offshore,Offshore",13
5842041f4e65fad6a7708807,2024_07_22,36.95468082526536,-121.97234,Pleasure Point,3,0.737833076923077,1.0496076923076922,14,14,"NIGHT_CLEAR,NIGHT_CLEAR,NIGHT_CLEAR,NIGHT_CLEAR,NIGHT_MOSTLY_CLEAR,NIGHT_MOSTLY_CLOUDY,NIGHT_MOSTLY_CLOUDY,NIGHT_MOSTLY_CLEAR,MOSTLY_CLEAR,CLEAR,CLEAR,CLEAR,CLEAR","Onshore,Onshore,Onshore,Onshore,Onshore,Onshore,Onshore,Onshore,Onshore,Onshore,Onshore,Onshore,Onshore",13
5842041f4e65fad6a770880a,2024_07_22,35.37815414378748,-120.86589,Morro Bay,2.9615384615384617,0.7804576923076924,1.1219992307692308,13,13,"NIGHT_MOSTLY_CLOUDY,NIGHT_MOSTLY_CLOUDY,NIGHT_CLEAR,NIGHT_MOSTLY_CLOUDY,NIGHT_MOSTLY_CLOUDY,NIGHT_MOSTLY_CLOUDY,NIGHT_MOSTLY_CLOUDY,NIGHT_MOSTLY_CLOUDY,CLEAR,CLEAR,CLEAR,CLEAR,CLEAR","Offshore,Cross-shore,Onshore,Onshore,Cross-shore,Onshore,Offshore,Cross-shore,Onshore,Onshore,Onshore,Onshore,Onshore",13
5842041f4e65fad6a770880b,2024_07_22,36.95782765000708,-121.96729,Jack's,1.9871794871794872,0.3626623076923077,0.6686138461538461,14,14,"NIGHT_CLEAR,NIGHT_CLEAR,NIGHT_CLEAR,NIGHT_CLEAR,NIGHT_MOSTLY_CLEAR,NIGHT_MOSTLY_CLOUDY,NIGHT_MOSTLY_CLOUDY,NIGHT_MOSTLY_CLEAR,MOSTLY_CLEAR,CLEAR,CLEAR,CLEAR,CLEAR","Onshore,Onshore,Onshore,Onshore,Onshore,Onshore,Onshore,Onshore,Onshore,Cross-shore,Cross-shore,Cross-shore,Cross-shore",13
5842041f4e65fad6a770880d,2024_07_22,34.29982939936656,-119.3489016603669,Gold Coast Beachbreaks,1.7692307692307692,0.2176923076923077,0.5223076923076924,19.615384615384617,19.615384615384617,"NIGHT_CLEAR,NIGHT_CLEAR,NIGHT_CLEAR,NIGHT_CLEAR,NIGHT_CLEAR,NIGHT_CLEAR,NIGHT_CLEAR,NIGHT_CLEAR,CLEAR,CLEAR,CLEAR,CLEAR,CLEAR","Offshore,Offshore,Offshore,Offshore,Offshore,Offshore,Offshore,Offshore,Onshore,Onshore,Onshore,Onshore,Onshore",13
5842041f4e65fad6a7708811,2024_07_22,34.245076,-119.26799,Ventura Harbor,2.4615384615384617,0.7641515384615385,1.019613076923077,18,18,"NIGHT_CLEAR,NIGHT_CLEAR,NIGHT_CLEAR,NIGHT_CLEAR,NIGHT_CLEAR,NIGHT_CLEAR,NIGHT_CLEAR,NIGHT_CLEAR,CLEAR,CLEAR,CLEAR,CLEAR,CLEAR","Onshore,Onshore,Onshore,Onshore,Onshore,Onshore,Onshore,Onshore,Onshore,Onshore,Onshore,Onshore,Onshore",13
5842041f4e65fad6a7708813,2024_07_22,34.051,-118.964,County Line,2.576923076923077,0.5864023076923077,0.9405792307692308,18,18,"NIGHT_MIST,NIGHT_MIST,NIGHT_MIST,NIGHT_CLEAR,NIGHT_CLEAR,NIGHT_CLEAR,NIGHT_CLEAR,NIGHT_CLEAR,CLEAR,CLEAR,CLEAR,CLEAR,CLEAR","Offshore,Offshore,Offshore,Offshore,Onshore,Offshore,Onshore,Offshore,Onshore,Onshore,Onshore,Onshore,Onshore",13
5842041f4e65fad6a7708814,2024_07_22,34.37256264378892,-119.47797,Rincon,2.1538461538461537,0.19384615384615383,0.5,19,19,"NIGHT_MIST,NIGHT_MIST,NIGHT_CLEAR,NIGHT_CLEAR,NIGHT_CLEAR,NIGHT_CLEAR,NIGHT_CLEAR,NIGHT_CLEAR,MIST,MIST,MIST,MIST,MIST","Onshore,Onshore,Onshore,Cross-shore,Offshore,Offshore,Cross-shore,Offshore,Cross-shore,Cross-shore,Cross-shore,Cross-shore,Cross-shore",13
5842041f4e65fad6a7708817,2024_07_22,34.03096101876324,-118.68109,Malibu Third Point,2.6923076923076925,0.5498438461538462,0.8745476923076922,21,21,"NIGHT_BRIEF_SHOWERS,NIGHT_MIST,NIGHT_MIST,NIGHT_MIST,NIGHT_MOSTLY_CLEAR,NIGHT_MOSTLY_CLEAR,NIGHT_MOSTLY_CLOUDY,NIGHT_MOSTLY_CLOUDY,CLEAR,CLEAR,CLEAR,CLEAR,CLEAR","Onshore,Onshore,Onshore,Onshore,Onshore,Cross-shore,Cross-shore,Offshore,Cross-shore,Cross-shore,Cross-shore,Cross-shore,Cross-shore",13
5842041f4e65fad6a7708819,2024_07_22,33.984079047970035,-118.47382,Venice Beach,2.6025641025641026,0.5648815384615384,0.8701753846153846,20.692307692307693,20.692307692307693,"NIGHT_BRIEF_SHOWERS,NIGHT_MOSTLY_CLEAR,NIGHT_MOSTLY_CLEAR,NIGHT_MOSTLY_CLEAR,NIGHT_MOSTLY_CLEAR,NIGHT_BRIEF_SHOWERS,NIGHT_MOSTLY_CLEAR,NIGHT_MOSTLY_CLEAR,MIST,SHOWERS,MIST,SHOWERS,SHOWERS","Onshore,Onshore,Onshore,Onshore,Onshore,Onshore,Onshore,Onshore,Onshore,Onshore,Onshore,Onshore,Onshore",13
5842041f4e65fad6a770881e,2024_07_22,34.037508438646746,-118.5834,Topanga Beach,2.9615384615384617,0.7579853846153847,1.0965169230769232,19.153846153846153,19.153846153846153,"NIGHT_CLEAR,NIGHT_CLEAR,NIGHT_CLEAR,NIGHT_CLEAR,NIGHT_CLEAR,NIGHT_CLEAR,NIGHT_CLEAR,NIGHT_CLEAR,CLEAR,CLEAR,CLEAR,CLEAR,CLEAR","Offshore,Cross-shore,Offshore,Offshore,Offshore,Offshore,Cross-shore,Offshore,Onshore,Onshore,Onshore,Onshore,Onshore",13
5842041f4e65fad6a7708820,2024_07_22,33.73954373690184,-118.11414,Seal Beach Jetty,2.6153846153846154,0.34692307692307695,0.6530769230769231,20,20,"NIGHT_MOSTLY_CLEAR,NIGHT_MOSTLY_CLEAR,NIGHT_MOSTLY_CLOUDY,NIGHT_MOSTLY_CLOUDY,NIGHT_MOSTLY_CLOUDY,NIGHT_MOSTLY_CLOUDY,NIGHT_MOSTLY_CLOUDY,NIGHT_MOSTLY_CLOUDY,MOSTLY_CLEAR,BRIEF_SHOWERS,MOSTLY_CLEAR,BRIEF_SHOWERS,MOSTLY_CLEAR","Onshore,Onshore,Onshore,Cross-shore,Onshore,Onshore,Cross-shore,Onshore,Onshore,Onshore,Onshore,Onshore,Onshore",13
5842041f4e65fad6a7708822,2024_07_22,33.72309983348433,-118.08078,Anderson Street,1.641025641025641,0.2539107692307692,0.5407892307692308,17,17,"NIGHT_MOSTLY_CLEAR,NIGHT_MIST,NIGHT_MIST,NIGHT_MIST,NIGHT_MIST,NIGHT_MIST,NIGHT_MIST,NIGHT_MOSTLY_CLOUDY,CLEAR,CLEAR,CLEAR,CLEAR,CLEAR","Onshore,Onshore,Onshore,Onshore,Onshore,Onshore,Cross-shore,Onshore,Onshore,Onshore,Onshore,Onshore,Onshore",13
5842041f4e65fad6a7708827,2024_07_22,33.65574085629463,-118.00397,Huntington Beach Pier Northside,3,0.7280292307692308,1.06263,17,17,"NIGHT_MOSTLY_CLOUDY,NIGHT_CLEAR,NIGHT_MOSTLY_CLOUDY,NIGHT_MOSTLY_CLOUDY,NIGHT_MOSTLY_CLOUDY,NIGHT_CLEAR,NIGHT_CLEAR,NIGHT_MOSTLY_CLOUDY,CLEAR,CLEAR,CLEAR,CLEAR,CLEAR","Onshore,Cross-shore,Onshore,Onshore,Onshore,Onshore,Offshore,Onshore,Onshore,Onshore,Onshore,Onshore,Onshore",13
5842041f4e65fad6a7708828,2024_07_22,34.272041739333,-119.29976,C St.,2.5,0.6458669230769231,0.95433,18,18,"NIGHT_MIST,NIGHT_CLEAR,NIGHT_MIST,NIGHT_MIST,NIGHT_MOSTLY_CLEAR,NIGHT_MIST,NIGHT_MOSTLY_CLEAR,NIGHT_MOSTLY_CLEAR,MIST,MIST,MIST,MIST,MIST","Onshore,Onshore,Onshore,Onshore,Onshore,Onshore,Cross-shore,Cross-shore,Onshore,Onshore,Onshore,Cross-shore,Cross-shore",13
5842041f4e65fad6a770882a,2024_07_22,33.61555743705257,-117.93676,Newport Lower Jetties,2.6153846153846154,0.5346676923076923,0.8397076923076923,18,18,"NIGHT_BRIEF_SHOWERS,NIGHT_MOSTLY_CLOUDY,NIGHT_MOSTLY_CLOUDY,NIGHT_MOSTLY_CLOUDY,NIGHT_MIST,NIGHT_MIST,NIGHT_MIST,NIGHT_MOSTLY_CLOUDY,MOSTLY_CLOUDY,BRIEF_SHOWERS,MOSTLY_CLOUDY,BRIEF_SHOWERS,BRIEF_SHOWERS","Cross-shore,Onshore,Onshore,Cross-shore,Onshore,Offshore,Offshore,Offshore,Onshore,Onshore,Onshore,Onshore,Onshore",13
5842041f4e65fad6a770882b,2024_07_22,33.5930302087,-117.88199,The Wedge,3,1.0740307692307693,1.3831692307692307,18,18,"NIGHT_MOSTLY_CLOUDY,NIGHT_MOSTLY_CLOUDY,NIGHT_CLEAR,NIGHT_CLEAR,NIGHT_CLEAR,NIGHT_MOSTLY_CLOUDY,NIGHT_CLEAR,NIGHT_CLEAR,CLEAR,CLEAR,CLEAR,CLEAR,CLEAR","Onshore,Onshore,Onshore,Onshore,Offshore,Offshore,Cross-shore,Offshore,Onshore,Onshore,Onshore,Onshore,Onshore",13
5842041f4e65fad6a770882e,2024_07_22,33.475793399792984,-117.72291,Salt Creek,2.6153846153846154,0.7234861538461539,1.0615523076923077,16,16,"NIGHT_MIST,NIGHT_MIST,NIGHT_MOSTLY_CLOUDY,NIGHT_MOSTLY_CLOUDY,NIGHT_MOSTLY_CLOUDY,NIGHT_MOSTLY_CLOUDY,NIGHT_MOSTLY_CLOUDY,NIGHT_MOSTLY_CLOUDY,MIST,BRIEF_SHOWERS,MIST,BRIEF_SHOWERS,MIST","Cross-shore,Cross-shore,Cross-shore,Onshore,Onshore,Onshore,Onshore,Onshore,Onshore,Onshore,Onshore,Onshore,Onshore",13
5842041f4e65fad6a7708830,2024_07_22,33.41800974113613,-117.61952,T-Street,2.730769230769231,0.7363223076923077,1.061206153846154,16,16,"NIGHT_MIST,NIGHT_MOSTLY_CLOUDY,NIGHT_MOSTLY_CLOUDY,NIGHT_MOSTLY_CLOUDY,NIGHT_MOSTLY_CLOUDY,NIGHT_MOSTLY_CLOUDY,NIGHT_MOSTLY_CLOUDY,NIGHT_MOSTLY_CLOUDY,MIST,BRIEF_SHOWERS,MIST,BRIEF_SHOWERS,BRIEF_SHOWERS","Onshore,Onshore,Onshore,Onshore,Onshore,Onshore,Onshore,Onshore,Onshore,Onshore,Onshore,Onshore,Onshore",13
5842041f4e65fad6a7708832,2024_07_22,33.202391008646,-117.39475,Oceanside Harbor,2.6538461538461537,0.8817307692307692,1.1962300000000001,21,21,"NIGHT_CLEAR,NIGHT_MOSTLY_CLEAR,NIGHT_MOSTLY_CLEAR,NIGHT_MIST,NIGHT_MIST,NIGHT_MIST,NIGHT_MIST,NIGHT_MOSTLY_CLOUDY,MIST,BRIEF_SHOWERS,MIST,BRIEF_SHOWERS,BRIEF_SHOWERS","Cross-shore,Cross-shore,Onshore,Onshore,Onshore,Onshore,Onshore,Onshore,Onshore,Onshore,Onshore,Onshore,Onshore",13
5842041f4e65fad6a7708835,2024_07_22,33.19477795952803,-117.38667,Oceanside Pier,2.641025641025641,0.6691507692307692,0.9853853846153846,21,21,"NIGHT_CLEAR,NIGHT_CLEAR,NIGHT_CLEAR,NIGHT_CLEAR,NIGHT_MIST,NIGHT_MIST,NIGHT_CLEAR,NIGHT_MOSTLY_CLOUDY,CLEAR,CLEAR,CLEAR,CLEAR,CLEAR","Cross-shore,Cross-shore,Onshore,Onshore,Onshore,Onshore,Onshore,Onshore,Onshore,Onshore,Onshore,Onshore,Onshore",13
5842041f4e65fad6a7708837,2024_07_22,33.14948100706,-117.35029,Tamarack,2.6923076923076925,0.6860869230769231,0.98935,21.384615384615383,21.384615384615383,"NIGHT_MOSTLY_CLEAR,NIGHT_MOSTLY_CLEAR,NIGHT_MIST,NIGHT_MIST,NIGHT_MIST,NIGHT_MIST,NIGHT_MIST,NIGHT_MOSTLY_CLOUDY,MIST,BRIEF_SHOWERS,MIST,BRIEF_SHOWERS,BRIEF_SHOWERS","Onshore,Onshore,Onshore,Onshore,Cross-shore,Cross-shore,Offshore,Offshore,Onshore,Onshore,Onshore,Onshore,Onshore",13
5842041f4e65fad6a7708839,2024_07_22,32.865777159358856,-117.25614,Scripps,2.9358974358974357,0.8811092307692308,1.2195615384615384,20,20,"NIGHT_CLEAR,NIGHT_MOSTLY_CLEAR,NIGHT_MIST,NIGHT_MIST,NIGHT_MIST,NIGHT_MIST,NIGHT_MIST,NIGHT_MOSTLY_CLOUDY,MIST,BRIEF_SHOWERS,MIST,BRIEF_SHOWERS,BRIEF_SHOWERS","Onshore,Onshore,Onshore,Onshore,Onshore,Onshore,Onshore,Onshore,Onshore,Onshore,Onshore,Onshore,Onshore",13
5842041f4e65fad6a770883a,2024_07_22,32.813094,-117.27381,Birdrock,2.923076923076923,0.6361538461538462,0.9392307692307692,21,21,"NIGHT_CLEAR,NIGHT_CLEAR,NIGHT_CLEAR,NIGHT_CLEAR,NIGHT_MIST,NIGHT_MIST,NIGHT_CLEAR,NIGHT_CLEAR,CLEAR,CLEAR,CLEAR,CLEAR,CLEAR","Onshore,Onshore,Onshore,Onshore,Onshore,Onshore,Onshore,Offshore,Onshore,Onshore,Onshore,Onshore,Onshore",13
5842041f4e65fad6a770883b,2024_07_22,32.877231,-117.25303,Blacks,2.923076923076923,0.7298307692307693,1.0360692307692307,20,20,"NIGHT_CLEAR,NIGHT_MOSTLY_CLEAR,NIGHT_MIST,NIGHT_MIST,NIGHT_MIST,NIGHT_MIST,NIGHT_MIST,NIGHT_MOSTLY_CLOUDY,MIST,BRIEF_SHOWERS,MIST,BRIEF_SHOWERS,BRIEF_SHOWERS","Onshore,Onshore,Onshore,Onshore,Onshore,Onshore,Onshore,Onshore,Onshore,Onshore,Onshore,Onshore,Onshore",13
5842041f4e65fad6a770883c,2024_07_22,32.82978974229765,-117.28162,Windansea,2.641025641025641,0.8131538461538461,1.1111923076923076,20,20,"NIGHT_CLEAR,NIGHT_CLEAR,NIGHT_CLEAR,NIGHT_CLEAR,NIGHT_MOSTLY_CLOUDY,NIGHT_MOSTLY_CLOUDY,NIGHT_CLEAR,NIGHT_MOSTLY_CLOUDY,CLEAR,CLEAR,CLEAR,CLEAR,CLEAR","Onshore,Onshore,Onshore,Onshore,Onshore,Onshore,Onshore,Onshore,Onshore,Onshore,Onshore,Onshore,Onshore",13
5842041f4e65fad6a770883d,2024_07_22,32.838278,-117.28396,Horseshoe,2.923076923076923,0.8907692307692308,1.1223076923076922,21,21,"NIGHT_CLEAR,NIGHT_CLEAR,NIGHT_CLEAR,NIGHT_CLEAR,NIGHT_MOSTLY_CLOUDY,NIGHT_MOSTLY_CLOUDY,NIGHT_CLEAR,NIGHT_MOSTLY_CLOUDY,CLEAR,CLEAR,CLEAR,CLEAR,CLEAR","Onshore,Onshore,Onshore,Onshore,Onshore,Onshore,Onshore,Onshore,Onshore,Onshore,Onshore,Onshore,Onshore",13
5842041f4e65fad6a770883f,2024_07_22,32.75034717673179,-117.25337,Ocean Beach,2.9358974358974357,0.8255153846153847,1.0719184615384616,20,20,"NIGHT_MIST,NIGHT_MOSTLY_CLOUDY,NIGHT_CLEAR,NIGHT_MIST,NIGHT_MIST,NIGHT_MIST,NIGHT_MOSTLY_CLOUDY,NIGHT_MOSTLY_CLOUDY,MIST,BRIEF_SHOWERS,MIST,BRIEF_SHOWERS,BRIEF_SHOWERS","Cross-shore,Onshore,Onshore,Onshore,Onshore,Cross-shore,Onshore,Onshore,Onshore,Onshore,Onshore,Onshore,Onshore",13
5842041f4e65fad6a7708840,2024_07_22,32.73693,-117.25718,Sunset Cliffs,2.4615384615384617,0.57326,0.8767815384615385,21,21,"NIGHT_CLEAR,NIGHT_CLEAR,NIGHT_CLEAR,NIGHT_MOSTLY_CLOUDY,NIGHT_MIST,NIGHT_MIST,NIGHT_MOSTLY_CLOUDY,NIGHT_MOSTLY_CLOUDY,CLEAR,CLEAR,CLEAR,CLEAR,CLEAR","Cross-shore,Onshore,Onshore,Onshore,Onshore,Cross-shore,Onshore,Onshore,Onshore,Onshore,Onshore,Onshore,Onshore",13
5842041f4e65fad6a7708841,2024_07_22,32.796582258728826,-117.25779,Pacific Beach,2.8076923076923075,0.7685123076923077,1.1086184615384616,20,20,"NIGHT_MIST,NIGHT_MOSTLY_CLOUDY,NIGHT_MIST,NIGHT_MIST,NIGHT_MIST,NIGHT_MIST,NIGHT_MOSTLY_CLOUDY,NIGHT_MOSTLY_CLOUDY,MIST,BRIEF_SHOWERS,MIST,BRIEF_SHOWERS,BRIEF_SHOWERS","Onshore,Onshore,Onshore,Onshore,Onshore,Onshore,Onshore,Offshore,Onshore,Onshore,Onshore,Onshore,Onshore",13
5842041f4e65fad6a7708842,2024_07_22,32.776636,-117.25514,Mission Beach,2.8205128205128207,0.6427692307692308,0.9933076923076923,20,20,"NIGHT_MIST,NIGHT_MOSTLY_CLOUDY,NIGHT_MIST,NIGHT_MIST,NIGHT_MIST,NIGHT_MIST,NIGHT_MOSTLY_CLOUDY,NIGHT_MOSTLY_CLOUDY,MIST,BRIEF_SHOWERS,MIST,BRIEF_SHOWERS,BRIEF_SHOWERS","Onshore,Onshore,Onshore,Onshore,Cross-shore,Onshore,Onshore,Cross-shore,Onshore,Onshore,Onshore,Onshore,Onshore",13
5842041f4e65fad6a7708844,2024_07_22,32.577195519016,-117.13475,Imperial Beach Pier,2.6923076923076925,0.7623076923076924,1.0246153846153847,21,21,"NIGHT_CLEAR,NIGHT_CLEAR,NIGHT_CLEAR,NIGHT_MIST,NIGHT_MIST,NIGHT_MIST,NIGHT_CLEAR,NIGHT_MOSTLY_CLOUDY,CLEAR,MIST,MIST,MIST,MIST","Onshore,Onshore,Onshore,Onshore,Onshore,Onshore,Onshore,Onshore,Onshore,Onshore,Onshore,Onshore,Onshore",13
5842041f4e65fad6a770884a,2024_07_22,42.88678181061,-70.80843,Seabrook,1.6538461538461537,0.2527369230769231,0.5021192307692308,17,13.76923076923077,"NIGHT_MIST,NIGHT_MIST,NIGHT_MIST,NIGHT_CLEAR,NIGHT_CLEAR,CLEAR,MOSTLY_CLEAR,CLEAR,CLEAR,MIST,MIST,MIST,MIST","Cross-shore,Cross-shore,Offshore,Offshore,Cross-shore,Offshore,Cross-shore,Onshore,Onshore,Onshore,Onshore,Onshore,Onshore",13
5842041f4e65fad6a770884e,2024_07_22,41.434181432898335,-71.45312,Narragansett,2.1025641025641026,0.28377,0.5908307692307693,24,21,"NIGHT_CLEAR,NIGHT_CLEAR,NIGHT_CLEAR,NIGHT_CLEAR,NIGHT_CLEAR,CLEAR,CLEAR,CLEAR,CLEAR,CLEAR,CLEAR,CLEAR,CLEAR","Cross-shore,Offshore,Offshore,Offshore,Offshore,Offshore,Offshore,Offshore,Onshore,Onshore,Onshore,Onshore,Onshore",13
5842041f4e65fad6a7708850,2024_07_22,40.582703230722,-73.65247,Lincoln Blvd,1.8076923076923077,0.43493692307692305,0.7493515384615385,23,21,"NIGHT_MIST,NIGHT_MIST,NIGHT_CLEAR,NIGHT_MOSTLY_CLOUDY,NIGHT_MIST,MOSTLY_CLOUDY,MIST,MIST,MIST,MIST,MIST,MIST,MIST","Onshore,Onshore,Onshore,Onshore,Onshore,Onshore,Onshore,Onshore,Onshore,Onshore,Onshore,Onshore,Cross-shore",13
5842041f4e65fad6a7708852,2024_07_22,40.58342841721757,-73.81182,Rockaways,1.6153846153846154,0.45301,0.7596207692307693,23,21,"NIGHT_CLEAR,NIGHT_CLEAR,NIGHT_CLEAR,NIGHT_CLEAR,NIGHT_MOSTLY_CLOUDY,CLOUDY,MOSTLY_CLOUDY,MOSTLY_CLOUDY,CLEAR,CLEAR,MIST,MIST,MIST","Onshore,Onshore,Cross-shore,Onshore,Onshore,Onshore,Onshore,Onshore,Onshore,Onshore,Onshore,Onshore,Onshore",13
5842041f4e65fad6a7708853,2024_07_22,40.330474,-73.9734,Monmouth Beach,1.3846153846153846,0.18307692307692308,0.4862715384615385,22,19.23076923076923,"NIGHT_CLEAR,NIGHT_CLEAR,NIGHT_CLEAR,NIGHT_CLEAR,NIGHT_CLEAR,CLEAR,CLEAR,MOSTLY_CLOUDY,CLEAR,CLEAR,CLEAR,MIST,MIST","Offshore,Cross-shore,Offshore,Cross-shore,Cross-shore,Cross-shore,Cross-shore,Cross-shore,Onshore,Onshore,Onshore,Onshore,Onshore",13
5842041f4e65fad6a7708856,2024_07_22,40.113,-74.028,Manasquan Inlet,1.8076923076923077,0.27402846153846155,0.5822361538461539,21.384615384615383,18.615384615384617,"NIGHT_CLEAR,NIGHT_CLEAR,NIGHT_CLEAR,NIGHT_CLEAR,NIGHT_CLEAR,CLEAR,MOSTLY_CLOUDY,MOSTLY_CLEAR,CLEAR,CLEAR,CLEAR,CLEAR,CLEAR","Offshore,Offshore,Offshore,Offshore,Offshore,Offshore,Offshore,Offshore,Onshore,Cross-shore,Cross-shore,Cross-shore,Onshore",13
5842041f4e65fad6a7708857,2024_07_22,39.941519877445664,-74.06829,Casino Pier,1.9871794871794872,0.3982223076923077,0.70441,18.53846153846154,17.384615384615383,"NIGHT_CLEAR,NIGHT_CLEAR,NIGHT_MOSTLY_CLOUDY,NIGHT_CLEAR,NIGHT_MIST,MIST,CLEAR,MIST,MIST,MIST,MIST,DRIZZLE,MIST","Cross-shore,Cross-shore,Cross-shore,Cross-shore,Onshore,Onshore,Cross-shore,Cross-shore,Onshore,Onshore,Onshore,Onshore,Onshore",13
5842041f4e65fad6a7708858,2024_07_22,39.28223089949212,-74.55766,North End OC,2.064102564102564,0.32845153846153846,0.6326076923076923,16.692307692307693,15.538461538461538,"NIGHT_CLEAR,NIGHT_MIST,NIGHT_MIST,NIGHT_MIST,NIGHT_MIST,MIST,DRIZZLE,DRIZZLE,MIST,MIST,MIST,MIST,MIST","Onshore,Onshore,Cross-shore,Cross-shore,Onshore,Onshore,Onshore,Onshore,Onshore,Onshore,Onshore,Onshore,Onshore",13
5842041f4e65fad6a770885b,2024_07_22,39.65080599934257,-74.17146,Ship Bottom,2.3076923076923075,0.5722476923076923,0.9101484615384615,16.692307692307693,15.538461538461538,"NIGHT_CLEAR,NIGHT_MOSTLY_CLEAR,NIGHT_MIST,NIGHT_MIST,NIGHT_MIST,MIST,MIST,MIST,MIST,MIST,MIST,MIST,MIST","Offshore,Offshore,Offshore,Offshore,Offshore,Cross-shore,Onshore,Onshore,Offshore,Offshore,Offshore,Offshore,Onshore",13
5842041f4e65fad6a7708863,2024_07_22,36.034151543144,-75.66791,Third Street,1.8076923076923077,0.23996923076923077,0.5429507692307692,21.76923076923077,20.615384615384617,"NIGHT_MIST,NIGHT_MIST,NIGHT_MIST,NIGHT_CLEAR,NIGHT_CLEAR,NIGHT_CLEAR,MIST,CLEAR,HEAVY_RAIN,CLEAR,CLEAR,CLEAR,CLEAR","Offshore,Offshore,Offshore,Offshore,Offshore,Offshore,Offshore,Offshore,Offshore,Offshore,Offshore,Offshore,Offshore",13
5842041f4e65fad6a7708867,2024_07_22,35.605833221351425,-75.46303,S-Turns,2.230769230769231,0.6046392307692308,0.9789046153846154,25,23,"NIGHT_CLEAR,NIGHT_CLEAR,NIGHT_CLEAR,NIGHT_CLEAR,NIGHT_CLEAR,NIGHT_CLEAR,OVERCAST,MOSTLY_CLOUDY,CLEAR,CLEAR,CLEAR,CLEAR,CLEAR","Cross-shore,Cross-shore,Offshore,Offshore,Offshore,Offshore,Cross-shore,Cross-shore,Offshore,Cross-shore,Cross-shore,Offshore,Cross-shore",13
5842041f4e65fad6a770886d,2024_07_22,38.338461,-75.08117,Ocean City Boardwalk,2.3846153846153846,0.6031438461538462,0.9102515384615385,21.384615384615383,21,"NIGHT_MIST,NIGHT_MIST,NIGHT_MIST,NIGHT_MIST,NIGHT_MIST,MIST,MIST,MIST,CLOUDY,MOSTLY_CLOUDY,MOSTLY_CLOUDY,SHOWERS,MOSTLY_CLEAR","Cross-shore,Cross-shore,Cross-shore,Cross-shore,Cross-shore,Cross-shore,Onshore,Onshore,Cross-shore,Cross-shore,Cross-shore,Cross-shore,Cross-shore",13
5842041f4e65fad6a770886f,2024_07_22,29.844757212379562,-81.26136,A St.,2,0.34307692307692306,0.6469230769230769,28.384615384615383,28.384615384615383,"NIGHT_CLEAR,NIGHT_CLEAR,NIGHT_CLEAR,NIGHT_CLEAR,NIGHT_CLEAR,NIGHT_MOSTLY_CLOUDY,CLOUDY,CLOUDY,MIST,MIST,MIST,MIST,CLEAR","Offshore,Offshore,Cross-shore,Cross-shore,Onshore,Onshore,Onshore,Onshore,Onshore,Onshore,Onshore,Onshore,Onshore",13
5842041f4e65fad6a7708871,2024_07_22,29.069417851135093,-80.90824,New Smyrna Beach,1.9871794871794872,0.6035307692307692,0.9810023076923077,28,27,"NIGHT_CLEAR,NIGHT_CLEAR,NIGHT_CLEAR,NIGHT_CLOUDY,NIGHT_MOSTLY_CLOUDY,NIGHT_MOSTLY_CLOUDY,MOSTLY_CLOUDY,MOSTLY_CLOUDY,MIST,MIST,MIST,CLEAR,CLEAR","Cross-shore,Cross-shore,Cross-shore,Cross-shore,Cross-shore,Cross-shore,Cross-shore,Cross-shore,Onshore,Onshore,Onshore,Onshore,Onshore",13
5842041f4e65fad6a7708872,2024_07_22,28.367707417566,-80.60171,Cocoa Beach Pier,1.8076923076923077,0.33333384615384615,0.6391523076923077,29,28,"NIGHT_CLEAR,NIGHT_CLEAR,NIGHT_CLEAR,NIGHT_CLEAR,NIGHT_CLEAR,NIGHT_CLEAR,CLEAR,CLEAR,CLEAR,CLEAR,CLEAR,CLEAR,CLEAR","Onshore,Cross-shore,Cross-shore,Cross-shore,Cross-shore,Onshore,Onshore,Onshore,Onshore,Onshore,Onshore,Onshore,Onshore",13
5842041f4e65fad6a7708873,2024_07_22,28.091782738658846,-80.56479,Indialantic,1.7179487179487178,0.3000023076923077,0.6043946153846154,29,28,"NIGHT_CLEAR,NIGHT_CLEAR,NIGHT_CLEAR,NIGHT_MOSTLY_CLEAR,NIGHT_CLOUDY,NIGHT_CLOUDY,MOSTLY_CLOUDY,SHOWERS,CLEAR,CLEAR,CLEAR,CLEAR,CLEAR","Cross-shore,Cross-shore,Cross-shore,Cross-shore,Cross-shore,Cross-shore,Cross-shore,Onshore,Onshore,Onshore,Onshore,Onshore,Cross-shore",13
5842041f4e65fad6a7708876,2024_07_22,27.25392904143517,-80.19455,Jensen Beach,1.3846153846153846,0.06897384615384615,0.3743923076923077,30,29,"NIGHT_CLEAR,NIGHT_CLEAR,NIGHT_MOSTLY_CLOUDY,NIGHT_MOSTLY_CLOUDY,NIGHT_CLEAR,NIGHT_FOG,CLOUDY,CLEAR,CLOUDY,OVERCAST,CLEAR,CLEAR,CLEAR","Onshore,Onshore,Onshore,Cross-shore,Onshore,Cross-shore,Onshore,Onshore,Onshore,Onshore,Cross-shore,Onshore,Onshore",13
5842041f4e65fad6a7708879,2024_07_22,26.76346795333825,-80.03607,Reef Road,0.923076923076923,0.13025615384615385,0.43234076923076925,31,29,"NIGHT_CLEAR,NIGHT_CLEAR,NIGHT_LIGHT_SHOWERS_POSSIBLE,NIGHT_CLEAR,NIGHT_CLEAR,NIGHT_CLEAR,OVERCAST,CLEAR,CLEAR,CLEAR,CLEAR,CLEAR,CLEAR","Onshore,Onshore,Onshore,Onshore,Onshore,Onshore,Cross-shore,Cross-shore,Cross-shore,Cross-shore,Onshore,Onshore,Onshore",13
5842041f4e65fad6a770887c,2024_07_22,26.336499228484,-80.06956100463,Boca Raton Inlet,0.6923076923076923,0.09987153846153846,0.4051623076923077,31,29,"NIGHT_CLEAR,NIGHT_CLEAR,NIGHT_CLEAR,NIGHT_CLEAR,NIGHT_CLEAR,NIGHT_CLEAR,CLOUDY,CLEAR,MOSTLY_CLOUDY,CLEAR,CLEAR,CLEAR,HEAVY_RAIN","Onshore,Onshore,Onshore,Cross-shore,Onshore,Onshore,Onshore,Cross-shore,Cross-shore,Onshore,Onshore,Onshore,Cross-shore",13
5842041f4e65fad6a770887d,2024_07_22,26.31719311695038,-80.07453,Deerfield Beach Pier,0.5641025641025641,0.10460923076923077,0.26968846153846154,31,29,"NIGHT_CLEAR,NIGHT_CLEAR,NIGHT_CLEAR,NIGHT_CLEAR,NIGHT_CLEAR,NIGHT_CLEAR,CLEAR,CLEAR,CLOUDY,CLEAR,CLEAR,CLEAR,RAIN","Onshore,Onshore,Onshore,Cross-shore,Onshore,Onshore,Onshore,Cross-shore,Cross-shore,Onshore,Onshore,Onshore,Offshore",13
5842041f4e65fad6a7708881,2024_07_22,30.20276320866628,-85.85626528676136,"Spyglass Dr., Panama City",0.38461538461538464,0,0.1825153846153846,31,29,"NIGHT_CLEAR,NIGHT_CLEAR,NIGHT_LIGHT_SHOWERS_POSSIBLE,NIGHT_CLEAR,NIGHT_CLEAR,NIGHT_CLEAR,CLEAR,CLEAR,MOSTLY_CLOUDY,MOSTLY_CLEAR,CLEAR,CLEAR,CLEAR","Onshore,Onshore,Onshore,Onshore,Cross-shore,Cross-shore,Onshore,Onshore,Onshore,Onshore,Onshore,Onshore,Onshore",13
5842041f4e65fad6a7708884,2024_07_22,33.39000832738053,-117.59852,Cottons,3,0.9362846153846154,1.1902638461538462,16,16,"NIGHT_CLEAR,NIGHT_CLEAR,NIGHT_MOSTLY_CLEAR,NIGHT_MOSTLY_CLOUDY,NIGHT_MOSTLY_CLOUDY,NIGHT_MOSTLY_CLOUDY,NIGHT_MOSTLY_CLOUDY,NIGHT_MOSTLY_CLOUDY,CLEAR,CLEAR,CLEAR,CLEAR,CLEAR","Offshore,Offshore,Offshore,Offshore,Offshore,Cross-shore,Offshore,Cross-shore,Onshore,Onshore,Onshore,Onshore,Onshore",13
5842041f4e65fad6a7708885,2024_07_22,33.359416282661,-117.54168,Trails,2.769230769230769,0.5553846153846154,0.8607692307692307,21.384615384615383,21.384615384615383,"NIGHT_MIST,NIGHT_CLEAR,NIGHT_CLEAR,NIGHT_MOSTLY_CLEAR,NIGHT_CLEAR,NIGHT_CLEAR,NIGHT_CLEAR,NIGHT_CLEAR,CLEAR,CLEAR,CLEAR,CLEAR,CLEAR","Cross-shore,Offshore,Onshore,Offshore,Offshore,Onshore,Offshore,Cross-shore,Onshore,Onshore,Onshore,Onshore,Onshore",13
5842041f4e65fad6a7708886,2024_07_22,33.38042605929805,-117.58332,Middles,3,0.8569230769230769,1.0753846153846154,16,16,"NIGHT_CLEAR,NIGHT_CLEAR,NIGHT_MOSTLY_CLEAR,NIGHT_MOSTLY_CLOUDY,NIGHT_MOSTLY_CLOUDY,NIGHT_MOSTLY_CLOUDY,NIGHT_MOSTLY_CLOUDY,NIGHT_MOSTLY_CLOUDY,CLEAR,CLEAR,CLEAR,CLEAR,CLEAR","Offshore,Offshore,Offshore,Offshore,Offshore,Offshore,Offshore,Offshore,Onshore,Onshore,Onshore,Onshore,Onshore",13
5842041f4e65fad6a7708887,2024_07_22,33.38445596302903,-117.59445,Upper Trestles,2.9615384615384617,0.8264769230769231,1.1277,16,16,"NIGHT_CLEAR,NIGHT_CLEAR,NIGHT_MOSTLY_CLEAR,NIGHT_MOSTLY_CLOUDY,NIGHT_MOSTLY_CLOUDY,NIGHT_MOSTLY_CLOUDY,NIGHT_MOSTLY_CLOUDY,NIGHT_MOSTLY_CLOUDY,CLEAR,CLEAR,CLEAR,CLEAR,CLEAR","Offshore,Offshore,Offshore,Offshore,Offshore,Offshore,Offshore,Offshore,Onshore,Onshore,Onshore,Onshore,Onshore",13
5842041f4e65fad6a7708889,2024_07_22,28.944414,-95.28883,Surfside,1.1538461538461537,0.3323969230769231,0.51937,30,30,"NIGHT_CLEAR,NIGHT_CLEAR,NIGHT_CLEAR,NIGHT_CLEAR,NIGHT_CLOUDY,NIGHT_CLOUDY,NIGHT_CLEAR,CLEAR,MOSTLY_CLOUDY,CLEAR,MOSTLY_CLEAR,MOSTLY_CLOUDY,CLOUDY","Cross-shore,Onshore,Onshore,Onshore,Cross-shore,Cross-shore,Onshore,Onshore,Onshore,Onshore,Onshore,Onshore,Onshore",13
5842041f4e65fad6a770888a,2024_07_22,33.38143999849023,-117.58843,Lower Trestles,3.948717948717949,1.0915046153846153,1.5104861538461538,16,16,"NIGHT_CLEAR,NIGHT_CLEAR,NIGHT_MOSTLY_CLEAR,NIGHT_MOSTLY_CLOUDY,NIGHT_MOSTLY_CLOUDY,NIGHT_MOSTLY_CLOUDY,NIGHT_MOSTLY_CLOUDY,NIGHT_MOSTLY_CLOUDY,CLEAR,CLEAR,CLEAR,CLEAR,CLEAR","Offshore,Offshore,Offshore,Offshore,Offshore,Offshore,Offshore,Offshore,Onshore,Onshore,Onshore,Onshore,Onshore",13
5842041f4e65fad6a770888b,2024_07_22,33.379622288757,-117.57894,Church,3,0.8079638461538462,1.0900484615384616,17,17,"NIGHT_CLEAR,NIGHT_CLEAR,NIGHT_MOSTLY_CLEAR,NIGHT_MOSTLY_CLOUDY,NIGHT_MOSTLY_CLOUDY,NIGHT_MOSTLY_CLOUDY,NIGHT_MOSTLY_CLOUDY,NIGHT_MOSTLY_CLOUDY,CLEAR,CLEAR,CLEAR,CLEAR,CLEAR","Offshore,Offshore,Offshore,Offshore,Offshore,Offshore,Offshore,Offshore,Onshore,Onshore,Onshore,Onshore,Onshore",13
5842041f4e65fad6a770888d,2024_07_22,21.679,-158.042,Sunset Beach,1.8076923076923077,0.19912230769230768,0.5025499999999999,26,25,"CLEAR,NIGHT_CLEAR,NIGHT_CLEAR,NIGHT_CLEAR,NIGHT_CLEAR,NIGHT_LIGHT_SHOWERS_POSSIBLE,NIGHT_BRIEF_SHOWERS_POSSIBLE,NIGHT_CLEAR,CLEAR,CLEAR,CLEAR,LIGHT_SHOWERS_POSSIBLE,LIGHT_SHOWERS_POSSIBLE","Cross-shore,Cross-shore,Offshore,Offshore,Cross-shore,Offshore,Offshore,Offshore,Cross-shore,Offshore,Cross-shore,Cross-shore,Cross-shore",13
5842041f4e65fad6a770888e,2024_07_22,21.670550036401,-158.0482,Rocky Point,1.8076923076923077,0.28819076923076925,0.5922276923076923,26,25,"CLEAR,NIGHT_CLEAR,NIGHT_CLEAR,NIGHT_CLEAR,NIGHT_CLEAR,NIGHT_CLEAR,NIGHT_CLEAR,NIGHT_CLEAR,MOSTLY_CLEAR,CLEAR,CLEAR,CLEAR,CLEAR","Cross-shore,Cross-shore,Cross-shore,Cross-shore,Cross-shore,Cross-shore,Offshore,Cross-shore,Cross-shore,Cross-shore,Cross-shore,Cross-shore,Cross-shore",13
5842041f4e65fad6a770888f,2024_07_22,21.668,-158.05,Chambers,2,0.2724653846153846,0.5803915384615385,26,26,"CLEAR,NIGHT_CLEAR,NIGHT_CLEAR,NIGHT_CLEAR,NIGHT_CLEAR,NIGHT_CLEAR,NIGHT_CLEAR,NIGHT_CLEAR,MOSTLY_CLEAR,CLEAR,CLEAR,CLEAR,CLEAR","Cross-shore,Cross-shore,Cross-shore,Cross-shore,Cross-shore,Cross-shore,Offshore,Offshore,Onshore,Cross-shore,Cross-shore,Cross-shore,Offshore",13
5842041f4e65fad6a7708890,2024_07_22,21.66522,-158.0526,Pipeline,1,0.007692307692307693,0.25698846153846155,26,25,"CLEAR,NIGHT_CLEAR,NIGHT_CLEAR,NIGHT_CLEAR,NIGHT_CLEAR,NIGHT_CLEAR,NIGHT_CLEAR,NIGHT_CLEAR,MOSTLY_CLEAR,CLEAR,CLEAR,CLEAR,CLEAR","Cross-shore,Cross-shore,Cross-shore,Cross-shore,Cross-shore,Cross-shore,Offshore,Cross-shore,Offshore,Cross-shore,Cross-shore,Cross-shore,Cross-shore",13
5842041f4e65fad6a7708891,2024_07_22,21.665,-158.054,Backdoor,1.2307692307692308,0.007692307692307693,0.25698846153846155,26,25,"CLEAR,NIGHT_CLEAR,NIGHT_CLEAR,NIGHT_CLEAR,NIGHT_CLEAR,NIGHT_CLEAR,NIGHT_CLEAR,NIGHT_CLEAR,MOSTLY_CLEAR,CLEAR,CLEAR,CLEAR,CLEAR","Cross-shore,Cross-shore,Cross-shore,Cross-shore,Cross-shore,Cross-shore,Offshore,Cross-shore,Cross-shore,Cross-shore,Cross-shore,Cross-shore,Cross-shore",13
5842041f4e65fad6a7708892,2024_07_22,21.662,-158.057,Rockpile,2,0.25384615384615383,0.56,26,26,"CLEAR,NIGHT_CLEAR,NIGHT_CLEAR,NIGHT_CLEAR,NIGHT_CLEAR,NIGHT_CLEAR,NIGHT_CLEAR,NIGHT_CLEAR,MOSTLY_CLEAR,CLEAR,CLEAR,CLEAR,CLEAR","Cross-shore,Cross-shore,Cross-shore,Cross-shore,Cross-shore,Cross-shore,Offshore,Cross-shore,Cross-shore,Cross-shore,Cross-shore,Cross-shore,Offshore",13
5842041f4e65fad6a7708893,2024_07_22,21.65870453806827,-158.06058,Log Cabins,1,0.07095230769230769,0.3806330769230769,26,26,"CLEAR,NIGHT_CLEAR,NIGHT_CLEAR,NIGHT_CLEAR,NIGHT_CLEAR,NIGHT_CLEAR,NIGHT_CLEAR,NIGHT_CLEAR,MOSTLY_CLEAR,CLEAR,CLEAR,CLEAR,CLEAR","Cross-shore,Cross-shore,Cross-shore,Cross-shore,Cross-shore,Cross-shore,Offshore,Cross-shore,Offshore,Cross-shore,Cross-shore,Cross-shore,Cross-shore",13
5842041f4e65fad6a7708894,2024_07_22,21.66203493640557,-158.05495,Off-The-Wall,2,0.04461538461538462,0.35,26,26,"CLEAR,NIGHT_CLEAR,NIGHT_CLEAR,NIGHT_CLEAR,NIGHT_CLEAR,NIGHT_CLEAR,NIGHT_CLEAR,NIGHT_CLEAR,MOSTLY_CLEAR,CLEAR,CLEAR,CLEAR,CLEAR","Cross-shore,Cross-shore,Cross-shore,Cross-shore,Cross-shore,Cross-shore,Offshore,Cross-shore,Onshore,Offshore,Cross-shore,Cross-shore,Offshore",13
5842041f4e65fad6a7708895,2024_07_22,21.643,-158.067,Waimea Bay,NA,0.061794615384615385,0.32141000000000003,26,25,"CLEAR,NIGHT_CLEAR,NIGHT_CLEAR,NIGHT_CLEAR,NIGHT_CLEAR,NIGHT_CLEAR,NIGHT_CLEAR,NIGHT_CLEAR,MOSTLY_CLEAR,CLEAR,CLEAR,CLEAR,CLEAR","Offshore,Offshore,Offshore,Offshore,Cross-shore,Offshore,Offshore,Offshore,Offshore,Offshore,Offshore,Cross-shore,Cross-shore",13
5842041f4e65fad6a7708896,2024_07_22,21.622,-158.087,Hultin's,1,0.1712823076923077,0.4765384615384615,26,25,"CLEAR,NIGHT_CLEAR,NIGHT_CLEAR,NIGHT_CLEAR,NIGHT_CLEAR,NIGHT_CLEAR,NIGHT_CLEAR,NIGHT_CLEAR,MOSTLY_CLEAR,CLEAR,CLEAR,CLEAR,CLEAR","Offshore,Offshore,Offshore,Offshore,Offshore,Offshore,Offshore,Offshore,Offshore,Offshore,Offshore,Offshore,Offshore",13
5842041f4e65fad6a7708897,2024_07_22,21.623,-158.085,Jocko's,1.6153846153846154,0.023846153846153847,0.32076923076923075,26,26,"CLEAR,NIGHT_CLEAR,NIGHT_CLEAR,NIGHT_CLEAR,NIGHT_CLEAR,NIGHT_CLEAR,NIGHT_CLEAR,NIGHT_CLEAR,MOSTLY_CLEAR,CLEAR,CLEAR,CLEAR,CLEAR","Cross-shore,Cross-shore,Cross-shore,Cross-shore,Cross-shore,Cross-shore,Cross-shore,Cross-shore,Cross-shore,Onshore,Cross-shore,Onshore,Onshore",13
5842041f4e65fad6a7708898,2024_07_22,21.62,-158.088,Laniakea,1.8076923076923077,0.4183192307692308,0.7812,26,25,"CLEAR,NIGHT_CLEAR,NIGHT_CLEAR,NIGHT_CLEAR,NIGHT_CLEAR,NIGHT_CLEAR,NIGHT_CLEAR,NIGHT_CLEAR,MOSTLY_CLEAR,CLEAR,CLEAR,CLEAR,CLEAR","Offshore,Offshore,Offshore,Offshore,Offshore,Offshore,Offshore,Offshore,Cross-shore,Cross-shore,Cross-shore,Cross-shore,Cross-shore",13
5842041f4e65fad6a7708899,2024_07_22,21.625,-158.083,Chun's,1,0.17461538461538462,0.4769230769230769,26,26,"CLEAR,NIGHT_CLEAR,NIGHT_CLEAR,NIGHT_CLEAR,NIGHT_CLEAR,NIGHT_CLEAR,NIGHT_CLEAR,NIGHT_CLEAR,MOSTLY_CLEAR,CLEAR,CLEAR,CLEAR,CLEAR","Offshore,Offshore,Offshore,Offshore,Offshore,Offshore,Offshore,Offshore,Offshore,Offshore,Offshore,Offshore,Offshore",13
5842041f4e65fad6a770889c,2024_07_22,21.286357895152136,-157.8515,South Shore - Ala Moana Park,2,0.5615384615384615,0.8646153846153846,26,26,"CLEAR,NIGHT_CLEAR,NIGHT_MOSTLY_CLEAR,NIGHT_MOSTLY_CLEAR,NIGHT_MOSTLY_CLOUDY,NIGHT_CLEAR,NIGHT_CLEAR,NIGHT_CLEAR,CLEAR,CLEAR,CLEAR,CLEAR,CLEAR","Offshore,Offshore,Offshore,Offshore,Offshore,Offshore,Offshore,Offshore,Offshore,Offshore,Offshore,Offshore,Offshore",13
5842041f4e65fad6a770889d,2024_07_22,19.606,-155.978,Banyans,2.6153846153846154,0.3812823076923077,0.6858976923076923,26,25,"MOSTLY_CLEAR,NIGHT_MOSTLY_CLOUDY,NIGHT_MOSTLY_CLOUDY,NIGHT_MOSTLY_CLOUDY,NIGHT_BRIEF_SHOWERS,NIGHT_CLEAR,NIGHT_MIST,NIGHT_CLEAR,CLEAR,CLEAR,CLEAR,CLEAR,CLEAR","Onshore,Cross-shore,Onshore,Cross-shore,Cross-shore,Cross-shore,Cross-shore,Cross-shore,Cross-shore,Onshore,Onshore,Onshore,Onshore",13
5842041f4e65fad6a770889e,2024_07_22,20.029,-155.831,Kawaihae,1.9230769230769231,0.4444,0.5844338461538462,26,26,"MOSTLY_CLEAR,NIGHT_MOSTLY_CLEAR,NIGHT_MOSTLY_CLEAR,NIGHT_CLEAR,NIGHT_CLEAR,NIGHT_CLEAR,NIGHT_LIGHT_SHOWERS_POSSIBLE,NIGHT_SHOWERS,CLEAR,CLEAR,CLEAR,CLEAR,CLEAR","Onshore,Onshore,Onshore,Onshore,Cross-shore,Offshore,Offshore,Offshore,Onshore,Onshore,Onshore,Onshore,Onshore",13
5842041f4e65fad6a770889f,2024_07_22,33.07541383424675,-117.3105,Grandview,2.6923076923076925,0.7032492307692307,1.0294630769230768,21.384615384615383,21.384615384615383,"NIGHT_MOSTLY_CLEAR,NIGHT_MOSTLY_CLEAR,NIGHT_MOSTLY_CLEAR,NIGHT_MIST,NIGHT_MIST,NIGHT_MOSTLY_CLOUDY,NIGHT_MOSTLY_CLOUDY,NIGHT_MOSTLY_CLOUDY,MIST,MIST,MIST,MIST,BRIEF_SHOWERS","Onshore,Onshore,Onshore,Onshore,Onshore,Onshore,Onshore,Onshore,Onshore,Onshore,Onshore,Onshore,Onshore",13
5842041f4e65fad6a77088a0,2024_07_22,33.065267421296596,-117.30577,Beacons,2.6923076923076925,0.5923092307692308,0.9628476923076923,21.384615384615383,21.384615384615383,"NIGHT_MOSTLY_CLEAR,NIGHT_MOSTLY_CLEAR,NIGHT_MOSTLY_CLEAR,NIGHT_MIST,NIGHT_MIST,NIGHT_MOSTLY_CLOUDY,NIGHT_MOSTLY_CLOUDY,NIGHT_MOSTLY_CLOUDY,MIST,MIST,MIST,MIST,BRIEF_SHOWERS","Onshore,Onshore,Onshore,Onshore,Onshore,Onshore,Onshore,Onshore,Onshore,Onshore,Onshore,Onshore,Onshore",13
5842041f4e65fad6a77088a2,2024_07_22,21.252,-157.805,Diamond Head,2.730769230769231,0.7834623076923077,1.0987500000000001,26,25,"MOSTLY_CLEAR,NIGHT_CLEAR,NIGHT_MOSTLY_CLEAR,NIGHT_MOSTLY_CLEAR,NIGHT_MOSTLY_CLOUDY,NIGHT_CLEAR,NIGHT_MOSTLY_CLOUDY,NIGHT_CLEAR,CLEAR,CLEAR,CLEAR,CLEAR,CLEAR","Cross-shore,Cross-shore,Cross-shore,Cross-shore,Cross-shore,Cross-shore,Cross-shore,Cross-shore,Cross-shore,Cross-shore,Cross-shore,Cross-shore,Cross-shore",13
5842041f4e65fad6a77088a3,2024_07_22,33.04694255008896,-117.29966,Moonlight State Beach,2.923076923076923,0.6153846153846154,0.92,21.384615384615383,21.384615384615383,"NIGHT_MOSTLY_CLEAR,NIGHT_MOSTLY_CLEAR,NIGHT_MOSTLY_CLOUDY,NIGHT_MIST,NIGHT_MIST,NIGHT_MOSTLY_CLOUDY,NIGHT_MOSTLY_CLOUDY,NIGHT_MOSTLY_CLOUDY,MIST,MIST,MIST,BRIEF_SHOWERS,BRIEF_SHOWERS","Onshore,Onshore,Cross-shore,Cross-shore,Cross-shore,Cross-shore,Cross-shore,Cross-shore,Onshore,Onshore,Onshore,Onshore,Onshore",13
5842041f4e65fad6a77088a5,2024_07_22,33.08685865930869,-117.31532,Ponto,2.6153846153846154,0.6601684615384615,0.966343076923077,21.384615384615383,21.384615384615383,"NIGHT_MOSTLY_CLEAR,NIGHT_MOSTLY_CLEAR,NIGHT_MOSTLY_CLEAR,NIGHT_MIST,NIGHT_MIST,NIGHT_MOSTLY_CLOUDY,NIGHT_MOSTLY_CLOUDY,NIGHT_MOSTLY_CLOUDY,MIST,MIST,MIST,MIST,BRIEF_SHOWERS","Onshore,Cross-shore,Onshore,Cross-shore,Cross-shore,Cross-shore,Cross-shore,Cross-shore,Onshore,Onshore,Onshore,Onshore,Onshore",13
5842041f4e65fad6a77088a6,2024_07_22,33.130343587871906,-117.33668,Terra Mar Point,2.6153846153846154,0.6121746153846154,0.9018323076923077,21,21,"NIGHT_CLEAR,NIGHT_CLEAR,NIGHT_CLEAR,NIGHT_MOSTLY_CLOUDY,NIGHT_MIST,NIGHT_MIST,NIGHT_MOSTLY_CLOUDY,NIGHT_MOSTLY_CLOUDY,CLEAR,CLEAR,CLEAR,CLEAR,CLEAR","Onshore,Onshore,Onshore,Onshore,Cross-shore,Cross-shore,Offshore,Offshore,Onshore,Onshore,Onshore,Onshore,Onshore",13
5842041f4e65fad6a77088af,2024_07_22,32.95916304183685,-117.26963,Del Mar,2.6923076923076925,0.5355469230769231,0.8380353846153846,21,21,"NIGHT_MOSTLY_CLEAR,NIGHT_MOSTLY_CLEAR,NIGHT_MIST,NIGHT_MIST,NIGHT_MIST,NIGHT_MOSTLY_CLOUDY,NIGHT_MOSTLY_CLOUDY,NIGHT_MOSTLY_CLOUDY,MIST,BRIEF_SHOWERS,MIST,BRIEF_SHOWERS,BRIEF_SHOWERS","Onshore,Onshore,Onshore,Onshore,Onshore,Onshore,Cross-shore,Cross-shore,Onshore,Onshore,Onshore,Onshore,Onshore",13
5842041f4e65fad6a77088b0,2024_07_22,32.97527261243354,-117.2721061331305,Del Mar Rivermouth,2.6923076923076925,0.7176923076923077,0.99,21,21,"NIGHT_MOSTLY_CLEAR,NIGHT_MOSTLY_CLEAR,NIGHT_MIST,NIGHT_MIST,NIGHT_MIST,NIGHT_MOSTLY_CLOUDY,NIGHT_MOSTLY_CLOUDY,NIGHT_MOSTLY_CLOUDY,MIST,BRIEF_SHOWERS,MIST,BRIEF_SHOWERS,BRIEF_SHOWERS","Onshore,Onshore,Onshore,Onshore,Onshore,Onshore,Cross-shore,Cross-shore,Onshore,Onshore,Onshore,Onshore,Onshore",13
5842041f4e65fad6a77088b1,2024_07_22,33.01352178146273,-117.28219,Cardiff Reef,2.6153846153846154,0.6410284615384615,0.943976923076923,20,20,"NIGHT_CLEAR,NIGHT_CLEAR,NIGHT_MOSTLY_CLOUDY,NIGHT_MIST,NIGHT_MIST,NIGHT_MIST,NIGHT_MOSTLY_CLOUDY,NIGHT_MOSTLY_CLOUDY,MIST,MIST,MIST,BRIEF_SHOWERS,BRIEF_SHOWERS","Onshore,Onshore,Onshore,Onshore,Cross-shore,Offshore,Offshore,Offshore,Onshore,Onshore,Onshore,Onshore,Onshore",13
5842041f4e65fad6a77088b3,2024_07_22,33.00211185876003,-117.2811,Seaside Reef,2.6923076923076925,0.6484615384615384,0.9515384615384616,21,21,"NIGHT_CLEAR,NIGHT_CLEAR,NIGHT_MIST,NIGHT_MIST,NIGHT_MIST,NIGHT_MIST,NIGHT_MOSTLY_CLOUDY,NIGHT_MOSTLY_CLOUDY,MIST,MIST,MIST,BRIEF_SHOWERS,BRIEF_SHOWERS","Onshore,Onshore,Onshore,Onshore,Onshore,Onshore,Cross-shore,Cross-shore,Onshore,Onshore,Onshore,Onshore,Onshore",13
5842041f4e65fad6a77088b4,2024_07_22,33.0341859796287,-117.29552,Swami's,2.6153846153846154,0.542583076923077,0.8457376923076924,20,20,"NIGHT_CLEAR,NIGHT_CLEAR,NIGHT_MOSTLY_CLOUDY,NIGHT_MIST,NIGHT_MIST,NIGHT_MIST,NIGHT_MOSTLY_CLOUDY,NIGHT_MOSTLY_CLOUDY,MIST,MIST,MIST,BRIEF_SHOWERS,BRIEF_SHOWERS","Onshore,Onshore,Cross-shore,Cross-shore,Cross-shore,Cross-shore,Offshore,Cross-shore,Onshore,Onshore,Onshore,Onshore,Onshore",13
5842041f4e65fad6a77088b7,2024_07_22,33.04569760260221,-117.2994,D Street,3,0.5956292307692308,0.9663946153846154,21.384615384615383,21.384615384615383,"NIGHT_MOSTLY_CLEAR,NIGHT_MOSTLY_CLEAR,NIGHT_MOSTLY_CLOUDY,NIGHT_MIST,NIGHT_MIST,NIGHT_MOSTLY_CLOUDY,NIGHT_MOSTLY_CLOUDY,NIGHT_MOSTLY_CLOUDY,MIST,MIST,MIST,BRIEF_SHOWERS,BRIEF_SHOWERS","Onshore,Onshore,Cross-shore,Cross-shore,Offshore,Cross-shore,Offshore,Cross-shore,Onshore,Onshore,Onshore,Onshore,Onshore",13
5842041f4e65fad6a77088b8,2024_07_22,33.02090944350196,-117.28535,San Elijo State Beach,2.6153846153846154,0.4260269230769231,0.7349461538461538,20,20,"NIGHT_CLEAR,NIGHT_CLEAR,NIGHT_MOSTLY_CLOUDY,NIGHT_MIST,NIGHT_MIST,NIGHT_MIST,NIGHT_MOSTLY_CLOUDY,NIGHT_MOSTLY_CLOUDY,MIST,MIST,MIST,BRIEF_SHOWERS,BRIEF_SHOWERS","Onshore,Onshore,Onshore,Onshore,Cross-shore,Offshore,Offshore,Offshore,Onshore,Onshore,Onshore,Onshore,Onshore",13
5842041f4e65fad6a77088c2,2024_07_22,32.80662846492798,-117.26888,PB Point,2.6153846153846154,0.6607692307692308,0.9646153846153847,21,21,"NIGHT_CLEAR,NIGHT_CLEAR,NIGHT_CLEAR,NIGHT_CLEAR,NIGHT_MIST,NIGHT_MIST,NIGHT_CLEAR,NIGHT_CLEAR,CLEAR,CLEAR,CLEAR,CLEAR,CLEAR","Onshore,Onshore,Onshore,Cross-shore,Onshore,Cross-shore,Onshore,Cross-shore,Onshore,Onshore,Onshore,Onshore,Cross-shore",13
5842041f4e65fad6a77088c4,2024_07_22,32.8060476681448,-117.26479,Old Man's at Tourmaline,2.6153846153846154,0.3756923076923077,0.6813530769230769,21,21,"NIGHT_CLEAR,NIGHT_CLEAR,NIGHT_CLEAR,NIGHT_CLEAR,NIGHT_MIST,NIGHT_MIST,NIGHT_CLEAR,NIGHT_CLEAR,CLEAR,CLEAR,CLEAR,CLEAR,CLEAR","Onshore,Onshore,Onshore,Onshore,Onshore,Cross-shore,Onshore,Offshore,Onshore,Onshore,Onshore,Onshore,Cross-shore",13
5842041f4e65fad6a77088cb,2024_07_22,32.557056711256,-117.1327445020322,Tijuana Slough,2.6923076923076925,0.6353846153846154,0.9384615384615385,21,21,"NIGHT_CLEAR,NIGHT_MOSTLY_CLEAR,NIGHT_MIST,NIGHT_MIST,NIGHT_MIST,NIGHT_MIST,NIGHT_MOSTLY_CLOUDY,NIGHT_MOSTLY_CLOUDY,MIST,BRIEF_SHOWERS,MIST,MIST,MIST","Onshore,Onshore,Onshore,Onshore,Onshore,Onshore,Onshore,Onshore,Onshore,Onshore,Onshore,Onshore,Onshore",13
5842041f4e65fad6a77088cc,2024_07_22,32.863,-117.257,La Jolla Shores,2.6923076923076925,0.6061538461538462,0.9115384615384615,21,21,"NIGHT_CLEAR,NIGHT_MOSTLY_CLEAR,NIGHT_MIST,NIGHT_MIST,NIGHT_MIST,NIGHT_MIST,NIGHT_MIST,NIGHT_MOSTLY_CLOUDY,MIST,BRIEF_SHOWERS,MIST,BRIEF_SHOWERS,BRIEF_SHOWERS","Onshore,Onshore,Onshore,Onshore,Onshore,Onshore,Onshore,Onshore,Onshore,Onshore,Onshore,Onshore,Onshore",13
5842041f4e65fad6a77088ce,2024_07_22,32.67443657790586,-117.17421,Coronado Beach,2.6153846153846154,0.36,0.6646153846153846,21,21,"NIGHT_CLEAR,NIGHT_MOSTLY_CLOUDY,NIGHT_MIST,NIGHT_MIST,NIGHT_MIST,NIGHT_MIST,NIGHT_CLEAR,NIGHT_CLEAR,MIST,MIST,MIST,MIST,MIST","Onshore,Onshore,Onshore,Onshore,Onshore,Onshore,Onshore,Onshore,Onshore,Onshore,Onshore,Onshore,Onshore",13
5842041f4e65fad6a77088cf,2024_07_22,33.40484417640326,-117.60749,San Clemente State Beach,2.6923076923076925,0.5146153846153846,0.8184615384615385,21.384615384615383,21.384615384615383,"NIGHT_MIST,NIGHT_MOSTLY_CLEAR,NIGHT_MOSTLY_CLEAR,NIGHT_MOSTLY_CLEAR,NIGHT_MOSTLY_CLOUDY,NIGHT_MOSTLY_CLOUDY,NIGHT_MOSTLY_CLOUDY,NIGHT_MOSTLY_CLOUDY,CLEAR,CLEAR,CLEAR,CLEAR,CLEAR","Onshore,Onshore,Onshore,Cross-shore,Cross-shore,Onshore,Cross-shore,Cross-shore,Onshore,Onshore,Onshore,Onshore,Onshore",13
5842041f4e65fad6a77088d5,2024_07_22,33.4663042002114,-117.7168352817103,Strands,2.5,0.6400792307692308,0.9478792307692308,16,16,"NIGHT_MIST,NIGHT_MIST,NIGHT_MOSTLY_CLOUDY,NIGHT_MOSTLY_CLOUDY,NIGHT_MOSTLY_CLOUDY,NIGHT_MOSTLY_CLOUDY,NIGHT_MOSTLY_CLOUDY,NIGHT_MOSTLY_CLOUDY,MIST,BRIEF_SHOWERS,MIST,BRIEF_SHOWERS,MIST","Cross-shore,Cross-shore,Onshore,Onshore,Onshore,Onshore,Onshore,Onshore,Onshore,Onshore,Onshore,Onshore,Onshore",13
5842041f4e65fad6a77088d7,2024_07_22,33.4609858001748,-117.68535,Doheny State Beach,2.1538461538461537,0.41566000000000003,0.7493015384615385,16,16,"NIGHT_CLEAR,NIGHT_CLEAR,NIGHT_CLEAR,NIGHT_CLEAR,NIGHT_CLEAR,NIGHT_CLEAR,NIGHT_MOSTLY_CLOUDY,NIGHT_MOSTLY_CLOUDY,CLEAR,CLEAR,CLEAR,CLEAR,CLEAR","Onshore,Onshore,Onshore,Onshore,Onshore,Onshore,Onshore,Onshore,Onshore,Onshore,Onshore,Onshore,Onshore",13
5842041f4e65fad6a77088dc,2024_07_22,33.50894790083017,-117.75243,Aliso Creek,2.6923076923076925,0.5192307692307693,0.8238461538461539,21.384615384615383,21.384615384615383,"NIGHT_MIST,NIGHT_MIST,NIGHT_MOSTLY_CLOUDY,NIGHT_MOSTLY_CLOUDY,NIGHT_MOSTLY_CLOUDY,NIGHT_MOSTLY_CLOUDY,NIGHT_MOSTLY_CLOUDY,NIGHT_MOSTLY_CLOUDY,MIST,BRIEF_SHOWERS,MIST,BRIEF_SHOWERS,BRIEF_SHOWERS","Onshore,Onshore,Onshore,Onshore,Onshore,Onshore,Onshore,Onshore,Onshore,Onshore,Onshore,Onshore,Onshore",13
5842041f4e65fad6a77088dd,2024_07_22,33.5326591767067,-117.77764,Brooks Street,2.6153846153846154,0.3976923076923077,0.703076923076923,21.384615384615383,21.384615384615383,"NIGHT_MIST,NIGHT_MIST,NIGHT_MOSTLY_CLOUDY,NIGHT_MOSTLY_CLOUDY,NIGHT_MOSTLY_CLOUDY,NIGHT_MOSTLY_CLOUDY,NIGHT_MOSTLY_CLOUDY,NIGHT_MOSTLY_CLOUDY,MIST,MIST,MIST,MIST,MIST","Onshore,Onshore,Onshore,Onshore,Onshore,Cross-shore,Cross-shore,Offshore,Onshore,Onshore,Onshore,Onshore,Onshore",13
5842041f4e65fad6a77088de,2024_07_22,33.53561225884637,-117.7799,Thalia Street,2.6153846153846154,0.37153846153846154,0.6761538461538462,21.384615384615383,21.384615384615383,"NIGHT_MIST,NIGHT_MIST,NIGHT_MOSTLY_CLOUDY,NIGHT_MOSTLY_CLOUDY,NIGHT_MOSTLY_CLOUDY,NIGHT_MOSTLY_CLOUDY,NIGHT_MOSTLY_CLOUDY,NIGHT_MOSTLY_CLOUDY,MIST,MIST,MIST,MIST,MIST","Onshore,Onshore,Onshore,Onshore,Onshore,Cross-shore,Cross-shore,Offshore,Onshore,Onshore,Onshore,Onshore,Onshore",13
5842041f4e65fad6a77088e3,2024_07_22,33.54268310353641,-117.7916,Rockpile,2.923076923076923,0.3976923076923077,0.703076923076923,21.384615384615383,21.384615384615383,"NIGHT_MIST,NIGHT_MIST,NIGHT_MOSTLY_CLOUDY,NIGHT_MOSTLY_CLOUDY,NIGHT_MOSTLY_CLOUDY,NIGHT_MOSTLY_CLOUDY,NIGHT_MOSTLY_CLOUDY,NIGHT_MOSTLY_CLOUDY,MIST,MIST,MIST,MIST,MIST","Onshore,Onshore,Onshore,Onshore,Onshore,Cross-shore,Cross-shore,Offshore,Onshore,Onshore,Onshore,Onshore,Onshore",13
5842041f4e65fad6a77088e4,2024_07_22,33.7368459504689,-118.10342,"Seal Beach Pier, Southside",2.5384615384615383,0.38461538461538464,0.6892307692307692,20,20,"NIGHT_BRIEF_SHOWERS,NIGHT_MIST,NIGHT_MIST,NIGHT_MIST,NIGHT_MIST,NIGHT_MIST,NIGHT_MIST,NIGHT_MOSTLY_CLOUDY,MIST,BRIEF_SHOWERS,MIST,MIST,MIST","Onshore,Onshore,Cross-shore,Onshore,Onshore,Onshore,Onshore,Onshore,Onshore,Onshore,Onshore,Onshore,Onshore",13
5842041f4e65fad6a77088e5,2024_07_22,33.73933701820233,-118.117,Ray Bay,2.4615384615384617,0.3792307692307692,0.6846153846153846,20,20,"NIGHT_MOSTLY_CLEAR,NIGHT_MOSTLY_CLEAR,NIGHT_MOSTLY_CLOUDY,NIGHT_MOSTLY_CLOUDY,NIGHT_MOSTLY_CLOUDY,NIGHT_MOSTLY_CLOUDY,NIGHT_MOSTLY_CLOUDY,NIGHT_MOSTLY_CLOUDY,MOSTLY_CLEAR,BRIEF_SHOWERS,MOSTLY_CLEAR,BRIEF_SHOWERS,MOSTLY_CLEAR","Onshore,Onshore,Cross-shore,Cross-shore,Onshore,Onshore,Onshore,Onshore,Onshore,Onshore,Onshore,Onshore,Onshore",13
5842041f4e65fad6a77088e7,2024_07_22,33.728733,-118.08982,Surfside,0.9230769230769231,0,0.2915384615384615,20,20,"NIGHT_MOSTLY_CLEAR,NIGHT_MIST,NIGHT_MIST,NIGHT_MIST,NIGHT_MIST,NIGHT_MIST,NIGHT_MIST,NIGHT_MOSTLY_CLOUDY,CLEAR,CLEAR,CLEAR,CLEAR,CLEAR","Onshore,Onshore,Onshore,Onshore,Onshore,Onshore,Cross-shore,Onshore,Onshore,Onshore,Onshore,Onshore,Onshore",13
5842041f4e65fad6a77088e8,2024_07_22,33.68760321488161,-118.04236,Bolsa Chica State Beach,2.5384615384615383,0.5103092307692307,0.7959515384615384,17,17,"NIGHT_MOSTLY_CLOUDY,NIGHT_MOSTLY_CLOUDY,NIGHT_CLEAR,NIGHT_MOSTLY_CLOUDY,NIGHT_MOSTLY_CLOUDY,NIGHT_MOSTLY_CLOUDY,NIGHT_CLEAR,NIGHT_CLEAR,MOSTLY_CLOUDY,CLEAR,CLEAR,CLEAR,CLEAR","Offshore,Offshore,Offshore,Offshore,Offshore,Offshore,Offshore,Offshore,Onshore,Onshore,Onshore,Onshore,Onshore",13
5842041f4e65fad6a77088ea,2024_07_22,33.66704400178788,-118.0192,North HB Streets,2.923076923076923,0.7722084615384616,1.0941176923076923,17,17,"NIGHT_MOSTLY_CLOUDY,NIGHT_CLEAR,NIGHT_MOSTLY_CLOUDY,NIGHT_MOSTLY_CLOUDY,NIGHT_MOSTLY_CLOUDY,NIGHT_CLEAR,NIGHT_CLEAR,NIGHT_MOSTLY_CLOUDY,CLEAR,CLEAR,CLEAR,CLEAR,CLEAR","Onshore,Onshore,Onshore,Onshore,Onshore,Onshore,Offshore,Onshore,Onshore,Onshore,Onshore,Onshore,Onshore",13
5842041f4e65fad6a77088ed,2024_07_22,33.65475101379567,-118.00291,Huntington Beach Pier Southside,2.923076923076923,0.8573023076923076,1.169813846153846,17,17,"NIGHT_MOSTLY_CLOUDY,NIGHT_CLEAR,NIGHT_MOSTLY_CLOUDY,NIGHT_MOSTLY_CLOUDY,NIGHT_MOSTLY_CLOUDY,NIGHT_CLEAR,NIGHT_CLEAR,NIGHT_MOSTLY_CLOUDY,CLEAR,CLEAR,CLEAR,CLEAR,CLEAR","Onshore,Cross-shore,Onshore,Onshore,Onshore,Onshore,Cross-shore,Onshore,Onshore,Onshore,Onshore,Onshore,Onshore",13
5842041f4e65fad6a77088ee,2024_07_22,33.62778647706099,-117.95939,River Jetties,2.4743589743589745,0.7100615384615384,1.019723076923077,18,18,"NIGHT_BRIEF_SHOWERS,NIGHT_MOSTLY_CLOUDY,NIGHT_MOSTLY_CLOUDY,NIGHT_MOSTLY_CLOUDY,NIGHT_MIST,NIGHT_MIST,NIGHT_MIST,NIGHT_MOSTLY_CLOUDY,MOSTLY_CLOUDY,BRIEF_SHOWERS,MOSTLY_CLOUDY,BRIEF_SHOWERS,BRIEF_SHOWERS","Cross-shore,Cross-shore,Cross-shore,Cross-shore,Onshore,Onshore,Cross-shore,Cross-shore,Onshore,Onshore,Onshore,Onshore,Onshore",13
5842041f4e65fad6a77088f2,2024_07_22,33.605165797643664,-117.925,Newport Point,1.9230769230769231,0.21384615384615385,0.5215384615384615,21,21,"NIGHT_MIST,NIGHT_MIST,NIGHT_MIST,NIGHT_MIST,NIGHT_MIST,NIGHT_MIST,NIGHT_MIST,NIGHT_MOSTLY_CLOUDY,MIST,MIST,MIST,MIST,MIST","Onshore,Onshore,Onshore,Onshore,Onshore,Onshore,Onshore,Onshore,Onshore,Onshore,Onshore,Onshore,Onshore",13
5842041f4e65fad6a77088f3,2024_07_22,33.58982984726977,-117.87713,Corona del Mar,2.8461538461538463,0.4276923076923077,0.7323076923076923,21.384615384615383,21.384615384615383,"NIGHT_MIST,NIGHT_MIST,NIGHT_BRIEF_SHOWERS,NIGHT_MIST,NIGHT_BRIEF_SHOWERS,NIGHT_MOSTLY_CLOUDY,NIGHT_MOSTLY_CLOUDY,NIGHT_MOSTLY_CLOUDY,MIST,BRIEF_SHOWERS,MIST,BRIEF_SHOWERS,BRIEF_SHOWERS","Cross-shore,Cross-shore,Cross-shore,Cross-shore,Offshore,Offshore,Cross-shore,Cross-shore,Onshore,Onshore,Onshore,Onshore,Onshore",13
5842041f4e65fad6a77088f7,2024_07_22,34.00750300824362,-118.4971783496269,Santa Monica Pier,2.4615384615384617,0.4469230769230769,0.7515384615384615,20.615384615384617,20.615384615384617,"NIGHT_CLEAR,NIGHT_CLEAR,NIGHT_CLEAR,NIGHT_CLEAR,NIGHT_CLEAR,NIGHT_CLEAR,NIGHT_MOSTLY_CLEAR,NIGHT_MOSTLY_CLEAR,CLEAR,CLEAR,CLEAR,CLEAR,CLEAR","Onshore,Onshore,Onshore,Onshore,Onshore,Onshore,Onshore,Onshore,Onshore,Onshore,Onshore,Onshore,Onshore",13
5842041f4e65fad6a77088ff,2024_07_22,33.94070283102945,-118.44321,Dockweiler Beach,2.6025641025641026,0.6758253846153847,0.98121,20.692307692307693,20.692307692307693,"NIGHT_BRIEF_SHOWERS,NIGHT_MOSTLY_CLEAR,NIGHT_MOSTLY_CLEAR,NIGHT_MOSTLY_CLEAR,NIGHT_MOSTLY_CLEAR,NIGHT_MOSTLY_CLEAR,NIGHT_MOSTLY_CLOUDY,NIGHT_MOSTLY_CLEAR,MIST,SHOWERS,MIST,SHOWERS,SHOWERS","Onshore,Onshore,Onshore,Onshore,Onshore,Onshore,Onshore,Onshore,Onshore,Onshore,Onshore,Onshore,Onshore",13
5842041f4e65fad6a7708900,2024_07_22,33.9231846937237,-118.4341465777908,Shitpipe,2.6025641025641026,0.7341592307692308,1.0406976923076923,20.692307692307693,20.692307692307693,"NIGHT_MIST,NIGHT_MOSTLY_CLEAR,NIGHT_MOSTLY_CLEAR,NIGHT_MOSTLY_CLEAR,NIGHT_MOSTLY_CLEAR,NIGHT_MOSTLY_CLOUDY,NIGHT_MOSTLY_CLOUDY,NIGHT_MOSTLY_CLOUDY,MIST,BRIEF_SHOWERS,MIST,BRIEF_SHOWERS,BRIEF_SHOWERS","Onshore,Onshore,Onshore,Onshore,Onshore,Onshore,Onshore,Onshore,Onshore,Onshore,Onshore,Onshore,Onshore",13
5842041f4e65fad6a7708902,2024_07_22,33.9108528052242,-118.4279133138721,Hammerland,2.6025641025641026,0.7341592307692308,1.0406976923076923,20.846153846153847,20.846153846153847,"NIGHT_MIST,NIGHT_MOSTLY_CLEAR,NIGHT_MOSTLY_CLEAR,NIGHT_MOSTLY_CLEAR,NIGHT_MOSTLY_CLEAR,NIGHT_MOSTLY_CLOUDY,NIGHT_MOSTLY_CLOUDY,NIGHT_MOSTLY_CLOUDY,MIST,BRIEF_SHOWERS,MIST,BRIEF_SHOWERS,BRIEF_SHOWERS","Onshore,Onshore,Onshore,Onshore,Onshore,Onshore,Onshore,Onshore,Onshore,Onshore,Onshore,Onshore,Onshore",13
5842041f4e65fad6a7708904,2024_07_22,33.87201368173932,-118.40752,Hermosa Beach,2.3205128205128207,0.5064853846153846,0.7984461538461538,21,21,"NIGHT_MIST,NIGHT_MOSTLY_CLOUDY,NIGHT_MOSTLY_CLOUDY,NIGHT_MOSTLY_CLOUDY,NIGHT_MOSTLY_CLOUDY,NIGHT_MOSTLY_CLOUDY,NIGHT_MOSTLY_CLOUDY,NIGHT_MOSTLY_CLOUDY,MIST,BRIEF_SHOWERS,MIST,BRIEF_SHOWERS,BRIEF_SHOWERS","Onshore,Onshore,Cross-shore,Offshore,Onshore,Onshore,Cross-shore,Cross-shore,Onshore,Onshore,Onshore,Onshore,Onshore",13
5842041f4e65fad6a7708906,2024_07_22,33.90129336911256,-118.42184,El Porto,2.7564102564102564,0.8083,1.1782423076923076,20.846153846153847,20.846153846153847,"NIGHT_MIST,NIGHT_MOSTLY_CLEAR,NIGHT_MOSTLY_CLEAR,NIGHT_MOSTLY_CLEAR,NIGHT_MOSTLY_CLOUDY,NIGHT_MOSTLY_CLOUDY,NIGHT_MOSTLY_CLOUDY,NIGHT_MOSTLY_CLOUDY,MIST,BRIEF_SHOWERS,MIST,BRIEF_SHOWERS,BRIEF_SHOWERS","Onshore,Onshore,Onshore,Cross-shore,Onshore,Onshore,Onshore,Onshore,Onshore,Onshore,Onshore,Onshore,Onshore",13
5842041f4e65fad6a7708907,2024_07_22,33.87963506431794,-118.41102,Manhattan Beach Pier,2.628205128205128,0.7269930769230769,1.1133353846153846,21,21,"NIGHT_MIST,NIGHT_MOSTLY_CLEAR,NIGHT_MOSTLY_CLEAR,NIGHT_MOSTLY_CLEAR,NIGHT_MOSTLY_CLOUDY,NIGHT_MOSTLY_CLOUDY,NIGHT_MOSTLY_CLOUDY,NIGHT_MOSTLY_CLOUDY,MIST,BRIEF_SHOWERS,MIST,BRIEF_SHOWERS,BRIEF_SHOWERS","Onshore,Onshore,Onshore,Cross-shore,Onshore,Onshore,Onshore,Onshore,Onshore,Onshore,Onshore,Onshore,Onshore",13
5842041f4e65fad6a7708914,2024_07_22,34.038053387863464,-118.5532,Sunset Point,2.076923076923077,0.26,0.5653846153846154,20.615384615384617,20.615384615384617,"NIGHT_MOSTLY_CLEAR,NIGHT_MOSTLY_CLEAR,NIGHT_MOSTLY_CLEAR,NIGHT_MOSTLY_CLEAR,NIGHT_MOSTLY_CLEAR,NIGHT_MOSTLY_CLEAR,NIGHT_MOSTLY_CLEAR,NIGHT_MOSTLY_CLEAR,MIST,MIST,MIST,MIST,MIST","Offshore,Cross-shore,Cross-shore,Offshore,Cross-shore,Onshore,Offshore,Offshore,Onshore,Onshore,Onshore,Cross-shore,Onshore",13
5842041f4e65fad6a7708920,2024_07_22,33.80282,-118.39989,Haggerty's,2.3846153846153846,0.34584615384615386,0.5895384615384616,20.384615384615383,20.384615384615383,"NIGHT_CLEAR,NIGHT_CLEAR,NIGHT_CLEAR,NIGHT_CLEAR,NIGHT_CLEAR,NIGHT_MOSTLY_CLOUDY,NIGHT_MOSTLY_CLOUDY,NIGHT_MOSTLY_CLOUDY,MIST,CLEAR,MIST,BRIEF_SHOWERS,BRIEF_SHOWERS","Onshore,Onshore,Cross-shore,Onshore,Onshore,Onshore,Onshore,Onshore,Onshore,Onshore,Onshore,Onshore,Onshore",13
5842041f4e65fad6a7708921,2024_07_22,33.85044519861206,-118.40048,Redondo Breakwater,2.6923076923076925,0.6922623076923077,0.9981207692307692,20.384615384615383,20.384615384615383,"NIGHT_MIST,NIGHT_MOSTLY_CLOUDY,NIGHT_MOSTLY_CLOUDY,NIGHT_MOSTLY_CLOUDY,NIGHT_MOSTLY_CLOUDY,NIGHT_MOSTLY_CLOUDY,NIGHT_MOSTLY_CLOUDY,NIGHT_MOSTLY_CLOUDY,MIST,BRIEF_SHOWERS,MIST,BRIEF_SHOWERS,BRIEF_SHOWERS","Onshore,Onshore,Cross-shore,Offshore,Onshore,Onshore,Cross-shore,Cross-shore,Onshore,Onshore,Onshore,Onshore,Onshore",13
5842041f4e65fad6a7708927,2024_07_22,33.70877301002487,-118.2840112858389,Cabrillo Beach,2.1538461538461537,0.27153846153846156,0.5769230769230769,20.384615384615383,20.384615384615383,"NIGHT_MOSTLY_CLOUDY,NIGHT_CLEAR,NIGHT_CLEAR,NIGHT_CLEAR,NIGHT_CLEAR,NIGHT_CLEAR,NIGHT_MOSTLY_CLOUDY,NIGHT_MOSTLY_CLOUDY,MOSTLY_CLOUDY,CLEAR,CLEAR,CLEAR,CLEAR","Onshore,Onshore,Onshore,Onshore,Onshore,Onshore,Onshore,Onshore,Cross-shore,Cross-shore,Cross-shore,Cross-shore,Offshore",13
5842041f4e65fad6a770892c,2024_07_22,33.77209986806257,-118.4268428476672,Lunada Bay,1.6923076923076923,0.5138461538461538,0.8184615384615385,20.384615384615383,20.384615384615383,"NIGHT_CLEAR,NIGHT_CLEAR,NIGHT_CLEAR,NIGHT_CLEAR,NIGHT_CLEAR,NIGHT_CLEAR,NIGHT_CLEAR,NIGHT_MOSTLY_CLOUDY,MIST,MIST,MIST,BRIEF_SHOWERS,MIST","Onshore,Cross-shore,Offshore,Offshore,Onshore,Onshore,Offshore,Offshore,Onshore,Onshore,Onshore,Onshore,Onshore",13
5842041f4e65fad6a770892d,2024_07_22,33.79294656286144,-118.40703,PV Cove,2.5384615384615383,0.43230769230769234,0.7369230769230769,20.384615384615383,20.384615384615383,"NIGHT_CLEAR,NIGHT_CLEAR,NIGHT_CLEAR,NIGHT_CLEAR,NIGHT_CLEAR,NIGHT_MOSTLY_CLOUDY,NIGHT_MOSTLY_CLOUDY,NIGHT_MOSTLY_CLOUDY,MIST,CLEAR,MIST,BRIEF_SHOWERS,BRIEF_SHOWERS","Onshore,Onshore,Cross-shore,Cross-shore,Onshore,Onshore,Onshore,Onshore,Onshore,Onshore,Onshore,Onshore,Onshore",13
5842041f4e65fad6a7708930,2024_07_22,34.03944902292561,-118.57539,Chart House,0.46153846153846156,0,0.15153846153846154,20.615384615384617,20.615384615384617,"NIGHT_CLEAR,NIGHT_CLEAR,NIGHT_CLEAR,NIGHT_CLEAR,NIGHT_CLEAR,NIGHT_CLEAR,NIGHT_CLEAR,NIGHT_CLEAR,CLEAR,CLEAR,CLEAR,CLEAR,CLEAR","Offshore,Cross-shore,Cross-shore,Offshore,Cross-shore,Offshore,Offshore,Cross-shore,Cross-shore,Cross-shore,Cross-shore,Cross-shore,Cross-shore",13
5842041f4e65fad6a7708936,2024_07_22,34.0016731994772,-118.80456,Point Dume,2.1538461538461537,0.3855692307692308,0.690276923076923,19,19,"NIGHT_MIST,NIGHT_MIST,NIGHT_MIST,NIGHT_MIST,NIGHT_MIST,NIGHT_MOSTLY_CLOUDY,NIGHT_MIST,NIGHT_MOSTLY_CLOUDY,MIST,MIST,MIST,MIST,MIST","Cross-shore,Cross-shore,Cross-shore,Cross-shore,Onshore,Cross-shore,Onshore,Cross-shore,Onshore,Onshore,Cross-shore,Cross-shore,Cross-shore",13
5842041f4e65fad6a7708937,2024_07_22,34.02587527588963,-118.7554939066114,Latigo Point,2.5384615384615383,0.3476923076923077,0.6515384615384615,20.384615384615383,20.384615384615383,"NIGHT_MIST,NIGHT_MIST,NIGHT_MIST,NIGHT_MIST,NIGHT_MOSTLY_CLOUDY,NIGHT_MOSTLY_CLOUDY,NIGHT_MOSTLY_CLOUDY,NIGHT_MOSTLY_CLOUDY,MIST,MIST,MIST,MIST,MIST","Cross-shore,Cross-shore,Cross-shore,Offshore,Offshore,Offshore,Offshore,Offshore,Onshore,Onshore,Onshore,Onshore,Cross-shore",13
5842041f4e65fad6a770893f,2024_07_22,34.043762,-118.93294,Leo Carrillo,2.269230769230769,0.6221715384615385,0.9801946153846154,18,18,"NIGHT_MIST,NIGHT_MIST,NIGHT_CLEAR,NIGHT_MIST,NIGHT_MIST,NIGHT_MOSTLY_CLOUDY,NIGHT_MIST,NIGHT_MOSTLY_CLOUDY,MIST,MIST,MIST,MIST,MIST","Offshore,Offshore,Offshore,Offshore,Cross-shore,Offshore,Cross-shore,Offshore,Cross-shore,Cross-shore,Cross-shore,Cross-shore,Cross-shore",13
5842041f4e65fad6a7708941,2024_07_22,36.69388179265737,-121.81289,Marina State Beach,2.5384615384615383,1.506923076923077,1.8115384615384615,15,15,"NIGHT_MOSTLY_CLOUDY,NIGHT_MIST,NIGHT_MIST,NIGHT_MIST,NIGHT_MIST,NIGHT_MIST,NIGHT_MIST,NIGHT_MIST,MOSTLY_CLEAR,MOSTLY_CLEAR,MOSTLY_CLEAR,MOSTLY_CLEAR,BRIEF_SHOWERS","Onshore,Onshore,Onshore,Onshore,Onshore,Onshore,Onshore,Onshore,Onshore,Onshore,Onshore,Onshore,Onshore",13
5842041f4e65fad6a7708944,2024_07_22,34.34145077331085,-119.416999352654,Stanley's,1.8461538461538463,0.14153846153846153,0.4461538461538462,19,19,"NIGHT_CLEAR,NIGHT_CLEAR,NIGHT_CLEAR,NIGHT_CLEAR,NIGHT_CLEAR,NIGHT_CLEAR,NIGHT_CLEAR,NIGHT_CLEAR,CLEAR,CLEAR,CLEAR,CLEAR,CLEAR","Offshore,Offshore,Offshore,Cross-shore,Offshore,Cross-shore,Offshore,Cross-shore,Onshore,Onshore,Onshore,Onshore,Onshore",13
5842041f4e65fad6a7708945,2024_07_22,34.35113017313915,-119.426921498899,Oil Piers,1.6153846153846154,0.14153846153846153,0.4461538461538462,19,19,"NIGHT_CLEAR,NIGHT_CLEAR,NIGHT_CLEAR,NIGHT_CLEAR,NIGHT_CLEAR,NIGHT_CLEAR,NIGHT_CLEAR,NIGHT_CLEAR,CLEAR,CLEAR,CLEAR,CLEAR,CLEAR","Offshore,Offshore,Offshore,Cross-shore,Offshore,Offshore,Cross-shore,Offshore,Onshore,Onshore,Onshore,Cross-shore,Cross-shore",13
5842041f4e65fad6a770894c,2024_07_22,34.17876333306018,-119.23995,Oxnard,2.6153846153846154,0.5823076923076923,0.8861538461538462,20,20,"NIGHT_CLEAR,NIGHT_CLEAR,NIGHT_CLEAR,NIGHT_CLEAR,NIGHT_CLEAR,NIGHT_CLEAR,NIGHT_CLEAR,NIGHT_CLEAR,CLEAR,CLEAR,CLEAR,CLEAR,CLEAR","Onshore,Onshore,Onshore,Cross-shore,Cross-shore,Cross-shore,Cross-shore,Cross-shore,Onshore,Onshore,Onshore,Onshore,Onshore",13
5842041f4e65fad6a7708957,2024_07_22,34.31720331100517,-119.3882324751725,Pitas Point,2.1538461538461537,0.2623076923076923,0.5684615384615385,19,19,"NIGHT_CLEAR,NIGHT_CLEAR,NIGHT_MIST,NIGHT_MIST,NIGHT_MIST,NIGHT_MIST,NIGHT_CLEAR,NIGHT_CLEAR,MIST,MIST,MIST,MIST,MIST","Offshore,Offshore,Offshore,Offshore,Offshore,Offshore,Offshore,Offshore,Onshore,Onshore,Onshore,Onshore,Onshore",13
5842041f4e65fad6a7708959,2024_07_22,34.27851754384724,-119.3162,Emma Wood,2.1538461538461537,0.39384615384615385,0.6992307692307692,20,20,"NIGHT_MIST,NIGHT_CLEAR,NIGHT_MIST,NIGHT_MIST,NIGHT_MIST,NIGHT_MIST,NIGHT_MOSTLY_CLEAR,NIGHT_MOSTLY_CLEAR,MIST,MIST,MIST,MIST,MIST","Onshore,Onshore,Onshore,Onshore,Onshore,Onshore,Cross-shore,Onshore,Onshore,Onshore,Onshore,Onshore,Cross-shore",13
5842041f4e65fad6a770895a,2024_07_22,34.35513640390276,-119.4400589884255,Mussel Shoals (aka Little Rincon),2,0.17,0.47384615384615386,19,19,"NIGHT_MIST,NIGHT_MIST,NIGHT_MOSTLY_CLEAR,NIGHT_MOSTLY_CLEAR,NIGHT_MIST,NIGHT_MIST,NIGHT_MOSTLY_CLEAR,NIGHT_MOSTLY_CLEAR,MIST,MIST,MIST,MIST,MIST","Offshore,Offshore,Offshore,Offshore,Offshore,Offshore,Offshore,Offshore,Cross-shore,Onshore,Cross-shore,Cross-shore,Cross-shore",13
5842041f4e65fad6a770895e,2024_07_22,34.28991757054902,-119.3366646794652,Summer Beach,1.6153846153846154,0.2176923076923077,0.5223076923076924,20,20,"NIGHT_MIST,NIGHT_CLEAR,NIGHT_MIST,NIGHT_MIST,NIGHT_MIST,NIGHT_MIST,NIGHT_MOSTLY_CLEAR,NIGHT_MOSTLY_CLEAR,MIST,MIST,MIST,MIST,MIST","Onshore,Onshore,Onshore,Onshore,Onshore,Onshore,Onshore,Onshore,Onshore,Onshore,Onshore,Onshore,Cross-shore",13
5842041f4e65fad6a770895f,2024_07_22,34.30897456105926,-119.3582501170116,Solimar,1.7692307692307692,0.2176923076923077,0.5223076923076924,19.615384615384617,19.615384615384617,"NIGHT_CLEAR,NIGHT_CLEAR,NIGHT_MIST,NIGHT_MIST,NIGHT_MIST,NIGHT_MIST,NIGHT_CLEAR,NIGHT_CLEAR,MIST,MIST,MIST,MIST,MIST","Offshore,Offshore,Offshore,Offshore,Offshore,Offshore,Offshore,Offshore,Onshore,Onshore,Cross-shore,Onshore,Onshore",13
5842041f4e65fad6a7708960,2024_07_22,34.39836265281686,-119.70213,Leadbetter Point,0.6923076923076923,0,0.14923076923076922,18.615384615384617,18.615384615384617,"NIGHT_CLEAR,NIGHT_CLEAR,NIGHT_CLEAR,NIGHT_CLEAR,NIGHT_CLEAR,NIGHT_CLEAR,NIGHT_CLEAR,NIGHT_CLEAR,CLEAR,CLEAR,CLEAR,CLEAR,CLEAR","Offshore,Offshore,Cross-shore,Offshore,Offshore,Offshore,Offshore,Offshore,Cross-shore,Cross-shore,Cross-shore,Cross-shore,Cross-shore",13
5842041f4e65fad6a7708961,2024_07_22,34.46052293893899,-120.07328,Refugio,1.7692307692307692,0.04461538461538462,0.35,17,17,"NIGHT_CLEAR,NIGHT_CLEAR,NIGHT_CLEAR,NIGHT_CLEAR,NIGHT_CLEAR,NIGHT_CLEAR,NIGHT_MOSTLY_CLEAR,NIGHT_MOSTLY_CLEAR,CLEAR,CLEAR,CLEAR,CLEAR,CLEAR","Cross-shore,Cross-shore,Cross-shore,Offshore,Cross-shore,Offshore,Offshore,Onshore,Cross-shore,Cross-shore,Cross-shore,Cross-shore,Cross-shore",13
5842041f4e65fad6a7708962,2024_07_22,34.40754276777778,-119.87639,Devereux,2,0.05846153846153847,0.3646153846153846,17.615384615384617,17.615384615384617,"NIGHT_CLEAR,NIGHT_CLEAR,NIGHT_CLEAR,NIGHT_CLEAR,NIGHT_CLEAR,NIGHT_CLEAR,NIGHT_CLEAR,NIGHT_CLEAR,MIST,MIST,MIST,MIST,MIST","Onshore,Onshore,Onshore,Onshore,Onshore,Onshore,Onshore,Onshore,Onshore,Onshore,Cross-shore,Cross-shore,Cross-shore",13
5842041f4e65fad6a7708963,2024_07_22,34.27479983305182,-119.3133222656776,Ventura Overhead,2.230769230769231,0.39384615384615385,0.6992307692307692,20,20,"NIGHT_MIST,NIGHT_CLEAR,NIGHT_MIST,NIGHT_MIST,NIGHT_MOSTLY_CLEAR,NIGHT_MIST,NIGHT_MOSTLY_CLEAR,NIGHT_MOSTLY_CLEAR,MIST,MIST,MIST,MIST,MIST","Onshore,Onshore,Onshore,Onshore,Onshore,Onshore,Cross-shore,Onshore,Onshore,Onshore,Onshore,Onshore,Cross-shore",13
5842041f4e65fad6a7708964,2024_07_22,34.41023236011655,-119.88261,Sands,1.6153846153846154,0.04692307692307692,0.3476923076923077,17.615384615384617,17.615384615384617,"NIGHT_CLEAR,NIGHT_CLEAR,NIGHT_CLEAR,NIGHT_CLEAR,NIGHT_CLEAR,NIGHT_CLEAR,NIGHT_CLEAR,NIGHT_CLEAR,MIST,MIST,MIST,MIST,MIST","Offshore,Offshore,Offshore,Offshore,Offshore,Offshore,Offshore,Offshore,Onshore,Onshore,Onshore,Onshore,Onshore",13
5842041f4e65fad6a7708966,2024_07_22,34.40450193869233,-119.68752,Sandspit,0.6153846153846154,0,0.14923076923076922,18.615384615384617,18.615384615384617,"NIGHT_CLEAR,NIGHT_CLEAR,NIGHT_CLEAR,NIGHT_CLEAR,NIGHT_CLEAR,NIGHT_CLEAR,NIGHT_CLEAR,NIGHT_CLEAR,CLEAR,CLEAR,CLEAR,CLEAR,CLEAR","Offshore,Offshore,Cross-shore,Offshore,Offshore,Offshore,Offshore,Offshore,Cross-shore,Cross-shore,Cross-shore,Cross-shore,Cross-shore",13
5842041f4e65fad6a7708967,2024_07_22,34.41549098334453,-119.6375149840203,Hammond's,1.6153846153846154,0.024615384615384615,0.30846153846153845,18.615384615384617,18.615384615384617,"NIGHT_CLEAR,NIGHT_CLEAR,NIGHT_MOSTLY_CLEAR,NIGHT_MOSTLY_CLEAR,NIGHT_CLEAR,NIGHT_CLEAR,NIGHT_CLEAR,NIGHT_CLEAR,CLEAR,CLEAR,CLEAR,CLEAR,CLEAR","Cross-shore,Cross-shore,Onshore,Onshore,Onshore,Cross-shore,Offshore,Offshore,Cross-shore,Cross-shore,Cross-shore,Cross-shore,Cross-shore",13
5842041f4e65fad6a7708968,2024_07_22,34.45759322742309,-120.02203,El Capitan,2,0.045384615384615384,0.3507692307692308,17,17,"NIGHT_CLEAR,NIGHT_CLEAR,NIGHT_CLEAR,NIGHT_CLEAR,NIGHT_CLEAR,NIGHT_CLEAR,NIGHT_CLEAR,NIGHT_CLEAR,CLEAR,CLEAR,CLEAR,CLEAR,CLEAR","Onshore,Cross-shore,Cross-shore,Cross-shore,Cross-shore,Cross-shore,Cross-shore,Cross-shore,Onshore,Cross-shore,Cross-shore,Cross-shore,Cross-shore",13
5842041f4e65fad6a770896c,2024_07_22,34.405117655616,-119.84317,Campus Point,1.6153846153846154,0.04692307692307692,0.3476923076923077,18,18,"NIGHT_CLEAR,NIGHT_CLEAR,NIGHT_CLEAR,NIGHT_CLEAR,NIGHT_CLEAR,NIGHT_CLEAR,NIGHT_CLEAR,NIGHT_CLEAR,CLEAR,CLEAR,CLEAR,CLEAR,CLEAR","Onshore,Onshore,Onshore,Onshore,Onshore,Onshore,Onshore,Onshore,Onshore,Onshore,Onshore,Cross-shore,Cross-shore",13
5842041f4e65fad6a770896e,2024_07_22,34.38935162233354,-119.51955,Carpinteria State Beach,1.7692307692307692,0.11692307692307692,0.4230769230769231,19,19,"NIGHT_MIST,NIGHT_MIST,NIGHT_MIST,NIGHT_CLEAR,NIGHT_CLEAR,NIGHT_CLEAR,NIGHT_MOSTLY_CLEAR,NIGHT_MOSTLY_CLEAR,MIST,MIST,MIST,MIST,MIST","Onshore,Onshore,Onshore,Onshore,Onshore,Offshore,Offshore,Offshore,Onshore,Onshore,Onshore,Onshore,Onshore",13
5842041f4e65fad6a770896f,2024_07_22,37.48296565175612,-122.45493,Half Moon Bay,2.8461538461538463,1.266923076923077,1.4769230769230768,18.615384615384617,18.615384615384617,"NIGHT_MIST,NIGHT_MIST,NIGHT_BRIEF_SHOWERS,NIGHT_MIST,NIGHT_BRIEF_SHOWERS,NIGHT_BRIEF_SHOWERS,NIGHT_BRIEF_SHOWERS,NIGHT_BRIEF_SHOWERS,MIST,MIST,MIST,BRIEF_SHOWERS,BRIEF_SHOWERS","Onshore,Onshore,Onshore,Onshore,Onshore,Onshore,Onshore,Onshore,Onshore,Onshore,Onshore,Onshore,Onshore",13
5842041f4e65fad6a7708970,2024_07_22,37.499,-122.471,Princeton Jetty,3,0.9553846153846154,1.1715384615384614,18.615384615384617,18.615384615384617,"NIGHT_BRIEF_SHOWERS,NIGHT_MIST,NIGHT_BRIEF_SHOWERS,NIGHT_MIST,NIGHT_BRIEF_SHOWERS,NIGHT_BRIEF_SHOWERS,NIGHT_BRIEF_SHOWERS,NIGHT_BRIEF_SHOWERS,MIST,MIST,MIST,CLEAR,CLEAR","Onshore,Onshore,Onshore,Onshore,Onshore,Onshore,Onshore,Onshore,Onshore,Onshore,Onshore,Onshore,Onshore",13
5842041f4e65fad6a7708972,2024_07_22,37.35699547365155,-122.4069534707252,Tunitas Creek,3,2.3584615384615386,2.6146153846153846,18.615384615384617,18.615384615384617,"NIGHT_MOSTLY_CLOUDY,NIGHT_MOSTLY_CLOUDY,NIGHT_MOSTLY_CLOUDY,NIGHT_MOSTLY_CLOUDY,NIGHT_MOSTLY_CLOUDY,NIGHT_MOSTLY_CLOUDY,NIGHT_MOSTLY_CLOUDY,NIGHT_MOSTLY_CLOUDY,MIST,MIST,MIST,MIST,MIST","Onshore,Onshore,Onshore,Onshore,Onshore,Onshore,Onshore,Onshore,Onshore,Onshore,Onshore,Onshore,Onshore",13
5842041f4e65fad6a7708974,2024_07_22,37.54735589428842,-122.51611,Montara,2.923076923076923,1.99,2.296153846153846,18.23076923076923,18.23076923076923,"NIGHT_BRIEF_SHOWERS,NIGHT_MIST,NIGHT_BRIEF_SHOWERS,NIGHT_MIST,NIGHT_BRIEF_SHOWERS,NIGHT_BRIEF_SHOWERS,NIGHT_BRIEF_SHOWERS,NIGHT_BRIEF_SHOWERS,MIST,MIST,MIST,MIST,MIST","Onshore,Cross-shore,Cross-shore,Cross-shore,Onshore,Cross-shore,Cross-shore,Cross-shore,Cross-shore,Cross-shore,Cross-shore,Cross-shore,Cross-shore",13
5842041f4e65fad6a7708975,2024_07_22,34.3869373724559,-119.5142334209018,Tarpits,1.7692307692307692,0.13230769230769232,0.4369230769230769,19,19,"NIGHT_CLEAR,NIGHT_MIST,NIGHT_MOSTLY_CLEAR,NIGHT_MOSTLY_CLEAR,NIGHT_MOSTLY_CLEAR,NIGHT_MOSTLY_CLEAR,NIGHT_MOSTLY_CLEAR,NIGHT_MOSTLY_CLEAR,CLEAR,CLEAR,CLEAR,CLEAR,CLEAR","Onshore,Onshore,Onshore,Onshore,Cross-shore,Offshore,Offshore,Offshore,Onshore,Cross-shore,Cross-shore,Cross-shore,Cross-shore",13
5842041f4e65fad6a7708976,2024_07_22,37.59881852720143,-122.50463,Linda Mar,2.4871794871794872,0.9642746153846153,1.3213315384615385,12,12,"NIGHT_BRIEF_SHOWERS,NIGHT_MIST,NIGHT_BRIEF_SHOWERS,NIGHT_SHOWERS,NIGHT_BRIEF_SHOWERS,NIGHT_BRIEF_SHOWERS,NIGHT_BRIEF_SHOWERS,NIGHT_BRIEF_SHOWERS,MIST,MIST,MIST,BRIEF_SHOWERS,BRIEF_SHOWERS","Onshore,Onshore,Onshore,Onshore,Onshore,Onshore,Onshore,Cross-shore,Onshore,Onshore,Onshore,Onshore,Onshore",13
5842041f4e65fad6a7708978,2024_07_22,37.59883098461164,-122.5143843582282,Pedro Point,3,2.0092307692307694,2.3153846153846156,18.615384615384617,18.615384615384617,"NIGHT_MIST,NIGHT_MIST,NIGHT_MIST,NIGHT_MIST,NIGHT_MIST,NIGHT_MIST,NIGHT_MIST,NIGHT_MIST,MIST,MIST,MIST,MIST,MIST","Onshore,Cross-shore,Cross-shore,Cross-shore,Cross-shore,Cross-shore,Cross-shore,Cross-shore,Onshore,Onshore,Onshore,Onshore,Onshore",13
5842041f4e65fad6a7708979,2024_07_22,37.61081996647663,-122.49733,Rockaway,2.769230769230769,1.9715384615384615,2.276923076923077,18.615384615384617,18.615384615384617,"NIGHT_BRIEF_SHOWERS,NIGHT_MIST,NIGHT_BRIEF_SHOWERS,NIGHT_SHOWERS,NIGHT_BRIEF_SHOWERS,NIGHT_BRIEF_SHOWERS,NIGHT_BRIEF_SHOWERS,NIGHT_BRIEF_SHOWERS,MIST,MIST,MIST,BRIEF_SHOWERS,BRIEF_SHOWERS","Cross-shore,Cross-shore,Cross-shore,Cross-shore,Cross-shore,Onshore,Onshore,Onshore,Onshore,Onshore,Onshore,Onshore,Onshore",13
5842041f4e65fad6a770897a,2024_07_22,37.809987384424446,-122.47514,Fort Point,2.6923076923076925,1.1376923076923078,1.4,18.615384615384617,18.615384615384617,"NIGHT_MOSTLY_CLEAR,NIGHT_MOSTLY_CLOUDY,NIGHT_MIST,NIGHT_MIST,NIGHT_MIST,NIGHT_MIST,NIGHT_BRIEF_SHOWERS,NIGHT_BRIEF_SHOWERS,MIST,SHOWERS,MIST,SHOWERS,SHOWERS","Onshore,Onshore,Onshore,Onshore,Onshore,Onshore,Onshore,Onshore,Onshore,Onshore,Onshore,Onshore,Onshore",13
5842041f4e65fad6a770897c,2024_07_22,37.63422542967464,-122.4951,Sharp Park,2.6153846153846154,2.1284615384615386,2.3984615384615386,18.615384615384617,18.615384615384617,"NIGHT_BRIEF_SHOWERS,NIGHT_MIST,NIGHT_BRIEF_SHOWERS,NIGHT_MIST,NIGHT_BRIEF_SHOWERS,NIGHT_BRIEF_SHOWERS,NIGHT_BRIEF_SHOWERS,NIGHT_BRIEF_SHOWERS,MIST,BRIEF_SHOWERS,MIST,BRIEF_SHOWERS,BRIEF_SHOWERS","Cross-shore,Cross-shore,Cross-shore,Cross-shore,Onshore,Onshore,Onshore,Onshore,Onshore,Onshore,Onshore,Onshore,Onshore",13
5842041f4e65fad6a770897d,2024_07_22,37.27313605072472,-122.4127387912554,Pescadero,3,2.3,2.606153846153846,18.615384615384617,18.615384615384617,"NIGHT_MIST,NIGHT_MIST,NIGHT_MIST,NIGHT_MIST,NIGHT_MIST,NIGHT_BRIEF_SHOWERS,NIGHT_MIST,NIGHT_MIST,MIST,MIST,MIST,MIST,MIST","Onshore,Onshore,Onshore,Onshore,Onshore,Onshore,Onshore,Onshore,Onshore,Onshore,Onshore,Onshore,Onshore",13
5842041f4e65fad6a770897e,2024_07_22,37.18140279972666,-122.3926685899327,Pigeon Point,3.6153846153846154,2.1546153846153846,2.4076923076923076,17.615384615384617,17.615384615384617,"NIGHT_MIST,NIGHT_MIST,NIGHT_BRIEF_SHOWERS,NIGHT_MIST,NIGHT_BRIEF_SHOWERS,NIGHT_MIST,NIGHT_MIST,NIGHT_MIST,MIST,MIST,MIST,MIST,MIST","Offshore,Offshore,Offshore,Offshore,Offshore,Offshore,Offshore,Offshore,Cross-shore,Cross-shore,Cross-shore,Cross-shore,Cross-shore",13
5842041f4e65fad6a770897f,2024_07_22,37.11578956919415,-122.314699271291,Ano Nuevo,3.6153846153846154,1.2515384615384615,1.53,17.615384615384617,17.615384615384617,"NIGHT_MIST,NIGHT_MIST,NIGHT_MIST,NIGHT_MIST,NIGHT_MIST,NIGHT_MIST,NIGHT_MIST,NIGHT_MIST,MIST,MIST,MIST,MIST,MIST","Offshore,Offshore,Offshore,Offshore,Offshore,Offshore,Offshore,Offshore,Cross-shore,Cross-shore,Cross-shore,Offshore,Offshore",13
5842041f4e65fad6a7708980,2024_07_22,37.09520872681598,-122.2805474707768,Waddell Creek,3.076923076923077,1.6123076923076922,1.9076923076923076,17.615384615384617,17.615384615384617,"NIGHT_CLEAR,NIGHT_CLEAR,NIGHT_CLEAR,NIGHT_CLEAR,NIGHT_CLEAR,NIGHT_CLEAR,NIGHT_CLEAR,NIGHT_CLEAR,MIST,MIST,MIST,MIST,MIST","Cross-shore,Cross-shore,Cross-shore,Cross-shore,Cross-shore,Cross-shore,Cross-shore,Cross-shore,Onshore,Onshore,Onshore,Onshore,Onshore",13
5842041f4e65fad6a7708981,2024_07_22,36.96512852130351,-122.1252825495626,Four Mile,3.230769230769231,0.9892307692307692,1.263076923076923,16.615384615384617,16.615384615384617,"NIGHT_CLEAR,NIGHT_CLEAR,NIGHT_CLEAR,NIGHT_CLEAR,NIGHT_CLEAR,NIGHT_CLEAR,NIGHT_MOSTLY_CLOUDY,NIGHT_MOSTLY_CLOUDY,MOSTLY_CLEAR,MIST,MIST,MIST,MIST","Onshore,Onshore,Onshore,Onshore,Cross-shore,Onshore,Cross-shore,Onshore,Onshore,Onshore,Onshore,Onshore,Onshore",13
5842041f4e65fad6a7708982,2024_07_22,37.04122807048655,-122.23337,Scott Creek,3,1.8515384615384616,2.023846153846154,17,17,"NIGHT_CLEAR,NIGHT_CLEAR,NIGHT_CLEAR,NIGHT_CLEAR,NIGHT_CLEAR,NIGHT_CLEAR,NIGHT_MOSTLY_CLOUDY,NIGHT_MOSTLY_CLOUDY,MIST,MIST,MIST,MIST,MIST","Cross-shore,Cross-shore,Cross-shore,Onshore,Onshore,Cross-shore,Cross-shore,Offshore,Onshore,Onshore,Onshore,Onshore,Onshore",13
5842041f4e65fad6a7708983,2024_07_22,37.02350229387179,-122.21908,Davenport,3.1538461538461537,1.5184615384615385,1.7969230769230768,17,17,"NIGHT_MIST,NIGHT_MIST,NIGHT_MIST,NIGHT_MIST,NIGHT_MIST,NIGHT_MIST,NIGHT_MIST,NIGHT_MOSTLY_CLOUDY,MIST,MIST,MIST,MIST,MIST","Cross-shore,Cross-shore,Cross-shore,Onshore,Onshore,Onshore,Cross-shore,Onshore,Onshore,Onshore,Onshore,Onshore,Onshore",13
5842041f4e65fad6a7708986,2024_07_22,36.94905295955728,-122.06118,Natural Bridges,3,1.3123076923076924,1.5653846153846154,16.615384615384617,16.615384615384617,"NIGHT_CLEAR,NIGHT_CLEAR,NIGHT_CLEAR,NIGHT_CLEAR,NIGHT_MOSTLY_CLOUDY,NIGHT_MOSTLY_CLOUDY,NIGHT_MOSTLY_CLOUDY,NIGHT_MOSTLY_CLOUDY,MOSTLY_CLOUDY,CLEAR,CLEAR,CLEAR,CLEAR","Offshore,Onshore,Onshore,Onshore,Onshore,Onshore,Onshore,Cross-shore,Onshore,Onshore,Onshore,Onshore,Onshore",13
5842041f4e65fad6a7708987,2024_07_22,36.95154854910425,-122.04207,Mitchell's Cove,3,0.6192307692307693,0.9261538461538462,16.615384615384617,16.615384615384617,"NIGHT_CLEAR,NIGHT_CLEAR,NIGHT_CLEAR,NIGHT_CLEAR,NIGHT_MOSTLY_CLOUDY,NIGHT_MOSTLY_CLOUDY,NIGHT_MOSTLY_CLOUDY,NIGHT_MOSTLY_CLOUDY,CLEAR,CLEAR,CLEAR,CLEAR,CLEAR","Cross-shore,Onshore,Onshore,Onshore,Onshore,Onshore,Onshore,Cross-shore,Onshore,Onshore,Onshore,Onshore,Onshore",13
5842041f4e65fad6a770898a,2024_07_22,36.9572312370203,-121.98177,26th Ave,3,1.0384615384615385,1.2723076923076924,17,17,"NIGHT_CLEAR,NIGHT_CLEAR,NIGHT_CLEAR,NIGHT_MOSTLY_CLEAR,NIGHT_MOSTLY_CLOUDY,NIGHT_MOSTLY_CLOUDY,NIGHT_MOSTLY_CLOUDY,NIGHT_MOSTLY_CLOUDY,CLEAR,CLEAR,CLEAR,CLEAR,CLEAR","Offshore,Offshore,Cross-shore,Onshore,Cross-shore,Cross-shore,Offshore,Cross-shore,Cross-shore,Cross-shore,Onshore,Onshore,Onshore",13
5842041f4e65fad6a770898e,2024_07_22,36.91899972819882,-121.85536,Manresa,3,1.146153846153846,1.4107692307692308,17,17,"NIGHT_MIST,NIGHT_MIST,NIGHT_MIST,NIGHT_MIST,NIGHT_MIST,NIGHT_MIST,NIGHT_MIST,NIGHT_MIST,MIST,MIST,MIST,MIST,MIST","Offshore,Offshore,Offshore,Offshore,Offshore,Offshore,Cross-shore,Cross-shore,Onshore,Onshore,Onshore,Onshore,Onshore",13
5842041f4e65fad6a7708990,2024_07_22,34.45747731928454,-120.34242,The Ranch,2.6153846153846154,0.3107692307692308,0.6146153846153846,16,16,"NIGHT_CLEAR,NIGHT_CLEAR,NIGHT_CLEAR,NIGHT_CLEAR,NIGHT_CLEAR,NIGHT_CLEAR,NIGHT_CLEAR,NIGHT_CLEAR,CLEAR,CLEAR,CLEAR,CLEAR,CLEAR","Onshore,Onshore,Offshore,Offshore,Offshore,Offshore,Cross-shore,Offshore,Onshore,Onshore,Onshore,Onshore,Onshore",13
5842041f4e65fad6a7708991,2024_07_22,34.50875036590315,-120.50348,Jalama,2.6923076923076925,0.7,0.9746153846153847,15,15,"NIGHT_CLEAR,NIGHT_CLEAR,NIGHT_CLEAR,NIGHT_CLEAR,NIGHT_CLEAR,NIGHT_CLEAR,NIGHT_CLEAR,NIGHT_CLEAR,CLEAR,MIST,MIST,MIST,MIST","Offshore,Offshore,Offshore,Offshore,Offshore,Offshore,Offshore,Offshore,Onshore,Onshore,Onshore,Onshore,Onshore",13
5842041f4e65fad6a7708996,2024_07_22,34.68700870220497,-120.6111611019887,Surf Beach,2.3846153846153846,1.6215384615384616,1.9253846153846153,15,15,"NIGHT_MIST,NIGHT_MIST,NIGHT_MIST,NIGHT_MIST,NIGHT_MIST,NIGHT_MIST,NIGHT_MIST,NIGHT_MIST,MIST,BRIEF_SHOWERS,MIST,MIST,MIST","Onshore,Onshore,Onshore,Onshore,Onshore,Onshore,Onshore,Onshore,Onshore,Onshore,Onshore,Onshore,Onshore",13
5842041f4e65fad6a770899c,2024_07_22,35.5730538161116,-121.1143362345574,Moonstone,3,0.9561538461538461,1.176923076923077,15.615384615384615,15.615384615384615,"NIGHT_CLEAR,NIGHT_CLEAR,NIGHT_CLEAR,NIGHT_CLEAR,NIGHT_CLEAR,NIGHT_CLEAR,NIGHT_MOSTLY_CLOUDY,NIGHT_MOSTLY_CLOUDY,MIST,MIST,MIST,MIST,MIST","Offshore,Offshore,Cross-shore,Cross-shore,Cross-shore,Offshore,Offshore,Offshore,Onshore,Onshore,Onshore,Onshore,Onshore",13
5842041f4e65fad6a770899d,2024_07_22,35.61533716776573,-121.1502053073914,Pico Creek,2.923076923076923,1.2223076923076923,1.4461538461538461,15.615384615384615,15.615384615384615,"NIGHT_CLEAR,NIGHT_CLEAR,NIGHT_CLEAR,NIGHT_CLEAR,NIGHT_CLEAR,NIGHT_CLEAR,NIGHT_MOSTLY_CLOUDY,NIGHT_MOSTLY_CLOUDY,MIST,MIST,MIST,MIST,CLEAR","Onshore,Offshore,Offshore,Offshore,Offshore,Offshore,Offshore,Cross-shore,Cross-shore,Cross-shore,Onshore,Onshore,Onshore",13
5842041f4e65fad6a770899e,2024_07_22,35.56829031927379,-121.11207,Santa Rosa Creek,3,0.9561538461538461,1.176923076923077,15.615384615384615,15.615384615384615,"NIGHT_CLEAR,NIGHT_CLEAR,NIGHT_CLEAR,NIGHT_CLEAR,NIGHT_MOSTLY_CLOUDY,NIGHT_CLEAR,NIGHT_MOSTLY_CLOUDY,NIGHT_MOSTLY_CLOUDY,MIST,MIST,MIST,MIST,MIST","Cross-shore,Cross-shore,Onshore,Onshore,Cross-shore,Cross-shore,Cross-shore,Cross-shore,Onshore,Onshore,Onshore,Onshore,Onshore",13
5842041f4e65fad6a77089a2,2024_07_22,35.44820114936284,-120.90715,"Cayucos Pier, Southside ",2.769230769230769,0.3638215384615385,0.6663584615384616,15.615384615384615,15.615384615384615,"NIGHT_BRIEF_SHOWERS,NIGHT_MOSTLY_CLEAR,NIGHT_CLEAR,NIGHT_CLEAR,NIGHT_MOSTLY_CLOUDY,NIGHT_MOSTLY_CLOUDY,NIGHT_MOSTLY_CLOUDY,NIGHT_MOSTLY_CLOUDY,CLEAR,CLEAR,CLEAR,CLEAR,CLEAR","Onshore,Onshore,Onshore,Onshore,Onshore,Onshore,Onshore,Onshore,Onshore,Onshore,Onshore,Onshore,Onshore",13
5842041f4e65fad6a77089a4,2024_07_22,35.30143372628852,-120.877819239902,Cable Landing,2.230769230769231,2.1384615384615384,2.443846153846154,15,15,"NIGHT_MIST,NIGHT_MIST,NIGHT_MIST,NIGHT_MIST,NIGHT_MIST,NIGHT_MIST,NIGHT_MOSTLY_CLOUDY,NIGHT_MOSTLY_CLOUDY,MIST,BRIEF_SHOWERS,MIST,SHOWERS,SHOWERS","Onshore,Onshore,Onshore,Onshore,Onshore,Onshore,Onshore,Onshore,Onshore,Onshore,Onshore,Onshore,Onshore",13
5842041f4e65fad6a77089a9,2024_07_22,35.61269103500222,-121.14807,San Simeon,3,0.7603076923076924,0.8927692307692308,15.615384615384615,15.615384615384615,"NIGHT_CLEAR,NIGHT_CLEAR,NIGHT_MOSTLY_CLEAR,NIGHT_MOSTLY_CLEAR,NIGHT_MOSTLY_CLEAR,NIGHT_MOSTLY_CLEAR,NIGHT_MOSTLY_CLEAR,NIGHT_MOSTLY_CLEAR,CLEAR,CLEAR,CLEAR,CLEAR,CLEAR","Cross-shore,Cross-shore,Cross-shore,Cross-shore,Cross-shore,Cross-shore,Cross-shore,Cross-shore,Onshore,Onshore,Onshore,Onshore,Onshore",13
5842041f4e65fad6a77089ab,2024_07_22,35.1775325966252,-120.73411,Avila Beach,2,0.05615384615384616,0.35923076923076924,15,15,"NIGHT_CLEAR,NIGHT_CLEAR,NIGHT_CLEAR,NIGHT_CLEAR,NIGHT_CLEAR,NIGHT_CLEAR,NIGHT_CLEAR,NIGHT_CLEAR,CLEAR,CLEAR,CLEAR,CLEAR,CLEAR","Onshore,Onshore,Onshore,Onshore,Offshore,Onshore,Cross-shore,Offshore,Onshore,Onshore,Onshore,Cross-shore,Cross-shore",13
5842041f4e65fad6a77089ac,2024_07_22,35.13877877884115,-120.64535,Pismo Beach Pier,2.717948717948718,0.6646076923076923,0.9797923076923077,13,13,"NIGHT_CLEAR,NIGHT_CLEAR,NIGHT_CLEAR,NIGHT_CLEAR,NIGHT_CLEAR,NIGHT_CLEAR,NIGHT_CLEAR,NIGHT_CLEAR,CLEAR,CLEAR,CLEAR,CLEAR,CLEAR","Offshore,Offshore,Offshore,Offshore,Offshore,Offshore,Offshore,Offshore,Onshore,Onshore,Onshore,Onshore,Onshore",13
5842041f4e65fad6a77089ad,2024_07_22,46.8907710233147,-124.12964,Westport/Olympic Peninsula,1,0.8338461538461538,1.0846153846153845,15,15,"NIGHT_OVERCAST,NIGHT_OVERCAST,NIGHT_OVERCAST,NIGHT_OVERCAST,NIGHT_OVERCAST,NIGHT_OVERCAST,NIGHT_MOSTLY_CLOUDY,NIGHT_CLEAR,OVERCAST,MIST,MIST,MIST,OVERCAST","Onshore,Cross-shore,Cross-shore,Cross-shore,Cross-shore,Cross-shore,Cross-shore,Cross-shore,Cross-shore,Cross-shore,Cross-shore,Onshore,Onshore",13
5842041f4e65fad6a77089ae,2024_07_22,46.35185177248545,-124.06747,Long Beach Peninsula,1.3846153846153846,0.9753846153846154,1.2146153846153847,15,15,"NIGHT_DRIZZLE,NIGHT_MIST,NIGHT_MIST,NIGHT_MIST,NIGHT_MIST,NIGHT_MIST,NIGHT_CLEAR,NIGHT_CLEAR,MIST,MIST,MIST,DRIZZLE,MIST","Onshore,Onshore,Cross-shore,Cross-shore,Cross-shore,Cross-shore,Onshore,Onshore,Cross-shore,Cross-shore,Cross-shore,Cross-shore,Cross-shore",13
5842041f4e65fad6a77089af,2024_07_22,47.90649175554033,-124.63709,La Push,3,0.9946153846153847,1.1976923076923076,14.384615384615385,14.384615384615385,"NIGHT_DRIZZLE,NIGHT_MIST,NIGHT_MIST,NIGHT_MIST,NIGHT_MIST,NIGHT_MIST,NIGHT_CLEAR,NIGHT_BRIEF_SHOWERS_POSSIBLE,MIST,MIST,MIST,DRIZZLE,MIST","Cross-shore,Cross-shore,Cross-shore,Offshore,Cross-shore,Offshore,Cross-shore,Offshore,Cross-shore,Onshore,Cross-shore,Cross-shore,Cross-shore",13
5842041f4e65fad6a77089b0,2024_07_22,42.04368239985442,-124.26828,Brookings Jetty,1.8461538461538463,0.45049307692307694,0.7038930769230769,13,13,"NIGHT_CLEAR,NIGHT_CLEAR,NIGHT_CLEAR,NIGHT_CLEAR,NIGHT_CLEAR,NIGHT_CLEAR,NIGHT_CLEAR,NIGHT_CLEAR,CLEAR,CLEAR,CLEAR,CLEAR,CLEAR","Offshore,Offshore,Offshore,Offshore,Offshore,Offshore,Offshore,Offshore,Offshore,Offshore,Offshore,Offshore,Offshore",13
5842041f4e65fad6a77089b1,2024_07_22,42.74071837900346,-124.4983727491047,Port Orford,1.9230769230769231,0.4523076923076923,0.7576923076923077,13,13,"NIGHT_CLEAR,NIGHT_CLEAR,NIGHT_CLEAR,NIGHT_MOSTLY_CLOUDY,NIGHT_CLEAR,NIGHT_MIST,NIGHT_MOSTLY_CLOUDY,NIGHT_MOSTLY_CLOUDY,CLEAR,CLEAR,CLEAR,CLEAR,CLEAR","Offshore,Offshore,Offshore,Offshore,Offshore,Offshore,Offshore,Offshore,Offshore,Offshore,Offshore,Offshore,Offshore",13
5842041f4e65fad6a77089b2,2024_07_22,44.01532689312291,-124.13865,Florence South Jetty,1,1.03,1.243076923076923,13,13,"NIGHT_MIST,NIGHT_MIST,NIGHT_MIST,NIGHT_MIST,NIGHT_MIST,NIGHT_MIST,NIGHT_MIST,NIGHT_MIST,MIST,MIST,MIST,MIST,MIST","Cross-shore,Cross-shore,Cross-shore,Cross-shore,Cross-shore,Cross-shore,Cross-shore,Cross-shore,Cross-shore,Cross-shore,Cross-shore,Cross-shore,Cross-shore",13
5842041f4e65fad6a77089b3,2024_07_22,42.41812540774362,-124.42945,Gold Beach South Jetty,2.6153846153846154,0.9938461538461538,1.23,13,13,"NIGHT_CLEAR,NIGHT_CLEAR,NIGHT_CLEAR,NIGHT_CLEAR,NIGHT_CLEAR,NIGHT_CLEAR,NIGHT_CLEAR,NIGHT_CLEAR,CLEAR,CLEAR,CLEAR,CLEAR,CLEAR","Offshore,Offshore,Offshore,Offshore,Offshore,Offshore,Offshore,Offshore,Offshore,Offshore,Offshore,Offshore,Offshore",13
5842041f4e65fad6a77089b4,2024_07_22,44.95857310226525,-124.0219,Lincoln City,1.3846153846153846,0.953076923076923,1.113846153846154,15,15,"NIGHT_MIST,NIGHT_MIST,NIGHT_MIST,NIGHT_MIST,NIGHT_MIST,NIGHT_MIST,NIGHT_MIST,NIGHT_MIST,MIST,MOSTLY_CLOUDY,MOSTLY_CLOUDY,BRIEF_SHOWERS,MIST","Cross-shore,Cross-shore,Cross-shore,Cross-shore,Cross-shore,Cross-shore,Cross-shore,Cross-shore,Cross-shore,Cross-shore,Cross-shore,Cross-shore,Cross-shore",13
5842041f4e65fad6a77089b5,2024_07_22,44.63792761362982,-124.0657,Newport,2.3846153846153846,1.0146153846153847,1.2707692307692309,14,14,"NIGHT_MIST,NIGHT_MIST,NIGHT_MIST,NIGHT_MIST,NIGHT_MIST,NIGHT_MIST,NIGHT_MIST,NIGHT_MIST,MIST,MOSTLY_CLOUDY,CLEAR,MIST,MIST","Onshore,Cross-shore,Cross-shore,Offshore,Cross-shore,Cross-shore,Cross-shore,Offshore,Offshore,Onshore,Cross-shore,Cross-shore,Onshore",13
5842041f4e65fad6a77089b6,2024_07_22,45.61468496266301,-123.94643,Rockaway Beach,2,1.0038461538461538,1.1507692307692308,15,15,"NIGHT_MIST,NIGHT_MIST,NIGHT_MIST,NIGHT_MIST,NIGHT_MIST,NIGHT_MIST,NIGHT_MIST,NIGHT_MIST,MIST,MIST,MIST,MIST,MIST","Cross-shore,Cross-shore,Cross-shore,Cross-shore,Cross-shore,Cross-shore,Cross-shore,Cross-shore,Cross-shore,Cross-shore,Cross-shore,Onshore,Onshore",13
5842041f4e65fad6a77089b7,2024_07_22,45.20252914186085,-123.96975,Pacific City,2,0.7238461538461538,1.0123076923076924,15,15,"NIGHT_MIST,NIGHT_MIST,NIGHT_OVERCAST,NIGHT_OVERCAST,NIGHT_OVERCAST,NIGHT_MIST,NIGHT_MIST,NIGHT_MIST,OVERCAST,MOSTLY_CLOUDY,MOSTLY_CLOUDY,MOSTLY_CLOUDY,CLEAR","Cross-shore,Cross-shore,Cross-shore,Cross-shore,Cross-shore,Cross-shore,Cross-shore,Offshore,Cross-shore,Cross-shore,Cross-shore,Cross-shore,Cross-shore",13
5842041f4e65fad6a77089b8,2024_07_22,45.88179930310263,-123.96681,Cannon Beach,3,0.96,1.2053846153846153,15.615384615384615,15.615384615384615,"NIGHT_DRIZZLE,NIGHT_MIST,NIGHT_MIST,NIGHT_MIST,NIGHT_DRIZZLE,NIGHT_DRIZZLE,NIGHT_DRIZZLE,NIGHT_MIST,MIST,MIST,MIST,BRIEF_SHOWERS,MIST","Cross-shore,Cross-shore,Cross-shore,Cross-shore,Cross-shore,Cross-shore,Cross-shore,Cross-shore,Cross-shore,Cross-shore,Cross-shore,Cross-shore,Cross-shore",13
5842041f4e65fad6a77089ba,2024_07_22,40.02528754746774,-124.06372,Shelter Cove,2,0.35278076923076923,0.5512161538461539,12.384615384615385,12.384615384615385,"NIGHT_CLEAR,NIGHT_CLEAR,NIGHT_CLEAR,NIGHT_CLEAR,NIGHT_CLEAR,NIGHT_CLEAR,NIGHT_CLEAR,NIGHT_CLEAR,CLEAR,CLEAR,CLEAR,CLEAR,CLEAR","Offshore,Offshore,Offshore,Offshore,Offshore,Offshore,Offshore,Offshore,Offshore,Offshore,Offshore,Offshore,Offshore",13
5842041f4e65fad6a77089bb,2024_07_22,40.76816197136951,-124.24248,Humboldt Harbor Entrance,2.1538461538461537,1.853846153846154,2.183846153846154,14,14,"NIGHT_MIST,NIGHT_MIST,NIGHT_MIST,NIGHT_MIST,NIGHT_MIST,NIGHT_MIST,NIGHT_MIST,NIGHT_DRIZZLE,MIST,MIST,MIST,MIST,MIST","Cross-shore,Onshore,Onshore,Onshore,Onshore,Onshore,Onshore,Onshore,Onshore,Onshore,Onshore,Onshore,Onshore",13
5842041f4e65fad6a77089bc,2024_07_22,40.76684246920174,-124.23107,North Jetty,2.076923076923077,2.2423076923076923,2.5953846153846154,14,14,"NIGHT_MIST,NIGHT_MIST,NIGHT_MIST,NIGHT_MIST,NIGHT_DRIZZLE,NIGHT_DRIZZLE,NIGHT_MIST,NIGHT_MIST,MIST,MIST,MIST,MIST,MOSTLY_CLOUDY","Cross-shore,Onshore,Onshore,Onshore,Onshore,Onshore,Onshore,Onshore,Onshore,Onshore,Onshore,Onshore,Onshore",13
5842041f4e65fad6a77089be,2024_07_22,41.13016238153297,-124.16466,Sue-meg,2,1.846923076923077,2.14,14.615384615384615,14.615384615384615,"NIGHT_BRIEF_SHOWERS,NIGHT_MIST,NIGHT_MIST,NIGHT_MIST,NIGHT_MIST,NIGHT_MIST,NIGHT_MIST,NIGHT_MIST,MIST,MIST,MIST,MIST,MIST","Onshore,Cross-shore,Cross-shore,Cross-shore,Cross-shore,Cross-shore,Cross-shore,Cross-shore,Cross-shore,Cross-shore,Cross-shore,Cross-shore,Cross-shore",13
5842041f4e65fad6a77089bf,2024_07_22,37.8289474958188,-122.53768,Fort Cronkite/Rodeo Beach,2.923076923076923,1.2992307692307692,1.5461538461538462,18,18,"NIGHT_MIST,NIGHT_MIST,NIGHT_MIST,NIGHT_MIST,NIGHT_MIST,NIGHT_MIST,NIGHT_MIST,NIGHT_MIST,MIST,MIST,MIST,MIST,MIST","Onshore,Onshore,Onshore,Onshore,Onshore,Onshore,Onshore,Onshore,Onshore,Onshore,Onshore,Onshore,Onshore",13
5842041f4e65fad6a77089c0,2024_07_22,41.74415759876137,-124.17717,South Beach CA,2.5384615384615383,0.5446153846153846,0.8515384615384616,14,14,"NIGHT_CLEAR,NIGHT_CLEAR,NIGHT_CLEAR,NIGHT_MOSTLY_CLEAR,NIGHT_MOSTLY_CLEAR,NIGHT_MOSTLY_CLEAR,NIGHT_MOSTLY_CLEAR,NIGHT_MOSTLY_CLEAR,CLEAR,CLEAR,CLEAR,CLEAR,CLEAR","Cross-shore,Offshore,Offshore,Offshore,Offshore,Offshore,Offshore,Offshore,Offshore,Offshore,Offshore,Offshore,Offshore",13
5842041f4e65fad6a77089c1,2024_07_22,37.89801283969752,-122.64519,Stinson Beach,2.3846153846153846,0.536923076923077,0.8423076923076923,17,17,"NIGHT_CLEAR,NIGHT_CLEAR,NIGHT_CLEAR,NIGHT_CLEAR,NIGHT_CLEAR,NIGHT_CLEAR,NIGHT_CLEAR,NIGHT_CLEAR,CLEAR,CLEAR,CLEAR,CLEAR,CLEAR","Onshore,Onshore,Onshore,Onshore,Onshore,Cross-shore,Onshore,Onshore,Cross-shore,Cross-shore,Cross-shore,Cross-shore,Cross-shore",13
5842041f4e65fad6a77089c2,2024_07_22,37.90514516176495,-122.68151,Bolinas,2.4615384615384617,0.5572053846153846,0.8706346153846154,17,17,"NIGHT_CLEAR,NIGHT_CLEAR,NIGHT_CLEAR,NIGHT_CLEAR,NIGHT_CLEAR,NIGHT_CLEAR,NIGHT_CLEAR,NIGHT_CLEAR,CLEAR,CLEAR,CLEAR,CLEAR,CLEAR","Cross-shore,Offshore,Cross-shore,Cross-shore,Onshore,Onshore,Onshore,Cross-shore,Cross-shore,Cross-shore,Cross-shore,Cross-shore,Cross-shore",13
5842041f4e65fad6a77089c3,2024_07_22,38.04892513158693,-122.98925,Point Reyes (north),1.3846153846153846,3.003846153846154,3.306923076923077,15,15,"NIGHT_MIST,NIGHT_MIST,NIGHT_MIST,NIGHT_MIST,NIGHT_MIST,NIGHT_MIST,NIGHT_MIST,NIGHT_MIST,MIST,MIST,MIST,MIST,MIST","Onshore,Onshore,Onshore,Onshore,Onshore,Onshore,Onshore,Onshore,Onshore,Onshore,Onshore,Onshore,Onshore",13
5842041f4e65fad6a77089c6,2024_07_22,38.31088736605785,-123.0496777333731,Doran Beach,1.9230769230769231,0.10307692307692308,0.4053846153846154,15,15,"NIGHT_CLEAR,NIGHT_MIST,NIGHT_MIST,NIGHT_MIST,NIGHT_MIST,NIGHT_MIST,NIGHT_MOSTLY_CLEAR,NIGHT_MOSTLY_CLEAR,CLEAR,CLEAR,CLEAR,CLEAR,CLEAR","Offshore,Offshore,Offshore,Offshore,Offshore,Offshore,Offshore,Cross-shore,Cross-shore,Cross-shore,Offshore,Offshore,Offshore",13
5842041f4e65fad6a77089c7,2024_07_22,38.45077228660809,-123.13008,Russian Rivermouth,3.6153846153846154,1.8515384615384616,2.0961538461538463,14.384615384615385,14.384615384615385,"NIGHT_CLEAR,NIGHT_CLEAR,NIGHT_CLEAR,NIGHT_CLEAR,NIGHT_CLEAR,NIGHT_CLEAR,NIGHT_CLEAR,NIGHT_CLEAR,CLEAR,CLEAR,CLEAR,CLEAR,CLEAR","Offshore,Offshore,Offshore,Offshore,Offshore,Cross-shore,Offshore,Offshore,Onshore,Onshore,Onshore,Onshore,Onshore",13
5842041f4e65fad6a77089c8,2024_07_22,38.35329968518107,-123.06906,Salmon Creek,3.076923076923077,2.4707692307692306,2.7423076923076923,15,15,"NIGHT_CLEAR,NIGHT_CLEAR,NIGHT_CLEAR,NIGHT_MIST,NIGHT_MIST,NIGHT_MIST,NIGHT_MIST,NIGHT_CLEAR,MIST,MIST,MIST,MIST,MIST","Onshore,Onshore,Onshore,Onshore,Offshore,Onshore,Onshore,Onshore,Onshore,Onshore,Onshore,Onshore,Onshore",13
5842041f4e65fad6a77089c9,2024_07_22,38.6845180197959,-123.4322714291198,Black Point Beach,2.5384615384615383,0.6892307692307692,0.9930769230769231,14,14,"NIGHT_CLEAR,NIGHT_CLEAR,NIGHT_CLEAR,NIGHT_CLEAR,NIGHT_CLEAR,NIGHT_CLEAR,NIGHT_CLEAR,NIGHT_CLEAR,CLEAR,CLEAR,CLEAR,CLEAR,CLEAR","Onshore,Onshore,Onshore,Onshore,Onshore,Onshore,Onshore,Onshore,Onshore,Onshore,Onshore,Onshore,Onshore",13
5842041f4e65fad6a77089ca,2024_07_22,43.251076,-70.59144,Ogunquit,2.0256410256410255,0.24826923076923077,0.5539,17,13.76923076923077,"NIGHT_MOSTLY_CLEAR,NIGHT_CLEAR,NIGHT_CLEAR,NIGHT_CLEAR,NIGHT_MOSTLY_CLEAR,CLEAR,CLEAR,CLEAR,CLEAR,CLEAR,CLEAR,CLEAR,CLEAR","Offshore,Offshore,Offshore,Cross-shore,Offshore,Offshore,Offshore,Onshore,Onshore,Onshore,Onshore,Onshore,Onshore",13
5842041f4e65fad6a77089cb,2024_07_22,41.362631366305415,-71.48007,Point Judith,1.6538461538461537,0.21346153846153845,0.5162076923076924,24,21,"NIGHT_CLEAR,NIGHT_CLEAR,NIGHT_CLEAR,NIGHT_CLEAR,NIGHT_CLEAR,CLEAR,CLEAR,CLEAR,MIST,MIST,MIST,MIST,MIST","Offshore,Offshore,Offshore,Offshore,Offshore,Offshore,Offshore,Onshore,Offshore,Offshore,Offshore,Offshore,Offshore",13
5842041f4e65fad6a77089cd,2024_07_22,41.422678090954726,-71.45413,Monahan's - Narragansett,1.6923076923076923,0.3268476923076923,0.5107,24,24,"NIGHT_CLEAR,NIGHT_CLEAR,NIGHT_CLEAR,NIGHT_CLEAR,NIGHT_CLEAR,CLEAR,CLEAR,CLEAR,MIST,CLEAR,MIST,MIST,MIST","Offshore,Offshore,Offshore,Offshore,Offshore,Offshore,Offshore,Cross-shore,Cross-shore,Cross-shore,Cross-shore,Cross-shore,Cross-shore",13
5842041f4e65fad6a77089ce,2024_07_22,41.469,-71.293,Ruggles - Newport,2.230769230769231,0.4506684615384615,0.70417,24,24,"NIGHT_CLEAR,NIGHT_CLEAR,NIGHT_CLEAR,NIGHT_CLEAR,NIGHT_CLEAR,CLEAR,CLEAR,CLEAR,MIST,MIST,MIST,MIST,BRIEF_SHOWERS_POSSIBLE","Cross-shore,Cross-shore,Cross-shore,Offshore,Offshore,Offshore,Offshore,Offshore,Onshore,Onshore,Onshore,Onshore,Onshore",13
5842041f4e65fad6a77089cf,2024_07_22,43.175394,-70.606351,Short Sands Beach,2,0.2876923076923077,0.5923076923076923,17,17,"NIGHT_CLEAR,NIGHT_CLEAR,NIGHT_CLEAR,NIGHT_CLEAR,NIGHT_MOSTLY_CLEAR,CLEAR,CLEAR,CLEAR,CLEAR,CLEAR,CLEAR,CLEAR,CLEAR","Cross-shore,Cross-shore,Cross-shore,Cross-shore,Cross-shore,Cross-shore,Cross-shore,Onshore,Cross-shore,Cross-shore,Cross-shore,Cross-shore,Cross-shore",13
5842041f4e65fad6a77089d0,2024_07_22,41.487408,-71.29017,First Beach,1.6923076923076923,0.19230769230769232,0.49846153846153846,24,24,"NIGHT_CLEAR,NIGHT_CLEAR,NIGHT_CLEAR,NIGHT_CLEAR,NIGHT_CLEAR,CLEAR,CLEAR,CLEAR,CLEAR,CLEAR,CLEAR,CLEAR,CLEAR","Cross-shore,Cross-shore,Cross-shore,Offshore,Offshore,Offshore,Offshore,Offshore,Onshore,Onshore,Onshore,Onshore,Onshore",13
5842041f4e65fad6a77089d1,2024_07_22,42.27916830233153,-70.86498,Nantasket Beach,0,0,0.12787923076923077,17,16,"NIGHT_CLEAR,NIGHT_MOSTLY_CLOUDY,NIGHT_CLEAR,NIGHT_CLEAR,NIGHT_CLEAR,CLEAR,MIST,MIST,CLEAR,CLEAR,SHOWERS,CLEAR,MOSTLY_CLOUDY","Onshore,Onshore,Onshore,Onshore,Onshore,Onshore,Onshore,Onshore,Onshore,Cross-shore,Cross-shore,Cross-shore,Cross-shore",13
5842041f4e65fad6a77089d2,2024_07_22,41.817,-69.935,Cape Cod,1.8461538461538463,0.04153846153846154,0.34615384615384615,22,22,"NIGHT_CLEAR,NIGHT_CLEAR,NIGHT_CLEAR,NIGHT_MIST,NIGHT_MIST,MIST,MIST,MIST,CLEAR,CLEAR,MIST,MIST,MIST","Onshore,Onshore,Onshore,Onshore,Onshore,Onshore,Onshore,Onshore,Onshore,Onshore,Onshore,Cross-shore,Cross-shore",13
5842041f4e65fad6a77089d3,2024_07_22,42.22055448975661,-70.70634873403819,Egypt Beach,0,0,0.09153846153846154,20,20,"NIGHT_CLEAR,NIGHT_MOSTLY_CLEAR,NIGHT_MOSTLY_CLOUDY,NIGHT_MOSTLY_CLEAR,NIGHT_CLEAR,CLEAR,MIST,MIST,CLEAR,MIST,MIST,MIST,MIST","Onshore,Onshore,Cross-shore,Cross-shore,Onshore,Onshore,Onshore,Onshore,Onshore,Onshore,Onshore,Onshore,Onshore",13
5842041f4e65fad6a77089d4,2024_07_22,41.48739647744607,-71.25723,Second Beach,1.6538461538461537,0.4887576923076923,0.7472561538461538,24,21,"NIGHT_CLEAR,NIGHT_CLEAR,NIGHT_CLEAR,NIGHT_CLEAR,NIGHT_CLEAR,CLEAR,CLEAR,CLEAR,MIST,MIST,MIST,MIST,MIST","Onshore,Onshore,Cross-shore,Cross-shore,Cross-shore,Offshore,Offshore,Offshore,Onshore,Onshore,Onshore,Onshore,Onshore",13
5842041f4e65fad6a77089d5,2024_07_22,42.964,-70.769,Fox Hill,1.6538461538461537,0.16634615384615384,0.4681946153846154,17,13.76923076923077,"NIGHT_CLEAR,NIGHT_CLEAR,NIGHT_MOSTLY_CLEAR,NIGHT_CLEAR,NIGHT_CLEAR,MOSTLY_CLEAR,CLEAR,CLEAR,CLEAR,CLEAR,CLEAR,CLEAR,CLEAR","Offshore,Offshore,Offshore,Offshore,Offshore,Offshore,Cross-shore,Onshore,Onshore,Onshore,Onshore,Onshore,Onshore",13
5842041f4e65fad6a77089d6,2024_07_22,42.991359,-70.75149,Straws Point,1.6538461538461537,0.17320538461538462,0.4803746153846154,17,13.76923076923077,"NIGHT_CLEAR,NIGHT_CLEAR,NIGHT_CLEAR,NIGHT_MOSTLY_CLEAR,NIGHT_CLEAR,MOSTLY_CLEAR,CLEAR,CLEAR,CLEAR,CLEAR,CLEAR,CLEAR,CLEAR","Offshore,Offshore,Offshore,Offshore,Offshore,Offshore,Offshore,Cross-shore,Onshore,Onshore,Onshore,Onshore,Onshore",13
5842041f4e65fad6a77089d7,2024_07_22,42.946,-70.786,Plaice Cove,1.4487179487179487,0.16634615384615384,0.4681946153846154,17,13.76923076923077,"NIGHT_CLEAR,NIGHT_CLEAR,NIGHT_MOSTLY_CLOUDY,NIGHT_CLEAR,NIGHT_MOSTLY_CLEAR,CLEAR,CLEAR,CLEAR,CLEAR,CLEAR,CLEAR,CLEAR,CLEAR","Cross-shore,Cross-shore,Offshore,Offshore,Offshore,Cross-shore,Cross-shore,Onshore,Onshore,Onshore,Onshore,Onshore,Onshore",13
5842041f4e65fad6a77089d9,2024_07_22,42.911574,-70.80831,The Main Beach,0.8461538461538461,0.008957692307692309,0.3108823076923077,17,13.76923076923077,"NIGHT_MIST,NIGHT_MIST,NIGHT_MIST,NIGHT_CLEAR,NIGHT_MOSTLY_CLEAR,CLEAR,CLEAR,CLEAR,CLEAR,MIST,MIST,MIST,MIST","Offshore,Offshore,Offshore,Offshore,Offshore,Offshore,Offshore,Cross-shore,Onshore,Onshore,Onshore,Onshore,Onshore",13
5842041f4e65fad6a77089da,2024_07_22,42.97583846220203,-70.764,Sawyer's Beach,1.6538461538461537,0.22237153846153845,0.5274253846153846,17,13.76923076923077,"NIGHT_CLEAR,NIGHT_CLEAR,NIGHT_MOSTLY_CLEAR,NIGHT_CLEAR,NIGHT_CLEAR,MOSTLY_CLEAR,CLEAR,CLEAR,CLEAR,CLEAR,CLEAR,CLEAR,CLEAR","Cross-shore,Cross-shore,Offshore,Offshore,Offshore,Offshore,Cross-shore,Onshore,Onshore,Onshore,Onshore,Onshore,Onshore",13
5842041f4e65fad6a77089db,2024_07_22,42.97,-70.77,Rye on the Rocks / 5-0's,0.8717948717948718,0.012424615384615385,0.31752384615384616,17,13.76923076923077,"NIGHT_CLEAR,NIGHT_CLEAR,NIGHT_MOSTLY_CLEAR,NIGHT_CLEAR,NIGHT_CLEAR,MOSTLY_CLEAR,CLEAR,CLEAR,CLEAR,CLEAR,CLEAR,CLEAR,CLEAR","Offshore,Offshore,Offshore,Offshore,Offshore,Offshore,Cross-shore,Onshore,Onshore,Onshore,Onshore,Onshore,Onshore",13
5842041f4e65fad6a77089dc,2024_07_22,43.55902946610303,-70.27795,Higgins Beach,1,0.05515384615384616,0.3607230769230769,17,14.384615384615385,"NIGHT_MOSTLY_CLEAR,NIGHT_MIST,NIGHT_CLEAR,NIGHT_MOSTLY_CLOUDY,NIGHT_MOSTLY_CLEAR,MOSTLY_CLOUDY,CLEAR,CLEAR,CLEAR,CLEAR,CLEAR,CLEAR,CLEAR","Offshore,Offshore,Offshore,Offshore,Offshore,Offshore,Cross-shore,Cross-shore,Onshore,Onshore,Onshore,Onshore,Onshore",13
5842041f4e65fad6a77089dd,2024_07_22,43.302676,-70.5652,Wells Beach,1.6538461538461537,0.22314076923076923,0.5281946153846154,17,13.76923076923077,"NIGHT_CLEAR,NIGHT_CLEAR,NIGHT_MOSTLY_CLEAR,NIGHT_MOSTLY_CLEAR,NIGHT_CLEAR,CLEAR,CLEAR,CLEAR,CLEAR,CLEAR,CLEAR,CLEAR,MIST","Offshore,Offshore,Cross-shore,Offshore,Offshore,Offshore,Offshore,Offshore,Onshore,Onshore,Onshore,Onshore,Onshore",13
5842041f4e65fad6a77089de,2024_07_22,43.545359,-70.30479,Scarborough Beach State Park,1.641025641025641,0.2908315384615385,0.5616392307692307,17,13.76923076923077,"NIGHT_MOSTLY_CLEAR,NIGHT_CLEAR,NIGHT_CLEAR,NIGHT_MOSTLY_CLOUDY,NIGHT_MOSTLY_CLEAR,CLEAR,MOSTLY_CLEAR,CLEAR,CLEAR,MIST,MIST,MIST,MIST","Offshore,Offshore,Offshore,Offshore,Offshore,Offshore,Offshore,Offshore,Onshore,Onshore,Onshore,Onshore,Onshore",13
5842041f4e65fad6a77089df,2024_07_22,43.514481,-70.37215,Old Orchard Beach,1.4102564102564104,0.12376153846153846,0.4316384615384616,17,14.384615384615385,"NIGHT_CLEAR,NIGHT_MOSTLY_CLEAR,NIGHT_CLEAR,NIGHT_MOSTLY_CLOUDY,NIGHT_MOSTLY_CLEAR,MOSTLY_CLOUDY,MOSTLY_CLEAR,CLEAR,CLEAR,CLEAR,CLEAR,CLEAR,CLEAR","Offshore,Offshore,Offshore,Offshore,Offshore,Offshore,Offshore,Cross-shore,Onshore,Onshore,Onshore,Onshore,Onshore",13
5842041f4e65fad6a77089e0,2024_07_22,43.34711,-70.48165,Gooch's Beach,1.4487179487179487,0.13807692307692307,0.44281,17,14.384615384615385,"NIGHT_MIST,NIGHT_CLEAR,NIGHT_MIST,NIGHT_MIST,NIGHT_MIST,MOSTLY_CLOUDY,MOSTLY_CLEAR,CLEAR,CLEAR,CLEAR,CLEAR,CLEAR,CLEAR","Offshore,Offshore,Offshore,Offshore,Offshore,Offshore,Cross-shore,Onshore,Onshore,Onshore,Onshore,Onshore,Onshore",13
5842041f4e65fad6a77089e2,2024_07_22,40.58433,-73.62953,Lido Beach,1.794871794871795,0.3392846153846154,0.6426715384615385,23,21,"NIGHT_MIST,NIGHT_MIST,NIGHT_MIST,NIGHT_MIST,NIGHT_MIST,MIST,MIST,MIST,MIST,MIST,MIST,MIST,MIST","Onshore,Onshore,Cross-shore,Onshore,Onshore,Onshore,Onshore,Onshore,Onshore,Onshore,Onshore,Onshore,Onshore",13
5842041f4e65fad6a77089e3,2024_07_22,43.163135,-70.61689,Long Sands Beach,1.4230769230769231,0.18772076923076922,0.4918776923076923,17,14.384615384615385,"NIGHT_CLEAR,NIGHT_CLEAR,NIGHT_CLEAR,NIGHT_MOSTLY_CLEAR,NIGHT_CLEAR,MOSTLY_CLEAR,CLEAR,CLEAR,CLEAR,CLEAR,MIST,MIST,MIST","Offshore,Offshore,Offshore,Offshore,Offshore,Offshore,Offshore,Cross-shore,Onshore,Onshore,Onshore,Onshore,Onshore",13
5842041f4e65fad6a77089e4,2024_07_22,40.61695351251805,-73.39376,Gilgo Beach,1.3974358974358974,0.3502461538461539,0.6574153846153846,23,21,"NIGHT_MIST,NIGHT_MIST,NIGHT_MIST,NIGHT_MIST,NIGHT_MIST,MIST,MIST,MIST,CLEAR,CLEAR,MIST,MIST,MIST","Onshore,Onshore,Onshore,Onshore,Onshore,Onshore,Onshore,Onshore,Onshore,Onshore,Onshore,Onshore,Onshore",13
5842041f4e65fad6a77089e5,2024_07_22,40.62530081928036,-73.23827,Robert Moses,1.4615384615384615,0.2784615384615385,0.583076923076923,23,23,"NIGHT_MIST,NIGHT_MIST,NIGHT_MIST,NIGHT_MIST,NIGHT_MIST,MIST,MIST,MIST,CLEAR,CLEAR,MIST,MIST,MIST","Onshore,Onshore,Onshore,Onshore,Onshore,Onshore,Onshore,Onshore,Onshore,Onshore,Onshore,Onshore,Onshore",13
5842041f4e65fad6a77089e6,2024_07_22,40.64313317632791,-73.15727,Fire Island,1.6153846153846154,0.28076923076923077,0.5846153846153846,23,23,"NIGHT_MIST,NIGHT_MIST,NIGHT_MIST,NIGHT_MIST,NIGHT_MIST,MIST,MIST,MIST,CLEAR,CLEAR,CLEAR,MIST,MIST","Onshore,Onshore,Onshore,Onshore,Onshore,Onshore,Onshore,Onshore,Onshore,Onshore,Onshore,Onshore,Onshore",13
5842041f4e65fad6a77089e8,2024_07_22,40.76653118828782,-72.7458,Cupsogue,2.1538461538461537,0.6292307692307693,0.9338461538461539,23.384615384615383,23.384615384615383,"NIGHT_MIST,NIGHT_MIST,NIGHT_MIST,NIGHT_MIST,NIGHT_MIST,MIST,MIST,MIST,OVERCAST,CLEAR,CLEAR,MIST,MIST","Onshore,Onshore,Cross-shore,Onshore,Onshore,Onshore,Onshore,Onshore,Onshore,Onshore,Onshore,Onshore,Onshore",13
5842041f4e65fad6a77089e9,2024_07_22,42.9376373334092,-70.79141,The Wall ,0.8846153846153846,0.07850307692307693,0.3874923076923077,17,13.76923076923077,"NIGHT_MIST,NIGHT_MIST,NIGHT_MIST,NIGHT_CLEAR,NIGHT_MOSTLY_CLEAR,CLEAR,CLEAR,CLEAR,CLEAR,MIST,MIST,MIST,MIST","Cross-shore,Cross-shore,Cross-shore,Offshore,Cross-shore,Offshore,Onshore,Onshore,Onshore,Onshore,Onshore,Onshore,Onshore",13
5842041f4e65fad6a77089ea,2024_07_22,40.887088,-72.33856,Flys,2,0.536923076923077,0.8438461538461538,24,24,"NIGHT_CLEAR,NIGHT_CLEAR,NIGHT_MIST,NIGHT_MIST,NIGHT_MIST,MIST,MIST,MIST,MIST,MIST,MIST,LIGHT_SHOWERS_POSSIBLE,MIST","Onshore,Onshore,Onshore,Onshore,Onshore,Onshore,Onshore,Onshore,Onshore,Onshore,Onshore,Onshore,Onshore",13
5842041f4e65fad6a77089eb,2024_07_22,41.0389266436591,-71.91068529316958,Trailer Park,2.371794871794872,0.514183076923077,0.8186769230769231,23,21,"NIGHT_CLEAR,NIGHT_CLEAR,NIGHT_CLEAR,NIGHT_CLEAR,NIGHT_CLEAR,MIST,MIST,MIST,CLEAR,OVERCAST,CLEAR,CLEAR,OVERCAST","Cross-shore,Cross-shore,Cross-shore,Onshore,Onshore,Onshore,Onshore,Onshore,Onshore,Onshore,Onshore,Onshore,Onshore",13
5842041f4e65fad6a77089ec,2024_07_22,41.039505402729105,-71.9142,Ditch Plains,1.8461538461538463,0.5570153846153846,0.8703361538461538,24,24,"NIGHT_CLEAR,NIGHT_CLEAR,NIGHT_CLEAR,NIGHT_CLEAR,NIGHT_MIST,MIST,MIST,MIST,MIST,MIST,MIST,MIST,MIST","Cross-shore,Cross-shore,Cross-shore,Cross-shore,Cross-shore,Cross-shore,Cross-shore,Cross-shore,Onshore,Onshore,Onshore,Onshore,Onshore",13
5842041f4e65fad6a77089ee,2024_07_22,40.57633275206492,-73.56895305108567,"West End, Jones Beach",1.6538461538461537,0.38037461538461537,0.6867746153846154,23,21,"NIGHT_MIST,NIGHT_MIST,NIGHT_MIST,NIGHT_MIST,NIGHT_MIST,MIST,MIST,MIST,MIST,CLEAR,MIST,MIST,MIST","Onshore,Onshore,Onshore,Onshore,Onshore,Onshore,Onshore,Onshore,Onshore,Onshore,Onshore,Onshore,Cross-shore",13
5842041f4e65fad6a77089f1,2024_07_22,41.038286691230795,-71.91991567611694,Poles,2.3461538461538463,0.5091823076923077,0.8178684615384615,23,21,"NIGHT_CLEAR,NIGHT_CLEAR,NIGHT_CLEAR,NIGHT_CLEAR,NIGHT_CLEAR,MIST,MIST,MIST,CLEAR,OVERCAST,CLEAR,CLEAR,OVERCAST","Cross-shore,Cross-shore,Cross-shore,Onshore,Onshore,Onshore,Onshore,Onshore,Onshore,Onshore,Onshore,Onshore,Onshore",13
5842041f4e65fad6a77089f3,2024_07_22,40.84077769766295,-72.47989493724765,The Bowl,2.3076923076923075,0.5953846153846154,0.9015384615384615,24,24,"NIGHT_CLEAR,NIGHT_MIST,NIGHT_MIST,NIGHT_MIST,NIGHT_MIST,MIST,BRIEF_SHOWERS_POSSIBLE,MIST,CLOUDY,MIST,MIST,MIST,MIST","Onshore,Onshore,Onshore,Onshore,Onshore,Onshore,Onshore,Onshore,Onshore,Onshore,Onshore,Onshore,Onshore",13
