_id,date,lat,lon,name,daily_mean_swell_rating,daily_mean_wave_height_min,daily_mean_wave_height_max,daily_mean_water_temperature_max,daily_mean_water_temperature_min,weather_per_timestamp,wind_per_timestamp,n_samples_per_day
5842041f4e65fad6a77087f9,2024_02_27,37.741668,-122.51038,South Ocean Beach,1.022857142857143,1.7106285714285714,2.6215238095238096,14,14,"CLEAR,CLEAR,MOSTLY_CLEAR,NIGHT_MOSTLY_CLEAR,NIGHT_MOSTLY_CLEAR,NIGHT_CLEAR,NIGHT_CLEAR","Onshore,Onshore,Onshore,Onshore,Onshore,Onshore,Onshore",7
5842041f4e65fad6a7708801,2024_02_27,37.49142,-122.50428,Maverick's,NA,1.5014285714285713,1.762857142857143,13,13,"MIST,CLEAR,MOSTLY_CLOUDY,NIGHT_MOSTLY_CLOUDY,NIGHT_MOSTLY_CLOUDY,NIGHT_CLEAR,NIGHT_CLEAR","Offshore,Offshore,Offshore,Offshore,Offshore,Offshore,Offshore",7
5842041f4e65fad6a7708804,2024_02_27,44.997,-124.018,Roads End,1,4.065714285714286,4.51,11,11,"CLEAR,BRIEF_SHOWERS,MOSTLY_CLEAR,NIGHT_MOSTLY_CLOUDY,NIGHT_CLEAR,NIGHT_BRIEF_SHOWERS,NIGHT_MOSTLY_CLOUDY","Onshore,Onshore,Onshore,Onshore,Onshore,Onshore,Onshore",7
5842041f4e65fad6a7708805,2024_02_27,36.95188851423011,-122.02522,Steamer Lane,3,1.3454047619047618,1.821447619047619,14,14,"CLEAR,CLEAR,MOSTLY_CLOUDY,NIGHT_MOSTLY_CLOUDY,NIGHT_MOSTLY_CLOUDY,NIGHT_CLEAR,NIGHT_CLEAR","Cross-shore,Onshore,Cross-shore,Offshore,Offshore,Offshore,Offshore",7
5842041f4e65fad6a7708806,2024_02_27,36.95918781542251,-122.02489,Cowells,1,-4.761904761904758e-4,0.20683809523809527,14,14,"CLEAR,CLEAR,MOSTLY_CLOUDY,NIGHT_MOSTLY_CLOUDY,NIGHT_MOSTLY_CLOUDY,NIGHT_CLEAR,NIGHT_CLEAR","Offshore,Onshore,Onshore,Offshore,Offshore,Offshore,Offshore",7
5842041f4e65fad6a7708807,2024_02_27,36.95468082526536,-121.97234,Pleasure Point,3.6185714285714288,1.1785142857142858,1.6034857142857142,14,14,"MOSTLY_CLEAR,CLEAR,CLEAR,NIGHT_CLEAR,NIGHT_MOSTLY_CLOUDY,NIGHT_CLEAR,NIGHT_CLEAR","Onshore,Onshore,Onshore,Onshore,Onshore,Cross-shore,Cross-shore",7
5842041f4e65fad6a770880a,2024_02_27,35.37815414378748,-120.86589,Morro Bay,3,0.9622285714285713,1.4690714285714286,14,14,"CLEAR,MOSTLY_CLOUDY,MOSTLY_CLEAR,NIGHT_CLEAR,NIGHT_MOSTLY_CLOUDY,NIGHT_MOSTLY_CLOUDY,NIGHT_MOSTLY_CLEAR","Onshore,Onshore,Cross-shore,Onshore,Cross-shore,Onshore,Offshore",7
5842041f4e65fad6a770880b,2024_02_27,36.95782765000708,-121.9672887511276,Jack's,1.6185714285714285,0.10476190476190476,0.4055809523809524,14,14,"MOSTLY_CLEAR,CLEAR,CLEAR,NIGHT_CLEAR,NIGHT_MOSTLY_CLOUDY,NIGHT_CLEAR,NIGHT_CLEAR","Cross-shore,Cross-shore,Onshore,Onshore,Onshore,Cross-shore,Offshore",7
5842041f4e65fad6a770880d,2024_02_27,34.29982939936656,-119.3489016603669,Gold Coast Beachbreaks,2,0.09142857142857143,0.3942857142857143,15,15,"CLEAR,MOSTLY_CLOUDY,MIST,NIGHT_MOSTLY_CLOUDY,NIGHT_MOSTLY_CLOUDY,NIGHT_MOSTLY_CLEAR,NIGHT_MOSTLY_CLOUDY","Cross-shore,Offshore,Cross-shore,Cross-shore,Cross-shore,Cross-shore,Cross-shore",7
5842041f4e65fad6a7708811,2024_02_27,34.245076,-119.26799,Ventura Harbor,2.5714285714285716,0.6014714285714287,0.8887252380952381,14,14,"MOSTLY_CLEAR,MIST,MIST,NIGHT_MIST,NIGHT_MOSTLY_CLOUDY,NIGHT_FOG,NIGHT_FOG","Onshore,Onshore,Cross-shore,Onshore,Cross-shore,Onshore,Offshore",7
5842041f4e65fad6a7708813,2024_02_27,34.051,-118.964,County Line,2.142857142857143,0.3051809523809524,0.6079809523809524,15,15,"MOSTLY_CLOUDY,MIST,MIST,NIGHT_MIST,NIGHT_BRIEF_SHOWERS,NIGHT_FOG,NIGHT_FOG","Onshore,Onshore,Cross-shore,Onshore,Cross-shore,Cross-shore,Onshore",7
5842041f4e65fad6a7708814,2024_02_27,34.37256264378892,-119.47797,Rincon,2,0.032857142857142856,0.33571428571428574,15,15,"MIST,MIST,MIST,NIGHT_MIST,NIGHT_MOSTLY_CLOUDY,NIGHT_MOSTLY_CLEAR,NIGHT_MOSTLY_CLEAR","Onshore,Cross-shore,Cross-shore,Onshore,Onshore,Onshore,Onshore",7
5842041f4e65fad6a7708817,2024_02_27,34.03096101876324,-118.68109,Malibu Third Point,2,0.28,0.5842857142857143,15,15,"MOSTLY_CLOUDY,MOSTLY_CLOUDY,BRIEF_SHOWERS,NIGHT_MIST,NIGHT_MIST,NIGHT_OVERCAST,NIGHT_FOG","Onshore,Onshore,Cross-shore,Cross-shore,Onshore,Offshore,Cross-shore",7
5842041f4e65fad6a7708819,2024_02_27,33.984079047970035,-118.47381591796875,Venice Beach,2.262857142857143,0.4644095238095238,0.7685190476190475,14,14,"CLEAR,CLEAR,BRIEF_SHOWERS,NIGHT_MIST,NIGHT_MIST,NIGHT_MOSTLY_CLOUDY,NIGHT_MOSTLY_CLOUDY","Onshore,Onshore,Onshore,Onshore,Onshore,Onshore,Onshore",7
5842041f4e65fad6a770881e,2024_02_27,34.037508438646746,-118.58339846155594,Topanga Beach,2,0.2495857142857143,0.5536952380952381,15,15,"MIST,MIST,BRIEF_SHOWERS,NIGHT_MIST,NIGHT_MIST,NIGHT_OVERCAST,NIGHT_MOSTLY_CLOUDY","Onshore,Onshore,Onshore,Cross-shore,Offshore,Cross-shore,Offshore",7
5842041f4e65fad6a7708820,2024_02_27,33.73954373690184,-118.11414,Seal Beach Jetty,2,0.07857142857142857,0.38285714285714284,15,15,"OVERCAST,CLEAR,CLEAR,NIGHT_MOSTLY_CLOUDY,NIGHT_MOSTLY_CLOUDY,NIGHT_CLEAR,NIGHT_MIST","Onshore,Onshore,Onshore,Cross-shore,Cross-shore,Cross-shore,Offshore",7
5842041f4e65fad6a7708822,2024_02_27,33.72309983348433,-118.08078,Anderson Street,1.7142857142857142,0.060000000000000005,0.3628571428571428,15,15,"OVERCAST,MOSTLY_CLOUDY,CLEAR,NIGHT_MOSTLY_CLOUDY,NIGHT_MOSTLY_CLOUDY,NIGHT_MOSTLY_CLEAR,NIGHT_MOSTLY_CLOUDY","Onshore,Onshore,Onshore,Cross-shore,Cross-shore,Cross-shore,Offshore",7
5842041f4e65fad6a7708827,2024_02_27,33.65574085629463,-118.00397,Huntington Beach Pier Northside,2.5,0.5016380952380952,0.9121523809523809,14,14,"OVERCAST,CLEAR,MOSTLY_CLEAR,NIGHT_MOSTLY_CLOUDY,NIGHT_MOSTLY_CLEAR,NIGHT_MOSTLY_CLEAR,NIGHT_MOSTLY_CLOUDY","Onshore,Onshore,Onshore,Onshore,Onshore,Cross-shore,Offshore",7
5842041f4e65fad6a7708828,2024_02_27,34.272041739333,-119.2997646331,C St.,2,0.25415238095238096,0.5578285714285715,14,14,"BRIEF_SHOWERS,MIST,MIST,NIGHT_MIST,NIGHT_MOSTLY_CLOUDY,NIGHT_MOSTLY_CLEAR,NIGHT_FOG","Cross-shore,Cross-shore,Offshore,Offshore,Offshore,Offshore,Offshore",7
5842041f4e65fad6a770882a,2024_02_27,33.61555743705257,-117.93676,Newport Lower Jetties,2,0.2493904761904762,0.5554476190476191,15,15,"OVERCAST,CLEAR,CLEAR,NIGHT_MOSTLY_CLOUDY,NIGHT_MOSTLY_CLEAR,NIGHT_CLEAR,NIGHT_MOSTLY_CLOUDY","Onshore,Onshore,Cross-shore,Cross-shore,Onshore,Offshore,Offshore",7
5842041f4e65fad6a770882b,2024_02_27,33.5930302087,-117.88199,The Wedge,2,0.5946514285714286,1.0207414285714287,15,15,"OVERCAST,CLEAR,CLEAR,NIGHT_MOSTLY_CLOUDY,NIGHT_CLEAR,NIGHT_CLEAR,NIGHT_MOSTLY_CLOUDY","Onshore,Cross-shore,Cross-shore,Offshore,Offshore,Offshore,Offshore",7
5842041f4e65fad6a770882c,2024_02_27,33.60577342582,-117.9315376281,Newport Beach Pier,2,0.2112952380952381,0.5121142857142857,15,15,"CLOUDY,MOSTLY_CLOUDY,CLEAR,NIGHT_MOSTLY_CLOUDY,NIGHT_MOSTLY_CLEAR,NIGHT_MOSTLY_CLEAR,NIGHT_MOSTLY_CLOUDY","Offshore,Cross-shore,Onshore,Onshore,Onshore,Offshore,Offshore",7
5842041f4e65fad6a770882e,2024_02_27,33.475793399792984,-117.72291,Salt Creek,3,0.5040190476190476,0.909295238095238,14,14,"DRIZZLE,MOSTLY_CLOUDY,CLEAR,NIGHT_CLEAR,NIGHT_MOSTLY_CLOUDY,NIGHT_CLEAR,NIGHT_MOSTLY_CLOUDY","Cross-shore,Offshore,Offshore,Cross-shore,Onshore,Offshore,Cross-shore",7
5842041f4e65fad6a7708830,2024_02_27,33.41800974113613,-117.61952,T-Street,2.9757142857142855,0.4925904761904762,0.798647619047619,14,14,"OVERCAST,MOSTLY_CLOUDY,CLEAR,NIGHT_MOSTLY_CLOUDY,NIGHT_MOSTLY_CLOUDY,NIGHT_CLEAR,NIGHT_MOSTLY_CLOUDY","Offshore,Offshore,Cross-shore,Onshore,Onshore,Offshore,Offshore",7
5842041f4e65fad6a7708832,2024_02_27,33.202391008646,-117.39475,Oceanside Harbor,3,0.7643714285714286,1.072257142857143,15,15,"OVERCAST,DRIZZLE,OVERCAST,NIGHT_CLEAR,NIGHT_MOSTLY_CLOUDY,NIGHT_MOSTLY_CLEAR,NIGHT_MOSTLY_CLOUDY","Cross-shore,Onshore,Cross-shore,Cross-shore,Onshore,Onshore,Onshore",7
5842041f4e65fad6a7708835,2024_02_27,33.19477795952803,-117.38667,Oceanside Pier,2.7142857142857144,0.5329142857142857,0.9490285714285714,15,15,"OVERCAST,LIGHT_RAIN,CLEAR,NIGHT_MOSTLY_CLOUDY,NIGHT_MOSTLY_CLOUDY,NIGHT_MOSTLY_CLOUDY,NIGHT_MOSTLY_CLOUDY","Onshore,Onshore,Cross-shore,Cross-shore,Onshore,Onshore,Onshore",7
5842041f4e65fad6a7708837,2024_02_27,33.14948100706,-117.35029,Tamarack,3,0.3142857142857143,0.6171428571428571,15,15,"OVERCAST,OVERCAST,CLEAR,NIGHT_MOSTLY_CLEAR,NIGHT_CLEAR,NIGHT_CLEAR,NIGHT_MOSTLY_CLOUDY","Cross-shore,Cross-shore,Cross-shore,Onshore,Cross-shore,Onshore,Onshore",7
5842041f4e65fad6a7708839,2024_02_27,32.865777159358856,-117.25614295356122,Scripps,2.2614285714285716,0.553747619047619,0.8586571428571428,14,14,"OVERCAST,MOSTLY_CLOUDY,MOSTLY_CLOUDY,NIGHT_CLEAR,NIGHT_MOSTLY_CLOUDY,NIGHT_CLEAR,NIGHT_CLEAR","Onshore,Onshore,Offshore,Offshore,Offshore,Onshore,Cross-shore",7
5842041f4e65fad6a770883a,2024_02_27,32.813094,-117.27381,Birdrock,2.5714285714285716,0.5128571428571429,0.8171428571428572,15,15,"OVERCAST,MOSTLY_CLOUDY,MOSTLY_CLOUDY,NIGHT_MOSTLY_CLEAR,NIGHT_MOSTLY_CLOUDY,NIGHT_OVERCAST,NIGHT_MOSTLY_CLOUDY","Cross-shore,Cross-shore,Cross-shore,Cross-shore,Cross-shore,Offshore,Cross-shore",7
5842041f4e65fad6a770883b,2024_02_27,32.877231,-117.25303,Blacks,3.5242857142857145,0.8184190476190476,1.353357142857143,14,14,"OVERCAST,MOSTLY_CLOUDY,MOSTLY_CLOUDY,NIGHT_CLEAR,NIGHT_MOSTLY_CLOUDY,NIGHT_CLEAR,NIGHT_CLEAR","Onshore,Onshore,Onshore,Onshore,Onshore,Onshore,Onshore",7
5842041f4e65fad6a770883c,2024_02_27,32.82978974229765,-117.28161740727381,Windansea,2.7385714285714284,0.7893714285714285,1.097257142857143,14,14,"OVERCAST,MOSTLY_CLOUDY,MOSTLY_CLOUDY,NIGHT_MOSTLY_CLEAR,NIGHT_MOSTLY_CLOUDY,NIGHT_CLOUDY,NIGHT_CLEAR","Cross-shore,Cross-shore,Offshore,Offshore,Offshore,Onshore,Onshore",7
5842041f4e65fad6a770883d,2024_02_27,32.838278,-117.28396,Horseshoe,2.4285714285714284,0.5085714285714286,0.8128571428571428,15,15,"OVERCAST,MOSTLY_CLOUDY,MOSTLY_CLOUDY,NIGHT_MOSTLY_CLEAR,NIGHT_MOSTLY_CLOUDY,NIGHT_CLOUDY,NIGHT_CLEAR","Onshore,Onshore,Cross-shore,Cross-shore,Cross-shore,Offshore,Cross-shore",7
5842041f4e65fad6a770883f,2024_02_27,32.75034717673179,-117.25337,Ocean Beach,3,0.8129428571428571,1.1222571428571428,14,14,"CLOUDY,BRIEF_SHOWERS,MOSTLY_CLOUDY,NIGHT_CLEAR,NIGHT_MOSTLY_CLOUDY,NIGHT_CLEAR,NIGHT_CLEAR","Cross-shore,Cross-shore,Offshore,Offshore,Cross-shore,Onshore,Onshore",7
5842041f4e65fad6a7708840,2024_02_27,32.73693,-117.25718,Sunset Cliffs,2,0.4942857142857143,0.7957142857142857,15,15,"CLOUDY,MOSTLY_CLOUDY,CLEAR,NIGHT_MOSTLY_CLEAR,NIGHT_CLOUDY,NIGHT_MOSTLY_CLOUDY,NIGHT_CLEAR","Cross-shore,Cross-shore,Offshore,Offshore,Cross-shore,Onshore,Onshore",7
5842041f4e65fad6a7708841,2024_02_27,32.796582258728826,-117.25779,Pacific Beach,2.4757142857142855,0.7977047619047619,1.1026142857142858,14,14,"OVERCAST,MOSTLY_CLOUDY,MOSTLY_CLOUDY,NIGHT_MOSTLY_CLEAR,NIGHT_MOSTLY_CLOUDY,NIGHT_OVERCAST,NIGHT_CLEAR","Cross-shore,Cross-shore,Cross-shore,Cross-shore,Cross-shore,Offshore,Cross-shore",7
5842041f4e65fad6a7708842,2024_02_27,32.776636,-117.25514,Mission Beach,2.4757142857142855,0.7961571428571429,1.1026142857142858,14,14,"OVERCAST,MOSTLY_CLOUDY,MOSTLY_CLOUDY,NIGHT_MOSTLY_CLEAR,NIGHT_MOSTLY_CLOUDY,NIGHT_OVERCAST,NIGHT_CLEAR","Onshore,Onshore,Cross-shore,Cross-shore,Cross-shore,Cross-shore,Offshore",7
5842041f4e65fad6a7708844,2024_02_27,32.577195519016,-117.13475,Imperial Beach Pier,3,0.6614285714285715,0.9671428571428571,16,16,"CLOUDY,OVERCAST,MOSTLY_CLOUDY,NIGHT_MOSTLY_CLEAR,NIGHT_MOSTLY_CLOUDY,NIGHT_CLEAR,NIGHT_CLEAR","Cross-shore,Offshore,Offshore,Offshore,Offshore,Onshore,Onshore",7
5842041f4e65fad6a770884a,2024_02_27,42.88678181061,-70.80843,Seabrook,2.5714285714285716,0.4395152380952381,0.7311919047619048,4,3,"NIGHT_CLEAR,NIGHT_CLEAR,NIGHT_CLEAR,NIGHT_CLEAR,NIGHT_CLEAR,NIGHT_CLEAR,NIGHT_CLEAR","Offshore,Offshore,Offshore,Offshore,Offshore,Onshore,Onshore",7
5842041f4e65fad6a770884e,2024_02_27,41.434181432898335,-71.45312118111178,Narragansett,1.5714285714285714,0.22255238095238095,0.5284380952380953,5,4,"NIGHT_CLEAR,NIGHT_CLEAR,NIGHT_CLEAR,NIGHT_MIST,NIGHT_MIST,NIGHT_MIST,NIGHT_MIST","Cross-shore,Cross-shore,Cross-shore,Cross-shore,Onshore,Cross-shore,Onshore",7
5842041f4e65fad6a7708850,2024_02_27,40.582703230722,-73.65247,Lincoln Blvd,0.9285714285714286,0.4120761904761905,0.7190333333333333,5,4,"NIGHT_MIST,NIGHT_MIST,NIGHT_MIST,NIGHT_MIST,NIGHT_MIST,NIGHT_MIST,NIGHT_MIST","Onshore,Onshore,Onshore,Onshore,Onshore,Onshore,Onshore",7
5842041f4e65fad6a7708852,2024_02_27,40.58342841721757,-73.81182,Rockaways,1,0.3906476190476191,0.6951047619047619,5,4,"NIGHT_CLEAR,NIGHT_MIST,NIGHT_MIST,NIGHT_CLEAR,NIGHT_CLEAR,NIGHT_MIST,NIGHT_MIST","Onshore,Onshore,Onshore,Onshore,Onshore,Onshore,Onshore",7
5842041f4e65fad6a7708853,2024_02_27,40.330474,-73.9734,Monmouth Beach,1.5471428571428572,0.45588571428571434,0.7598666666666666,6,5,"NIGHT_CLEAR,NIGHT_CLEAR,NIGHT_CLEAR,NIGHT_MIST,NIGHT_MIST,NIGHT_CLEAR,NIGHT_CLEAR","Cross-shore,Cross-shore,Cross-shore,Cross-shore,Cross-shore,Cross-shore,Cross-shore",7
5842041f4e65fad6a7708856,2024_02_27,40.113,-74.028,Manasquan Inlet,2,0.34922857142857144,0.6591714285714286,6,5,"NIGHT_CLEAR,NIGHT_CLEAR,NIGHT_CLEAR,NIGHT_CLEAR,NIGHT_MIST,NIGHT_MIST,NIGHT_MIST","Cross-shore,Cross-shore,Cross-shore,Cross-shore,Cross-shore,Cross-shore,Cross-shore",7
5842041f4e65fad6a7708857,2024_02_27,39.941519877445664,-74.06829,Casino Pier,1.9757142857142858,0.4617714285714286,0.7690857142857143,6,5,"NIGHT_CLEAR,NIGHT_CLEAR,NIGHT_CLEAR,NIGHT_CLEAR,NIGHT_CLEAR,NIGHT_CLEAR,NIGHT_MIST","Cross-shore,Cross-shore,Cross-shore,Cross-shore,Cross-shore,Cross-shore,Onshore",7
5842041f4e65fad6a7708858,2024_02_27,39.28223089949212,-74.55766,North End OC,1,0.36160000000000003,0.6670095238095238,6,5,"NIGHT_MIST,NIGHT_MIST,NIGHT_MIST,NIGHT_MIST,NIGHT_MIST,NIGHT_BRIEF_SHOWERS_POSSIBLE,NIGHT_BRIEF_SHOWERS_POSSIBLE","Onshore,Onshore,Onshore,Onshore,Onshore,Onshore,Onshore",7
5842041f4e65fad6a770885b,2024_02_27,39.65080599934257,-74.17146,Ship Bottom,0.9757142857142858,0.4970095238095238,0.8014666666666667,6,5,"NIGHT_CLEAR,NIGHT_CLEAR,NIGHT_CLEAR,NIGHT_CLEAR,NIGHT_CLEAR,NIGHT_BRIEF_SHOWERS_POSSIBLE,NIGHT_MIST","Onshore,Onshore,Cross-shore,Cross-shore,Onshore,Onshore,Onshore",7
5842041f4e65fad6a7708863,2024_02_27,36.034151543144,-75.66791,Third Street,1,0.11997619047619049,0.4249523809523809,7,6,"NIGHT_CLEAR,NIGHT_CLEAR,NIGHT_CLEAR,NIGHT_CLEAR,NIGHT_CLEAR,NIGHT_CLEAR,NIGHT_CLEAR","Offshore,Offshore,Offshore,Offshore,Offshore,Offshore,Offshore",7
5842041f4e65fad6a7708867,2024_02_27,35.605833221351425,-75.46303,S-Turns,2,0.4700571428571429,0.7750857142857143,8,7,"NIGHT_CLEAR,NIGHT_CLEAR,NIGHT_CLEAR,NIGHT_CLEAR,NIGHT_CLEAR,NIGHT_CLEAR,NIGHT_CLEAR","Offshore,Offshore,Offshore,Offshore,Offshore,Offshore,Offshore",7
5842041f4e65fad6a770886d,2024_02_27,38.338461,-75.08117,Ocean City Boardwalk,0.42857142857142855,0.28493333333333337,0.5892714285714286,7,5,"NIGHT_CLEAR,NIGHT_CLEAR,NIGHT_CLEAR,NIGHT_BRIEF_SHOWERS,NIGHT_MOSTLY_CLEAR,NIGHT_CLEAR,NIGHT_CLEAR","Cross-shore,Cross-shore,Cross-shore,Cross-shore,Cross-shore,Cross-shore,Cross-shore",7
5842041f4e65fad6a770886f,2024_02_27,29.844757212379562,-81.26136,A St.,1,0.13428571428571429,0.43714285714285717,15,15,"CLEAR,NIGHT_CLEAR,NIGHT_CLEAR,NIGHT_CLEAR,NIGHT_CLEAR,NIGHT_CLEAR,NIGHT_CLEAR","Onshore,Onshore,Onshore,Onshore,Onshore,Cross-shore,Cross-shore",7
5842041f4e65fad6a7708871,2024_02_27,29.069417851135093,-80.90824,New Smyrna Beach,1.4757142857142858,0.3290857142857143,0.6368619047619049,17,16,"CLEAR,NIGHT_CLEAR,NIGHT_CLEAR,NIGHT_CLEAR,NIGHT_CLEAR,NIGHT_CLEAR,NIGHT_CLEAR","Onshore,Onshore,Cross-shore,Cross-shore,Cross-shore,Cross-shore,Cross-shore",7
5842041f4e65fad6a7708872,2024_02_27,28.367707417566,-80.60171,Cocoa Beach Pier,0.5242857142857142,0.006785714285714289,0.3158714285714286,18,17,"CLEAR,NIGHT_CLEAR,NIGHT_CLEAR,NIGHT_CLEAR,NIGHT_CLEAR,NIGHT_CLEAR,NIGHT_CLEAR","Onshore,Onshore,Onshore,Onshore,Onshore,Onshore,Onshore",7
5842041f4e65fad6a7708873,2024_02_27,28.091782738658846,-80.56479,Indialantic,0.9042857142857142,0.07654761904761904,0.38283333333333336,19,18,"CLEAR,NIGHT_CLEAR,NIGHT_CLEAR,NIGHT_CLEAR,NIGHT_CLEAR,NIGHT_CLEAR,NIGHT_CLEAR","Onshore,Onshore,Onshore,Onshore,Onshore,Onshore,Onshore",7
5842041f4e65fad6a7708876,2024_02_27,27.25392904143517,-80.19455,Jensen Beach,0,-0.011785714285714288,0.2948,22,20,"CLEAR,NIGHT_MOSTLY_CLEAR,NIGHT_CLEAR,NIGHT_CLEAR,NIGHT_CLEAR,NIGHT_CLEAR,NIGHT_CLEAR","Onshore,Onshore,Onshore,Onshore,Cross-shore,Cross-shore,Cross-shore",7
5842041f4e65fad6a7708879,2024_02_27,26.76346795333825,-80.0360655784607,Reef Road,0,-0.017261904761904763,0.17014285714285718,23,22,"CLEAR,NIGHT_CLEAR,NIGHT_CLEAR,NIGHT_CLEAR,NIGHT_CLEAR,NIGHT_CLEAR,NIGHT_CLEAR","Onshore,Onshore,Onshore,Onshore,Onshore,Onshore,Onshore",7
5842041f4e65fad6a770887c,2024_02_27,26.336499228484,-80.06956100463,Boca Raton Inlet,0.9042857142857142,0,0.2406904761904762,24,22,"CLEAR,NIGHT_CLEAR,NIGHT_MOSTLY_CLOUDY,NIGHT_MOSTLY_CLOUDY,NIGHT_MOSTLY_CLOUDY,NIGHT_CLEAR,NIGHT_CLEAR","Onshore,Onshore,Onshore,Onshore,Onshore,Onshore,Onshore",7
5842041f4e65fad6a770887d,2024_02_27,26.31719311695038,-80.07452525176168,Deerfield Beach Pier,0,-0.0016238095238095274,0.18405714285714286,24,23,"CLEAR,NIGHT_CLEAR,NIGHT_MOSTLY_CLOUDY,NIGHT_MOSTLY_CLOUDY,NIGHT_MOSTLY_CLOUDY,NIGHT_CLEAR,NIGHT_CLEAR","Onshore,Onshore,Onshore,Onshore,Onshore,Onshore,Onshore",7
5842041f4e65fad6a7708881,2024_02_27,30.20276320866628,-85.85626528676136,"Spyglass Dr., Panama City",1.3085714285714285,0.047428571428571424,0.3762761904761905,16,15,"CLEAR,NIGHT_CLEAR,NIGHT_CLEAR,NIGHT_CLEAR,NIGHT_CLEAR,NIGHT_MOSTLY_CLOUDY,NIGHT_CLEAR","Onshore,Onshore,Onshore,Onshore,Onshore,Onshore,Onshore",7
5842041f4e65fad6a7708884,2024_02_27,33.39000832738053,-117.59852,Cottons,3,0.5115190476190477,0.9207238095238095,14,14,"OVERCAST,MOSTLY_CLOUDY,MOSTLY_CLEAR,NIGHT_MOSTLY_CLOUDY,NIGHT_MOSTLY_CLOUDY,NIGHT_MOSTLY_CLEAR,NIGHT_MOSTLY_CLOUDY","Onshore,Onshore,Cross-shore,Onshore,Onshore,Cross-shore,Offshore",7
5842041f4e65fad6a7708885,2024_02_27,33.359416282661,-117.54167901405711,Trails,2,0.19428571428571428,0.5014285714285714,15,15,"OVERCAST,MOSTLY_CLOUDY,MOSTLY_CLOUDY,NIGHT_MOSTLY_CLOUDY,NIGHT_MOSTLY_CLOUDY,NIGHT_MOSTLY_CLOUDY,NIGHT_MOSTLY_CLOUDY","Cross-shore,Cross-shore,Offshore,Cross-shore,Offshore,Cross-shore,Offshore",7
5842041f4e65fad6a7708886,2024_02_27,33.38042605929805,-117.58332,Middles,2.6185714285714288,0.31605714285714287,0.7251428571428572,14,14,"OVERCAST,MOSTLY_CLOUDY,MOSTLY_CLEAR,NIGHT_MOSTLY_CLOUDY,NIGHT_MOSTLY_CLOUDY,NIGHT_MOSTLY_CLEAR,NIGHT_MOSTLY_CLOUDY","Onshore,Cross-shore,Cross-shore,Cross-shore,Cross-shore,Cross-shore,Offshore",7
5842041f4e65fad6a7708887,2024_02_27,33.38445596302903,-117.59445,Upper Trestles,3,0.515447619047619,0.9259619047619049,14,14,"OVERCAST,MOSTLY_CLOUDY,MOSTLY_CLEAR,NIGHT_MOSTLY_CLOUDY,NIGHT_MOSTLY_CLOUDY,NIGHT_MOSTLY_CLEAR,NIGHT_MOSTLY_CLOUDY","Onshore,Cross-shore,Cross-shore,Cross-shore,Cross-shore,Cross-shore,Offshore",7
5842041f4e65fad6a7708889,2024_02_27,28.944414,-95.28883,Surfside,1,0.6249042857142857,0.9764142857142857,17,17,"MIST,DRIZZLE,NIGHT_MIST,NIGHT_MIST,NIGHT_MIST,NIGHT_DRIZZLE,NIGHT_MIST","Onshore,Onshore,Onshore,Onshore,Onshore,Onshore,Onshore",7
5842041f4e65fad6a770888a,2024_02_27,33.38143999849023,-117.58843,Lower Trestles,3,0.5454476190476191,0.9478666666666666,14,14,"OVERCAST,MOSTLY_CLOUDY,MOSTLY_CLEAR,NIGHT_MOSTLY_CLOUDY,NIGHT_MOSTLY_CLOUDY,NIGHT_MOSTLY_CLEAR,NIGHT_MOSTLY_CLOUDY","Onshore,Cross-shore,Cross-shore,Cross-shore,Cross-shore,Cross-shore,Offshore",7
5842041f4e65fad6a770888b,2024_02_27,33.379622288757,-117.57894,Church,2.6185714285714288,0.24700952380952382,0.6575238095238095,14,14,"OVERCAST,MOSTLY_CLOUDY,MOSTLY_CLEAR,NIGHT_MOSTLY_CLOUDY,NIGHT_MOSTLY_CLOUDY,NIGHT_MOSTLY_CLEAR,NIGHT_MOSTLY_CLOUDY","Onshore,Onshore,Cross-shore,Onshore,Cross-shore,Cross-shore,Offshore",7
5842041f4e65fad6a770888d,2024_02_27,21.679,-158.042,Sunset Beach,2.9757142857142855,1.3440190476190474,1.7832571428571429,26,25,"MOSTLY_CLEAR,BRIEF_SHOWERS,CLEAR,CLEAR,MOSTLY_CLEAR,CLEAR,NIGHT_MOSTLY_CLEAR","Cross-shore,Cross-shore,Offshore,Cross-shore,Cross-shore,Cross-shore,Cross-shore",7
5842041f4e65fad6a770888e,2024_02_27,21.670550036401,-158.0482,Rocky Point,3.2614285714285716,1.8692571428571427,2.411352380952381,26,25,"CLEAR,SHOWERS,BRIEF_SHOWERS,CLEAR,SHOWERS,MOSTLY_CLEAR,NIGHT_MOSTLY_CLEAR","Cross-shore,Cross-shore,Cross-shore,Cross-shore,Cross-shore,Cross-shore,Cross-shore",7
5842041f4e65fad6a770888f,2024_02_27,21.668,-158.05,Chambers,3,2.032857142857143,2.43,24,24,"CLEAR,SHOWERS,BRIEF_SHOWERS,CLEAR,SHOWERS,MOSTLY_CLEAR,NIGHT_MOSTLY_CLEAR","Cross-shore,Cross-shore,Cross-shore,Cross-shore,Cross-shore,Cross-shore,Cross-shore",7
5842041f4e65fad6a7708890,2024_02_27,21.66522,-158.0526,Pipeline,2.0242857142857145,1.445447619047619,1.838647619047619,26,25,"CLEAR,SHOWERS,BRIEF_SHOWERS,CLEAR,SHOWERS,MOSTLY_CLEAR,NIGHT_MOSTLY_CLEAR","Cross-shore,Cross-shore,Cross-shore,Cross-shore,Cross-shore,Cross-shore,Cross-shore",7
5842041f4e65fad6a7708891,2024_02_27,21.665,-158.054,Backdoor,3.1185714285714288,1.445447619047619,1.838647619047619,26,25,"CLEAR,SHOWERS,BRIEF_SHOWERS,CLEAR,SHOWERS,MOSTLY_CLEAR,NIGHT_MOSTLY_CLEAR","Cross-shore,Cross-shore,Cross-shore,Cross-shore,Cross-shore,Cross-shore,Cross-shore",7
5842041f4e65fad6a7708892,2024_02_27,21.662,-158.057,Rockpile,3,1.67,1.997142857142857,24,24,"CLEAR,SHOWERS,BRIEF_SHOWERS,CLEAR,SHOWERS,MOSTLY_CLEAR,NIGHT_MOSTLY_CLEAR","Cross-shore,Cross-shore,Cross-shore,Cross-shore,Cross-shore,Cross-shore,Cross-shore",7
5842041f4e65fad6a7708893,2024_02_27,21.65870453806827,-158.06058,Log Cabins,2.7142857142857144,1.3385714285714287,1.6042857142857143,24,24,"CLEAR,SHOWERS,BRIEF_SHOWERS,CLEAR,SHOWERS,MOSTLY_CLEAR,NIGHT_MOSTLY_CLEAR","Cross-shore,Cross-shore,Cross-shore,Cross-shore,Cross-shore,Cross-shore,Cross-shore",7
5842041f4e65fad6a7708894,2024_02_27,21.66203493640557,-158.05495,Off-The-Wall,3,1.3785714285714286,1.6542857142857144,24,24,"CLEAR,SHOWERS,BRIEF_SHOWERS,CLEAR,SHOWERS,MOSTLY_CLEAR,NIGHT_MOSTLY_CLEAR","Cross-shore,Cross-shore,Cross-shore,Cross-shore,Cross-shore,Cross-shore,Cross-shore",7
5842041f4e65fad6a7708895,2024_02_27,21.643,-158.067,Waimea Bay,NA,1.1811619047619049,1.5884952380952382,26,25,"CLEAR,SHOWERS,BRIEF_SHOWERS,CLEAR,SHOWERS,MOSTLY_CLEAR,NIGHT_MOSTLY_CLEAR","Offshore,Cross-shore,Cross-shore,Offshore,Cross-shore,Offshore,Offshore",7
5842041f4e65fad6a7708896,2024_02_27,21.622,-158.087,Hultin's,3,1.1673523809523811,1.5561142857142858,26,25,"CLEAR,CLEAR,MOSTLY_CLEAR,CLEAR,BRIEF_SHOWERS_POSSIBLE,CLEAR,NIGHT_CLEAR","Offshore,Offshore,Offshore,Offshore,Offshore,Offshore,Offshore",7
5842041f4e65fad6a7708897,2024_02_27,21.623,-158.085,Jocko's,2.5714285714285716,1.4585714285714286,1.7457142857142858,24,24,"CLEAR,CLEAR,MOSTLY_CLEAR,CLEAR,BRIEF_SHOWERS_POSSIBLE,CLEAR,NIGHT_CLEAR","Onshore,Onshore,Onshore,Cross-shore,Onshore,Onshore,Cross-shore",7
5842041f4e65fad6a7708898,2024_02_27,21.62,-158.088,Laniakea,3,1.2016380952380952,1.5572190476190475,26,25,"CLEAR,CLEAR,MOSTLY_CLEAR,CLEAR,BRIEF_SHOWERS_POSSIBLE,CLEAR,NIGHT_CLEAR","Cross-shore,Cross-shore,Cross-shore,Cross-shore,Cross-shore,Cross-shore,Offshore",7
5842041f4e65fad6a7708899,2024_02_27,21.625,-158.083,Chun's,2,1.552857142857143,1.8571428571428572,24,24,"CLEAR,CLEAR,MOSTLY_CLEAR,CLEAR,BRIEF_SHOWERS_POSSIBLE,CLEAR,NIGHT_CLEAR","Offshore,Cross-shore,Offshore,Offshore,Offshore,Offshore,Offshore",7
5842041f4e65fad6a770889c,2024_02_27,21.286357895152136,-157.8515,South Shore - Ala Moana Park,2,0.47857142857142854,0.7828571428571429,24,24,"CLEAR,CLEAR,CLEAR,CLEAR,CLEAR,BRIEF_SHOWERS_POSSIBLE,NIGHT_CLEAR","Offshore,Offshore,Offshore,Offshore,Offshore,Offshore,Offshore",7
5842041f4e65fad6a770889d,2024_02_27,19.606,-155.978,Banyans,2,0.5551047619047619,0.8576571428571429,26,25,"CLEAR,CLEAR,CLEAR,CLEAR,MOSTLY_CLEAR,MOSTLY_CLEAR,NIGHT_MOSTLY_CLEAR","Onshore,Onshore,Onshore,Onshore,Onshore,Onshore,Onshore",7
5842041f4e65fad6a770889e,2024_02_27,20.029,-155.831,Kawaihae,1.7142857142857142,0.4444,0.6421942857142857,25,25,"CLEAR,CLEAR,CLEAR,CLEAR,CLEAR,CLEAR,NIGHT_CLEAR","Offshore,Offshore,Cross-shore,Offshore,Offshore,Offshore,Offshore",7
5842041f4e65fad6a770889f,2024_02_27,33.07541383424675,-117.3105,Grandview,3,0.33,0.6328571428571429,15,15,"OVERCAST,CLOUDY,CLEAR,NIGHT_CLEAR,NIGHT_MOSTLY_CLOUDY,NIGHT_MOSTLY_CLOUDY,NIGHT_MOSTLY_CLOUDY","Onshore,Onshore,Onshore,Onshore,Onshore,Cross-shore,Onshore",7
5842041f4e65fad6a77088a0,2024_02_27,33.065267421296596,-117.30577,Beacons,3,0.32571428571428573,0.6271428571428571,15,15,"OVERCAST,CLOUDY,CLEAR,NIGHT_CLEAR,NIGHT_MOSTLY_CLOUDY,NIGHT_MOSTLY_CLOUDY,NIGHT_MOSTLY_CLOUDY","Onshore,Onshore,Onshore,Onshore,Onshore,Cross-shore,Onshore",7
5842041f4e65fad6a77088a2,2024_02_27,21.252,-157.805,Diamond Head,3,0.7196885714285715,1.0859261904761905,26,25,"CLEAR,MOSTLY_CLEAR,CLEAR,CLEAR,CLEAR,CLEAR,NIGHT_CLEAR","Cross-shore,Cross-shore,Cross-shore,Offshore,Offshore,Cross-shore,Offshore",7
5842041f4e65fad6a77088a3,2024_02_27,33.04694255008896,-117.29966,Moonlight State Beach,3,0.32142857142857145,0.6271428571428571,15,15,"OVERCAST,OVERCAST,CLEAR,NIGHT_CLEAR,NIGHT_MOSTLY_CLOUDY,NIGHT_CLEAR,NIGHT_CLEAR","Onshore,Onshore,Onshore,Onshore,Onshore,Cross-shore,Cross-shore",7
5842041f4e65fad6a77088a5,2024_02_27,33.08685865930869,-117.31532,Ponto,2.142857142857143,0.4357142857142857,0.7428571428571429,15,15,"OVERCAST,CLOUDY,CLEAR,NIGHT_CLEAR,NIGHT_MOSTLY_CLOUDY,NIGHT_MOSTLY_CLOUDY,NIGHT_MOSTLY_CLOUDY","Onshore,Onshore,Onshore,Onshore,Onshore,Offshore,Onshore",7
5842041f4e65fad6a77088a6,2024_02_27,33.130343587871906,-117.33667796442558,Terra Mar Point,2.7142857142857144,0.7458,1.0494,15,15,"OVERCAST,OVERCAST,CLEAR,NIGHT_MOSTLY_CLEAR,NIGHT_MOSTLY_CLOUDY,NIGHT_MOSTLY_CLOUDY,NIGHT_MOSTLY_CLOUDY","Cross-shore,Onshore,Cross-shore,Cross-shore,Offshore,Onshore,Onshore",7
5842041f4e65fad6a77088af,2024_02_27,32.95916304183685,-117.26963,Del Mar,3,0.45,0.7542857142857143,15,15,"CLOUDY,OVERCAST,CLEAR,NIGHT_CLEAR,NIGHT_MOSTLY_CLOUDY,NIGHT_CLOUDY,NIGHT_CLEAR","Onshore,Cross-shore,Onshore,Cross-shore,Cross-shore,Onshore,Cross-shore",7
5842041f4e65fad6a77088b0,2024_02_27,32.97527261243354,-117.2721061331305,Del Mar Rivermouth,2.4285714285714284,0.42,0.7242857142857143,15,15,"CLEAR,OVERCAST,MOSTLY_CLOUDY,NIGHT_CLEAR,NIGHT_MOSTLY_CLOUDY,NIGHT_MOSTLY_CLOUDY,NIGHT_MOSTLY_CLOUDY","Onshore,Cross-shore,Onshore,Cross-shore,Cross-shore,Onshore,Offshore",7
5842041f4e65fad6a77088b1,2024_02_27,33.01352178146273,-117.28219,Cardiff Reef,3,0.5272,0.9434333333333333,15,15,"OVERCAST,OVERCAST,MOSTLY_CLOUDY,NIGHT_CLEAR,NIGHT_MOSTLY_CLOUDY,NIGHT_MOSTLY_CLOUDY,NIGHT_MOSTLY_CLOUDY","Cross-shore,Cross-shore,Cross-shore,Offshore,Offshore,Onshore,Onshore",7
5842041f4e65fad6a77088b3,2024_02_27,33.00211185876003,-117.2811,Seaside Reef,3,0.5536285714285715,0.9683142857142857,15,15,"OVERCAST,OVERCAST,MOSTLY_CLOUDY,NIGHT_CLEAR,NIGHT_MOSTLY_CLOUDY,NIGHT_MOSTLY_CLOUDY,NIGHT_MOSTLY_CLOUDY","Cross-shore,Cross-shore,Offshore,Offshore,Offshore,Cross-shore,Cross-shore",7
5842041f4e65fad6a77088b4,2024_02_27,33.0341859796287,-117.29552,Swami's,3,0.7905619047619047,1.0969,15,15,"OVERCAST,OVERCAST,MOSTLY_CLOUDY,NIGHT_CLEAR,NIGHT_MOSTLY_CLOUDY,NIGHT_MOSTLY_CLOUDY,NIGHT_MOSTLY_CLOUDY","Onshore,Onshore,Onshore,Onshore,Onshore,Cross-shore,Cross-shore",7
5842041f4e65fad6a77088b7,2024_02_27,33.04569760260221,-117.2994,D Street,3,0.3942857142857143,0.7,15,15,"OVERCAST,OVERCAST,CLEAR,NIGHT_CLEAR,NIGHT_MOSTLY_CLOUDY,NIGHT_CLEAR,NIGHT_CLEAR","Onshore,Onshore,Onshore,Onshore,Onshore,Cross-shore,Cross-shore",7
5842041f4e65fad6a77088b8,2024_02_27,33.02090944350196,-117.28535,San Elijo State Beach,3,0.4986285714285714,0.9179571428571429,15,15,"OVERCAST,OVERCAST,MOSTLY_CLOUDY,NIGHT_CLEAR,NIGHT_MOSTLY_CLOUDY,NIGHT_MOSTLY_CLOUDY,NIGHT_MOSTLY_CLOUDY","Cross-shore,Cross-shore,Cross-shore,Offshore,Offshore,Onshore,Onshore",7
5842041f4e65fad6a77088c2,2024_02_27,32.80662846492798,-117.2688764333725,PB Point,2.5714285714285716,0.44,0.7457142857142857,15,15,"OVERCAST,MOSTLY_CLOUDY,MOSTLY_CLOUDY,NIGHT_MOSTLY_CLEAR,NIGHT_MOSTLY_CLOUDY,NIGHT_OVERCAST,NIGHT_MOSTLY_CLOUDY","Cross-shore,Offshore,Offshore,Cross-shore,Offshore,Cross-shore,Onshore",7
5842041f4e65fad6a77088c4,2024_02_27,32.8060476681448,-117.26479,Old Man's at Tourmaline,2.7142857142857144,0.38,0.6842857142857143,15,15,"OVERCAST,MOSTLY_CLOUDY,MOSTLY_CLOUDY,NIGHT_MOSTLY_CLEAR,NIGHT_MOSTLY_CLOUDY,NIGHT_OVERCAST,NIGHT_MOSTLY_CLOUDY","Cross-shore,Cross-shore,Offshore,Offshore,Offshore,Offshore,Cross-shore",7
5842041f4e65fad6a77088cb,2024_02_27,32.557056711256,-117.1327445020322,Tijuana Slough,2,0.3157142857142857,0.6228571428571429,16,16,"CLEAR,MOSTLY_CLOUDY,MOSTLY_CLOUDY,NIGHT_MOSTLY_CLEAR,NIGHT_MOSTLY_CLOUDY,NIGHT_CLEAR,NIGHT_CLEAR","Cross-shore,Offshore,Offshore,Offshore,Offshore,Onshore,Onshore",7
5842041f4e65fad6a77088cc,2024_02_27,32.863,-117.257,La Jolla Shores,2,0.33714285714285713,0.6428571428571429,15,15,"OVERCAST,MOSTLY_CLOUDY,MOSTLY_CLOUDY,NIGHT_CLEAR,NIGHT_MOSTLY_CLOUDY,NIGHT_CLEAR,NIGHT_CLEAR","Onshore,Onshore,Offshore,Offshore,Offshore,Onshore,Cross-shore",7
5842041f4e65fad6a77088ce,2024_02_27,32.67443657790586,-117.17421316238693,Coronado Beach,2.7142857142857144,0.35714285714285715,0.6628571428571429,15,15,"LIGHT_RAIN,OVERCAST,MOSTLY_CLOUDY,NIGHT_MOSTLY_CLEAR,NIGHT_OVERCAST,NIGHT_CLEAR,NIGHT_CLEAR","Offshore,Offshore,Cross-shore,Cross-shore,Cross-shore,Cross-shore,Onshore",7
5842041f4e65fad6a77088cf,2024_02_27,33.40484417640326,-117.60749,San Clemente State Beach,2,0.24285714285714285,0.5471428571428572,15,15,"OVERCAST,MOSTLY_CLOUDY,CLEAR,NIGHT_MOSTLY_CLOUDY,NIGHT_MOSTLY_CLOUDY,NIGHT_MOSTLY_CLEAR,NIGHT_MOSTLY_CLOUDY","Offshore,Offshore,Onshore,Onshore,Onshore,Offshore,Offshore",7
5842041f4e65fad6a77088d5,2024_02_27,33.4663042002114,-117.7168352817103,Strands,3,0.5011619047619048,0.9088190476190475,14,14,"DRIZZLE,MOSTLY_CLOUDY,CLEAR,NIGHT_CLEAR,NIGHT_MOSTLY_CLOUDY,NIGHT_CLEAR,NIGHT_MOSTLY_CLOUDY","Offshore,Offshore,Cross-shore,Onshore,Onshore,Offshore,Offshore",7
5842041f4e65fad6a77088d7,2024_02_27,33.4609858001748,-117.68535,Doheny State Beach,2,0.015238095238095236,0.3227238095238095,14,14,"OVERCAST,MOSTLY_CLOUDY,CLEAR,NIGHT_CLEAR,NIGHT_MOSTLY_CLOUDY,NIGHT_MOSTLY_CLEAR,NIGHT_MOSTLY_CLOUDY","Onshore,Cross-shore,Offshore,Cross-shore,Offshore,Offshore,Onshore",7
5842041f4e65fad6a77088dc,2024_02_27,33.50894790083017,-117.75243,Aliso Creek,2,0.2857142857142857,0.5885714285714285,15,15,"DRIZZLE,MOSTLY_CLOUDY,CLEAR,NIGHT_CLEAR,NIGHT_CLEAR,NIGHT_CLEAR,NIGHT_CLEAR","Offshore,Offshore,Cross-shore,Onshore,Onshore,Offshore,Offshore",7
5842041f4e65fad6a77088dd,2024_02_27,33.5326591767067,-117.77764,Brooks Street,2,0.1514285714285714,0.45571428571428574,15,15,"OVERCAST,MOSTLY_CLOUDY,CLEAR,NIGHT_CLEAR,NIGHT_MOSTLY_CLEAR,NIGHT_CLEAR,NIGHT_MOSTLY_CLOUDY","Offshore,Offshore,Cross-shore,Onshore,Onshore,Offshore,Offshore",7
5842041f4e65fad6a77088de,2024_02_27,33.53561225884637,-117.7799,Thalia Street,2,0.17857142857142858,0.48428571428571426,15,15,"OVERCAST,MOSTLY_CLOUDY,CLEAR,NIGHT_CLEAR,NIGHT_MOSTLY_CLEAR,NIGHT_CLEAR,NIGHT_MOSTLY_CLOUDY","Offshore,Offshore,Onshore,Onshore,Onshore,Offshore,Offshore",7
5842041f4e65fad6a77088e3,2024_02_27,33.54268310353641,-117.7916,Rockpile,2.5714285714285716,0.30428571428571427,0.6085714285714285,15,15,"OVERCAST,MOSTLY_CLOUDY,CLEAR,NIGHT_CLEAR,NIGHT_MOSTLY_CLEAR,NIGHT_CLEAR,NIGHT_MOSTLY_CLOUDY","Offshore,Offshore,Onshore,Onshore,Onshore,Offshore,Offshore",7
5842041f4e65fad6a77088e4,2024_02_27,33.7368459504689,-118.10342,"Seal Beach Pier, Southside",1,0,0.25285714285714284,15,15,"OVERCAST,CLEAR,CLEAR,NIGHT_MOSTLY_CLOUDY,NIGHT_MOSTLY_CLOUDY,NIGHT_CLEAR,NIGHT_MOSTLY_CLOUDY","Onshore,Onshore,Cross-shore,Cross-shore,Cross-shore,Offshore,Offshore",7
5842041f4e65fad6a77088e5,2024_02_27,33.73933701820233,-118.117,Ray Bay,1,0,0.2742857142857143,15,15,"OVERCAST,CLEAR,CLEAR,NIGHT_MOSTLY_CLOUDY,NIGHT_MOSTLY_CLOUDY,NIGHT_CLEAR,NIGHT_MIST","Onshore,Onshore,Onshore,Onshore,Cross-shore,Offshore,Cross-shore",7
5842041f4e65fad6a77088e7,2024_02_27,33.728733,-118.08982,Surfside,1.5714285714285714,0.024285714285714285,0.33142857142857146,15,15,"OVERCAST,MOSTLY_CLOUDY,CLEAR,NIGHT_MOSTLY_CLOUDY,NIGHT_MOSTLY_CLOUDY,NIGHT_MOSTLY_CLEAR,NIGHT_MOSTLY_CLOUDY","Onshore,Onshore,Cross-shore,Cross-shore,Cross-shore,Offshore,Offshore",7
5842041f4e65fad6a77088e8,2024_02_27,33.68760321488161,-118.04236,Bolsa Chica State Beach,2.2857142857142856,0.4630666666666667,0.7719809523809523,14,14,"OVERCAST,MOSTLY_CLOUDY,CLEAR,NIGHT_MOSTLY_CLOUDY,NIGHT_MOSTLY_CLEAR,NIGHT_MOSTLY_CLEAR,NIGHT_MOSTLY_CLOUDY","Cross-shore,Cross-shore,Onshore,Onshore,Onshore,Onshore,Onshore",7
5842041f4e65fad6a77088ea,2024_02_27,33.66704400178788,-118.0192,North HB Streets,2.5957142857142856,0.4873523809523809,0.8910809523809523,14,14,"OVERCAST,CLEAR,MOSTLY_CLEAR,NIGHT_MOSTLY_CLOUDY,NIGHT_CLEAR,NIGHT_MOSTLY_CLEAR,NIGHT_MOSTLY_CLOUDY","Offshore,Cross-shore,Onshore,Onshore,Onshore,Onshore,Cross-shore",7
5842041f4e65fad6a77088ed,2024_02_27,33.65475101379567,-118.00291,Huntington Beach Pier Southside,2.357142857142857,0.49401904761904764,0.9002476190476191,14,14,"OVERCAST,CLEAR,MOSTLY_CLEAR,NIGHT_MOSTLY_CLOUDY,NIGHT_MOSTLY_CLEAR,NIGHT_MOSTLY_CLEAR,NIGHT_MOSTLY_CLOUDY","Onshore,Onshore,Onshore,Onshore,Onshore,Onshore,Cross-shore",7
5842041f4e65fad6a77088ee,2024_02_27,33.62778647706099,-117.95939,River Jetties,2.5,0.5068761904761905,0.9121523809523809,15,15,"OVERCAST,CLEAR,CLEAR,NIGHT_MOSTLY_CLOUDY,NIGHT_MOSTLY_CLEAR,NIGHT_CLEAR,NIGHT_MOSTLY_CLOUDY","Onshore,Onshore,Onshore,Cross-shore,Onshore,Offshore,Onshore",7
5842041f4e65fad6a77088f2,2024_02_27,33.605165797643664,-117.92500376701355,Newport Point,2.142857142857143,0.2842857142857143,0.5885714285714285,15,15,"CLOUDY,MOSTLY_CLOUDY,CLEAR,NIGHT_MOSTLY_CLOUDY,NIGHT_MOSTLY_CLEAR,NIGHT_MOSTLY_CLEAR,NIGHT_MOSTLY_CLOUDY","Offshore,Cross-shore,Onshore,Onshore,Onshore,Offshore,Cross-shore",7
5842041f4e65fad6a77088f3,2024_02_27,33.58982984726977,-117.87713,Corona del Mar,1.1428571428571428,0.1893357142857143,0.2958357142857143,15,15,"OVERCAST,CLEAR,CLEAR,NIGHT_CLEAR,NIGHT_CLEAR,NIGHT_CLEAR,NIGHT_MOSTLY_CLOUDY","Onshore,Cross-shore,Cross-shore,Offshore,Offshore,Cross-shore,Offshore",7
5842041f4e65fad6a77088f7,2024_02_27,34.00750300824362,-118.4971783496269,Santa Monica Pier,2,0.2642857142857143,0.5714285714285714,15,15,"OVERCAST,MOSTLY_CLOUDY,MOSTLY_CLOUDY,NIGHT_DRIZZLE,NIGHT_MIST,NIGHT_MOSTLY_CLOUDY,NIGHT_MOSTLY_CLOUDY","Onshore,Onshore,Onshore,Onshore,Onshore,Onshore,Onshore",7
5842041f4e65fad6a77088ff,2024_02_27,33.94070283102945,-118.44321,Dockweiler Beach,2.4057142857142857,0.6367770238095238,0.892684880952381,14,14,"BRIEF_SHOWERS,MIST,MIST,NIGHT_DRIZZLE,NIGHT_MIST,NIGHT_MOSTLY_CLOUDY,NIGHT_MOSTLY_CLOUDY","Onshore,Onshore,Onshore,Onshore,Onshore,Onshore,Onshore",7
5842041f4e65fad6a7708900,2024_02_27,33.9231846937237,-118.4341465777908,Shitpipe,2.4057142857142857,0.44774285714285716,0.7518523809523809,14,14,"BRIEF_SHOWERS,CLEAR,MOSTLY_CLOUDY,NIGHT_LIGHT_RAIN,NIGHT_BRIEF_SHOWERS,NIGHT_MOSTLY_CLOUDY,NIGHT_MOSTLY_CLOUDY","Onshore,Onshore,Onshore,Onshore,Onshore,Onshore,Onshore",7
5842041f4e65fad6a7708902,2024_02_27,33.9108528052242,-118.4279133138721,Hammerland,2.4057142857142857,0.4697666666666667,0.7753047619047618,14,14,"BRIEF_SHOWERS,CLEAR,MOSTLY_CLOUDY,NIGHT_LIGHT_RAIN,NIGHT_BRIEF_SHOWERS,NIGHT_MOSTLY_CLOUDY,NIGHT_MOSTLY_CLOUDY","Onshore,Onshore,Onshore,Onshore,Onshore,Onshore,Onshore",7
5842041f4e65fad6a7708904,2024_02_27,33.87201368173932,-118.4075151286262,Hermosa Beach,1.5485714285714285,0.2601809523809524,0.5672666666666667,14,14,"CLOUDY,CLEAR,MOSTLY_CLOUDY,NIGHT_MIST,NIGHT_BRIEF_SHOWERS,NIGHT_MOSTLY_CLEAR,NIGHT_MOSTLY_CLEAR","Cross-shore,Onshore,Onshore,Onshore,Onshore,Onshore,Onshore",7
5842041f4e65fad6a7708906,2024_02_27,33.90129336911256,-118.42184,El Porto,2.5485714285714285,0.49095714285714287,0.7922095238095239,14,14,"MIST,CLEAR,MOSTLY_CLOUDY,NIGHT_MIST,NIGHT_MIST,NIGHT_CLEAR,NIGHT_MOSTLY_CLOUDY","Cross-shore,Onshore,Onshore,Onshore,Onshore,Onshore,Onshore",7
5842041f4e65fad6a7708907,2024_02_27,33.87963506431794,-118.41102,Manhattan Beach Pier,2.5485714285714285,0.4673857142857143,0.7686380952380952,14,14,"MIST,CLEAR,MOSTLY_CLOUDY,NIGHT_MIST,NIGHT_MIST,NIGHT_CLEAR,NIGHT_MOSTLY_CLOUDY","Cross-shore,Onshore,Onshore,Onshore,Onshore,Onshore,Onshore",7
5842041f4e65fad6a7708914,2024_02_27,34.038053387863464,-118.5532,Sunset Point,2,0.14285714285714288,0.44571428571428573,15,15,"MOSTLY_CLOUDY,CLEAR,MIST,NIGHT_MIST,NIGHT_MIST,NIGHT_CLOUDY,NIGHT_MOSTLY_CLOUDY","Onshore,Cross-shore,Onshore,Offshore,Offshore,Cross-shore,Offshore",7
5842041f4e65fad6a7708920,2024_02_27,33.80930828074364,-118.3933198342649,Haggerty's,1,0.03514285714285714,0.21942857142857142,15,15,"CLEAR,CLEAR,CLEAR,NIGHT_CLOUDY,NIGHT_MIST,NIGHT_MOSTLY_CLEAR,NIGHT_MOSTLY_CLEAR","Offshore,Offshore,Cross-shore,Cross-shore,Cross-shore,Onshore,Onshore",7
5842041f4e65fad6a7708921,2024_02_27,33.85044519861206,-118.40048,Redondo Breakwater,2,0.28,0.5857142857142856,15,15,"CLOUDY,CLEAR,MOSTLY_CLOUDY,NIGHT_MIST,NIGHT_BRIEF_SHOWERS,NIGHT_MOSTLY_CLEAR,NIGHT_MOSTLY_CLEAR","Cross-shore,Onshore,Onshore,Onshore,Onshore,Onshore,Onshore",7
5842041f4e65fad6a7708927,2024_02_27,33.70877301002487,-118.2840112858389,Cabrillo Beach,1,0,0.23857142857142857,15,15,"CLEAR,MOSTLY_CLEAR,MOSTLY_CLOUDY,NIGHT_MOSTLY_CLOUDY,NIGHT_OVERCAST,NIGHT_MOSTLY_CLEAR,NIGHT_MIST","Onshore,Onshore,Onshore,Onshore,Onshore,Offshore,Offshore",7
5842041f4e65fad6a770892c,2024_02_27,33.77209986806257,-118.4268428476672,Lunada Bay,1,0.2857142857142857,0.59,15,15,"MIST,CLEAR,MIST,NIGHT_MIST,NIGHT_MIST,NIGHT_MOSTLY_CLEAR,NIGHT_MOSTLY_CLEAR","Offshore,Onshore,Onshore,Onshore,Onshore,Cross-shore,Cross-shore",7
5842041f4e65fad6a770892d,2024_02_27,33.79294656286144,-118.4070316699825,PV Cove,2,0.44854285714285713,0.69921,15,15,"CLEAR,CLEAR,CLEAR,NIGHT_CLOUDY,NIGHT_MIST,NIGHT_MOSTLY_CLEAR,NIGHT_MOSTLY_CLEAR","Offshore,Offshore,Cross-shore,Cross-shore,Cross-shore,Onshore,Onshore",7
5842041f4e65fad6a7708930,2024_02_27,34.03944902292561,-118.57539,Chart House,1.7142857142857142,0.07571428571428572,0.38,15,15,"MIST,MIST,BRIEF_SHOWERS,NIGHT_MIST,NIGHT_BRIEF_SHOWERS,NIGHT_OVERCAST,NIGHT_MOSTLY_CLOUDY","Onshore,Cross-shore,Cross-shore,Offshore,Offshore,Offshore,Offshore",7
5842041f4e65fad6a7708936,2024_02_27,34.0016731994772,-118.80456,Point Dume,2,0.22613333333333333,0.534647619047619,15,15,"CLEAR,MOSTLY_CLOUDY,MIST,NIGHT_MIST,NIGHT_BRIEF_SHOWERS,NIGHT_FOG,NIGHT_FOG","Onshore,Onshore,Onshore,Onshore,Onshore,Onshore,Onshore",7
5842041f4e65fad6a7708937,2024_02_27,34.02587527588963,-118.7554939066114,Latigo Point,2,0.20714285714285716,0.5128571428571429,15,15,"MIST,MOSTLY_CLOUDY,MIST,NIGHT_MIST,NIGHT_BRIEF_SHOWERS,NIGHT_FOG,NIGHT_FOG","Onshore,Onshore,Onshore,Onshore,Onshore,Onshore,Onshore",7
5842041f4e65fad6a770893f,2024_02_27,34.043762,-118.93294,Leo Carrillo,1.7142857142857142,0.31351428571428575,0.6206,15,15,"MOSTLY_CLOUDY,MIST,MIST,NIGHT_MIST,NIGHT_BRIEF_SHOWERS,NIGHT_MIST,NIGHT_MIST","Onshore,Cross-shore,Offshore,Cross-shore,Onshore,Offshore,Offshore",7
5842041f4e65fad6a7708941,2024_02_27,36.69388179265737,-121.81289,Marina State Beach,2.857142857142857,1.1428571428571428,1.3942857142857144,13,13,"MOSTLY_CLOUDY,BRIEF_SHOWERS,BRIEF_SHOWERS,NIGHT_MIST,NIGHT_FOG,NIGHT_MIST,NIGHT_MIST","Onshore,Onshore,Onshore,Onshore,Onshore,Onshore,Onshore",7
5842041f4e65fad6a7708944,2024_02_27,34.34145077331085,-119.416999352654,Stanley's,2,0.04428571428571429,0.35,15,15,"CLEAR,MOSTLY_CLOUDY,MIST,NIGHT_MIST,NIGHT_MOSTLY_CLOUDY,NIGHT_MIST,NIGHT_FOG","Onshore,Onshore,Onshore,Onshore,Cross-shore,Onshore,Onshore",7
5842041f4e65fad6a7708945,2024_02_27,34.35113017313915,-119.426921498899,Oil Piers,2,0.08285714285714285,0.38857142857142857,15,15,"CLEAR,MOSTLY_CLOUDY,MIST,NIGHT_MIST,NIGHT_MOSTLY_CLOUDY,NIGHT_MIST,NIGHT_FOG","Onshore,Onshore,Cross-shore,Cross-shore,Cross-shore,Onshore,Onshore",7
5842041f4e65fad6a770894c,2024_02_27,34.17876333306018,-119.2399483564372,Oxnard,2,0.3657142857142857,0.67,15,15,"MOSTLY_CLOUDY,OVERCAST,MIST,NIGHT_MIST,NIGHT_OVERCAST,NIGHT_FOG,NIGHT_FOG","Onshore,Onshore,Onshore,Onshore,Onshore,Onshore,Onshore",7
5842041f4e65fad6a7708957,2024_02_27,34.31720331100517,-119.3882324751725,Pitas Point,2,0.07285714285714286,0.38,15,15,"BRIEF_SHOWERS,MIST,MIST,NIGHT_BRIEF_SHOWERS,NIGHT_MOSTLY_CLOUDY,NIGHT_MOSTLY_CLEAR,NIGHT_FOG","Onshore,Cross-shore,Onshore,Offshore,Offshore,Offshore,Offshore",7
5842041f4e65fad6a7708959,2024_02_27,34.27851754384724,-119.316202617226,Emma Wood,2,0.06,0.36428571428571427,15,15,"MIST,MIST,MIST,NIGHT_MIST,NIGHT_BRIEF_SHOWERS,NIGHT_CLEAR,NIGHT_FOG","Onshore,Cross-shore,Offshore,Cross-shore,Offshore,Offshore,Offshore",7
5842041f4e65fad6a770895a,2024_02_27,34.35513640390276,-119.4400589884255,Mussel Shoals (aka Little Rincon),2,0.037142857142857144,0.34285714285714286,15,15,"MIST,MIST,MIST,NIGHT_MIST,NIGHT_MOSTLY_CLOUDY,NIGHT_MOSTLY_CLEAR,NIGHT_MIST","Onshore,Cross-shore,Cross-shore,Cross-shore,Onshore,Cross-shore,Onshore",7
5842041f4e65fad6a770895e,2024_02_27,34.28991757054902,-119.3366646794652,Summer Beach,2,0.07142857142857144,0.3757142857142857,15,15,"MIST,MIST,MIST,NIGHT_MIST,NIGHT_BRIEF_SHOWERS,NIGHT_CLEAR,NIGHT_FOG","Onshore,Onshore,Offshore,Cross-shore,Cross-shore,Offshore,Offshore",7
5842041f4e65fad6a770895f,2024_02_27,34.30897456105926,-119.3582501170116,Solimar,2,0.05285714285714286,0.35714285714285715,15,15,"BRIEF_SHOWERS,MIST,MIST,NIGHT_BRIEF_SHOWERS,NIGHT_MOSTLY_CLOUDY,NIGHT_MOSTLY_CLEAR,NIGHT_FOG","Onshore,Cross-shore,Cross-shore,Offshore,Offshore,Offshore,Offshore",7
5842041f4e65fad6a7708960,2024_02_27,34.39836265281686,-119.70213,Leadbetter Point,1,0,0.21571428571428572,15,15,"CLEAR,MOSTLY_CLOUDY,MOSTLY_CLOUDY,NIGHT_MOSTLY_CLOUDY,NIGHT_MOSTLY_CLOUDY,NIGHT_MIST,NIGHT_FOG","Cross-shore,Onshore,Cross-shore,Offshore,Cross-shore,Offshore,Offshore",7
5842041f4e65fad6a7708961,2024_02_27,34.46052293893899,-120.07328,Refugio,2,0.04428571428571429,0.3457142857142857,15,15,"MOSTLY_CLEAR,MOSTLY_CLOUDY,MOSTLY_CLOUDY,NIGHT_MOSTLY_CLOUDY,NIGHT_MOSTLY_CLOUDY,NIGHT_MIST,NIGHT_MOSTLY_CLOUDY","Onshore,Cross-shore,Offshore,Offshore,Offshore,Offshore,Offshore",7
5842041f4e65fad6a7708962,2024_02_27,34.40754276777778,-119.87639,Devereux,2,0.2,0.5071428571428571,15,15,"MIST,MIST,MIST,NIGHT_MOSTLY_CLOUDY,NIGHT_MOSTLY_CLOUDY,NIGHT_MOSTLY_CLOUDY,NIGHT_FOG","Onshore,Cross-shore,Offshore,Offshore,Cross-shore,Cross-shore,Cross-shore",7
5842041f4e65fad6a7708963,2024_02_27,34.27479983305182,-119.3133222656776,Ventura Overhead,2,0.07428571428571429,0.38,15,15,"BRIEF_SHOWERS,MIST,MIST,NIGHT_MIST,NIGHT_MOSTLY_CLOUDY,NIGHT_MOSTLY_CLEAR,NIGHT_FOG","Onshore,Cross-shore,Offshore,Cross-shore,Cross-shore,Offshore,Offshore",7
5842041f4e65fad6a7708964,2024_02_27,34.41023236011655,-119.88261,Sands,2,0.21,0.5185714285714286,15,15,"MIST,MIST,MIST,NIGHT_MOSTLY_CLOUDY,NIGHT_MOSTLY_CLOUDY,NIGHT_MOSTLY_CLOUDY,NIGHT_FOG","Onshore,Onshore,Onshore,Cross-shore,Offshore,Onshore,Onshore",7
5842041f4e65fad6a7708966,2024_02_27,34.40450193869233,-119.68752,Sandspit,1,0,0.16857142857142857,15,15,"MOSTLY_CLOUDY,MOSTLY_CLOUDY,MOSTLY_CLOUDY,NIGHT_MOSTLY_CLOUDY,NIGHT_MOSTLY_CLOUDY,NIGHT_FOG,NIGHT_FOG","Cross-shore,Onshore,Cross-shore,Offshore,Cross-shore,Offshore,Offshore",7
5842041f4e65fad6a7708967,2024_02_27,34.41549098334453,-119.6375149840203,Hammond's,1,0,0.16285714285714287,15,15,"MOSTLY_CLEAR,CLEAR,CLEAR,NIGHT_MOSTLY_CLOUDY,NIGHT_MOSTLY_CLOUDY,NIGHT_CLEAR,NIGHT_FOG","Onshore,Cross-shore,Onshore,Onshore,Onshore,Onshore,Cross-shore",7
5842041f4e65fad6a7708968,2024_02_27,34.45759322742309,-120.0220251867315,El Capitan,2,0.08714285714285715,0.3942857142857143,15,15,"MOSTLY_CLEAR,MOSTLY_CLOUDY,MOSTLY_CLOUDY,NIGHT_MOSTLY_CLOUDY,NIGHT_CLEAR,NIGHT_FOG,NIGHT_MIST","Onshore,Offshore,Offshore,Offshore,Offshore,Offshore,Offshore",7
5842041f4e65fad6a770896c,2024_02_27,34.405117655616,-119.84317,Campus Point,1,0,0.2785714285714286,15,15,"CLEAR,MOSTLY_CLOUDY,MOSTLY_CLOUDY,NIGHT_MOSTLY_CLOUDY,NIGHT_MOSTLY_CLOUDY,NIGHT_MIST,NIGHT_FOG","Onshore,Cross-shore,Offshore,Offshore,Onshore,Cross-shore,Cross-shore",7
5842041f4e65fad6a770896e,2024_02_27,34.38935162233354,-119.51955,Carpinteria State Beach,1.5714285714285714,0.002857142857142857,0.30714285714285716,15,15,"MIST,MIST,MIST,NIGHT_MOSTLY_CLOUDY,NIGHT_MOSTLY_CLOUDY,NIGHT_MOSTLY_CLEAR,NIGHT_FOG","Onshore,Onshore,Onshore,Onshore,Onshore,Onshore,Offshore",7
5842041f4e65fad6a770896f,2024_02_27,37.48296565175612,-122.4549300127824,Half Moon Bay,2,0.8242857142857143,1.0985714285714285,14,14,"MIST,CLEAR,MOSTLY_CLOUDY,NIGHT_MOSTLY_CLOUDY,NIGHT_MOSTLY_CLOUDY,NIGHT_MOSTLY_CLEAR,NIGHT_MOSTLY_CLEAR","Onshore,Onshore,Cross-shore,Cross-shore,Cross-shore,Cross-shore,Cross-shore",7
5842041f4e65fad6a7708970,2024_02_27,37.499,-122.471,Princeton Jetty,3,0.9471428571428572,1.1357142857142857,14,14,"MIST,MOSTLY_CLEAR,BRIEF_SHOWERS,NIGHT_BRIEF_SHOWERS,NIGHT_MIST,NIGHT_CLEAR,NIGHT_MOSTLY_CLEAR","Cross-shore,Cross-shore,Cross-shore,Cross-shore,Cross-shore,Cross-shore,Cross-shore",7
5842041f4e65fad6a7708972,2024_02_27,37.35699547365155,-122.4069534707252,Tunitas Creek,3,1.887142857142857,2.257142857142857,14,14,"BRIEF_SHOWERS,MIST,MOSTLY_CLEAR,NIGHT_MOSTLY_CLOUDY,NIGHT_MOSTLY_CLOUDY,NIGHT_CLEAR,NIGHT_MOSTLY_CLOUDY","Cross-shore,Cross-shore,Cross-shore,Cross-shore,Cross-shore,Cross-shore,Cross-shore",7
5842041f4e65fad6a7708974,2024_02_27,37.54735589428842,-122.5161090212687,Montara,2,1.197142857142857,1.4642857142857142,14,14,"MOSTLY_CLEAR,MOSTLY_CLOUDY,MIST,NIGHT_MOSTLY_CLOUDY,NIGHT_MIST,NIGHT_MOSTLY_CLEAR,NIGHT_CLEAR","Onshore,Onshore,Onshore,Onshore,Onshore,Onshore,Onshore",7
5842041f4e65fad6a7708975,2024_02_27,34.3869373724559,-119.5142334209018,Tarpits,1,0,0.2928571428571428,15,15,"MOSTLY_CLEAR,MOSTLY_CLOUDY,MOSTLY_CLOUDY,NIGHT_MIST,NIGHT_MOSTLY_CLOUDY,NIGHT_MOSTLY_CLEAR,NIGHT_FOG","Onshore,Onshore,Cross-shore,Cross-shore,Onshore,Onshore,Cross-shore",7
5842041f4e65fad6a7708976,2024_02_27,37.59881852720143,-122.50463,Pacifica / Linda Mar,1.5957142857142856,0.5630666666666667,0.9735809523809524,14,14,"MOSTLY_CLEAR,MIST,MOSTLY_CLOUDY,NIGHT_BRIEF_SHOWERS,NIGHT_MIST,NIGHT_MOSTLY_CLEAR,NIGHT_MOSTLY_CLEAR","Onshore,Onshore,Onshore,Onshore,Onshore,Onshore,Onshore",7
5842041f4e65fad6a7708978,2024_02_27,37.59883098461164,-122.5143843582282,Pedro Point,2.142857142857143,1.2042857142857142,1.4585714285714286,14,14,"MOSTLY_CLEAR,MOSTLY_CLOUDY,MOSTLY_CLOUDY,NIGHT_MOSTLY_CLOUDY,NIGHT_MOSTLY_CLOUDY,NIGHT_CLEAR,NIGHT_CLEAR","Onshore,Onshore,Onshore,Onshore,Onshore,Onshore,Onshore",7
5842041f4e65fad6a7708979,2024_02_27,37.61081996647663,-122.4973287570634,Rockaway,1.8571428571428572,1.2428571428571429,1.4942857142857142,14,14,"MOSTLY_CLEAR,MIST,MOSTLY_CLOUDY,NIGHT_BRIEF_SHOWERS,NIGHT_MIST,NIGHT_MOSTLY_CLEAR,NIGHT_MOSTLY_CLEAR","Onshore,Onshore,Onshore,Onshore,Onshore,Onshore,Onshore",7
5842041f4e65fad6a770897a,2024_02_27,37.809987384424446,-122.4751353263855,Fort Point,1.8571428571428572,0.6,0.9057142857142857,13,13,"CLEAR,CLEAR,CLEAR,NIGHT_CLEAR,NIGHT_CLEAR,NIGHT_CLEAR,NIGHT_CLEAR","Cross-shore,Cross-shore,Cross-shore,Cross-shore,Cross-shore,Offshore,Offshore",7
5842041f4e65fad6a770897c,2024_02_27,37.63422542967464,-122.4951,Sharp Park,1.8571428571428572,1.2742857142857142,1.522857142857143,14,14,"MOSTLY_CLEAR,MOSTLY_CLEAR,MOSTLY_CLEAR,NIGHT_MOSTLY_CLOUDY,NIGHT_MOSTLY_CLOUDY,NIGHT_CLEAR,NIGHT_MOSTLY_CLEAR","Onshore,Onshore,Onshore,Onshore,Onshore,Onshore,Onshore",7
5842041f4e65fad6a770897d,2024_02_27,37.27313605072472,-122.4127387912554,Pescadero,2.5714285714285716,1.8628571428571428,2.2285714285714286,14,14,"SHOWERS,BRIEF_SHOWERS,CLEAR,NIGHT_MOSTLY_CLOUDY,NIGHT_MOSTLY_CLOUDY,NIGHT_MOSTLY_CLOUDY,NIGHT_MOSTLY_CLOUDY","Cross-shore,Cross-shore,Cross-shore,Cross-shore,Cross-shore,Onshore,Onshore",7
5842041f4e65fad6a770897e,2024_02_27,37.18140279972666,-122.3926685899327,Pigeon Point,4,1.7757142857142858,2.1214285714285714,14,14,"LIGHT_RAIN,BRIEF_SHOWERS,MOSTLY_CLOUDY,NIGHT_MOSTLY_CLOUDY,NIGHT_MOSTLY_CLOUDY,NIGHT_BRIEF_SHOWERS,NIGHT_MOSTLY_CLOUDY","Offshore,Offshore,Offshore,Offshore,Offshore,Offshore,Offshore",7
5842041f4e65fad6a770897f,2024_02_27,37.11578956919415,-122.314699271291,Ano Nuevo,4,1.2428571428571429,1.487142857142857,14,14,"BRIEF_SHOWERS,BRIEF_SHOWERS,MOSTLY_CLOUDY,NIGHT_MOSTLY_CLOUDY,NIGHT_MOSTLY_CLOUDY,NIGHT_CLEAR,NIGHT_MOSTLY_CLOUDY","Offshore,Offshore,Offshore,Offshore,Offshore,Offshore,Offshore",7
5842041f4e65fad6a7708980,2024_02_27,37.09520872681598,-122.2805474707768,Waddell Creek,3,1.4157142857142857,1.7014285714285713,14,14,"MOSTLY_CLOUDY,BRIEF_SHOWERS,MOSTLY_CLOUDY,NIGHT_MOSTLY_CLOUDY,NIGHT_MOSTLY_CLOUDY,NIGHT_CLEAR,NIGHT_CLEAR","Cross-shore,Offshore,Offshore,Offshore,Offshore,Offshore,Offshore",7
5842041f4e65fad6a7708981,2024_02_27,36.96512852130351,-122.1252825495626,Four Mile,4,1.437142857142857,1.7228571428571429,14,14,"MOSTLY_CLEAR,MOSTLY_CLOUDY,MOSTLY_CLEAR,NIGHT_MOSTLY_CLOUDY,NIGHT_MOSTLY_CLOUDY,NIGHT_CLEAR,NIGHT_CLEAR","Offshore,Offshore,Offshore,Offshore,Offshore,Offshore,Offshore",7
5842041f4e65fad6a7708982,2024_02_27,37.04122807048655,-122.2333684729756,Scott Creek,3,1.29,1.5414285714285714,14,14,"MIST,MOSTLY_CLOUDY,MOSTLY_CLOUDY,NIGHT_MOSTLY_CLOUDY,NIGHT_MOSTLY_CLOUDY,NIGHT_CLEAR,NIGHT_CLEAR","Cross-shore,Cross-shore,Offshore,Cross-shore,Offshore,Offshore,Offshore",7
5842041f4e65fad6a7708983,2024_02_27,37.02350229387179,-122.21908,Davenport,3,1.5757142857142858,1.8842857142857143,14,14,"MOSTLY_CLEAR,MOSTLY_CLOUDY,MOSTLY_CLOUDY,NIGHT_MOSTLY_CLOUDY,NIGHT_MOSTLY_CLOUDY,NIGHT_CLEAR,NIGHT_CLEAR","Cross-shore,Cross-shore,Offshore,Cross-shore,Cross-shore,Offshore,Offshore",7
5842041f4e65fad6a7708986,2024_02_27,36.94905295955728,-122.0611823912244,Natural Bridges,3,1.1585714285714286,1.4128571428571428,14,14,"CLEAR,CLEAR,MOSTLY_CLOUDY,NIGHT_MOSTLY_CLOUDY,NIGHT_MOSTLY_CLOUDY,NIGHT_CLEAR,NIGHT_CLEAR","Onshore,Cross-shore,Cross-shore,Offshore,Offshore,Offshore,Offshore",7
5842041f4e65fad6a7708987,2024_02_27,36.95154854910425,-122.0420693940968,Mitchell's Cove,3,0.83,1.082857142857143,14,14,"CLEAR,CLEAR,MOSTLY_CLOUDY,NIGHT_MOSTLY_CLOUDY,NIGHT_MOSTLY_CLOUDY,NIGHT_CLEAR,NIGHT_CLEAR","Cross-shore,Cross-shore,Cross-shore,Offshore,Offshore,Offshore,Offshore",7
5842041f4e65fad6a770898a,2024_02_27,36.9572312370203,-121.98177,26th Ave,3,1.04,1.2857142857142858,14,14,"CLEAR,CLEAR,CLEAR,NIGHT_MOSTLY_CLOUDY,NIGHT_MOSTLY_CLOUDY,NIGHT_MOSTLY_CLEAR,NIGHT_CLEAR","Onshore,Onshore,Cross-shore,Offshore,Offshore,Onshore,Onshore",7
5842041f4e65fad6a770898e,2024_02_27,36.91899972819882,-121.85536,Manresa,3,1.1114285714285714,1.3442857142857143,14,14,"MOSTLY_CLEAR,CLEAR,MOSTLY_CLEAR,NIGHT_CLEAR,NIGHT_MOSTLY_CLOUDY,NIGHT_MIST,NIGHT_MIST","Onshore,Onshore,Onshore,Onshore,Onshore,Offshore,Onshore",7
5842041f4e65fad6a7708990,2024_02_27,34.45747731928454,-120.34242,The Ranch,3,0.4185714285714286,0.7228571428571429,15,15,"MOSTLY_CLOUDY,OVERCAST,OVERCAST,NIGHT_MOSTLY_CLOUDY,NIGHT_OVERCAST,NIGHT_MOSTLY_CLOUDY,NIGHT_MOSTLY_CLOUDY","Onshore,Cross-shore,Cross-shore,Offshore,Offshore,Offshore,Offshore",7
5842041f4e65fad6a7708991,2024_02_27,34.50875036590315,-120.50348,Jalama,3,0.9285714285714286,1.1114285714285714,15,15,"OVERCAST,MOSTLY_CLOUDY,MOSTLY_CLOUDY,NIGHT_BRIEF_SHOWERS,NIGHT_MOSTLY_CLOUDY,NIGHT_MOSTLY_CLOUDY,NIGHT_LIGHT_SHOWERS_POSSIBLE","Onshore,Cross-shore,Offshore,Offshore,Offshore,Cross-shore,Cross-shore",7
5842041f4e65fad6a7708996,2024_02_27,34.68700870220497,-120.6111611019887,Surf Beach,3,2.347142857142857,2.8085714285714287,14,14,"OVERCAST,CLEAR,MIST,NIGHT_MOSTLY_CLOUDY,NIGHT_MOSTLY_CLOUDY,NIGHT_MIST,NIGHT_MIST","Onshore,Onshore,Onshore,Cross-shore,Offshore,Onshore,Cross-shore",7
5842041f4e65fad6a770899c,2024_02_27,35.5730538161116,-121.1143362345574,Moonstone,3,1.7014285714285715,2.0314285714285716,14,14,"MOSTLY_CLOUDY,BRIEF_SHOWERS,MIST,NIGHT_CLEAR,NIGHT_CLEAR,NIGHT_CLEAR,NIGHT_CLEAR","Onshore,Onshore,Onshore,Cross-shore,Offshore,Cross-shore,Onshore",7
5842041f4e65fad6a770899d,2024_02_27,35.61533716776573,-121.1502053073914,Pico Creek,3,1.2342857142857142,1.4785714285714286,14,14,"MOSTLY_CLOUDY,MOSTLY_CLOUDY,MOSTLY_CLOUDY,NIGHT_MOSTLY_CLOUDY,NIGHT_CLEAR,NIGHT_CLEAR,NIGHT_FOG","Onshore,Onshore,Onshore,Cross-shore,Offshore,Cross-shore,Onshore",7
5842041f4e65fad6a770899e,2024_02_27,35.56829031927379,-121.1120653023953,Santa Rosa Creek,3,1.7014285714285715,2.0314285714285716,14,14,"BRIEF_SHOWERS,BRIEF_SHOWERS,MIST,NIGHT_MIST,NIGHT_MOSTLY_CLOUDY,NIGHT_CLEAR,NIGHT_CLEAR","Onshore,Onshore,Onshore,Cross-shore,Offshore,Onshore,Onshore",7
5842041f4e65fad6a77089a2,2024_02_27,35.44820114936284,-120.90715,"Cayucos Pier, Southside ",3,0.6542857142857142,0.96,14,14,"MOSTLY_CLOUDY,MOSTLY_CLOUDY,MOSTLY_CLEAR,NIGHT_MOSTLY_CLOUDY,NIGHT_MIST,NIGHT_FOG,NIGHT_FOG","Onshore,Onshore,Onshore,Onshore,Onshore,Onshore,Onshore",7
5842041f4e65fad6a77089a4,2024_02_27,35.30143372628852,-120.877819239902,Cable Landing,3,2.3814285714285712,2.847142857142857,14,14,"CLEAR,MOSTLY_CLOUDY,CLEAR,NIGHT_CLEAR,NIGHT_MIST,NIGHT_MOSTLY_CLOUDY,NIGHT_MOSTLY_CLEAR","Onshore,Onshore,Onshore,Onshore,Onshore,Onshore,Cross-shore",7
5842041f4e65fad6a77089a9,2024_02_27,35.61269103500222,-121.1480725356606,San Simeon,3,0.832,0.994,14,14,"MOSTLY_CLOUDY,BRIEF_SHOWERS,MOSTLY_CLOUDY,NIGHT_MOSTLY_CLOUDY,NIGHT_MIST,NIGHT_MIST,NIGHT_FOG","Onshore,Onshore,Onshore,Offshore,Offshore,Onshore,Onshore",7
5842041f4e65fad6a77089ab,2024_02_27,35.1775325966252,-120.7341125142258,Avila Beach,2,0.05,0.3557142857142857,14,14,"MOSTLY_CLOUDY,MOSTLY_CLOUDY,BRIEF_SHOWERS,NIGHT_MOSTLY_CLEAR,NIGHT_MOSTLY_CLEAR,NIGHT_MOSTLY_CLOUDY,NIGHT_MOSTLY_CLEAR","Onshore,Onshore,Onshore,Offshore,Offshore,Offshore,Offshore",7
5842041f4e65fad6a77089ac,2024_02_27,35.13877877884115,-120.64535,Pismo Beach Pier,3,0.9408,1.3336999999999999,14,14,"CLEAR,MOSTLY_CLOUDY,FOG,NIGHT_MIST,NIGHT_MIST,NIGHT_MOSTLY_CLOUDY,NIGHT_MOSTLY_CLOUDY","Cross-shore,Cross-shore,Cross-shore,Cross-shore,Offshore,Cross-shore,Offshore",7
5842041f4e65fad6a77089ad,2024_02_27,46.8907710233147,-124.12964,Westport/Olympic Peninsula,0,2.544285714285714,3.0442857142857145,10,10,"BRIEF_SHOWERS,CLEAR,CLEAR,NIGHT_CLEAR,NIGHT_BRIEF_SHOWERS,NIGHT_MOSTLY_CLOUDY,NIGHT_CLEAR","Onshore,Onshore,Onshore,Onshore,Onshore,Onshore,Onshore",7
5842041f4e65fad6a77089ae,2024_02_27,46.35185177248545,-124.06747,Long Beach Peninsula,0.2857142857142857,4.144285714285714,4.601428571428571,10,10,"MOSTLY_CLOUDY,CLEAR,CLEAR,NIGHT_CLEAR,NIGHT_CLEAR,NIGHT_CLEAR,NIGHT_CLEAR","Onshore,Onshore,Onshore,Onshore,Onshore,Onshore,Onshore",7
5842041f4e65fad6a77089af,2024_02_27,47.90649175554033,-124.6370864743483,La Push,0.2857142857142857,3.244285714285714,3.6028571428571428,10,10,"MOSTLY_CLEAR,MOSTLY_CLEAR,CLEAR,NIGHT_MOSTLY_CLOUDY,NIGHT_CLEAR,NIGHT_CLEAR,NIGHT_CLEAR","Cross-shore,Cross-shore,Cross-shore,Cross-shore,Cross-shore,Cross-shore,Cross-shore",7
5842041f4e65fad6a77089b0,2024_02_27,42.04368239985442,-124.26828,Brookings Jetty,3,0.8601871428571428,1.344042857142857,12,12,"CLEAR,CLEAR,CLEAR,CLEAR,NIGHT_CLEAR,NIGHT_MOSTLY_CLEAR,NIGHT_CLEAR","Offshore,Offshore,Cross-shore,Cross-shore,Offshore,Offshore,Offshore",7
5842041f4e65fad6a77089b1,2024_02_27,42.74071837900346,-124.4983727491047,Port Orford,4,1.752857142857143,2.0542857142857143,12,12,"MOSTLY_CLOUDY,MOSTLY_CLOUDY,MOSTLY_CLOUDY,MOSTLY_CLEAR,NIGHT_MOSTLY_CLOUDY,NIGHT_SHOWERS,NIGHT_MOSTLY_CLEAR","Offshore,Offshore,Offshore,Offshore,Offshore,Offshore,Offshore",7
5842041f4e65fad6a77089b2,2024_02_27,44.01532689312291,-124.13865,Florence South Jetty,1.2857142857142858,3.9771428571428573,4.627142857142857,11,11,"MOSTLY_CLOUDY,MOSTLY_CLOUDY,CLEAR,NIGHT_MOSTLY_CLOUDY,NIGHT_SHOWERS,NIGHT_CLEAR,NIGHT_MOSTLY_CLOUDY","Onshore,Onshore,Onshore,Onshore,Onshore,Onshore,Onshore",7
5842041f4e65fad6a77089b3,2024_02_27,42.41812540774362,-124.42945,Gold Beach South Jetty,3.2857142857142856,2.34,2.7942857142857145,11,11,"MOSTLY_CLEAR,MOSTLY_CLOUDY,MOSTLY_CLOUDY,MOSTLY_CLOUDY,NIGHT_MOSTLY_CLOUDY,NIGHT_CLEAR,NIGHT_MOSTLY_CLEAR","Offshore,Offshore,Offshore,Offshore,Offshore,Offshore,Offshore",7
5842041f4e65fad6a77089b4,2024_02_27,44.95857310226525,-124.0219017690976,Lincoln City,1,4.055714285714286,4.498571428571428,11,11,"CLEAR,MOSTLY_CLOUDY,CLEAR,NIGHT_MOSTLY_CLOUDY,NIGHT_CLEAR,NIGHT_MOSTLY_CLOUDY,NIGHT_CLEAR","Onshore,Onshore,Onshore,Onshore,Onshore,Onshore,Onshore",7
5842041f4e65fad6a77089b5,2024_02_27,44.63792761362982,-124.0657,Newport,1.4285714285714286,4.234285714285714,4.701428571428571,12,12,"CLEAR,BRIEF_SHOWERS,CLEAR,NIGHT_MOSTLY_CLEAR,NIGHT_CLEAR,NIGHT_MOSTLY_CLOUDY,NIGHT_CLEAR","Cross-shore,Cross-shore,Onshore,Onshore,Onshore,Onshore,Onshore",7
5842041f4e65fad6a77089b6,2024_02_27,45.61468496266301,-123.94643,Rockaway Beach,1,4.285714285714286,4.7542857142857144,11,11,"HEAVY_SHOWERS,MIST,CLEAR,NIGHT_MOSTLY_CLOUDY,NIGHT_MOSTLY_CLOUDY,NIGHT_CLEAR,NIGHT_CLOUDY","Onshore,Onshore,Onshore,Onshore,Onshore,Onshore,Onshore",7
5842041f4e65fad6a77089b7,2024_02_27,45.20252914186085,-123.96975,Pacific City,2,3.0614285714285714,3.462857142857143,11,11,"CLEAR,MOSTLY_CLOUDY,HEAVY_SHOWERS,NIGHT_BRIEF_SHOWERS,NIGHT_MOSTLY_CLOUDY,NIGHT_BRIEF_SHOWERS,NIGHT_CLEAR","Cross-shore,Onshore,Cross-shore,Cross-shore,Onshore,Cross-shore,Onshore",7
5842041f4e65fad6a77089b8,2024_02_27,45.88179930310263,-123.96681,Cannon Beach,2,3.9014285714285712,4.328571428571428,11,11,"CLEAR,CLEAR,CLEAR,NIGHT_MOSTLY_CLEAR,NIGHT_MOSTLY_CLOUDY,NIGHT_CLEAR,NIGHT_CLOUDY","Onshore,Cross-shore,Onshore,Onshore,Onshore,Onshore,Onshore",7
5842041f4e65fad6a77089ba,2024_02_27,40.02528754746774,-124.06372,Shelter Cove,2.142857142857143,0.46605857142857143,0.7282142857142857,13,13,"SHOWERS,CLEAR,CLEAR,CLEAR,NIGHT_CLEAR,NIGHT_CLEAR,NIGHT_CLEAR","Offshore,Offshore,Offshore,Offshore,Offshore,Offshore,Offshore",7
5842041f4e65fad6a77089bb,2024_02_27,40.76816197136951,-124.24248,Humboldt Harbor Entrance,0.7142857142857143,2.357142857142857,2.82,12,12,"MOSTLY_CLOUDY,MOSTLY_CLOUDY,MOSTLY_CLOUDY,CLEAR,NIGHT_MOSTLY_CLEAR,NIGHT_MOSTLY_CLEAR,NIGHT_MOSTLY_CLEAR","Cross-shore,Cross-shore,Cross-shore,Cross-shore,Cross-shore,Cross-shore,Cross-shore",7
5842041f4e65fad6a77089bc,2024_02_27,40.76684246920174,-124.23107,North Jetty,1.4285714285714286,3.617142857142857,4.291428571428572,12,12,"CLEAR,MOSTLY_CLOUDY,BRIEF_SHOWERS,CLEAR,NIGHT_MOSTLY_CLEAR,NIGHT_MOSTLY_CLEAR,NIGHT_CLEAR","Cross-shore,Cross-shore,Cross-shore,Cross-shore,Cross-shore,Cross-shore,Cross-shore",7
5842041f4e65fad6a77089bd,2024_02_27,41.02731183893966,-124.1149972888982,Westhaven,2.7142857142857144,3.59,4.257142857142857,12,12,"MOSTLY_CLEAR,BRIEF_SHOWERS,CLEAR,CLEAR,NIGHT_CLEAR,NIGHT_CLEAR,NIGHT_MOSTLY_CLEAR","Cross-shore,Cross-shore,Offshore,Cross-shore,Cross-shore,Offshore,Offshore",7
5842041f4e65fad6a77089be,2024_02_27,41.13016238153297,-124.16466,Sue-meg,1.8571428571428572,2.7657142857142856,3.2528571428571427,12,12,"MOSTLY_CLOUDY,BRIEF_SHOWERS,MOSTLY_CLEAR,BRIEF_SHOWERS,NIGHT_CLEAR,NIGHT_MOSTLY_CLEAR,NIGHT_MOSTLY_CLEAR","Onshore,Onshore,Cross-shore,Cross-shore,Cross-shore,Cross-shore,Cross-shore",7
5842041f4e65fad6a77089bf,2024_02_27,37.8289474958188,-122.5376795097543,Fort Cronkite/Rodeo Beach,2.4285714285714284,1.2457142857142858,1.49,13,13,"MOSTLY_CLEAR,CLEAR,CLEAR,NIGHT_CLEAR,NIGHT_CLEAR,NIGHT_CLEAR,NIGHT_CLEAR","Cross-shore,Cross-shore,Cross-shore,Cross-shore,Cross-shore,Offshore,Offshore",7
5842041f4e65fad6a77089c0,2024_02_27,41.74415759876137,-124.17717,South Beach CA,3,0.8857142857142858,1.0814285714285714,12,12,"MOSTLY_CLEAR,CLEAR,CLEAR,MOSTLY_CLEAR,NIGHT_CLEAR,NIGHT_CLEAR,NIGHT_CLEAR","Offshore,Offshore,Offshore,Offshore,Offshore,Offshore,Offshore",7
5842041f4e65fad6a77089c1,2024_02_27,37.89801283969752,-122.64519,Stinson Beach,3,0.42,0.7242857142857143,13,13,"MIST,CLEAR,CLEAR,NIGHT_CLEAR,NIGHT_CLEAR,NIGHT_CLEAR,NIGHT_CLEAR","Offshore,Offshore,Offshore,Offshore,Offshore,Offshore,Offshore",7
5842041f4e65fad6a77089c2,2024_02_27,37.90514516176495,-122.68151,Bolinas,2.857142857142857,0.48302428571428574,0.7547242857142857,13,13,"MIST,MOSTLY_CLEAR,CLEAR,NIGHT_MOSTLY_CLEAR,NIGHT_MOSTLY_CLEAR,NIGHT_CLEAR,NIGHT_CLEAR","Offshore,Offshore,Offshore,Cross-shore,Cross-shore,Cross-shore,Cross-shore",7
5842041f4e65fad6a77089c3,2024_02_27,38.04892513158693,-122.9892494965416,Point Reyes (north),1.1428571428571428,2.2928571428571427,2.7414285714285715,14,14,"MOSTLY_CLEAR,MOSTLY_CLOUDY,CLEAR,CLEAR,NIGHT_MOSTLY_CLEAR,NIGHT_CLEAR,NIGHT_CLEAR","Onshore,Onshore,Onshore,Onshore,Onshore,Onshore,Onshore",7
5842041f4e65fad6a77089c6,2024_02_27,38.31088736605785,-123.0496777333731,Doran Beach,1.8571428571428572,0.2757142857142857,0.5828571428571429,14,14,"MOSTLY_CLEAR,MOSTLY_CLEAR,CLEAR,CLEAR,NIGHT_CLEAR,NIGHT_CLEAR,NIGHT_CLEAR","Offshore,Offshore,Offshore,Offshore,Offshore,Offshore,Offshore",7
5842041f4e65fad6a77089c7,2024_02_27,38.45077228660809,-123.13008,Russian Rivermouth,3,1.5757142857142858,1.8828571428571428,13,13,"CLEAR,CLEAR,CLEAR,CLEAR,NIGHT_CLEAR,NIGHT_CLEAR,NIGHT_CLEAR","Onshore,Onshore,Cross-shore,Cross-shore,Cross-shore,Cross-shore,Cross-shore",7
5842041f4e65fad6a77089c8,2024_02_27,38.35329968518107,-123.06906,Salmon Creek,2,1.8042857142857143,2.157142857142857,14,14,"MOSTLY_CLEAR,CLEAR,CLEAR,CLEAR,NIGHT_CLEAR,NIGHT_CLEAR,NIGHT_CLEAR","Onshore,Onshore,Onshore,Onshore,Onshore,Cross-shore,Cross-shore",7
5842041f4e65fad6a77089c9,2024_02_27,38.6845180197959,-123.4322714291198,Black Point Beach,1.7142857142857142,0.7814285714285715,1.05,14,14,"CLEAR,CLEAR,CLEAR,CLEAR,NIGHT_CLEAR,NIGHT_CLEAR,NIGHT_CLEAR","Onshore,Onshore,Onshore,Onshore,Onshore,Onshore,Onshore",7
5842041f4e65fad6a77089ca,2024_02_27,43.251076,-70.59144,Ogunquit,2.952857142857143,0.5416,0.844152380952381,4,3,"NIGHT_CLEAR,NIGHT_CLEAR,NIGHT_CLEAR,NIGHT_CLEAR,NIGHT_CLEAR,NIGHT_CLEAR,NIGHT_CLEAR","Offshore,Offshore,Offshore,Offshore,Offshore,Onshore,Onshore",7
5842041f4e65fad6a77089cb,2024_02_27,41.362631366305415,-71.48006772942608,Point Judith,2,0.24826666666666666,0.554152380952381,5,4,"NIGHT_CLEAR,NIGHT_CLEAR,NIGHT_CLEAR,NIGHT_MIST,NIGHT_MIST,NIGHT_MIST,NIGHT_MIST","Offshore,Offshore,Offshore,Offshore,Cross-shore,Offshore,Offshore",7
5842041f4e65fad6a77089cd,2024_02_27,41.422678090954726,-71.45413,Monahan's - Narragansett,1.7142857142857142,0.34737,0.5427671428571429,4,4,"NIGHT_CLEAR,NIGHT_CLEAR,NIGHT_CLEAR,NIGHT_MIST,NIGHT_MIST,NIGHT_MIST,NIGHT_MIST","Offshore,Offshore,Offshore,Offshore,Cross-shore,Offshore,Cross-shore",7
5842041f4e65fad6a77089ce,2024_02_27,41.469,-71.293,Ruggles - Newport,1.7142857142857142,0.4572657142857143,0.7144757142857143,4,4,"NIGHT_CLEAR,NIGHT_CLEAR,NIGHT_MIST,NIGHT_MIST,NIGHT_MIST,NIGHT_MIST,NIGHT_MIST","Onshore,Onshore,Onshore,Onshore,Onshore,Onshore,Onshore",7
5842041f4e65fad6a77089cf,2024_02_27,43.175394,-70.606351,Short Sands Beach,2.7142857142857144,0.6642857142857143,0.97,3,3,"NIGHT_CLEAR,NIGHT_CLEAR,NIGHT_CLEAR,NIGHT_CLEAR,NIGHT_CLEAR,NIGHT_CLEAR,NIGHT_CLEAR","Offshore,Offshore,Offshore,Offshore,Offshore,Onshore,Onshore",7
5842041f4e65fad6a77089d0,2024_02_27,41.487408,-71.29017,First Beach,1,0.2342857142857143,0.5414285714285715,4,4,"NIGHT_CLEAR,NIGHT_CLEAR,NIGHT_CLEAR,NIGHT_CLEAR,NIGHT_MIST,NIGHT_MIST,NIGHT_MIST","Onshore,Onshore,Onshore,Onshore,Onshore,Onshore,Onshore",7
5842041f4e65fad6a77089d1,2024_02_27,42.27916830233153,-70.86498,Nantasket Beach,0.9757142857142858,0,0.2020761904761905,4,3,"NIGHT_CLEAR,NIGHT_CLEAR,NIGHT_CLEAR,NIGHT_CLEAR,NIGHT_CLEAR,NIGHT_CLEAR,NIGHT_CLEAR","Offshore,Offshore,Offshore,Offshore,Offshore,Offshore,Offshore",7
5842041f4e65fad6a77089d2,2024_02_27,41.817,-69.935,Cape Cod,1.7142857142857142,0.18571428571428572,0.48857142857142855,3,3,"NIGHT_CLEAR,NIGHT_CLEAR,NIGHT_CLEAR,NIGHT_CLEAR,NIGHT_CLEAR,NIGHT_CLEAR,NIGHT_CLEAR","Offshore,Offshore,Offshore,Offshore,Offshore,Offshore,Offshore",7
5842041f4e65fad6a77089d3,2024_02_27,42.22055448975661,-70.70634873403819,Egypt Beach,1,0,0.1957142857142857,3,3,"NIGHT_CLEAR,NIGHT_CLEAR,NIGHT_CLEAR,NIGHT_CLEAR,NIGHT_CLEAR,NIGHT_CLEAR,NIGHT_CLEAR","Offshore,Offshore,Offshore,Offshore,Offshore,Offshore,Offshore",7
5842041f4e65fad6a77089d4,2024_02_27,41.48739647744607,-71.25723,Second Beach,1,0.38102380952380954,0.5826476190476191,5,4,"NIGHT_CLEAR,NIGHT_CLEAR,NIGHT_MIST,NIGHT_MIST,NIGHT_MIST,NIGHT_MIST,NIGHT_MIST","Onshore,Onshore,Onshore,Onshore,Onshore,Onshore,Onshore",7
5842041f4e65fad6a77089d5,2024_02_27,42.964,-70.769,Fox Hill,2.8328571428571427,0.3582666666666667,0.6670095238095238,4,3,"NIGHT_CLEAR,NIGHT_CLEAR,NIGHT_CLEAR,NIGHT_CLEAR,NIGHT_CLEAR,NIGHT_CLEAR,NIGHT_CLEAR","Offshore,Offshore,Offshore,Offshore,Offshore,Onshore,Onshore",7
5842041f4e65fad6a77089d6,2024_02_27,42.991359,-70.75149,Straws Point,2.4042857142857144,0.3873142857142857,0.6932,4,3,"NIGHT_CLEAR,NIGHT_CLEAR,NIGHT_CLEAR,NIGHT_CLEAR,NIGHT_CLEAR,NIGHT_CLEAR,NIGHT_CLEAR","Cross-shore,Cross-shore,Cross-shore,Offshore,Offshore,Cross-shore,Onshore",7
5842041f4e65fad6a77089d7,2024_02_27,42.946,-70.786,Plaice Cove,2.6671428571428573,0.3582666666666667,0.6670095238095238,4,3,"NIGHT_CLEAR,NIGHT_CLEAR,NIGHT_CLEAR,NIGHT_CLEAR,NIGHT_CLEAR,NIGHT_CLEAR,NIGHT_CLEAR","Offshore,Offshore,Offshore,Offshore,Offshore,Onshore,Onshore",7
5842041f4e65fad6a77089d9,2024_02_27,42.911574,-70.80831,The Main Beach,1.8571428571428572,0.31157190476190477,0.6201827380952382,4,3,"NIGHT_CLEAR,NIGHT_CLEAR,NIGHT_CLEAR,NIGHT_CLEAR,NIGHT_CLEAR,NIGHT_CLEAR,NIGHT_CLEAR","Cross-shore,Cross-shore,Cross-shore,Cross-shore,Offshore,Cross-shore,Cross-shore",7
5842041f4e65fad6a77089da,2024_02_27,42.97583846220203,-70.764,Sawyer's Beach,2.6671428571428573,0.41302857142857147,0.7155809523809524,4,3,"NIGHT_CLEAR,NIGHT_CLEAR,NIGHT_CLEAR,NIGHT_CLEAR,NIGHT_CLEAR,NIGHT_CLEAR,NIGHT_CLEAR","Offshore,Offshore,Offshore,Offshore,Offshore,Onshore,Onshore",7
5842041f4e65fad6a77089db,2024_02_27,42.97,-70.77,Rye on the Rocks / 5-0's,2,0.2931469047619048,0.5967475000000001,4,3,"NIGHT_CLEAR,NIGHT_CLEAR,NIGHT_CLEAR,NIGHT_CLEAR,NIGHT_CLEAR,NIGHT_CLEAR,NIGHT_CLEAR","Cross-shore,Offshore,Offshore,Offshore,Offshore,Onshore,Onshore",7
5842041f4e65fad6a77089dc,2024_02_27,43.55902946610303,-70.27795,Higgins Beach,1.7385714285714287,0.5698666666666666,0.9279809523809524,4,3,"NIGHT_CLEAR,NIGHT_CLEAR,NIGHT_CLEAR,NIGHT_CLEAR,NIGHT_CLEAR,NIGHT_CLEAR,NIGHT_CLEAR","Cross-shore,Offshore,Offshore,Offshore,Offshore,Cross-shore,Cross-shore",7
5842041f4e65fad6a77089dd,2024_02_27,43.302676,-70.5652,Wells Beach,2.8328571428571427,0.5473142857142858,0.8498666666666667,4,3,"NIGHT_CLEAR,NIGHT_CLEAR,NIGHT_CLEAR,NIGHT_CLEAR,NIGHT_CLEAR,NIGHT_CLEAR,NIGHT_CLEAR","Offshore,Offshore,Offshore,Offshore,Offshore,Onshore,Onshore",7
5842041f4e65fad6a77089de,2024_02_27,43.545359,-70.30479,Scarborough Beach State Park,2.857142857142857,0.6798371428571429,1.106694761904762,4,3,"NIGHT_CLEAR,NIGHT_CLEAR,NIGHT_CLEAR,NIGHT_CLEAR,NIGHT_CLEAR,NIGHT_CLEAR,NIGHT_CLEAR","Cross-shore,Offshore,Offshore,Cross-shore,Cross-shore,Cross-shore,Cross-shore",7
5842041f4e65fad6a77089df,2024_02_27,43.514481,-70.372146,Old Orchard Beach,2.2614285714285716,0.4493904761904762,0.7533714285714286,4,3,"NIGHT_CLEAR,NIGHT_CLEAR,NIGHT_CLEAR,NIGHT_CLEAR,NIGHT_CLEAR,NIGHT_CLEAR,NIGHT_CLEAR","Cross-shore,Offshore,Offshore,Offshore,Cross-shore,Cross-shore,Cross-shore",7
5842041f4e65fad6a77089e0,2024_02_27,43.34711,-70.48165,Gooch's Beach,2.69,0.6703428571428571,0.9776571428571428,4,3,"NIGHT_CLEAR,NIGHT_CLEAR,NIGHT_CLEAR,NIGHT_CLEAR,NIGHT_CLEAR,NIGHT_CLEAR,NIGHT_CLEAR","Onshore,Cross-shore,Offshore,Offshore,Offshore,Offshore,Cross-shore",7
5842041f4e65fad6a77089e2,2024_02_27,40.58433,-73.62953,Lido Beach,1,0.5179619047619047,0.8224190476190476,5,4,"NIGHT_CLEAR,NIGHT_CLEAR,NIGHT_CLEAR,NIGHT_CLEAR,NIGHT_CLEAR,NIGHT_CLEAR,NIGHT_MIST","Onshore,Onshore,Cross-shore,Onshore,Onshore,Cross-shore,Onshore",7
5842041f4e65fad6a77089e3,2024_02_27,43.163135,-70.61689,Long Sands Beach,2,0.6277971428571428,0.9682290476190477,4,3,"NIGHT_CLEAR,NIGHT_CLEAR,NIGHT_CLEAR,NIGHT_CLEAR,NIGHT_CLEAR,NIGHT_CLEAR,NIGHT_CLEAR","Cross-shore,Cross-shore,Offshore,Offshore,Offshore,Cross-shore,Cross-shore",7
5842041f4e65fad6a77089e4,2024_02_27,40.61695351251805,-73.39376,Gilgo Beach,1.9757142857142858,0.4482666666666667,0.7541523809523809,5,4,"NIGHT_CLEAR,NIGHT_CLEAR,NIGHT_CLEAR,NIGHT_CLEAR,NIGHT_CLEAR,NIGHT_MIST,NIGHT_MIST","Onshore,Onshore,Onshore,Onshore,Onshore,Onshore,Onshore",7
5842041f4e65fad6a77089e5,2024_02_27,40.62530081928036,-73.23827,Robert Moses,2,0.39285714285714285,0.6971428571428572,4,4,"NIGHT_CLEAR,NIGHT_CLEAR,NIGHT_CLEAR,NIGHT_CLEAR,NIGHT_CLEAR,NIGHT_MIST,NIGHT_MIST","Onshore,Onshore,Onshore,Onshore,Onshore,Onshore,Onshore",7
5842041f4e65fad6a77089e6,2024_02_27,40.64313317632791,-73.15727,Fire Island,2,0.3871428571428572,0.6885714285714285,5,5,"NIGHT_CLEAR,NIGHT_CLEAR,NIGHT_CLEAR,NIGHT_CLEAR,NIGHT_MIST,NIGHT_MIST,NIGHT_MIST","Onshore,Onshore,Onshore,Onshore,Onshore,Onshore,Onshore",7
5842041f4e65fad6a77089e8,2024_02_27,40.76653118828782,-72.74579619372713,Cupsogue,2,0.7014285714285714,1.0057142857142858,5,5,"NIGHT_CLEAR,NIGHT_CLEAR,NIGHT_MIST,NIGHT_MIST,NIGHT_MIST,NIGHT_MIST,NIGHT_MIST","Onshore,Onshore,Onshore,Onshore,Onshore,Onshore,Onshore",7
5842041f4e65fad6a77089e9,2024_02_27,42.9376373334092,-70.79141,The Wall ,1.9757142857142858,0.30108666666666667,0.6038011904761905,4,3,"NIGHT_CLEAR,NIGHT_CLEAR,NIGHT_CLEAR,NIGHT_CLEAR,NIGHT_CLEAR,NIGHT_CLEAR,NIGHT_CLEAR","Offshore,Offshore,Offshore,Offshore,Offshore,Onshore,Onshore",7
5842041f4e65fad6a77089ea,2024_02_27,40.887088,-72.33856,Flys,1.7142857142857142,0.5714285714285714,0.8771428571428571,5,5,"NIGHT_MIST,NIGHT_CLEAR,NIGHT_CLEAR,NIGHT_MIST,NIGHT_BRIEF_SHOWERS_POSSIBLE,NIGHT_MIST,NIGHT_MIST","Onshore,Onshore,Onshore,Onshore,Onshore,Onshore,Onshore",7
5842041f4e65fad6a77089eb,2024_02_27,41.0389266436591,-71.91068529316958,Trailer Park,0.9285714285714286,0.6195461904761905,0.884647619047619,5,4,"NIGHT_CLEAR,NIGHT_CLEAR,NIGHT_CLEAR,NIGHT_MIST,NIGHT_MIST,NIGHT_MIST,NIGHT_MIST","Onshore,Onshore,Onshore,Onshore,Onshore,Onshore,Onshore",7
5842041f4e65fad6a77089ec,2024_02_27,41.039505402729105,-71.9142,Ditch Plains,1.4285714285714286,0.56044,0.8756871428571429,5,5,"NIGHT_CLEAR,NIGHT_CLEAR,NIGHT_CLEAR,NIGHT_MIST,NIGHT_MIST,NIGHT_DRIZZLE,NIGHT_MIST","Cross-shore,Cross-shore,Cross-shore,Cross-shore,Cross-shore,Cross-shore,Cross-shore",7
5842041f4e65fad6a77089ee,2024_02_27,40.57633275206492,-73.56895305108567,"West End, Jones Beach",1.9757142857142858,0.4754095238095238,0.7793904761904762,5,4,"NIGHT_CLEAR,NIGHT_CLEAR,NIGHT_CLEAR,NIGHT_CLEAR,NIGHT_CLEAR,NIGHT_CLEAR,NIGHT_MIST","Onshore,Onshore,Onshore,Onshore,Onshore,Onshore,Onshore",7
5842041f4e65fad6a77089f1,2024_02_27,41.038286691230795,-71.91991567611694,Poles,0.9285714285714286,0.52425,0.8335640476190477,5,4,"NIGHT_CLEAR,NIGHT_CLEAR,NIGHT_CLEAR,NIGHT_MIST,NIGHT_MIST,NIGHT_MIST,NIGHT_MIST","Onshore,Onshore,Onshore,Onshore,Onshore,Onshore,Onshore",7
5842041f4e65fad6a77089f3,2024_02_27,40.84077769766295,-72.47989493724765,The Bowl,1.8571428571428572,0.5985714285714285,0.9014285714285715,5,5,"NIGHT_CLEAR,NIGHT_CLEAR,NIGHT_MIST,NIGHT_MIST,NIGHT_MIST,NIGHT_MIST,NIGHT_MIST","Onshore,Onshore,Onshore,Onshore,Onshore,Onshore,Onshore",7
5842041f4e65fad6a77089f4,2024_02_27,40.94235535243154,-72.19286,Main Beach,1.7142857142857142,0.6289142857142858,0.9333714285714285,13,12,"NIGHT_CLEAR,NIGHT_CLEAR,NIGHT_MOSTLY_CLEAR,NIGHT_MIST,NIGHT_MIST,NIGHT_MIST,NIGHT_MIST","Onshore,Onshore,Onshore,Onshore,Onshore,Onshore,Onshore",7
5842041f4e65fad6a77089f5,2024_02_27,40.58270702399518,-73.67251552079799,Laurelton Blvd.,1,0.527872380952381,0.7405309523809523,5,4,"NIGHT_MIST,NIGHT_MIST,NIGHT_MIST,NIGHT_MIST,NIGHT_MIST,NIGHT_MIST,NIGHT_MIST","Onshore,Onshore,Onshore,Onshore,Onshore,Onshore,Onshore",7
5842041f4e65fad6a77089f6,2024_02_27,41.033752854071416,-71.93695522488403,Terrace,0.9757142857142858,0.5093904761904762,0.8119428571428572,5,4,"NIGHT_CLEAR,NIGHT_CLEAR,NIGHT_CLEAR,NIGHT_MIST,NIGHT_MIST,NIGHT_MIST,NIGHT_MIST","Onshore,Onshore,Onshore,Onshore,Onshore,Onshore,Onshore",7
5842041f4e65fad6a77089f7,2024_02_27,40.83372943645748,-72.50426173210144,K Road,1.7142857142857142,0.6971428571428572,1.002857142857143,5,5,"NIGHT_CLEAR,NIGHT_CLEAR,NIGHT_MIST,NIGHT_BRIEF_SHOWERS_POSSIBLE,NIGHT_MIST,NIGHT_MIST,NIGHT_MIST","Onshore,Onshore,Onshore,Onshore,Onshore,Onshore,Onshore",7
5842041f4e65fad6a77089f8,2024_02_27,40.58456099581507,-73.80730032920837,84th Street,1,0.42255238095238096,0.7251047619047619,5,4,"NIGHT_CLEAR,NIGHT_MIST,NIGHT_MIST,NIGHT_CLEAR,NIGHT_CLEAR,NIGHT_MIST,NIGHT_MIST","Onshore,Onshore,Onshore,Onshore,Onshore,Onshore,Onshore",7
5842041f4e65fad6a77089fa,2024_02_27,40.1319,-74.02788,Sea Girt,2.69,0.3939809523809524,0.7012952380952381,6,5,"NIGHT_CLEAR,NIGHT_CLEAR,NIGHT_CLEAR,NIGHT_CLEAR,NIGHT_CLEAR,NIGHT_CLEAR,NIGHT_MIST","Cross-shore,Offshore,Cross-shore,Offshore,Offshore,Cross-shore,Offshore",7
5842041f4e65fad6a77089fb,2024_02_27,40.54698301868125,-73.9268,Breezy Point,2,0.3342857142857143,0.6371428571428571,5,5,"NIGHT_MIST,NIGHT_MIST,NIGHT_MIST,NIGHT_MIST,NIGHT_MIST,NIGHT_MIST,NIGHT_MIST","Onshore,Onshore,Onshore,Onshore,Onshore,Onshore,Onshore",7
5842041f4e65fad6a77089fc,2024_02_27,40.152504,-74.021383,Spring Lake,2.547142857142857,0.3754095238095238,0.6827238095238095,6,5,"NIGHT_CLEAR,NIGHT_CLEAR,NIGHT_CLEAR,NIGHT_CLEAR,NIGHT_CLEAR,NIGHT_CLEAR,NIGHT_MIST","Cross-shore,Offshore,Cross-shore,Cross-shore,Offshore,Onshore,Offshore",7
5842041f4e65fad6a77089fd,2024_02_27,40.591277,-73.770792,30th - 39th Streets,1.9757142857142858,0.36064761904761905,0.6651047619047619,5,4,"NIGHT_CLEAR,NIGHT_CLEAR,NIGHT_CLEAR,NIGHT_MIST,NIGHT_MIST,NIGHT_MIST,NIGHT_MIST","Onshore,Onshore,Onshore,Onshore,Onshore,Onshore,Onshore",7
5842041f4e65fad6a77089fe,2024_02_27,40.18834955871439,-74.00860982500222,Avon,2.547142857142857,0.36743333333333333,0.6732,6,5,"NIGHT_CLEAR,NIGHT_CLEAR,NIGHT_CLEAR,NIGHT_CLEAR,NIGHT_CLEAR,NIGHT_CLEAR,NIGHT_MIST","Cross-shore,Offshore,Cross-shore,Offshore,Offshore,Cross-shore,Offshore",7
5842041f4e65fad6a77089ff,2024_02_27,40.1974229100932,-74.00650533798255,Bradley Beach,2.547142857142857,0.35350476190476193,0.6546285714285714,6,5,"NIGHT_CLEAR,NIGHT_CLEAR,NIGHT_CLEAR,NIGHT_CLEAR,NIGHT_CLEAR,NIGHT_CLEAR,NIGHT_MIST","Cross-shore,Offshore,Cross-shore,Offshore,Offshore,Cross-shore,Offshore",7
5842041f4e65fad6a7708a01,2024_02_27,40.17202,-74.01503,"16th Ave., Belmar",2.1185714285714288,0.35625238095238093,0.6621476190476191,6,5,"NIGHT_CLEAR,NIGHT_CLEAR,NIGHT_CLEAR,NIGHT_CLEAR,NIGHT_CLEAR,NIGHT_CLEAR,NIGHT_MIST","Cross-shore,Offshore,Cross-shore,Offshore,Offshore,Cross-shore,Offshore",7
5842041f4e65fad6a7708a02,2024_02_27,40.217443,-73.99982,Asbury Park,2.4042857142857144,0.3906476190476191,0.6932,6,5,"NIGHT_CLEAR,NIGHT_CLEAR,NIGHT_CLEAR,NIGHT_CLEAR,NIGHT_CLEAR,NIGHT_MIST,NIGHT_MIST","Cross-shore,Offshore,Cross-shore,Offshore,Offshore,Cross-shore,Offshore",7
5842041f4e65fad6a7708a03,2024_02_27,40.229841,-73.996782,Loch Arbour and Deal,1.69,0.39302857142857145,0.6989142857142857,6,5,"NIGHT_CLEAR,NIGHT_CLEAR,NIGHT_CLEAR,NIGHT_CLEAR,NIGHT_CLEAR,NIGHT_MIST,NIGHT_MIST","Cross-shore,Cross-shore,Cross-shore,Cross-shore,Cross-shore,Cross-shore,Cross-shore",7
5842041f4e65fad6a7708a05,2024_02_27,40.41754,-73.97935,Sandy Hook,1.7142857142857142,0.12,0.4257142857142857,5,5,"NIGHT_CLEAR,NIGHT_CLEAR,NIGHT_CLEAR,NIGHT_CLEAR,NIGHT_CLEAR,NIGHT_CLEAR,NIGHT_CLEAR","Onshore,Onshore,Onshore,Onshore,Onshore,Onshore,Onshore",7
5842041f4e65fad6a7708a06,2024_02_27,39.36353,-74.40873,Crystals,1.7142857142857142,0.4048028571428572,0.6769566666666667,6,5,"NIGHT_CLEAR,NIGHT_CLEAR,NIGHT_CLEAR,NIGHT_CLEAR,NIGHT_CLEAR,NIGHT_MIST,NIGHT_MIST","Onshore,Onshore,Onshore,Onshore,Onshore,Onshore,Onshore",7
5842041f4e65fad6a7708a07,2024_02_27,39.31443,-74.51863,32nd Street,0.9757142857142858,0.41622059523809524,0.6947938095238095,6,5,"NIGHT_MIST,NIGHT_MIST,NIGHT_MIST,NIGHT_MIST,NIGHT_MIST,NIGHT_MIST,NIGHT_MIST","Onshore,Onshore,Onshore,Onshore,Onshore,Onshore,Onshore",7
5842041f4e65fad6a7708a08,2024_02_27,39.327688,-74.49524,Margate Pier Northside,0.9757142857142858,0.41622059523809524,0.6947938095238095,6,5,"NIGHT_MIST,NIGHT_MIST,NIGHT_MIST,NIGHT_MIST,NIGHT_MIST,NIGHT_MIST,NIGHT_MIST","Onshore,Onshore,Onshore,Onshore,Onshore,Onshore,Onshore",7
5842041f4e65fad6a7708a09,2024_02_27,39.336276,-74.47782,Ventnor Pier,1.7142857142857142,0.43031166666666665,0.7168119047619047,6,5,"NIGHT_MIST,NIGHT_MIST,NIGHT_MIST,NIGHT_MIST,NIGHT_MIST,NIGHT_MIST,NIGHT_MIST","Onshore,Onshore,Onshore,Onshore,Onshore,Onshore,Onshore",7
5842041f4e65fad6a7708a0a,2024_02_27,39.35929751441085,-74.41683,States Avenue,1.7142857142857142,0.4048028571428572,0.6769566666666667,6,5,"NIGHT_CLEAR,NIGHT_CLEAR,NIGHT_CLEAR,NIGHT_CLEAR,NIGHT_CLEAR,NIGHT_MIST,NIGHT_MIST","Onshore,Onshore,Onshore,Onshore,Onshore,Onshore,Onshore",7
5842041f4e65fad6a7708a0b,2024_02_27,39.37274173278517,-74.40454,Brigantine Jetty,1.5714285714285714,0.46518952380952383,0.7713066666666667,6,5,"NIGHT_CLEAR,NIGHT_CLEAR,NIGHT_CLEAR,NIGHT_CLEAR,NIGHT_CLEAR,NIGHT_MIST,NIGHT_MIST","Onshore,Onshore,Onshore,Onshore,Onshore,Onshore,Onshore",7
5842041f4e65fad6a7708a0c,2024_02_27,39.356505,-74.42263,South Carolina Avenue,1.7142857142857142,0.46518952380952383,0.7713066666666667,6,5,"NIGHT_CLEAR,NIGHT_CLEAR,NIGHT_CLEAR,NIGHT_CLEAR,NIGHT_CLEAR,NIGHT_MIST,NIGHT_MIST","Onshore,Onshore,Onshore,Onshore,Onshore,Onshore,Onshore",7
5842041f4e65fad6a7708a0d,2024_02_27,39.413485,-74.35476,14th Street North,1.7142857142857142,0.3468380952380953,0.6527238095238095,6,5,"NIGHT_CLEAR,NIGHT_CLEAR,NIGHT_CLEAR,NIGHT_CLEAR,NIGHT_CLEAR,NIGHT_MIST,NIGHT_MIST","Onshore,Onshore,Onshore,Onshore,Onshore,Onshore,Onshore",7
5842041f4e65fad6a7708a0e,2024_02_27,39.531319,-74.263252,The Wooden Jetty,0.9285714285714286,0.614945238095238,0.8672838095238096,6,5,"NIGHT_CLEAR,NIGHT_CLEAR,NIGHT_CLEAR,NIGHT_CLEAR,NIGHT_CLEAR,NIGHT_MIST,NIGHT_MIST","Onshore,Onshore,Onshore,Onshore,Onshore,Onshore,Onshore",7
5842041f4e65fad6a7708a0f,2024_02_27,39.552472,-74.24344,Holyoke,0.8814285714285715,0.5057466666666667,0.7775371428571428,6,5,"NIGHT_CLEAR,NIGHT_CLEAR,NIGHT_CLEAR,NIGHT_CLEAR,NIGHT_CLEAR,NIGHT_MIST,NIGHT_MIST","Onshore,Onshore,Onshore,Onshore,Onshore,Onshore,Onshore",7
5842041f4e65fad6a7708a10,2024_02_27,39.692364,-74.14068,Hudson Ave.,0.8814285714285715,0.5470095238095238,0.852895238095238,6,5,"NIGHT_CLEAR,NIGHT_CLEAR,NIGHT_CLEAR,NIGHT_CLEAR,NIGHT_MIST,NIGHT_MIST,NIGHT_BRIEF_SHOWERS_POSSIBLE","Onshore,Onshore,Onshore,Onshore,Onshore,Onshore,Onshore",7
5842041f4e65fad6a7708a11,2024_02_27,39.79614,-74.09248,Island Beach State Park,1,0.5032,0.8043238095238096,6,5,"NIGHT_CLEAR,NIGHT_CLEAR,NIGHT_CLEAR,NIGHT_CLEAR,NIGHT_CLEAR,NIGHT_CLEAR,NIGHT_MIST","Cross-shore,Cross-shore,Cross-shore,Cross-shore,Cross-shore,Cross-shore,Onshore",7
5842041f4e65fad6a7708a12,2024_02_27,39.91813588078152,-74.07527,Seaside Park,1,0.4479619047619048,0.7476571428571428,6,5,"NIGHT_CLEAR,NIGHT_CLEAR,NIGHT_CLEAR,NIGHT_CLEAR,NIGHT_CLEAR,NIGHT_CLEAR,NIGHT_MIST","Cross-shore,Cross-shore,Cross-shore,Cross-shore,Cross-shore,Cross-shore,Onshore",7
5842041f4e65fad6a7708a14,2024_02_27,39.946638,-74.06884,Seaside Heights,1.4042857142857144,0.38302857142857144,0.6889142857142857,6,5,"NIGHT_CLEAR,NIGHT_CLEAR,NIGHT_CLEAR,NIGHT_CLEAR,NIGHT_CLEAR,NIGHT_CLEAR,NIGHT_MIST","Cross-shore,Cross-shore,Cross-shore,Cross-shore,Cross-shore,Cross-shore,Onshore",7
5842041f4e65fad6a7708a15,2024_02_27,39.95745637606704,-74.06736,Ortley Beach,1.4042857142857144,0.32921904761904763,0.6346285714285714,6,5,"NIGHT_CLEAR,NIGHT_CLEAR,NIGHT_CLEAR,NIGHT_CLEAR,NIGHT_CLEAR,NIGHT_CLEAR,NIGHT_MIST","Cross-shore,Cross-shore,Cross-shore,Cross-shore,Cross-shore,Cross-shore,Onshore",7
5842041f4e65fad6a7708a16,2024_02_27,39.98313468342945,-74.06265685577506,Lavallette,1.4042857142857144,0.37302857142857143,0.6755809523809524,6,5,"NIGHT_CLEAR,NIGHT_CLEAR,NIGHT_CLEAR,NIGHT_CLEAR,NIGHT_CLEAR,NIGHT_CLEAR,NIGHT_MIST","Cross-shore,Cross-shore,Cross-shore,Cross-shore,Cross-shore,Cross-shore,Onshore",7
5842041f4e65fad6a7708a17,2024_02_27,40.0699319967757,-74.04144910856634,Bay Head,0.9757142857142858,0.3530285714285714,0.6560571428571429,6,5,"NIGHT_MIST,NIGHT_MIST,NIGHT_MIST,NIGHT_MIST,NIGHT_MIST,NIGHT_CLEAR,NIGHT_MIST","Cross-shore,Cross-shore,Cross-shore,Cross-shore,Cross-shore,Cross-shore,Cross-shore",7
5842041f4e65fad6a7708a18,2024_02_27,40.094041,-74.034859,Jenkinson's,1.5471428571428572,0.3896952380952381,0.6893904761904762,6,5,"NIGHT_CLEAR,NIGHT_CLEAR,NIGHT_CLEAR,NIGHT_CLEAR,NIGHT_MIST,NIGHT_MIST,NIGHT_MIST","Cross-shore,Cross-shore,Cross-shore,Cross-shore,Cross-shore,Cross-shore,Onshore",7
5842041f4e65fad6a7708a1a,2024_02_27,38.148058,-75.17704,Assateague,1,0.440052380952381,0.7470095238095238,6,5,"NIGHT_CLEAR,NIGHT_MOSTLY_CLOUDY,NIGHT_MOSTLY_CLOUDY,NIGHT_MOSTLY_CLOUDY,NIGHT_CLEAR,NIGHT_CLEAR,NIGHT_CLEAR","Cross-shore,Onshore,Onshore,Onshore,Onshore,Onshore,Cross-shore",7
5842041f4e65fad6a7708a1b,2024_02_27,38.33889038664497,-75.08017670566352,North End to Ocean City Inlet,1.9757142857142858,0.4496952380952381,0.7565333333333333,6,5,"NIGHT_CLEAR,NIGHT_CLEAR,NIGHT_CLEAR,NIGHT_BRIEF_SHOWERS,NIGHT_MOSTLY_CLEAR,NIGHT_CLEAR,NIGHT_CLEAR","Offshore,Cross-shore,Cross-shore,Cross-shore,Cross-shore,Cross-shore,Cross-shore",7
5842041f4e65fad6a7708a1c,2024_02_27,38.603993,-75.06271,Indian River Inlet,1,0.36196476190476196,0.6100176190476191,6,5,"NIGHT_CLEAR,NIGHT_CLEAR,NIGHT_CLEAR,NIGHT_CLEAR,NIGHT_MOSTLY_CLOUDY,NIGHT_CLOUDY,NIGHT_CLEAR","Cross-shore,Cross-shore,Onshore,Cross-shore,Cross-shore,Cross-shore,Cross-shore",7
5842041f4e65fad6a7708a1d,2024_02_27,38.460477,-75.052069,Fenwick Island,1,0.20921904761904764,0.5107,6,5,"NIGHT_CLEAR,NIGHT_CLEAR,NIGHT_MOSTLY_CLEAR,NIGHT_CLEAR,NIGHT_CLEAR,NIGHT_MOSTLY_CLOUDY,NIGHT_CLEAR","Offshore,Offshore,Cross-shore,Cross-shore,Cross-shore,Cross-shore,Cross-shore",7
5842041f4e65fad6a7708a1e,2024_02_27,38.538767,-75.05619,Bethany Beach,1,0.3569280952380952,0.6021485714285715,6,5,"NIGHT_CLEAR,NIGHT_CLEAR,NIGHT_CLEAR,NIGHT_MOSTLY_CLOUDY,NIGHT_BRIEF_SHOWERS,NIGHT_MOSTLY_CLOUDY,NIGHT_CLEAR","Cross-shore,Cross-shore,Cross-shore,Cross-shore,Cross-shore,Cross-shore,Cross-shore",7
5842041f4e65fad6a7708a1f,2024_02_27,38.697657,-75.075951,Dewey Beach,1.9757142857142858,0.2982666666666667,0.5993904761904763,6,5,"NIGHT_CLEAR,NIGHT_CLEAR,NIGHT_CLEAR,NIGHT_MOSTLY_CLOUDY,NIGHT_MOSTLY_CLOUDY,NIGHT_CLEAR,NIGHT_MOSTLY_CLOUDY","Cross-shore,Cross-shore,Cross-shore,Cross-shore,Cross-shore,Cross-shore,Cross-shore",7
5842041f4e65fad6a7708a20,2024_02_27,38.75034741676525,-75.08194,Gordons Pond,1,0.28679190476190475,0.49256571428571433,6,5,"NIGHT_CLEAR,NIGHT_CLEAR,NIGHT_CLEAR,NIGHT_CLEAR,NIGHT_MOSTLY_CLOUDY,NIGHT_CLOUDY,NIGHT_CLOUDY","Onshore,Cross-shore,Onshore,Onshore,Onshore,Onshore,Onshore",7
5842041f4e65fad6a7708a21,2024_02_27,38.767837,-75.082841,Naval Jetties,0.9757142857142858,0.20731428571428573,0.5132,6,5,"NIGHT_CLEAR,NIGHT_CLEAR,NIGHT_CLEAR,NIGHT_CLEAR,NIGHT_MOSTLY_CLOUDY,NIGHT_CLOUDY,NIGHT_CLOUDY","Cross-shore,Offshore,Cross-shore,Cross-shore,Cross-shore,Cross-shore,Cross-shore",7
5842041f4e65fad6a7708a22,2024_02_27,36.81735875786576,-75.96624,Camp Pendleton,1,0.07952380952380954,0.38574285714285717,7,6,"NIGHT_CLEAR,NIGHT_CLEAR,NIGHT_MOSTLY_CLOUDY,NIGHT_CLEAR,NIGHT_CLEAR,NIGHT_CLEAR,NIGHT_MOSTLY_CLOUDY","Cross-shore,Cross-shore,Cross-shore,Cross-shore,Cross-shore,Cross-shore,Cross-shore",7
5842041f4e65fad6a7708a23,2024_02_27,36.9102212316428,-75.98732471466064,North End,0.5714285714285714,0,0.3053857142857143,7,6,"NIGHT_CLEAR,NIGHT_CLEAR,NIGHT_CLEAR,NIGHT_CLEAR,NIGHT_CLEAR,NIGHT_CLEAR,NIGHT_CLOUDY","Offshore,Cross-shore,Cross-shore,Offshore,Offshore,Cross-shore,Cross-shore",7
5842041f4e65fad6a7708a24,2024_02_27,36.737117517621314,-75.93923719853362,Sandbridge Beach,1,0.03000000000000001,0.3354095238095238,7,6,"NIGHT_CLEAR,NIGHT_CLEAR,NIGHT_CLEAR,NIGHT_CLEAR,NIGHT_CLEAR,NIGHT_MOSTLY_CLOUDY,NIGHT_MOSTLY_CLOUDY","Offshore,Offshore,Offshore,Offshore,Offshore,Offshore,Offshore",7
5842041f4e65fad6a7708a26,2024_02_27,36.818257440557794,-75.96666,Croatan to Pendleton,1,0.02630952380952381,0.3339571428571429,7,6,"NIGHT_CLEAR,NIGHT_CLEAR,NIGHT_MOSTLY_CLOUDY,NIGHT_CLEAR,NIGHT_CLEAR,NIGHT_CLEAR,NIGHT_MOSTLY_CLOUDY","Cross-shore,Cross-shore,Cross-shore,Cross-shore,Cross-shore,Cross-shore,Cross-shore",7
5842041f4e65fad6a7708a27,2024_02_27,36.84318777204769,-75.9719,South End,0.7385714285714285,0.02047619047619047,0.3216,7,6,"NIGHT_CLEAR,NIGHT_CLEAR,NIGHT_CLEAR,NIGHT_MOSTLY_CLOUDY,NIGHT_CLEAR,NIGHT_MOSTLY_CLOUDY,NIGHT_MOSTLY_CLOUDY","Cross-shore,Cross-shore,Cross-shore,Cross-shore,Cross-shore,Cross-shore,Cross-shore",7
5842041f4e65fad6a7708a28,2024_02_27,37.08612627584661,-75.976121638199,Fishermans Island,1,0.10914285714285714,0.23142857142857143,7,7,"NIGHT_CLEAR,NIGHT_CLEAR,NIGHT_CLEAR,NIGHT_MOSTLY_CLOUDY,NIGHT_MOSTLY_CLOUDY,NIGHT_CLOUDY,NIGHT_CLOUDY","Onshore,Onshore,Onshore,Onshore,Onshore,Onshore,Onshore",7
5842041f4e65fad6a7708a38,2024_02_27,35.254619418229026,-75.52074,Cape Hatteras Lighthouse,1,0.5473514285714286,0.826665,11,9,"NIGHT_CLEAR,NIGHT_CLEAR,NIGHT_CLEAR,NIGHT_CLEAR,NIGHT_CLEAR,NIGHT_CLEAR,NIGHT_CLEAR","Cross-shore,Cross-shore,Cross-shore,Cross-shore,Cross-shore,Cross-shore,Cross-shore",7
5842041f4e65fad6a7708a3a,2024_02_27,35.54572934093336,-75.46477,Waves and Salvo,1.0957142857142856,0.3162619047619048,0.6140952380952381,9,7,"NIGHT_CLEAR,NIGHT_CLEAR,NIGHT_CLEAR,NIGHT_CLEAR,NIGHT_CLEAR,NIGHT_CLEAR,NIGHT_CLEAR","Cross-shore,Cross-shore,Cross-shore,Cross-shore,Cross-shore,Cross-shore,Cross-shore",7
5842041f4e65fad6a7708a3b,2024_02_27,35.22565892751075,-75.63606,Frisco,0.9042857142857142,0.2383809523809524,0.5094761904761904,12,11,"NIGHT_CLEAR,NIGHT_CLEAR,NIGHT_CLEAR,NIGHT_CLEAR,NIGHT_CLEAR,NIGHT_CLEAR,NIGHT_CLEAR","Onshore,Onshore,Onshore,Onshore,Onshore,Onshore,Onshore",7
5842041f4e65fad6a7708a3c,2024_02_27,35.13086,-75.90591,Ocracoke,0.7142857142857143,0.30822571428571427,0.4816028571428571,9,9,"NIGHT_CLEAR,NIGHT_CLEAR,NIGHT_CLEAR,NIGHT_CLEAR,NIGHT_CLEAR,NIGHT_CLEAR,NIGHT_CLEAR","Onshore,Onshore,Onshore,Onshore,Onshore,Onshore,Onshore",7
5842041f4e65fad6a7708a3d,2024_02_27,35.34721340158342,-75.50084,Avon Pier,0.8814285714285715,0.5286285714285714,0.8290142857142857,9,8,"NIGHT_CLEAR,NIGHT_CLEAR,NIGHT_CLEAR,NIGHT_CLEAR,NIGHT_CLEAR,NIGHT_CLEAR,NIGHT_CLEAR","Cross-shore,Cross-shore,Cross-shore,Cross-shore,Cross-shore,Cross-shore,Cross-shore",7
5842041f4e65fad6a7708a3f,2024_02_27,35.71680821253768,-75.49243,Pea Island,1,0.12285714285714286,0.42857142857142855,7,7,"NIGHT_CLEAR,NIGHT_CLEAR,NIGHT_CLEAR,NIGHT_CLEAR,NIGHT_CLEAR,NIGHT_CLEAR,NIGHT_CLEAR","Offshore,Offshore,Offshore,Offshore,Offshore,Offshore,Offshore",7
5842041f4e65fad6a7708a40,2024_02_27,35.97427620657821,-75.62984,Nags Head Pier,1.8571428571428572,0.44612857142857143,0.7493714285714286,8,6,"NIGHT_CLEAR,NIGHT_CLEAR,NIGHT_CLEAR,NIGHT_CLEAR,NIGHT_CLEAR,NIGHT_CLEAR,NIGHT_CLEAR","Offshore,Offshore,Offshore,Offshore,Offshore,Offshore,Offshore",7
5842041f4e65fad6a7708a41,2024_02_27,36.0439998039079,-75.67288,Avalon Pier,1.0957142857142856,0.12283333333333335,0.43054761904761907,7,6,"NIGHT_CLEAR,NIGHT_CLEAR,NIGHT_CLEAR,NIGHT_CLEAR,NIGHT_CLEAR,NIGHT_CLEAR,NIGHT_CLEAR","Offshore,Offshore,Offshore,Offshore,Offshore,Offshore,Offshore",7
5842041f4e65fad6a7708a42,2024_02_27,36.03043116489792,-75.66413,First Street,1.5242857142857142,0.4439857142857143,0.7474666666666667,7,6,"NIGHT_CLEAR,NIGHT_CLEAR,NIGHT_CLEAR,NIGHT_CLEAR,NIGHT_CLEAR,NIGHT_CLEAR,NIGHT_CLEAR","Offshore,Offshore,Offshore,Offshore,Offshore,Offshore,Offshore",7
5842041f4e65fad6a7708a43,2024_02_27,36.06829910590498,-75.6899,Old Station/Laundromats,1.0957142857142856,0.14271428571428574,0.44197619047619047,7,6,"NIGHT_CLEAR,NIGHT_CLEAR,NIGHT_CLEAR,NIGHT_CLEAR,NIGHT_CLEAR,NIGHT_CLEAR,NIGHT_CLEAR","Offshore,Offshore,Offshore,Offshore,Offshore,Offshore,Offshore",7
5842041f4e65fad6a7708a44,2024_02_27,36.10126676607491,-75.71107462163894,Kitty Hawk Pier,1.5242857142857142,0.4386285714285715,0.7465142857142857,7,6,"NIGHT_CLEAR,NIGHT_CLEAR,NIGHT_CLEAR,NIGHT_CLEAR,NIGHT_CLEAR,NIGHT_CLEAR,NIGHT_MOSTLY_CLEAR","Offshore,Offshore,Offshore,Offshore,Offshore,Offshore,Offshore",7
5842041f4e65fad6a7708a45,2024_02_27,36.18220630068973,-75.75013580649097,Duck Pier,1,0.13402380952380955,0.4347142857142857,7,6,"NIGHT_CLEAR,NIGHT_CLEAR,NIGHT_CLEAR,NIGHT_CLEAR,NIGHT_CLEAR,NIGHT_CLEAR,NIGHT_CLEAR","Offshore,Offshore,Offshore,Offshore,Offshore,Offshore,Offshore",7
5842041f4e65fad6a7708a46,2024_02_27,36.37660668125033,-75.82409701687456,Corolla,1,0.2055714285714286,0.5076904761904762,7,6,"NIGHT_CLEAR,NIGHT_CLEAR,NIGHT_CLEAR,NIGHT_CLEAR,NIGHT_CLEAR,NIGHT_MOSTLY_CLOUDY,NIGHT_CLEAR","Offshore,Cross-shore,Offshore,Cross-shore,Offshore,Offshore,Cross-shore",7
5842041f4e65fad6a7708a47,2024_02_27,33.90373404124834,-78.08241431707907,Oak Island,1,0.06714285714285714,0.37142857142857144,12,12,"CLEAR,NIGHT_CLEAR,NIGHT_CLEAR,NIGHT_CLEAR,NIGHT_CLEAR,NIGHT_CLEAR,NIGHT_CLEAR","Onshore,Onshore,Onshore,Onshore,Onshore,Onshore,Onshore",7
5842041f4e65fad6a7708a48,2024_02_27,33.91108837766468,-78.29653,South Brunswick Beaches,1,0.3400814285714286,0.53138,11,11,"CLEAR,NIGHT_CLEAR,NIGHT_CLEAR,NIGHT_CLEAR,NIGHT_CLEAR,NIGHT_CLEAR,NIGHT_CLEAR","Onshore,Onshore,Onshore,Onshore,Onshore,Onshore,Onshore",7
5842041f4e65fad6a7708a49,2024_02_27,34.05683595651973,-77.88128,Carolina Beach Pier,0,-0.018333333333333333,0.2921809523809524,13,12,"CLEAR,NIGHT_CLEAR,NIGHT_CLEAR,NIGHT_CLEAR,NIGHT_CLEAR,NIGHT_CLEAR,NIGHT_CLEAR","Cross-shore,Cross-shore,Cross-shore,Cross-shore,Cross-shore,Cross-shore,Cross-shore",7
5842041f4e65fad6a7708a4a,2024_02_27,33.96841191816696,-77.9180242565498,Fort Fisher,0,-0.025000000000000005,0.28277619047619046,13,12,"CLEAR,NIGHT_CLEAR,NIGHT_CLEAR,NIGHT_CLEAR,NIGHT_CLEAR,NIGHT_CLEAR,NIGHT_CLEAR","Cross-shore,Cross-shore,Cross-shore,Cross-shore,Cross-shore,Cross-shore,Cross-shore",7
5842041f4e65fad6a7708a4b,2024_02_27,34.46776662988774,-77.47083191635772,Topsail Beach,0.9042857142857142,0.06321428571428571,0.36533333333333334,12,11,"CLEAR,NIGHT_CLEAR,NIGHT_CLEAR,NIGHT_CLEAR,NIGHT_CLEAR,NIGHT_CLEAR,NIGHT_CLEAR","Onshore,Onshore,Onshore,Onshore,Onshore,Onshore,Onshore",7
5842041f4e65fad6a7708a4c,2024_02_27,34.69270354752445,-76.82854854446575,Iron Steamer,0,-0.01261904761904761,0.2936095238095238,12,11,"NIGHT_CLEAR,NIGHT_CLEAR,NIGHT_CLEAR,NIGHT_CLEAR,NIGHT_CLEAR,NIGHT_CLEAR,NIGHT_CLEAR","Onshore,Onshore,Onshore,Onshore,Onshore,Onshore,Onshore",7
5842041f4e65fad6a7708a4f,2024_02_27,30.85132684893727,-81.42283496231143,Cumberland Island,1,0.09714285714285714,0.4042857142857143,14,14,"MIST,NIGHT_CLEAR,NIGHT_CLEAR,NIGHT_CLEAR,NIGHT_CLEAR,NIGHT_CLEAR,NIGHT_CLEAR","Onshore,Onshore,Onshore,Onshore,Onshore,Cross-shore,Cross-shore",7
5842041f4e65fad6a7708a50,2024_02_27,34.686741128540874,-76.47516712138378,Cape Lookout National Seashore,1,0.29,0.5942857142857143,10,10,"NIGHT_CLEAR,NIGHT_CLEAR,NIGHT_CLEAR,NIGHT_CLEAR,NIGHT_CLEAR,NIGHT_CLEAR,NIGHT_CLEAR","Cross-shore,Cross-shore,Cross-shore,Cross-shore,Cross-shore,Cross-shore,Cross-shore",7
5842041f4e65fad6a7708a51,2024_02_27,31.10585419260024,-81.40422767604812,Jekyll Island,0.42857142857142855,0,0.27142857142857146,14,14,"CLEAR,NIGHT_CLEAR,NIGHT_CLEAR,NIGHT_CLEAR,NIGHT_CLEAR,NIGHT_CLEAR,NIGHT_CLEAR","Onshore,Onshore,Onshore,Cross-shore,Cross-shore,Cross-shore,Cross-shore",7
5842041f4e65fad6a7708a52,2024_02_27,31.16212806376699,-81.32512426500224,Harbor Marker Buoys,1,0.027142857142857142,0.33,13,13,"CLEAR,NIGHT_CLEAR,NIGHT_CLEAR,NIGHT_CLEAR,NIGHT_CLEAR,NIGHT_CLEAR,NIGHT_CLEAR","Onshore,Onshore,Onshore,Onshore,Onshore,Cross-shore,Cross-shore",7
5842041f4e65fad6a7708a53,2024_02_27,31.20076299997009,-81.32629,Sea Island,1,0.05428571428571429,0.3628571428571429,13,13,"MIST,NIGHT_MIST,NIGHT_MIST,NIGHT_MIST,NIGHT_MIST,NIGHT_CLEAR,NIGHT_CLEAR","Onshore,Onshore,Onshore,Onshore,Onshore,Onshore,Onshore",7
5842041f4e65fad6a7708a54,2024_02_27,31.13553222995767,-81.38457634790909,St. Simons Island,1,0.032857142857142856,0.33285714285714285,13,13,"MIST,NIGHT_MIST,NIGHT_MIST,NIGHT_MIST,NIGHT_MIST,NIGHT_MIST,NIGHT_MIST","Onshore,Onshore,Onshore,Onshore,Onshore,Onshore,Onshore",7
5842041f4e65fad6a7708a55,2024_02_27,31.33550077186516,-81.28383377408417,Wolf Island,1,0.018571428571428572,0.2985714285714286,13,13,"MIST,NIGHT_MIST,NIGHT_MIST,NIGHT_MIST,NIGHT_MIST,NIGHT_CLEAR,NIGHT_CLEAR","Onshore,Onshore,Onshore,Onshore,Onshore,Cross-shore,Cross-shore",7
5842041f4e65fad6a7708a56,2024_02_27,31.2704493877174,-81.27324039152315,Little St. Simons Island,1.1428571428571428,0.05285714285714286,0.36,13,13,"MIST,NIGHT_CLEAR,NIGHT_CLEAR,NIGHT_CLEAR,NIGHT_CLEAR,NIGHT_CLEAR,NIGHT_CLEAR","Onshore,Onshore,Cross-shore,Cross-shore,Cross-shore,Cross-shore,Cross-shore",7
5842041f4e65fad6a7708a57,2024_02_27,31.39261761368919,-81.26190520231917,Sapelo Island,1,0.025714285714285714,0.3257142857142857,13,13,"CLEAR,NIGHT_CLEAR,NIGHT_CLEAR,NIGHT_CLEAR,NIGHT_CLEAR,NIGHT_CLEAR,NIGHT_CLEAR","Onshore,Onshore,Onshore,Onshore,Onshore,Onshore,Onshore",7
5842041f4e65fad6a7708a58,2024_02_27,34.42458783809001,-77.54492,Surf City Pier,0.9042857142857142,0.0619047619047619,0.3667619047619048,12,11,"CLEAR,NIGHT_CLEAR,NIGHT_CLEAR,NIGHT_CLEAR,NIGHT_CLEAR,NIGHT_CLEAR,NIGHT_CLEAR","Onshore,Onshore,Onshore,Onshore,Onshore,Onshore,Onshore",7
5842041f4e65fad6a7708a59,2024_02_27,31.4231993614213,-81.24725340591522,Cabretta Island,1,0.04285714285714286,0.35,13,13,"CLEAR,NIGHT_CLEAR,NIGHT_CLEAR,NIGHT_CLEAR,NIGHT_CLEAR,NIGHT_CLEAR,NIGHT_CLEAR","Onshore,Onshore,Onshore,Onshore,Onshore,Onshore,Onshore",7
5842041f4e65fad6a7708a5a,2024_02_27,31.46684389030369,-81.2100056410468,Blackbeard Island,1,0.025714285714285714,0.3257142857142857,13,13,"CLEAR,NIGHT_CLEAR,NIGHT_CLEAR,NIGHT_CLEAR,NIGHT_CLEAR,NIGHT_CLEAR,NIGHT_CLEAR","Onshore,Onshore,Onshore,Onshore,Onshore,Onshore,Onshore",7
5842041f4e65fad6a7708a5b,2024_02_27,31.85953587631629,-80.99031310336719,Wassaw Island/South End,0,0,0.16142857142857142,13,13,"MIST,NIGHT_MIST,NIGHT_MIST,NIGHT_CLEAR,NIGHT_CLEAR,NIGHT_CLEAR,NIGHT_CLEAR","Onshore,Onshore,Onshore,Onshore,Onshore,Onshore,Onshore",7
5842041f4e65fad6a7708a5c,2024_02_27,31.62535662342983,-81.13328352167974,St. Catherines Island,1,0.03,0.33285714285714285,13,13,"CLEAR,NIGHT_CLEAR,NIGHT_CLEAR,NIGHT_CLEAR,NIGHT_CLEAR,NIGHT_CLEAR,NIGHT_CLEAR","Onshore,Onshore,Onshore,Onshore,Cross-shore,Cross-shore,Cross-shore",7
5842041f4e65fad6a7708a5d,2024_02_27,31.76502169596568,-81.07655443806622,Ossabaw Island,1,0.0014285714285714286,0.2785714285714286,13,13,"MIST,NIGHT_MIST,NIGHT_MIST,NIGHT_MIST,NIGHT_MIST,NIGHT_MIST,NIGHT_MIST","Onshore,Onshore,Onshore,Onshore,Onshore,Cross-shore,Cross-shore",7
5842041f4e65fad6a7708a5e,2024_02_27,31.90593619092352,-80.93589231700857,Wassaw Island/North End,1,0.05285714285714286,0.35714285714285715,13,13,"MIST,NIGHT_MIST,NIGHT_MIST,NIGHT_MIST,NIGHT_MIST,NIGHT_CLEAR,NIGHT_CLEAR","Onshore,Onshore,Onshore,Onshore,Onshore,Onshore,Onshore",7
5842041f4e65fad6a7708a5f,2024_02_27,31.96738675414547,-80.86977980706155,Little Tybee Island,1,0.017142857142857144,0.3085714285714286,13,13,"MIST,NIGHT_MIST,NIGHT_MIST,NIGHT_CLEAR,NIGHT_CLEAR,NIGHT_CLEAR,NIGHT_CLEAR","Onshore,Onshore,Onshore,Onshore,Onshore,Onshore,Onshore",7
5842041f4e65fad6a7708a60,2024_02_27,31.9812255780179,-80.84773973467009,South Tybee Sandbars,1,0.005714285714285714,0.27285714285714285,13,13,"MIST,NIGHT_MIST,NIGHT_MIST,NIGHT_CLEAR,NIGHT_CLEAR,NIGHT_CLEAR,NIGHT_CLEAR","Onshore,Cross-shore,Cross-shore,Cross-shore,Cross-shore,Cross-shore,Cross-shore",7
5842041f4e65fad6a7708a61,2024_02_27,32.01226,-80.83983,Sugar Shack,0.42857142857142855,0,0.22714285714285715,13,13,"CLEAR,NIGHT_MIST,NIGHT_BRIEF_SHOWERS_POSSIBLE,NIGHT_MIST,NIGHT_MIST,NIGHT_CLEAR,NIGHT_CLEAR","Cross-shore,Cross-shore,Cross-shore,Cross-shore,Cross-shore,Offshore,Offshore",7
5842041f4e65fad6a7708a62,2024_02_27,31.98722842396969,-80.84773,18th St. Jetty,1,0.21841714285714287,0.3412757142857143,13,13,"MIST,NIGHT_MIST,NIGHT_MIST,NIGHT_MIST,NIGHT_MIST,NIGHT_CLEAR,NIGHT_CLEAR","Onshore,Cross-shore,Cross-shore,Cross-shore,Cross-shore,Cross-shore,Cross-shore",7
5842041f4e65fad6a7708a64,2024_02_27,34.013473721006676,-77.8991,"Alabama Ave., Kure Beach",1,0.047142857142857146,0.35,12,12,"CLEAR,NIGHT_CLEAR,NIGHT_CLEAR,NIGHT_CLEAR,NIGHT_CLEAR,NIGHT_CLEAR,NIGHT_CLEAR","Offshore,Offshore,Offshore,Offshore,Offshore,Offshore,Offshore",7
5842041f4e65fad6a7708a65,2024_02_27,34.20859853336924,-77.79293,"C Street, Wrightsville Beach",0,-0.006309523809523809,0.29563333333333336,13,12,"CLEAR,NIGHT_CLEAR,NIGHT_CLEAR,NIGHT_CLEAR,NIGHT_CLEAR,NIGHT_CLEAR,NIGHT_CLEAR","Cross-shore,Cross-shore,Cross-shore,Onshore,Cross-shore,Cross-shore,Cross-shore",7
5842041f4e65fad6a7708a66,2024_02_27,32.831,-79.71,Dewees Island,0,0,0.26142857142857145,12,12,"CLEAR,NIGHT_CLEAR,NIGHT_CLEAR,NIGHT_MOSTLY_CLOUDY,NIGHT_CLEAR,NIGHT_CLEAR,NIGHT_CLEAR","Cross-shore,Cross-shore,Cross-shore,Cross-shore,Cross-shore,Cross-shore,Cross-shore",7
5842041f4e65fad6a7708a67,2024_02_27,33.82924423172106,-78.62813,Cherry Grove Pier,0,-0.035476190476190474,0.26765714285714287,11,11,"CLEAR,NIGHT_CLEAR,NIGHT_CLEAR,NIGHT_CLEAR,NIGHT_CLEAR,NIGHT_CLEAR,NIGHT_CLEAR","Onshore,Onshore,Onshore,Onshore,Onshore,Onshore,Onshore",7
5842041f4e65fad6a7708a69,2024_02_27,34.27197439666496,-77.74050223196774,Figure Eight and Shell Islands,0,-0.01714285714285715,0.2919428571428571,13,12,"CLEAR,NIGHT_CLEAR,NIGHT_CLEAR,NIGHT_CLEAR,NIGHT_CLEAR,NIGHT_CLEAR,NIGHT_CLEAR","Onshore,Onshore,Onshore,Onshore,Onshore,Onshore,Onshore",7
5842041f4e65fad6a7708a6b,2024_02_27,33.49041958261793,-79.07666070599386,North End,1,0.08714285714285715,0.39,11,11,"CLEAR,NIGHT_CLEAR,NIGHT_CLEAR,NIGHT_CLEAR,NIGHT_CLEAR,NIGHT_CLEAR,NIGHT_CLEAR","Onshore,Onshore,Onshore,Onshore,Onshore,Onshore,Onshore",7
5842041f4e65fad6a7708a6c,2024_02_27,33.39537062495087,-79.13835037835189,The South End,0.42857142857142855,0.008571428571428572,0.30857142857142855,12,12,"CLEAR,NIGHT_CLEAR,NIGHT_CLEAR,NIGHT_CLEAR,NIGHT_CLEAR,NIGHT_CLEAR,NIGHT_CLEAR","Cross-shore,Cross-shore,Cross-shore,Cross-shore,Cross-shore,Cross-shore,Cross-shore",7
5842041f4e65fad6a7708a6d,2024_02_27,33.29001727666697,-79.17190003352977,North Island,0.14285714285714285,0.0014285714285714286,0.29428571428571426,12,12,"CLEAR,NIGHT_CLEAR,NIGHT_CLEAR,NIGHT_CLEAR,NIGHT_MOSTLY_CLEAR,NIGHT_CLEAR,NIGHT_CLEAR","Cross-shore,Cross-shore,Cross-shore,Cross-shore,Cross-shore,Cross-shore,Cross-shore",7
5842041f4e65fad6a7708a6e,2024_02_27,32.90929771158952,-79.57810400297359,Bull Island,0.2857142857142857,0.005714285714285714,0.3028571428571428,12,12,"CLEAR,NIGHT_CLEAR,NIGHT_CLEAR,NIGHT_MOSTLY_CLOUDY,NIGHT_MOSTLY_CLEAR,NIGHT_CLEAR,NIGHT_CLEAR","Cross-shore,Onshore,Onshore,Onshore,Cross-shore,Onshore,Cross-shore",7
5842041f4e65fad6a7708a6f,2024_02_27,31.99153112815895,-80.84543050470074,Tybee Island Pier,0,0,0.15000000000000002,13,13,"CLEAR,NIGHT_MIST,NIGHT_MIST,NIGHT_CLEAR,NIGHT_CLEAR,NIGHT_CLEAR,NIGHT_CLEAR","Onshore,Onshore,Cross-shore,Cross-shore,Onshore,Cross-shore,Cross-shore",7
5842041f4e65fad6a7708a70,2024_02_27,33.03478144356316,-79.35021028265125,Cape Romain,1,0.07285714285714286,0.3757142857142857,12,12,"CLEAR,NIGHT_CLEAR,NIGHT_CLEAR,NIGHT_CLEAR,NIGHT_CLEAR,NIGHT_CLEAR,NIGHT_CLEAR","Cross-shore,Cross-shore,Cross-shore,Cross-shore,Cross-shore,Cross-shore,Cross-shore",7
5842041f4e65fad6a7708a71,2024_02_27,33.43231073271028,-79.11789,The Pier,0,0.16652142857142857,0.26019,11,11,"CLEAR,NIGHT_CLEAR,NIGHT_CLEAR,NIGHT_CLEAR,NIGHT_CLEAR,NIGHT_CLEAR,NIGHT_CLEAR","Cross-shore,Cross-shore,Cross-shore,Cross-shore,Cross-shore,Cross-shore,Cross-shore",7
5842041f4e65fad6a7708a72,2024_02_27,33.45423621397969,-79.10497798178424,South Litchfield,1,0.02142857142857143,0.3271428571428572,11,11,"CLEAR,NIGHT_CLEAR,NIGHT_CLEAR,NIGHT_CLEAR,NIGHT_CLEAR,NIGHT_CLEAR,NIGHT_CLEAR","Cross-shore,Cross-shore,Onshore,Cross-shore,Cross-shore,Onshore,Cross-shore",7
5842041f4e65fad6a7708a73,2024_02_27,34.19316590251396,-77.8045,Crystal Pier,0,-0.002380952380952381,0.29741904761904764,13,12,"CLEAR,NIGHT_CLEAR,NIGHT_CLEAR,NIGHT_CLEAR,NIGHT_CLEAR,NIGHT_CLEAR,NIGHT_CLEAR","Cross-shore,Cross-shore,Cross-shore,Cross-shore,Cross-shore,Cross-shore,Cross-shore",7
5842041f4e65fad6a7708a74,2024_02_27,33.68628680045124,-78.883460274301,Myrtle Beach,0,-0.05071428571428571,0.25706190476190477,11,11,"CLEAR,NIGHT_CLEAR,NIGHT_CLEAR,NIGHT_CLEAR,NIGHT_MOSTLY_CLOUDY,NIGHT_CLEAR,NIGHT_CLEAR","Onshore,Onshore,Onshore,Onshore,Onshore,Onshore,Onshore",7
