_id,date,lat,lon,name,daily_mean_swell_rating,daily_mean_wave_height_min,daily_mean_wave_height_max,daily_mean_water_temperature_max,daily_mean_water_temperature_min,weather_per_timestamp,wind_per_timestamp,n_samples_per_day
5842041f4e65fad6a77087f9,2024_11_25,37.741668,-122.51038,South Ocean Beach,4,1.4417300000000002,1.75828,12,12,"NIGHT_MOSTLY_CLOUDY,NIGHT_OVERCAST","Offshore,Offshore",2
5842041f4e65fad6a7708801,2024_11_25,37.49142,-122.50428,Maverick's,NA,1.725,2.025,12,12,"NIGHT_FOG,NIGHT_RAIN","Onshore,Cross-shore",2
5842041f4e65fad6a7708804,2024_11_25,44.997,-124.018,Roads End,2.5,1.73,2.035,11,11,"NIGHT_BRIEF_SHOWERS,NIGHT_MOSTLY_CLEAR","Cross-shore,Cross-shore",2
5842041f4e65fad6a7708805,2024_11_25,36.95188851423011,-122.02522,Steamer Lane,3,1.03,1.23,12,12,"NIGHT_OVERCAST,NIGHT_OVERCAST","Offshore,Cross-shore",2
5842041f4e65fad6a7708806,2024_11_25,36.95918781542251,-122.02489,Cowells,2,0.115,0.42,12,12,"NIGHT_OVERCAST,NIGHT_OVERCAST","Offshore,Onshore",2
5842041f4e65fad6a7708807,2024_11_25,36.95468082526536,-121.97234,Pleasure Point,3,0.971055,1.1906949999999998,12,12,"NIGHT_CLEAR,NIGHT_OVERCAST","Offshore,Onshore",2
5842041f4e65fad6a770880a,2024_11_25,35.37815414378748,-120.86589,Morro Bay,3,0.835,1.095,12,12,"NIGHT_OVERCAST,NIGHT_HEAVY_RAIN","Offshore,Offshore",2
5842041f4e65fad6a770880b,2024_11_25,36.95782765000708,-121.96729,Jack's,2.5,0.47519500000000003,0.775495,12,12,"NIGHT_CLEAR,NIGHT_OVERCAST","Cross-shore,Onshore",2
5842041f4e65fad6a770880d,2024_11_25,34.29982939936656,-119.3489016603669,Gold Coast Beachbreaks,2,0.12,0.425,14,14,"NIGHT_MOSTLY_CLEAR,NIGHT_OVERCAST","Offshore,Offshore",2
5842041f4e65fad6a7708811,2024_11_25,34.245076,-119.26799,Ventura Harbor,3,0.47,0.78,13,13,"NIGHT_MOSTLY_CLEAR,NIGHT_CLOUDY","Offshore,Offshore",2
5842041f4e65fad6a7708813,2024_11_25,34.051,-118.964,County Line,3,0.38,0.685,13,13,"NIGHT_MOSTLY_CLOUDY,NIGHT_CLEAR","Offshore,Offshore",2
5842041f4e65fad6a7708814,2024_11_25,34.37256264378892,-119.47797,Rincon,2,0.14,0.44,14,14,"NIGHT_MOSTLY_CLOUDY,NIGHT_CLEAR","Onshore,Offshore",2
5842041f4e65fad6a7708817,2024_11_25,34.03096101876324,-118.68109,Malibu Third Point,2.5,0.35048999999999997,0.64966,15,15,"NIGHT_MOSTLY_CLOUDY,NIGHT_CLEAR","Cross-shore,Cross-shore",2
5842041f4e65fad6a7708819,2024_11_25,33.984079047970035,-118.47382,Venice Beach,3,0.437685,0.741995,14,14,"NIGHT_MOSTLY_CLOUDY,NIGHT_CLEAR","Offshore,Offshore",2
5842041f4e65fad6a770881e,2024_11_25,34.037508438646746,-118.5834,Topanga Beach,3,0.32,0.625,14,14,"NIGHT_CLEAR,NIGHT_CLEAR","Cross-shore,Cross-shore",2
5842041f4e65fad6a7708820,2024_11_25,33.73954373690184,-118.11414,Seal Beach Jetty,2,0.22999999999999998,0.535,14,14,"NIGHT_MOSTLY_CLOUDY,NIGHT_CLEAR","Offshore,Offshore",2
5842041f4e65fad6a7708822,2024_11_25,33.72309983348433,-118.08078,Anderson Street,1,-0.01376,0.19968,14,14,"NIGHT_CLEAR,NIGHT_CLEAR","Offshore,Offshore",2
5842041f4e65fad6a7708827,2024_11_25,33.65574085629463,-118.00397,Huntington Beach Pier Northside,3,0.523605,0.83704,14,14,"NIGHT_MOSTLY_CLOUDY,NIGHT_CLEAR","Cross-shore,Offshore",2
5842041f4e65fad6a7708828,2024_11_25,34.272041739333,-119.29976,C St.,2.5,0.278345,0.60396,13,13,"NIGHT_CLEAR,NIGHT_CLEAR","Offshore,Offshore",2
5842041f4e65fad6a770882a,2024_11_25,33.61555743705257,-117.93676,Newport Lower Jetties,3,0.33968,0.64343,13,13,"NIGHT_MOSTLY_CLOUDY,NIGHT_CLEAR","Offshore,Offshore",2
5842041f4e65fad6a770882b,2024_11_25,33.5930302087,-117.88199,The Wedge,2,0.595,0.9,14,14,"NIGHT_MOSTLY_CLOUDY,NIGHT_CLEAR","Cross-shore,Offshore",2
5842041f4e65fad6a770882e,2024_11_25,33.475793399792984,-117.72291,Salt Creek,3,0.509215,0.799365,14,14,"NIGHT_MOSTLY_CLOUDY,NIGHT_CLEAR","Offshore,Offshore",2
5842041f4e65fad6a7708830,2024_11_25,33.41800974113613,-117.61952,T-Street,3,0.39103,0.72459,14,14,"NIGHT_CLEAR,NIGHT_CLEAR","Offshore,Cross-shore",2
5842041f4e65fad6a7708832,2024_11_25,33.202391008646,-117.39475,Oceanside Harbor,3,0.406395,0.714675,15,15,"NIGHT_CLEAR,NIGHT_CLEAR","Offshore,Offshore",2
5842041f4e65fad6a7708835,2024_11_25,33.19477795952803,-117.38667,Oceanside Pier,3,0.334205,0.629625,15,15,"NIGHT_CLEAR,NIGHT_CLEAR","Offshore,Offshore",2
5842041f4e65fad6a7708837,2024_11_25,33.14948100706,-117.35029,Tamarack,3,0.390215,0.712705,15.5,15.5,"NIGHT_CLEAR,NIGHT_CLEAR","Offshore,Offshore",2
5842041f4e65fad6a7708839,2024_11_25,32.865777159358856,-117.25614,Scripps,3,0.60868,0.93571,15,15,"NIGHT_CLEAR,NIGHT_CLEAR","Cross-shore,Cross-shore",2
5842041f4e65fad6a770883a,2024_11_25,32.813094,-117.27381,Birdrock,3,0.48,0.785,15.5,15.5,"NIGHT_CLEAR,NIGHT_CLEAR","Offshore,Offshore",2
5842041f4e65fad6a770883b,2024_11_25,32.88338,-117.25571,Blacks,3,0.655,0.96,15,15,"NIGHT_CLEAR,NIGHT_CLEAR","Onshore,Onshore",2
5842041f4e65fad6a770883c,2024_11_25,32.82978974229765,-117.28162,Windansea,2,0.5449999999999999,0.855,15,15,"NIGHT_MOSTLY_CLEAR,NIGHT_CLEAR","Cross-shore,Offshore",2
5842041f4e65fad6a770883d,2024_11_25,32.838278,-117.28396,Horseshoe,2.5,0.5449999999999999,0.855,15.5,15.5,"NIGHT_MOSTLY_CLEAR,NIGHT_CLEAR","Cross-shore,Offshore",2
5842041f4e65fad6a770883f,2024_11_25,32.75034717673179,-117.25337,Ocean Beach,3,0.67,0.97,15,15,"NIGHT_CLEAR,NIGHT_CLEAR","Cross-shore,Offshore",2
5842041f4e65fad6a7708840,2024_11_25,32.73693,-117.25718,Sunset Cliffs,2,0.505,0.81,15.5,15.5,"NIGHT_MIST,NIGHT_CLEAR","Cross-shore,Offshore",2
5842041f4e65fad6a7708841,2024_11_25,32.796582258728826,-117.25779,Pacific Beach,3,0.575,0.885,15,15,"NIGHT_CLEAR,NIGHT_CLEAR","Offshore,Offshore",2
5842041f4e65fad6a7708842,2024_11_25,32.776636,-117.25514,Mission Beach,3,0.5900000000000001,0.895,15,15,"NIGHT_CLEAR,NIGHT_CLEAR","Cross-shore,Offshore",2
5842041f4e65fad6a7708844,2024_11_25,32.577195519016,-117.13475,Imperial Beach Pier,3,0.585,0.89,15.5,15.5,"NIGHT_CLEAR,NIGHT_CLEAR","Offshore,Offshore",2
5842041f4e65fad6a770884a,2024_11_25,42.88678181061,-70.80843,Seabrook,0.25,0,0.19553500000000001,11,9,"NIGHT_CLEAR,CLEAR","Offshore,Offshore",2
5842041f4e65fad6a770884e,2024_11_25,41.434181432898335,-71.45312,Narragansett,0,0,0.13266499999999998,11,10,"NIGHT_CLEAR,CLEAR","Offshore,Offshore",2
5842041f4e65fad6a7708850,2024_11_25,40.582703230722,-73.65247,Lincoln Blvd,0,0,0.1685,11,10,"NIGHT_CLEAR,CLEAR","Cross-shore,Cross-shore",2
5842041f4e65fad6a7708852,2024_11_25,40.58342841721757,-73.81182,Rockaways,0.25,0.12911499999999998,0.31436,11,10,"NIGHT_CLEAR,CLEAR","Cross-shore,Cross-shore",2
5842041f4e65fad6a7708853,2024_11_25,40.330474,-73.9734,Monmouth Beach,0,0,0.17350000000000002,11,11,"NIGHT_CLEAR,CLEAR","Offshore,Offshore",2
5842041f4e65fad6a7708856,2024_11_25,40.113,-74.028,Manasquan Inlet,-0.16666666666666674,0,0.135765,11,11,"NIGHT_CLEAR,CLEAR","Offshore,Offshore",2
5842041f4e65fad6a7708857,2024_11_25,39.941519877445664,-74.06829,Casino Pier,0,0,0.1391,11,11,"NIGHT_CLEAR,CLEAR","Offshore,Offshore",2
5842041f4e65fad6a7708858,2024_11_25,39.28223089949212,-74.55766,North End OC,-0.41666666666666674,0,0.23006500000000002,11,10,"NIGHT_CLEAR,CLEAR","Offshore,Offshore",2
5842041f4e65fad6a770885b,2024_11_25,39.65080599934257,-74.17146,Ship Bottom,0.25,0,0.270865,13.5,13.5,"NIGHT_CLEAR,CLEAR","Offshore,Offshore",2
5842041f4e65fad6a7708863,2024_11_25,36.034151543144,-75.66791,Third Street,1,0,0.296165,16,14,"NIGHT_CLEAR,CLEAR","Offshore,Offshore",2
5842041f4e65fad6a7708867,2024_11_25,35.605833221351425,-75.46303,S-Turns,1.75,0.21152500000000002,0.515495,16,14,"NIGHT_CLEAR,CLEAR","Offshore,Offshore",2
5842041f4e65fad6a770886d,2024_11_25,38.338461,-75.08117,Ocean City Boardwalk,0,0,0.16328,14,13,"NIGHT_CLEAR,CLEAR","Cross-shore,Cross-shore",2
5842041f4e65fad6a770886f,2024_11_25,29.844757212379562,-81.26136,A St.,1,0,0.235,22,22,"NIGHT_CLEAR,MIST","Offshore,Offshore",2
5842041f4e65fad6a7708871,2024_11_25,29.069417851135093,-80.90824,New Smyrna Beach,1.4090909090909092,0.15553499999999998,0.46315000000000006,24,23,"NIGHT_CLEAR,CLEAR","Offshore,Offshore",2
5842041f4e65fad6a7708872,2024_11_25,28.367707417566,-80.60171,Cocoa Beach Pier,1,0,0.258865,23,23,"NIGHT_CLEAR,CLEAR","Cross-shore,Offshore",2
5842041f4e65fad6a7708873,2024_11_25,28.091782738658846,-80.56479,Indialantic,0.6666666666666666,0,0.2972,23,23,"NIGHT_CLEAR,MIST","Offshore,Cross-shore",2
5842041f4e65fad6a7708876,2024_11_25,27.25392904143517,-80.19455,Jensen Beach,0.5,0.027000000000000003,0.29591999999999996,24,23,"NIGHT_MOSTLY_CLOUDY,CLEAR","Offshore,Onshore",2
5842041f4e65fad6a7708879,2024_11_25,26.76346795333825,-80.03607,Reef Road,0.16666666666666669,2.5e-4,0.157025,26,25,"NIGHT_MOSTLY_CLOUDY,MOSTLY_CLOUDY","Onshore,Onshore",2
5842041f4e65fad6a770887c,2024_11_25,26.336499228484,-80.06956100463,Boca Raton Inlet,0.75,0,0.243665,26,25,"NIGHT_CLEAR,OVERCAST","Onshore,Onshore",2
5842041f4e65fad6a770887d,2024_11_25,26.31719311695038,-80.07453,Deerfield Beach Pier,0,0,0.15276499999999998,27,25,"NIGHT_CLEAR,OVERCAST","Onshore,Onshore",2
5842041f4e65fad6a7708881,2024_11_25,30.20276320866628,-85.85626528676136,"Spyglass Dr., Panama City",0,0,0.160685,21,20,"NIGHT_CLEAR,MOSTLY_CLOUDY","Onshore,Onshore",2
5842041f4e65fad6a7708884,2024_11_25,33.39000832738053,-117.59852,Cottons,3,0.59,0.89,14,14,"NIGHT_MOSTLY_CLOUDY,NIGHT_CLEAR","Offshore,Offshore",2
5842041f4e65fad6a7708885,2024_11_25,33.359416282661,-117.54168,Trails,3,0.36,0.665,15.5,15.5,"NIGHT_CLEAR,NIGHT_CLEAR","Offshore,Offshore",2
5842041f4e65fad6a7708886,2024_11_25,33.38042605929805,-117.58332,Middles,3,0.53,0.8300000000000001,15.5,15.5,"NIGHT_MOSTLY_CLOUDY,NIGHT_CLEAR","Offshore,Offshore",2
5842041f4e65fad6a7708887,2024_11_25,33.38445596302903,-117.59445,Upper Trestles,3,0.545,0.85,14,14,"NIGHT_MOSTLY_CLOUDY,NIGHT_CLEAR","Offshore,Offshore",2
5842041f4e65fad6a7708889,2024_11_25,28.944414,-95.28883,Surfside,1,0.742235,1.092895,23.5,23.5,"NIGHT_CLEAR,MOSTLY_CLEAR","Onshore,Onshore",2
5842041f4e65fad6a770888a,2024_11_25,33.38143999849023,-117.58843,Lower Trestles,3,0.566565,0.902,14,14,"NIGHT_MOSTLY_CLOUDY,NIGHT_CLEAR","Offshore,Offshore",2
5842041f4e65fad6a770888b,2024_11_25,33.379622288757,-117.57894,Church,3,0.55,0.86,14,14,"NIGHT_MOSTLY_CLOUDY,NIGHT_CLEAR","Offshore,Offshore",2
5842041f4e65fad6a770888d,2024_11_25,21.679,-158.042,Sunset Beach,4,2.33,2.755,26,25,"NIGHT_MOSTLY_CLOUDY,NIGHT_FOG","Cross-shore,Offshore",2
5842041f4e65fad6a770888e,2024_11_25,21.670550036401,-158.0482,Rocky Point,4,2.145735,2.599625,26,25,"NIGHT_MOSTLY_CLOUDY,NIGHT_BRIEF_SHOWERS","Cross-shore,Offshore",2
5842041f4e65fad6a770888f,2024_11_25,21.668,-158.05,Chambers,4,2.476015,2.904555,26,26,"NIGHT_MOSTLY_CLOUDY,NIGHT_BRIEF_SHOWERS","Cross-shore,Offshore",2
5842041f4e65fad6a7708890,2024_11_25,21.66522,-158.0526,Pipeline,4,1.94721,2.346885,26,25,"NIGHT_MOSTLY_CLOUDY,NIGHT_BRIEF_SHOWERS","Cross-shore,Offshore",2
5842041f4e65fad6a7708891,2024_11_25,21.665,-158.054,Backdoor,4,2.0549999999999997,2.4050000000000002,26,25,"NIGHT_MOSTLY_CLOUDY,NIGHT_BRIEF_SHOWERS","Onshore,Offshore",2
5842041f4e65fad6a7708892,2024_11_25,21.662,-158.057,Rockpile,3,2.3499999999999996,2.785,26,26,"NIGHT_MOSTLY_CLOUDY,NIGHT_BRIEF_SHOWERS","Onshore,Offshore",2
5842041f4e65fad6a7708893,2024_11_25,21.65870453806827,-158.06058,Log Cabins,3.5,1.9249999999999998,2.3049999999999997,26,26,"NIGHT_MOSTLY_CLOUDY,NIGHT_BRIEF_SHOWERS","Onshore,Offshore",2
5842041f4e65fad6a7708894,2024_11_25,21.66203493640557,-158.05495,Off-The-Wall,4,2.2800000000000002,2.6849999999999996,26,26,"NIGHT_MOSTLY_CLOUDY,NIGHT_BRIEF_SHOWERS","Onshore,Offshore",2
5842041f4e65fad6a7708895,2024_11_25,21.643,-158.067,Waimea Bay,NA,2.5300000000000002,2.91,26,25,"NIGHT_MOSTLY_CLOUDY,NIGHT_BRIEF_SHOWERS","Cross-shore,Offshore",2
5842041f4e65fad6a7708896,2024_11_25,21.622,-158.087,Hultin's,3,2.665,3.02,26,25,"NIGHT_MOSTLY_CLOUDY,NIGHT_BRIEF_SHOWERS","Cross-shore,Cross-shore",2
5842041f4e65fad6a7708897,2024_11_25,21.623,-158.085,Jocko's,3,1.7847650000000002,2.29035,26,26,"NIGHT_MOSTLY_CLOUDY,NIGHT_BRIEF_SHOWERS","Onshore,Onshore",2
5842041f4e65fad6a7708898,2024_11_25,21.62,-158.088,Laniakea,3,2.11,2.525,26,25,"NIGHT_MOSTLY_CLOUDY,NIGHT_BRIEF_SHOWERS","Onshore,Onshore",2
5842041f4e65fad6a7708899,2024_11_25,21.625,-158.083,Chun's,3,2.05,2.4450000000000003,26,26,"NIGHT_MOSTLY_CLOUDY,NIGHT_BRIEF_SHOWERS","Onshore,Cross-shore",2
5842041f4e65fad6a770889c,2024_11_25,21.286357895152136,-157.8515,Ala Moana Beach Park,2.5,0.31,0.62,26,26,"NIGHT_CLEAR,NIGHT_CLEAR","Offshore,Offshore",2
5842041f4e65fad6a770889d,2024_11_25,19.606,-155.978,Banyans,3,0.7150000000000001,1.025,26,25,"NIGHT_CLEAR,NIGHT_CLEAR","Offshore,Cross-shore",2
5842041f4e65fad6a770889e,2024_11_25,20.029,-155.831,Kawaihae,2,0.4444,0.67516,26,26,"NIGHT_CLEAR,NIGHT_CLEAR","Offshore,Offshore",2
5842041f4e65fad6a770889f,2024_11_25,33.07541383424675,-117.3105,Grandview,3,0.42500000000000004,0.725,15.5,15.5,"NIGHT_CLEAR,NIGHT_CLEAR","Offshore,Offshore",2
5842041f4e65fad6a77088a0,2024_11_25,33.065267421296596,-117.30577,Beacons,3,0.425775,0.7537,15.5,15.5,"NIGHT_CLEAR,NIGHT_CLEAR","Offshore,Offshore",2
5842041f4e65fad6a77088a2,2024_11_25,21.252,-157.805,Diamond Head,3,0.53417,0.854175,26,25,"NIGHT_CLEAR,NIGHT_CLEAR","Offshore,Offshore",2
5842041f4e65fad6a77088a3,2024_11_25,33.04694255008896,-117.29966,Moonlight State Beach,3,0.42000000000000004,0.725,15.5,15.5,"NIGHT_CLEAR,NIGHT_CLEAR","Offshore,Offshore",2
5842041f4e65fad6a77088a5,2024_11_25,33.08685865930869,-117.31532,Ponto,3,0.48944,0.80162,15.5,15.5,"NIGHT_CLEAR,NIGHT_CLEAR","Offshore,Offshore",2
5842041f4e65fad6a77088a6,2024_11_25,33.130343587871906,-117.33668,Terra Mar Point,3,0.43,0.735,15,15,"NIGHT_CLEAR,NIGHT_CLEAR","Offshore,Offshore",2
5842041f4e65fad6a77088af,2024_11_25,32.95916304183685,-117.26963,Del Mar,3,0.509135,0.8137000000000001,15.5,15.5,"NIGHT_CLEAR,NIGHT_CLEAR","Offshore,Offshore",2
5842041f4e65fad6a77088b0,2024_11_25,32.97527261243354,-117.2721061331305,Del Mar Rivermouth,3,0.48,0.785,15.5,15.5,"NIGHT_CLEAR,NIGHT_CLEAR","Offshore,Offshore",2
5842041f4e65fad6a77088b1,2024_11_25,33.01352178146273,-117.28219,Cardiff Reef,3,0.42729,0.713705,15,15,"NIGHT_CLEAR,NIGHT_CLEAR","Offshore,Offshore",2
5842041f4e65fad6a77088b3,2024_11_25,33.00211185876003,-117.2811,Seaside Reef,3,0.48,0.785,15,15,"NIGHT_CLEAR,NIGHT_CLEAR","Offshore,Offshore",2
5842041f4e65fad6a77088b4,2024_11_25,33.0341859796287,-117.29552,Swami's,3,0.46958500000000003,0.776715,15,15,"NIGHT_CLEAR,NIGHT_CLEAR","Offshore,Offshore",2
5842041f4e65fad6a77088b7,2024_11_25,33.04569760260221,-117.2994,D Street,3,0.511505,0.81724,15.5,15.5,"NIGHT_CLEAR,NIGHT_CLEAR","Offshore,Offshore",2
5842041f4e65fad6a77088b8,2024_11_25,33.02090944350196,-117.28535,San Elijo State Beach,2,0.268955,0.56094,15,15,"NIGHT_CLEAR,NIGHT_CLEAR","Offshore,Offshore",2
5842041f4e65fad6a77088c2,2024_11_25,32.80662846492798,-117.26888,PB Point,3,0.41500000000000004,0.72,15.5,15.5,"NIGHT_CLEAR,NIGHT_CLEAR","Offshore,Offshore",2
5842041f4e65fad6a77088c4,2024_11_25,32.8060476681448,-117.26479,Old Man's at Tourmaline,3,0.309345,0.61355,15.5,15.5,"NIGHT_CLEAR,NIGHT_CLEAR","Offshore,Offshore",2
5842041f4e65fad6a77088cb,2024_11_25,32.557056711256,-117.1327445020322,Tijuana Slough,3,0.385,0.69,15.5,15.5,"NIGHT_CLEAR,NIGHT_CLEAR","Offshore,Offshore",2
5842041f4e65fad6a77088cc,2024_11_25,32.863,-117.257,La Jolla Shores,3,0.41000000000000003,0.71,15.5,15.5,"NIGHT_CLEAR,NIGHT_CLEAR","Cross-shore,Cross-shore",2
5842041f4e65fad6a77088ce,2024_11_25,32.67443657790586,-117.17421,Coronado Beach,2,0.275,0.575,15.5,15.5,"NIGHT_CLEAR,NIGHT_CLEAR","Offshore,Offshore",2
5842041f4e65fad6a77088cf,2024_11_25,33.40484417640326,-117.60749,San Clemente State Beach,3,0.355,0.665,15.5,15.5,"NIGHT_MOSTLY_CLEAR,NIGHT_CLEAR","Offshore,Offshore",2
5842041f4e65fad6a77088d5,2024_11_25,33.4663042002114,-117.7168352817103,Strands,3,0.42000000000000004,0.725,14,14,"NIGHT_MOSTLY_CLOUDY,NIGHT_CLEAR","Offshore,Offshore",2
5842041f4e65fad6a77088d7,2024_11_25,33.4609858001748,-117.68535,Doheny State Beach,2,0.19066,0.490935,14,14,"NIGHT_MOSTLY_CLOUDY,NIGHT_CLEAR","Offshore,Offshore",2
5842041f4e65fad6a77088dc,2024_11_25,33.50894790083017,-117.75243,Aliso Creek,3,0.33,0.635,15.5,15.5,"NIGHT_MOSTLY_CLOUDY,NIGHT_CLEAR","Offshore,Offshore",2
5842041f4e65fad6a77088dd,2024_11_25,33.5326591767067,-117.77764,Brooks Street,2,0.22999999999999998,0.54,15.5,15.5,"NIGHT_MOSTLY_CLOUDY,NIGHT_CLEAR","Offshore,Offshore",2
5842041f4e65fad6a77088de,2024_11_25,33.53561225884637,-117.7799,Thalia Street,2,0.21000000000000002,0.52,15.5,15.5,"NIGHT_MOSTLY_CLOUDY,NIGHT_CLEAR","Offshore,Offshore",2
5842041f4e65fad6a77088e3,2024_11_25,33.54268310353641,-117.7916,Rockpile,2,0.22999999999999998,0.54,15.5,15.5,"NIGHT_MOSTLY_CLOUDY,NIGHT_CLEAR","Offshore,Offshore",2
5842041f4e65fad6a77088e4,2024_11_25,33.7368459504689,-118.10342,"Seal Beach Pier, Southside",2,0.27,0.5700000000000001,15,15,"NIGHT_MOSTLY_CLOUDY,NIGHT_MIST","Offshore,Offshore",2
5842041f4e65fad6a77088e5,2024_11_25,33.73933701820233,-118.117,Ray Bay,2,0.26,0.56,15,15,"NIGHT_MOSTLY_CLOUDY,NIGHT_CLEAR","Offshore,Offshore",2
5842041f4e65fad6a77088e7,2024_11_25,33.728733,-118.08982,Surfside,1,0,0.21,15,15,"NIGHT_CLEAR,NIGHT_CLEAR","Offshore,Offshore",2
5842041f4e65fad6a77088e8,2024_11_25,33.68760321488161,-118.04236,Bolsa Chica State Beach,3,0.36690500000000004,0.67304,14,14,"NIGHT_MOSTLY_CLOUDY,NIGHT_CLEAR","Offshore,Offshore",2
5842041f4e65fad6a77088ea,2024_11_25,33.66704400178788,-118.0192,North HB Streets,3,0.6349100000000001,0.92873000000000006,14,14,"NIGHT_MOSTLY_CLOUDY,NIGHT_CLEAR","Cross-shore,Offshore",2
5842041f4e65fad6a77088ed,2024_11_25,33.65475101379567,-118.00291,Huntington Beach Pier Southside,3,0.625,0.93,14,14,"NIGHT_MOSTLY_CLOUDY,NIGHT_CLEAR","Cross-shore,Offshore",2
5842041f4e65fad6a77088ee,2024_11_25,33.62778647706099,-117.95939,River Jetties,3,0.49,0.79,13,13,"NIGHT_MOSTLY_CLOUDY,NIGHT_CLEAR","Offshore,Offshore",2
5842041f4e65fad6a77088f2,2024_11_25,33.605165797643664,-117.925,Newport Point,2,0.24,0.54,15.5,15.5,"NIGHT_MOSTLY_CLOUDY,NIGHT_CLEAR","Offshore,Offshore",2
5842041f4e65fad6a77088f3,2024_11_25,33.58982984726977,-117.87713,Corona del Mar,2,0.275,0.58,15.5,15.5,"NIGHT_MOSTLY_CLOUDY,NIGHT_CLEAR","Cross-shore,Offshore",2
5842041f4e65fad6a77088f7,2024_11_25,34.00750300824362,-118.49718,Santa Monica Pier,3,0.37,0.675,15,15,"NIGHT_MOSTLY_CLOUDY,NIGHT_MOSTLY_CLOUDY","Offshore,Offshore",2
5842041f4e65fad6a77088ff,2024_11_25,33.94070283102945,-118.44321,Dockweiler Beach,3,0.464935,0.770735,14,14,"NIGHT_MIST,NIGHT_MOSTLY_CLOUDY","Offshore,Offshore",2
5842041f4e65fad6a7708900,2024_11_25,33.9231846937237,-118.4341465777908,Shitpipe,3,0.5566,0.8573999999999999,14,14,"NIGHT_MOSTLY_CLOUDY,NIGHT_MOSTLY_CLOUDY","Offshore,Offshore",2
5842041f4e65fad6a7708902,2024_11_25,33.9108528052242,-118.4279133138721,Hammerland,3,0.6073999999999999,0.9082,14,14,"NIGHT_MOSTLY_CLOUDY,NIGHT_MOSTLY_CLOUDY","Offshore,Offshore",2
5842041f4e65fad6a7708904,2024_11_25,33.87201368173932,-118.40752,Hermosa Beach,3,0.385555,0.68763,15,15,"NIGHT_MIST,NIGHT_CLEAR","Offshore,Offshore",2
5842041f4e65fad6a7708906,2024_11_25,33.90129336911256,-118.42184,El Porto,3,0.5500050000000001,0.849285,14,14,"NIGHT_CLOUDY,NIGHT_CLEAR","Offshore,Offshore",2
5842041f4e65fad6a7708907,2024_11_25,33.87963506431794,-118.41102,Manhattan Beach Pier,3,0.47702999999999995,0.80277,15,15,"NIGHT_CLOUDY,NIGHT_CLEAR","Offshore,Offshore",2
5842041f4e65fad6a7708914,2024_11_25,34.038053387863464,-118.5532,Sunset Point,2,0.22,0.525,15,15,"NIGHT_MOSTLY_CLOUDY,NIGHT_MOSTLY_CLOUDY","Onshore,Offshore",2
5842041f4e65fad6a7708920,2024_11_25,33.80282,-118.39989,Haggerty's,2,0.256,0.5,15,15,"NIGHT_MIST,NIGHT_CLEAR","Onshore,Offshore",2
5842041f4e65fad6a7708921,2024_11_25,33.85044519861206,-118.40048,Redondo Breakwater,3,0.41952,0.74701,15,15,"NIGHT_MIST,NIGHT_CLEAR","Offshore,Offshore",2
5842041f4e65fad6a7708927,2024_11_25,33.70877301002487,-118.2840112858389,Cabrillo Beach,2,0.16499999999999998,0.46499999999999997,15,15,"NIGHT_MIST,NIGHT_MIST","Offshore,Cross-shore",2
5842041f4e65fad6a770892c,2024_11_25,33.77209986806257,-118.4268428476672,Lunada Bay,2,0.44499999999999995,0.745,15,15,"NIGHT_MIST,NIGHT_CLEAR","Offshore,Cross-shore",2
5842041f4e65fad6a770892d,2024_11_25,33.79294656286144,-118.40703,PV Cove,2.5,0.31999999999999995,0.625,15,15,"NIGHT_MIST,NIGHT_CLEAR","Offshore,Offshore",2
5842041f4e65fad6a7708930,2024_11_25,34.03944902292561,-118.57539,Chart House,1,0,0.2,15,15,"NIGHT_CLEAR,NIGHT_MOSTLY_CLOUDY","Cross-shore,Cross-shore",2
5842041f4e65fad6a7708936,2024_11_25,34.0016731994772,-118.80456,Point Dume,2,0.18,0.485,14,14,"NIGHT_MOSTLY_CLOUDY,NIGHT_CLEAR","Cross-shore,Onshore",2
5842041f4e65fad6a7708937,2024_11_25,34.02587527588963,-118.7554939066114,Latigo Point,2,0.195,0.5,14.5,14.5,"NIGHT_CLEAR,NIGHT_CLEAR","Offshore,Offshore",2
5842041f4e65fad6a770893f,2024_11_25,34.043762,-118.93294,Leo Carrillo,3,0.425,0.735,13,13,"NIGHT_MOSTLY_CLOUDY,NIGHT_CLEAR","Offshore,Offshore",2
5842041f4e65fad6a7708941,2024_11_25,36.69388179265737,-121.81289,Marina State Beach,3.5,1.225,1.5350000000000001,12,12,"NIGHT_MOSTLY_CLOUDY,NIGHT_HEAVY_RAIN","Offshore,Offshore",2
5842041f4e65fad6a7708944,2024_11_25,34.34145077331085,-119.416999352654,Stanley's,2,0.09,0.395,14,14,"NIGHT_MOSTLY_CLOUDY,NIGHT_CLEAR","Offshore,Offshore",2
5842041f4e65fad6a7708945,2024_11_25,34.35113017313915,-119.426921498899,Oil Piers,2,0.09,0.395,14,14,"NIGHT_MOSTLY_CLOUDY,NIGHT_CLEAR","Offshore,Offshore",2
5842041f4e65fad6a770894c,2024_11_25,34.17876333306018,-119.23995,Oxnard,3,0.365,0.67,14,14,"NIGHT_CLEAR,NIGHT_MOSTLY_CLOUDY","Offshore,Offshore",2
5842041f4e65fad6a7708957,2024_11_25,34.31720331100517,-119.3882324751725,Pitas Point,2,0.18,0.48,14,14,"NIGHT_CLEAR,NIGHT_MOSTLY_CLOUDY","Offshore,Offshore",2
5842041f4e65fad6a7708959,2024_11_25,34.27851754384724,-119.3162,Emma Wood,2,0.225,0.53,14,14,"NIGHT_MOSTLY_CLEAR,NIGHT_CLOUDY","Offshore,Offshore",2
5842041f4e65fad6a770895a,2024_11_25,34.35513640390276,-119.4400589884255,Mussel Shoals (aka Little Rincon),2,0.11499999999999999,0.42,14,14,"NIGHT_MOSTLY_CLOUDY,NIGHT_CLEAR","Offshore,Offshore",2
5842041f4e65fad6a770895e,2024_11_25,34.28991757054902,-119.3366646794652,Summer Beach,2,0.12,0.425,14,14,"NIGHT_MOSTLY_CLEAR,NIGHT_CLOUDY","Offshore,Offshore",2
5842041f4e65fad6a770895f,2024_11_25,34.30897456105926,-119.3582501170116,Solimar,2,0.12,0.425,14,14,"NIGHT_CLEAR,NIGHT_MOSTLY_CLOUDY","Offshore,Offshore",2
5842041f4e65fad6a7708960,2024_11_25,34.39836265281686,-119.70213,Leadbetter Point,1,0,0.18,14,14,"NIGHT_MIST,NIGHT_MOSTLY_CLOUDY","Offshore,Cross-shore",2
5842041f4e65fad6a7708961,2024_11_25,34.46052293893899,-120.07328,Refugio,2,0.035,0.345,14,14,"NIGHT_BRIEF_SHOWERS,NIGHT_MOSTLY_CLOUDY","Onshore,Cross-shore",2
5842041f4e65fad6a7708962,2024_11_25,34.40754276777778,-119.87639,Devereux,2,0.045,0.35,14,14,"NIGHT_MIST,NIGHT_MOSTLY_CLOUDY","Onshore,Onshore",2
5842041f4e65fad6a7708963,2024_11_25,34.27479983305182,-119.3133222656776,Ventura Overhead,2,0.225,0.53,14,14,"NIGHT_CLEAR,NIGHT_CLEAR","Offshore,Offshore",2
5842041f4e65fad6a7708964,2024_11_25,34.41023236011655,-119.88261,Sands,2,0.035,0.33999999999999997,14,14,"NIGHT_MIST,NIGHT_MOSTLY_CLOUDY","Cross-shore,Offshore",2
5842041f4e65fad6a7708966,2024_11_25,34.40450193869233,-119.68752,Sandspit,1,0,0.18,14,14,"NIGHT_MOSTLY_CLOUDY,NIGHT_CLEAR","Offshore,Offshore",2
5842041f4e65fad6a7708967,2024_11_25,34.41549098334453,-119.6375149840203,Hammond's,1,0,0.275,14,14,"NIGHT_MOSTLY_CLOUDY,NIGHT_MOSTLY_CLOUDY","Onshore,Offshore",2
5842041f4e65fad6a7708968,2024_11_25,34.45759322742309,-120.02203,El Capitan,2,0.045,0.345,14,14,"NIGHT_MOSTLY_CLOUDY,NIGHT_MOSTLY_CLOUDY","Cross-shore,Offshore",2
5842041f4e65fad6a770896c,2024_11_25,34.405117655616,-119.84317,Campus Point,2,0.035,0.33999999999999997,14,14,"NIGHT_MIST,NIGHT_MOSTLY_CLOUDY","Onshore,Onshore",2
5842041f4e65fad6a770896e,2024_11_25,34.38935162233354,-119.51955,Carpinteria State Beach,2,0.1,0.41000000000000003,14,14,"NIGHT_MIST,NIGHT_CLEAR","Offshore,Offshore",2
5842041f4e65fad6a770896f,2024_11_25,37.48296565175612,-122.45493,Half Moon Bay,3,1.195,1.375,12,12,"NIGHT_FOG,NIGHT_RAIN","Cross-shore,Offshore",2
5842041f4e65fad6a7708970,2024_11_25,37.499,-122.471,Princeton Jetty,3,0.9450000000000001,1.25,12,12,"NIGHT_MOSTLY_CLOUDY,NIGHT_RAIN","Onshore,Offshore",2
5842041f4e65fad6a7708972,2024_11_25,37.35699547365155,-122.4069534707252,Tunitas Creek,3,1.6800000000000002,1.98,12.5,12.5,"NIGHT_MOSTLY_CLOUDY,NIGHT_RAIN","Cross-shore,Offshore",2
5842041f4e65fad6a7708974,2024_11_25,37.54735589428842,-122.51611,Montara,3.5,1.545,1.75,12,12,"NIGHT_MOSTLY_CLOUDY,NIGHT_OVERCAST","Offshore,Offshore",2
5842041f4e65fad6a7708975,2024_11_25,34.3869373724559,-119.5142334209018,Tarpits,2,0.12000000000000001,0.42000000000000004,14,14,"NIGHT_MIST,NIGHT_MOSTLY_CLOUDY","Cross-shore,Cross-shore",2
5842041f4e65fad6a7708976,2024_11_25,37.59881852720143,-122.50463,Linda Mar,3,0.46272,0.76899,12,12,"NIGHT_CLEAR,NIGHT_OVERCAST","Offshore,Offshore",2
5842041f4e65fad6a7708978,2024_11_25,37.59883098461164,-122.5143843582282,Pedro Point,3,1.3250000000000002,1.63,12,12,"NIGHT_MOSTLY_CLOUDY,NIGHT_OVERCAST","Offshore,Cross-shore",2
5842041f4e65fad6a7708979,2024_11_25,37.61081996647663,-122.49733,Rockaway,4,1.3599999999999999,1.67,12,12,"NIGHT_CLEAR,NIGHT_OVERCAST","Offshore,Offshore",2
5842041f4e65fad6a770897a,2024_11_25,37.809987384424446,-122.47514,Fort Point,3,0.875,1.18,12.5,12.5,"NIGHT_MOSTLY_CLOUDY,NIGHT_OVERCAST","Onshore,Onshore",2
5842041f4e65fad6a770897c,2024_11_25,37.63422542967464,-122.4951,Sharp Park,3,1.475,1.7799999999999998,12,12,"NIGHT_CLEAR,NIGHT_OVERCAST","Offshore,Offshore",2
5842041f4e65fad6a770897d,2024_11_25,37.27313605072472,-122.4127387912554,Pescadero,3,1.595,1.775,12.5,12.5,"NIGHT_MOSTLY_CLOUDY,NIGHT_OVERCAST","Offshore,Offshore",2
5842041f4e65fad6a770897e,2024_11_25,37.18140279972666,-122.3926685899327,Pigeon Point,2.5,1.73,1.93,12.5,12.5,"NIGHT_MIST,NIGHT_OVERCAST","Onshore,Onshore",2
5842041f4e65fad6a770897f,2024_11_25,37.11578956919415,-122.314699271291,Ano Nuevo,2,1.195,1.4100000000000001,12.5,12.5,"NIGHT_OVERCAST,NIGHT_OVERCAST","Onshore,Onshore",2
5842041f4e65fad6a7708980,2024_11_25,37.09520872681598,-122.2805474707768,Waddell Creek,3,1.335,1.64,12.5,12.5,"NIGHT_OVERCAST,NIGHT_OVERCAST","Cross-shore,Cross-shore",2
5842041f4e65fad6a7708981,2024_11_25,36.96512852130351,-122.1252825495626,Four Mile,3.5,1.17,1.385,12.5,12.5,"NIGHT_OVERCAST,NIGHT_OVERCAST","Offshore,Offshore",2
5842041f4e65fad6a7708982,2024_11_25,37.04122807048655,-122.23337,Scott Creek,3,1.3250000000000002,1.52,12.5,12.5,"NIGHT_CLOUDY,NIGHT_OVERCAST","Cross-shore,Offshore",2
5842041f4e65fad6a7708983,2024_11_25,37.02350229387179,-122.21908,Davenport,3.5,1.4,1.67,12.5,12.5,"NIGHT_CLOUDY,NIGHT_OVERCAST","Offshore,Offshore",2
5842041f4e65fad6a7708986,2024_11_25,36.94905295955728,-122.06118,Natural Bridges,3,1.19,1.4249999999999998,12,12,"NIGHT_OVERCAST,NIGHT_OVERCAST","Offshore,Cross-shore",2
5842041f4e65fad6a7708987,2024_11_25,36.95154854910425,-122.04207,Mitchell's Cove,3,0.6469149999999999,0.96316,12,12,"NIGHT_OVERCAST,NIGHT_OVERCAST","Offshore,Offshore",2
5842041f4e65fad6a770898a,2024_11_25,36.9572312370203,-121.98177,26th Ave,3,1.115,1.385,12,12,"NIGHT_OVERCAST,NIGHT_OVERCAST","Offshore,Offshore",2
5842041f4e65fad6a770898e,2024_11_25,36.91899972819882,-121.85536,Manresa,4,1.33,1.635,12,12,"NIGHT_OVERCAST,NIGHT_OVERCAST","Offshore,Offshore",2
5842041f4e65fad6a7708990,2024_11_25,34.45747731928454,-120.34242,The Ranch,2.5,0.33499999999999996,0.64,14,14,"NIGHT_MIST,NIGHT_MOSTLY_CLOUDY","Offshore,Offshore",2
5842041f4e65fad6a7708991,2024_11_25,34.50875036590315,-120.50348,Jalama,2,0.615,0.925,13.5,13.5,"NIGHT_CLEAR,NIGHT_MOSTLY_CLOUDY","Offshore,Cross-shore",2
5842041f4e65fad6a7708996,2024_11_25,34.68700870220497,-120.6111611019887,Surf Beach,3.5,1.13,1.37,13.5,13.5,"NIGHT_MIST,NIGHT_OVERCAST","Offshore,Offshore",2
5842041f4e65fad6a770899c,2024_11_25,35.5730538161116,-121.1143362345574,Moonstone,3,0.85,1.1,12.5,12.5,"NIGHT_CLOUDY,NIGHT_OVERCAST","Cross-shore,Offshore",2
5842041f4e65fad6a770899d,2024_11_25,35.61533716776573,-121.1502053073914,Pico Creek,3,0.885,1.1400000000000001,12.5,12.5,"NIGHT_MOSTLY_CLOUDY,NIGHT_MOSTLY_CLOUDY","Offshore,Offshore",2
5842041f4e65fad6a770899e,2024_11_25,35.56829031927379,-121.11207,Santa Rosa Creek,2.5,0.85,1.1,12.5,12.5,"NIGHT_CLOUDY,NIGHT_RAIN","Cross-shore,Cross-shore",2
5842041f4e65fad6a77089a2,2024_11_25,35.44820114936284,-120.90715,"Cayucos Pier, Southside",2.5,0.37438,0.680145,12.5,12.5,"NIGHT_OVERCAST,NIGHT_HEAVY_RAIN","Cross-shore,Cross-shore",2
5842041f4e65fad6a77089a4,2024_11_25,35.30143372628852,-120.877819239902,Cable Landing,3,1.3199999999999998,1.5899999999999999,12.5,12.5,"NIGHT_CLOUDY,NIGHT_CLOUDY","Offshore,Offshore",2
5842041f4e65fad6a77089a9,2024_11_25,35.61269103500222,-121.14807,San Simeon,2,0.567,0.742,12.5,12.5,"NIGHT_MOSTLY_CLOUDY,NIGHT_MOSTLY_CLOUDY","Cross-shore,Cross-shore",2
5842041f4e65fad6a77089ab,2024_11_25,35.1775325966252,-120.73411,Avila Beach,2,0.02,0.325,12.5,12.5,"NIGHT_OVERCAST,NIGHT_OVERCAST","Cross-shore,Onshore",2
5842041f4e65fad6a77089ac,2024_11_25,35.13877877884115,-120.64535,Pismo Beach Pier,3,0.75,0.9950000000000001,12,12,"NIGHT_OVERCAST,NIGHT_OVERCAST","Offshore,Offshore",2
5842041f4e65fad6a77089ad,2024_11_25,46.8907710233147,-124.12964,Westport/Olympic Peninsula,3,0.975,1.2850000000000001,11,11,"NIGHT_OVERCAST,NIGHT_FOG","Offshore,Offshore",2
5842041f4e65fad6a77089ae,2024_11_25,46.35185177248545,-124.06747,Long Beach Peninsula,2.5,1.27,1.4849999999999999,11,11,"NIGHT_DRIZZLE,NIGHT_MOSTLY_CLOUDY","Offshore,Cross-shore",2
5842041f4e65fad6a77089af,2024_11_25,47.90649175554033,-124.63709,La Push,3,0.9550000000000001,1.13,10,10,"NIGHT_LIGHT_RAIN,NIGHT_CLOUDY","Offshore,Offshore",2
5842041f4e65fad6a77089b0,2024_11_25,42.04368239985442,-124.26828,Brookings Jetty,1.5,0.8871549999999999,1.13021,12,12,"NIGHT_MOSTLY_CLOUDY,NIGHT_RAIN","Onshore,Onshore",2
5842041f4e65fad6a77089b1,2024_11_25,42.74071837900346,-124.4983727491047,Port Orford,1,1.875,2.18,11,11,"NIGHT_CLEAR,NIGHT_HEAVY_RAIN","Onshore,Onshore",2
5842041f4e65fad6a77089b2,2024_11_25,44.01532689312291,-124.13865,Florence South Jetty,3,1.525,1.78,11.5,11.5,"NIGHT_MOSTLY_CLOUDY,NIGHT_MOSTLY_CLOUDY","Cross-shore,Cross-shore",2
5842041f4e65fad6a77089b3,2024_11_25,42.41812540774362,-124.42945,Gold Beach South Jetty,1,1.5350000000000001,1.83,11.5,11.5,"NIGHT_MOSTLY_CLOUDY,NIGHT_OVERCAST","Onshore,Onshore",2
5842041f4e65fad6a77089b4,2024_11_25,44.95857310226525,-124.0219,Lincoln City,1.5,1.4500000000000002,1.66,11,11,"NIGHT_BRIEF_SHOWERS,NIGHT_CLEAR","Cross-shore,Offshore",2
5842041f4e65fad6a77089b5,2024_11_25,44.63792761362982,-124.0657,Newport,2.5,1.525,1.77,11,11,"NIGHT_MOSTLY_CLOUDY,NIGHT_CLEAR","Cross-shore,Cross-shore",2
5842041f4e65fad6a77089b6,2024_11_25,45.61468496266301,-123.94643,Rockaway Beach,3,1.3650000000000002,1.65,11,11,"NIGHT_BRIEF_SHOWERS,NIGHT_MOSTLY_CLOUDY","Cross-shore,Offshore",2
5842041f4e65fad6a77089b7,2024_11_25,45.20252914186085,-123.96975,Pacific City,2.5,1.33,1.615,11,11,"NIGHT_MOSTLY_CLOUDY,NIGHT_MOSTLY_CLOUDY","Onshore,Cross-shore",2
5842041f4e65fad6a77089b8,2024_11_25,45.88179930310263,-123.96681,Cannon Beach,3,1.335,1.61,11,11,"NIGHT_OVERCAST,NIGHT_CLEAR","Cross-shore,Cross-shore",2
5842041f4e65fad6a77089ba,2024_11_25,40.02528754746774,-124.06372,Shelter Cove,1.5,0.597865,0.776075,13,13,"NIGHT_MOSTLY_CLOUDY,NIGHT_MOSTLY_CLOUDY","Onshore,Onshore",2
5842041f4e65fad6a77089bb,2024_11_25,40.76816197136951,-124.24248,Humboldt Harbor Entrance,3,1.3050000000000002,1.59,12.5,12.5,"NIGHT_CLEAR,NIGHT_CLEAR","Offshore,Offshore",2
5842041f4e65fad6a77089bc,2024_11_25,40.76684246920174,-124.23107,North Jetty,3,1.32,1.5750000000000002,12.5,12.5,"NIGHT_CLEAR,NIGHT_CLEAR","Offshore,Offshore",2
5842041f4e65fad6a77089be,2024_11_25,41.13016238153297,-124.16466,Sue-meg,3,1.295,1.5950000000000002,12,12,"NIGHT_CLEAR,NIGHT_MOSTLY_CLOUDY","Offshore,Offshore",2
5842041f4e65fad6a77089bf,2024_11_25,37.8289474958188,-122.53768,Fort Cronkite/Rodeo Beach,2.5,1.54,1.85,12.5,12.5,"NIGHT_FOG,NIGHT_RAIN_AND_FOG","Onshore,Cross-shore",2
5842041f4e65fad6a77089c0,2024_11_25,41.74415759876137,-124.17717,South Beach CA,2,1.435,1.745,12,12,"NIGHT_MOSTLY_CLEAR,NIGHT_MOSTLY_CLOUDY","Onshore,Onshore",2
5842041f4e65fad6a77089c1,2024_11_25,37.89801283969752,-122.64519,Stinson Beach,3,0.7150000000000001,1.02,12,12,"NIGHT_BRIEF_SHOWERS,NIGHT_RAIN_AND_FOG","Onshore,Onshore",2
5842041f4e65fad6a77089c2,2024_11_25,37.90514516176495,-122.68151,Bolinas,3,0.54438,0.84131,12,12,"NIGHT_FOG,NIGHT_FOG","Onshore,Onshore",2
5842041f4e65fad6a77089c3,2024_11_25,38.04892513158693,-122.98925,Point Reyes (north),3,1.705,2.005,13,13,"NIGHT_DRIZZLE,NIGHT_RAIN_AND_FOG","Offshore,Offshore",2
5842041f4e65fad6a77089c6,2024_11_25,38.31088736605785,-123.0496777333731,Doran Beach,2,0.3,0.605,13.5,13.5,"NIGHT_FOG,NIGHT_FOG","Onshore,Onshore",2
5842041f4e65fad6a77089c7,2024_11_25,38.45077228660809,-123.13008,Russian Rivermouth,2.5,1.4900000000000002,1.795,13.5,13.5,"NIGHT_FOG,NIGHT_FOG","Onshore,Cross-shore",2
5842041f4e65fad6a77089c8,2024_11_25,38.35329968518107,-123.06906,Salmon Creek,3.5,1.44,1.75,13.5,13.5,"NIGHT_MIST,NIGHT_OVERCAST","Offshore,Offshore",2
5842041f4e65fad6a77089c9,2024_11_25,38.6845180197959,-123.4322714291198,Black Point Beach,3,1.4500000000000002,1.56,13.5,13.5,"NIGHT_RAIN,NIGHT_MIST","Offshore,Offshore",2
5842041f4e65fad6a77089ca,2024_11_25,43.251076,-70.59144,Ogunquit,0.25,0,0.202,11,9,"NIGHT_CLEAR,CLEAR","Offshore,Offshore",2
5842041f4e65fad6a77089cb,2024_11_25,41.362631366305415,-71.48007,Point Judith,0,0.01793,0.238045,11,10,"NIGHT_CLEAR,CLEAR","Offshore,Offshore",2
5842041f4e65fad6a77089cd,2024_11_25,41.422678090954726,-71.45413,Monahan's - Narragansett,0,0,0.093045,13,13,"NIGHT_CLEAR,CLEAR","Offshore,Offshore",2
5842041f4e65fad6a77089ce,2024_11_25,41.469,-71.293,Ruggles - Newport,1,0.0744,0.41779,12.5,12.5,"NIGHT_CLEAR,CLEAR","Cross-shore,Offshore",2
5842041f4e65fad6a77089cf,2024_11_25,43.175394,-70.606351,Short Sands Beach,0,0,0.11,10.5,10.5,"NIGHT_CLEAR,CLEAR","Offshore,Offshore",2
5842041f4e65fad6a77089d0,2024_11_25,41.487408,-71.29017,First Beach,0,0,0.11,12.5,12.5,"NIGHT_CLEAR,CLEAR","Offshore,Offshore",2
5842041f4e65fad6a77089d1,2024_11_25,42.27916830233153,-70.86498,Nantasket Beach,0,0,0.1285,11,10,"NIGHT_CLEAR,CLEAR","Offshore,Cross-shore",2
5842041f4e65fad6a77089d2,2024_11_25,41.817,-69.935,Cape Cod,1,0.5,0.8,11,11,"NIGHT_CLEAR,CLEAR","Offshore,Offshore",2
5842041f4e65fad6a77089d3,2024_11_25,42.22055448975661,-70.70634873403819,Egypt Beach,0.5,0,0.175,11,11,"NIGHT_CLEAR,CLEAR","Offshore,Offshore",2
5842041f4e65fad6a77089d4,2024_11_25,41.48739647744607,-71.25723,Second Beach,0.25,0.056835,0.31031,11,10,"NIGHT_CLEAR,CLEAR","Cross-shore,Cross-shore",2
5842041f4e65fad6a77089d5,2024_11_25,42.964,-70.769,Fox Hill,0.25,0,0.186165,11,9,"NIGHT_CLEAR,CLEAR","Offshore,Offshore",2
5842041f4e65fad6a77089d6,2024_11_25,42.991359,-70.75149,Straws Point,0.75,0,0.2795,11,9,"NIGHT_CLEAR,CLEAR","Offshore,Offshore",2
5842041f4e65fad6a77089d7,2024_11_25,42.946,-70.786,Plaice Cove,0.25,0,0.186165,11,9,"NIGHT_CLEAR,CLEAR","Offshore,Offshore",2
5842041f4e65fad6a77089d9,2024_11_25,42.911574,-70.80831,The Main Beach,0,0,0.136845,11,9,"NIGHT_CLEAR,CLEAR","Offshore,Offshore",2
5842041f4e65fad6a77089da,2024_11_25,42.97583846220203,-70.764,Sawyer's Beach,0.75,0,0.220335,11,9,"NIGHT_CLEAR,CLEAR","Offshore,Offshore",2
5842041f4e65fad6a77089db,2024_11_25,42.97,-70.77,Rye on the Rocks / 5-0's,0.75,0.08420000000000001,0.22059,11,9,"NIGHT_CLEAR,CLEAR","Offshore,Offshore",2
5842041f4e65fad6a77089dc,2024_11_25,43.55902946610303,-70.27795,Higgins Beach,0,0,0.121,11,9,"NIGHT_CLEAR,CLEAR","Offshore,Offshore",2
5842041f4e65fad6a77089dd,2024_11_25,43.302676,-70.5652,Wells Beach,0.25,0,0.208665,11,9,"NIGHT_CLEAR,CLEAR","Offshore,Offshore",2
5842041f4e65fad6a77089de,2024_11_25,43.545359,-70.30479,Scarborough Beach State Park,0.75,0,0.229775,11,9,"NIGHT_CLEAR,CLEAR","Offshore,Offshore",2
5842041f4e65fad6a77089df,2024_11_25,43.514481,-70.37215,Old Orchard Beach,0,0,0.132665,11,9,"NIGHT_CLEAR,CLEAR","Offshore,Offshore",2
5842041f4e65fad6a77089e0,2024_11_25,43.34711,-70.48165,Gooch's Beach,0,0,0.111,11,9,"NIGHT_CLEAR,CLEAR","Cross-shore,Cross-shore",2
5842041f4e65fad6a77089e2,2024_11_25,40.58433,-73.62953,Lido Beach,-0.08333333333333331,0,0.20950000000000002,11,10,"NIGHT_CLEAR,CLEAR","Offshore,Offshore",2
5842041f4e65fad6a77089e3,2024_11_25,43.163135,-70.61689,Long Sands Beach,0,0,0.18884,11,9,"NIGHT_CLEAR,CLEAR","Offshore,Offshore",2
5842041f4e65fad6a77089e4,2024_11_25,40.61695351251805,-73.39376,Gilgo Beach,0,0,0.191835,11,10,"NIGHT_CLEAR,CLEAR","Offshore,Cross-shore",2
5842041f4e65fad6a77089e5,2024_11_25,40.62530081928036,-73.23827,Robert Moses,0,0,0.22999999999999998,13.5,13.5,"NIGHT_CLEAR,CLEAR","Offshore,Cross-shore",2
5842041f4e65fad6a77089e6,2024_11_25,40.64313317632791,-73.15727,Fire Island,0,0,0.20500000000000002,13.5,13.5,"NIGHT_CLEAR,CLEAR","Offshore,Cross-shore",2
5842041f4e65fad6a77089e8,2024_11_25,40.76653118828782,-72.7458,Cupsogue,1,0.04,0.33999999999999997,13.5,13.5,"NIGHT_CLEAR,CLEAR","Offshore,Cross-shore",2
5842041f4e65fad6a77089e9,2024_11_25,42.9376373334092,-70.79141,The Wall,0,0,0.132585,11,9,"NIGHT_CLEAR,CLEAR","Offshore,Offshore",2
5842041f4e65fad6a77089ea,2024_11_25,40.887088,-72.33856,Flys,1,0.015,0.29500000000000004,13,13,"NIGHT_CLEAR,CLEAR","Offshore,Cross-shore",2
5842041f4e65fad6a77089eb,2024_11_25,41.0389266436591,-71.91068529316958,Trailer Park,0.75,0.242,0.44804999999999995,11,10,"NIGHT_CLEAR,CLEAR","Cross-shore,Offshore",2
5842041f4e65fad6a77089ec,2024_11_25,41.039505402729105,-71.9142,Ditch Plains,1,0,0.235575,13,13,"NIGHT_CLEAR,CLEAR","Offshore,Offshore",2
5842041f4e65fad6a77089ee,2024_11_25,40.57633275206492,-73.56895305108567,"West End, Jones Beach",0,0,0.267,11,10,"NIGHT_CLEAR,CLEAR","Cross-shore,Cross-shore",2
5842041f4e65fad6a77089f1,2024_11_25,41.038286691230795,-71.91991567611694,Poles,0.75,0.2366,0.430255,11,10,"NIGHT_CLEAR,CLEAR","Offshore,Offshore",2
5842041f4e65fad6a77089f3,2024_11_25,40.84077769766295,-72.47989493724765,The Bowl,1,0.045,0.35,13.5,13.5,"NIGHT_CLEAR,CLEAR","Offshore,Cross-shore",2
5842041f4e65fad6a77089f4,2024_11_25,40.94235535243154,-72.19286,Main Beach,1,0.157,0.459,16,15,"NIGHT_CLEAR,CLEAR","Cross-shore,Cross-shore",2
5842041f4e65fad6a77089f5,2024_11_25,40.58270702399518,-73.67251552079799,Laurelton Blvd.,0.5,0.191685,0.33142499999999997,11,10,"NIGHT_CLEAR,CLEAR","Cross-shore,Cross-shore",2
5842041f4e65fad6a77089f6,2024_11_25,41.033752854071416,-71.93696,Terrace,0.75,0.20745,0.509545,11,10,"NIGHT_CLEAR,CLEAR","Offshore,Offshore",2
5842041f4e65fad6a77089f7,2024_11_25,40.83372943645748,-72.50426173210144,K Road,1,0.115,0.415,13.5,13.5,"NIGHT_CLEAR,CLEAR","Offshore,Offshore",2
5842041f4e65fad6a77089f8,2024_11_25,40.58456099581507,-73.80730032920837,84th Street,0,0,0.12223,11,10,"NIGHT_CLEAR,CLEAR","Cross-shore,Cross-shore",2
5842041f4e65fad6a77089fa,2024_11_25,40.1319,-74.02788,Sea Girt,0.25,0,0.1795,11,11,"NIGHT_CLEAR,CLEAR","Offshore,Offshore",2
5842041f4e65fad6a77089fb,2024_11_25,40.54698301868125,-73.9268,Breezy Point,0,0,0.105,13.5,13.5,"NIGHT_CLEAR,CLEAR","Cross-shore,Cross-shore",2
5842041f4e65fad6a77089fc,2024_11_25,40.152504,-74.02138,Spring Lake,0.25,0,0.18033500000000002,11,11,"NIGHT_CLEAR,CLEAR","Offshore,Offshore",2
5842041f4e65fad6a77089fd,2024_11_25,40.591277,-73.770792,30th - 39th Streets,0.25,0,0.1745,11,10,"NIGHT_CLEAR,CLEAR","Cross-shore,Cross-shore",2
5842041f4e65fad6a77089fe,2024_11_25,40.18834955871439,-74.00860982500222,Avon,0.25,0,0.186165,11,11,"NIGHT_CLEAR,CLEAR","Offshore,Offshore",2
5842041f4e65fad6a77089ff,2024_11_25,40.1974229100932,-74.00650533798255,Bradley Beach,0.25,0,0.185335,11,11,"NIGHT_CLEAR,CLEAR","Offshore,Offshore",2
5842041f4e65fad6a7708a01,2024_11_25,40.17202,-74.01503,"16th Ave., Belmar",0,0,0.129735,11,11,"NIGHT_CLEAR,CLEAR","Offshore,Offshore",2
5842041f4e65fad6a7708a02,2024_11_25,40.217443,-73.99982,Asbury Park,0.25,0,0.1845,11,11,"NIGHT_CLEAR,CLEAR","Offshore,Offshore",2
5842041f4e65fad6a7708a03,2024_11_25,40.229841,-73.99678,Loch Arbour and Deal,0.25,0,0.1745,11,11,"NIGHT_CLEAR,CLEAR","Offshore,Offshore",2
5842041f4e65fad6a7708a05,2024_11_25,40.41754,-73.97935,Sandy Hook,0,0,0.03,13.5,13.5,"NIGHT_CLEAR,CLEAR","Offshore,Offshore",2
5842041f4e65fad6a7708a06,2024_11_25,39.36353,-74.40873,Crystals,0.25,0,0.20647500000000002,15,14,"NIGHT_CLEAR,CLEAR","Offshore,Offshore",2
5842041f4e65fad6a7708a07,2024_11_25,39.31443,-74.51863,32nd Street,-0.25,0,0.219855,11,10,"NIGHT_CLEAR,CLEAR","Offshore,Offshore",2
5842041f4e65fad6a7708a08,2024_11_25,39.327688,-74.49524,Margate Pier Northside,0,0,0.219855,11,10,"NIGHT_CLEAR,CLEAR","Offshore,Offshore",2
5842041f4e65fad6a7708a09,2024_11_25,39.336276,-74.47782,Ventnor Pier,0,0.14605,0.353475,15,14,"NIGHT_CLEAR,CLEAR","Offshore,Offshore",2
5842041f4e65fad6a7708a0a,2024_11_25,39.35929751441085,-74.41683,States Avenue,0.25,0,0.20647500000000002,15,14,"NIGHT_CLEAR,CLEAR","Offshore,Offshore",2
5842041f4e65fad6a7708a0b,2024_11_25,39.37274173278517,-74.40454,Brigantine Jetty,0.25,0,0.20576,15,14,"NIGHT_CLEAR,CLEAR","Offshore,Offshore",2
5842041f4e65fad6a7708a0c,2024_11_25,39.356505,-74.42263,South Carolina Avenue,0.25,0,0.20576,15,14,"NIGHT_CLEAR,CLEAR","Offshore,Offshore",2
5842041f4e65fad6a7708a0d,2024_11_25,39.413485,-74.35476,14th Street North,0.25,0,0.197,15,14,"NIGHT_CLEAR,CLEAR","Offshore,Offshore",2
5842041f4e65fad6a7708a0e,2024_11_25,39.531319,-74.263252,The Wooden Jetty,0.25,0.0351,0.30240500000000003,13,13,"NIGHT_CLEAR,CLEAR","Offshore,Offshore",2
5842041f4e65fad6a7708a0f,2024_11_25,39.552472,-74.24344,Holyoke,0.25,0,0.277085,13,13,"NIGHT_CLEAR,CLEAR","Offshore,Offshore",2
5842041f4e65fad6a7708a10,2024_11_25,39.692364,-74.14068,Hudson Ave.,0,0,0.287735,11,10,"NIGHT_CLEAR,CLEAR","Offshore,Offshore",2
5842041f4e65fad6a7708a11,2024_11_25,39.79614,-74.09248,Island Beach State Park,0.25,0,0.1995,15,14,"NIGHT_CLEAR,CLEAR","Offshore,Offshore",2
5842041f4e65fad6a7708a12,2024_11_25,39.91813588078152,-74.07527,Seaside Park,0.25,0,0.175585,15,14,"NIGHT_CLEAR,CLEAR","Offshore,Offshore",2
5842041f4e65fad6a7708a15,2024_11_25,39.95745637606704,-74.06736,Ortley Beach,0.25,0,0.17038,11,11,"NIGHT_CLEAR,CLEAR","Offshore,Offshore",2
5842041f4e65fad6a7708a16,2024_11_25,39.98313468342945,-74.06265685577506,Lavallette,0.25,0,0.18033500000000002,11,11,"NIGHT_CLEAR,CLEAR","Offshore,Offshore",2
5842041f4e65fad6a7708a17,2024_11_25,40.0699319967757,-74.04145,Bay Head,0.25,0,0.191165,11,11,"NIGHT_CLEAR,CLEAR","Offshore,Offshore",2
5842041f4e65fad6a7708a18,2024_11_25,40.094041,-74.034859,Jenkinson's,0.25,0,0.18033500000000002,11,11,"NIGHT_CLEAR,CLEAR","Offshore,Offshore",2
5842041f4e65fad6a7708a1a,2024_11_25,38.148058,-75.17704,Assateague,0,0,0.24533499999999997,12,11,"NIGHT_CLEAR,CLEAR","Offshore,Cross-shore",2
5842041f4e65fad6a7708a1b,2024_11_25,38.33889038664497,-75.08017670566352,North End to Ocean City Inlet,0.75,0,0.24533499999999997,12,11,"NIGHT_CLEAR,CLEAR","Cross-shore,Cross-shore",2
5842041f4e65fad6a7708a1c,2024_11_25,38.603993,-75.06271,Indian River Inlet,0,0,0.15398499999999998,13.5,13.5,"NIGHT_CLEAR,CLEAR","Offshore,Offshore",2
5842041f4e65fad6a7708a1d,2024_11_25,38.460477,-75.05207,Fenwick Island,0,0,0.155,14,14,"NIGHT_CLEAR,CLEAR","Cross-shore,Cross-shore",2
5842041f4e65fad6a7708a1e,2024_11_25,38.538767,-75.05619,Bethany Beach,0,0,0.15288000000000002,14,14,"NIGHT_CLEAR,CLEAR","Offshore,Offshore",2
5842041f4e65fad6a7708a1f,2024_11_25,38.697657,-75.07595,Dewey Beach,0,0,0.11499999999999999,13.5,13.5,"NIGHT_CLEAR,CLEAR","Cross-shore,Cross-shore",2
5842041f4e65fad6a7708a20,2024_11_25,38.75034741676525,-75.08194,Gordons Pond,0,0,0.09065000000000001,13.5,13.5,"NIGHT_CLEAR,CLEAR","Offshore,Offshore",2
5842041f4e65fad6a7708a21,2024_11_25,38.767837,-75.08284,Naval Jetties,1,0,0.13,13.5,13.5,"NIGHT_CLEAR,CLEAR","Cross-shore,Cross-shore",2
5842041f4e65fad6a7708a22,2024_11_25,36.81735875786576,-75.96624,Camp Pendleton,-0.5,0,0.235,14.5,14.5,"NIGHT_CLEAR,CLEAR","Offshore,Onshore",2
5842041f4e65fad6a7708a23,2024_11_25,36.9102212316428,-75.98732471466064,North End,0.4166666666666667,0,0.28484,14,14,"NIGHT_CLEAR,CLEAR","Offshore,Onshore",2
5842041f4e65fad6a7708a24,2024_11_25,36.737117517621314,-75.93924,Sandbridge Beach,0.5,0,0.24283500000000002,14,14,"NIGHT_CLEAR,CLEAR","Offshore,Onshore",2
5842041f4e65fad6a7708a26,2024_11_25,36.818257440557794,-75.96666,Croatan to Pendleton,0.08333333333333326,0.010585,0.302905,14,14,"NIGHT_CLEAR,CLEAR","Offshore,Onshore",2
5842041f4e65fad6a7708a27,2024_11_25,36.84318777204769,-75.9719,South End,0.25,0,0.220335,14,14,"NIGHT_CLEAR,CLEAR","Cross-shore,Onshore",2
5842041f4e65fad6a7708a28,2024_11_25,37.08612627584661,-75.976121638199,Fishermans Island,0,0,0.03,14,14,"NIGHT_CLEAR,CLEAR","Cross-shore,Cross-shore",2
5842041f4e65fad6a7708a38,2024_11_25,35.254619418229026,-75.52074,Cape Hatteras Lighthouse,1.75,0.220255,0.520395,16,14,"NIGHT_CLEAR,CLEAR","Offshore,Offshore",2
5842041f4e65fad6a7708a3a,2024_11_25,35.54572934093336,-75.46477,Waves and Salvo,1.75,0.1175,0.4295,16,14,"NIGHT_CLEAR,CLEAR","Offshore,Offshore",2
5842041f4e65fad6a7708a3b,2024_11_25,35.22565892751075,-75.63606,Frisco,1.25,0.10200000000000001,0.373,17,16,"NIGHT_CLEAR,CLEAR","Cross-shore,Offshore",2
5842041f4e65fad6a7708a3c,2024_11_25,35.13086,-75.90591,Ocracoke,1,0.023575000000000002,0.388975,19.5,19.5,"NIGHT_CLEAR,CLEAR","Offshore,Offshore",2
5842041f4e65fad6a7708a3d,2024_11_25,35.34721340158342,-75.50084,Avon Pier,1.75,0.22136,0.52616,16,14,"NIGHT_CLEAR,CLEAR","Offshore,Offshore",2
5842041f4e65fad6a7708a3f,2024_11_25,35.71680821253768,-75.49243,Pea Island,2,0.015,0.325,16.5,16.5,"NIGHT_CLEAR,CLEAR","Offshore,Offshore",2
5842041f4e65fad6a7708a40,2024_11_25,35.97427620657821,-75.62984,Nags Head Pier,0.9166666666666667,0.0254,0.3278,16,14,"NIGHT_CLEAR,CLEAR","Offshore,Offshore",2
5842041f4e65fad6a7708a41,2024_11_25,36.0439998039079,-75.67288,Avalon Pier,1,0,0.296165,16,14,"NIGHT_CLEAR,CLEAR","Offshore,Offshore",2
5842041f4e65fad6a7708a42,2024_11_25,36.03043116489792,-75.66413,First Street,1.1666666666666667,0.0254,0.3228,16,14,"NIGHT_CLEAR,CLEAR","Offshore,Offshore",2
5842041f4e65fad6a7708a43,2024_11_25,36.06829910590498,-75.6899,Old Station/Laundromats,0.75,0,0.295335,16,14,"NIGHT_CLEAR,CLEAR","Offshore,Offshore",2
5842041f4e65fad6a7708a44,2024_11_25,36.10126676607491,-75.71107,Kitty Hawk Pier,0.6666666666666667,0.0254,0.3328,16,14,"NIGHT_CLEAR,CLEAR","Offshore,Offshore",2
5842041f4e65fad6a7708a45,2024_11_25,36.18220630068973,-75.75014,Duck Pier,1,0,0.2,15.5,15.5,"NIGHT_CLEAR,CLEAR","Offshore,Offshore",2
5842041f4e65fad6a7708a46,2024_11_25,36.37660668125033,-75.8241,Corolla,1,0,0.20500000000000002,15.5,15.5,"NIGHT_CLEAR,CLEAR","Offshore,Offshore",2
5842041f4e65fad6a7708a47,2024_11_25,33.90373404124834,-78.08241431707907,Oak Island,1,0.06,0.37,17,17,"NIGHT_CLEAR,CLEAR","Onshore,Cross-shore",2
5842041f4e65fad6a7708a48,2024_11_25,33.91108837766468,-78.29653,South Brunswick Beaches,1,0.07037,0.460605,17,17,"NIGHT_CLEAR,CLEAR","Cross-shore,Cross-shore",2
5842041f4e65fad6a7708a49,2024_11_25,34.05683595651973,-77.88128,Carolina Beach Pier,0.8,0,0.23959999999999998,17,16,"NIGHT_CLEAR,CLEAR","Offshore,Offshore",2
5842041f4e65fad6a7708a4a,2024_11_25,33.96841191816696,-77.9180242565498,Fort Fisher,0.8,0.01375,0.30210000000000004,17,16,"NIGHT_CLEAR,CLEAR","Offshore,Offshore",2
5842041f4e65fad6a7708a4b,2024_11_25,34.46776662988774,-77.47083,Topsail Beach,1.1666666666666665,0.037915000000000004,0.345115,17,16,"NIGHT_CLEAR,CLEAR","Cross-shore,Offshore",2
5842041f4e65fad6a7708a4c,2024_11_25,34.69270354752445,-76.82854854446575,Iron Steamer,0.75,0.01951,0.32818,18,16,"NIGHT_CLEAR,CLEAR","Cross-shore,Cross-shore",2
5842041f4e65fad6a7708a4f,2024_11_25,30.85132684893727,-81.42283496231143,Cumberland Island,1,0,0.21,19.5,19.5,"NIGHT_CLEAR,CLEAR","Offshore,Offshore",2
5842041f4e65fad6a7708a50,2024_11_25,34.686741128540874,-76.47516712138378,Cape Lookout National Seashore,2,0.155,0.46,18,18,"NIGHT_CLEAR,CLEAR","Offshore,Offshore",2
5842041f4e65fad6a7708a51,2024_11_25,31.10585419260024,-81.40422767604812,Jekyll Island,0,0,0.09,19,19,"NIGHT_CLEAR,CLEAR","Offshore,Offshore",2
5842041f4e65fad6a7708a52,2024_11_25,31.16212806376699,-81.32512426500224,Harbor Marker Buoys,0.5,0,0.155,19,19,"NIGHT_CLEAR,CLEAR","Offshore,Offshore",2
5842041f4e65fad6a7708a53,2024_11_25,31.20076299997009,-81.32629,Sea Island,0,0,0.135,19,19,"NIGHT_CLEAR,CLEAR","Offshore,Offshore",2
5842041f4e65fad6a7708a54,2024_11_25,31.13553222995767,-81.38457634790909,St. Simons Island,0,0,0.13,19,19,"NIGHT_CLEAR,CLEAR","Offshore,Offshore",2
5842041f4e65fad6a7708a55,2024_11_25,31.33550077186516,-81.28383377408417,Wolf Island,0,0,0.125,19,19,"NIGHT_CLEAR,CLEAR","Offshore,Offshore",2
5842041f4e65fad6a7708a56,2024_11_25,31.2704493877174,-81.27324039152315,Little St. Simons Island,0,0,0.135,19,19,"NIGHT_CLEAR,CLEAR","Offshore,Offshore",2
5842041f4e65fad6a7708a57,2024_11_25,31.39261761368919,-81.26190520231917,Sapelo Island,0,0,0.13,19,19,"NIGHT_CLEAR,CLEAR","Offshore,Offshore",2
5842041f4e65fad6a7708a58,2024_11_25,34.42458783809001,-77.54492,Surf City Pier,1.1666666666666665,0.0375,0.340115,17,16,"NIGHT_CLEAR,CLEAR","Offshore,Offshore",2
5842041f4e65fad6a7708a59,2024_11_25,31.4231993614213,-81.24725340591522,Cabretta Island,0,0,0.135,19,19,"NIGHT_CLEAR,CLEAR","Offshore,Offshore",2
5842041f4e65fad6a7708a5a,2024_11_25,31.46684389030369,-81.2100056410468,Blackbeard Island,0,0,0.13,18.5,18.5,"NIGHT_CLEAR,CLEAR","Offshore,Offshore",2
5842041f4e65fad6a7708a5b,2024_11_25,31.85953587631629,-80.99031310336719,Wassaw Island/South End,0,0,0.1,18.5,18.5,"NIGHT_CLEAR,CLEAR","Offshore,Offshore",2
5842041f4e65fad6a7708a5c,2024_11_25,31.62535662342983,-81.13328352167974,St. Catherines Island,0.5,0,0.155,18.5,18.5,"NIGHT_CLEAR,CLEAR","Offshore,Offshore",2
5842041f4e65fad6a7708a5d,2024_11_25,31.76502169596568,-81.07655443806622,Ossabaw Island,0,0,0.11499999999999999,18.5,18.5,"NIGHT_CLEAR,CLEAR","Offshore,Offshore",2
5842041f4e65fad6a7708a5e,2024_11_25,31.90593619092352,-80.93589231700857,Wassaw Island/North End,0,0,0.135,18,18,"NIGHT_CLEAR,CLEAR","Offshore,Offshore",2
5842041f4e65fad6a7708a5f,2024_11_25,31.96738675414547,-80.86977980706155,Little Tybee Island,1,0,0.16,18.5,18.5,"NIGHT_CLEAR,CLEAR","Offshore,Offshore",2
5842041f4e65fad6a7708a60,2024_11_25,31.9812255780179,-80.84773973467009,South Tybee Sandbars,1,0,0.17,18.5,18.5,"NIGHT_CLEAR,CLEAR","Offshore,Offshore",2
5842041f4e65fad6a7708a61,2024_11_25,32.01226,-80.83983,Sugar Shack,0,0,0.13,18.5,18.5,"NIGHT_CLEAR,CLEAR","Offshore,Offshore",2
5842041f4e65fad6a7708a62,2024_11_25,31.98722842396969,-80.84773,18th St. Jetty,0,0,0.13778,18.5,18.5,"NIGHT_CLEAR,CLEAR","Offshore,Offshore",2
5842041f4e65fad6a7708a64,2024_11_25,34.013473721006676,-77.8991,"Alabama Ave., Kure Beach",1,0,0.25,17,17,"NIGHT_CLEAR,CLEAR","Offshore,Offshore",2
5842041f4e65fad6a7708a65,2024_11_25,34.20859853336924,-77.79293,"C Street, Wrightsville Beach",0.8,0,0.26585000000000003,17,16,"NIGHT_CLEAR,CLEAR","Cross-shore,Cross-shore",2
5842041f4e65fad6a7708a66,2024_11_25,32.831,-79.71,Dewees Island,0,0,0.15,18,18,"NIGHT_CLEAR,CLEAR","Offshore,Offshore",2
5842041f4e65fad6a7708a67,2024_11_25,33.82924423172106,-78.62813,Cherry Grove Pier,-0.16666666666666669,0.14817,0.41494,17,17,"NIGHT_CLEAR,CLEAR","Cross-shore,Cross-shore",2
5842041f4e65fad6a7708a69,2024_11_25,34.27197439666496,-77.74050223196774,Figure Eight and Shell Islands,1.3,0.0025,0.2921,17,16,"NIGHT_CLEAR,CLEAR","Cross-shore,Offshore",2
5842041f4e65fad6a7708a6b,2024_11_25,33.49041958261793,-79.07666070599386,North End,0.5,0,0.245,17,17,"NIGHT_CLEAR,CLEAR","Cross-shore,Offshore",2
5842041f4e65fad6a7708a6c,2024_11_25,33.39537062495087,-79.13835037835189,The South End,1,0,0.195,18,18,"NIGHT_CLEAR,CLEAR","Offshore,Offshore",2
5842041f4e65fad6a7708a6d,2024_11_25,33.29001727666697,-79.17190003352977,North Island,1,0,0.195,18,18,"NIGHT_CLEAR,CLEAR","Offshore,Offshore",2
5842041f4e65fad6a7708a6e,2024_11_25,32.90929771158952,-79.57810400297359,Bull Island,1,0,0.225,18,18,"NIGHT_CLEAR,CLEAR","Offshore,Offshore",2
5842041f4e65fad6a7708a6f,2024_11_25,31.99153112815895,-80.84543050470074,Tybee Island Pier,0,0,0.1,18.5,18.5,"NIGHT_CLEAR,CLEAR","Offshore,Offshore",2
5842041f4e65fad6a7708a70,2024_11_25,33.03478144356316,-79.35021028265125,Cape Romain,1,0,0.20500000000000002,18,18,"NIGHT_CLEAR,CLEAR","Offshore,Offshore",2
5842041f4e65fad6a7708a71,2024_11_25,33.43231073271028,-79.11789,The Pier,0.5,0,0.179895,18,18,"NIGHT_CLEAR,CLEAR","Offshore,Offshore",2
5842041f4e65fad6a7708a72,2024_11_25,33.45423621397969,-79.10497798178424,South Litchfield,1,0,0.17,17.5,17.5,"NIGHT_CLEAR,CLEAR","Offshore,Offshore",2
5842041f4e65fad6a7708a73,2024_11_25,34.19316590251396,-77.8045,Crystal Pier,0.5,0,0.22729,17,16,"NIGHT_CLEAR,CLEAR","Cross-shore,Cross-shore",2
5842041f4e65fad6a7708a74,2024_11_25,33.68628680045124,-78.88346,Myrtle Beach,0,0,0.28,17,17,"NIGHT_CLEAR,CLEAR","Cross-shore,Offshore",2
5842041f4e65fad6a7708a75,2024_11_25,32.66166297145973,-79.91951806398808,10th Street,1,0,0.225,18,18,"NIGHT_CLEAR,CLEAR","Offshore,Offshore",2
5842041f4e65fad6a7708a76,2024_11_25,33.16729555197199,-79.19829236867845,South Island,1,0,0.31,17.5,17.5,"NIGHT_CLEAR,CLEAR","Offshore,Offshore",2
5842041f4e65fad6a7708a77,2024_11_25,32.595,-80.088,Kiawah Island/Seabrook Island,0,0,0.195,18,18,"NIGHT_CLEAR,CLEAR","Cross-shore,Cross-shore",2
5842041f4e65fad6a7708a78,2024_11_25,32.51356930575787,-80.28223,Edisto Beach,0.5,0,0.205635,18,18,"NIGHT_CLEAR,CLEAR","Cross-shore,Offshore",2
5842041f4e65fad6a7708a79,2024_11_25,32.366270751262,-80.43911,Hunting Island,0,0,0.14859,18.5,18.5,"NIGHT_CLEAR,CLEAR","Offshore,Offshore",2
5842041f4e65fad6a7708a7a,2024_11_25,32.65337734408365,-79.93983,Folly Beach Pier,0.25,0,0.175,18,18,"NIGHT_CLEAR,CLEAR","Cross-shore,Cross-shore",2
5842041f4e65fad6a7708a7b,2024_11_25,33.41209545530049,-79.13026341393126,South Jetty,1,0,0.195,18,18,"NIGHT_CLEAR,CLEAR","Offshore,Offshore",2
5842041f4e65fad6a7708a7c,2024_11_25,32.31115640606869,-80.48564,Fripp Island,0,0,0.19502,18,18,"NIGHT_CLEAR,CLEAR","Cross-shore,Cross-shore",2
5842041f4e65fad6a7708a7d,2024_11_25,32.14365226036034,-80.74402,Hilton Head Island,0,0,0.01,18,18,"NIGHT_CLEAR,CLEAR","Offshore,Offshore",2
5842041f4e65fad6a7708a7e,2024_11_25,29.70405364733744,-81.22426,Matanzas Inlet,0.8333333333333333,0.16298500000000002,0.40971,23,22,"NIGHT_CLEAR,CLEAR","Offshore,Offshore",2
5842041f4e65fad6a7708a81,2024_11_25,29.76878537149042,-81.25109,Crescent Beach,1,0,0.195,22,22,"NIGHT_CLEAR,CLEAR","Offshore,Offshore",2
5842041f4e65fad6a7708a82,2024_11_25,32.80251718689188,-79.73221919500764,Wild Dunes,1,0,0.235,18,18,"NIGHT_CLEAR,CLEAR","Cross-shore,Offshore",2
5842041f4e65fad6a7708a84,2024_11_25,32.75733539419244,-79.83258856064796,Bert's Bar,0.5,0,0.155,18,18,"NIGHT_CLEAR,CLEAR","Cross-shore,Offshore",2
5842041f4e65fad6a7708a85,2024_11_25,32.66829212943039,-79.90735,Washout,0.16666666666666663,0,0.2322,18,16,"NIGHT_CLEAR,CLEAR","Offshore,Offshore",2
5842041f4e65fad6a7708a86,2024_11_25,32.78452968219067,-79.7854,The Pier/Windjammer,0,0,0.235,18.5,18.5,"NIGHT_CLEAR,CLEAR","Cross-shore,Offshore",2
5842041f4e65fad6a7708a87,2024_11_25,29.86618162637438,-81.2662150259608,Anastasia Park (The Entrance),1,0,0.175,22,22,"NIGHT_CLEAR,MIST","Offshore,Offshore",2
5842041f4e65fad6a7708a89,2024_11_25,29.89149785916623,-81.2723223244215,Blowholes,0.6666666666666666,0,0.248035,26,24,"NIGHT_CLEAR,CLEAR","Offshore,Offshore",2
5842041f4e65fad6a7708a8a,2024_11_25,30.16227112983666,-81.35502907491218,Crossroads,0.6666666666666666,0,0.248035,26,24,"NIGHT_CLEAR,CLEAR","Offshore,Offshore",2
5842041f4e65fad6a7708a8b,2024_11_25,30.19308537587637,-81.36314247820911,Sawgrass,0.6666666666666666,0,0.23178500000000002,26,24,"NIGHT_CLEAR,CLEAR","Offshore,Offshore",2
5842041f4e65fad6a7708a8c,2024_11_25,30.34696027700899,-81.39451,18th Street,1.5,0.16510000000000002,0.414465,21,21,"NIGHT_CLEAR,CLEAR","Offshore,Offshore",2
5842041f4e65fad6a7708a8d,2024_11_25,30.381793,-81.39686,Mayport Poles,1,0,0.27,21,21,"NIGHT_CLEAR,CLEAR","Offshore,Offshore",2
5842041f4e65fad6a7708a8e,2024_11_25,30.390516,-81.395591,Blue Roofs,1,0,0.23,21,21,"NIGHT_CLEAR,CLEAR","Offshore,Offshore",2
5842041f4e65fad6a7708a8f,2024_11_25,30.40517712722211,-81.40074116169004,Huguenot Park (North Jetty),1,0,0.17,21,21,"NIGHT_CLEAR,CLEAR","Offshore,Offshore",2
5842041f4e65fad6a7708a90,2024_11_25,30.47788918872762,-81.41055821335078,Talbot Island,1.5,0.22072999999999998,0.420875,23,22,"NIGHT_CLEAR,CLEAR","Offshore,Offshore",2
5842041f4e65fad6a7708a91,2024_11_25,30.66753984549761,-81.42983,Main Beach,1,0,0.17,20,20,"NIGHT_CLEAR,CLEAR","Offshore,Offshore",2
5842041f4e65fad6a7708a92,2024_11_25,30.69983581209126,-81.42483,Ft. Clinch State Park,1,0,0.19,20,20,"NIGHT_CLEAR,CLEAR","Offshore,Offshore",2
5842041f4e65fad6a7708a93,2024_11_25,30.62059700777582,-81.437252942757425,Amelia Pier,0,0,0.21,21,21,"NIGHT_CLEAR,CLEAR","Offshore,Offshore",2
5842041f4e65fad6a7708a95,2024_11_25,28.95125170929067,-80.83837,Bethune Beach,1,0,0.295,23,23,"NIGHT_CLEAR,CLEAR","Offshore,Cross-shore",2
5842041f4e65fad6a7708a96,2024_11_25,29.03874288905362,-80.8933424949646,Flagler Ave.,1.1666666666666665,0.1397,0.42523500000000003,26,24,"NIGHT_CLEAR,MIST","Offshore,Cross-shore",2
5842041f4e65fad6a7708a98,2024_11_25,30.332297686992757,-81.39319,Atlantic Beach,1,0,0.16861,21,21,"NIGHT_CLEAR,CLEAR","Offshore,Offshore",2
5842041f4e65fad6a7708a99,2024_11_25,29.87530059952514,-81.26757958498874,Middles,0.6666666666666666,0,0.248035,26,24,"NIGHT_CLEAR,CLEAR","Offshore,Offshore",2
5842041f4e65fad6a7708a9a,2024_11_25,29.146475528378218,-80.96347,Sunglow Pier,1,0,0.255,23,23,"NIGHT_CLEAR,CLEAR","Offshore,Offshore",2
5842041f4e65fad6a7708a9b,2024_11_25,30.02251238001095,-81.32183077344881,Gate Station,0.6666666666666666,0,0.248035,26,24,"NIGHT_CLEAR,CLEAR","Offshore,Offshore",2
5842041f4e65fad6a7708a9c,2024_11_25,29.33976495417899,-81.0606,Bicentennial Park,1,0,0.245,22,22,"NIGHT_CLEAR,CLEAR","Offshore,Offshore",2
5842041f4e65fad6a7708a9d,2024_11_25,29.08257353385602,-80.92137,Ponce Inlet,0.8,0.015835,0.318035,24,23,"NIGHT_CLEAR,CLEAR","Offshore,Offshore",2
5842041f4e65fad6a7708a9f,2024_11_25,27.862962005874696,-80.44668,Sebastian Inlet,0.8333333333333333,0.199265,0.43613999999999997,23,23,"NIGHT_CLEAR,MIST","Offshore,Cross-shore",2
5842041f4e65fad6a7708aa0,2024_11_25,30.292626880836885,-81.38579,Jacksonville Beach Pier,1,0,0.258865,23,22,"NIGHT_CLEAR,CLEAR","Cross-shore,Cross-shore",2
5842041f4e65fad6a7708aa2,2024_11_25,29.21860397328164,-81.0019,Daytona Beach,1,0,0.265,22.5,22.5,"NIGHT_CLEAR,CLEAR","Offshore,Offshore",2
5842041f4e65fad6a7708aa3,2024_11_25,27.47531255634912,-80.28914,Ft. Pierce Inlet,1,0,0.30720000000000003,23,23,"NIGHT_CLEAR,CLEAR","Offshore,Offshore",2
5842041f4e65fad6a7708aa4,2024_11_25,29.29239875585548,-81.0386,Ormond Beach,1,0,0.275,22,22,"NIGHT_CLEAR,CLEAR","Offshore,Offshore",2
5842041f4e65fad6a7708aa5,2024_11_25,29.91629441498523,-81.28801,Vilano,1,0,0.17,22,22,"NIGHT_CLEAR,CLEAR","Offshore,Offshore",2
5842041f4e65fad6a7708aa6,2024_11_25,27.876230736320828,-80.4551,Spanish House,1.1666666666666665,0.064165,0.361785,23,23,"NIGHT_CLEAR,MIST","Offshore,Onshore",2
5842041f4e65fad6a7708aa7,2024_11_25,28.64397251741012,-80.62329,Playalinda,1.5,0.005,0.305,22.5,22.5,"NIGHT_CLEAR,CLEAR","Offshore,Offshore",2
5842041f4e65fad6a7708aa8,2024_11_25,28.406142,-80.58886,Jetty Park,1,0,0.195,23,23,"NIGHT_CLEAR,CLEAR","Onshore,Offshore",2
5842041f4e65fad6a7708aa9,2024_11_25,28.49083243010974,-80.58001715986319,Kennedy Space Center,1,0.060000000000000005,0.36,22.5,22.5,"NIGHT_CLEAR,CLEAR","Offshore,Cross-shore",2
5842041f4e65fad6a7708aab,2024_11_25,28.336757013024314,-80.60568,Lori Wilson Park,0.6666666666666666,0,0.264285,23,23,"NIGHT_CLEAR,CLEAR","Cross-shore,Offshore",2
5842041f4e65fad6a7708aad,2024_11_25,27.76388821683801,-80.3962958234027,Wabasso,2,0.015,0.32,23,23,"NIGHT_CLEAR,CLEAR","Offshore,Cross-shore",2
5842041f4e65fad6a7708aae,2024_11_25,27.521583322459,-80.30987620353699,P.V. Martin's,1.3333333333333333,0.04875,0.35595,23,23,"NIGHT_CLEAR,CLEAR","Offshore,Cross-shore",2
5842041f4e65fad6a7708aaf,2024_11_25,27.644996047720046,-80.35242676734924,Riomar,0.5,0.048334999999999996,0.35095,23,23,"NIGHT_MOSTLY_CLEAR,MOSTLY_CLEAR","Offshore,Cross-shore",2
5842041f4e65fad6a7708ab1,2024_11_25,27.670121806659253,-80.36026954650879,Vero Pier,1.3333333333333333,0.14,0.43761500000000003,23,23,"NIGHT_CLEAR,CLEAR","Offshore,Offshore",2
5842041f4e65fad6a7708ab2,2024_11_25,28.047705032021486,-80.54680109024048,Spessard Holland,1.3333333333333333,0.091795,0.373495,23,23,"NIGHT_MOSTLY_CLEAR,MOSTLY_CLEAR","Offshore,Cross-shore",2
5842041f4e65fad6a7708ab7,2024_11_25,28.135426226217064,-80.57895541191101,The Radisson,1.3333333333333333,0.032085,0.339285,23,23,"NIGHT_CLEAR,MIST","Offshore,Offshore",2
5842041f4e65fad6a7708ab8,2024_11_25,28.26664623907351,-80.60448,Picnic Tables,2,0.08499999999999999,0.395,23,23,"NIGHT_CLEAR,MIST","Offshore,Offshore",2
5842041f4e65fad6a7708ab9,2024_11_25,28.200840983180232,-80.59493,Perkins,2,0.04,0.345,23,23,"NIGHT_CLEAR,MIST","Offshore,Offshore",2
5842041f4e65fad6a7708aba,2024_11_25,28.185652556759443,-80.59154,RC's,1,0.07,0.38,23,23,"NIGHT_CLEAR,CLEAR","Offshore,Offshore",2
5842041f4e65fad6a7708abc,2024_11_25,28.252541991968208,-80.60269,2nd Light,2,0.055,0.365,23,23,"NIGHT_CLEAR,MIST","Offshore,Offshore",2
5842041f4e65fad6a7708abd,2024_11_25,27.901611308716447,-80.4697,Bonsteel Park,1.1666666666666665,0.01625,0.32845,23,23,"NIGHT_CLEAR,MIST","Offshore,Cross-shore",2
5842041f4e65fad6a7708abe,2024_11_25,28.2423394657007,-80.60104,Hangar's Beach,2,0.060000000000000005,0.365,23,23,"NIGHT_CLEAR,MIST","Offshore,Offshore",2
5842041f4e65fad6a7708abf,2024_11_25,27.34018197146798,-80.23278,Walton Rocks,0.5,0.084,0.36092,24,23,"NIGHT_FOG,CLEAR","Offshore,Onshore",2
5842041f4e65fad6a7708ac0,2024_11_25,25.80407401902198,-80.1222227290161,30th Street,1,0,0.18,27,27,"NIGHT_MOSTLY_CLOUDY,MIST","Onshore,Onshore",2
5842041f4e65fad6a7708ac1,2024_11_25,25.76570280215999,-80.12983,South Beach,0,0,0.146845,27,25,"NIGHT_MOSTLY_CLOUDY,CLOUDY","Onshore,Onshore",2
5842041f4e65fad6a7708ac2,2024_11_25,26.058022412197,-80.10873562327671,Dania Pier,1,0,0.175,27,27,"NIGHT_MOSTLY_CLOUDY,CLOUDY","Onshore,Onshore",2
5842041f4e65fad6a7708ac3,2024_11_25,26.04825428257198,-80.11153150137932,Franklin Street,1,0,0.23,27,27,"NIGHT_MOSTLY_CLOUDY,CLOUDY","Onshore,Onshore",2
5842041f4e65fad6a7708ac4,2024_11_25,26.09086461141498,-80.10728410144065,John Lloyd State Park,1,0,0.225,27,27,"NIGHT_MOSTLY_CLOUDY,CLOUDY","Onshore,Onshore",2
5842041f4e65fad6a7708ac5,2024_11_25,26.0971397396683,-80.10298876028907,Spoils,0,0,0.19,27,27,"NIGHT_MOSTLY_CLOUDY,OVERCAST","Onshore,Onshore",2
5842041f4e65fad6a7708ac6,2024_11_25,26.18920557475824,-80.09224,Commercial Pier,1,0,0.23,27,27,"NIGHT_MOSTLY_CLOUDY,CLOUDY","Onshore,Onshore",2
5842041f4e65fad6a7708ac7,2024_11_25,28.289851576629342,-80.6063,16th St. South,0.6666666666666666,0,0.30178499999999997,25,24,"NIGHT_CLEAR,MIST","Offshore,Offshore",2
5842041f4e65fad6a7708ac8,2024_11_25,26.23467460139735,-80.0874,Pompano Pier,0,0,0.09,27,27,"NIGHT_MOSTLY_CLOUDY,OVERCAST","Onshore,Onshore",2
5842041f4e65fad6a7708acb,2024_11_25,26.44179551370651,-80.05928855229453,Atlantic Dunes Park,0,0,0.15287499999999998,26,25,"NIGHT_MOSTLY_CLOUDY,MOSTLY_CLOUDY","Offshore,Cross-shore",2
5842041f4e65fad6a7708acd,2024_11_25,26.62215707439298,-80.03599398392342,Hilton Hotel Backyard,1.25,0.012499999999999999,0.3245,26,25,"NIGHT_CLEAR,MOSTLY_CLOUDY","Cross-shore,Onshore",2
5842041f4e65fad6a7708ace,2024_11_25,26.96418190555367,-80.07769168113562,Coral Cove Park,1.5,0.111665,0.423665,24,24,"NIGHT_MOSTLY_CLOUDY,MOSTLY_CLOUDY","Onshore,Onshore",2
5842041f4e65fad6a7708acf,2024_11_25,26.7029496416037,-80.03184,Palm Beach,1.5,0.04,0.337835,26,25,"NIGHT_CLEAR,MOSTLY_CLOUDY","Offshore,Offshore",2
5842041f4e65fad6a7708ad0,2024_11_25,26.97679878167375,-80.08141631388132,Blowing Rocks,1.5,0.064165,0.367,24,24,"NIGHT_MOSTLY_CLOUDY,MOSTLY_CLOUDY","Onshore,Onshore",2
5842041f4e65fad6a7708ad2,2024_11_25,26.45661880078336,-80.057,Delray Beach,0,0,0.152735,26,25,"NIGHT_MOSTLY_CLOUDY,MOSTLY_CLOUDY","Offshore,Offshore",2
5842041f4e65fad6a7708ad3,2024_11_25,27.205685534312778,-80.16826629638672,Fletcher's,1.5,0.0575,0.36033499999999996,24,24,"NIGHT_CLEAR,MOSTLY_CLEAR","Offshore,Onshore",2
5842041f4e65fad6a7708ad5,2024_11_25,26.5848450388814,-80.03649735753257,Lantana Public Beach,1.25,0.051664999999999996,0.35450000000000004,26,25,"NIGHT_CLEAR,MOSTLY_CLOUDY","Cross-shore,Onshore",2
5842041f4e65fad6a7708ad6,2024_11_25,25.77468432731322,-80.12884045797499,5th Street,1,0,0.185,27,27,"NIGHT_MOSTLY_CLOUDY,OVERCAST","Onshore,Onshore",2
5842041f4e65fad6a7708ad7,2024_11_25,25.795157990715975,-80.12527585029602,21st Street,1,0,0.175,27,27,"NIGHT_MOSTLY_CLOUDY,OVERCAST","Onshore,Onshore",2
5842041f4e65fad6a7708ad8,2024_11_25,25.897806453088073,-80.1211827993393,Haulover Inlet (South Jetty),0,0,0.195,27,27,"NIGHT_CLEAR,OVERCAST","Onshore,Onshore",2
5842041f4e65fad6a7708ad9,2024_11_25,25.90147392328634,-80.12110769748688,Haulover Inlet (North Jetty),1,0,0.23,27,27,"NIGHT_CLEAR,OVERCAST","Onshore,Onshore",2
5842041f4e65fad6a7708ada,2024_11_25,25.87049374242476,-80.11828560342356,85th Street,1,0,0.18,27,27,"NIGHT_CLEAR,OVERCAST","Onshore,Onshore",2
5842041f4e65fad6a7708adb,2024_11_25,26.25486382031396,-80.0805,Hillsboro Inlet,2,0,0.21971,27,27,"NIGHT_CLEAR,CLOUDY","Onshore,Onshore",2
5842041f4e65fad6a7708add,2024_11_25,26.29705672965111,-80.07612,Hillsboro Beach,1,0,0.21,27,27,"NIGHT_CLEAR,OVERCAST","Onshore,Onshore",2
5842041f4e65fad6a7708ade,2024_11_25,26.36569956413266,-80.06717936869391,Red Reef Park,0.75,0,0.285335,26,25,"NIGHT_CLEAR,OVERCAST","Onshore,Onshore",2
5842041f4e65fad6a7708adf,2024_11_25,26.54593873498907,-80.04104359585143,Boynton Beach Inlet (Northside),0.75,0,0.278665,26,25,"NIGHT_MOSTLY_CLOUDY,CLEAR","Onshore,Onshore",2
5842041f4e65fad6a7708ae0,2024_11_25,26.92746505629809,-80.06721138954163,Corners,1,0.224775,0.43795999999999996,26,25,"NIGHT_MOSTLY_CLOUDY,CLEAR","Onshore,Onshore",2
5842041f4e65fad6a7708ae1,2024_11_25,26.76983179886943,-80.03413481937037,The Cove,1.5,0.045835,0.348665,26,25,"NIGHT_MOSTLY_CLOUDY,MOSTLY_CLOUDY","Onshore,Onshore",2
5842041f4e65fad6a7708ae3,2024_11_25,26.39224485175123,-80.0650461233983,Japanese Rock,0.75,0,0.272835,26,25,"NIGHT_MOSTLY_CLOUDY,MOSTLY_CLOUDY","Onshore,Onshore",2
5842041f4e65fad6a7708ae4,2024_11_25,29.94810928551321,-85.42545434612366,Mexico Beach,0,0,0.08499999999999999,22,22,"NIGHT_MOSTLY_CLOUDY,OVERCAST","Offshore,Offshore",2
5842041f4e65fad6a7708ae5,2024_11_25,30.11752500931267,-85.7306,Shell Island,0,0,0.08,23,23,"NIGHT_MOSTLY_CLOUDY,CLOUDY","Onshore,Onshore",2
5842041f4e65fad6a7708ae7,2024_11_25,29.94901514702268,-85.43042978529013,D.J.'s,0,0,0.08499999999999999,22,22,"NIGHT_MOSTLY_CLOUDY,OVERCAST","Offshore,Cross-shore",2
5842041f4e65fad6a7708ae8,2024_11_25,30.12396111446713,-85.73637,St. Andrew's Park,0,0,0.090265,21,20,"NIGHT_MOSTLY_CLOUDY,CLOUDY","Onshore,Onshore",2
5842041f4e65fad6a7708ae9,2024_11_25,30.16781531760227,-85.79604918824084,Spinnaker,0,0,0.160265,21,20,"NIGHT_CLEAR,MOSTLY_CLOUDY","Onshore,Onshore",2
5842041f4e65fad6a7708aea,2024_11_25,30.18877050526983,-85.83243530466363,Wood Pier,0,0,0.23011500000000001,21,20,"NIGHT_CLEAR,MIST","Onshore,Onshore",2
5842041f4e65fad6a7708aeb,2024_11_25,30.2676205895555,-85.9938578144113,Inlet Beach Pier,0,0,0.23011500000000001,21,20,"NIGHT_MOSTLY_CLOUDY,MOSTLY_CLOUDY","Onshore,Onshore",2
5842041f4e65fad6a7708aec,2024_11_25,30.31815542759119,-86.1383771867044,Bud and Alley's,0,0,0.22970000000000002,21,20,"NIGHT_MOSTLY_CLOUDY,MOSTLY_CLOUDY","Onshore,Onshore",2
5842041f4e65fad6a7708aed,2024_11_25,30.32686082481946,-86.16650590275447,Grayton Beach,0,0,0.219285,21,20,"NIGHT_CLEAR,MOSTLY_CLOUDY","Onshore,Onshore",2
5842041f4e65fad6a7708aee,2024_11_25,30.33661488976303,-86.20094,Blue Mountain Beach,0,0,0.2197,21,20,"NIGHT_CLEAR,CLEAR","Onshore,Onshore",2
5842041f4e65fad6a7708aef,2024_11_25,30.37677202831587,-86.38513,Pompano Joe's,0,0,0.245115,21,20,"NIGHT_MOSTLY_CLOUDY,MOSTLY_CLOUDY","Onshore,Offshore",2
5842041f4e65fad6a7708af0,2024_11_25,30.37429731725911,-86.36687,Seascape,0,0,0.213865,21,20,"NIGHT_MOSTLY_CLOUDY,MOSTLY_CLOUDY","Onshore,Offshore",2
5842041f4e65fad6a7708af1,2024_11_25,30.382815988547186,-86.45839,The Back Porch,0,0,0.245115,21,20,"NIGHT_CLEAR,MOSTLY_CLOUDY","Onshore,Onshore",2
5842041f4e65fad6a7708af2,2024_11_25,30.21207176798612,-85.87989730830542,Panama City Pier,0,0,0.23011500000000001,21,20,"NIGHT_MOSTLY_CLOUDY,MOSTLY_CLOUDY","Onshore,Onshore",2
5842041f4e65fad6a7708af3,2024_11_25,30.37521499110326,-86.3717,Whale's Tail,0.33333333333333326,0,0.245535,21,20,"NIGHT_MOSTLY_CLOUDY,MOSTLY_CLOUDY","Onshore,Cross-shore",2
5842041f4e65fad6a7708af4,2024_11_25,30.38120596658251,-86.43046,Old Crystal Pier,0,0,0.245115,21,20,"NIGHT_MOSTLY_CLOUDY,MOSTLY_CLOUDY","Onshore,Onshore",2
5842041f4e65fad6a7708af5,2024_11_25,30.38090573159031,-86.50655,Jetty East,0,0,0.250535,21,20,"NIGHT_CLOUDY,MOSTLY_CLOUDY","Onshore,Onshore",2
5842041f4e65fad6a7708af6,2024_11_25,30.37584509640838,-86.50563,HMO's,0,0,0.250535,21,20,"NIGHT_CLOUDY,MOSTLY_CLOUDY","Onshore,Onshore",2
5842041f4e65fad6a7708af7,2024_11_25,30.38124006131522,-86.50052,Two By Fours,0,0,0.250535,21,20,"NIGHT_CLOUDY,CLEAR","Onshore,Onshore",2
5842041f4e65fad6a7708af8,2024_11_25,30.38250751017554,-86.45776,The Pumphouse,0,0,0.250535,21,20,"NIGHT_CLEAR,MOSTLY_CLOUDY","Onshore,Onshore",2
5842041f4e65fad6a7708af9,2024_11_25,30.38655981578935,-86.52475,NCO Club,0,0,0.250535,21,20,"NIGHT_CLOUDY,MOSTLY_CLOUDY","Onshore,Onshore",2
5842041f4e65fad6a7708afa,2024_11_25,30.39024516541047,-86.59341,Okaloosa Pier,0,0,0.245115,21,20,"NIGHT_CLOUDY,MOSTLY_CLOUDY","Onshore,Onshore",2
5842041f4e65fad6a7708afb,2024_11_25,30.39281125722673,-86.59766,Dead Man's,0,0,0.2447,21,20,"NIGHT_CLOUDY,MOSTLY_CLOUDY","Onshore,Onshore",2
5842041f4e65fad6a7708afc,2024_11_25,30.32703176167034,-87.14196,Pensacola Pier,0.5,0,0.305,22,22,"NIGHT_OVERCAST,MOSTLY_CLEAR","Onshore,Cross-shore",2
5842041f4e65fad6a7708afd,2024_11_25,30.37920054094992,-86.85583,Navarre Beach,0.6666666666666666,0,0.22836499999999998,21,20,"NIGHT_OVERCAST,MOSTLY_CLOUDY","Onshore,Cross-shore",2
5842041f4e65fad6a7708afe,2024_11_25,30.39491626029151,-86.61248,Blue Horizon Motel,0,0,0.2397,21,20,"NIGHT_CLOUDY,MOSTLY_CLOUDY","Onshore,Onshore",2
5842041f4e65fad6a7708aff,2024_11_25,30.29345899260828,-87.43547,First Parking Lot,0,0,0.295,22,22,"NIGHT_CLOUDY,MIST","Onshore,Onshore",2
5842041f4e65fad6a7708b00,2024_11_25,30.29767401311303,-87.41362,Johnsons Beach,0.5,0,0.3,22,22,"NIGHT_OVERCAST,MOSTLY_CLOUDY","Onshore,Onshore",2
5842041f4e65fad6a7708b01,2024_11_25,30.29513397370759,-87.42642,Sandy Key,0,0,0.295,22,22,"NIGHT_CLOUDY,MIST","Onshore,Onshore",2
5842041f4e65fad6a7708b03,2024_11_25,30.377504907388026,-86.86444,Navarre Pier,0,0,0.2497,21,20,"NIGHT_OVERCAST,MOSTLY_CLOUDY","Onshore,Offshore",2
5842041f4e65fad6a7708b04,2024_11_25,30.31482647791307,-87.26164,Pickens Point Dunes,0.5,0.005,0.315,22,22,"NIGHT_OVERCAST,CLEAR","Onshore,Onshore",2
5842041f4e65fad6a7708b05,2024_11_25,30.32632110836516,-87.16019503253068,Slabs,0.5,0.005,0.31,22,22,"NIGHT_OVERCAST,MOSTLY_CLEAR","Onshore,Cross-shore",2
5842041f4e65fad6a7708b06,2024_11_25,30.32739721382043,-87.30406515493348,Pickens Point,0,0,0.295,22,22,"NIGHT_CLOUDY,MOSTLY_CLOUDY","Onshore,Onshore",2
5842041f4e65fad6a7708b07,2024_11_25,30.27406893266753,-87.54367,Bungalows,0.5,0.005,0.305,21.5,21.5,"NIGHT_RAIN,MIST","Onshore,Onshore",2
5842041f4e65fad6a7708b08,2024_11_25,27.99627311846992,-82.82942,880,0,0,0.09911500000000001,22,22,"NIGHT_CLEAR,CLEAR","Offshore,Offshore",2
5842041f4e65fad6a7708b09,2024_11_25,27.97779860371595,-82.83246509090527,Pier 60,0,0,0.09,22,22,"NIGHT_CLEAR,CLEAR","Offshore,Offshore",2
5842041f4e65fad6a7708b0a,2024_11_25,27.96296387618043,-82.8332635965418,Sand Key,0,0,0.095,22,22,"NIGHT_CLEAR,CLEAR","Offshore,Offshore",2
5842041f4e65fad6a7708b0b,2024_11_25,27.92492619212885,-82.8449122845279,Belleair,0,0,0.095,22.5,22.5,"NIGHT_CLEAR,CLEAR","Offshore,Offshore",2
5842041f4e65fad6a7708b0c,2024_11_25,27.882,-82.854,Indian Rocks Beach,0,0,0.095,22.5,22.5,"NIGHT_CLEAR,CLEAR","Offshore,Offshore",2
5842041f4e65fad6a7708b0d,2024_11_25,27.83106104966094,-82.83550218771384,Redington Breakwater,0,0,0.095,22.5,22.5,"NIGHT_CLEAR,CLEAR","Offshore,Offshore",2
5842041f4e65fad6a7708b0e,2024_11_25,27.74369029906206,-82.76053473435867,Middle Jetty,0,0,0.095,23,23,"NIGHT_CLEAR,CLEAR","Offshore,Offshore",2
5842041f4e65fad6a7708b0f,2024_11_25,27.82174178852146,-82.83148664631841,Redington Pier,0,0,0.095,22.5,22.5,"NIGHT_CLEAR,CLEAR","Offshore,Offshore",2
5842041f4e65fad6a7708b10,2024_11_25,27.31496308261514,-82.5830466912004,Lido Beach,0,0,0.105,23,23,"NIGHT_CLEAR,CLEAR","Offshore,Offshore",2
5842041f4e65fad6a7708b11,2024_11_25,27.31122010159892,-82.57833234007632,Coolidge,0,0,0.105,23,23,"NIGHT_CLEAR,CLEAR","Offshore,Offshore",2
5842041f4e65fad6a7708b12,2024_11_25,27.26471672017615,-82.55464835167173,Siesta Key,0,0,0.05,22,20,"NIGHT_CLEAR,CLEAR","Offshore,Offshore",2
5842041f4e65fad6a7708b13,2024_11_25,27.24638693488133,-82.53809115716797,Stickney Point,0,0,0.115,23,23,"NIGHT_CLEAR,CLEAR","Offshore,Offshore",2
5842041f4e65fad6a7708b14,2024_11_25,27.21907878229092,-82.51813937562073,Turtles,0,0,0.11,23,23,"NIGHT_CLEAR,CLEAR","Offshore,Offshore",2
5842041f4e65fad6a7708b15,2024_11_25,27.11375765852028,-82.47039,Venice Jetties North,0,0,0.12057000000000001,22,20,"NIGHT_CLEAR,CLEAR","Offshore,Offshore",2
5842041f4e65fad6a7708b16,2024_11_25,27.111485758834025,-82.46757,Venice Jetties South,0,0,0.08,22,20,"NIGHT_CLEAR,CLEAR","Offshore,Offshore",2
5842041f4e65fad6a7708b17,2024_11_25,27.07249378831575,-82.4530285256104,Venice Pier,0,0,0.115,22,20,"NIGHT_CLEAR,CLEAR","Offshore,Offshore",2
5842041f4e65fad6a7708b19,2024_11_25,27.49680446426314,-82.7140145455959,Holmes Beach Pier,0,0,0.095,23,23,"NIGHT_CLEAR,CLEAR","Offshore,Offshore",2
5842041f4e65fad6a7708b1a,2024_11_25,27.7390348493064,-82.75763,Sunset Beach,0,0,0.095,23,23,"NIGHT_CLEAR,CLEAR","Offshore,Offshore",2
5842041f4e65fad6a7708b1b,2024_11_25,26.80347307599041,-82.28564775623539,Gasparilla Point,0,0,0.125,23,23,"NIGHT_CLEAR,CLEAR","Offshore,Offshore",2
5842041f4e65fad6a7708b1c,2024_11_25,27.45365831548911,-82.69609,Coquina Jetties,0,0,0.095,23,23,"NIGHT_CLEAR,CLEAR","Offshore,Offshore",2
5842041f4e65fad6a7708b1d,2024_11_25,27.46077315206043,-82.69924,Twin Piers,0.16666666666666669,0,0.15095,22,20,"NIGHT_CLEAR,CLEAR","Offshore,Offshore",2
5842041f4e65fad6a7708b1e,2024_11_25,26.91007316019612,-82.35352,Englewood,0,0,0.05,23,23,"NIGHT_CLEAR,CLEAR","Offshore,Offshore",2
5842041f4e65fad6a7708b1f,2024_11_25,26.88221101560038,-82.3359828282636,Knight's Point,0,0,0.115,23,23,"NIGHT_CLEAR,CLEAR","Offshore,Offshore",2
5842041f4e65fad6a7708b20,2024_11_25,26.51219285784982,-82.1928203289264,Tween Waters,0,0,0.125,23,23,"NIGHT_CLEAR,CLEAR","Offshore,Offshore",2
5842041f4e65fad6a7708b21,2024_11_25,26.55130241615096,-82.20222762415648,Redfish Pass,0,0,0.125,23,23,"NIGHT_CLEAR,CLEAR","Offshore,Offshore",2
5842041f4e65fad6a7708b22,2024_11_25,26.71713432926596,-82.26287777058234,Boca Grande,0,0,0.12,23,23,"NIGHT_CLEAR,CLEAR","Offshore,Offshore",2
5842041f4e65fad6a7708b23,2024_11_25,26.47856785808584,-82.181288592828,Blind Pass,0,0,0.125,23,23,"NIGHT_CLEAR,CLEAR","Offshore,Offshore",2
5842041f4e65fad6a7708b24,2024_11_25,26.25358330618783,-81.82429246081317,The Wall,0,0,0.11,23,23,"NIGHT_CLEAR,CLEAR","Offshore,Offshore",2
5842041f4e65fad6a7708b25,2024_11_25,26.17456407516186,-81.81588575623482,Doctor's Pass,0,0,0.11,23,23,"NIGHT_CLEAR,CLEAR","Offshore,Offshore",2
5842041f4e65fad6a7708b26,2024_11_25,27.427134501874612,-82.68110766159296,Whitney Beach,0,0,0.11,23,23,"NIGHT_CLEAR,CLEAR","Offshore,Offshore",2
5842041f4e65fad6a7708b27,2024_11_25,26.17300183052463,-81.81515842430267,Doctor's Pass (South Jetty),0,0,0.11,23,23,"NIGHT_CLEAR,CLEAR","Offshore,Offshore",2
5842041f4e65fad6a7708b28,2024_11_25,27.73496421495629,-82.75268962468695,Upham Beach Park,0,0,0.095,23,23,"NIGHT_CLEAR,CLEAR","Offshore,Offshore",2
5842041f4e65fad6a7708b29,2024_11_25,26.13144856766723,-81.8090395116521,Naples Pier,0,0,0.1,23.5,23.5,"NIGHT_CLEAR,CLEAR","Offshore,Offshore",2
5842041f4e65fad6a7708b2a,2024_11_25,20.63474,-156.45211,Little Beach,2,0.135,0.44,26,26,"NIGHT_CLEAR,NIGHT_CLEAR","Offshore,Offshore",2
5842041f4e65fad6a7708b2b,2024_11_25,20.613,-156.438,Dumps,1,0,0.28,26,26,"NIGHT_CLEAR,NIGHT_CLEAR","Offshore,Offshore",2
5842041f4e65fad6a7708b2c,2024_11_25,22.216,-159.502,Hanalei Bay,3.5,2.365,2.825,26,26,"NIGHT_CLEAR,NIGHT_MOSTLY_CLOUDY","Cross-shore,Cross-shore",2
5842041f4e65fad6a7708b2d,2024_11_25,22.225,-159.567,Ha'Ena Bay (Cannons/Tunnels),3,2.0549999999999997,2.46,26,26,"NIGHT_CLEAR,NIGHT_MOSTLY_CLOUDY","Cross-shore,Offshore",2
5842041f4e65fad6a7708b2f,2024_11_25,22.148,-159.301,Anahola Bay,3,1.045,1.3050000000000002,26,26,"NIGHT_MOSTLY_CLOUDY,NIGHT_CLEAR","Onshore,Onshore",2
5842041f4e65fad6a7708b30,2024_11_25,21.872,-159.462,Poipu Outer Reef,3,0.425,0.73,26,26,"NIGHT_CLEAR,NIGHT_CLEAR","Offshore,Offshore",2
5842041f4e65fad6a7708b31,2024_11_25,21.936,-159.652,Pakala,2.5,0.28500000000000003,0.5900000000000001,25.5,25.5,"NIGHT_CLEAR,NIGHT_CLEAR","Cross-shore,Onshore",2
5842041f4e65fad6a7708b32,2024_11_25,21.272,-157.832,Populars,2.5,0.30000000000000004,0.605,26,25,"NIGHT_CLEAR,NIGHT_CLEAR","Offshore,Offshore",2
5842041f4e65fad6a7708b33,2024_11_25,21.26841992117695,-157.82329,Publics,2,0.27,0.5700000000000001,26,25,"NIGHT_CLEAR,NIGHT_CLEAR","Offshore,Offshore",2
5842041f4e65fad6a7708b34,2024_11_25,21.25460513357954,-157.79432,Black Point,3,0.5625800000000001,0.88385,26,26,"NIGHT_CLEAR,NIGHT_CLEAR","Offshore,Offshore",2
5842041f4e65fad6a7708b35,2024_11_25,21.27394674233747,-157.82777,Canoes,2.5,0.29500000000000004,0.595,26,25,"NIGHT_CLEAR,NIGHT_CLEAR","Offshore,Offshore",2
5842041f4e65fad6a7708b36,2024_11_25,21.273658410008455,-157.8263,Queen's,2,0.185,0.49,26,25,"NIGHT_CLEAR,NIGHT_CLEAR","Offshore,Offshore",2
5842041f4e65fad6a7708b37,2024_11_25,20.869,-156.679,Lahaina Harbor - Breakwall,2,0.25,0.56,26,26,"NIGHT_CLEAR,NIGHT_CLEAR","Offshore,Offshore",2
5842041f4e65fad6a7708b38,2024_11_25,21.277,-157.841,Kaiser's,2,0.22499999999999998,0.53,26,25,"NIGHT_CLEAR,NIGHT_CLEAR","Offshore,Offshore",2
5842041f4e65fad6a7708b39,2024_11_25,21.280537020769913,-157.84107,Rockpiles,2.5,0.353955,0.655855,26,25,"NIGHT_CLEAR,NIGHT_CLEAR","Offshore,Offshore",2
5842041f4e65fad6a7708b3a,2024_11_25,21.2745,-157.8395,Four's,3,0.355,0.66,26,26,"NIGHT_CLEAR,NIGHT_CLEAR","Offshore,Offshore",2
5842041f4e65fad6a7708b3b,2024_11_25,21.576,-158.282,Kaena Point,3,1.3250000000000002,1.585,26,26,"NIGHT_MOSTLY_CLOUDY,NIGHT_MOSTLY_CLOUDY","Onshore,Onshore",2
5842041f4e65fad6a7708b3c,2024_11_25,21.31110306220024,-157.6590697786346,Makapu'u,3,0.905,1.21,26,26,"NIGHT_MOSTLY_CLEAR,NIGHT_MOSTLY_CLEAR","Onshore,Onshore",2
5842041f4e65fad6a7708b3d,2024_11_25,21.276618032562773,-157.83386,Three's,2,0.22107000000000002,0.5244,26,25,"NIGHT_CLEAR,NIGHT_CLEAR","Offshore,Offshore",2
5842041f4e65fad6a7708b3f,2024_11_25,39.63537452931482,-123.7858735430881,Westport,2.5,1.225,1.5299999999999998,13,13,"NIGHT_CLEAR,NIGHT_FOG","Onshore,Cross-shore",2
5842041f4e65fad6a7708b40,2024_11_25,39.47339314374171,-123.8053109861082,MacKerricher,3,1.555,1.81,13,13,"NIGHT_FOG,NIGHT_MOSTLY_CLOUDY","Cross-shore,Offshore",2
5842041f4e65fad6a7708b41,2024_11_25,39.30271935445495,-123.79757,Mendocino Township,2.5,1.115,1.415,13,13,"NIGHT_CLEAR,NIGHT_CLEAR","Onshore,Cross-shore",2
5842041f4e65fad6a7708b42,2024_11_25,21.281416779283845,-157.8457,Ala Moana Bowls,3,0.39536000000000004,0.7497750000000001,26,25,"NIGHT_CLEAR,NIGHT_CLEAR","Offshore,Offshore",2
5842041f4e65fad6a7708b43,2024_11_25,15.846,-97.06,Puerto Escondido,3,1.005,1.2,28,28,"NIGHT_CLEAR,CLEAR","Offshore,Offshore",2
5842041f4e65fad6a7708b44,2024_11_25,11.44175,-86.08519,Santana,2.5,0.53,0.83,28,28,"NIGHT_CLEAR,CLEAR","Offshore,Offshore",2
5842041f4e65fad6a7708b46,2024_11_25,38.91444690804076,-123.7104245288878,Point Arena,3,1.815,2.12,13,13,"NIGHT_SHOWERS,NIGHT_CLEAR","Cross-shore,Cross-shore",2
5842041f4e65fad6a7708b47,2024_11_25,18.46,-66.07383728027,San Juan,1.9,0.986635,1.5162849999999999,27,26,"NIGHT_MOSTLY_CLOUDY,CLEAR","Cross-shore,Cross-shore",2
5842041f4e65fad6a7708b48,2024_11_25,13.21526058417982,-59.52183,Soup Bowl,1.6666666666666667,1.012615,1.52417,29,29,"NIGHT_CLEAR,SHOWERS","Onshore,Onshore",2
5842041f4e65fad6a7708b49,2024_11_25,18.371581,-67.25941,Puntas,2.283333333333333,0.920435,1.39595,28,27,"NIGHT_CLEAR,CLEAR","Cross-shore,Cross-shore",2
5842041f4e65fad6a7708b4b,2024_11_25,-8.814,115.089,Uluwatu,3,0.997865,1.278665,28,28,"CLEAR,NIGHT_CLEAR","Offshore,Cross-shore",2
5842041f4e65fad6a7708b4c,2024_11_25,-8.950192825865,115.12573242187,Kuta,3,1.29,1.595,30,30,"CLEAR,NIGHT_CLEAR","Cross-shore,Cross-shore",2
5842041f4e65fad6a7708b4d,2024_11_25,9.94,-85.668,Guiones,3,0.5,0.8,27,27,"NIGHT_CLEAR,MOSTLY_CLOUDY","Offshore,Offshore",2
5842041f4e65fad6a7708b4e,2024_11_25,9.56516,-84.59148,Playa Hermosa South,3,0.420195,0.76657,27,27,"NIGHT_CLEAR,CLEAR","Offshore,Offshore",2
5842041f4e65fad6a7708b4f,2024_11_25,9.526305556,-84.48822,Playa Esterillos,3,0.63,0.935,27.5,27.5,"NIGHT_CLEAR,CLEAR","Cross-shore,Cross-shore",2
5842041f4e65fad6a7708b50,2024_11_25,9.576,-84.608,Playa Hermosa North,3,0.645,0.945,27,27,"NIGHT_CLEAR,CLEAR","Offshore,Offshore",2
5842041f4e65fad6a7708b53,2024_11_25,-12.337,-76.839,Pico Alto,3,3.131175,3.73986,19,19,"NIGHT_MOSTLY_CLOUDY,MOSTLY_CLEAR","Onshore,Onshore",2
5842041f4e65fad6a7708b55,2024_11_25,-12.17155,-77.08515,Peruazul,3,1.9,2.27,19,19,"NIGHT_CLEAR,MOSTLY_CLOUDY","Cross-shore,Cross-shore",2
5842041f4e65fad6a7708b56,2024_11_25,-12.133164,-77.03916,Makaha,3,3.1492050000000003,3.7615499999999997,19,19,"NIGHT_CLEAR,MOSTLY_CLOUDY","Onshore,Onshore",2
5842041f4e65fad6a7708b57,2024_11_25,43.29,-2.1708,Zarautz,2.5,0.7511650000000001,1.0300099999999999,16.5,16.5,"RAIN,LIGHT_RAIN","Cross-shore,Onshore",2
5842041f4e65fad6a7708b58,2024_11_25,54.27129984804951,-8.60171,Strandhill,1.5,2.977325,4.652075,12,12,"BRIEF_SHOWERS_POSSIBLE,BRIEF_SHOWERS_POSSIBLE","Onshore,Onshore",2
5842041f4e65fad6a7708b5b,2024_11_25,39.276101,-74.56709,7th Street,-0.25,0,0.216885,11,10,"NIGHT_CLEAR,CLEAR","Offshore,Offshore",2
5842041f4e65fad6a7708b5d,2024_11_25,39.321896,-74.506191,Sumner Avenue,0.25,0,0.1845,15,14,"NIGHT_CLEAR,CLEAR","Offshore,Offshore",2
5842041f4e65fad6a7708b5e,2024_11_25,39.093673,-74.71653,26th to 30th Street Pier,0,0,0.23257,11,10,"NIGHT_CLEAR,CLEAR","Offshore,Offshore",2
5842041f4e65fad6a7708b5f,2024_11_25,39.039903,-74.76417,Nun's Beach,0.25,0,0.192405,12,11,"NIGHT_CLEAR,CLEAR","Offshore,Offshore",2
5842041f4e65fad6a7708b60,2024_11_25,38.96768,-74.82565,Rambler Road,0.25,0,0.19033499999999998,12,11,"NIGHT_CLEAR,CLEAR","Offshore,Offshore",2
5842041f4e65fad6a7708b61,2024_11_25,38.99931,-74.78814,2nd St. to 10th St.,0.25,0,0.191165,12,11,"NIGHT_CLEAR,CLEAR","Offshore,Offshore",2
5842041f4e65fad6a7708b62,2024_11_25,38.929886,-74.91718,Stockton Avenue,0.25,0,0.16632000000000002,12,11,"NIGHT_CLEAR,CLEAR","Cross-shore,Cross-shore",2
5842041f4e65fad6a7708b63,2024_11_25,38.942988,-74.862452,The Rocks,0,0,0.17950000000000002,12,11,"NIGHT_CLEAR,CLEAR","Offshore,Offshore",2
5842041f4e65fad6a7708b64,2024_11_25,38.93036,-74.91257,Queen Street,0.25,0,0.17866500000000002,12,11,"NIGHT_CLEAR,CLEAR","Offshore,Offshore",2
5842041f4e65fad6a7708b65,2024_11_25,38.942757,-74.880791,Poverty Beach,0.25,0,0.172835,12,11,"NIGHT_CLEAR,CLEAR","Offshore,Offshore",2
5842041f4e65fad6a7708b66,2024_11_25,38.929441,-74.93129,Broadway Beach,0.25,0,0.1895,12,11,"NIGHT_CLEAR,CLEAR","Offshore,Offshore",2
5842041f4e65fad6a7708b67,2024_11_25,38.92870117926206,-74.92116,Grant Street Beach,0.25,0,0.178665,12,11,"NIGHT_CLEAR,CLEAR","Offshore,Offshore",2
5842041f4e65fad6a7708b68,2024_11_25,38.928934874358276,-74.93582,The Cove,1,0,0.075,13.5,13.5,"NIGHT_CLEAR,CLEAR","Offshore,Offshore",2
5842041f4e65fad6a7708b69,2024_11_25,26.775154329102108,-80.03124833106995,Pumphouse,2,0.07500000000000001,0.385,27,27,"NIGHT_MOSTLY_CLOUDY,MOSTLY_CLOUDY","Onshore,Onshore",2
5842041f4e65fad6a7708b6a,2024_11_25,26.72114353296791,-80.03310374527736,Sunrise,1.25,0.0175,0.3245,26,25,"NIGHT_CLEAR,MOSTLY_CLOUDY","Offshore,Offshore",2
5842041f4e65fad6a7708b6b,2024_11_25,26.71306786153966,-80.03222170715443,Breakers,1.25,0.028335000000000003,0.331165,26,25,"NIGHT_CLEAR,MOSTLY_CLOUDY","Offshore,Offshore",2
5842041f4e65fad6a7708b6c,2024_11_25,26.699075556703683,-80.03263235092163,Charlie's Crab,1.25,0.04,0.337835,26,25,"NIGHT_CLEAR,MOSTLY_CLOUDY","Offshore,Offshore",2
5842041f4e65fad6a7708b6d,2024_11_25,26.79441490392914,-80.0306161110009,Ocean Reef Park,1,0.018335,0.325335,26,25,"NIGHT_CLEAR,MOSTLY_CLOUDY","Onshore,Onshore",2
5842041f4e65fad6a7708b6f,2024_11_25,26.93134670517399,-80.06760115579169,Civic Center,1,0.21431999999999998,0.428325,26,25,"NIGHT_MOSTLY_CLOUDY,CLEAR","Onshore,Onshore",2
5842041f4e65fad6a7708b70,2024_11_25,26.90524197396177,-80.0593609780092,Kite Beach,1,0.09412999999999999,0.31937499999999996,26,25,"NIGHT_MOSTLY_CLOUDY,MOSTLY_CLOUDY","Onshore,Onshore",2
5842041f4e65fad6a7708b71,2024_11_25,26.54279208054373,-80.04292130470276,Boynton Beach Inlet (Southside),0,0,0.278665,26,25,"NIGHT_MOSTLY_CLOUDY,CLEAR","Onshore,Onshore",2
5842041f4e65fad6a7708b72,2024_11_25,26.613511029817357,-80.03534,Lake Worth Pier,0,0,0.1469,26,25,"NIGHT_MOSTLY_CLOUDY,MOSTLY_CLOUDY","Cross-shore,Onshore",2
5842041f4e65fad6a7708b73,2024_11_25,27.06670219261476,-80.11447191238403,Hobe Sound Public Beach,1.25,0.080835,0.38366500000000003,24,24,"NIGHT_MOSTLY_CLOUDY,MOSTLY_CLOUDY","Onshore,Onshore",2
5842041f4e65fad6a7708b75,2024_11_25,27.21467611230439,-80.17308,Stuart Public Beach,1.5,0.052500000000000005,0.35450000000000004,25,24,"NIGHT_MOSTLY_CLOUDY,CLEAR","Cross-shore,Onshore",2
5842041f4e65fad6a7708b76,2024_11_25,27.36627923374593,-80.24622,Blind Creek Park,0.5,0.104,0.37392000000000003,24,23,"NIGHT_MOSTLY_CLEAR,CLEAR","Offshore,Onshore",2
5842041f4e65fad6a7708b77,2024_11_25,26.94256932088346,-80.07057,Jupiter Inlet,1.5,0.069165,0.372,24,24,"NIGHT_MOSTLY_CLOUDY,CLEAR","Onshore,Onshore",2
5842041f4e65fad6a7708b78,2024_11_25,26.89365359499372,-80.056,Juno Pier,0.5,0,0.26092000000000004,26,25,"NIGHT_MOSTLY_CLOUDY,MOSTLY_CLOUDY","Onshore,Onshore",2
5842041f4e65fad6a7708b7a,2024_11_25,29.67671206577928,-85.3689474172784,Cape San Blas,1,0,0.08499999999999999,22,22,"NIGHT_MOSTLY_CLOUDY,CLOUDY","Offshore,Offshore",2
5842041f4e65fad6a7708b7b,2024_11_25,26.706551543472415,-80.03280401229858,Flagpole,1.25,0.03,0.34199999999999997,26,25,"NIGHT_CLEAR,MOSTLY_CLOUDY","Offshore,Offshore",2
5842041f4e65fad6a7708b7c,2024_11_25,29.94036477533054,-85.40953557392244,El Governor,0,0,0.08499999999999999,22,22,"NIGHT_MOSTLY_CLOUDY,OVERCAST","Offshore,Offshore",2
5842041f4e65fad6a7708b7d,2024_11_25,29.68231979841189,-85.30627194238092,Toilet Bowls,0,0,0.05,22,22,"NIGHT_CLEAR,CLOUDY","Offshore,Cross-shore",2
5842041f4e65fad6a7708b7e,2024_11_25,29.6607153445246,-84.86361191991014,St. George Island,0,0,0.02,21.5,21.5,"NIGHT_MOSTLY_CLEAR,CLOUDY","Onshore,Onshore",2
5842041f4e65fad6a7708b7f,2024_11_25,29.77441172865639,-84.65942657000329,Dog Island,0,0,0.015,21.5,21.5,"NIGHT_CLEAR,CLOUDY","Onshore,Offshore",2
5842041f4e65fad6a7708b80,2024_11_25,28.59674155718017,-95.97559,Matagorda,1,1.0550000000000002,1.355,23.5,23.5,"NIGHT_CLEAR,MOSTLY_CLOUDY","Onshore,Onshore",2
5842041f4e65fad6a7708b81,2024_11_25,27.84601633294622,-97.04372701603208,St. Joe's Island,1,0.72,1.02,23.5,23.5,"NIGHT_MOSTLY_CLOUDY,MOSTLY_CLOUDY","Onshore,Cross-shore",2
5842041f4e65fad6a7708b82,2024_11_25,27.64327897922308,-97.18612,J.P. Luby Surf Park,1,0.74478,1.11116,23.5,23.5,"NIGHT_MOSTLY_CLOUDY,MOSTLY_CLOUDY","Cross-shore,Cross-shore",2
5842041f4e65fad6a7708b83,2024_11_25,27.82704888028459,-97.05277,Horace Caldwell Pier,1.5,0.91846,1.28101,23.5,23.5,"NIGHT_MOSTLY_CLOUDY,MOSTLY_CLOUDY","Onshore,Onshore",2
5842041f4e65fad6a7708b84,2024_11_25,27.67634780977739,-97.16473,Fish Pass,1,0.74478,1.11116,23.5,23.5,"NIGHT_MOSTLY_CLOUDY,MOSTLY_CLOUDY","Cross-shore,Cross-shore",2
5842041f4e65fad6a7708b85,2024_11_25,27.58118015227788,-97.2191,Bob Hall Pier,1,0.839985,1.21399,23.5,23.5,"NIGHT_MOSTLY_CLOUDY,MOSTLY_CLOUDY","Onshore,Onshore",2
5842041f4e65fad6a7708b86,2024_11_25,28.93236038480434,-95.30205,Quintana,1,0.739815,1.0893350000000002,23.5,23.5,"NIGHT_CLEAR,MOSTLY_CLEAR","Cross-shore,Cross-shore",2
5842041f4e65fad6a7708b87,2024_11_25,28.94367955201253,-95.28969,Octagon,1,0.739815,1.0893350000000002,23.5,23.5,"NIGHT_CLEAR,MOSTLY_CLEAR","Cross-shore,Cross-shore",2
5842041f4e65fad6a7708b88,2024_11_25,29.02647703020454,-95.18702498902157,Boilers,1,0.38,0.69,23.5,23.5,"NIGHT_MOSTLY_CLOUDY,CLEAR","Cross-shore,Onshore",2
5842041f4e65fad6a7708b89,2024_11_25,28.9653363517684,-95.26739753922841,Assholes,1,0.6799999999999999,0.98,23.5,23.5,"NIGHT_MOSTLY_CLOUDY,MOSTLY_CLEAR","Onshore,Onshore",2
5842041f4e65fad6a7708b8a,2024_11_25,29.27159138874912,-94.81532732168617,51st Street,1,0.65,0.95,22.5,22.5,"NIGHT_CLEAR,MOSTLY_CLOUDY","Onshore,Onshore",2
5842041f4e65fad6a7708b8b,2024_11_25,29.13902635892794,-95.04070493829546,West Galveston,1,0.6,0.91,23.5,23.5,"NIGHT_CLEAR,CLEAR","Cross-shore,Cross-shore",2
5842041f4e65fad6a7708b8c,2024_11_25,29.26596874354759,-94.82556,61st Street,1,0.71035,1.0775700000000001,22.5,22.5,"NIGHT_CLEAR,MOSTLY_CLOUDY","Onshore,Onshore",2
5842041f4e65fad6a7708b8d,2024_11_25,29.279815639798642,-94.80146,37th Street,1,0.45578,0.8276,22.5,22.5,"NIGHT_CLEAR,MOSTLY_CLOUDY","Onshore,Onshore",2
5842041f4e65fad6a7708b8e,2024_11_25,29.28680654948785,-94.79106,Flagship,1,0.39077,0.74601,22.5,22.5,"NIGHT_CLEAR,MOSTLY_CLOUDY","Onshore,Cross-shore",2
5842041f4e65fad6a7708b8f,2024_11_25,29.4702751255731,-94.59146640261427,A-Frames,1,0.375,0.675,22,22,"NIGHT_MOSTLY_CLOUDY,MOSTLY_CLEAR","Onshore,Onshore",2
5842041f4e65fad6a7708b90,2024_11_25,29.52172627288487,-94.45911,Meacom's Pier,1,0.5105,0.8812150000000001,22.5,22.5,"NIGHT_MOSTLY_CLOUDY,CLEAR","Onshore,Onshore",2
5842041f4e65fad6a7708b91,2024_11_25,29.4510876813709,-94.63230467945758,Crystal Beach,1,0.41,0.715,22,22,"NIGHT_MOSTLY_CLOUDY,MOSTLY_CLEAR","Onshore,Onshore",2
5842041f4e65fad6a7708b92,2024_11_25,26.06123118244004,-97.14769,Boca Chica,1,0.503745,0.852935,25,25,"NIGHT_MOSTLY_CLOUDY,MOSTLY_CLOUDY","Cross-shore,Cross-shore",2
5842041f4e65fad6a7708b93,2024_11_25,26.06961904983808,-97.15243,Isla Blanca State Park,1,0.37629999999999997,0.7083250000000001,25,25,"NIGHT_MOSTLY_CLOUDY,MOSTLY_CLOUDY","Cross-shore,Cross-shore",2
5842041f4e65fad6a7708b96,2024_11_25,26.56132001354785,-97.26967,Port Mansfield,1,0.67588,1.03475,24.5,24.5,"NIGHT_MOSTLY_CLEAR,MOSTLY_CLOUDY","Cross-shore,Onshore",2
5842041f4e65fad6a7708b98,2024_11_25,10.85099440725964,-85.79981,Ollie's Point,2,0.345,0.65,27,27,"NIGHT_CLEAR,CLEAR","Offshore,Offshore",2
5842041f4e65fad6a7708b99,2024_11_25,10.79489213393012,-85.68066,Witches Rock,2,0.375,0.685,27,27,"NIGHT_CLEAR,CLEAR","Offshore,Offshore",2
5842041f4e65fad6a7708b9a,2024_11_25,9.570222044864844,-85.14184,Mal Pais,3,0.655,0.96,27,27,"NIGHT_CLEAR,CLEAR","Offshore,Offshore",2
5842041f4e65fad6a7708b9b,2024_11_25,10.29970304257365,-85.84398,Tamarindo,1.5,0.195,0.495,27,27,"NIGHT_CLEAR,CLEAR","Offshore,Cross-shore",2
5842041f4e65fad6a7708b9c,2024_11_25,9.250593929300813,-83.86522,Dominical,3,0.505,0.81,28,28,"NIGHT_CLEAR,CLEAR","Offshore,Onshore",2
5842041f4e65fad6a7708b9d,2024_11_25,9.48278011021258,-84.28883991550364,Bejuco,3,0.56,0.86,27.5,27.5,"NIGHT_CLEAR,CLEAR","Offshore,Offshore",2
5842041f4e65fad6a7708ba1,2024_11_25,9.616940559391795,-84.63541,Playa Jaco,3,0.4837,0.826795,27,27,"NIGHT_CLEAR,CLEAR","Offshore,Offshore",2
5842041f4e65fad6a7708ba3,2024_11_25,9.661646156842439,-84.67316883195207,Playa Escondida,3,0.515,0.825,27,27,"NIGHT_CLEAR,CLEAR","Offshore,Offshore",2
5842041f4e65fad6a7708ba4,2024_11_25,9.635059578319176,-84.66159522794959,Herradura,3,0.535,0.84,27,27,"NIGHT_CLEAR,CLEAR","Offshore,Offshore",2
5842041f4e65fad6a7708ba5,2024_11_25,9.958235741436532,-84.74122,Boca Barranca,3,0.41908999999999996,0.773245,27.5,27.5,"NIGHT_MOSTLY_CLOUDY,CLEAR","Offshore,Offshore",2
5842041f4e65fad6a7708ba6,2024_11_25,9.922484732656224,-84.7158981889118,Caldera Jetty,3,0.425,0.73,27.5,27.5,"NIGHT_MOSTLY_CLOUDY,CLEAR","Offshore,Cross-shore",2
5842041f4e65fad6a7708ba7,2024_11_25,9.661180947362254,-82.75273,Salsa Brava,1.5,0.44114,0.7848900000000001,28.5,28.5,"NIGHT_BRIEF_SHOWERS_POSSIBLE,LIGHT_RAIN","Cross-shore,Onshore",2
5842041f4e65fad6a7708ba8,2024_11_25,8.38230022212565,-83.28332,Matapalo,3,0.74,1.05,27,27,"NIGHT_CLEAR,BRIEF_SHOWERS_POSSIBLE","Offshore,Offshore",2
5842041f4e65fad6a7708ba9,2024_11_25,8.394937,-83.13952,Pavones,3,0.645,0.9550000000000001,27,27,"NIGHT_CLEAR,BRIEF_SHOWERS_POSSIBLE","Offshore,Offshore",2
5842041f4e65fad6a7708baa,2024_11_25,13.47971255664387,-89.28610104791234,Playa San Diego,3,0.68,0.985,29,29,"NIGHT_CLEAR,CLEAR","Offshore,Offshore",2
5842041f4e65fad6a7708bab,2024_11_25,13.4834740494465,-89.32376,La Paz,2.5,0.32842,0.62304,29,29,"NIGHT_CLEAR,CLEAR","Offshore,Offshore",2
5842041f4e65fad6a7708bac,2024_11_25,13.48587874937462,-89.31998852531258,El Muelle (Pier),3,0.72,1.03,29,29,"NIGHT_CLEAR,CLEAR","Offshore,Offshore",2
5842041f4e65fad6a7708bad,2024_11_25,13.47973883183636,-89.32655,Punta Roca,3,0.745,1.0550000000000002,29,29,"NIGHT_CLEAR,CLEAR","Offshore,Offshore",2
5842041f4e65fad6a7708bae,2024_11_25,13.491596878346689,-89.38104,La Bocana,3,0.55357,0.8879,29,29,"NIGHT_CLEAR,CLEAR","Offshore,Offshore",2
5842041f4e65fad6a7708baf,2024_11_25,13.48324995683858,-89.33946,Playa Conchalio,3,0.504065,0.84571,29,29,"NIGHT_CLEAR,CLEAR","Offshore,Offshore",2
5842041f4e65fad6a7708bb0,2024_11_25,13.49167561061991,-89.39,Sunzal,3,0.376,0.624,29,29,"NIGHT_CLEAR,CLEAR","Offshore,Offshore",2
5842041f4e65fad6a7708bb1,2024_11_25,35.92499624829542,-121.46957,Sand Dollar Beach,3,1.755,2.015,13,13,"NIGHT_MOSTLY_CLOUDY,NIGHT_MOSTLY_CLOUDY","Cross-shore,Cross-shore",2
5842041f4e65fad6a7708bb3,2024_11_25,36.55448900657569,-121.93114,Carmel Beach,3,1.2000000000000002,1.4,13,13,"NIGHT_CLEAR,NIGHT_OVERCAST","Onshore,Offshore",2
5842041f4e65fad6a7708bb4,2024_11_25,36.27968576518622,-121.85962,Big Sur Rivermouth,1.5,1.0150000000000001,1.2149999999999999,13,13,"NIGHT_OVERCAST,NIGHT_OVERCAST","Onshore,Cross-shore",2
5842041f4e65fad6a7708bb5,2024_11_25,36.60883280895963,-121.9603486684287,Mole Point,3,1.6099999999999999,1.7349999999999999,12.5,12.5,"NIGHT_MOSTLY_CLOUDY,NIGHT_RAIN","Onshore,Offshore",2
5842041f4e65fad6a7708bb6,2024_11_25,36.63788026219399,-121.9311174079908,Boneyard,3,0.6950000000000001,1,12,12,"NIGHT_CLEAR,NIGHT_OVERCAST","Cross-shore,Offshore",2
5842041f4e65fad6a7708bb7,2024_11_25,36.61880091818895,-121.9422482210244,Asilomar,3,1.4449999999999998,1.75,12.5,12.5,"NIGHT_MOSTLY_CLOUDY,NIGHT_RAIN","Onshore,Offshore",2
5842041f4e65fad6a7708bb8,2024_11_25,36.56037685095311,-121.9516152313922,Ghost Tree,3,1.26,1.48,13,13,"NIGHT_CLEAR,NIGHT_HEAVY_RAIN","Onshore,Offshore",2
5842041f4e65fad6a7708bbb,2024_11_25,35.89412279173619,-121.462380148047,Willow Creek,3,1.4700000000000002,1.71,13,13,"NIGHT_MOSTLY_CLOUDY,NIGHT_MOSTLY_CLOUDY","Cross-shore,Offshore",2
5842041f4e65fad6a7708bbc,2024_11_25,36.6260658643635,-121.91548,Lovers Point,3,0.46499999999999997,0.7749999999999999,12,12,"NIGHT_MOSTLY_CLOUDY,NIGHT_RAIN","Onshore,Cross-shore",2
5842041f4e65fad6a7708bbd,2024_11_25,38.945,-9.42,Foz de Lizandro,1.5,1.93588,2.303195,18,18,"CLEAR,BRIEF_SHOWERS_POSSIBLE","Onshore,Onshore",2
5842041f4e65fad6a7708bbf,2024_11_25,36.80821791915616,-121.79055,Moss Landing,4,1.28,1.585,12,12,"NIGHT_CLEAR,NIGHT_OVERCAST","Offshore,Offshore",2
5842041f4e65fad6a7708bc0,2024_11_25,38.67869246746279,-9.33685,Carcavelos,3,1.39282,1.67958,18,18,"MOSTLY_CLOUDY,MOSTLY_CLEAR","Cross-shore,Cross-shore",2
5842041f4e65fad6a7708bc1,2024_11_25,38.983,-9.425,Reef,1,2.835,3.3600000000000003,18,18,"CLEAR,BRIEF_SHOWERS_POSSIBLE","Onshore,Onshore",2
5842041f4e65fad6a7708bc2,2024_11_25,38.988,-9.424,Ribeira D'Ilhas,2,1.199225,1.53445,18,18,"CLEAR,BRIEF_SHOWERS_POSSIBLE","Onshore,Cross-shore",2
5842041f4e65fad6a7708bc3,2024_11_25,39.34167968424256,-9.36331,Supertubos,3,1.5699999999999998,1.88,18,18,"CLOUDY,BRIEF_SHOWERS_POSSIBLE","Cross-shore,Onshore",2
5842041f4e65fad6a7708bc4,2024_11_25,39.001,-9.4284,Coxos,2,2.152655,2.57269,18,18,"CLEAR,BRIEF_SHOWERS_POSSIBLE","Onshore,Cross-shore",2
5842041f4e65fad6a7708bc5,2024_11_25,40.13063921100635,-8.87044,Cabedelo,1,2.415985,2.8705749999999997,17,17,"CLOUDY,CLEAR","Onshore,Onshore",2
5842041f4e65fad6a7708bc6,2024_11_25,39.37397686060677,-9.33235,Baleal,2.5,1.08,1.39,18,18,"CLOUDY,BRIEF_SHOWERS_POSSIBLE","Onshore,Onshore",2
5842041f4e65fad6a7708bc7,2024_11_25,31.80902927937703,-116.8081979700041,Todos Santos / Killers,NA,0.935,1.24,16.5,16.5,"NIGHT_CLEAR,NIGHT_CLEAR","Cross-shore,Cross-shore",2
5842041f4e65fad6a7708bc8,2024_11_25,43.68220203786759,-1.44167,Les Culs Nus,1,1.4922900000000001,1.726485,16.5,16.5,"RAIN,LIGHT_RAIN","Onshore,Onshore",2
5842041f4e65fad6a7708bc9,2024_11_25,31.90016519474307,-116.73117,San Miguel,2,0.385,0.685,16,16,"NIGHT_CLEAR,NIGHT_CLEAR","Offshore,Offshore",2
5842041f4e65fad6a7708bca,2024_11_25,43.48469485823068,-1.56023,Biarritz,1.5,1.128985,1.41123,16.5,16.5,"LIGHT_RAIN,LIGHT_RAIN","Onshore,Onshore",2
5842041f4e65fad6a7708bcb,2024_11_25,39.0132,-9.424,Sao Lourenco,1.5,2.07629,2.46814,18,18,"CLEAR,BRIEF_SHOWERS_POSSIBLE","Onshore,Onshore",2
5842041f4e65fad6a7708bcd,2024_11_25,43.64760422014503,-1.44721,Le Santocha,1,0.8632500000000001,0.99813,16.5,16.5,"RAIN,LIGHT_RAIN","Onshore,Onshore",2
5842041f4e65fad6a7708bce,2024_11_25,43.51401611768647,-1.53382,Anglet,2,1.74,1.96,16.5,16.5,"LIGHT_RAIN,LIGHT_RAIN","Onshore,Onshore",2
5842041f4e65fad6a7708bcf,2024_11_25,43.479,-1.569,La Cote des Basques,1.5,1.15802,1.44752,16.5,16.5,"LIGHT_RAIN,LIGHT_RAIN","Onshore,Onshore",2
5842041f4e65fad6a7708bd0,2024_11_25,32.3489432986615,-117.0668043482785,Rosarito Beach,3,0.525,0.8300000000000001,15.5,15.5,"NIGHT_CLEAR,NIGHT_CLEAR","Offshore,Offshore",2
5842041f4e65fad6a7708bd1,2024_11_25,23.44473573026049,-110.2452466338192,Todos Santos,2,0.4,0.705,25,25,"NIGHT_CLEAR,CLEAR","Cross-shore,Cross-shore",2
5842041f4e65fad6a7708bd2,2024_11_25,31.97636522717259,-116.7913888957552,Salsipuedes,1.5,0.26,0.565,16,16,"NIGHT_CLEAR,NIGHT_CLEAR","Offshore,Offshore",2
5842041f4e65fad6a7708bd3,2024_11_25,23.39151658553801,-110.2143952234506,Las Palmas,2.5,0.44,0.75,25,25,"NIGHT_CLEAR,CLEAR","Cross-shore,Cross-shore",2
5842041f4e65fad6a7708bd4,2024_11_25,23.02358192684975,-109.7147,Old Man's,3,0.31,0.615,25,25,"NIGHT_CLEAR,CLEAR","Offshore,Offshore",2
5842041f4e65fad6a7708bd5,2024_11_25,23.32877869857464,-110.17715,Cerritos,1.5,0.41000000000000003,0.72,25,25,"NIGHT_CLEAR,CLEAR","Cross-shore,Cross-shore",2
5842041f4e65fad6a7708bd6,2024_11_25,23.36729303816202,-110.20268,San Pedrito,1.5,0.315,0.62,25,25,"NIGHT_CLEAR,CLEAR","Cross-shore,Cross-shore",2
5842041f4e65fad6a7708bd7,2024_11_25,23.02506324659338,-109.71456,The Rock,3,0.31,0.615,25,25,"NIGHT_CLEAR,CLEAR","Offshore,Offshore",2
5842041f4e65fad6a7708bd8,2024_11_25,22.896,-109.869,Monuments,3,0.45,0.755,25,25,"NIGHT_CLEAR,CLEAR","Offshore,Offshore",2
5842041f4e65fad6a7708bd9,2024_11_25,23.04871261564847,-109.6800082320905,The Estuary,3,0.38,0.6799999999999999,25,25,"NIGHT_CLEAR,CLEAR","Offshore,Offshore",2
5842041f4e65fad6a7708bda,2024_11_25,23.029,-109.714,Zippers,3,0.31,0.615,25,25,"NIGHT_CLEAR,CLEAR","Offshore,Offshore",2
5842041f4e65fad6a7708bdb,2024_11_25,23.12,-109.527,Shipwreck,2.5,0.36,0.665,25,25,"NIGHT_CLEAR,CLEAR","Offshore,Cross-shore",2
5842041f4e65fad6a7708bdc,2024_11_25,23.174,-109.476,Nine Palms,3,0.535,0.845,25,25,"NIGHT_CLEAR,CLEAR","Offshore,Offshore",2
5842041f4e65fad6a7708bdd,2024_11_25,4.307463458457968,73.57742,Jailbreaks,3,0.62,0.925,29.5,29.5,"CLEAR,NIGHT_BRIEF_SHOWERS_POSSIBLE","Offshore,Offshore",2
5842041f4e65fad6a7708bde,2024_11_25,4.31216545719424,73.58368,Honky's,3,0.547895,0.87556,29.5,29.5,"CLEAR,NIGHT_BRIEF_SHOWERS_POSSIBLE","Offshore,Offshore",2
