_id,date,lat,lon,name,daily_mean_swell_rating,daily_mean_wave_height_min,daily_mean_wave_height_max,daily_mean_water_temperature_max,daily_mean_water_temperature_min,weather_per_timestamp,wind_per_timestamp,n_samples_per_day
5842041f4e65fad6a770884a,2024_03_08,42.88678181061,-70.80843,Seabrook,2,1.198978,1.873408,4,3,"NIGHT_CLEAR,NIGHT_CLEAR,NIGHT_CLEAR,NIGHT_CLEAR,NIGHT_CLEAR","Cross-shore,Cross-shore,Cross-shore,Cross-shore,Cross-shore",5
5842041f4e65fad6a770884e,2024_03_08,41.434181432898335,-71.45312118111178,Narragansett,1.8,0.568,0.87,6,4,"NIGHT_CLEAR,NIGHT_CLEAR,NIGHT_CLEAR,NIGHT_CLEAR,NIGHT_CLEAR","Offshore,Offshore,Offshore,Offshore,Offshore",5
5842041f4e65fad6a7708850,2024_03_08,40.582703230722,-73.65247,Lincoln Blvd,3,0.7470666666666667,1.0766666666666667,7,6,"NIGHT_CLEAR,NIGHT_CLEAR,NIGHT_CLEAR,NIGHT_CLEAR,NIGHT_MIST","Offshore,Offshore,Offshore,Offshore,Offshore",5
5842041f4e65fad6a7708852,2024_03_08,40.58342841721757,-73.81182,Rockaways,3,0.7520666666666667,1.082,7,6,"NIGHT_CLEAR,NIGHT_CLEAR,NIGHT_CLEAR,NIGHT_CLEAR,NIGHT_CLEAR","Offshore,Offshore,Offshore,Offshore,Offshore",5
5842041f4e65fad6a7708853,2024_03_08,40.330474,-73.9734,Monmouth Beach,2.4,0.892,1.126,7,6,"NIGHT_CLEAR,NIGHT_CLEAR,NIGHT_CLEAR,NIGHT_CLEAR,NIGHT_CLEAR","Cross-shore,Cross-shore,Offshore,Offshore,Offshore",5
5842041f4e65fad6a7708856,2024_03_08,40.113,-74.028,Manasquan Inlet,1.166,0.95,1.15,7,6,"NIGHT_CLEAR,NIGHT_CLEAR,NIGHT_CLEAR,NIGHT_CLEAR,NIGHT_CLEAR","Cross-shore,Cross-shore,Cross-shore,Offshore,Cross-shore",5
5842041f4e65fad6a7708857,2024_03_08,39.941519877445664,-74.06829,Casino Pier,0.802,0.9400000000000001,1.242,7,6,"NIGHT_CLEAR,NIGHT_CLEAR,NIGHT_CLEAR,NIGHT_CLEAR,NIGHT_CLEAR","Cross-shore,Cross-shore,Offshore,Offshore,Offshore",5
5842041f4e65fad6a7708858,2024_03_08,39.28223089949212,-74.55766,North End OC,2,0.7274,1.0579333333333334,7,6,"NIGHT_CLEAR,NIGHT_CLEAR,NIGHT_CLEAR,NIGHT_CLEAR,NIGHT_CLEAR","Offshore,Offshore,Offshore,Offshore,Offshore",5
5842041f4e65fad6a770885b,2024_03_08,39.65080599934257,-74.17146,Ship Bottom,2,0.9860666666666666,1.2966,7,6,"NIGHT_CLEAR,NIGHT_CLEAR,NIGHT_CLEAR,NIGHT_CLEAR,NIGHT_CLEAR","Offshore,Offshore,Offshore,Offshore,Offshore",5
5842041f4e65fad6a7708863,2024_03_08,36.034151543144,-75.66791,Third Street,1.6,0.724,0.974,11,9,"NIGHT_CLEAR,NIGHT_CLEAR,NIGHT_CLEAR,NIGHT_OVERCAST,NIGHT_OVERCAST","Onshore,Onshore,Onshore,Onshore,Onshore",5
5842041f4e65fad6a7708867,2024_03_08,35.605833221351425,-75.46303,S-Turns,0,1.0200666666666667,1.3582,11,9,"NIGHT_MIST,NIGHT_CLEAR,NIGHT_CLEAR,NIGHT_MIST,NIGHT_MIST","Cross-shore,Cross-shore,Cross-shore,Onshore,Onshore",5
5842041f4e65fad6a770886d,2024_03_08,38.338461,-75.08117,Ocean City Boardwalk,1.8,0.964,1.188,8,7,"NIGHT_CLEAR,NIGHT_CLEAR,NIGHT_CLEAR,NIGHT_CLEAR,NIGHT_CLEAR","Onshore,Onshore,Onshore,Onshore,Onshore",5
5842041f4e65fad6a770886f,2024_03_08,29.844757212379562,-81.26136,A St.,2.6,0.442,0.75,17,17,"NIGHT_CLEAR,NIGHT_CLEAR,NIGHT_MIST,NIGHT_MIST,NIGHT_MIST","Cross-shore,Cross-shore,Cross-shore,Onshore,Onshore",5
5842041f4e65fad6a7708871,2024_03_08,29.069417851135093,-80.90824,New Smyrna Beach,2.632,0.9135666666666666,1.3493666666666666,19,17,"NIGHT_MIST,NIGHT_MIST,NIGHT_CLOUDY,NIGHT_CLOUDY,NIGHT_MIST","Onshore,Onshore,Onshore,Onshore,Onshore",5
5842041f4e65fad6a7708872,2024_03_08,28.367707417566,-80.60171,Cocoa Beach Pier,2,0.528,0.832,21,20,"NIGHT_CLEAR,NIGHT_MIST,NIGHT_MIST,NIGHT_MIST,NIGHT_MIST","Onshore,Onshore,Onshore,Onshore,Onshore",5
5842041f4e65fad6a7708873,2024_03_08,28.091782738658846,-80.56479,Indialantic,3,0.568,0.874,21,20,"NIGHT_MIST,NIGHT_MIST,NIGHT_MIST,NIGHT_BRIEF_SHOWERS,NIGHT_MIST","Cross-shore,Cross-shore,Onshore,Onshore,Onshore",5
5842041f4e65fad6a7708876,2024_03_08,27.25392904143517,-80.19455,Jensen Beach,2,0.4,0.704,23,22,"NIGHT_MIST,NIGHT_MIST,NIGHT_MIST,NIGHT_MOSTLY_CLOUDY,NIGHT_MOSTLY_CLOUDY","Offshore,Cross-shore,Onshore,Offshore,Onshore",5
5842041f4e65fad6a7708879,2024_03_08,26.76346795333825,-80.0360655784607,Reef Road,0,-0.006666666666666654,0.14973333333333333,24,23,"NIGHT_MIST,NIGHT_MIST,NIGHT_MIST,NIGHT_FOG,NIGHT_MIST","Offshore,Offshore,Offshore,Offshore,Offshore",5
5842041f4e65fad6a770887c,2024_03_08,26.336499228484,-80.06956100463,Boca Raton Inlet,2,0.07,0.374,25,23,"NIGHT_MIST,NIGHT_CLEAR,NIGHT_CLEAR,NIGHT_CLEAR,NIGHT_CLEAR","Cross-shore,Offshore,Cross-shore,Cross-shore,Offshore",5
5842041f4e65fad6a770887d,2024_03_08,26.31719311695038,-80.07452525176168,Deerfield Beach Pier,0,-0.002200000000000002,0.15196,25,23,"NIGHT_CLEAR,NIGHT_CLEAR,NIGHT_BRIEF_SHOWERS_POSSIBLE,NIGHT_MIST,NIGHT_MIST","Cross-shore,Offshore,Offshore,Cross-shore,Offshore",5
5842041f4e65fad6a7708881,2024_03_08,30.20276320866628,-85.85626528676136,"Spyglass Dr., Panama City",0.534,0,0.19330000000000003,19,18,"NIGHT_CLEAR,NIGHT_CLEAR,NIGHT_CLEAR,NIGHT_MIST,NIGHT_MIST","Cross-shore,Cross-shore,Cross-shore,Offshore,Cross-shore",5
5842041f4e65fad6a770888d,2024_03_08,21.679,-158.042,Sunset Beach,3,1.028,1.228,26,25,"NIGHT_MOSTLY_CLOUDY,NIGHT_BRIEF_SHOWERS,NIGHT_CLEAR,NIGHT_MOSTLY_CLEAR,NIGHT_MOSTLY_CLOUDY","Cross-shore,Cross-shore,Cross-shore,Cross-shore,Offshore",5
5842041f4e65fad6a770888e,2024_03_08,21.670550036401,-158.0482,Rocky Point,3,1.01,1.316,26,25,"NIGHT_MOSTLY_CLOUDY,NIGHT_CLEAR,NIGHT_CLEAR,NIGHT_MOSTLY_CLEAR,NIGHT_CLEAR","Cross-shore,Cross-shore,Cross-shore,Cross-shore,Cross-shore",5
5842041f4e65fad6a770888f,2024_03_08,21.668,-158.05,Chambers,3,0.98,1.17,24,24,"NIGHT_MOSTLY_CLOUDY,NIGHT_CLEAR,NIGHT_CLEAR,NIGHT_MOSTLY_CLEAR,NIGHT_CLEAR","Cross-shore,Cross-shore,Cross-shore,Cross-shore,Offshore",5
5842041f4e65fad6a7708890,2024_03_08,21.66522,-158.0526,Pipeline,1.6,0.86,1.088,26,25,"NIGHT_MOSTLY_CLOUDY,NIGHT_CLEAR,NIGHT_CLEAR,NIGHT_MOSTLY_CLEAR,NIGHT_CLEAR","Cross-shore,Cross-shore,Cross-shore,Cross-shore,Cross-shore",5
5842041f4e65fad6a7708891,2024_03_08,21.665,-158.054,Backdoor,3,0.86,1.088,26,25,"NIGHT_MOSTLY_CLOUDY,NIGHT_CLEAR,NIGHT_CLEAR,NIGHT_MOSTLY_CLEAR,NIGHT_CLEAR","Cross-shore,Cross-shore,Cross-shore,Cross-shore,Cross-shore",5
5842041f4e65fad6a7708892,2024_03_08,21.662,-158.057,Rockpile,3,1.046,1.272,24,24,"NIGHT_MOSTLY_CLOUDY,NIGHT_CLEAR,NIGHT_CLEAR,NIGHT_MOSTLY_CLEAR,NIGHT_CLEAR","Cross-shore,Cross-shore,Cross-shore,Cross-shore,Cross-shore",5
5842041f4e65fad6a7708893,2024_03_08,21.65870453806827,-158.06058,Log Cabins,2,0.766,1.044,24,24,"NIGHT_MOSTLY_CLOUDY,NIGHT_CLEAR,NIGHT_CLEAR,NIGHT_MOSTLY_CLEAR,NIGHT_CLEAR","Cross-shore,Cross-shore,Cross-shore,Cross-shore,Cross-shore",5
5842041f4e65fad6a7708894,2024_03_08,21.66203493640557,-158.05495,Off-The-Wall,3,1.03,1.252,24,24,"NIGHT_MOSTLY_CLOUDY,NIGHT_CLEAR,NIGHT_CLEAR,NIGHT_MOSTLY_CLEAR,NIGHT_CLEAR","Cross-shore,Cross-shore,Cross-shore,Cross-shore,Cross-shore",5
5842041f4e65fad6a7708895,2024_03_08,21.643,-158.067,Waimea Bay,NA,1.014,1.236,26,25,"NIGHT_MOSTLY_CLOUDY,NIGHT_CLEAR,NIGHT_CLEAR,NIGHT_MOSTLY_CLEAR,NIGHT_CLEAR","Cross-shore,Offshore,Offshore,Cross-shore,Offshore",5
5842041f4e65fad6a7708896,2024_03_08,21.622,-158.087,Hultin's,2.2,1.01,1.23,26,25,"NIGHT_MOSTLY_CLOUDY,NIGHT_CLEAR,NIGHT_MOSTLY_CLOUDY,NIGHT_CLEAR,NIGHT_CLEAR","Offshore,Offshore,Offshore,Offshore,Offshore",5
5842041f4e65fad6a7708897,2024_03_08,21.623,-158.085,Jocko's,2,0.748,1.05,24,24,"NIGHT_MOSTLY_CLOUDY,NIGHT_CLEAR,NIGHT_CLEAR,NIGHT_CLEAR,NIGHT_CLEAR","Onshore,Onshore,Onshore,Onshore,Onshore",5
5842041f4e65fad6a7708898,2024_03_08,21.62,-158.088,Laniakea,2,0.978,1.166,26,25,"NIGHT_MOSTLY_CLOUDY,NIGHT_CLEAR,NIGHT_MOSTLY_CLOUDY,NIGHT_CLEAR,NIGHT_CLEAR","Cross-shore,Cross-shore,Cross-shore,Cross-shore,Cross-shore",5
5842041f4e65fad6a7708899,2024_03_08,21.625,-158.083,Chun's,2.6,0.938,1.15,24,24,"NIGHT_MOSTLY_CLOUDY,NIGHT_CLEAR,NIGHT_MOSTLY_CLOUDY,NIGHT_CLEAR,NIGHT_CLEAR","Cross-shore,Cross-shore,Offshore,Cross-shore,Cross-shore",5
5842041f4e65fad6a770889c,2024_03_08,21.286357895152136,-157.8515,South Shore - Ala Moana Park,1,0.224,0.526,25,25,"NIGHT_CLEAR,NIGHT_BRIEF_SHOWERS_POSSIBLE,NIGHT_CLEAR,NIGHT_CLEAR,NIGHT_CLEAR","Offshore,Offshore,Offshore,Offshore,Offshore",5
5842041f4e65fad6a770889d,2024_03_08,19.606,-155.978,Banyans,3,0.332,0.638,26,25,"NIGHT_CLEAR,NIGHT_CLEAR,NIGHT_CLEAR,NIGHT_FOG,NIGHT_OVERCAST","Cross-shore,Onshore,Cross-shore,Onshore,Onshore",5
5842041f4e65fad6a770889e,2024_03_08,20.029,-155.831,Kawaihae,2,0.4444,0.66234,25,25,"NIGHT_MOSTLY_CLOUDY,NIGHT_MOSTLY_CLOUDY,NIGHT_CLEAR,NIGHT_OVERCAST,NIGHT_CLEAR","Offshore,Offshore,Offshore,Offshore,Offshore",5
5842041f4e65fad6a77088a2,2024_03_08,21.252,-157.805,Diamond Head,2,0.461774,0.784926,26,25,"NIGHT_CLEAR,NIGHT_CLEAR,NIGHT_CLEAR,NIGHT_CLEAR,NIGHT_CLEAR","Offshore,Offshore,Cross-shore,Offshore,Offshore",5
5842041f4e65fad6a77089ad,2024_03_08,46.8907710233147,-124.12964,Westport/Olympic Peninsula,3,1.18,1.444,8,8,"NIGHT_CLEAR,NIGHT_MOSTLY_CLOUDY,NIGHT_OVERCAST,NIGHT_OVERCAST,NIGHT_CLEAR","Cross-shore,Cross-shore,Offshore,Offshore,Offshore",5
5842041f4e65fad6a77089ae,2024_03_08,46.35185177248545,-124.06747,Long Beach Peninsula,3.2,1.888,2.112,9,9,"NIGHT_CLEAR,NIGHT_MOSTLY_CLEAR,NIGHT_MOSTLY_CLOUDY,NIGHT_CLEAR,NIGHT_CLEAR","Offshore,Offshore,Offshore,Offshore,Offshore",5
5842041f4e65fad6a77089af,2024_03_08,47.90649175554033,-124.6370864743483,La Push,1.2,1.43,1.718,8,8,"NIGHT_CLOUDY,NIGHT_OVERCAST,NIGHT_OVERCAST,NIGHT_OVERCAST,NIGHT_DRIZZLE","Cross-shore,Cross-shore,Cross-shore,Cross-shore,Cross-shore",5
5842041f4e65fad6a77089b6,2024_03_08,45.61468496266301,-123.94643,Rockaway Beach,4,1.8820000000000001,2.098,9,9,"NIGHT_CLEAR,NIGHT_CLEAR,NIGHT_CLEAR,NIGHT_CLEAR,NIGHT_CLEAR","Offshore,Offshore,Offshore,Offshore,Offshore",5
5842041f4e65fad6a77089b7,2024_03_08,45.20252914186085,-123.96975,Pacific City,3.4,1.316,1.616,10,10,"NIGHT_CLEAR,NIGHT_CLEAR,NIGHT_CLEAR,NIGHT_CLEAR,NIGHT_CLEAR","Offshore,Offshore,Offshore,Offshore,Offshore",5
5842041f4e65fad6a77089b8,2024_03_08,45.88179930310263,-123.96681,Cannon Beach,3,1.71,1.976,9,9,"NIGHT_CLEAR,NIGHT_CLEAR,NIGHT_CLEAR,NIGHT_CLEAR,NIGHT_CLEAR","Offshore,Offshore,Offshore,Offshore,Offshore",5
5842041f4e65fad6a77089ca,2024_03_08,43.251076,-70.59144,Ogunquit,2.4,1.836,2.146,4,3,"NIGHT_CLEAR,NIGHT_CLEAR,NIGHT_CLEAR,NIGHT_CLEAR,NIGHT_CLEAR","Cross-shore,Cross-shore,Cross-shore,Cross-shore,Cross-shore",5
5842041f4e65fad6a77089cb,2024_03_08,41.362631366305415,-71.48006772942608,Point Judith,0.632,0.5247333333333333,0.8766666666666667,6,4,"NIGHT_CLEAR,NIGHT_CLEAR,NIGHT_CLEAR,NIGHT_CLEAR,NIGHT_CLEAR","Onshore,Onshore,Onshore,Onshore,Onshore",5
5842041f4e65fad6a77089cd,2024_03_08,41.422678090954726,-71.45413,Monahan's - Narragansett,0.4,0.469686,0.733884,6,6,"NIGHT_CLEAR,NIGHT_CLEAR,NIGHT_CLEAR,NIGHT_CLEAR,NIGHT_CLEAR","Cross-shore,Cross-shore,Cross-shore,Cross-shore,Cross-shore",5
5842041f4e65fad6a77089ce,2024_03_08,41.469,-71.293,Ruggles - Newport,2.2,0.616568,0.963388,6,6,"NIGHT_CLEAR,NIGHT_CLEAR,NIGHT_CLEAR,NIGHT_CLEAR,NIGHT_CLEAR","Offshore,Offshore,Offshore,Offshore,Offshore",5
5842041f4e65fad6a77089cf,2024_03_08,43.175394,-70.606351,Short Sands Beach,2,1.342,1.6440000000000001,5,5,"NIGHT_CLEAR,NIGHT_CLEAR,NIGHT_CLEAR,NIGHT_CLEAR,NIGHT_CLEAR","Cross-shore,Cross-shore,Cross-shore,Cross-shore,Cross-shore",5
5842041f4e65fad6a77089d0,2024_03_08,41.487408,-71.29017,First Beach,2,0.448,0.754,5,5,"NIGHT_CLEAR,NIGHT_CLEAR,NIGHT_CLEAR,NIGHT_CLEAR,NIGHT_CLEAR","Offshore,Offshore,Offshore,Offshore,Offshore",5
5842041f4e65fad6a77089d1,2024_03_08,42.27916830233153,-70.86498,Nantasket Beach,1,1.29,1.506,4,3,"NIGHT_CLEAR,NIGHT_CLEAR,NIGHT_CLEAR,NIGHT_CLEAR,NIGHT_CLEAR","Onshore,Onshore,Onshore,Onshore,Onshore",5
5842041f4e65fad6a77089d2,2024_03_08,41.817,-69.935,Cape Cod,0,2.738,2.954,5,5,"NIGHT_CLEAR,NIGHT_CLEAR,NIGHT_CLEAR,NIGHT_CLEAR,NIGHT_CLEAR","Cross-shore,Cross-shore,Cross-shore,Cross-shore,Cross-shore",5
5842041f4e65fad6a77089d3,2024_03_08,42.22055448975661,-70.70634873403819,Egypt Beach,0,1.742,2.084,4,4,"NIGHT_CLEAR,NIGHT_CLEAR,NIGHT_CLEAR,NIGHT_CLEAR,NIGHT_CLEAR","Onshore,Onshore,Onshore,Onshore,Onshore",5
5842041f4e65fad6a77089d4,2024_03_08,41.48739647744607,-71.25723,Second Beach,1.4,0.408496,0.6382760000000001,6,4,"NIGHT_CLEAR,NIGHT_CLEAR,NIGHT_CLEAR,NIGHT_CLEAR,NIGHT_CLEAR","Offshore,Offshore,Offshore,Offshore,Offshore",5
5842041f4e65fad6a77089d5,2024_03_08,42.964,-70.769,Fox Hill,2,0.746,1.002,4,3,"NIGHT_CLEAR,NIGHT_CLEAR,NIGHT_CLEAR,NIGHT_CLEAR,NIGHT_CLEAR","Offshore,Offshore,Offshore,Offshore,Offshore",5
5842041f4e65fad6a77089d6,2024_03_08,42.991359,-70.75149,Straws Point,3.6,1.492,1.794,4,3,"NIGHT_CLEAR,NIGHT_CLEAR,NIGHT_CLEAR,NIGHT_CLEAR,NIGHT_CLEAR","Offshore,Offshore,Offshore,Offshore,Offshore",5
5842041f4e65fad6a77089d7,2024_03_08,42.946,-70.786,Plaice Cove,1,0.746,1.002,4,3,"NIGHT_CLEAR,NIGHT_CLEAR,NIGHT_CLEAR,NIGHT_CLEAR,NIGHT_CLEAR","Cross-shore,Cross-shore,Cross-shore,Cross-shore,Cross-shore",5
5842041f4e65fad6a77089d9,2024_03_08,42.911574,-70.80831,The Main Beach,2.8,0.79088,1.2357500000000001,4,3,"NIGHT_CLEAR,NIGHT_CLEAR,NIGHT_CLEAR,NIGHT_CLEAR,NIGHT_CLEAR","Offshore,Offshore,Offshore,Offshore,Offshore",5
5842041f4e65fad6a77089da,2024_03_08,42.97583846220203,-70.764,Sawyer's Beach,3,0.864,1.174,4,3,"NIGHT_CLEAR,NIGHT_CLEAR,NIGHT_CLEAR,NIGHT_CLEAR,NIGHT_CLEAR","Cross-shore,Offshore,Offshore,Offshore,Cross-shore",5
5842041f4e65fad6a77089db,2024_03_08,42.97,-70.77,Rye on the Rocks / 5-0's,2,0.727626,0.960636,4,3,"NIGHT_CLEAR,NIGHT_CLEAR,NIGHT_CLEAR,NIGHT_CLEAR,NIGHT_CLEAR","Offshore,Offshore,Offshore,Offshore,Offshore",5
5842041f4e65fad6a77089dc,2024_03_08,43.55902946610303,-70.27795,Higgins Beach,3,0.54,0.844,4,3,"NIGHT_CLEAR,NIGHT_CLEAR,NIGHT_CLEAR,NIGHT_CLEAR,NIGHT_CLEAR","Offshore,Offshore,Offshore,Offshore,Offshore",5
5842041f4e65fad6a77089dd,2024_03_08,43.302676,-70.5652,Wells Beach,2,0.856,1.09,4,3,"NIGHT_CLEAR,NIGHT_CLEAR,NIGHT_CLEAR,NIGHT_CLEAR,NIGHT_CLEAR","Cross-shore,Cross-shore,Cross-shore,Cross-shore,Cross-shore",5
5842041f4e65fad6a77089de,2024_03_08,43.545359,-70.30479,Scarborough Beach State Park,3,0.811048,1.2672620000000001,4,3,"NIGHT_CLEAR,NIGHT_CLEAR,NIGHT_CLEAR,NIGHT_CLEAR,NIGHT_CLEAR","Offshore,Offshore,Offshore,Offshore,Offshore",5
5842041f4e65fad6a77089df,2024_03_08,43.514481,-70.372146,Old Orchard Beach,3,0.47959999999999997,0.8098,4,3,"NIGHT_CLEAR,NIGHT_CLEAR,NIGHT_CLEAR,NIGHT_CLEAR,NIGHT_CLEAR","Offshore,Offshore,Offshore,Offshore,Offshore",5
5842041f4e65fad6a77089e0,2024_03_08,43.34711,-70.48165,Gooch's Beach,3,0.708,1.014,4,3,"NIGHT_CLEAR,NIGHT_CLEAR,NIGHT_CLEAR,NIGHT_CLEAR,NIGHT_CLEAR","Offshore,Offshore,Offshore,Offshore,Offshore",5
5842041f4e65fad6a77089e2,2024_03_08,40.58433,-73.62953,Lido Beach,3,0.9000666666666667,1.1296666666666668,7,6,"NIGHT_CLEAR,NIGHT_CLEAR,NIGHT_CLEAR,NIGHT_CLEAR,NIGHT_CLEAR","Offshore,Offshore,Offshore,Offshore,Offshore",5
5842041f4e65fad6a77089e3,2024_03_08,43.163135,-70.61689,Long Sands Beach,3,0.5950743333333333,0.948855,4,3,"NIGHT_CLEAR,NIGHT_CLEAR,NIGHT_CLEAR,NIGHT_CLEAR,NIGHT_CLEAR","Offshore,Offshore,Offshore,Offshore,Offshore",5
5842041f4e65fad6a77089e4,2024_03_08,40.61695351251805,-73.39376,Gilgo Beach,2.6,0.612,0.92,5,4,"NIGHT_CLEAR,NIGHT_CLEAR,NIGHT_CLEAR,NIGHT_CLEAR,NIGHT_CLEAR","Offshore,Offshore,Offshore,Offshore,Offshore",5
5842041f4e65fad6a77089e5,2024_03_08,40.62530081928036,-73.23827,Robert Moses,2.4,0.61,0.914,7,7,"NIGHT_CLEAR,NIGHT_CLEAR,NIGHT_CLEAR,NIGHT_CLEAR,NIGHT_CLEAR","Offshore,Offshore,Offshore,Offshore,Offshore",5
5842041f4e65fad6a77089e6,2024_03_08,40.64313317632791,-73.15727,Fire Island,2.6,0.612,0.918,7,7,"NIGHT_CLEAR,NIGHT_CLEAR,NIGHT_CLEAR,NIGHT_CLEAR,NIGHT_CLEAR","Offshore,Offshore,Offshore,Offshore,Offshore",5
5842041f4e65fad6a77089e8,2024_03_08,40.76653118828782,-72.74579619372713,Cupsogue,3.6,1.156,1.412,7,7,"NIGHT_CLEAR,NIGHT_CLEAR,NIGHT_CLEAR,NIGHT_CLEAR,NIGHT_CLEAR","Offshore,Offshore,Offshore,Offshore,Offshore",5
5842041f4e65fad6a77089e9,2024_03_08,42.9376373334092,-70.79141,The Wall ,2,1.232026,1.925044,4,3,"NIGHT_CLEAR,NIGHT_CLEAR,NIGHT_CLEAR,NIGHT_CLEAR,NIGHT_CLEAR","Cross-shore,Cross-shore,Cross-shore,Cross-shore,Cross-shore",5
5842041f4e65fad6a77089ea,2024_03_08,40.887088,-72.33856,Flys,3,1.004,1.242,7,7,"NIGHT_CLEAR,NIGHT_CLEAR,NIGHT_CLEAR,NIGHT_CLEAR,NIGHT_CLEAR","Offshore,Offshore,Offshore,Offshore,Offshore",5
5842041f4e65fad6a77089eb,2024_03_08,41.0389266436591,-71.91068529316958,Trailer Park,3.368,0.960806,1.2373293333333333,5,4,"NIGHT_CLEAR,NIGHT_CLEAR,NIGHT_CLEAR,NIGHT_CLEAR,NIGHT_CLEAR","Offshore,Offshore,Offshore,Offshore,Offshore",5
5842041f4e65fad6a77089ec,2024_03_08,41.039505402729105,-71.9142,Ditch Plains,3,0.752364,1.175568,6,6,"NIGHT_CLEAR,NIGHT_CLEAR,NIGHT_CLEAR,NIGHT_CLEAR,NIGHT_CLEAR","Offshore,Offshore,Offshore,Offshore,Offshore",5
5842041f4e65fad6a77089ee,2024_03_08,40.57633275206492,-73.56895305108567,"West End, Jones Beach",3,0.716,1.022,7,6,"NIGHT_CLEAR,NIGHT_CLEAR,NIGHT_CLEAR,NIGHT_CLEAR,NIGHT_CLEAR","Offshore,Offshore,Offshore,Offshore,Offshore",5
5842041f4e65fad6a77089f1,2024_03_08,41.038286691230795,-71.91991567611694,Poles,3.368,0.8340426666666666,1.1434816666666667,5,4,"NIGHT_CLEAR,NIGHT_CLEAR,NIGHT_CLEAR,NIGHT_CLEAR,NIGHT_CLEAR","Offshore,Offshore,Offshore,Offshore,Offshore",5
5842041f4e65fad6a77089f3,2024_03_08,40.84077769766295,-72.47989493724765,The Bowl,3,0.996,1.236,7,7,"NIGHT_CLEAR,NIGHT_CLEAR,NIGHT_CLEAR,NIGHT_CLEAR,NIGHT_CLEAR","Offshore,Offshore,Offshore,Offshore,Offshore",5
5842041f4e65fad6a77089f4,2024_03_08,40.94235535243154,-72.19286,Main Beach,3,1.062,1.308,13,12,"NIGHT_CLEAR,NIGHT_CLEAR,NIGHT_CLEAR,NIGHT_CLEAR,NIGHT_CLEAR","Offshore,Offshore,Offshore,Offshore,Offshore",5
5842041f4e65fad6a77089f5,2024_03_08,40.58270702399518,-73.67251552079799,Laurelton Blvd.,3,0.754991,0.963335,7,6,"NIGHT_CLEAR,NIGHT_CLEAR,NIGHT_CLEAR,NIGHT_CLEAR,NIGHT_MIST","Offshore,Offshore,Offshore,Offshore,Offshore",5
5842041f4e65fad6a77089f6,2024_03_08,41.033752854071416,-71.93695522488403,Terrace,3.234,0.7215333333333334,1.0303333333333333,5,4,"NIGHT_CLEAR,NIGHT_CLEAR,NIGHT_CLEAR,NIGHT_CLEAR,NIGHT_CLEAR","Offshore,Offshore,Offshore,Offshore,Offshore",5
5842041f4e65fad6a77089f7,2024_03_08,40.83372943645748,-72.50426173210144,K Road,3.8,1.176,1.424,7,7,"NIGHT_CLEAR,NIGHT_CLEAR,NIGHT_CLEAR,NIGHT_CLEAR,NIGHT_CLEAR","Offshore,Offshore,Offshore,Offshore,Offshore",5
5842041f4e65fad6a77089f8,2024_03_08,40.58456099581507,-73.80730032920837,84th Street,3,0.8364,1.1183333333333334,7,6,"NIGHT_CLEAR,NIGHT_CLEAR,NIGHT_CLEAR,NIGHT_CLEAR,NIGHT_CLEAR","Offshore,Offshore,Offshore,Offshore,Offshore",5
5842041f4e65fad6a77089fa,2024_03_08,40.1319,-74.02788,Sea Girt,2.4,1.076,1.364,7,6,"NIGHT_CLEAR,NIGHT_CLEAR,NIGHT_CLEAR,NIGHT_CLEAR,NIGHT_CLEAR","Cross-shore,Cross-shore,Cross-shore,Cross-shore,Cross-shore",5
5842041f4e65fad6a77089fb,2024_03_08,40.54698301868125,-73.9268,Breezy Point,3,0.626,0.932,7,7,"NIGHT_CLEAR,NIGHT_CLEAR,NIGHT_CLEAR,NIGHT_MIST,NIGHT_CLEAR","Offshore,Offshore,Offshore,Offshore,Offshore",5
5842041f4e65fad6a77089fc,2024_03_08,40.152504,-74.021383,Spring Lake,2.4,1.008,1.294,7,6,"NIGHT_CLEAR,NIGHT_CLEAR,NIGHT_CLEAR,NIGHT_CLEAR,NIGHT_CLEAR","Cross-shore,Cross-shore,Cross-shore,Cross-shore,Cross-shore",5
5842041f4e65fad6a77089fd,2024_03_08,40.591277,-73.770792,30th - 39th Streets,3,0.596,0.906,7,6,"NIGHT_CLEAR,NIGHT_CLEAR,NIGHT_CLEAR,NIGHT_MIST,NIGHT_CLEAR","Offshore,Offshore,Offshore,Offshore,Offshore",5
5842041f4e65fad6a77089fe,2024_03_08,40.18834955871439,-74.00860982500222,Avon,2.4,1.106,1.3860000000000001,7,6,"NIGHT_CLEAR,NIGHT_CLEAR,NIGHT_CLEAR,NIGHT_CLEAR,NIGHT_CLEAR","Cross-shore,Cross-shore,Cross-shore,Cross-shore,Cross-shore",5
5842041f4e65fad6a77089ff,2024_03_08,40.1974229100932,-74.00650533798255,Bradley Beach,2.2,1.014,1.256,7,6,"NIGHT_CLEAR,NIGHT_CLEAR,NIGHT_CLEAR,NIGHT_CLEAR,NIGHT_CLEAR","Cross-shore,Onshore,Cross-shore,Cross-shore,Cross-shore",5
5842041f4e65fad6a7708a01,2024_03_08,40.17202,-74.01503,"16th Ave., Belmar",1.034,1,1.224,7,6,"NIGHT_CLEAR,NIGHT_CLEAR,NIGHT_CLEAR,NIGHT_CLEAR,NIGHT_CLEAR","Cross-shore,Onshore,Cross-shore,Cross-shore,Cross-shore",5
5842041f4e65fad6a7708a02,2024_03_08,40.217443,-73.99982,Asbury Park,2.2,0.986,1.25,7,6,"NIGHT_CLEAR,NIGHT_CLEAR,NIGHT_CLEAR,NIGHT_CLEAR,NIGHT_CLEAR","Cross-shore,Cross-shore,Cross-shore,Cross-shore,Cross-shore",5
5842041f4e65fad6a7708a03,2024_03_08,40.229841,-73.996782,Loch Arbour and Deal,2.6,1.016,1.32,7,6,"NIGHT_CLEAR,NIGHT_CLEAR,NIGHT_CLEAR,NIGHT_CLEAR,NIGHT_CLEAR","Cross-shore,Cross-shore,Offshore,Offshore,Offshore",5
5842041f4e65fad6a7708a05,2024_03_08,40.41754,-73.97935,Sandy Hook,1.6,0.34400000000000003,0.648,7,7,"NIGHT_CLEAR,NIGHT_CLEAR,NIGHT_CLEAR,NIGHT_CLEAR,NIGHT_CLEAR","Cross-shore,Cross-shore,Cross-shore,Offshore,Offshore",5
5842041f4e65fad6a7708a06,2024_03_08,39.36353,-74.40873,Crystals,3,0.732328,1.144262,7,6,"NIGHT_CLEAR,NIGHT_CLEAR,NIGHT_CLEAR,NIGHT_CLEAR,NIGHT_CLEAR","Offshore,Offshore,Offshore,Offshore,Offshore",5
5842041f4e65fad6a7708a07,2024_03_08,39.31443,-74.51863,32nd Street,2,0.7123786666666667,1.103563,7,6,"NIGHT_CLEAR,NIGHT_CLEAR,NIGHT_CLEAR,NIGHT_CLEAR,NIGHT_CLEAR","Offshore,Offshore,Offshore,Offshore,Offshore",5
5842041f4e65fad6a7708a08,2024_03_08,39.327688,-74.49524,Margate Pier Northside,2,0.7123786666666667,1.103563,7,6,"NIGHT_CLEAR,NIGHT_CLEAR,NIGHT_CLEAR,NIGHT_CLEAR,NIGHT_CLEAR","Offshore,Offshore,Offshore,Offshore,Offshore",5
5842041f4e65fad6a7708a09,2024_03_08,39.336276,-74.47782,Ventnor Pier,3,0.6806519999999999,1.063518,7,6,"NIGHT_CLEAR,NIGHT_CLEAR,NIGHT_CLEAR,NIGHT_CLEAR,NIGHT_CLEAR","Offshore,Offshore,Offshore,Offshore,Offshore",5
5842041f4e65fad6a7708a0a,2024_03_08,39.35929751441085,-74.41683,States Avenue,3,0.732328,1.144262,7,6,"NIGHT_CLEAR,NIGHT_CLEAR,NIGHT_CLEAR,NIGHT_CLEAR,NIGHT_CLEAR","Offshore,Offshore,Offshore,Offshore,Offshore",5
5842041f4e65fad6a7708a0b,2024_03_08,39.37274173278517,-74.40454,Brigantine Jetty,2.8,0.6714019999999999,1.0490680000000001,7,6,"NIGHT_CLEAR,NIGHT_CLEAR,NIGHT_CLEAR,NIGHT_CLEAR,NIGHT_CLEAR","Offshore,Offshore,Offshore,Offshore,Offshore",5
5842041f4e65fad6a7708a0c,2024_03_08,39.356505,-74.42263,South Carolina Avenue,3,0.671704,1.04954,7,6,"NIGHT_CLEAR,NIGHT_CLEAR,NIGHT_CLEAR,NIGHT_CLEAR,NIGHT_CLEAR","Offshore,Offshore,Offshore,Offshore,Offshore",5
5842041f4e65fad6a7708a0d,2024_03_08,39.413485,-74.35476,14th Street North,3,0.906,1.212,7,6,"NIGHT_CLEAR,NIGHT_CLEAR,NIGHT_CLEAR,NIGHT_CLEAR,NIGHT_CLEAR","Offshore,Offshore,Offshore,Offshore,Offshore",5
5842041f4e65fad6a7708a0e,2024_03_08,39.531319,-74.263252,The Wooden Jetty,1.934,0.9736556666666667,1.2033993333333333,7,6,"NIGHT_CLEAR,NIGHT_CLEAR,NIGHT_CLEAR,NIGHT_CLEAR,NIGHT_CLEAR","Offshore,Offshore,Offshore,Offshore,Offshore",5
5842041f4e65fad6a7708a0f,2024_03_08,39.552472,-74.24344,Holyoke,2,0.740754,1.147902,7,6,"NIGHT_CLEAR,NIGHT_CLEAR,NIGHT_CLEAR,NIGHT_CLEAR,NIGHT_CLEAR","Offshore,Offshore,Offshore,Offshore,Offshore",5
5842041f4e65fad6a7708a10,2024_03_08,39.692364,-74.14068,Hudson Ave.,1.934,1.0020666666666667,1.3422666666666667,7,6,"NIGHT_CLEAR,NIGHT_CLEAR,NIGHT_CLEAR,NIGHT_CLEAR,NIGHT_CLEAR","Offshore,Offshore,Offshore,Offshore,Offshore",5
5842041f4e65fad6a7708a11,2024_03_08,39.79614,-74.09248,Island Beach State Park,2.4,1.268,1.506,7,6,"NIGHT_CLEAR,NIGHT_CLEAR,NIGHT_CLEAR,NIGHT_CLEAR,NIGHT_CLEAR","Cross-shore,Cross-shore,Cross-shore,Offshore,Offshore",5
5842041f4e65fad6a7708a12,2024_03_08,39.91813588078152,-74.07527,Seaside Park,2.2,1.03,1.32,7,6,"NIGHT_CLEAR,NIGHT_CLEAR,NIGHT_CLEAR,NIGHT_CLEAR,NIGHT_CLEAR","Cross-shore,Cross-shore,Cross-shore,Offshore,Offshore",5
5842041f4e65fad6a7708a14,2024_03_08,39.946638,-74.06884,Seaside Heights,2.6,1.226,1.532,7,6,"NIGHT_CLEAR,NIGHT_CLEAR,NIGHT_CLEAR,NIGHT_CLEAR,NIGHT_CLEAR","Cross-shore,Cross-shore,Offshore,Offshore,Offshore",5
5842041f4e65fad6a7708a15,2024_03_08,39.95745637606704,-74.06736,Ortley Beach,2.6,1.026,1.266,7,6,"NIGHT_CLEAR,NIGHT_CLEAR,NIGHT_CLEAR,NIGHT_CLEAR,NIGHT_CLEAR","Cross-shore,Cross-shore,Offshore,Offshore,Offshore",5
5842041f4e65fad6a7708a16,2024_03_08,39.98313468342945,-74.06265685577506,Lavallette,2.4,1.046,1.338,7,6,"NIGHT_CLEAR,NIGHT_CLEAR,NIGHT_CLEAR,NIGHT_CLEAR,NIGHT_CLEAR","Cross-shore,Cross-shore,Cross-shore,Offshore,Offshore",5
5842041f4e65fad6a7708a17,2024_03_08,40.0699319967757,-74.04144910856634,Bay Head,2.2,1.018,1.324,7,6,"NIGHT_CLEAR,NIGHT_CLEAR,NIGHT_CLEAR,NIGHT_CLEAR,NIGHT_CLEAR","Cross-shore,Cross-shore,Offshore,Offshore,Offshore",5
5842041f4e65fad6a7708a18,2024_03_08,40.094041,-74.034859,Jenkinson's,2.8,1.1440000000000001,1.398,7,6,"NIGHT_CLEAR,NIGHT_CLEAR,NIGHT_CLEAR,NIGHT_CLEAR,NIGHT_CLEAR","Offshore,Offshore,Offshore,Offshore,Offshore",5
5842041f4e65fad6a7708a1a,2024_03_08,38.148058,-75.17704,Assateague,1.2,1.02,1.282,8,7,"NIGHT_CLEAR,NIGHT_CLEAR,NIGHT_CLEAR,NIGHT_CLEAR,NIGHT_CLEAR","Cross-shore,Cross-shore,Cross-shore,Cross-shore,Cross-shore",5
5842041f4e65fad6a7708a1b,2024_03_08,38.33889038664497,-75.08017670566352,North End to Ocean City Inlet,1.8,1.048,1.336,8,7,"NIGHT_CLEAR,NIGHT_CLEAR,NIGHT_CLEAR,NIGHT_CLEAR,NIGHT_CLEAR","Onshore,Onshore,Onshore,Onshore,Onshore",5
5842041f4e65fad6a7708a1c,2024_03_08,38.603993,-75.06271,Indian River Inlet,1,0.70292,1.098312,8,7,"NIGHT_CLEAR,NIGHT_CLEAR,NIGHT_CLEAR,NIGHT_CLEAR,NIGHT_CLEAR","Cross-shore,Cross-shore,Cross-shore,Cross-shore,Cross-shore",5
5842041f4e65fad6a7708a1d,2024_03_08,38.460477,-75.052069,Fenwick Island,1,0.672,0.978,8,7,"NIGHT_CLEAR,NIGHT_CLEAR,NIGHT_CLEAR,NIGHT_CLEAR,NIGHT_CLEAR","Onshore,Onshore,Onshore,Onshore,Onshore",5
5842041f4e65fad6a7708a1e,2024_03_08,38.538767,-75.05619,Bethany Beach,1,0.70147,1.09605,8,7,"NIGHT_CLEAR,NIGHT_CLEAR,NIGHT_CLEAR,NIGHT_CLEAR,NIGHT_CLEAR","Cross-shore,Cross-shore,Cross-shore,Cross-shore,Cross-shore",5
5842041f4e65fad6a7708a1f,2024_03_08,38.697657,-75.075951,Dewey Beach,2,0.87,1.104,8,7,"NIGHT_CLEAR,NIGHT_CLEAR,NIGHT_CLEAR,NIGHT_CLEAR,NIGHT_CLEAR","Onshore,Onshore,Onshore,Onshore,Onshore",5
5842041f4e65fad6a7708a20,2024_03_08,38.75034741676525,-75.08194,Gordons Pond,2.2,0.581324,0.90832,8,7,"NIGHT_CLEAR,NIGHT_CLEAR,NIGHT_CLEAR,NIGHT_CLEAR,NIGHT_CLEAR","Cross-shore,Cross-shore,Cross-shore,Cross-shore,Cross-shore",5
5842041f4e65fad6a7708a21,2024_03_08,38.767837,-75.082841,Naval Jetties,1.6,0.852,1.0839999999999999,8,7,"NIGHT_CLEAR,NIGHT_CLEAR,NIGHT_CLEAR,NIGHT_CLEAR,NIGHT_CLEAR","Onshore,Onshore,Onshore,Onshore,Onshore",5
5842041f4e65fad6a7708a22,2024_03_08,36.81735875786576,-75.96624,Camp Pendleton,0.966,0.74,1.042,9,8,"NIGHT_CLEAR,NIGHT_CLEAR,NIGHT_CLEAR,NIGHT_MIST,NIGHT_MIST","Cross-shore,Onshore,Onshore,Onshore,Onshore",5
5842041f4e65fad6a7708a23,2024_03_08,36.9102212316428,-75.98732471466064,North End,1,0.394,0.7,9,8,"NIGHT_CLEAR,NIGHT_CLEAR,NIGHT_CLEAR,NIGHT_CLEAR,NIGHT_CLEAR","Onshore,Onshore,Onshore,Onshore,Onshore",5
5842041f4e65fad6a7708a24,2024_03_08,36.737117517621314,-75.93923719853362,Sandbridge Beach,1.6,0.544,0.848,9,8,"NIGHT_CLEAR,NIGHT_CLEAR,NIGHT_CLEAR,NIGHT_MIST,NIGHT_MIST","Cross-shore,Onshore,Onshore,Onshore,Onshore",5
5842041f4e65fad6a7708a26,2024_03_08,36.818257440557794,-75.96666,Croatan to Pendleton,0.8,0.53,0.832,9,8,"NIGHT_CLEAR,NIGHT_CLEAR,NIGHT_CLEAR,NIGHT_MIST,NIGHT_MIST","Cross-shore,Onshore,Onshore,Onshore,Onshore",5
5842041f4e65fad6a7708a27,2024_03_08,36.84318777204769,-75.9719,South End,1.8,0.444,0.748,9,8,"NIGHT_CLEAR,NIGHT_CLEAR,NIGHT_CLEAR,NIGHT_MIST,NIGHT_MIST","Onshore,Onshore,Onshore,Onshore,Onshore",5
5842041f4e65fad6a7708a28,2024_03_08,37.08612627584661,-75.976121638199,Fishermans Island,1.6,0.2424,0.364,9,9,"NIGHT_CLEAR,NIGHT_CLEAR,NIGHT_CLOUDY,NIGHT_CLEAR,NIGHT_CLEAR","Cross-shore,Cross-shore,Cross-shore,Cross-shore,Cross-shore",5
5842041f4e65fad6a7708a38,2024_03_08,35.254619418229026,-75.52074,Cape Hatteras Lighthouse,0,0.9215151666666667,1.3827166666666666,13,12,"NIGHT_CLEAR,NIGHT_CLEAR,NIGHT_CLEAR,NIGHT_MIST,NIGHT_MIST","Cross-shore,Cross-shore,Cross-shore,Cross-shore,Cross-shore",5
5842041f4e65fad6a7708a3a,2024_03_08,35.54572934093336,-75.46477,Waves and Salvo,1,0.832,1.074,12,11,"NIGHT_CLEAR,NIGHT_CLOUDY,NIGHT_CLEAR,NIGHT_MIST,NIGHT_MIST","Cross-shore,Cross-shore,Cross-shore,Cross-shore,Cross-shore",5
5842041f4e65fad6a7708a3b,2024_03_08,35.22565892751075,-75.63606,Frisco,2.6,0.8768,1.0736,14,13,"NIGHT_CLEAR,NIGHT_CLEAR,NIGHT_MOSTLY_CLOUDY,NIGHT_CLOUDY,NIGHT_CLOUDY","Offshore,Offshore,Offshore,Offshore,Offshore",5
5842041f4e65fad6a7708a3c,2024_03_08,35.13086,-75.90591,Ocracoke,1,0.656616,1.0259559999999999,12,12,"NIGHT_CLEAR,NIGHT_CLEAR,NIGHT_BRIEF_SHOWERS,NIGHT_MIST,NIGHT_MIST","Offshore,Offshore,Offshore,Offshore,Cross-shore",5
5842041f4e65fad6a7708a3d,2024_03_08,35.34721340158342,-75.50084,Avon Pier,0,0.7979,1.4456666666666667,13,12,"NIGHT_CLEAR,NIGHT_CLEAR,NIGHT_CLEAR,NIGHT_OVERCAST,NIGHT_OVERCAST","Cross-shore,Cross-shore,Cross-shore,Cross-shore,Cross-shore",5
5842041f4e65fad6a7708a3f,2024_03_08,35.71680821253768,-75.49243,Pea Island,1.2,0.644,0.95,10,10,"NIGHT_FOG,NIGHT_CLOUDY,NIGHT_CLEAR,NIGHT_OVERCAST,NIGHT_OVERCAST","Cross-shore,Cross-shore,Onshore,Onshore,Onshore",5
5842041f4e65fad6a7708a40,2024_03_08,35.97427620657821,-75.62984,Nags Head Pier,1.4,0.7614,1.0302,11,9,"NIGHT_OVERCAST,NIGHT_CLEAR,NIGHT_CLEAR,NIGHT_OVERCAST,NIGHT_OVERCAST","Onshore,Onshore,Onshore,Onshore,Onshore",5
5842041f4e65fad6a7708a41,2024_03_08,36.0439998039079,-75.67288,Avalon Pier,1.8,0.784,1.028,11,9,"NIGHT_CLEAR,NIGHT_CLEAR,NIGHT_CLOUDY,NIGHT_OVERCAST,NIGHT_OVERCAST","Onshore,Onshore,Onshore,Onshore,Onshore",5
5842041f4e65fad6a7708a42,2024_03_08,36.03043116489792,-75.66413,First Street,2,0.7907333333333333,1.1015333333333333,11,9,"NIGHT_CLEAR,NIGHT_CLEAR,NIGHT_CLOUDY,NIGHT_OVERCAST,NIGHT_OVERCAST","Cross-shore,Cross-shore,Onshore,Onshore,Onshore",5
5842041f4e65fad6a7708a43,2024_03_08,36.06829910590498,-75.6899,Old Station/Laundromats,1.8,0.6920000000000001,0.996,11,9,"NIGHT_CLOUDY,NIGHT_CLEAR,NIGHT_CLEAR,NIGHT_OVERCAST,NIGHT_OVERCAST","Cross-shore,Cross-shore,Onshore,Onshore,Onshore",5
5842041f4e65fad6a7708a44,2024_03_08,36.10126676607491,-75.71107462163894,Kitty Hawk Pier,2,0.7480666666666667,1.0492000000000001,11,9,"NIGHT_OVERCAST,NIGHT_CLEAR,NIGHT_CLOUDY,NIGHT_OVERCAST,NIGHT_OVERCAST","Cross-shore,Cross-shore,Onshore,Onshore,Onshore",5
5842041f4e65fad6a7708a45,2024_03_08,36.18220630068973,-75.75013580649097,Duck Pier,1.2,0.566,0.872,10,9,"NIGHT_CLOUDY,NIGHT_CLEAR,NIGHT_CLEAR,NIGHT_CLOUDY,NIGHT_MIST","Cross-shore,Cross-shore,Onshore,Onshore,Onshore",5
5842041f4e65fad6a7708a46,2024_03_08,36.37660668125033,-75.82409701687456,Corolla,1,0.568,0.872,10,9,"NIGHT_CLEAR,NIGHT_CLEAR,NIGHT_CLEAR,NIGHT_CLOUDY,NIGHT_MIST","Cross-shore,Cross-shore,Onshore,Onshore,Onshore",5
5842041f4e65fad6a7708a47,2024_03_08,33.90373404124834,-78.08241431707907,Oak Island,1.8,0.27,0.574,14,14,"NIGHT_CLEAR,NIGHT_CLEAR,NIGHT_CLEAR,NIGHT_CLEAR,NIGHT_CLEAR","Offshore,Offshore,Offshore,Offshore,Offshore",5
5842041f4e65fad6a7708a48,2024_03_08,33.91108837766468,-78.29653,South Brunswick Beaches,2,0.30364599999999997,0.474442,14,14,"NIGHT_MIST,NIGHT_MOSTLY_CLOUDY,NIGHT_CLEAR,NIGHT_MIST,NIGHT_CLEAR","Offshore,Cross-shore,Offshore,Offshore,Offshore",5
5842041f4e65fad6a7708a49,2024_03_08,34.05683595651973,-77.88128,Carolina Beach Pier,0.966,0.5670666666666667,0.8738666666666667,14,13,"NIGHT_CLEAR,NIGHT_CLEAR,NIGHT_CLEAR,NIGHT_CLEAR,NIGHT_CLEAR","Onshore,Onshore,Onshore,Onshore,Onshore",5
5842041f4e65fad6a7708a4a,2024_03_08,33.96841191816696,-77.9180242565498,Fort Fisher,1.1,0.6600666666666667,0.9652000000000001,14,13,"NIGHT_CLEAR,NIGHT_CLEAR,NIGHT_CLEAR,NIGHT_CLEAR,NIGHT_CLEAR","Onshore,Onshore,Onshore,Onshore,Onshore",5
5842041f4e65fad6a7708a4b,2024_03_08,34.46776662988774,-77.47083191635772,Topsail Beach,1.8,0.632,0.938,14,13,"NIGHT_CLEAR,NIGHT_CLEAR,NIGHT_CLEAR,NIGHT_MIST,NIGHT_MIST","Offshore,Offshore,Cross-shore,Cross-shore,Cross-shore",5
5842041f4e65fad6a7708a4c,2024_03_08,34.69270354752445,-76.82854854446575,Iron Steamer,2,0.3457666666666667,0.6485666666666666,14,13,"NIGHT_CLEAR,NIGHT_CLEAR,NIGHT_CLEAR,NIGHT_CLEAR,NIGHT_CLEAR","Offshore,Offshore,Offshore,Offshore,Offshore",5
5842041f4e65fad6a7708a4f,2024_03_08,30.85132684893727,-81.42283496231143,Cumberland Island,1.6,0.414,0.72,16,16,"NIGHT_MIST,NIGHT_MIST,NIGHT_MIST,NIGHT_MIST,NIGHT_MIST","Cross-shore,Cross-shore,Onshore,Onshore,Onshore",5
5842041f4e65fad6a7708a50,2024_03_08,34.686741128540874,-76.47516712138378,Cape Lookout National Seashore,0.6,0.634,0.9380000000000001,12,12,"NIGHT_CLEAR,NIGHT_CLEAR,NIGHT_CLEAR,NIGHT_CLEAR,NIGHT_CLEAR","Cross-shore,Cross-shore,Cross-shore,Cross-shore,Cross-shore",5
5842041f4e65fad6a7708a51,2024_03_08,31.10585419260024,-81.40422767604812,Jekyll Island,1,0.182,0.484,15,15,"NIGHT_MIST,NIGHT_MIST,NIGHT_MIST,NIGHT_DRIZZLE,NIGHT_MIST","Onshore,Onshore,Onshore,Onshore,Onshore",5
5842041f4e65fad6a7708a52,2024_03_08,31.16212806376699,-81.32512426500224,Harbor Marker Buoys,1.8,0.442,0.75,15,15,"NIGHT_MIST,NIGHT_MIST,NIGHT_MIST,NIGHT_MIST,NIGHT_MIST","Cross-shore,Cross-shore,Onshore,Onshore,Onshore",5
5842041f4e65fad6a7708a53,2024_03_08,31.20076299997009,-81.32629,Sea Island,2,0.43,0.734,15,15,"NIGHT_MIST,NIGHT_MIST,NIGHT_MIST,NIGHT_MIST,NIGHT_OVERCAST","Cross-shore,Cross-shore,Cross-shore,Cross-shore,Onshore",5
5842041f4e65fad6a7708a54,2024_03_08,31.13553222995767,-81.38457634790909,St. Simons Island,2,0.39,0.696,15,15,"NIGHT_MIST,NIGHT_MIST,NIGHT_MIST,NIGHT_MIST,NIGHT_MIST","Cross-shore,Cross-shore,Cross-shore,Cross-shore,Cross-shore",5
5842041f4e65fad6a7708a55,2024_03_08,31.33550077186516,-81.28383377408417,Wolf Island,2,0.31,0.614,15,15,"NIGHT_MIST,NIGHT_MIST,NIGHT_MIST,NIGHT_MIST,NIGHT_MIST","Onshore,Onshore,Cross-shore,Onshore,Onshore",5
5842041f4e65fad6a7708a56,2024_03_08,31.2704493877174,-81.27324039152315,Little St. Simons Island,2,0.394,0.702,15,15,"NIGHT_MIST,NIGHT_MIST,NIGHT_MIST,NIGHT_MIST,NIGHT_MIST","Onshore,Onshore,Onshore,Onshore,Onshore",5
5842041f4e65fad6a7708a57,2024_03_08,31.39261761368919,-81.26190520231917,Sapelo Island,2,0.364,0.674,15,15,"NIGHT_MIST,NIGHT_MIST,NIGHT_MIST,NIGHT_MIST,NIGHT_MIST","Cross-shore,Cross-shore,Cross-shore,Onshore,Onshore",5
5842041f4e65fad6a7708a58,2024_03_08,34.42458783809001,-77.54492,Surf City Pier,2,0.66,0.964,14,13,"NIGHT_CLEAR,NIGHT_CLEAR,NIGHT_CLEAR,NIGHT_CLEAR,NIGHT_CLEAR","Cross-shore,Cross-shore,Cross-shore,Cross-shore,Cross-shore",5
5842041f4e65fad6a7708a59,2024_03_08,31.4231993614213,-81.24725340591522,Cabretta Island,2,0.382,0.69,15,15,"NIGHT_CLEAR,NIGHT_MIST,NIGHT_MIST,NIGHT_MIST,NIGHT_DRIZZLE","Cross-shore,Cross-shore,Onshore,Onshore,Onshore",5
5842041f4e65fad6a7708a5a,2024_03_08,31.46684389030369,-81.2100056410468,Blackbeard Island,2,0.362,0.67,15,15,"NIGHT_CLEAR,NIGHT_OVERCAST,NIGHT_MIST,NIGHT_MIST,NIGHT_DRIZZLE","Cross-shore,Cross-shore,Onshore,Onshore,Onshore",5
5842041f4e65fad6a7708a5b,2024_03_08,31.85953587631629,-80.99031310336719,Wassaw Island/South End,1.6,0.064,0.37,15,15,"NIGHT_MIST,NIGHT_MIST,NIGHT_MIST,NIGHT_BRIEF_SHOWERS,NIGHT_MIST","Cross-shore,Cross-shore,Cross-shore,Onshore,Onshore",5
5842041f4e65fad6a7708a5c,2024_03_08,31.62535662342983,-81.13328352167974,St. Catherines Island,2,0.37,0.674,15,15,"NIGHT_MIST,NIGHT_MIST,NIGHT_MOSTLY_CLOUDY,NIGHT_MIST,NIGHT_MIST","Onshore,Onshore,Onshore,Onshore,Onshore",5
5842041f4e65fad6a7708a5d,2024_03_08,31.76502169596568,-81.07655443806622,Ossabaw Island,2,0.278,0.584,15,15,"NIGHT_MIST,NIGHT_MIST,NIGHT_MIST,NIGHT_CLEAR,NIGHT_MIST","Cross-shore,Cross-shore,Cross-shore,Onshore,Onshore",5
5842041f4e65fad6a7708a5e,2024_03_08,31.90593619092352,-80.93589231700857,Wassaw Island/North End,2,0.512,0.818,15,15,"NIGHT_MIST,NIGHT_MIST,NIGHT_MIST,NIGHT_MIST,NIGHT_MIST","Cross-shore,Cross-shore,Cross-shore,Cross-shore,Onshore",5
5842041f4e65fad6a7708a5f,2024_03_08,31.96738675414547,-80.86977980706155,Little Tybee Island,2,0.416,0.722,15,15,"NIGHT_MIST,NIGHT_MIST,NIGHT_MIST,NIGHT_MIST,NIGHT_MIST","Cross-shore,Cross-shore,Cross-shore,Onshore,Onshore",5
5842041f4e65fad6a7708a60,2024_03_08,31.9812255780179,-80.84773973467009,South Tybee Sandbars,2.2,0.342,0.646,15,15,"NIGHT_MIST,NIGHT_MIST,NIGHT_MIST,NIGHT_MIST,NIGHT_MIST","Onshore,Cross-shore,Onshore,Onshore,Onshore",5
5842041f4e65fad6a7708a61,2024_03_08,32.01226,-80.83983,Sugar Shack,2,0.274,0.58,15,15,"NIGHT_MIST,NIGHT_MIST,NIGHT_MIST,NIGHT_MIST,NIGHT_MIST","Onshore,Onshore,Onshore,Onshore,Onshore",5
5842041f4e65fad6a7708a62,2024_03_08,31.98722842396969,-80.84773,18th St. Jetty,2,0.473584,0.739972,15,15,"NIGHT_MIST,NIGHT_MIST,NIGHT_MIST,NIGHT_MIST,NIGHT_MIST","Onshore,Onshore,Onshore,Onshore,Onshore",5
5842041f4e65fad6a7708a64,2024_03_08,34.013473721006676,-77.8991,"Alabama Ave., Kure Beach",1.6,0.478,0.782,14,14,"NIGHT_CLEAR,NIGHT_CLEAR,NIGHT_CLEAR,NIGHT_CLEAR,NIGHT_CLEAR","Cross-shore,Onshore,Onshore,Onshore,Onshore",5
5842041f4e65fad6a7708a65,2024_03_08,34.20859853336924,-77.79293,"C Street, Wrightsville Beach",0.966,0.5456,0.8758,14,13,"NIGHT_CLEAR,NIGHT_CLEAR,NIGHT_CLEAR,NIGHT_CLEAR,NIGHT_CLEAR","Onshore,Cross-shore,Cross-shore,Cross-shore,Cross-shore",5
5842041f4e65fad6a7708a66,2024_03_08,32.831,-79.71,Dewees Island,1.8,0.334,0.638,14,14,"NIGHT_MIST,NIGHT_MIST,NIGHT_MIST,NIGHT_MIST,NIGHT_OVERCAST","Onshore,Cross-shore,Onshore,Cross-shore,Cross-shore",5
5842041f4e65fad6a7708a67,2024_03_08,33.82924423172106,-78.62813,Cherry Grove Pier,1.2,0.222,0.528,14,14,"NIGHT_CLEAR,NIGHT_CLEAR,NIGHT_CLEAR,NIGHT_MIST,NIGHT_MIST","Cross-shore,Cross-shore,Cross-shore,Cross-shore,Cross-shore",5
5842041f4e65fad6a7708a69,2024_03_08,34.27197439666496,-77.74050223196774,Figure Eight and Shell Islands,1.3,0.6832666666666667,1.0078,14,13,"NIGHT_CLEAR,NIGHT_CLEAR,NIGHT_CLEAR,NIGHT_CLEAR,NIGHT_CLEAR","Cross-shore,Cross-shore,Cross-shore,Cross-shore,Cross-shore",5
5842041f4e65fad6a7708a6b,2024_03_08,33.49041958261793,-79.07666070599386,North End,1.6,0.31,0.614,14,14,"NIGHT_MOSTLY_CLEAR,NIGHT_MOSTLY_CLOUDY,NIGHT_CLEAR,NIGHT_MIST,NIGHT_CLEAR","Cross-shore,Cross-shore,Cross-shore,Cross-shore,Cross-shore",5
5842041f4e65fad6a7708a6c,2024_03_08,33.39537062495087,-79.13835037835189,The South End,1.6,0.27,0.576,15,15,"NIGHT_MOSTLY_CLOUDY,NIGHT_MIST,NIGHT_CLEAR,NIGHT_MIST,NIGHT_MIST","Onshore,Onshore,Onshore,Cross-shore,Onshore",5
5842041f4e65fad6a7708a6d,2024_03_08,33.29001727666697,-79.17190003352977,North Island,1.8,0.426,0.73,15,15,"NIGHT_MOSTLY_CLOUDY,NIGHT_MOSTLY_CLEAR,NIGHT_CLEAR,NIGHT_MIST,NIGHT_MOSTLY_CLOUDY","Onshore,Onshore,Onshore,Onshore,Onshore",5
5842041f4e65fad6a7708a6e,2024_03_08,32.90929771158952,-79.57810400297359,Bull Island,1.6,0.332,0.64,14,14,"NIGHT_CLEAR,NIGHT_MOSTLY_CLOUDY,NIGHT_MOSTLY_CLOUDY,NIGHT_MOSTLY_CLOUDY,NIGHT_OVERCAST","Onshore,Onshore,Onshore,Cross-shore,Cross-shore",5
5842041f4e65fad6a7708a6f,2024_03_08,31.99153112815895,-80.84543050470074,Tybee Island Pier,1.6,0.034,0.336,15,15,"NIGHT_MIST,NIGHT_MIST,NIGHT_MIST,NIGHT_MIST,NIGHT_MIST","Onshore,Cross-shore,Onshore,Onshore,Onshore",5
5842041f4e65fad6a7708a70,2024_03_08,33.03478144356316,-79.35021028265125,Cape Romain,1.6,0.488,0.79,15,15,"NIGHT_MOSTLY_CLOUDY,NIGHT_MOSTLY_CLOUDY,NIGHT_MIST,NIGHT_MOSTLY_CLEAR,NIGHT_MOSTLY_CLOUDY","Onshore,Onshore,Onshore,Onshore,Onshore",5
5842041f4e65fad6a7708a71,2024_03_08,33.43231073271028,-79.11789,The Pier,1.4,0.359276,0.56137,15,15,"NIGHT_MIST,NIGHT_MIST,NIGHT_MIST,NIGHT_MIST,NIGHT_MIST","Onshore,Onshore,Onshore,Onshore,Onshore",5
5842041f4e65fad6a7708a72,2024_03_08,33.45423621397969,-79.10497798178424,South Litchfield,1.8,0.332,0.634,15,15,"NIGHT_MOSTLY_CLOUDY,NIGHT_CLEAR,NIGHT_CLEAR,NIGHT_MIST,NIGHT_MIST","Onshore,Onshore,Onshore,Onshore,Onshore",5
5842041f4e65fad6a7708a73,2024_03_08,34.19316590251396,-77.8045,Crystal Pier,1,0.3486,0.6811333333333333,14,13,"NIGHT_CLEAR,NIGHT_CLEAR,NIGHT_CLEAR,NIGHT_CLEAR,NIGHT_CLEAR","Onshore,Cross-shore,Onshore,Cross-shore,Onshore",5
5842041f4e65fad6a7708a74,2024_03_08,33.68628680045124,-78.883460274301,Myrtle Beach,1.6,0.312,0.618,14,14,"NIGHT_MIST,NIGHT_MIST,NIGHT_OVERCAST,NIGHT_MIST,NIGHT_CLOUDY","Cross-shore,Cross-shore,Cross-shore,Cross-shore,Cross-shore",5
5842041f4e65fad6a7708a75,2024_03_08,32.66166297145973,-79.91951806398808,10th Street,2.6,0.422,0.728,15,15,"NIGHT_MIST,NIGHT_MIST,NIGHT_MIST,NIGHT_MIST,NIGHT_MIST","Cross-shore,Cross-shore,Onshore,Cross-shore,Cross-shore",5
5842041f4e65fad6a7708a76,2024_03_08,33.16729555197199,-79.19829236867845,South Island,1.4,0.452,0.756,15,15,"NIGHT_CLEAR,NIGHT_CLEAR,NIGHT_MOSTLY_CLOUDY,NIGHT_CLEAR,NIGHT_CLEAR","Onshore,Onshore,Onshore,Onshore,Onshore",5
5842041f4e65fad6a7708a77,2024_03_08,32.595,-80.088,Kiawah Island/Seabrook Island,2.4,0.316,0.622,15,15,"NIGHT_MIST,NIGHT_MIST,NIGHT_MIST,NIGHT_CLEAR,NIGHT_MIST","Offshore,Offshore,Offshore,Offshore,Offshore",5
5842041f4e65fad6a7708a78,2024_03_08,32.51356930575787,-80.28223,Edisto Beach,2,0.43968999999999997,0.687018,15,15,"NIGHT_MIST,NIGHT_MIST,NIGHT_MIST,NIGHT_MIST,NIGHT_MIST","Cross-shore,Cross-shore,Cross-shore,Cross-shore,Cross-shore",5
5842041f4e65fad6a7708a79,2024_03_08,32.366270751262,-80.43911,Hunting Island,2.4,0.44527,0.695736,15,15,"NIGHT_MIST,NIGHT_MIST,NIGHT_MIST,NIGHT_MIST,NIGHT_MIST","Onshore,Onshore,Onshore,Onshore,Onshore",5
5842041f4e65fad6a7708a7a,2024_03_08,32.65337734408365,-79.93983,Folly Beach Pier,1.9,0.322,0.622,16,14,"NIGHT_CLEAR,NIGHT_CLEAR,NIGHT_MOSTLY_CLEAR,NIGHT_CLEAR,NIGHT_MIST","Offshore,Cross-shore,Cross-shore,Offshore,Offshore",5
5842041f4e65fad6a7708a7b,2024_03_08,33.41209545530049,-79.13026341393126,South Jetty,1.6,0.27,0.576,15,15,"NIGHT_MOSTLY_CLOUDY,NIGHT_MOSTLY_CLEAR,NIGHT_CLEAR,NIGHT_MIST,NIGHT_MOSTLY_CLOUDY","Onshore,Onshore,Onshore,Onshore,Onshore",5
5842041f4e65fad6a7708a7c,2024_03_08,32.31115640606869,-80.48564,Fripp Island,2,0.45262600000000003,0.707228,15,15,"NIGHT_MIST,NIGHT_MIST,NIGHT_MIST,NIGHT_MIST,NIGHT_MIST","Offshore,Offshore,Offshore,Cross-shore,Cross-shore",5
5842041f4e65fad6a7708a7d,2024_03_08,32.14365226036034,-80.74402,Hilton Head Island,1,0,0.192,15,15,"NIGHT_MOSTLY_CLOUDY,NIGHT_OVERCAST,NIGHT_CLEAR,NIGHT_CLEAR,NIGHT_CLEAR","Cross-shore,Cross-shore,Cross-shore,Onshore,Onshore",5
5842041f4e65fad6a7708a7e,2024_03_08,29.70405364733744,-81.22426004725459,Matanzas Inlet,2,0.28,0.59,17,17,"NIGHT_MIST,NIGHT_MIST,NIGHT_MIST,NIGHT_FOG,NIGHT_FOG","Cross-shore,Onshore,Onshore,Onshore,Onshore",5
5842041f4e65fad6a7708a81,2024_03_08,29.76878537149042,-81.25109,Crescent Beach,2,0.33,0.632,17,17,"NIGHT_MOSTLY_CLOUDY,NIGHT_CLEAR,NIGHT_CLEAR,NIGHT_FOG,NIGHT_FOG","Cross-shore,Onshore,Onshore,Onshore,Onshore",5
5842041f4e65fad6a7708a82,2024_03_08,32.80251718689188,-79.73221919500764,Wild Dunes,1.8,0.448,0.752,14,14,"NIGHT_CLEAR,NIGHT_MOSTLY_CLEAR,NIGHT_MOSTLY_CLOUDY,NIGHT_MIST,NIGHT_CLOUDY","Cross-shore,Cross-shore,Cross-shore,Cross-shore,Cross-shore",5
5842041f4e65fad6a7708a84,2024_03_08,32.75733539419244,-79.83258856064796,Bert's Bar,1.8,0.152,0.456,14,14,"NIGHT_MIST,NIGHT_MIST,NIGHT_MOSTLY_CLOUDY,NIGHT_MOSTLY_CLOUDY,NIGHT_MIST","Cross-shore,Cross-shore,Cross-shore,Cross-shore,Cross-shore",5
5842041f4e65fad6a7708a85,2024_03_08,32.66829212943039,-79.90735,Washout,1.934,0.368,0.676,16,14,"NIGHT_CLEAR,NIGHT_CLEAR,NIGHT_MOSTLY_CLOUDY,NIGHT_CLEAR,NIGHT_MOSTLY_CLOUDY","Cross-shore,Cross-shore,Cross-shore,Cross-shore,Cross-shore",5
5842041f4e65fad6a7708a86,2024_03_08,32.78452968219067,-79.78540233488354,The Pier/Windjammer,2.4,0.452,0.76,14,14,"NIGHT_MIST,NIGHT_MIST,NIGHT_MIST,NIGHT_MIST,NIGHT_MIST","Cross-shore,Cross-shore,Cross-shore,Cross-shore,Cross-shore",5
5842041f4e65fad6a7708a87,2024_03_08,29.86618162637438,-81.2662150259608,Anastasia Park (The Entrance),2,0.244,0.55,17,17,"NIGHT_CLEAR,NIGHT_CLEAR,NIGHT_MOSTLY_CLOUDY,NIGHT_MIST,NIGHT_MIST","Cross-shore,Onshore,Onshore,Onshore,Onshore",5
5842041f4e65fad6a7708a89,2024_03_08,29.89149785916623,-81.2723223244215,Blowholes,2,0.30908,0.6189933333333333,23,21,"NIGHT_MIST,NIGHT_MIST,NIGHT_MIST,NIGHT_MIST,NIGHT_MIST","Cross-shore,Onshore,Onshore,Onshore,Onshore",5
5842041f4e65fad6a7708a8a,2024_03_08,30.16227112983666,-81.35502907491218,Crossroads,2,0.40758,0.7074933333333333,23,21,"NIGHT_MIST,NIGHT_MIST,NIGHT_BRIEF_SHOWERS_POSSIBLE,NIGHT_MIST,NIGHT_MIST","Cross-shore,Cross-shore,Cross-shore,Onshore,Onshore",5
5842041f4e65fad6a7708a8b,2024_03_08,30.19308537587637,-81.36314247820911,Sawgrass,2,0.43674666666666667,0.74666,23,21,"NIGHT_CLEAR,NIGHT_CLEAR,NIGHT_CLEAR,NIGHT_MIST,NIGHT_DRIZZLE","Cross-shore,Cross-shore,Cross-shore,Onshore,Onshore",5
5842041f4e65fad6a7708a8c,2024_03_08,30.34696027700899,-81.39451,18th Street,1.8,0.587918,0.918624,17,17,"NIGHT_MIST,NIGHT_MIST,NIGHT_MIST,NIGHT_MIST,NIGHT_CLEAR","Onshore,Cross-shore,Onshore,Onshore,Onshore",5
5842041f4e65fad6a7708a8d,2024_03_08,30.381793,-81.39686,Mayport Poles,1.8,0.5,0.806,17,17,"NIGHT_MIST,NIGHT_MIST,NIGHT_MOSTLY_CLOUDY,NIGHT_MIST,NIGHT_MOSTLY_CLOUDY","Cross-shore,Cross-shore,Cross-shore,Onshore,Onshore",5
5842041f4e65fad6a7708a8e,2024_03_08,30.390516,-81.395591,Blue Roofs,2,0.464,0.774,17,17,"NIGHT_MIST,NIGHT_MIST,NIGHT_MIST,NIGHT_MIST,NIGHT_MOSTLY_CLOUDY","Cross-shore,Cross-shore,Onshore,Onshore,Onshore",5
5842041f4e65fad6a7708a8f,2024_03_08,30.40517712722211,-81.40074116169004,Huguenot Park (North Jetty),2,0.408,0.712,17,17,"NIGHT_MIST,NIGHT_MIST,NIGHT_MOSTLY_CLOUDY,NIGHT_MIST,NIGHT_MOSTLY_CLOUDY","Onshore,Onshore,Onshore,Onshore,Onshore",5
5842041f4e65fad6a7708a90,2024_03_08,30.47788918872762,-81.41055821335078,Talbot Island,1.834,0.6021643333333333,0.9081148333333333,17,16,"NIGHT_CLEAR,NIGHT_CLEAR,NIGHT_MOSTLY_CLOUDY,NIGHT_MIST,NIGHT_MOSTLY_CLOUDY","Cross-shore,Cross-shore,Onshore,Onshore,Onshore",5
5842041f4e65fad6a7708a91,2024_03_08,30.66753984549761,-81.42983,Main Beach,1.4,0.506,0.81,17,17,"NIGHT_MIST,NIGHT_MIST,NIGHT_MIST,NIGHT_MOSTLY_CLOUDY,NIGHT_MOSTLY_CLOUDY","Cross-shore,Cross-shore,Cross-shore,Onshore,Cross-shore",5
5842041f4e65fad6a7708a92,2024_03_08,30.69983581209126,-81.42483,Ft. Clinch State Park,1.4,0.688,0.996,17,17,"NIGHT_MIST,NIGHT_MIST,NIGHT_MIST,NIGHT_CLEAR,NIGHT_MOSTLY_CLOUDY","Onshore,Onshore,Cross-shore,Onshore,Onshore",5
5842041f4e65fad6a7708a93,2024_03_08,30.62059700777582,-81.437252942757425,Amelia Pier,1.6,0.418,0.726,17,17,"NIGHT_MOSTLY_CLOUDY,NIGHT_MOSTLY_CLOUDY,NIGHT_OVERCAST,NIGHT_MOSTLY_CLOUDY,NIGHT_CLEAR","Cross-shore,Onshore,Cross-shore,Onshore,Onshore",5
5842041f4e65fad6a7708a95,2024_03_08,28.95125170929067,-80.83837,Bethune Beach,1.6,0.456,0.758,18,18,"NIGHT_CLEAR,NIGHT_MOSTLY_CLEAR,NIGHT_MIST,NIGHT_DRIZZLE,NIGHT_BRIEF_SHOWERS","Onshore,Onshore,Onshore,Onshore,Onshore",5
5842041f4e65fad6a7708a96,2024_03_08,29.03874288905362,-80.8933424949646,Flagler Ave.,1.6,0.3,0.608,23,22,"NIGHT_CLEAR,NIGHT_MOSTLY_CLEAR,NIGHT_MOSTLY_CLOUDY,NIGHT_CLOUDY,NIGHT_BRIEF_SHOWERS","Onshore,Onshore,Onshore,Onshore,Onshore",5
5842041f4e65fad6a7708a98,2024_03_08,30.332297686992757,-81.39319,Atlantic Beach,1.8,0.561626,0.87754,17,17,"NIGHT_MIST,NIGHT_MIST,NIGHT_MIST,NIGHT_MIST,NIGHT_CLEAR","Onshore,Cross-shore,Cross-shore,Onshore,Onshore",5
5842041f4e65fad6a7708a99,2024_03_08,29.87530059952514,-81.26757958498874,Middles,2,0.25008,0.5601600000000001,23,21,"NIGHT_MIST,NIGHT_MIST,NIGHT_MIST,NIGHT_MIST,NIGHT_MIST","Cross-shore,Onshore,Onshore,Onshore,Onshore",5
5842041f4e65fad6a7708a9a,2024_03_08,29.146475528378218,-80.96347,Sunglow Pier,2,0.4,0.702,18,18,"NIGHT_MIST,NIGHT_MIST,NIGHT_MIST,NIGHT_CLOUDY,NIGHT_CLOUDY","Onshore,Onshore,Onshore,Onshore,Onshore",5
5842041f4e65fad6a7708a9b,2024_03_08,30.02251238001095,-81.32183077344881,Gate Station,2,0.2994133333333333,0.6094933333333333,23,21,"NIGHT_CLEAR,NIGHT_CLEAR,NIGHT_CLEAR,NIGHT_FOG,NIGHT_FOG","Cross-shore,Cross-shore,Onshore,Onshore,Onshore",5
5842041f4e65fad6a7708a9c,2024_03_08,29.33976495417899,-81.0606,Bicentennial Park,2,0.34,0.648,17,17,"NIGHT_MIST,NIGHT_LIGHT_RAIN,NIGHT_SHOWERS,NIGHT_MIST,NIGHT_CLOUDY","Onshore,Onshore,Onshore,Onshore,Onshore",5
5842041f4e65fad6a7708a9d,2024_03_08,29.08257353385602,-80.92136998257725,Ponce Inlet,2.4,0.5942666666666666,0.9264666666666667,19,17,"NIGHT_MOSTLY_CLEAR,NIGHT_CLEAR,NIGHT_MOSTLY_CLOUDY,NIGHT_OVERCAST,NIGHT_BRIEF_SHOWERS","Onshore,Onshore,Onshore,Onshore,Onshore",5
5842041f4e65fad6a7708a9f,2024_03_08,27.862962005874696,-80.44668,Sebastian Inlet,2,0.6086448333333334,0.9380648333333333,21,21,"NIGHT_MIST,NIGHT_MIST,NIGHT_MIST,NIGHT_MIST,NIGHT_MIST","Onshore,Onshore,Onshore,Onshore,Onshore",5
5842041f4e65fad6a7708aa0,2024_03_08,30.292626880836885,-81.38579,Jacksonville Beach Pier,1.9,0.5981,0.9049,17,16,"NIGHT_MIST,NIGHT_MIST,NIGHT_MIST,NIGHT_MIST,NIGHT_MOSTLY_CLOUDY","Onshore,Onshore,Onshore,Onshore,Onshore",5
5842041f4e65fad6a7708aa1,2024_03_08,29.22878213864532,-81.00551,Main Street North,2,0.521134,0.69124,18,18,"NIGHT_FOG,NIGHT_FOG,NIGHT_MOSTLY_CLOUDY,NIGHT_FOG,NIGHT_OVERCAST","Onshore,Onshore,Onshore,Onshore,Onshore",5
5842041f4e65fad6a7708aa2,2024_03_08,29.21860397328164,-81.0019,Daytona Beach,2,0.374,0.68,18,18,"NIGHT_FOG,NIGHT_FOG,NIGHT_MOSTLY_CLOUDY,NIGHT_FOG,NIGHT_OVERCAST","Onshore,Onshore,Onshore,Onshore,Onshore",5
5842041f4e65fad6a7708aa3,2024_03_08,27.47531255634912,-80.28914,Ft. Pierce Inlet,2,0.6034333333333334,0.9381333333333333,23,22,"NIGHT_CLEAR,NIGHT_CLEAR,NIGHT_CLEAR,NIGHT_OVERCAST,NIGHT_MIST","Onshore,Onshore,Onshore,Cross-shore,Offshore",5
5842041f4e65fad6a7708aa4,2024_03_08,29.29239875585548,-81.0386,Ormond Beach,2,0.47,0.78,17,17,"NIGHT_MOSTLY_CLOUDY,NIGHT_HEAVY_SHOWERS,NIGHT_BRIEF_SHOWERS,NIGHT_FOG,NIGHT_DRIZZLE","Onshore,Onshore,Onshore,Onshore,Onshore",5
5842041f4e65fad6a7708aa5,2024_03_08,29.91629441498523,-81.28801,Vilano,1.6,0.29,0.594,17,17,"NIGHT_MIST,NIGHT_MIST,NIGHT_MIST,NIGHT_MIST,NIGHT_MIST","Cross-shore,Cross-shore,Onshore,Onshore,Onshore",5
5842041f4e65fad6a7708aa6,2024_03_08,27.876230736320828,-80.4551,Spanish House,3,0.83,1.134,21,20,"NIGHT_MIST,NIGHT_MIST,NIGHT_MIST,NIGHT_MIST,NIGHT_MIST","Onshore,Onshore,Onshore,Onshore,Onshore",5
5842041f4e65fad6a7708aa7,2024_03_08,28.64397251741012,-80.62328519781694,Playalinda,3,0.62,0.926,19,19,"NIGHT_MOSTLY_CLOUDY,NIGHT_MOSTLY_CLEAR,NIGHT_MIST,NIGHT_FOG,NIGHT_MOSTLY_CLOUDY","Onshore,Onshore,Onshore,Onshore,Onshore",5
5842041f4e65fad6a7708aa8,2024_03_08,28.406142,-80.588858,Jetty Park,2,0.286,0.59,19,19,"NIGHT_MOSTLY_CLOUDY,NIGHT_CLEAR,NIGHT_CLEAR,NIGHT_CLEAR,NIGHT_MIST","Onshore,Onshore,Cross-shore,Onshore,Cross-shore",5
5842041f4e65fad6a7708aa9,2024_03_08,28.49083243010974,-80.58001715986319,Kennedy Space Center,2,0.586,0.892,19,19,"NIGHT_CLEAR,NIGHT_CLEAR,NIGHT_MIST,NIGHT_BRIEF_SHOWERS,NIGHT_MIST","Onshore,Onshore,Onshore,Onshore,Onshore",5
5842041f4e65fad6a7708aab,2024_03_08,28.336757013024314,-80.60568,Lori Wilson Park,3,0.74,1.04,21,20,"NIGHT_CLEAR,NIGHT_MIST,NIGHT_MIST,NIGHT_MIST,NIGHT_MIST","Onshore,Onshore,Onshore,Onshore,Onshore",5
5842041f4e65fad6a7708aad,2024_03_08,27.76388821683801,-80.3962958234027,Wabasso,3,0.69,1,22,22,"NIGHT_MIST,NIGHT_MIST,NIGHT_FOG,NIGHT_OVERCAST,NIGHT_OVERCAST","Onshore,Onshore,Cross-shore,Cross-shore,Onshore",5
5842041f4e65fad6a7708aae,2024_03_08,27.521583322459,-80.30987620353699,P.V. Martin's,3,0.534,0.838,22,21,"NIGHT_CLEAR,NIGHT_CLEAR,NIGHT_MOSTLY_CLOUDY,NIGHT_MIST,NIGHT_OVERCAST","Offshore,Cross-shore,Cross-shore,Cross-shore,Cross-shore",5
5842041f4e65fad6a7708aaf,2024_03_08,27.644996047720046,-80.35242676734924,Riomar,2,0.536,0.838,22,21,"NIGHT_CLEAR,NIGHT_CLEAR,NIGHT_OVERCAST,NIGHT_OVERCAST,NIGHT_MIST","Onshore,Onshore,Cross-shore,Cross-shore,Cross-shore",5
5842041f4e65fad6a7708ab1,2024_03_08,27.670121806659253,-80.36026954650879,Vero Pier,3,0.93,1.234,22,21,"NIGHT_MIST,NIGHT_MIST,NIGHT_MIST,NIGHT_OVERCAST,NIGHT_OVERCAST","Cross-shore,Onshore,Onshore,Cross-shore,Cross-shore",5
5842041f4e65fad6a7708ab2,2024_03_08,28.047705032021486,-80.54680109024048,Spessard Holland,2,0.5994495000000001,0.9332141666666667,21,20,"NIGHT_MIST,NIGHT_BRIEF_SHOWERS,NIGHT_MIST,NIGHT_DRIZZLE,NIGHT_MIST","Cross-shore,Cross-shore,Onshore,Onshore,Onshore",5
5842041f4e65fad6a7708ab7,2024_03_08,28.135426226217064,-80.57895541191101,The Radisson,3,0.876,1.064,21,20,"NIGHT_MIST,NIGHT_MIST,NIGHT_MIST,NIGHT_MIST,NIGHT_DRIZZLE","Onshore,Cross-shore,Cross-shore,Onshore,Onshore",5
5842041f4e65fad6a7708ab8,2024_03_08,28.26664623907351,-80.60448467731476,Picnic Tables,3,0.85,1.154,20,20,"NIGHT_CLEAR,NIGHT_MOSTLY_CLEAR,NIGHT_FOG,NIGHT_MOSTLY_CLOUDY,NIGHT_MOSTLY_CLOUDY","Onshore,Onshore,Onshore,Onshore,Onshore",5
5842041f4e65fad6a7708ab9,2024_03_08,28.200840983180232,-80.59493,Perkins,3,1.2,1.3719999999999999,21,20,"NIGHT_MOSTLY_CLEAR,NIGHT_MOSTLY_CLEAR,NIGHT_MOSTLY_CLEAR,NIGHT_MOSTLY_CLOUDY,NIGHT_MOSTLY_CLOUDY","Onshore,Onshore,Onshore,Onshore,Onshore",5
5842041f4e65fad6a7708aba,2024_03_08,28.185652556759443,-80.59154,RC's,2.432,0.6509,1.0852,21,20,"NIGHT_MOSTLY_CLEAR,NIGHT_MOSTLY_CLEAR,NIGHT_MOSTLY_CLOUDY,NIGHT_MIST,NIGHT_FOG","Cross-shore,Onshore,Cross-shore,Cross-shore,Cross-shore",5
5842041f4e65fad6a7708abc,2024_03_08,28.252541991968208,-80.60269,2nd Light,3,0.824,1.13,20,20,"NIGHT_CLEAR,NIGHT_MOSTLY_CLEAR,NIGHT_MOSTLY_CLEAR,NIGHT_MOSTLY_CLOUDY,NIGHT_MOSTLY_CLOUDY","Onshore,Onshore,Onshore,Onshore,Onshore",5
5842041f4e65fad6a7708abd,2024_03_08,27.901611308716447,-80.4697,Bonsteel Park,3,0.696,1.002,21,20,"NIGHT_MIST,NIGHT_MIST,NIGHT_MIST,NIGHT_MIST,NIGHT_MIST","Onshore,Onshore,Onshore,Onshore,Onshore",5
5842041f4e65fad6a7708abe,2024_03_08,28.2423394657007,-80.60104,Hangar's Beach,3,1.06,1.13,21,20,"NIGHT_MIST,NIGHT_MOSTLY_CLEAR,NIGHT_MOSTLY_CLOUDY,NIGHT_MIST,NIGHT_MOSTLY_CLOUDY","Onshore,Onshore,Onshore,Onshore,Onshore",5
5842041f4e65fad6a7708abf,2024_03_08,27.34018197146798,-80.23278,Walton Rocks,2,0.606,0.912,23,22,"NIGHT_MOSTLY_CLOUDY,NIGHT_MIST,NIGHT_MIST,NIGHT_MOSTLY_CLOUDY,NIGHT_MOSTLY_CLOUDY","Offshore,Cross-shore,Cross-shore,Offshore,Offshore",5
5842041f4e65fad6a7708ac0,2024_03_08,25.80407401902198,-80.1222227290161,30th Street,1,0,0.254,25,25,"NIGHT_CLEAR,NIGHT_CLEAR,NIGHT_CLEAR,NIGHT_MOSTLY_CLOUDY,NIGHT_MOSTLY_CLOUDY","Offshore,Offshore,Offshore,Cross-shore,Offshore",5
5842041f4e65fad6a7708ac1,2024_03_08,25.76570280215999,-80.12983304957051,South Beach,0,0,0.15506666666666669,25,23,"NIGHT_CLEAR,NIGHT_CLEAR,NIGHT_CLEAR,NIGHT_MOSTLY_CLOUDY,NIGHT_CLEAR","Offshore,Offshore,Offshore,Cross-shore,Offshore",5
5842041f4e65fad6a7708ac2,2024_03_08,26.058022412197,-80.10873562327671,Dania Pier,2,0.05,0.356,25,25,"NIGHT_MIST,NIGHT_MIST,NIGHT_MIST,NIGHT_MIST,NIGHT_MIST","Offshore,Offshore,Offshore,Offshore,Offshore",5
5842041f4e65fad6a7708ac3,2024_03_08,26.04825428257198,-80.11153150137932,Franklin Street,1,0,0.298,25,25,"NIGHT_MIST,NIGHT_MIST,NIGHT_MIST,NIGHT_MIST,NIGHT_MIST","Offshore,Offshore,Offshore,Cross-shore,Offshore",5
5842041f4e65fad6a7708ac4,2024_03_08,26.09086461141498,-80.10728410144065,John Lloyd State Park,1,0,0.29,25,25,"NIGHT_MIST,NIGHT_MIST,NIGHT_MIST,NIGHT_MIST,NIGHT_MIST","Offshore,Offshore,Offshore,Cross-shore,Offshore",5
5842041f4e65fad6a7708ac5,2024_03_08,26.0971397396683,-80.10298876028907,Spoils,1,0.044000000000000004,0.35,25,25,"NIGHT_CLEAR,NIGHT_CLEAR,NIGHT_MIST,NIGHT_MIST,NIGHT_MIST","Cross-shore,Offshore,Offshore,Cross-shore,Offshore",5
5842041f4e65fad6a7708ac6,2024_03_08,26.18920557475824,-80.09224470008016,Commercial Pier,2,0.118,0.42,25,25,"NIGHT_CLEAR,NIGHT_CLEAR,NIGHT_MIST,NIGHT_MIST,NIGHT_MIST","Cross-shore,Offshore,Offshore,Cross-shore,Offshore",5
5842041f4e65fad6a7708ac7,2024_03_08,28.289851576629342,-80.6063,16th St. South,3,0.546,0.848,21,20,"NIGHT_CLEAR,NIGHT_MIST,NIGHT_MOSTLY_CLEAR,NIGHT_MOSTLY_CLOUDY,NIGHT_MOSTLY_CLOUDY","Onshore,Onshore,Onshore,Onshore,Onshore",5
5842041f4e65fad6a7708ac8,2024_03_08,26.23467460139735,-80.08739675534814,Pompano Pier,1,0,0.162,25,23,"NIGHT_CLEAR,NIGHT_CLEAR,NIGHT_MIST,NIGHT_MIST,NIGHT_MIST","Cross-shore,Offshore,Offshore,Cross-shore,Offshore",5
5842041f4e65fad6a7708acb,2024_03_08,26.44179551370651,-80.05928855229453,Atlantic Dunes Park,0,-0.0029519999999999937,0.15068533333333337,25,23,"NIGHT_MIST,NIGHT_MIST,NIGHT_MIST,NIGHT_MIST,NIGHT_MIST","Offshore,Offshore,Offshore,Cross-shore,Offshore",5
5842041f4e65fad6a7708acd,2024_03_08,26.62215707439298,-80.03599398392342,Hilton Hotel Backyard,2,0.216,0.52,24,23,"NIGHT_MIST,NIGHT_MIST,NIGHT_MIST,NIGHT_MIST,NIGHT_MIST","Cross-shore,Offshore,Offshore,Offshore,Offshore",5
5842041f4e65fad6a7708ace,2024_03_08,26.96418190555367,-80.07769168113562,Coral Cove Park,3,0.434,0.74,24,23,"NIGHT_MIST,NIGHT_MIST,NIGHT_MIST,NIGHT_MOSTLY_CLOUDY,NIGHT_MOSTLY_CLOUDY","Offshore,Offshore,Offshore,Offshore,Offshore",5
5842041f4e65fad6a7708acf,2024_03_08,26.7029496416037,-80.0318372872607,Palm Beach,2,0.242,0.548,24,23,"NIGHT_MIST,NIGHT_MIST,NIGHT_MIST,NIGHT_MIST,NIGHT_MIST","Offshore,Offshore,Offshore,Offshore,Offshore",5
5842041f4e65fad6a7708ad0,2024_03_08,26.97679878167375,-80.08141631388132,Blowing Rocks,2,0.28200000000000003,0.586,24,23,"NIGHT_CLEAR,NIGHT_MIST,NIGHT_MIST,NIGHT_CLEAR,NIGHT_MOSTLY_CLOUDY","Offshore,Offshore,Offshore,Offshore,Offshore",5
5842041f4e65fad6a7708ad2,2024_03_08,26.45661880078336,-80.05699952321751,Delray Beach,0,-0.005000000000000001,0.15006666666666668,25,23,"NIGHT_MIST,NIGHT_MIST,NIGHT_FOG,NIGHT_MIST,NIGHT_MIST","Onshore,Offshore,Offshore,Offshore,Offshore",5
5842041f4e65fad6a7708ad3,2024_03_08,27.205685534312778,-80.16826629638672,Fletcher's,3,0.49,0.796,24,23,"NIGHT_MIST,NIGHT_MIST,NIGHT_MIST,NIGHT_OVERCAST,NIGHT_MOSTLY_CLOUDY","Onshore,Cross-shore,Cross-shore,Onshore,Offshore",5
5842041f4e65fad6a7708ad5,2024_03_08,26.5848450388814,-80.03649735753257,Lantana Public Beach,2,0.256,0.562,24,23,"NIGHT_CLEAR,NIGHT_CLEAR,NIGHT_MIST,NIGHT_MIST,NIGHT_MIST","Cross-shore,Offshore,Offshore,Offshore,Offshore",5
5842041f4e65fad6a7708ad6,2024_03_08,25.77468432731322,-80.12884045797499,5th Street,1,0,0.198,25,25,"NIGHT_CLEAR,NIGHT_CLEAR,NIGHT_CLEAR,NIGHT_CLEAR,NIGHT_CLEAR","Offshore,Offshore,Cross-shore,Cross-shore,Offshore",5
5842041f4e65fad6a7708ad7,2024_03_08,25.795157990715975,-80.12527585029602,21st Street,1,0,0.27,25,25,"NIGHT_CLEAR,NIGHT_CLEAR,NIGHT_CLEAR,NIGHT_CLEAR,NIGHT_CLEAR","Offshore,Offshore,Offshore,Cross-shore,Offshore",5
5842041f4e65fad6a7708ad8,2024_03_08,25.897806453088073,-80.1211827993393,Haulover Inlet (South Jetty),1.6,0.03,0.336,25,25,"NIGHT_MIST,NIGHT_MIST,NIGHT_MIST,NIGHT_CLEAR,NIGHT_MIST","Offshore,Offshore,Offshore,Cross-shore,Offshore",5
5842041f4e65fad6a7708ad9,2024_03_08,25.90147392328634,-80.12110769748688,Haulover Inlet (North Jetty),1,0,0.264,25,25,"NIGHT_MIST,NIGHT_MIST,NIGHT_MIST,NIGHT_CLEAR,NIGHT_MIST","Offshore,Offshore,Offshore,Cross-shore,Offshore",5
5842041f4e65fad6a7708ada,2024_03_08,25.87049374242476,-80.11828560342356,85th Street,1,0,0.29,25,25,"NIGHT_MIST,NIGHT_MIST,NIGHT_MIST,NIGHT_CLEAR,NIGHT_CLEAR","Offshore,Offshore,Offshore,Offshore,Offshore",5
5842041f4e65fad6a7708adb,2024_03_08,26.25486382031396,-80.0805,Hillsboro Inlet,2,0.385088,0.6017,28,26,"NIGHT_MIST,NIGHT_CLEAR,NIGHT_FOG,NIGHT_CLEAR,NIGHT_MIST","Cross-shore,Offshore,Cross-shore,Cross-shore,Offshore",5
5842041f4e65fad6a7708add,2024_03_08,26.29705672965111,-80.07612393274484,Hillsboro Beach,2,0.1,0.408,28,26,"NIGHT_CLEAR,NIGHT_CLEAR,NIGHT_FOG,NIGHT_MIST,NIGHT_MIST","Cross-shore,Offshore,Cross-shore,Cross-shore,Offshore",5
5842041f4e65fad6a7708ade,2024_03_08,26.36569956413266,-80.06717936869391,Red Reef Park,2,0.214,0.518,25,23,"NIGHT_MIST,NIGHT_CLEAR,NIGHT_MIST,NIGHT_MIST,NIGHT_MIST","Cross-shore,Offshore,Cross-shore,Cross-shore,Offshore",5
5842041f4e65fad6a7708adf,2024_03_08,26.54593873498907,-80.04104359585143,Boynton Beach Inlet (Northside),2,0.19,0.492,24,23,"NIGHT_MIST,NIGHT_MIST,NIGHT_MIST,NIGHT_MIST,NIGHT_MIST","Cross-shore,Offshore,Offshore,Offshore,Offshore",5
5842041f4e65fad6a7708ae0,2024_03_08,26.92746505629809,-80.06721138954163,Corners,0,-2.0333333333333314e-4,0.17520066666666667,24,23,"NIGHT_MIST,NIGHT_MIST,NIGHT_MIST,NIGHT_FOG,NIGHT_MIST","Offshore,Offshore,Offshore,Offshore,Offshore",5
5842041f4e65fad6a7708ae1,2024_03_08,26.76983179886943,-80.03413481937037,The Cove,2,0.26,0.5640000000000001,24,23,"NIGHT_MIST,NIGHT_MIST,NIGHT_MIST,NIGHT_FOG,NIGHT_MIST","Offshore,Offshore,Offshore,Offshore,Offshore",5
5842041f4e65fad6a7708ae3,2024_03_08,26.39224485175123,-80.0650461233983,Japanese Rock,2,0.13,0.436,25,23,"NIGHT_MIST,NIGHT_CLEAR,NIGHT_MIST,NIGHT_FOG,NIGHT_MIST","Cross-shore,Offshore,Offshore,Offshore,Offshore",5
5842041f4e65fad6a7708ae4,2024_03_08,29.94810928551321,-85.42545434612366,Mexico Beach,1,0,0.26,18,18,"NIGHT_CLEAR,NIGHT_CLEAR,NIGHT_CLEAR,NIGHT_CLEAR,NIGHT_CLEAR","Offshore,Offshore,Offshore,Offshore,Offshore",5
5842041f4e65fad6a7708ae5,2024_03_08,30.11752500931267,-85.7306039427457,Shell Island,2,0.024,0.328,19,19,"NIGHT_CLEAR,NIGHT_CLEAR,NIGHT_CLEAR,NIGHT_CLEAR,NIGHT_CLEAR","Cross-shore,Offshore,Offshore,Offshore,Offshore",5
5842041f4e65fad6a7708ae7,2024_03_08,29.94901514702268,-85.43042978529013,D.J.'s,1,0,0.26,18,18,"NIGHT_CLEAR,NIGHT_CLEAR,NIGHT_CLEAR,NIGHT_CLEAR,NIGHT_CLEAR","Cross-shore,Offshore,Offshore,Offshore,Offshore",5
5842041f4e65fad6a7708ae8,2024_03_08,30.12396111446713,-85.73636797034509,St. Andrew's Park,0.534,0.022,0.2078,19,18,"NIGHT_CLEAR,NIGHT_CLEAR,NIGHT_CLEAR,NIGHT_CLEAR,NIGHT_CLEAR","Offshore,Offshore,Offshore,Offshore,Offshore",5
5842041f4e65fad6a7708ae9,2024_03_08,30.16781531760227,-85.79604918824084,Spinnaker,0.534,0.0105,0.2033,19,18,"NIGHT_CLEAR,NIGHT_CLEAR,NIGHT_CLEAR,NIGHT_CLEAR,NIGHT_CLEAR","Cross-shore,Cross-shore,Cross-shore,Cross-shore,Cross-shore",5
5842041f4e65fad6a7708aea,2024_03_08,30.18877050526983,-85.83243530466363,Wood Pier,2,0.028,0.332,19,18,"NIGHT_MIST,NIGHT_MIST,NIGHT_CLEAR,NIGHT_MIST,NIGHT_CLEAR","Offshore,Offshore,Offshore,Offshore,Offshore",5
5842041f4e65fad6a7708aeb,2024_03_08,30.2676205895555,-85.9938578144113,Inlet Beach Pier,2,0.05,0.354,19,18,"NIGHT_CLEAR,NIGHT_CLEAR,NIGHT_CLEAR,NIGHT_CLEAR,NIGHT_CLEAR","Cross-shore,Offshore,Offshore,Offshore,Offshore",5
5842041f4e65fad6a7708aec,2024_03_08,30.31815542759119,-86.1383771867044,Bud and Alley's,1.8,0.05,0.356,19,18,"NIGHT_CLEAR,NIGHT_CLEAR,NIGHT_CLEAR,NIGHT_MIST,NIGHT_CLEAR","Cross-shore,Cross-shore,Cross-shore,Cross-shore,Cross-shore",5
5842041f4e65fad6a7708aed,2024_03_08,30.32686082481946,-86.16650590275447,Grayton Beach,1.8,0.064,0.368,19,18,"NIGHT_CLEAR,NIGHT_CLEAR,NIGHT_CLEAR,NIGHT_MIST,NIGHT_CLEAR","Cross-shore,Cross-shore,Offshore,Cross-shore,Cross-shore",5
5842041f4e65fad6a7708aee,2024_03_08,30.33661488976303,-86.20094370184573,Blue Mountain Beach,1.8,0.060000000000000005,0.366,19,18,"NIGHT_CLEAR,NIGHT_CLEAR,NIGHT_CLEAR,NIGHT_MIST,NIGHT_MIST","Cross-shore,Cross-shore,Cross-shore,Cross-shore,Cross-shore",5
5842041f4e65fad6a7708aef,2024_03_08,30.37677202831587,-86.38513326644897,Pompano Joe's,1,0.064,0.37,19,18,"NIGHT_MIST,NIGHT_MIST,NIGHT_MIST,NIGHT_MIST,NIGHT_MIST","Cross-shore,Cross-shore,Cross-shore,Cross-shore,Cross-shore",5
5842041f4e65fad6a7708af0,2024_03_08,30.37429731725911,-86.36686966905461,Seascape,1.4,0.064,0.368,19,18,"NIGHT_MIST,NIGHT_CLEAR,NIGHT_CLEAR,NIGHT_MIST,NIGHT_MIST","Cross-shore,Cross-shore,Cross-shore,Cross-shore,Cross-shore",5
5842041f4e65fad6a7708af1,2024_03_08,30.382815988547186,-86.45838975906372,The Back Porch,1,0.07,0.374,19,18,"NIGHT_MIST,NIGHT_MIST,NIGHT_MIST,NIGHT_MIST,NIGHT_MIST","Cross-shore,Cross-shore,Cross-shore,Cross-shore,Cross-shore",5
5842041f4e65fad6a7708af2,2024_03_08,30.21207176798612,-85.87989730830542,Panama City Pier,2,0.038,0.342,19,18,"NIGHT_MIST,NIGHT_MIST,NIGHT_MIST,NIGHT_CLEAR,NIGHT_CLEAR","Offshore,Offshore,Offshore,Offshore,Offshore",5
5842041f4e65fad6a7708af3,2024_03_08,30.37521499110326,-86.37169944119874,Whale's Tail,1.8,0.068,0.374,19,18,"NIGHT_MIST,NIGHT_CLEAR,NIGHT_CLEAR,NIGHT_MIST,NIGHT_MIST","Cross-shore,Cross-shore,Offshore,Cross-shore,Cross-shore",5
5842041f4e65fad6a7708af4,2024_03_08,30.38120596658251,-86.43045768307817,Old Crystal Pier,1,0.064,0.368,19,18,"NIGHT_CLEAR,NIGHT_CLEAR,NIGHT_CLEAR,NIGHT_MIST,NIGHT_CLEAR","Cross-shore,Cross-shore,Cross-shore,Cross-shore,Cross-shore",5
5842041f4e65fad6a7708af5,2024_03_08,30.38090573159031,-86.50654862060082,Jetty East,1.6,0.07200000000000001,0.374,19,18,"NIGHT_MIST,NIGHT_MIST,NIGHT_MIST,NIGHT_MIST,NIGHT_MIST","Cross-shore,Cross-shore,Cross-shore,Cross-shore,Cross-shore",5
5842041f4e65fad6a7708af6,2024_03_08,30.37584509640838,-86.50563273884252,HMO's,1,0.07200000000000001,0.374,19,18,"NIGHT_MIST,NIGHT_MIST,NIGHT_MIST,NIGHT_MIST,NIGHT_MIST","Cross-shore,Cross-shore,Cross-shore,Cross-shore,Cross-shore",5
5842041f4e65fad6a7708af7,2024_03_08,30.38124006131522,-86.50052254675529,Two By Fours,1,0.078,0.384,19,18,"NIGHT_MIST,NIGHT_MIST,NIGHT_MIST,NIGHT_MIST,NIGHT_MIST","Cross-shore,Cross-shore,Cross-shore,Cross-shore,Cross-shore",5
5842041f4e65fad6a7708af8,2024_03_08,30.38250751017554,-86.45775957227345,The Pumphouse,1.8,0.098,0.404,19,18,"NIGHT_MIST,NIGHT_MIST,NIGHT_MIST,NIGHT_MIST,NIGHT_MIST","Cross-shore,Cross-shore,Cross-shore,Cross-shore,Cross-shore",5
5842041f4e65fad6a7708af9,2024_03_08,30.38655981578935,-86.52475380603576,NCO Club,1.4,0.07400000000000001,0.382,19,18,"NIGHT_MIST,NIGHT_MIST,NIGHT_MIST,NIGHT_MIST,NIGHT_MIST","Cross-shore,Cross-shore,Cross-shore,Cross-shore,Cross-shore",5
5842041f4e65fad6a7708afa,2024_03_08,30.39024516541047,-86.59341,Okaloosa Pier,1.2,0.068,0.374,19,18,"NIGHT_MIST,NIGHT_MIST,NIGHT_MIST,NIGHT_MIST,NIGHT_MIST","Cross-shore,Cross-shore,Cross-shore,Cross-shore,Cross-shore",5
5842041f4e65fad6a7708afb,2024_03_08,30.39281125722673,-86.59766184693287,Dead Man's,1.4,0.07200000000000001,0.376,19,18,"NIGHT_MIST,NIGHT_MIST,NIGHT_MIST,NIGHT_MIST,NIGHT_MIST","Cross-shore,Cross-shore,Cross-shore,Cross-shore,Cross-shore",5
5842041f4e65fad6a7708afc,2024_03_08,30.32703176167034,-87.14196,Pensacola Pier,1,0.126,0.436,18,18,"NIGHT_CLEAR,NIGHT_CLEAR,NIGHT_CLEAR,NIGHT_MIST,NIGHT_MIST","Onshore,Cross-shore,Cross-shore,Cross-shore,Cross-shore",5
5842041f4e65fad6a7708afd,2024_03_08,30.37920054094992,-86.85583,Navarre Beach,1.8,0.28799,0.449982,19,18,"NIGHT_MIST,NIGHT_MIST,NIGHT_MIST,NIGHT_MIST,NIGHT_MIST","Cross-shore,Cross-shore,Cross-shore,Cross-shore,Cross-shore",5
5842041f4e65fad6a7708afe,2024_03_08,30.39491626029151,-86.61248004999744,Blue Horizon Motel,1.8,0.062,0.368,19,18,"NIGHT_MIST,NIGHT_MIST,NIGHT_MIST,NIGHT_MIST,NIGHT_MIST","Cross-shore,Cross-shore,Cross-shore,Cross-shore,Cross-shore",5
5842041f4e65fad6a7708aff,2024_03_08,30.29345899260828,-87.43546812169637,First Parking Lot,1,0.138,0.444,18,18,"NIGHT_CLEAR,NIGHT_CLEAR,NIGHT_CLEAR,NIGHT_MIST,NIGHT_MIST","Onshore,Onshore,Cross-shore,Cross-shore,Cross-shore",5
5842041f4e65fad6a7708b00,2024_03_08,30.29767401311303,-87.41361598257893,Johnsons Beach,1,0.14600000000000002,0.452,18,18,"NIGHT_CLEAR,NIGHT_CLEAR,NIGHT_MIST,NIGHT_OVERCAST,NIGHT_OVERCAST","Onshore,Onshore,Onshore,Cross-shore,Cross-shore",5
5842041f4e65fad6a7708b01,2024_03_08,30.29513397370759,-87.42642359089679,Sandy Key,1,0.14200000000000002,0.446,18,18,"NIGHT_CLEAR,NIGHT_CLEAR,NIGHT_MIST,NIGHT_MIST,NIGHT_MIST","Onshore,Onshore,Onshore,Cross-shore,Cross-shore",5
5842041f4e65fad6a7708b03,2024_03_08,30.377504907388026,-86.86444,Navarre Pier,1,0,0.28200000000000003,19,18,"NIGHT_MIST,NIGHT_MIST,NIGHT_MIST,NIGHT_MIST,NIGHT_MIST","Cross-shore,Onshore,Cross-shore,Cross-shore,Cross-shore",5
5842041f4e65fad6a7708b04,2024_03_08,30.31482647791307,-87.26163894669438,Pickens Point Dunes,1,0.136,0.438,18,18,"NIGHT_CLEAR,NIGHT_CLEAR,NIGHT_CLEAR,NIGHT_MIST,NIGHT_MIST","Onshore,Onshore,Cross-shore,Onshore,Cross-shore",5
5842041f4e65fad6a7708b05,2024_03_08,30.32632110836516,-87.16019503253068,Slabs,1,0.156,0.464,18,18,"NIGHT_CLEAR,NIGHT_CLEAR,NIGHT_CLEAR,NIGHT_MIST,NIGHT_MIST","Onshore,Onshore,Cross-shore,Onshore,Cross-shore",5
5842041f4e65fad6a7708b06,2024_03_08,30.32739721382043,-87.30406515493348,Pickens Point,1,0.15,0.456,18,18,"NIGHT_MIST,NIGHT_CLEAR,NIGHT_CLEAR,NIGHT_MIST,NIGHT_MIST","Offshore,Offshore,Offshore,Offshore,Offshore",5
5842041f4e65fad6a7708b07,2024_03_08,30.27406893266753,-87.5436749948929,Bungalows,1,0.154,0.458,18,18,"NIGHT_MIST,NIGHT_MIST,NIGHT_MIST,NIGHT_OVERCAST,NIGHT_DRIZZLE","Onshore,Onshore,Cross-shore,Onshore,Onshore",5
5842041f4e65fad6a7708b08,2024_03_08,27.99627311846992,-82.82942,880,1,0.177874,0.277926,21,21,"NIGHT_CLOUDY,NIGHT_MOSTLY_CLOUDY,NIGHT_CLOUDY,NIGHT_MOSTLY_CLOUDY,NIGHT_CLEAR","Offshore,Offshore,Offshore,Offshore,Offshore",5
5842041f4e65fad6a7708b09,2024_03_08,27.97779860371595,-82.83246509090527,Pier 60,1,0,0.236,21,21,"NIGHT_CLOUDY,NIGHT_MOSTLY_CLOUDY,NIGHT_MOSTLY_CLOUDY,NIGHT_MOSTLY_CLOUDY,NIGHT_MOSTLY_CLOUDY","Cross-shore,Offshore,Offshore,Offshore,Offshore",5
5842041f4e65fad6a7708b0a,2024_03_08,27.96296387618043,-82.8332635965418,Sand Key,1,0,0.238,20,20,"NIGHT_CLOUDY,NIGHT_MOSTLY_CLOUDY,NIGHT_CLEAR,NIGHT_MOSTLY_CLOUDY,NIGHT_CLEAR","Cross-shore,Offshore,Offshore,Offshore,Offshore",5
5842041f4e65fad6a7708b0b,2024_03_08,27.92492619212885,-82.8449122845279,Belleair,1,0,0.242,20,20,"NIGHT_MOSTLY_CLOUDY,NIGHT_MOSTLY_CLOUDY,NIGHT_CLEAR,NIGHT_MOSTLY_CLOUDY,NIGHT_CLEAR","Offshore,Offshore,Offshore,Offshore,Offshore",5
5842041f4e65fad6a7708b0c,2024_03_08,27.882,-82.854,Indian Rocks Beach,1,0,0.258,20,20,"NIGHT_CLEAR,NIGHT_CLEAR,NIGHT_CLEAR,NIGHT_CLEAR,NIGHT_MOSTLY_CLEAR","Offshore,Offshore,Offshore,Offshore,Offshore",5
5842041f4e65fad6a7708b0d,2024_03_08,27.83106104966094,-82.83550218771384,Redington Breakwater,1,0,0.248,20,20,"NIGHT_CLEAR,NIGHT_CLEAR,NIGHT_CLOUDY,NIGHT_CLEAR,NIGHT_CLEAR","Offshore,Offshore,Offshore,Offshore,Offshore",5
5842041f4e65fad6a7708b0e,2024_03_08,27.74369029906206,-82.76053473435867,Middle Jetty,1,0,0.246,21,21,"NIGHT_CLEAR,NIGHT_CLEAR,NIGHT_MOSTLY_CLEAR,NIGHT_MOSTLY_CLOUDY,NIGHT_MOSTLY_CLEAR","Offshore,Offshore,Offshore,Offshore,Offshore",5
5842041f4e65fad6a7708b0f,2024_03_08,27.82174178852146,-82.83148664631841,Redington Pier,1,0,0.244,20,20,"NIGHT_CLEAR,NIGHT_CLEAR,NIGHT_CLEAR,NIGHT_CLEAR,NIGHT_CLEAR","Offshore,Offshore,Offshore,Offshore,Offshore",5
5842041f4e65fad6a7708b10,2024_03_08,27.31496308261514,-82.5830466912004,Lido Beach,1,0,0.244,20,20,"NIGHT_MIST,NIGHT_CLEAR,NIGHT_CLEAR,NIGHT_CLEAR,NIGHT_CLEAR","Cross-shore,Offshore,Offshore,Cross-shore,Cross-shore",5
5842041f4e65fad6a7708b11,2024_03_08,27.31122010159892,-82.57833234007632,Coolidge,1,0,0.244,20,20,"NIGHT_MIST,NIGHT_CLEAR,NIGHT_CLEAR,NIGHT_CLEAR,NIGHT_CLEAR","Cross-shore,Offshore,Offshore,Cross-shore,Cross-shore",5
5842041f4e65fad6a7708b12,2024_03_08,27.26471672017615,-82.55464835167173,Siesta Key,1,0,0.198,21,20,"NIGHT_MIST,NIGHT_CLEAR,NIGHT_CLEAR,NIGHT_CLEAR,NIGHT_MOSTLY_CLOUDY","Cross-shore,Offshore,Offshore,Cross-shore,Offshore",5
5842041f4e65fad6a7708b13,2024_03_08,27.24638693488133,-82.53809115716797,Stickney Point,1,0,0.232,20,20,"NIGHT_CLEAR,NIGHT_CLEAR,NIGHT_CLEAR,NIGHT_CLEAR,NIGHT_MIST","Offshore,Offshore,Offshore,Cross-shore,Cross-shore",5
5842041f4e65fad6a7708b14,2024_03_08,27.21907878229092,-82.51813937562073,Turtles,1,0,0.23,20,20,"NIGHT_CLEAR,NIGHT_CLEAR,NIGHT_CLEAR,NIGHT_CLEAR,NIGHT_CLEAR","Cross-shore,Offshore,Offshore,Cross-shore,Cross-shore",5
5842041f4e65fad6a7708b15,2024_03_08,27.11375765852028,-82.47039,Venice Jetties North,0.368,0,0.1711666666666667,21,20,"NIGHT_CLEAR,NIGHT_CLEAR,NIGHT_CLEAR,NIGHT_CLEAR,NIGHT_CLEAR","Cross-shore,Cross-shore,Offshore,Cross-shore,Offshore",5
5842041f4e65fad6a7708b16,2024_03_08,27.111485758834025,-82.46756550419744,Venice Jetties South,1,0,0.198,21,20,"NIGHT_MOSTLY_CLOUDY,NIGHT_CLEAR,NIGHT_CLEAR,NIGHT_CLEAR,NIGHT_MIST","Cross-shore,Offshore,Offshore,Cross-shore,Offshore",5
5842041f4e65fad6a7708b17,2024_03_08,27.07249378831575,-82.4530285256104,Venice Pier,1,0,0.236,21,20,"NIGHT_MOSTLY_CLOUDY,NIGHT_CLOUDY,NIGHT_MOSTLY_CLOUDY,NIGHT_MOSTLY_CLOUDY,NIGHT_MOSTLY_CLOUDY","Offshore,Offshore,Cross-shore,Cross-shore,Offshore",5
5842041f4e65fad6a7708b19,2024_03_08,27.49680446426314,-82.7140145455959,Holmes Beach Pier,0,0,0.228,20,20,"NIGHT_MIST,NIGHT_CLEAR,NIGHT_CLEAR,NIGHT_CLEAR,NIGHT_CLEAR","Offshore,Offshore,Offshore,Offshore,Offshore",5
5842041f4e65fad6a7708b1a,2024_03_08,27.7390348493064,-82.75763,Sunset Beach,1,0,0.246,21,21,"NIGHT_CLEAR,NIGHT_CLEAR,NIGHT_MOSTLY_CLEAR,NIGHT_MOSTLY_CLOUDY,NIGHT_MOSTLY_CLEAR","Offshore,Offshore,Offshore,Offshore,Offshore",5
5842041f4e65fad6a7708b1b,2024_03_08,26.80347307599041,-82.28564775623539,Gasparilla Point,1,0,0.21,21,21,"NIGHT_CLOUDY,NIGHT_CLOUDY,NIGHT_CLOUDY,NIGHT_CLOUDY,NIGHT_CLOUDY","Cross-shore,Cross-shore,Offshore,Offshore,Offshore",5
5842041f4e65fad6a7708b1c,2024_03_08,27.45365831548911,-82.69609,Coquina Jetties,1,0,0.234,20,20,"NIGHT_CLEAR,NIGHT_CLEAR,NIGHT_CLEAR,NIGHT_CLEAR,NIGHT_CLEAR","Offshore,Offshore,Offshore,Cross-shore,Cross-shore",5
5842041f4e65fad6a7708b1d,2024_03_08,27.46077315206043,-82.69924,Twin Piers,1,0,0.188,21,20,"NIGHT_CLEAR,NIGHT_CLEAR,NIGHT_CLEAR,NIGHT_CLEAR,NIGHT_CLEAR","Offshore,Offshore,Offshore,Cross-shore,Offshore",5
5842041f4e65fad6a7708b1e,2024_03_08,26.91007316019612,-82.35352,Englewood,0,0,0.14400000000000002,21,21,"NIGHT_CLEAR,NIGHT_CLEAR,NIGHT_CLEAR,NIGHT_CLOUDY,NIGHT_CLOUDY","Cross-shore,Offshore,Offshore,Offshore,Offshore",5
5842041f4e65fad6a7708b1f,2024_03_08,26.88221101560038,-82.3359828282636,Knight's Point,1,0,0.208,21,21,"NIGHT_CLEAR,NIGHT_CLEAR,NIGHT_CLEAR,NIGHT_CLOUDY,NIGHT_CLOUDY","Cross-shore,Offshore,Offshore,Cross-shore,Offshore",5
5842041f4e65fad6a7708b20,2024_03_08,26.51219285784982,-82.1928203289264,Tween Waters,1,0,0.206,22,22,"NIGHT_CLOUDY,NIGHT_CLOUDY,NIGHT_CLOUDY,NIGHT_MIST,NIGHT_MIST","Cross-shore,Cross-shore,Cross-shore,Offshore,Offshore",5
5842041f4e65fad6a7708b21,2024_03_08,26.55130241615096,-82.20222762415648,Redfish Pass,1,0,0.206,22,22,"NIGHT_CLOUDY,NIGHT_OVERCAST,NIGHT_CLOUDY,NIGHT_CLOUDY,NIGHT_MIST","Cross-shore,Cross-shore,Cross-shore,Offshore,Offshore",5
5842041f4e65fad6a7708b22,2024_03_08,26.71713432926596,-82.26287777058234,Boca Grande,1,0,0.214,22,22,"NIGHT_CLOUDY,NIGHT_CLOUDY,NIGHT_CLOUDY,NIGHT_CLOUDY,NIGHT_CLOUDY","Onshore,Cross-shore,Offshore,Offshore,Offshore",5
5842041f4e65fad6a7708b23,2024_03_08,26.47856785808584,-82.181288592828,Blind Pass,1,0,0.208,22,22,"NIGHT_CLOUDY,NIGHT_CLOUDY,NIGHT_CLOUDY,NIGHT_MIST,NIGHT_MIST","Offshore,Offshore,Offshore,Offshore,Offshore",5
5842041f4e65fad6a7708b24,2024_03_08,26.25358330618783,-81.82429246081317,The Wall,1,0,0.182,23,23,"NIGHT_CLEAR,NIGHT_CLEAR,NIGHT_CLOUDY,NIGHT_CLEAR,NIGHT_MIST","Cross-shore,Onshore,Cross-shore,Offshore,Offshore",5
5842041f4e65fad6a7708b25,2024_03_08,26.17456407516186,-81.81588575623482,Doctor's Pass,1,0,0.182,23,23,"NIGHT_CLEAR,NIGHT_CLEAR,NIGHT_CLOUDY,NIGHT_CLEAR,NIGHT_MIST","Cross-shore,Onshore,Cross-shore,Offshore,Offshore",5
5842041f4e65fad6a7708b26,2024_03_08,27.427134501874612,-82.68110766159296,Whitney Beach,1,0,0.254,20,20,"NIGHT_MIST,NIGHT_MIST,NIGHT_CLEAR,NIGHT_CLEAR,NIGHT_CLEAR","Offshore,Offshore,Offshore,Cross-shore,Cross-shore",5
5842041f4e65fad6a7708b27,2024_03_08,26.17300183052463,-81.81515842430267,Doctor's Pass (South Jetty),1,0,0.182,23,23,"NIGHT_CLEAR,NIGHT_CLEAR,NIGHT_CLEAR,NIGHT_CLEAR,NIGHT_MIST","Cross-shore,Onshore,Offshore,Offshore,Offshore",5
5842041f4e65fad6a7708b28,2024_03_08,27.73496421495629,-82.75268962468695,Upham Beach Park,1,0,0.246,21,21,"NIGHT_CLEAR,NIGHT_CLEAR,NIGHT_CLEAR,NIGHT_MOSTLY_CLOUDY,NIGHT_MOSTLY_CLEAR","Offshore,Offshore,Offshore,Offshore,Offshore",5
5842041f4e65fad6a7708b29,2024_03_08,26.13144856766723,-81.8090395116521,Naples Pier,0.8,0,0.162,23,23,"NIGHT_CLEAR,NIGHT_CLEAR,NIGHT_CLEAR,NIGHT_CLEAR,NIGHT_MIST","Cross-shore,Onshore,Cross-shore,Offshore,Offshore",5
5842041f4e65fad6a7708b2a,2024_03_08,20.63474,-156.45211,Little Beach,1,0,0.18,24,24,"NIGHT_CLEAR,NIGHT_CLEAR,NIGHT_CLOUDY,NIGHT_CLEAR,NIGHT_CLEAR","Onshore,Onshore,Offshore,Onshore,Onshore",5
5842041f4e65fad6a7708b2b,2024_03_08,20.613,-156.438,Dumps,1,0,0.2,24,24,"NIGHT_CLEAR,NIGHT_CLEAR,NIGHT_OVERCAST,NIGHT_MOSTLY_CLOUDY,NIGHT_MOSTLY_CLOUDY","Onshore,Onshore,Onshore,Onshore,Onshore",5
5842041f4e65fad6a7708b2c,2024_03_08,22.216,-159.502,Hanalei Bay,2,0.99,1.208,23,23,"NIGHT_MOSTLY_CLEAR,NIGHT_SHOWERS,NIGHT_CLEAR,NIGHT_MOSTLY_CLOUDY,NIGHT_BRIEF_SHOWERS","Offshore,Offshore,Offshore,Offshore,Offshore",5
5842041f4e65fad6a7708b2d,2024_03_08,22.225,-159.567,Ha'Ena Bay (Cannons/Tunnels),0,1.028,1.276,23,23,"NIGHT_MOSTLY_CLEAR,NIGHT_CLEAR,NIGHT_CLEAR,NIGHT_CLEAR,NIGHT_CLEAR","Cross-shore,Cross-shore,Cross-shore,Cross-shore,Cross-shore",5
5842041f4e65fad6a7708b2f,2024_03_08,22.148,-159.301,Anahola Bay,1,1.462,1.766,24,24,"NIGHT_MOSTLY_CLOUDY,NIGHT_BRIEF_SHOWERS,NIGHT_MOSTLY_CLOUDY,NIGHT_CLEAR,NIGHT_MOSTLY_CLOUDY","Onshore,Onshore,Onshore,Onshore,Onshore",5
5842041f4e65fad6a7708b30,2024_03_08,21.872,-159.462,Poipu Outer Reef,1,0.248,0.55,24,24,"NIGHT_CLEAR,NIGHT_BRIEF_SHOWERS,NIGHT_CLEAR,NIGHT_MOSTLY_CLOUDY,NIGHT_CLEAR","Offshore,Offshore,Offshore,Offshore,Offshore",5
5842041f4e65fad6a7708b31,2024_03_08,21.936,-159.652,Pakala,2,0.064,0.37,24,24,"NIGHT_CLEAR,NIGHT_CLEAR,NIGHT_CLEAR,NIGHT_CLEAR,NIGHT_CLEAR","Offshore,Offshore,Offshore,Offshore,Offshore",5
5842041f4e65fad6a7708b32,2024_03_08,21.272,-157.832,Populars,1,0,0.294,26,25,"NIGHT_CLEAR,NIGHT_CLEAR,NIGHT_CLEAR,NIGHT_CLEAR,NIGHT_CLEAR","Offshore,Offshore,Offshore,Offshore,Offshore",5
5842041f4e65fad6a7708b33,2024_03_08,21.26841992117695,-157.82329,Publics,1,0.04,0.346,26,25,"NIGHT_CLEAR,NIGHT_CLEAR,NIGHT_CLEAR,NIGHT_CLEAR,NIGHT_CLEAR","Offshore,Offshore,Offshore,Offshore,Offshore",5
5842041f4e65fad6a7708b34,2024_03_08,21.25460513357954,-157.79432,Black Point,1,0.462982,0.788536,25,25,"NIGHT_CLEAR,NIGHT_MOSTLY_CLOUDY,NIGHT_MOSTLY_CLOUDY,NIGHT_CLEAR,NIGHT_CLOUDY","Offshore,Offshore,Offshore,Offshore,Offshore",5
5842041f4e65fad6a7708b35,2024_03_08,21.27394674233747,-157.82777,Canoes,1,0,0.268,26,25,"NIGHT_CLEAR,NIGHT_CLEAR,NIGHT_CLEAR,NIGHT_CLEAR,NIGHT_CLEAR","Offshore,Offshore,Offshore,Offshore,Offshore",5
5842041f4e65fad6a7708b36,2024_03_08,21.273658410008455,-157.8263,Queen's,1,0,0.268,26,25,"NIGHT_CLEAR,NIGHT_CLEAR,NIGHT_CLEAR,NIGHT_CLEAR,NIGHT_CLEAR","Offshore,Offshore,Offshore,Offshore,Offshore",5
5842041f4e65fad6a7708b37,2024_03_08,20.869,-156.679,Lahaina Harbor - Breakwall,2,0.32,0.626,25,25,"NIGHT_CLEAR,NIGHT_CLEAR,NIGHT_CLEAR,NIGHT_CLEAR,NIGHT_CLEAR","Offshore,Offshore,Offshore,Offshore,Offshore",5
5842041f4e65fad6a7708b38,2024_03_08,21.277,-157.841,Kaiser's,2,0.416,0.72,26,25,"NIGHT_CLEAR,NIGHT_CLEAR,NIGHT_CLEAR,NIGHT_CLEAR,NIGHT_CLEAR","Offshore,Offshore,Offshore,Offshore,Offshore",5
5842041f4e65fad6a7708b39,2024_03_08,21.280537020769913,-157.84107,Rockpiles,1,0,0.276,26,25,"NIGHT_CLEAR,NIGHT_CLEAR,NIGHT_CLEAR,NIGHT_CLEAR,NIGHT_CLEAR","Offshore,Offshore,Offshore,Offshore,Offshore",5
5842041f4e65fad6a7708b3a,2024_03_08,21.2745,-157.8395,Four's,1,0.166,0.46599999999999997,25,25,"NIGHT_CLEAR,NIGHT_CLEAR,NIGHT_CLEAR,NIGHT_CLEAR,NIGHT_CLEAR","Offshore,Offshore,Offshore,Offshore,Offshore",5
5842041f4e65fad6a7708b3b,2024_03_08,21.576,-158.282,Kaena Point,0,0.518,0.824,24,24,"NIGHT_MOSTLY_CLOUDY,NIGHT_MOSTLY_CLOUDY,NIGHT_CLEAR,NIGHT_MOSTLY_CLEAR,NIGHT_CLOUDY","Onshore,Onshore,Cross-shore,Onshore,Cross-shore",5
5842041f4e65fad6a7708b3c,2024_03_08,21.31110306220024,-157.6590697786346,Makapu'u,0,1.414,1.716,24,24,"NIGHT_MOSTLY_CLOUDY,NIGHT_MOSTLY_CLOUDY,NIGHT_MOSTLY_CLOUDY,NIGHT_MOSTLY_CLOUDY,NIGHT_CLOUDY","Onshore,Onshore,Onshore,Onshore,Onshore",5
5842041f4e65fad6a7708b3d,2024_03_08,21.276618032562773,-157.83386,Three's,1,0,0.228,26,25,"NIGHT_CLEAR,NIGHT_CLEAR,NIGHT_CLEAR,NIGHT_CLEAR,NIGHT_CLEAR","Offshore,Offshore,Offshore,Offshore,Offshore",5
5842041f4e65fad6a7708b42,2024_03_08,21.281416779283845,-157.8457,Ala Moana Bowls,1,0.176,0.482,26,25,"NIGHT_CLEAR,NIGHT_CLEAR,NIGHT_CLEAR,NIGHT_CLEAR,NIGHT_CLEAR","Offshore,Offshore,Offshore,Offshore,Offshore",5
5842041f4e65fad6a7708b43,2024_03_08,15.846,-97.06,Puerto Escondido,3.6,1.096,1.352,27,27,"NIGHT_CLEAR,NIGHT_CLEAR,NIGHT_CLEAR,NIGHT_CLEAR,NIGHT_CLEAR","Onshore,Offshore,Offshore,Cross-shore,Offshore",5
5842041f4e65fad6a7708b4b,2024_03_08,-8.814,115.089,Uluwatu,3,1.3962,1.6846666666666665,28,28,"THUNDER_SHOWERS,THUNDER_SHOWERS,LIGHT_RAIN,THUNDER_SHOWERS,NIGHT_LIGHT_RAIN","Cross-shore,Cross-shore,Onshore,Onshore,Onshore",5
5842041f4e65fad6a7708b4c,2024_03_08,-8.950192825865,115.12573242187,Kuta,3,1.802,2.156,30,30,"THUNDER_SHOWERS,LIGHT_RAIN,LIGHT_RAIN,LIGHT_SHOWERS,NIGHT_LIGHT_RAIN","Cross-shore,Cross-shore,Offshore,Cross-shore,Offshore",5
5842041f4e65fad6a7708b57,2024_03_08,43.29,-2.1708,Zarautz,4,1.086146,1.6971019999999999,12,12,"CLEAR,CLEAR,CLEAR,CLEAR,CLEAR","Offshore,Offshore,Offshore,Offshore,Offshore",5
5842041f4e65fad6a7708b58,2024_03_08,54.27129984804951,-8.60171,Strandhill,3,1.314262,2.0535360000000003,8,8,"NIGHT_CLOUDY,MOSTLY_CLOUDY,CLOUDY,OVERCAST,MOSTLY_CLOUDY","Offshore,Offshore,Offshore,Offshore,Offshore",5
5842041f4e65fad6a7708b5b,2024_03_08,39.276101,-74.56709,7th Street,2,0.6915209999999999,1.0709763333333333,7,6,"NIGHT_CLEAR,NIGHT_CLEAR,NIGHT_CLEAR,NIGHT_CLEAR,NIGHT_CLEAR","Offshore,Offshore,Offshore,Offshore,Offshore",5
5842041f4e65fad6a7708b5c,2024_03_08,39.15774,-74.68639,36th Street to 42nd Street,2,0.648,0.952,8,7,"NIGHT_CLEAR,NIGHT_CLEAR,NIGHT_CLEAR,NIGHT_CLEAR,NIGHT_CLEAR","Offshore,Offshore,Offshore,Offshore,Offshore",5
5842041f4e65fad6a7708b5d,2024_03_08,39.321896,-74.506191,Sumner Avenue,2.6,0.534,0.84,7,6,"NIGHT_CLEAR,NIGHT_CLEAR,NIGHT_CLEAR,NIGHT_CLEAR,NIGHT_CLEAR","Offshore,Offshore,Offshore,Offshore,Offshore",5
5842041f4e65fad6a7708b5e,2024_03_08,39.093673,-74.71653,26th to 30th Street Pier,2,0.6297333333333333,0.9659333333333333,7,6,"NIGHT_CLEAR,NIGHT_CLEAR,NIGHT_CLEAR,NIGHT_CLEAR,NIGHT_CLEAR","Offshore,Offshore,Offshore,Offshore,Offshore",5
5842041f4e65fad6a7708b5f,2024_03_08,39.039903,-74.76417,Nun's Beach,2.2,0.677926,1.059264,8,7,"NIGHT_CLEAR,NIGHT_CLEAR,NIGHT_CLEAR,NIGHT_CLEAR,NIGHT_CLEAR","Offshore,Offshore,Offshore,Offshore,Offshore",5
5842041f4e65fad6a7708b60,2024_03_08,38.96768,-74.82565,Rambler Road,2,0.572,0.876,8,7,"NIGHT_CLEAR,NIGHT_CLEAR,NIGHT_CLEAR,NIGHT_CLEAR,NIGHT_CLEAR","Offshore,Offshore,Offshore,Offshore,Offshore",5
5842041f4e65fad6a7708b61,2024_03_08,38.99931,-74.78814,2nd St. to 10th St.,2,0.688,0.988,8,7,"NIGHT_CLEAR,NIGHT_CLEAR,NIGHT_CLEAR,NIGHT_CLEAR,NIGHT_CLEAR","Offshore,Offshore,Offshore,Offshore,Offshore",5
5842041f4e65fad6a7708b62,2024_03_08,38.929886,-74.91718,Stockton Avenue,2.4,0.535936,0.837396,8,7,"NIGHT_CLEAR,NIGHT_CLEAR,NIGHT_CLEAR,NIGHT_CLEAR,NIGHT_CLEAR","Cross-shore,Offshore,Cross-shore,Cross-shore,Cross-shore",5
5842041f4e65fad6a7708b63,2024_03_08,38.942988,-74.862452,The Rocks,2,0.358,0.666,8,7,"NIGHT_CLEAR,NIGHT_CLEAR,NIGHT_CLEAR,NIGHT_CLEAR,NIGHT_CLEAR","Offshore,Offshore,Offshore,Offshore,Offshore",5
5842041f4e65fad6a7708b64,2024_03_08,38.93036,-74.91257,Queen Street,2.8,0.502,0.804,8,7,"NIGHT_CLEAR,NIGHT_CLEAR,NIGHT_CLEAR,NIGHT_CLEAR,NIGHT_CLEAR","Offshore,Offshore,Offshore,Offshore,Offshore",5
5842041f4e65fad6a7708b65,2024_03_08,38.942757,-74.880791,Poverty Beach,3,0.51,0.816,8,7,"NIGHT_CLEAR,NIGHT_CLEAR,NIGHT_CLEAR,NIGHT_CLEAR,NIGHT_CLEAR","Offshore,Offshore,Offshore,Offshore,Offshore",5
5842041f4e65fad6a7708b66,2024_03_08,38.929441,-74.93129,Broadway Beach,2.8,0.466,0.77,8,7,"NIGHT_CLEAR,NIGHT_CLEAR,NIGHT_CLEAR,NIGHT_CLEAR,NIGHT_CLEAR","Offshore,Offshore,Offshore,Offshore,Offshore",5
5842041f4e65fad6a7708b67,2024_03_08,38.92870117926206,-74.92116,Grant Street Beach,2.8,0.512,0.818,8,7,"NIGHT_CLEAR,NIGHT_CLEAR,NIGHT_CLEAR,NIGHT_CLEAR,NIGHT_CLEAR","Offshore,Offshore,Offshore,Offshore,Offshore",5
5842041f4e65fad6a7708b68,2024_03_08,38.928934874358276,-74.93582,The Cove,2.8,0.308,0.612,7,7,"NIGHT_CLEAR,NIGHT_CLEAR,NIGHT_CLEAR,NIGHT_CLEAR,NIGHT_CLEAR","Offshore,Offshore,Offshore,Offshore,Offshore",5
5842041f4e65fad6a7708b69,2024_03_08,26.775154329102108,-80.03124833106995,Pumphouse,2,0.266,0.572,24,24,"NIGHT_MIST,NIGHT_MIST,NIGHT_MIST,NIGHT_FOG,NIGHT_MIST","Cross-shore,Offshore,Offshore,Offshore,Offshore",5
5842041f4e65fad6a7708b6a,2024_03_08,26.72114353296791,-80.03310374527736,Sunrise,2,0.208,0.512,24,23,"NIGHT_MIST,NIGHT_MIST,NIGHT_MIST,NIGHT_MIST,NIGHT_MIST","Offshore,Offshore,Offshore,Offshore,Offshore",5
5842041f4e65fad6a7708b6b,2024_03_08,26.71306786153966,-80.03222170715443,Breakers,2,0.234,0.54,24,23,"NIGHT_MIST,NIGHT_MIST,NIGHT_MIST,NIGHT_MIST,NIGHT_MIST","Offshore,Offshore,Offshore,Offshore,Offshore",5
5842041f4e65fad6a7708b6c,2024_03_08,26.699075556703683,-80.03263235092163,Charlie's Crab,2,0.246,0.55,24,23,"NIGHT_MIST,NIGHT_MIST,NIGHT_MIST,NIGHT_MIST,NIGHT_MIST","Offshore,Offshore,Offshore,Offshore,Offshore",5
5842041f4e65fad6a7708b6d,2024_03_08,26.79441490392914,-80.0306161110009,Ocean Reef Park,2,0.216,0.52,24,23,"NIGHT_MIST,NIGHT_MIST,NIGHT_MIST,NIGHT_FOG,NIGHT_CLEAR","Offshore,Offshore,Offshore,Offshore,Offshore",5
5842041f4e65fad6a7708b6f,2024_03_08,26.93134670517399,-80.06760115579169,Civic Center,0,-0.0014326666666666377,0.17391133333333333,24,23,"NIGHT_MIST,NIGHT_MIST,NIGHT_MIST,NIGHT_FOG,NIGHT_MIST","Offshore,Offshore,Offshore,Offshore,Offshore",5
5842041f4e65fad6a7708b70,2024_03_08,26.90524197396177,-80.0593609780092,Kite Beach,0,-0.003220500000000015,0.17468866666666666,24,23,"NIGHT_MIST,NIGHT_MIST,NIGHT_MIST,NIGHT_MOSTLY_CLOUDY,NIGHT_MOSTLY_CLOUDY","Offshore,Offshore,Offshore,Offshore,Offshore",5
5842041f4e65fad6a7708b71,2024_03_08,26.54279208054373,-80.04292130470276,Boynton Beach Inlet (Southside),1,0.19,0.492,24,23,"NIGHT_MIST,NIGHT_MIST,NIGHT_MIST,NIGHT_MIST,NIGHT_MIST","Cross-shore,Offshore,Offshore,Offshore,Offshore",5
5842041f4e65fad6a7708b72,2024_03_08,26.613511029817357,-80.03534198871253,Lake Worth Pier,0,-0.005000000000000001,0.15039999999999998,24,23,"NIGHT_MIST,NIGHT_MIST,NIGHT_MIST,NIGHT_MIST,NIGHT_BRIEF_SHOWERS_POSSIBLE","Cross-shore,Offshore,Offshore,Offshore,Offshore",5
5842041f4e65fad6a7708b73,2024_03_08,27.06670219261476,-80.11447191238403,Hobe Sound Public Beach,2,0.334,0.638,24,23,"NIGHT_MIST,NIGHT_MIST,NIGHT_MIST,NIGHT_CLEAR,NIGHT_MOSTLY_CLOUDY","Offshore,Offshore,Offshore,Offshore,Offshore",5
5842041f4e65fad6a7708b75,2024_03_08,27.21467611230439,-80.17308280299079,Stuart Public Beach,3,0.518,0.824,24,22,"NIGHT_MIST,NIGHT_MIST,NIGHT_MIST,NIGHT_CLEAR,NIGHT_MOSTLY_CLOUDY","Onshore,Cross-shore,Onshore,Offshore,Onshore",5
5842041f4e65fad6a7708b76,2024_03_08,27.36627923374593,-80.24622,Blind Creek Park,2,0.806,1.112,23,22,"NIGHT_MIST,NIGHT_MIST,NIGHT_MIST,NIGHT_MOSTLY_CLOUDY,NIGHT_MOSTLY_CLOUDY","Offshore,Cross-shore,Cross-shore,Offshore,Cross-shore",5
5842041f4e65fad6a7708b77,2024_03_08,26.94256932088346,-80.0705677063405,Jupiter Inlet,2,0.256,0.562,24,23,"NIGHT_MIST,NIGHT_MIST,NIGHT_MIST,NIGHT_FOG,NIGHT_MIST","Offshore,Offshore,Offshore,Offshore,Offshore",5
5842041f4e65fad6a7708b78,2024_03_08,26.89365359499372,-80.056,Juno Pier,0,0,0.1743,24,23,"NIGHT_MIST,NIGHT_MIST,NIGHT_MIST,NIGHT_MOSTLY_CLOUDY,NIGHT_MOSTLY_CLOUDY","Offshore,Offshore,Offshore,Offshore,Offshore",5
5842041f4e65fad6a7708b7a,2024_03_08,29.67671206577928,-85.3689474172784,Cape San Blas,2,0.052,0.356,18,18,"NIGHT_CLEAR,NIGHT_CLEAR,NIGHT_CLEAR,NIGHT_CLEAR,NIGHT_CLEAR","Offshore,Offshore,Offshore,Offshore,Offshore",5
5842041f4e65fad6a7708b7b,2024_03_08,26.706551543472415,-80.03280401229858,Flagpole,2,0.24,0.544,24,23,"NIGHT_MIST,NIGHT_MIST,NIGHT_MIST,NIGHT_MIST,NIGHT_MIST","Offshore,Offshore,Offshore,Offshore,Offshore",5
5842041f4e65fad6a7708b7c,2024_03_08,29.94036477533054,-85.40953557392244,El Governor,1,0,0.258,18,18,"NIGHT_CLEAR,NIGHT_CLEAR,NIGHT_CLEAR,NIGHT_CLEAR,NIGHT_CLEAR","Offshore,Offshore,Offshore,Offshore,Offshore",5
5842041f4e65fad6a7708b7d,2024_03_08,29.68231979841189,-85.30627194238092,Toilet Bowls,1.4,0.058,0.364,18,18,"NIGHT_CLEAR,NIGHT_CLEAR,NIGHT_CLEAR,NIGHT_MIST,NIGHT_CLEAR","Onshore,Cross-shore,Cross-shore,Cross-shore,Cross-shore",5
5842041f4e65fad6a7708b7e,2024_03_08,29.6607153445246,-84.86361191991014,St. George Island,1,0,0.268,18,18,"NIGHT_CLEAR,NIGHT_CLEAR,NIGHT_MIST,NIGHT_MIST,NIGHT_MIST","Onshore,Onshore,Onshore,Onshore,Onshore",5
5842041f4e65fad6a7708b7f,2024_03_08,29.77441172865639,-84.65942657000329,Dog Island,1,0,0.26,18,18,"NIGHT_MIST,NIGHT_CLEAR,NIGHT_MIST,NIGHT_MIST,NIGHT_MIST","Cross-shore,Cross-shore,Cross-shore,Cross-shore,Cross-shore",5
5842041f4e65fad6a7708bbd,2024_03_08,38.945,-9.42,Foz de Lizandro,0.2,3.023062,4.723534,15,15,"CLEAR,CLEAR,CLEAR,CLEAR,CLEAR","Onshore,Onshore,Onshore,Onshore,Onshore",5
5842041f4e65fad6a7708bc0,2024_03_08,38.67869246746279,-9.33685,Carcavelos,1.6,1.855722,2.899564,15,15,"CLEAR,CLEAR,CLEAR,CLOUDY,CLOUDY","Onshore,Onshore,Onshore,Onshore,Onshore",5
5842041f4e65fad6a7708bc1,2024_03_08,38.983,-9.425,Reef,0,5.238,6.26,15,15,"CLEAR,CLEAR,CLEAR,CLEAR,CLEAR","Onshore,Onshore,Onshore,Onshore,Onshore",5
5842041f4e65fad6a7708bc2,2024_03_08,38.988,-9.424,Ribeira D'Ilhas,1,4.686,5.444,15,15,"CLEAR,CLEAR,CLEAR,CLEAR,CLEAR","Onshore,Onshore,Onshore,Onshore,Onshore",5
5842041f4e65fad6a7708bc3,2024_03_08,39.34167968424256,-9.36331,Supertubos,0.934,3.898,4.6598,15,15,"CLEAR,CLEAR,CLEAR,CLEAR,CLOUDY","Onshore,Onshore,Onshore,Onshore,Onshore",5
5842041f4e65fad6a7708bc4,2024_03_08,39.001,-9.4284,Coxos,0.8,3.191342,4.986472,15,15,"CLEAR,CLEAR,CLEAR,CLEAR,CLEAR","Onshore,Onshore,Onshore,Onshore,Onshore",5
5842041f4e65fad6a7708bc5,2024_03_08,40.13063921100635,-8.87044,Cabedelo,0,3.28174,5.127718,14,14,"CLEAR,LIGHT_SHOWERS,CLOUDY,CLEAR,CLOUDY","Onshore,Onshore,Onshore,Onshore,Onshore",5
5842041f4e65fad6a7708bc6,2024_03_08,39.37397686060677,-9.33235,Baleal,3,2.752,3.286,15,15,"CLEAR,CLEAR,CLEAR,CLEAR,CLOUDY","Cross-shore,Cross-shore,Cross-shore,Offshore,Offshore",5
5842041f4e65fad6a7708bc8,2024_03_08,43.68220203786759,-1.44167,Les Culs Nuls,2.6,1.778288,2.778574,12,12,"CLEAR,CLEAR,CLEAR,CLEAR,CLEAR","Cross-shore,Offshore,Offshore,Cross-shore,Cross-shore",5
5842041f4e65fad6a7708bca,2024_03_08,43.48469485823068,-1.56023,Biarritz,2.8,1.60308,2.504812,12,12,"CLEAR,CLEAR,CLEAR,CLEAR,CLEAR","Cross-shore,Offshore,Cross-shore,Cross-shore,Cross-shore",5
5842041f4e65fad6a7708bcb,2024_03_08,39.0132,-9.424,Sao Lourenco,0,3.131736,4.893338,15,15,"CLEAR,CLEAR,CLEAR,CLEAR,CLEAR","Onshore,Onshore,Onshore,Onshore,Onshore",5
5842041f4e65fad6a7708bcd,2024_03_08,43.64760422014503,-1.44721,Le Santocha,2.6,1.166276,1.822306,12,12,"CLEAR,CLEAR,CLEAR,CLEAR,CLEAR","Cross-shore,Offshore,Offshore,Offshore,Cross-shore",5
5842041f4e65fad6a7708bce,2024_03_08,43.51401611768647,-1.53382,Anglet,4,1.84,2.14,12,12,"CLEAR,CLEAR,CLEAR,CLEAR,CLEAR","Offshore,Offshore,Offshore,Offshore,Offshore",5
5842041f4e65fad6a7708bcf,2024_03_08,43.479,-1.569,La Cote des Basques,3,1.641368,2.564636,12,12,"CLEAR,CLEAR,CLEAR,CLEAR,CLEAR","Cross-shore,Offshore,Cross-shore,Cross-shore,Cross-shore",5
5842041f4e65fad6a7708be3,2024_03_08,-28.3344521240417,153.57739,Cabarita,1.966,1.288,1.708,26,26,"LIGHT_SHOWERS,LIGHT_SHOWERS,NIGHT_OVERCAST,NIGHT_MOSTLY_CLOUDY,NIGHT_OVERCAST","Cross-shore,Cross-shore,Cross-shore,Cross-shore,Cross-shore",5
5842041f4e65fad6a7708be5,2024_03_08,-28.16143481052803,153.55066,Snapper Rocks,3,1.2257,1.4723,26,26,"LIGHT_SHOWERS,LIGHT_SHOWERS,NIGHT_OVERCAST,NIGHT_MOSTLY_CLOUDY,NIGHT_OVERCAST","Offshore,Offshore,Cross-shore,Cross-shore,Offshore",5
5842041f4e65fad6a7708be8,2024_03_08,-28.08967141602908,153.45956,Burleigh Heads,0.1,1.0287,1.5130000000000001,26,26,"LIGHT_RAIN,BRIEF_SHOWERS,NIGHT_LIGHT_SHOWERS,NIGHT_CLOUDY,NIGHT_CLOUDY","Cross-shore,Cross-shore,Cross-shore,Cross-shore,Cross-shore",5
5842041f4e65fad6a7708be9,2024_03_08,-28.16436510036895,153.53589,Kirra,3,0.7123,1.0964,26,26,"LIGHT_SHOWERS,LIGHT_SHOWERS,NIGHT_MOSTLY_CLOUDY,NIGHT_MOSTLY_CLOUDY,NIGHT_OVERCAST","Offshore,Offshore,Offshore,Offshore,Offshore",5
5842041f4e65fad6a7708bea,2024_03_08,-26.809,153.136,Caloundra Bar,1.634,1.2532,1.5066,21,21,"CLEAR,CLEAR,NIGHT_CLEAR,NIGHT_CLEAR,NIGHT_BRIEF_SHOWERS_POSSIBLE","Onshore,Onshore,Onshore,Onshore,Onshore",5
5842041f4e65fad6a7708beb,2024_03_08,-27.4488954777054,153.5383894760102,North Stradbroke Island,0,1.896,2.254,27,27,"BRIEF_SHOWERS_POSSIBLE,LIGHT_SHOWERS,NIGHT_LIGHT_SHOWERS,NIGHT_CLOUDY,NIGHT_CLEAR","Onshore,Onshore,Onshore,Onshore,Onshore",5
5842041f4e65fad6a7708bec,2024_03_08,-26.68680536290502,153.13793,Mooloolaba,1.134,1.2717,1.6598,26,26,"CLEAR,CLEAR,NIGHT_CLEAR,NIGHT_CLEAR,NIGHT_BRIEF_SHOWERS_POSSIBLE","Cross-shore,Cross-shore,Cross-shore,Onshore,Onshore",5
5842041f4e65fad6a7708bed,2024_03_08,40.028403115215,-74.04836654663,Mantoloking,2.2,1.02,1.266,7,6,"NIGHT_CLEAR,NIGHT_CLEAR,NIGHT_CLEAR,NIGHT_CLEAR,NIGHT_CLEAR","Cross-shore,Cross-shore,Offshore,Offshore,Offshore",5
5842041f4e65fad6a7708bee,2024_03_08,-26.38257,153.09668,Noosa Heads,2.534,0.6203,0.9267,26,26,"BRIEF_SHOWERS_POSSIBLE,BRIEF_SHOWERS_POSSIBLE,NIGHT_BRIEF_SHOWERS_POSSIBLE,NIGHT_CLEAR,NIGHT_BRIEF_SHOWERS_POSSIBLE","Offshore,Offshore,Offshore,Offshore,Offshore",5
5842041f4e65fad6a7708bef,2024_03_08,-28.63764444,153.628025,"The Pass, Byron Bay",1.2,0.7080000000000001,1.0148333333333333,26,26,"CLEAR,CLEAR,NIGHT_BRIEF_SHOWERS_POSSIBLE,NIGHT_LIGHT_SHOWERS,NIGHT_CLEAR","Offshore,Offshore,Offshore,Offshore,Offshore",5
5842041f4e65fad6a7708bf0,2024_03_08,-32.171,152.512,Tuncurry Breakwall,1.8,0.382,0.684,24,24,"CLEAR,CLEAR,NIGHT_CLEAR,NIGHT_CLEAR,NIGHT_CLEAR","Onshore,Onshore,Onshore,Onshore,Onshore",5
5842041f4e65fad6a7708bf1,2024_03_08,-28.87513611,153.59244,Ballina North Wall,1,1.232,1.526,28,28,"CLEAR,CLEAR,NIGHT_CLEAR,NIGHT_LIGHT_SHOWERS,NIGHT_CLOUDY","Onshore,Onshore,Onshore,Onshore,Onshore",5
5842041f4e65fad6a7708bf2,2024_03_08,-28.80011944,153.59755,Lennox Head,1,1.4695,1.911,26,26,"CLEAR,CLEAR,NIGHT_CLEAR,NIGHT_LIGHT_SHOWERS,NIGHT_CLOUDY","Onshore,Onshore,Onshore,Onshore,Onshore",5
5842041f4e65fad6a7708bf3,2024_03_08,-28.70581667,153.6198333,Broken Head,2,1.27,1.528,28,28,"CLEAR,CLEAR,NIGHT_CLEAR,NIGHT_LIGHT_SHOWERS,NIGHT_OVERCAST","Onshore,Onshore,Onshore,Onshore,Onshore",5
5842041f4e65fad6a7708bf4,2024_03_08,-29.44056667,153.3695194,Pippies/Yamba,2,1.1260000000000001,1.3719999999999999,27,27,"CLEAR,CLEAR,NIGHT_MOSTLY_CLEAR,NIGHT_LIGHT_SHOWERS,NIGHT_LIGHT_SHOWERS","Onshore,Onshore,Onshore,Onshore,Onshore",5
5842041f4e65fad6a7708bf5,2024_03_08,-33.94857222,151.2572167,Maroubra,1,0.49716666666666665,0.8686666666666667,22,22,"CLEAR,CLEAR,NIGHT_CLEAR,NIGHT_CLEAR,NIGHT_CLEAR","Onshore,Onshore,Onshore,Onshore,Onshore",5
5842041f4e65fad6a7708bf6,2024_03_08,-34.05162704152385,151.15646,Cronulla,0.966,0.7793333333333333,1.0853333333333333,22,22,"CLEAR,CLEAR,NIGHT_CLEAR,NIGHT_CLEAR,NIGHT_CLEAR","Cross-shore,Cross-shore,Cross-shore,Cross-shore,Cross-shore",5
5842041f4e65fad6a7708bf7,2024_03_08,-33.791855902720656,151.28878,Manly,1.634,0.5153333333333333,0.8826666666666666,22,22,"CLEAR,CLEAR,NIGHT_CLEAR,NIGHT_CLEAR,NIGHT_CLEAR","Onshore,Onshore,Onshore,Onshore,Onshore",5
5842041f4e65fad6a7708bf8,2024_03_08,-33.892155707636114,151.27793,Bondi Beach,2.166,0.7868333333333333,1.0928333333333333,22,22,"CLEAR,CLEAR,NIGHT_CLEAR,NIGHT_CLEAR,NIGHT_CLEAR","Cross-shore,Cross-shore,Cross-shore,Cross-shore,Offshore",5
5842041f4e65fad6a7708bf9,2024_03_08,-29.48278333,153.36727,Angourie,2.4,1.23,1.49,27,27,"CLEAR,CLEAR,NIGHT_OVERCAST,NIGHT_LIGHT_SHOWERS,NIGHT_LIGHT_SHOWERS","Onshore,Onshore,Onshore,Onshore,Onshore",5
5842041f4e65fad6a7708bfa,2024_03_08,-33.75169106295242,151.29854668200073,Dee Why,1.2,0.47333333333333333,0.8406666666666667,22,22,"CLEAR,CLEAR,NIGHT_CLEAR,NIGHT_CLEAR,NIGHT_CLEAR","Onshore,Onshore,Onshore,Onshore,Onshore",5
5842041f4e65fad6a7708bfb,2024_03_08,-33.77330556,151.29331,Curl Curl,2.034,0.6586666666666667,1.1115,22,22,"CLEAR,CLEAR,NIGHT_CLEAR,NIGHT_CLEAR,NIGHT_CLEAR","Cross-shore,Cross-shore,Cross-shore,Cross-shore,Cross-shore",5
5842041f4e65fad6a7708bfc,2024_03_08,-33.70960382813077,151.30361,Narrabeen,1.066,0.7436666666666666,1.0475,22,22,"CLEAR,CLEAR,NIGHT_CLEAR,NIGHT_CLEAR,NIGHT_CLEAR","Onshore,Onshore,Cross-shore,Cross-shore,Cross-shore",5
5842041f4e65fad6a7708bfd,2024_03_08,-33.63539722,151.33297,Avalon,2.034,0.7605000000000001,1.13,22,22,"CLEAR,CLEAR,NIGHT_CLEAR,NIGHT_CLEAR,NIGHT_CLEAR","Onshore,Onshore,Onshore,Onshore,Onshore",5
5842041f4e65fad6a7708bfe,2024_03_08,-33.65150556,151.3251222,Newport,1.034,0.7178333333333332,1.0218333333333334,22,22,"CLEAR,CLEAR,NIGHT_CLEAR,NIGHT_CLEAR,NIGHT_CLEAR","Onshore,Onshore,Onshore,Onshore,Onshore",5
5842041f4e65fad6a7708bff,2024_03_08,-36.94544444,149.9151111,Pambula Rivermouth,1,0.398,0.704,21,21,"BRIEF_SHOWERS_POSSIBLE,BRIEF_SHOWERS_POSSIBLE,NIGHT_BRIEF_SHOWERS_POSSIBLE,NIGHT_BRIEF_SHOWERS_POSSIBLE,NIGHT_BRIEF_SHOWERS_POSSIBLE","Onshore,Onshore,Onshore,Onshore,Onshore",5
5842041f4e65fad6a7708c00,2024_03_08,-33.60841111,151.33339,Whale Beach,2.034,0.48250000000000004,0.7865,22,22,"CLEAR,CLEAR,NIGHT_CLEAR,NIGHT_CLEAR,NIGHT_CLEAR","Onshore,Onshore,Onshore,Onshore,Onshore",5
5842041f4e65fad6a7708c01,2024_03_08,-36.89662778,149.92144,Merimbula Bar,1,0.438,0.74,21,21,"BRIEF_SHOWERS_POSSIBLE,BRIEF_SHOWERS_POSSIBLE,NIGHT_BRIEF_SHOWERS_POSSIBLE,NIGHT_BRIEF_SHOWERS_POSSIBLE,NIGHT_BRIEF_SHOWERS_POSSIBLE","Cross-shore,Cross-shore,Cross-shore,Offshore,Offshore",5
5842041f4e65fad6a7708c02,2024_03_08,-35.90458333,150.15191,Moruya,1,0.526,0.83,22,22,"MOSTLY_CLOUDY,MOSTLY_CLOUDY,NIGHT_MOSTLY_CLOUDY,NIGHT_BRIEF_SHOWERS_POSSIBLE,NIGHT_THUNDER_STORMS","Onshore,Onshore,Onshore,Onshore,Cross-shore",5
5842041f4e65fad6a7708c03,2024_03_08,-35.36742222,150.48575,Ulladulla Bommie,2,0.668,0.972,23,23,"CLEAR,CLEAR,NIGHT_BRIEF_SHOWERS_POSSIBLE,NIGHT_CLEAR,NIGHT_CLEAR","Offshore,Offshore,Offshore,Offshore,Offshore",5
5842041f4e65fad6a7708c04,2024_03_08,-35.34604167,150.4773361,Golf Course Reef,2,0.40199999999999997,0.704,23,23,"CLEAR,CLEAR,NIGHT_CLEAR,NIGHT_CLEAR,NIGHT_CLEAR","Onshore,Onshore,Onshore,Cross-shore,Cross-shore",5
5842041f4e65fad6a7708c05,2024_03_08,-35.27280833,150.51393,Green Island,2,0.49,0.798,23,23,"CLEAR,CLEAR,NIGHT_CLEAR,NIGHT_CLEAR,NIGHT_CLEAR","Cross-shore,Cross-shore,Cross-shore,Cross-shore,Offshore",5
5842041f4e65fad6a7708c06,2024_03_08,-35.17533333,150.6881667,Black Rock,1.8,0.328,0.636,23,23,"CLEAR,THUNDER_STORMS,NIGHT_THUNDER_STORMS,NIGHT_CLEAR,NIGHT_CLEAR","Offshore,Offshore,Offshore,Offshore,Offshore",5
5842041f4e65fad6a7708c07,2024_03_08,-34.74260833,150.8332833,Werri Beach,2,0.46399999999999997,0.77,24,24,"CLEAR,LIGHT_SHOWERS_POSSIBLE,NIGHT_CLEAR,NIGHT_CLEAR,NIGHT_CLEAR","Onshore,Onshore,Onshore,Cross-shore,Cross-shore",5
5842041f4e65fad6a7708c08,2024_03_08,-34.54684722,150.8784167,Windang Island,1,0.39999999999999997,0.706,24,24,"CLEAR,CLEAR,NIGHT_CLEAR,NIGHT_CLEAR,NIGHT_CLEAR","Onshore,Cross-shore,Cross-shore,Cross-shore,Cross-shore",5
5842041f4e65fad6a7708c09,2024_03_08,-28.64288889,153.6359639,Tallows,0,1.434,1.716,28,28,"CLEAR,CLEAR,NIGHT_BRIEF_SHOWERS_POSSIBLE,NIGHT_LIGHT_SHOWERS,NIGHT_CLEAR","Onshore,Onshore,Onshore,Onshore,Onshore",5
5842041f4e65fad6a7708c0a,2024_03_08,-34.32977,150.92931,Sandon Point,1.2,0.628,0.932,23,23,"CLEAR,CLEAR,NIGHT_CLEAR,NIGHT_CLEAR,NIGHT_CLEAR","Onshore,Onshore,Onshore,Cross-shore,Cross-shore",5
5842041f4e65fad6a7708c0b,2024_03_08,-38.347207621284134,144.31064659820353,Jan Juc,1.4,0.8986999999999999,1.2291,19,19,"CLEAR,CLEAR,NIGHT_CLEAR,NIGHT_CLEAR,NIGHT_CLEAR","Onshore,Cross-shore,Cross-shore,Cross-shore,Cross-shore",5
5842041f4e65fad6a7708c0c,2024_03_08,-38.2873,144.4652,13th Beach,2.1,1.0762,1.4835,19,19,"CLEAR,CLEAR,NIGHT_CLEAR,NIGHT_CLEAR,NIGHT_CLEAR","Onshore,Onshore,Onshore,Onshore,Onshore",5
5842041f4e65fad6a7708c0d,2024_03_08,-38.76017222,143.37283,Johanna,2.6,1.943998,3.0374939999999997,19,19,"CLEAR,CLEAR,NIGHT_CLEAR,NIGHT_CLEAR,NIGHT_CLEAR","Cross-shore,Cross-shore,Cross-shore,Offshore,Offshore",5
5842041f4e65fad6a7708c0e,2024_03_08,-38.44902778,144.85891,Gunnamatta,2.8,1.534382,2.39747,20,20,"CLEAR,CLEAR,NIGHT_CLEAR,NIGHT_CLEAR,NIGHT_CLEAR","Cross-shore,Cross-shore,Offshore,Offshore,Offshore",5
5842041f4e65fad6a7708c0f,2024_03_08,-38.42897222,145.07755,Point Leo,1,0.014240000000000001,0.31398,19,19,"CLEAR,CLEAR,NIGHT_CLEAR,NIGHT_CLEAR,NIGHT_CLEAR","Onshore,Onshore,Onshore,Onshore,Onshore",5
5842041f4e65fad6a7708c10,2024_03_08,-38.55457222,145.33169,Woolamai,2.4,1.5,1.78,20,20,"CLEAR,CLEAR,NIGHT_CLEAR,NIGHT_CLEAR,NIGHT_CLEAR","Cross-shore,Cross-shore,Offshore,Offshore,Offshore",5
5842041f4e65fad6a7708c11,2024_03_08,-28.16708333,153.55169,Duranbah,2,1.6146,2.0346,26,26,"LIGHT_SHOWERS,LIGHT_SHOWERS,NIGHT_OVERCAST,NIGHT_MOSTLY_CLOUDY,NIGHT_OVERCAST","Cross-shore,Cross-shore,Cross-shore,Cross-shore,Onshore",5
5842041f4e65fad6a7708c12,2024_03_08,-38.368504,144.2871,Winkipop,2,1.1211,1.5253999999999999,19,19,"CLEAR,CLEAR,NIGHT_CLEAR,NIGHT_CLEAR,NIGHT_CLEAR","Onshore,Cross-shore,Cross-shore,Cross-shore,Cross-shore",5
5842041f4e65fad6a7708c13,2024_03_08,-38.50596111,145.14044,Cat Bay,2,0.514938,0.80459,20,20,"CLEAR,CLEAR,NIGHT_CLEAR,NIGHT_CLEAR,NIGHT_CLEAR","Offshore,Offshore,Offshore,Offshore,Offshore",5
