_id,date,lat,lon,name,daily_mean_swell_rating,daily_mean_wave_height_min,daily_mean_wave_height_max,daily_mean_water_temperature_max,daily_mean_water_temperature_min,weather_per_timestamp,wind_per_timestamp,n_samples_per_day
5842041f4e65fad6a77087f9,2024_12_15,37.741668,-122.51038,South Ocean Beach,0.5,2.921945,4.0075,12,12,"CLEAR,NIGHT_CLEAR","Onshore,Onshore",2
5842041f4e65fad6a7708801,2024_12_15,37.49142,-122.50428,Maverick's,NA,2.92875,3.99125,12,12,"CLEAR,NIGHT_MOSTLY_CLOUDY","Cross-shore,Offshore",2
5842041f4e65fad6a7708804,2024_12_15,44.997,-124.018,Roads End,1,5.1,5.9350000000000005,11,11,"CLEAR,NIGHT_MOSTLY_CLOUDY","Onshore,Onshore",2
5842041f4e65fad6a7708805,2024_12_15,36.95188851423011,-122.02522,Steamer Lane,2.75,1.66406,2.46653,12,12,"CLEAR,NIGHT_CLEAR","Offshore,Offshore",2
5842041f4e65fad6a7708806,2024_12_15,36.95918781542251,-122.02489,Cowells,1.75,0.49937,0.80479,12,12,"CLEAR,NIGHT_CLEAR","Offshore,Cross-shore",2
5842041f4e65fad6a7708807,2024_12_15,36.95468082526536,-121.97234,Pleasure Point,2.25,1.86947,2.37203,12,12,"CLEAR,NIGHT_CLEAR","Offshore,Onshore",2
5842041f4e65fad6a770880a,2024_12_15,35.37815414378748,-120.86589,Morro Bay,2.75,1.7840799999999999,2.4619999999999997,12,12,"MIST,NIGHT_CLEAR","Onshore,Offshore",2
5842041f4e65fad6a770880b,2024_12_15,36.95782765000708,-121.96729,Jack's,2,0.9522250000000001,1.25035,12,12,"CLEAR,NIGHT_CLEAR","Offshore,Onshore",2
5842041f4e65fad6a770880d,2024_12_15,34.29982939936656,-119.3489016603669,Gold Coast Beachbreaks,2,0.19,0.495,15,15,"DRIZZLE,NIGHT_MIST","Offshore,Onshore",2
5842041f4e65fad6a7708811,2024_12_15,34.245076,-119.26799,Ventura Harbor,3,1.4378000000000002,1.7355,13,13,"MIST,NIGHT_MOSTLY_CLEAR","Onshore,Onshore",2
5842041f4e65fad6a7708813,2024_12_15,34.051,-118.964,County Line,3,0.8227500000000001,1.12575,14,14,"OVERCAST,NIGHT_MOSTLY_CLEAR","Cross-shore,Cross-shore",2
5842041f4e65fad6a7708814,2024_12_15,34.37256264378892,-119.47797,Rincon,2.5,0.48,0.78,14,14,"OVERCAST,NIGHT_MIST","Cross-shore,Onshore",2
5842041f4e65fad6a7708817,2024_12_15,34.03096101876324,-118.68109,Malibu Third Point,2,0.360445,0.66023,15,15,"MOSTLY_CLOUDY,NIGHT_CLEAR","Cross-shore,Offshore",2
5842041f4e65fad6a7708819,2024_12_15,33.984079047970035,-118.47382,Venice Beach,3,0.63148,0.98489,14,14,"MIST,NIGHT_CLEAR","Onshore,Onshore",2
5842041f4e65fad6a770881e,2024_12_15,34.037508438646746,-118.5834,Topanga Beach,3,0.441,0.84425,14,14,"MOSTLY_CLOUDY,NIGHT_CLEAR","Onshore,Cross-shore",2
5842041f4e65fad6a7708820,2024_12_15,33.73954373690184,-118.11414,Seal Beach Jetty,2,0.15500000000000003,0.45499999999999996,14,14,"CLEAR,NIGHT_MOSTLY_CLOUDY","Onshore,Onshore",2
5842041f4e65fad6a7708822,2024_12_15,33.72309983348433,-118.08078,Anderson Street,1.75,0.343605,0.60005,14,14,"CLEAR,NIGHT_MOSTLY_CLOUDY","Onshore,Onshore",2
5842041f4e65fad6a7708827,2024_12_15,33.65574085629463,-118.00397,Huntington Beach Pier Northside,3,0.805775,1.2267899999999998,14,14,"CLEAR,NIGHT_MOSTLY_CLOUDY","Onshore,Onshore",2
5842041f4e65fad6a7708828,2024_12_15,34.272041739333,-119.29976,C St.,3,0.75507,1.0487899999999999,13,13,"MIST,NIGHT_CLEAR","Onshore,Cross-shore",2
5842041f4e65fad6a770882a,2024_12_15,33.61555743705257,-117.93676,Newport Lower Jetties,2.25,0.51346,0.9367650000000001,14,14,"CLEAR,NIGHT_MOSTLY_CLOUDY","Onshore,Cross-shore",2
5842041f4e65fad6a770882b,2024_12_15,33.5930302087,-117.88199,The Wedge,1,0.25,0.5549999999999999,14,14,"CLEAR,NIGHT_MOSTLY_CLOUDY","Onshore,Cross-shore",2
5842041f4e65fad6a770882e,2024_12_15,33.475793399792984,-117.72291,Salt Creek,3,0.82053,1.243535,14,14,"MIST,NIGHT_CLEAR","Onshore,Onshore",2
5842041f4e65fad6a7708830,2024_12_15,33.41800974113613,-117.61952,T-Street,2.5,0.534315,0.911205,14,14,"MIST,NIGHT_CLEAR","Onshore,Cross-shore",2
5842041f4e65fad6a7708832,2024_12_15,33.202391008646,-117.39475,Oceanside Harbor,3,0.684475,1.08712,15,15,"CLEAR,NIGHT_CLEAR","Onshore,Offshore",2
5842041f4e65fad6a7708835,2024_12_15,33.19477795952803,-117.38667,Oceanside Pier,3,0.670605,1.02634,15,15,"CLEAR,NIGHT_CLEAR","Onshore,Offshore",2
5842041f4e65fad6a7708837,2024_12_15,33.14948100706,-117.35029,Tamarack,3,0.40349,0.7758450000000001,15,15,"CLEAR,NIGHT_CLEAR","Onshore,Offshore",2
5842041f4e65fad6a7708839,2024_12_15,32.865777159358856,-117.25614,Scripps,3,0.971935,1.3326250000000002,15,15,"BRIEF_SHOWERS_POSSIBLE,NIGHT_CLEAR","Onshore,Cross-shore",2
5842041f4e65fad6a770883a,2024_12_15,32.813094,-117.27381,Birdrock,3,0.575,0.88,15,15,"CLEAR,NIGHT_MIST","Cross-shore,Offshore",2
5842041f4e65fad6a770883b,2024_12_15,32.88338,-117.25571,Blacks,3,0.9644999999999999,1.2675,15,15,"BRIEF_SHOWERS_POSSIBLE,NIGHT_CLEAR","Onshore,Onshore",2
5842041f4e65fad6a770883c,2024_12_15,32.82978974229765,-117.28162,Windansea,3,0.8265,1.2235,15,15,"CLEAR,NIGHT_MOSTLY_CLOUDY","Onshore,Offshore",2
5842041f4e65fad6a770883d,2024_12_15,32.838278,-117.28396,Horseshoe,2.5,0.66,0.965,15,15,"CLEAR,NIGHT_MIST","Cross-shore,Offshore",2
5842041f4e65fad6a770883f,2024_12_15,32.75034717673179,-117.25337,Ocean Beach,3,1.1563050000000001,1.460865,15,15,"MIST,NIGHT_CLEAR","Onshore,Offshore",2
5842041f4e65fad6a7708840,2024_12_15,32.73693,-117.25718,Sunset Cliffs,2,0.6118950000000001,0.917635,15,15,"CLEAR,NIGHT_MIST","Onshore,Cross-shore",2
5842041f4e65fad6a7708841,2024_12_15,32.796582258728826,-117.25779,Pacific Beach,3,1.1074899999999999,1.4065699999999999,15,15,"CLEAR,NIGHT_CLEAR","Cross-shore,Offshore",2
5842041f4e65fad6a7708842,2024_12_15,32.776636,-117.25514,Mission Beach,3,0.8027500000000001,1.11075,15,15,"CLEAR,NIGHT_CLEAR","Onshore,Offshore",2
5842041f4e65fad6a7708844,2024_12_15,32.577195519016,-117.13475,Imperial Beach Pier,2.5,0.63,0.935,15,15,"CLEAR,NIGHT_MIST","Onshore,Cross-shore",2
5842041f4e65fad6a770884a,2024_12_15,42.88678181061,-70.80843,Seabrook,2,0.12068500000000001,0.46443,8,7,"NIGHT_CLEAR,NIGHT_CLEAR","Offshore,Offshore",2
5842041f4e65fad6a770884e,2024_12_15,41.434181432898335,-71.45312,Narragansett,0.41666666666666663,0.11158,0.42538,9,8,"NIGHT_CLEAR,NIGHT_CLEAR","Offshore,Offshore",2
5842041f4e65fad6a7708850,2024_12_15,40.582703230722,-73.65247,Lincoln Blvd,0.41666666666666663,0.193645,0.488445,9,8,"NIGHT_CLEAR,NIGHT_CLEAR","Offshore,Offshore",2
5842041f4e65fad6a7708852,2024_12_15,40.58342841721757,-73.81182,Rockaways,0.41666666666666663,0.31373,0.61912,9,8,"NIGHT_CLEAR,NIGHT_CLEAR","Offshore,Offshore",2
5842041f4e65fad6a7708853,2024_12_15,40.330474,-73.9734,Monmouth Beach,1,0.10875,0.4168,9,8,"NIGHT_CLEAR,NIGHT_CLEAR","Cross-shore,Onshore",2
5842041f4e65fad6a7708856,2024_12_15,40.113,-74.028,Manasquan Inlet,0,0.11325,0.41305000000000003,9,8,"NIGHT_CLEAR,NIGHT_CLEAR","Cross-shore,Onshore",2
5842041f4e65fad6a7708857,2024_12_15,39.941519877445664,-74.06829,Casino Pier,0,0.112415,0.417215,9,8,"NIGHT_CLEAR,NIGHT_CLEAR","Cross-shore,Onshore",2
5842041f4e65fad6a7708858,2024_12_15,39.28223089949212,-74.55766,North End OC,1.4166666666666665,0.090835,0.399635,8,7,"NIGHT_CLEAR,NIGHT_MOSTLY_CLOUDY","Cross-shore,Offshore",2
5842041f4e65fad6a770885b,2024_12_15,39.65080599934257,-74.17146,Ship Bottom,0,0.20488499999999998,0.5129049999999999,11,11,"NIGHT_CLEAR,NIGHT_CLEAR","Cross-shore,Cross-shore",2
5842041f4e65fad6a7708863,2024_12_15,36.034151543144,-75.66791,Third Street,1,0.8420650000000001,1.211015,13,12,"NIGHT_OVERCAST,NIGHT_MOSTLY_CLOUDY","Onshore,Onshore",2
5842041f4e65fad6a7708867,2024_12_15,35.605833221351425,-75.46303,S-Turns,0,1.2514500000000002,1.562335,14,13,"NIGHT_CLEAR,NIGHT_MOSTLY_CLOUDY","Onshore,Onshore",2
5842041f4e65fad6a770886d,2024_12_15,38.338461,-75.08117,Ocean City Boardwalk,0.41666666666666663,0.062445,0.38702000000000003,9,8,"NIGHT_CLOUDY,NIGHT_CLOUDY","Onshore,Onshore",2
5842041f4e65fad6a770886f,2024_12_15,29.844757212379562,-81.26136,A St.,1,2.085,2.3949999999999996,18,18,"NIGHT_CLOUDY,NIGHT_MOSTLY_CLEAR","Onshore,Onshore",2
5842041f4e65fad6a7708871,2024_12_15,29.069417851135093,-80.90824,New Smyrna Beach,1,1.8767800000000001,3.0545,21,19,"NIGHT_LIGHT_RAIN,NIGHT_MOSTLY_CLEAR","Onshore,Onshore",2
5842041f4e65fad6a7708872,2024_12_15,28.367707417566,-80.60171,Cocoa Beach Pier,1,1.8459500000000002,2.1583,19,18,"NIGHT_MOSTLY_CLOUDY,NIGHT_MOSTLY_CLEAR","Onshore,Onshore",2
5842041f4e65fad6a7708873,2024_12_15,28.091782738658846,-80.56479,Indialantic,1,2.15067,2.57177,21,19,"NIGHT_MOSTLY_CLOUDY,NIGHT_MOSTLY_CLOUDY","Onshore,Onshore",2
5842041f4e65fad6a7708876,2024_12_15,27.25392904143517,-80.19455,Jensen Beach,0,1.8705,2.6977900000000004,25,23,"NIGHT_MOSTLY_CLOUDY,NIGHT_CLEAR","Onshore,Onshore",2
5842041f4e65fad6a7708879,2024_12_15,26.76346795333825,-80.03607,Reef Road,1,1.1464,1.6935850000000001,25,23,"NIGHT_OVERCAST,NIGHT_OVERCAST","Onshore,Onshore",2
5842041f4e65fad6a770887c,2024_12_15,26.336499228484,-80.06956100463,Boca Raton Inlet,1,1.07873,1.4948299999999999,25,24,"NIGHT_MOSTLY_CLOUDY,NIGHT_MOSTLY_CLOUDY","Onshore,Onshore",2
5842041f4e65fad6a770887d,2024_12_15,26.31719311695038,-80.07453,Deerfield Beach Pier,1,0.6188450000000001,1.0584099999999999,26,24,"NIGHT_MOSTLY_CLOUDY,NIGHT_MOSTLY_CLOUDY","Onshore,Onshore",2
5842041f4e65fad6a7708881,2024_12_15,30.20276320866628,-85.85626528676136,"Spyglass Dr., Panama City",-0.08333333333333331,0,0.173535,18,18,"NIGHT_CLEAR,NIGHT_MOSTLY_CLEAR","Offshore,Offshore",2
5842041f4e65fad6a7708884,2024_12_15,33.39000832738053,-117.59852,Cottons,2,0.5197499999999999,0.8215,14,14,"CLEAR,NIGHT_CLEAR","Onshore,Cross-shore",2
5842041f4e65fad6a7708885,2024_12_15,33.359416282661,-117.54168,Trails,2,0.295,0.595,16,16,"CLEAR,NIGHT_CLEAR","Onshore,Offshore",2
5842041f4e65fad6a7708886,2024_12_15,33.38042605929805,-117.58332,Middles,2.5,0.37,0.67,16,16,"CLEAR,NIGHT_CLEAR","Cross-shore,Offshore",2
5842041f4e65fad6a7708887,2024_12_15,33.38445596302903,-117.59445,Upper Trestles,2.75,0.51725,0.82525,14,14,"CLEAR,NIGHT_MIST","Cross-shore,Offshore",2
5842041f4e65fad6a7708889,2024_12_15,28.944414,-95.28883,Surfside,2,0.85912,1.209785,19,19,"MIST,NIGHT_MIST","Onshore,Onshore",2
5842041f4e65fad6a770888a,2024_12_15,33.38143999849023,-117.58843,Lower Trestles,2.5,0.5680400000000001,0.8783099999999999,14,14,"CLEAR,NIGHT_CLEAR","Cross-shore,Offshore",2
5842041f4e65fad6a770888b,2024_12_15,33.379622288757,-117.57894,Church,2.5,0.3205,0.6285000000000001,14,14,"CLEAR,NIGHT_CLEAR","Onshore,Offshore",2
5842041f4e65fad6a770888d,2024_12_15,21.679,-158.042,Sunset Beach,4,1.5251649999999999,2.038435,26,25,"CLEAR,NIGHT_BRIEF_SHOWERS","Cross-shore,Cross-shore",2
5842041f4e65fad6a770888e,2024_12_15,21.670550036401,-158.0482,Rocky Point,3.0833333333333335,1.335575,1.969365,26,25,"MOSTLY_CLEAR,NIGHT_CLEAR","Cross-shore,Cross-shore",2
5842041f4e65fad6a770888f,2024_12_15,21.668,-158.05,Chambers,3.5,1.47882,2.078665,25,25,"MOSTLY_CLEAR,NIGHT_MOSTLY_CLEAR","Cross-shore,Cross-shore",2
5842041f4e65fad6a7708890,2024_12_15,21.66522,-158.0526,Pipeline,2.166666666666667,1.283625,1.8622,26,25,"MOSTLY_CLEAR,NIGHT_CLEAR","Cross-shore,Cross-shore",2
5842041f4e65fad6a7708891,2024_12_15,21.665,-158.054,Backdoor,3.5,1.5018349999999998,1.8691499999999999,26,25,"MOSTLY_CLEAR,NIGHT_MOSTLY_CLEAR","Cross-shore,Cross-shore",2
5842041f4e65fad6a7708892,2024_12_15,21.662,-158.057,Rockpile,3,1.725,1.955,25,25,"MOSTLY_CLEAR,NIGHT_CLEAR","Cross-shore,Cross-shore",2
5842041f4e65fad6a7708893,2024_12_15,21.65870453806827,-158.06058,Log Cabins,3,1.2650000000000001,1.5750000000000002,25,25,"MOSTLY_CLEAR,NIGHT_MOSTLY_CLEAR","Cross-shore,Cross-shore",2
5842041f4e65fad6a7708894,2024_12_15,21.66203493640557,-158.05495,Off The Wall,3.5,1.665,1.93,25,25,"MOSTLY_CLEAR,NIGHT_MOSTLY_CLEAR","Cross-shore,Cross-shore",2
5842041f4e65fad6a7708895,2024_12_15,21.643,-158.067,Waimea Bay,NA,1.5285,2.0555149999999998,26,25,"MOSTLY_CLEAR,NIGHT_MOSTLY_CLEAR","Cross-shore,Cross-shore",2
5842041f4e65fad6a7708896,2024_12_15,21.622,-158.087,Hultin's,3.5833333333333335,1.418085,1.9871850000000002,26,25,"CLEAR,NIGHT_CLEAR","Offshore,Offshore",2
5842041f4e65fad6a7708897,2024_12_15,21.623,-158.085,Jocko's,3,1.465,1.71,25,25,"CLEAR,NIGHT_CLEAR","Onshore,Onshore",2
5842041f4e65fad6a7708898,2024_12_15,21.62,-158.088,Laniakea,3,1.27005,1.657365,26,25,"CLEAR,NIGHT_CLEAR","Cross-shore,Cross-shore",2
5842041f4e65fad6a7708899,2024_12_15,21.625,-158.083,Chun's,3,1.465,1.705,25,25,"CLEAR,NIGHT_CLEAR","Offshore,Offshore",2
5842041f4e65fad6a770889c,2024_12_15,21.286357895152136,-157.8515,Ala Moana Beach Park,1.5,0.3,0.605,26,26,"CLEAR,NIGHT_CLEAR","Offshore,Offshore",2
5842041f4e65fad6a770889d,2024_12_15,19.606,-155.978,Banyans,2.9166666666666665,0.6244000000000001,0.9366,26,25,"CLEAR,NIGHT_CLEAR","Onshore,Cross-shore",2
5842041f4e65fad6a770889e,2024_12_15,20.029,-155.831,Kawaihae,2,0.4444,0.72003,26,26,"CLEAR,NIGHT_FOG","Onshore,Cross-shore",2
5842041f4e65fad6a770889f,2024_12_15,33.07541383424675,-117.3105,Grandview,3,0.68733,1.120055,15,15,"CLEAR,NIGHT_CLEAR","Onshore,Offshore",2
5842041f4e65fad6a77088a0,2024_12_15,33.065267421296596,-117.30577,Beacons,3,0.73014,1.14111,15,15,"CLEAR,NIGHT_CLEAR","Onshore,Offshore",2
5842041f4e65fad6a77088a2,2024_12_15,21.252,-157.805,Diamond Head,3,0.620215,0.9787049999999999,26,25,"CLEAR,NIGHT_CLEAR","Cross-shore,Offshore",2
5842041f4e65fad6a77088a3,2024_12_15,33.04694255008896,-117.29966,Moonlight State Beach,3,0.37,0.67,15,15,"CLEAR,NIGHT_CLEAR","Onshore,Offshore",2
5842041f4e65fad6a77088a5,2024_12_15,33.08685865930869,-117.31532,Ponto,3,0.743015,1.0869849999999999,15,15,"CLEAR,NIGHT_CLEAR","Onshore,Offshore",2
5842041f4e65fad6a77088a6,2024_12_15,33.130343587871906,-117.33668,Terra Mar Point,2.25,0.41012499999999996,0.724905,15,15,"CLEAR,NIGHT_CLEAR","Onshore,Onshore",2
5842041f4e65fad6a77088af,2024_12_15,32.95916304183685,-117.26963,Del Mar,3,0.56,0.865,15,15,"MIST,NIGHT_MIST","Onshore,Offshore",2
5842041f4e65fad6a77088b0,2024_12_15,32.97527261243354,-117.2721061331305,Del Mar Rivermouth,2.5,0.54,0.85,15,15,"MIST,NIGHT_CLEAR","Onshore,Offshore",2
5842041f4e65fad6a77088b1,2024_12_15,33.01352178146273,-117.28219,Cardiff Reef,2.75,0.6011200000000001,0.892985,15,15,"CLEAR,NIGHT_CLEAR","Onshore,Cross-shore",2
5842041f4e65fad6a77088b3,2024_12_15,33.00211185876003,-117.2811,Seaside Reef,3,0.73775,1.146,15,15,"CLEAR,NIGHT_OVERCAST","Onshore,Cross-shore",2
5842041f4e65fad6a77088b4,2024_12_15,33.0341859796287,-117.29552,Swami's,3,0.687535,0.98505,15,15,"CLEAR,NIGHT_CLEAR","Onshore,Offshore",2
5842041f4e65fad6a77088b7,2024_12_15,33.04569760260221,-117.2994,D Street,3,0.58467,0.9502250000000001,15,15,"CLEAR,NIGHT_CLEAR","Onshore,Offshore",2
5842041f4e65fad6a77088b8,2024_12_15,33.02090944350196,-117.28535,San Elijo State Beach,2.5,0.50887,0.8092,15,15,"CLEAR,NIGHT_CLEAR","Onshore,Cross-shore",2
5842041f4e65fad6a77088c2,2024_12_15,32.80662846492798,-117.26888,PB Point,2.5,0.565,0.87,15,15,"CLEAR,NIGHT_MOSTLY_CLOUDY","Cross-shore,Cross-shore",2
5842041f4e65fad6a77088c4,2024_12_15,32.8060476681448,-117.26479,Old Man's at Tourmaline,2.5,0.4671,0.7811,15,15,"CLEAR,NIGHT_MOSTLY_CLOUDY","Cross-shore,Cross-shore",2
5842041f4e65fad6a77088cb,2024_12_15,32.557056711256,-117.1327445020322,Tijuana Slough,2.5,0.325,0.625,15,15,"CLEAR,NIGHT_CLEAR","Onshore,Cross-shore",2
5842041f4e65fad6a77088cc,2024_12_15,32.863,-117.257,La Jolla Shores,2.5,0.45999999999999996,0.76,15,15,"BRIEF_SHOWERS_POSSIBLE,NIGHT_MIST","Onshore,Cross-shore",2
5842041f4e65fad6a77088ce,2024_12_15,32.67443657790586,-117.17421,Coronado Beach,2,0.12,0.425,15,15,"CLEAR,NIGHT_CLEAR","Offshore,Offshore",2
5842041f4e65fad6a77088cf,2024_12_15,33.40484417640326,-117.60749,San Clemente State Beach,2,0.245,0.55,16,16,"CLEAR,NIGHT_MOSTLY_CLEAR","Onshore,Offshore",2
5842041f4e65fad6a77088d5,2024_12_15,33.4663042002114,-117.7168352817103,Strands,2.25,0.3155,0.62225,14,14,"MIST,NIGHT_CLEAR","Onshore,Cross-shore",2
5842041f4e65fad6a77088d7,2024_12_15,33.4609858001748,-117.68535,Doheny State Beach,2.25,0.230715,0.5167349999999999,14,14,"CLEAR,NIGHT_CLEAR","Onshore,Cross-shore",2
5842041f4e65fad6a77088dc,2024_12_15,33.50894790083017,-117.75243,Aliso Creek,2,0.13,0.44,15,15,"MIST,NIGHT_MOSTLY_CLOUDY","Onshore,Cross-shore",2
5842041f4e65fad6a77088dd,2024_12_15,33.5326591767067,-117.77764,Brooks Street,2,0.07,0.38,15,15,"MIST,NIGHT_MOSTLY_CLOUDY","Cross-shore,Cross-shore",2
5842041f4e65fad6a77088de,2024_12_15,33.53561225884637,-117.7799,Thalia Street,2,0.08,0.39,15,15,"MIST,NIGHT_CLEAR","Cross-shore,Offshore",2
5842041f4e65fad6a77088e3,2024_12_15,33.54268310353641,-117.7916,Rockpile,2,0.07,0.38,15,15,"MIST,NIGHT_CLEAR","Cross-shore,Offshore",2
5842041f4e65fad6a77088e4,2024_12_15,33.7368459504689,-118.10342,"Seal Beach Pier, Southside",2,0.24,0.55,15,15,"CLEAR,NIGHT_MOSTLY_CLOUDY","Onshore,Onshore",2
5842041f4e65fad6a77088e5,2024_12_15,33.73933701820233,-118.117,Ray Bay,2,0.16999999999999998,0.475,15,15,"CLEAR,NIGHT_MOSTLY_CLOUDY","Onshore,Onshore",2
5842041f4e65fad6a77088e7,2024_12_15,33.728733,-118.08982,Surfside,0,0,0.14500000000000002,15,15,"CLEAR,NIGHT_MOSTLY_CLEAR","Onshore,Onshore",2
5842041f4e65fad6a77088e8,2024_12_15,33.68760321488161,-118.04236,Bolsa Chica State Beach,2.25,0.56147,0.939405,14,14,"CLEAR,NIGHT_MOSTLY_CLOUDY","Onshore,Onshore",2
5842041f4e65fad6a77088ea,2024_12_15,33.66704400178788,-118.0192,North HB Streets,3,1.121365,1.417385,14,14,"CLEAR,NIGHT_MOSTLY_CLOUDY","Onshore,Onshore",2
5842041f4e65fad6a77088ed,2024_12_15,33.65475101379567,-118.00291,Huntington Beach Pier Southside,2.75,0.7364999999999999,1.1447500000000002,14,14,"CLEAR,NIGHT_MOSTLY_CLEAR","Onshore,Onshore",2
5842041f4e65fad6a77088ee,2024_12_15,33.62778647706099,-117.95939,River Jetties,2,0.511,0.80775,14,14,"CLEAR,NIGHT_CLEAR","Onshore,Onshore",2
5842041f4e65fad6a77088f2,2024_12_15,33.605165797643664,-117.925,Newport Point,2,0.065,0.365,15,15,"CLEAR,NIGHT_MOSTLY_CLOUDY","Onshore,Cross-shore",2
5842041f4e65fad6a77088f3,2024_12_15,33.58982984726977,-117.87713,Corona del Mar,2,0.05,0.355,15,15,"CLEAR,NIGHT_MOSTLY_CLOUDY","Onshore,Cross-shore",2
5842041f4e65fad6a77088f7,2024_12_15,34.00750300824362,-118.49718,Santa Monica Pier,1.5,0.04,0.35,15,15,"CLEAR,NIGHT_CLEAR","Onshore,Onshore",2
5842041f4e65fad6a77088ff,2024_12_15,33.94070283102945,-118.44321,Dockweiler Beach,3,1.2095,1.4175,14,14,"MIST,NIGHT_CLEAR","Onshore,Onshore",2
5842041f4e65fad6a7708900,2024_12_15,33.9231846937237,-118.4341465777908,Shitpipe,3,1.142,1.44583,14,14,"MIST,NIGHT_MOSTLY_CLOUDY","Onshore,Onshore",2
5842041f4e65fad6a7708902,2024_12_15,33.9108528052242,-118.4279133138721,Hammerland,3,1.142,1.44583,14,14,"MIST,NIGHT_MOSTLY_CLOUDY","Onshore,Onshore",2
5842041f4e65fad6a7708904,2024_12_15,33.87201368173932,-118.40752,Hermosa Beach,2.75,0.704125,1.0786,14,14,"BRIEF_SHOWERS,NIGHT_FOG","Onshore,Onshore",2
5842041f4e65fad6a7708906,2024_12_15,33.90129336911256,-118.42184,El Porto,3,0.951625,1.381095,14,14,"MIST,NIGHT_FOG","Onshore,Onshore",2
5842041f4e65fad6a7708907,2024_12_15,33.87963506431794,-118.41102,Manhattan Beach Pier,3,1.15929,1.348755,14,14,"MIST,NIGHT_CLEAR","Onshore,Onshore",2
5842041f4e65fad6a7708914,2024_12_15,34.038053387863464,-118.5532,Sunset Point,1.5,0,0.3,15,15,"MOSTLY_CLOUDY,NIGHT_CLEAR","Onshore,Offshore",2
5842041f4e65fad6a7708920,2024_12_15,33.80282,-118.39989,Haggerty's,2,0.184,0.42400000000000004,15,15,"MOSTLY_CLOUDY,NIGHT_BRIEF_SHOWERS","Onshore,Onshore",2
5842041f4e65fad6a7708921,2024_12_15,33.85044519861206,-118.40048,Redondo Breakwater,2.5,0.71411,1.0145,15,15,"BRIEF_SHOWERS,NIGHT_CLEAR","Onshore,Onshore",2
5842041f4e65fad6a7708927,2024_12_15,33.70877301002487,-118.2840112858389,Cabrillo Beach,2,0.07,0.38,15,15,"CLEAR,NIGHT_CLEAR","Cross-shore,Cross-shore",2
5842041f4e65fad6a770892c,2024_12_15,33.77209986806257,-118.4268428476672,Lunada Bay,1.5,0.35,0.6499999999999999,15,15,"MOSTLY_CLOUDY,NIGHT_MIST","Onshore,Onshore",2
5842041f4e65fad6a770892d,2024_12_15,33.79294656286144,-118.40703,PV Cove,2,0.225,0.53,15,15,"MOSTLY_CLOUDY,NIGHT_FOG","Onshore,Onshore",2
5842041f4e65fad6a7708930,2024_12_15,34.03944902292561,-118.57539,Chart House,0,0,0.085,15,15,"MOSTLY_CLOUDY,NIGHT_CLEAR","Onshore,Offshore",2
5842041f4e65fad6a7708936,2024_12_15,34.0016731994772,-118.80456,Point Dume,2,0.1905,0.48975,14,14,"OVERCAST,NIGHT_CLEAR","Cross-shore,Offshore",2
5842041f4e65fad6a7708937,2024_12_15,34.02587527588963,-118.7554939066114,Latigo Point,1,0,0.265,15,15,"CLEAR,NIGHT_CLEAR","Onshore,Offshore",2
5842041f4e65fad6a770893f,2024_12_15,34.043762,-118.93294,Leo Carrillo,3,0.82525,1.12825,14,14,"OVERCAST,NIGHT_CLEAR","Onshore,Offshore",2
5842041f4e65fad6a7708941,2024_12_15,36.69388179265737,-121.81289,Marina State Beach,1,3.4050000000000002,4.01,13,13,"MOSTLY_CLOUDY,NIGHT_CLEAR","Onshore,Onshore",2
5842041f4e65fad6a7708944,2024_12_15,34.34145077331085,-119.416999352654,Stanley's,2.5,0.385,0.685,14,14,"RAIN,NIGHT_MIST","Offshore,Onshore",2
5842041f4e65fad6a7708945,2024_12_15,34.35113017313915,-119.426921498899,Oil Piers,2.5,0.385,0.685,14,14,"RAIN,NIGHT_MIST","Offshore,Onshore",2
5842041f4e65fad6a770894c,2024_12_15,34.17876333306018,-119.23995,Oxnard,3,0.5700000000000001,0.8700000000000001,15,15,"MIST,NIGHT_CLEAR","Offshore,Onshore",2
5842041f4e65fad6a7708957,2024_12_15,34.31720331100517,-119.3882324751725,Pitas Point,2.5,0.33999999999999997,0.64,14,14,"LIGHT_RAIN,NIGHT_MIST","Cross-shore,Onshore",2
5842041f4e65fad6a7708959,2024_12_15,34.27851754384724,-119.3162,Emma Wood,2.5,0.7,0.885,15,15,"DRIZZLE,NIGHT_CLEAR","Onshore,Cross-shore",2
5842041f4e65fad6a770895a,2024_12_15,34.35513640390276,-119.4400589884255,Mussel Shoals (aka Little Rincon),2.5,0.44,0.74,14,14,"MIST,NIGHT_MIST","Cross-shore,Onshore",2
5842041f4e65fad6a770895e,2024_12_15,34.28991757054902,-119.3366646794652,Summer Beach,2,0.2,0.505,15,15,"DRIZZLE,NIGHT_MIST","Onshore,Onshore",2
5842041f4e65fad6a770895f,2024_12_15,34.30897456105926,-119.3582501170116,Solimar,2,0.19,0.495,15,15,"LIGHT_RAIN,NIGHT_MOSTLY_CLEAR","Cross-shore,Cross-shore",2
5842041f4e65fad6a7708960,2024_12_15,34.39836265281686,-119.70213,Leadbetter Point,1,0,0.20500000000000002,14,14,"MIST,NIGHT_CLEAR","Onshore,Offshore",2
5842041f4e65fad6a7708961,2024_12_15,34.46052293893899,-120.07328,Refugio,1,0.085,0.395,14,14,"MIST,NIGHT_CLEAR","Cross-shore,Offshore",2
5842041f4e65fad6a7708962,2024_12_15,34.40754276777778,-119.87639,Devereux,2.5,0.185,0.485,14,14,"MIST,NIGHT_CLEAR","Onshore,Offshore",2
5842041f4e65fad6a7708963,2024_12_15,34.27479983305182,-119.3133222656776,Ventura Overhead,2.5,0.7150000000000001,0.905,15,15,"MIST,NIGHT_MIST","Onshore,Onshore",2
5842041f4e65fad6a7708964,2024_12_15,34.41023236011655,-119.88261,Sands,2,0.16999999999999998,0.475,14,14,"MIST,NIGHT_CLEAR","Offshore,Cross-shore",2
5842041f4e65fad6a7708966,2024_12_15,34.40450193869233,-119.68752,Sandspit,0.5,0,0.20500000000000002,14,14,"BRIEF_SHOWERS,NIGHT_CLEAR","Onshore,Offshore",2
5842041f4e65fad6a7708967,2024_12_15,34.41549098334453,-119.6375149840203,Hammond's,2,0.135,0.43999999999999995,14,14,"MOSTLY_CLOUDY,NIGHT_CLEAR","Onshore,Cross-shore",2
5842041f4e65fad6a7708968,2024_12_15,34.45759322742309,-120.02203,El Capitan,2,0.105,0.405,14,14,"BRIEF_SHOWERS,NIGHT_CLEAR","Onshore,Offshore",2
5842041f4e65fad6a770896c,2024_12_15,34.405117655616,-119.84317,Campus Point,2,0.16999999999999998,0.475,14,14,"MOSTLY_CLOUDY,NIGHT_CLEAR","Onshore,Offshore",2
5842041f4e65fad6a770896e,2024_12_15,34.38935162233354,-119.51955,Carpinteria State Beach,2,0.265,0.575,14,14,"MIST,NIGHT_MOSTLY_CLEAR","Onshore,Onshore",2
5842041f4e65fad6a770896f,2024_12_15,37.48296565175612,-122.45493,Half Moon Bay,1.5,2.5650000000000004,3.065,12,12,"CLEAR,NIGHT_CLEAR","Onshore,Cross-shore",2
5842041f4e65fad6a7708970,2024_12_15,37.499,-122.471,Princeton Jetty,2,2.465,2.9450000000000003,12,12,"CLEAR,NIGHT_MOSTLY_CLOUDY","Onshore,Offshore",2
5842041f4e65fad6a7708972,2024_12_15,37.35699547365155,-122.4069534707252,Tunitas Creek,1,4.4,5.17,12,12,"BRIEF_SHOWERS,NIGHT_MOSTLY_CLOUDY","Onshore,Offshore",2
5842041f4e65fad6a7708974,2024_12_15,37.54735589428842,-122.51611,Montara,1,3.55,4.13,12,12,"MOSTLY_CLEAR,NIGHT_MOSTLY_CLOUDY","Onshore,Onshore",2
5842041f4e65fad6a7708975,2024_12_15,34.3869373724559,-119.5142334209018,Tarpits,1.5,0.29000000000000004,0.6,14,14,"OVERCAST,NIGHT_MOSTLY_CLEAR","Cross-shore,Cross-shore",2
5842041f4e65fad6a7708976,2024_12_15,37.59881852720143,-122.50463,Linda Mar,2.25,1.405275,1.94915,12,12,"CLEAR,NIGHT_CLEAR","Onshore,Onshore",2
5842041f4e65fad6a7708978,2024_12_15,37.59883098461164,-122.5143843582282,Pedro Point,1.5,3.27,3.9050000000000002,12,12,"CLEAR,NIGHT_MOSTLY_CLEAR","Onshore,Onshore",2
5842041f4e65fad6a7708979,2024_12_15,37.61081996647663,-122.49733,Rockaway,2,3.3200000000000003,3.835,12,12,"CLEAR,NIGHT_MOSTLY_CLEAR","Onshore,Onshore",2
5842041f4e65fad6a770897a,2024_12_15,37.809987384424446,-122.47514,Fort Point,2.5,2.09,2.495,12,12,"CLEAR,NIGHT_CLEAR","Cross-shore,Cross-shore",2
5842041f4e65fad6a770897c,2024_12_15,37.63422542967464,-122.4951,Sharp Park,1.5,3.3150000000000004,3.96,12,12,"CLEAR,NIGHT_CLEAR","Onshore,Onshore",2
5842041f4e65fad6a770897d,2024_12_15,37.27313605072472,-122.4127387912554,Pescadero,1,4.07,4.865,12,12,"CLEAR,NIGHT_MOSTLY_CLOUDY","Onshore,Cross-shore",2
5842041f4e65fad6a770897e,2024_12_15,37.18140279972666,-122.3926685899327,Pigeon Point,2,4.095,4.835,12,12,"MOSTLY_CLOUDY,NIGHT_MOSTLY_CLOUDY","Cross-shore,Offshore",2
5842041f4e65fad6a770897f,2024_12_15,37.11578956919415,-122.314699271291,Ano Nuevo,3,3.23,3.8600000000000003,12,12,"MOSTLY_CLOUDY,NIGHT_MOSTLY_CLOUDY","Offshore,Offshore",2
5842041f4e65fad6a7708980,2024_12_15,37.09520872681598,-122.2805474707768,Waddell Creek,2,3.49,4.155,12,12,"MOSTLY_CLOUDY,NIGHT_CLEAR","Cross-shore,Offshore",2
5842041f4e65fad6a7708981,2024_12_15,36.96512852130351,-122.1252825495626,Four Mile,3,3.44,4.0649999999999995,12,12,"CLEAR,NIGHT_CLEAR","Cross-shore,Offshore",2
5842041f4e65fad6a7708982,2024_12_15,37.04122807048655,-122.23337,Scott Creek,2,3.135,3.75,12,12,"MOSTLY_CLOUDY,NIGHT_CLEAR","Cross-shore,Offshore",2
5842041f4e65fad6a7708983,2024_12_15,37.02350229387179,-122.21908,Davenport,2.5,3.51,4.19,12,12,"MOSTLY_CLOUDY,NIGHT_CLEAR","Cross-shore,Offshore",2
5842041f4e65fad6a7708986,2024_12_15,36.94905295955728,-122.06118,Natural Bridges,2.5,3.26,3.9000000000000004,13,13,"MOSTLY_CLOUDY,NIGHT_CLEAR","Cross-shore,Offshore",2
5842041f4e65fad6a7708987,2024_12_15,36.95154854910425,-122.04207,Mitchell's Cove,3,2.29,2.74,13,13,"CLEAR,NIGHT_CLEAR","Cross-shore,Offshore",2
5842041f4e65fad6a770898a,2024_12_15,36.9572312370203,-121.98177,26th Ave,2,2.675,3.195,13,13,"MOSTLY_CLOUDY,NIGHT_CLEAR","Onshore,Offshore",2
5842041f4e65fad6a770898e,2024_12_15,36.91899972819882,-121.85536,Manresa,1.5,3.2350000000000003,3.67,13,13,"CLEAR,NIGHT_CLEAR","Onshore,Offshore",2
5842041f4e65fad6a7708990,2024_12_15,34.45747731928454,-120.34242,The Ranch,3,0.81,1.065,14,14,"BRIEF_SHOWERS,NIGHT_CLEAR","Offshore,Offshore",2
5842041f4e65fad6a7708991,2024_12_15,34.50875036590315,-120.50348,Jalama,3,1.78,2.1100000000000003,14,14,"CLEAR,NIGHT_CLEAR","Offshore,Offshore",2
5842041f4e65fad6a7708996,2024_12_15,34.68700870220497,-120.6111611019887,Surf Beach,2,4.095,4.83,14,14,"MOSTLY_CLOUDY,NIGHT_MOSTLY_CLEAR","Onshore,Cross-shore",2
5842041f4e65fad6a770899c,2024_12_15,35.5730538161116,-121.1143362345574,Moonstone,2.5,3.3150000000000004,3.87,13,13,"MOSTLY_CLEAR,NIGHT_CLEAR","Onshore,Offshore",2
5842041f4e65fad6a770899d,2024_12_15,35.61533716776573,-121.1502053073914,Pico Creek,2.5,2.795,3.3049999999999997,13,13,"CLEAR,NIGHT_CLEAR","Onshore,Offshore",2
5842041f4e65fad6a770899e,2024_12_15,35.56829031927379,-121.11207,Santa Rosa Creek,2.5,3.3150000000000004,3.87,13,13,"MOSTLY_CLEAR,NIGHT_CLEAR","Cross-shore,Offshore",2
5842041f4e65fad6a77089a2,2024_12_15,35.44820114936284,-120.90715,"Cayucos Pier, Southside",3,1.031995,1.3303449999999999,14,14,"MOSTLY_CLEAR,NIGHT_CLEAR","Cross-shore,Offshore",2
5842041f4e65fad6a77089a4,2024_12_15,35.30143372628852,-120.877819239902,Cable Landing,1.5,4.63,5.385,14,14,"MOSTLY_CLOUDY,NIGHT_CLEAR","Onshore,Onshore",2
5842041f4e65fad6a77089a9,2024_12_15,35.61269103500222,-121.14807,San Simeon,2.5,1.862,2.2015000000000002,13,13,"MOSTLY_CLEAR,NIGHT_CLEAR","Cross-shore,Offshore",2
5842041f4e65fad6a77089ab,2024_12_15,35.1775325966252,-120.73411,Avila Beach,2,0.155,0.45999999999999996,14,14,"CLEAR,NIGHT_CLEAR","Cross-shore,Offshore",2
5842041f4e65fad6a77089ac,2024_12_15,35.13877877884115,-120.64535,Pismo Beach Pier,2.5,1.55108,2.11458,12,12,"MOSTLY_CLOUDY,NIGHT_CLEAR","Onshore,Cross-shore",2
5842041f4e65fad6a77089ad,2024_12_15,46.8907710233147,-124.12964,Westport/Olympic Peninsula,0.5,4.66,5.335,10,10,"CLEAR,NIGHT_BRIEF_SHOWERS","Onshore,Onshore",2
5842041f4e65fad6a77089ae,2024_12_15,46.35185177248545,-124.06747,Long Beach Peninsula,0,5.949999999999999,6.925,10,10,"CLEAR,NIGHT_MOSTLY_CLOUDY","Onshore,Onshore",2
5842041f4e65fad6a77089af,2024_12_15,47.90649175554033,-124.63709,La Push,0,5.355,6.27,10,10,"CLOUDY,NIGHT_MOSTLY_CLOUDY","Onshore,Onshore",2
5842041f4e65fad6a77089b0,2024_12_15,42.04368239985442,-124.26828,Brookings Jetty,2.5,2.543985,2.98554,11,11,"CLEAR,NIGHT_FOG","Cross-shore,Onshore",2
5842041f4e65fad6a77089b1,2024_12_15,42.74071837900346,-124.4983727491047,Port Orford,2.5,3.08,3.68,11,11,"BRIEF_SHOWERS,NIGHT_DRIZZLE","Offshore,Onshore",2
5842041f4e65fad6a77089b2,2024_12_15,44.01532689312291,-124.13865,Florence South Jetty,1,5.38,6.255000000000001,11,11,"MOSTLY_CLOUDY,NIGHT_CLEAR","Onshore,Onshore",2
5842041f4e65fad6a77089b3,2024_12_15,42.41812540774362,-124.42945,Gold Beach South Jetty,2.5,4.21,4.9350000000000005,11,11,"SHOWERS,NIGHT_MOSTLY_CLOUDY","Cross-shore,Onshore",2
5842041f4e65fad6a77089b4,2024_12_15,44.95857310226525,-124.0219,Lincoln City,1,5.475,6.365,11,11,"CLEAR,NIGHT_LIGHT_SHOWERS_POSSIBLE","Onshore,Onshore",2
5842041f4e65fad6a77089b5,2024_12_15,44.63792761362982,-124.0657,Newport,2,5.755,6.6899999999999995,11,11,"CLOUDY,NIGHT_CLEAR","Onshore,Cross-shore",2
5842041f4e65fad6a77089b6,2024_12_15,45.61468496266301,-123.94643,Rockaway Beach,1,5.755,6.695,11,11,"MOSTLY_CLOUDY,NIGHT_MOSTLY_CLOUDY","Onshore,Onshore",2
5842041f4e65fad6a77089b7,2024_12_15,45.20252914186085,-123.96975,Pacific City,1,5.05,5.87,11,11,"MOSTLY_CLOUDY,NIGHT_MOSTLY_CLOUDY","Onshore,Onshore",2
5842041f4e65fad6a77089b8,2024_12_15,45.88179930310263,-123.96681,Cannon Beach,1,5.8,6.74,10,10,"MOSTLY_CLOUDY,NIGHT_CLEAR","Onshore,Onshore",2
5842041f4e65fad6a77089ba,2024_12_15,40.02528754746774,-124.06372,Shelter Cove,3,1.24747,1.491795,12,12,"SHOWERS,NIGHT_BRIEF_SHOWERS","Offshore,Offshore",2
5842041f4e65fad6a77089bb,2024_12_15,40.76816197136951,-124.24248,Humboldt Harbor Entrance,2.5,4.595000000000001,5.49,12,12,"CLEAR,NIGHT_MOSTLY_CLEAR","Onshore,Offshore",2
5842041f4e65fad6a77089bc,2024_12_15,40.76684246920174,-124.23107,North Jetty,2,5.705,6.645,12,12,"MOSTLY_CLOUDY,NIGHT_CLEAR","Onshore,Offshore",2
5842041f4e65fad6a77089be,2024_12_15,41.13016238153297,-124.16466,Sue-meg,2,4.695,5.555,11,11,"MOSTLY_CLOUDY,NIGHT_CLEAR","Onshore,Onshore",2
5842041f4e65fad6a77089bf,2024_12_15,37.8289474958188,-122.53768,Fort Cronkite/Rodeo Beach,1,3.4699999999999998,4.145,12,12,"CLEAR,NIGHT_CLEAR","Cross-shore,Cross-shore",2
5842041f4e65fad6a77089c0,2024_12_15,41.74415759876137,-124.17717,South Beach CA,3,2.42,2.8949999999999996,11,11,"BRIEF_SHOWERS,NIGHT_CLEAR","Cross-shore,Onshore",2
5842041f4e65fad6a77089c1,2024_12_15,37.89801283969752,-122.64519,Stinson Beach,4,1.51,1.8050000000000002,12,12,"MIST,NIGHT_MIST","Offshore,Offshore",2
5842041f4e65fad6a77089c2,2024_12_15,37.90514516176495,-122.68151,Bolinas,4,1.3015599999999998,1.5539550000000002,12,12,"MOSTLY_CLEAR,NIGHT_CLEAR","Offshore,Offshore",2
5842041f4e65fad6a77089c3,2024_12_15,38.04892513158693,-122.98925,Point Reyes (north),0.5,4.720000000000001,5.494999999999999,12,12,"CLEAR,NIGHT_CLEAR","Onshore,Onshore",2
5842041f4e65fad6a77089c6,2024_12_15,38.31088736605785,-123.0496777333731,Doran Beach,2.5,1.005,1.25,13,13,"MOSTLY_CLEAR,NIGHT_MOSTLY_CLEAR","Offshore,Offshore",2
5842041f4e65fad6a77089c7,2024_12_15,38.45077228660809,-123.13008,Russian Rivermouth,2.5,3.49,4.17,13,13,"MOSTLY_CLEAR,NIGHT_CLEAR","Onshore,Offshore",2
5842041f4e65fad6a77089c8,2024_12_15,38.35329968518107,-123.06906,Salmon Creek,1,3.605,4.305,13,13,"BRIEF_SHOWERS_POSSIBLE,NIGHT_CLEAR","Onshore,Cross-shore",2
5842041f4e65fad6a77089c9,2024_12_15,38.6845180197959,-123.4322714291198,Black Point Beach,1.5,2.365,2.83,13,13,"CLEAR,NIGHT_CLEAR","Onshore,Onshore",2
5842041f4e65fad6a77089ca,2024_12_15,43.251076,-70.59144,Ogunquit,2,0.22125,0.52805,8,7,"NIGHT_CLEAR,NIGHT_CLEAR","Offshore,Cross-shore",2
5842041f4e65fad6a77089cb,2024_12_15,41.362631366305415,-71.48007,Point Judith,0.8333333333333333,0.14083500000000002,0.449635,9,8,"NIGHT_CLEAR,NIGHT_CLEAR","Offshore,Cross-shore",2
5842041f4e65fad6a77089cd,2024_12_15,41.422678090954726,-71.45413,Monahan's - Narragansett,1,0.024485,0.3232,9,9,"NIGHT_CLEAR,NIGHT_CLEAR","Cross-shore,Cross-shore",2
5842041f4e65fad6a77089ce,2024_12_15,41.469,-71.293,Ruggles - Newport,2,0.06868,0.41207,9,9,"NIGHT_CLEAR,NIGHT_CLEAR","Offshore,Offshore",2
5842041f4e65fad6a77089cf,2024_12_15,43.175394,-70.606351,Short Sands Beach,2,0.26,0.5700000000000001,8,8,"NIGHT_CLEAR,NIGHT_CLEAR","Offshore,Cross-shore",2
5842041f4e65fad6a77089d0,2024_12_15,41.487408,-71.29017,First Beach,2,0.1,0.405,9,9,"NIGHT_CLEAR,NIGHT_CLEAR","Offshore,Offshore",2
5842041f4e65fad6a77089d1,2024_12_15,42.27916830233153,-70.86498,Nantasket Beach,1,0,0.26597000000000004,9,8,"NIGHT_CLEAR,NIGHT_CLEAR","Onshore,Onshore",2
5842041f4e65fad6a77089d2,2024_12_15,41.817,-69.935,Cape Cod,1,0.29,0.59,9,9,"NIGHT_MOSTLY_CLOUDY,NIGHT_MOSTLY_CLOUDY","Cross-shore,Cross-shore",2
5842041f4e65fad6a77089d3,2024_12_15,42.22055448975661,-70.70634873403819,Egypt Beach,1,0,0.28,8,8,"NIGHT_CLEAR,NIGHT_CLEAR","Cross-shore,Cross-shore",2
5842041f4e65fad6a77089d4,2024_12_15,41.48739647744607,-71.25723,Second Beach,1,0.03166,0.29347,9,8,"NIGHT_CLEAR,NIGHT_CLEAR","Offshore,Offshore",2
5842041f4e65fad6a77089d5,2024_12_15,42.964,-70.769,Fox Hill,2,0.175,0.4818,8,7,"NIGHT_CLEAR,NIGHT_CLEAR","Offshore,Offshore",2
5842041f4e65fad6a77089d6,2024_12_15,42.991359,-70.75149,Straws Point,2,0.13375,0.442635,8,7,"NIGHT_CLEAR,NIGHT_CLEAR","Offshore,Offshore",2
5842041f4e65fad6a77089d7,2024_12_15,42.946,-70.786,Plaice Cove,2,0.175,0.4818,8,7,"NIGHT_CLEAR,NIGHT_CLEAR","Offshore,Offshore",2
5842041f4e65fad6a77089d9,2024_12_15,42.911574,-70.80831,The Main Beach,1.4166666666666665,0.12906,0.44476499999999997,8,7,"NIGHT_CLEAR,NIGHT_CLEAR","Offshore,Offshore",2
5842041f4e65fad6a77089da,2024_12_15,42.97583846220203,-70.764,Sawyer's Beach,2,0.165,0.4668,8,7,"NIGHT_CLEAR,NIGHT_CLEAR","Offshore,Offshore",2
5842041f4e65fad6a77089db,2024_12_15,42.97,-70.77,Rye on the Rocks / 5-0's,1.4166666666666665,0.140365,0.47123499999999996,8,7,"NIGHT_CLEAR,NIGHT_CLEAR","Offshore,Offshore",2
5842041f4e65fad6a77089dc,2024_12_15,43.55902946610303,-70.27795,Higgins Beach,2,0.317135,0.61832,8,7,"NIGHT_CLEAR,NIGHT_CLEAR","Offshore,Offshore",2
5842041f4e65fad6a77089dd,2024_12_15,43.302676,-70.5652,Wells Beach,2,0.21875,0.5218,8,7,"NIGHT_CLEAR,NIGHT_CLEAR","Offshore,Cross-shore",2
5842041f4e65fad6a77089de,2024_12_15,43.545359,-70.30479,Scarborough Beach State Park,2,0.15815,0.50195,8,7,"NIGHT_CLEAR,NIGHT_CLEAR","Offshore,Offshore",2
5842041f4e65fad6a77089df,2024_12_15,43.514481,-70.37215,Old Orchard Beach,1.4166666666666665,0.14386,0.44257,8,7,"NIGHT_CLEAR,NIGHT_CLEAR","Offshore,Offshore",2
5842041f4e65fad6a77089e0,2024_12_15,43.34711,-70.48165,Gooch's Beach,2,0.18,0.47805,8,7,"NIGHT_CLEAR,NIGHT_CLEAR","Offshore,Offshore",2
5842041f4e65fad6a77089e2,2024_12_15,40.58433,-73.62953,Lido Beach,0.41666666666666663,0.091585,0.401385,9,8,"NIGHT_CLEAR,NIGHT_CLEAR","Offshore,Offshore",2
5842041f4e65fad6a77089e3,2024_12_15,43.163135,-70.61689,Long Sands Beach,1.4166666666666665,0.125275,0.42633,8,7,"NIGHT_CLEAR,NIGHT_CLEAR","Offshore,Offshore",2
5842041f4e65fad6a77089e4,2024_12_15,40.61695351251805,-73.39376,Gilgo Beach,2,0.053750000000000006,0.35555,9,8,"NIGHT_CLEAR,NIGHT_CLEAR","Offshore,Cross-shore",2
5842041f4e65fad6a77089e5,2024_12_15,40.62530081928036,-73.23827,Robert Moses,1,0.11000000000000001,0.41000000000000003,10,10,"NIGHT_CLEAR,NIGHT_CLEAR","Offshore,Offshore",2
5842041f4e65fad6a77089e6,2024_12_15,40.64313317632791,-73.15727,Fire Island,1,0.1,0.405,9,9,"NIGHT_CLEAR,NIGHT_CLEAR","Offshore,Offshore",2
5842041f4e65fad6a77089e8,2024_12_15,40.76653118828782,-72.7458,Cupsogue,2,0.365,0.6699999999999999,9,9,"NIGHT_CLEAR,NIGHT_CLEAR","Offshore,Offshore",2
5842041f4e65fad6a77089e9,2024_12_15,42.9376373334092,-70.79141,The Wall,1.4166666666666665,0.26195,0.5790649999999999,8,7,"NIGHT_CLEAR,NIGHT_CLEAR","Offshore,Cross-shore",2
5842041f4e65fad6a77089ea,2024_12_15,40.887088,-72.33856,Flys,2,0.3,0.605,10,10,"NIGHT_CLEAR,NIGHT_CLEAR","Offshore,Offshore",2
5842041f4e65fad6a77089eb,2024_12_15,41.0389266436591,-71.91068529316958,Trailer Park,0.41666666666666663,0.07716,0.400255,9,8,"NIGHT_CLEAR,NIGHT_CLEAR","Offshore,Offshore",2
5842041f4e65fad6a77089ec,2024_12_15,41.039505402729105,-71.9142,Ditch Plains,1,0.22436,0.5665,10,10,"NIGHT_CLEAR,NIGHT_CLEAR","Offshore,Cross-shore",2
5842041f4e65fad6a77089ee,2024_12_15,40.57633275206492,-73.56895305108567,"West End, Jones Beach",1.5,0.1175,0.4243,9,8,"NIGHT_CLEAR,NIGHT_CLEAR","Offshore,Offshore",2
5842041f4e65fad6a77089f1,2024_12_15,41.038286691230795,-71.91991567611694,Poles,0.41666666666666663,0.084385,0.410355,9,8,"NIGHT_CLEAR,NIGHT_CLEAR","Offshore,Offshore",2
5842041f4e65fad6a77089f3,2024_12_15,40.84077769766295,-72.47989493724765,The Bowl,2,0.33999999999999997,0.645,9,9,"NIGHT_CLEAR,NIGHT_CLEAR","Offshore,Offshore",2
5842041f4e65fad6a77089f4,2024_12_15,40.94235535243154,-72.19286,Main Beach,2.5,0.34304999999999997,0.64985,15,14,"NIGHT_CLEAR,NIGHT_CLEAR","Offshore,Offshore",2
5842041f4e65fad6a77089f5,2024_12_15,40.58270702399518,-73.67251552079799,Laurelton Blvd.,0.41666666666666663,0.20631,0.51111,9,8,"NIGHT_CLEAR,NIGHT_CLEAR","Offshore,Offshore",2
5842041f4e65fad6a77089f6,2024_12_15,41.033752854071416,-71.93696,Terrace,0.8333333333333333,0.264515,0.59104,9,8,"NIGHT_CLEAR,NIGHT_CLEAR","Offshore,Offshore",2
5842041f4e65fad6a77089f7,2024_12_15,40.83372943645748,-72.50426173210144,K Road,2.5,0.42500000000000004,0.7250000000000001,9,9,"NIGHT_CLEAR,NIGHT_CLEAR","Offshore,Offshore",2
5842041f4e65fad6a77089f8,2024_12_15,40.58456099581507,-73.80730032920837,84th Street,0.41666666666666663,0.067,0.369715,9,8,"NIGHT_CLEAR,NIGHT_CLEAR","Offshore,Offshore",2
5842041f4e65fad6a77089fa,2024_12_15,40.1319,-74.02788,Sea Girt,2,0.22249999999999998,0.52555,9,8,"NIGHT_CLEAR,NIGHT_CLEAR","Cross-shore,Onshore",2
5842041f4e65fad6a77089fb,2024_12_15,40.54698301868125,-73.9268,Breezy Point,2,0.115,0.41500000000000004,10,10,"NIGHT_CLEAR,NIGHT_CLEAR","Offshore,Offshore",2
5842041f4e65fad6a77089fc,2024_12_15,40.152504,-74.02138,Spring Lake,1.5,0.21125,0.51305,9,8,"NIGHT_CLEAR,NIGHT_CLEAR","Offshore,Onshore",2
5842041f4e65fad6a77089fd,2024_12_15,40.591277,-73.770792,30th - 39th Streets,2,0.10125,0.407215,9,8,"NIGHT_MIST,NIGHT_CLEAR","Offshore,Offshore",2
5842041f4e65fad6a77089fe,2024_12_15,40.18834955871439,-74.00860982500222,Avon,1.5,0.21250000000000002,0.51555,9,8,"NIGHT_CLEAR,NIGHT_CLEAR","Offshore,Onshore",2
5842041f4e65fad6a77089ff,2024_12_15,40.1974229100932,-74.00650533798255,Bradley Beach,1.5,0.151665,0.45555,9,8,"NIGHT_CLEAR,NIGHT_CLEAR","Offshore,Onshore",2
5842041f4e65fad6a7708a01,2024_12_15,40.17202,-74.01503,"16th Ave., Belmar",0,0.180115,0.485505,9,8,"NIGHT_CLEAR,NIGHT_CLEAR","Offshore,Onshore",2
5842041f4e65fad6a7708a02,2024_12_15,40.217443,-73.99982,Asbury Park,1,0.18625,0.49805,9,8,"NIGHT_CLEAR,NIGHT_CLEAR","Offshore,Onshore",2
5842041f4e65fad6a7708a03,2024_12_15,40.229841,-73.99678,Loch Arbour and Deal,1,0.20625000000000002,0.50805,9,8,"NIGHT_CLEAR,NIGHT_CLEAR","Cross-shore,Onshore",2
5842041f4e65fad6a7708a05,2024_12_15,40.41754,-73.97935,Sandy Hook,1,0.015,0.32,10,10,"NIGHT_CLEAR,NIGHT_CLEAR","Cross-shore,Onshore",2
5842041f4e65fad6a7708a06,2024_12_15,39.36353,-74.40873,Crystals,1,0.16084500000000002,0.49370000000000003,13,13,"NIGHT_CLEAR,NIGHT_CLEAR","Offshore,Cross-shore",2
5842041f4e65fad6a7708a07,2024_12_15,39.31443,-74.51863,32nd Street,1,0.06476,0.38269,8,7,"NIGHT_CLEAR,NIGHT_MOSTLY_CLOUDY","Offshore,Cross-shore",2
5842041f4e65fad6a7708a08,2024_12_15,39.327688,-74.49524,Margate Pier Northside,1,0.06476,0.38269,8,7,"NIGHT_CLEAR,NIGHT_MOSTLY_CLOUDY","Offshore,Cross-shore",2
5842041f4e65fad6a7708a09,2024_12_15,39.336276,-74.47782,Ventnor Pier,1,0.167075,0.509665,13,13,"NIGHT_CLEAR,NIGHT_MOSTLY_CLOUDY","Offshore,Cross-shore",2
5842041f4e65fad6a7708a0a,2024_12_15,39.35929751441085,-74.41683,States Avenue,1,0.173145,0.500325,13,13,"NIGHT_CLEAR,NIGHT_MOSTLY_CLOUDY","Offshore,Cross-shore",2
5842041f4e65fad6a7708a0b,2024_12_15,39.37274173278517,-74.40454,Brigantine Jetty,1,0.135015,0.46168000000000003,13,13,"NIGHT_CLEAR,NIGHT_MOSTLY_CLOUDY","Offshore,Cross-shore",2
5842041f4e65fad6a7708a0c,2024_12_15,39.356505,-74.42263,South Carolina Avenue,1,0.12845499999999999,0.455115,13,13,"NIGHT_CLEAR,NIGHT_CLEAR","Offshore,Cross-shore",2
5842041f4e65fad6a7708a0d,2024_12_15,39.413485,-74.35476,14th Street North,2,0.32917,0.632215,13,13,"NIGHT_CLEAR,NIGHT_CLEAR","Cross-shore,Offshore",2
5842041f4e65fad6a7708a0e,2024_12_15,39.531319,-74.263252,The Wooden Jetty,0,0.09001,0.39481,11,11,"NIGHT_MOSTLY_CLEAR,NIGHT_CLOUDY","Cross-shore,Cross-shore",2
5842041f4e65fad6a7708a0f,2024_12_15,39.552472,-74.24344,Holyoke,0,0.09442,0.40158000000000005,11,11,"NIGHT_MOSTLY_CLEAR,NIGHT_MOSTLY_CLOUDY","Cross-shore,Cross-shore",2
5842041f4e65fad6a7708a10,2024_12_15,39.692364,-74.14068,Hudson Ave.,0,0.062835,0.39471500000000004,8,7,"NIGHT_CLEAR,NIGHT_CLEAR","Cross-shore,Cross-shore",2
5842041f4e65fad6a7708a11,2024_12_15,39.79614,-74.09248,Island Beach State Park,1,0.21666999999999997,0.52055,14,13,"NIGHT_CLEAR,NIGHT_CLOUDY","Cross-shore,Onshore",2
5842041f4e65fad6a7708a12,2024_12_15,39.91813588078152,-74.07527,Seaside Park,1.5,0.361805,0.67057,14,13,"NIGHT_CLEAR,NIGHT_CLEAR","Onshore,Cross-shore",2
5842041f4e65fad6a7708a15,2024_12_15,39.95745637606704,-74.06736,Ortley Beach,1,0.34989,0.650845,9,8,"NIGHT_CLEAR,NIGHT_CLEAR","Cross-shore,Onshore",2
5842041f4e65fad6a7708a16,2024_12_15,39.98313468342945,-74.06265685577506,Lavallette,1,0.20500000000000002,0.5067999999999999,9,8,"NIGHT_CLEAR,NIGHT_CLEAR","Cross-shore,Onshore",2
5842041f4e65fad6a7708a17,2024_12_15,40.0699319967757,-74.04145,Bay Head,1,0.19,0.49805,9,8,"NIGHT_CLEAR,NIGHT_CLEAR","Cross-shore,Onshore",2
5842041f4e65fad6a7708a18,2024_12_15,40.094041,-74.034859,Jenkinson's,1,0.20625,0.51305,9,8,"NIGHT_CLEAR,NIGHT_CLEAR","Offshore,Onshore",2
5842041f4e65fad6a7708a1a,2024_12_15,38.148058,-75.17704,Assateague,1,0.432085,0.730135,8,7,"NIGHT_CLOUDY,NIGHT_CLOUDY","Cross-shore,Onshore",2
5842041f4e65fad6a7708a1b,2024_12_15,38.33889038664497,-75.08017670566352,North End to Ocean City Inlet,1,0.42125,0.7293000000000001,8,7,"NIGHT_CLOUDY,NIGHT_CLOUDY","Onshore,Onshore",2
5842041f4e65fad6a7708a1c,2024_12_15,38.603993,-75.06271,Indian River Inlet,1,0.46789000000000003,0.82325,12,12,"NIGHT_MOSTLY_CLOUDY,NIGHT_CLOUDY","Onshore,Onshore",2
5842041f4e65fad6a7708a1d,2024_12_15,38.460477,-75.05207,Fenwick Island,1,0.33,0.63,12,12,"NIGHT_CLEAR,NIGHT_OVERCAST","Onshore,Onshore",2
5842041f4e65fad6a7708a1e,2024_12_15,38.538767,-75.05619,Bethany Beach,1,0.44101,0.79381,12,12,"NIGHT_CLOUDY,NIGHT_CLOUDY","Onshore,Onshore",2
5842041f4e65fad6a7708a1f,2024_12_15,38.697657,-75.07595,Dewey Beach,1,0.6100000000000001,0.915,12,12,"NIGHT_MOSTLY_CLOUDY,NIGHT_CLOUDY","Onshore,Onshore",2
5842041f4e65fad6a7708a20,2024_12_15,38.75034741676525,-75.08194,Gordons Pond,1,0.24605,0.641015,12,12,"NIGHT_MOSTLY_CLEAR,NIGHT_MOSTLY_CLOUDY","Onshore,Onshore",2
5842041f4e65fad6a7708a21,2024_12_15,38.767837,-75.08284,Naval Jetties,1,0.485,0.7849999999999999,12,12,"NIGHT_MOSTLY_CLEAR,NIGHT_CLEAR","Onshore,Onshore",2
5842041f4e65fad6a7708a22,2024_12_15,36.81735875786576,-75.96624,Camp Pendleton,1,0.283,0.9915849999999999,13,13,"NIGHT_OVERCAST,NIGHT_MOSTLY_CLOUDY","Onshore,Onshore",2
5842041f4e65fad6a7708a23,2024_12_15,36.9102212316428,-75.98732471466064,North End,1,0.692265,1.031735,11,11,"NIGHT_OVERCAST,NIGHT_MOSTLY_CLOUDY","Onshore,Onshore",2
5842041f4e65fad6a7708a24,2024_12_15,36.737117517621314,-75.93924,Sandbridge Beach,1,0.484715,0.7886,11,11,"NIGHT_OVERCAST,NIGHT_MOSTLY_CLOUDY","Onshore,Onshore",2
5842041f4e65fad6a7708a26,2024_12_15,36.818257440557794,-75.96666,Croatan to Pendleton,1,0.5648949999999999,0.9412349999999999,11,11,"NIGHT_OVERCAST,NIGHT_OVERCAST","Onshore,Onshore",2
5842041f4e65fad6a7708a27,2024_12_15,36.84318777204769,-75.9719,South End,1,0.4343,0.73527,11,11,"NIGHT_OVERCAST,NIGHT_MOSTLY_CLOUDY","Onshore,Onshore",2
5842041f4e65fad6a7708a28,2024_12_15,37.08612627584661,-75.976121638199,Fishermans Island,1,0.148,0.27,13,13,"NIGHT_OVERCAST,NIGHT_OVERCAST","Cross-shore,Cross-shore",2
5842041f4e65fad6a7708a38,2024_12_15,35.254619418229026,-75.52074,Cape Hatteras Lighthouse,1,1.29854,2.119305,14,14,"NIGHT_BRIEF_SHOWERS,NIGHT_MOSTLY_CLOUDY","Cross-shore,Onshore",2
5842041f4e65fad6a7708a3a,2024_12_15,35.54572934093336,-75.46477,Waves and Salvo,0,1.235115,1.5715,14,13,"NIGHT_BRIEF_SHOWERS,NIGHT_CLEAR","Cross-shore,Onshore",2
5842041f4e65fad6a7708a3b,2024_12_15,35.22565892751075,-75.63606,Frisco,1.5,1.01097,1.288935,15,14,"NIGHT_CLEAR,NIGHT_MOSTLY_CLOUDY","Offshore,Offshore",2
5842041f4e65fad6a7708a3c,2024_12_15,35.13086,-75.90591,Ocracoke,0,1.208185,1.52055,18,18,"NIGHT_BRIEF_SHOWERS,NIGHT_CLEAR","Cross-shore,Cross-shore",2
5842041f4e65fad6a7708a3d,2024_12_15,35.34721340158342,-75.50084,Avon Pier,0,1.2927,1.971635,14,14,"NIGHT_MOSTLY_CLOUDY,NIGHT_CLEAR","Cross-shore,Onshore",2
5842041f4e65fad6a7708a3f,2024_12_15,35.71680821253768,-75.49243,Pea Island,0.5,0.7050000000000001,1.01,16,16,"NIGHT_MOSTLY_CLOUDY,NIGHT_MOSTLY_CLOUDY","Onshore,Onshore",2
5842041f4e65fad6a7708a40,2024_12_15,35.97427620657821,-75.62984,Nags Head Pier,1,0.9560649999999999,1.4470999999999998,13,12,"NIGHT_CLOUDY,NIGHT_MOSTLY_CLOUDY","Onshore,Onshore",2
5842041f4e65fad6a7708a41,2024_12_15,36.0439998039079,-75.67288,Avalon Pier,1,0.7941499999999999,1.1581,13,12,"NIGHT_OVERCAST,NIGHT_BRIEF_SHOWERS","Onshore,Onshore",2
5842041f4e65fad6a7708a42,2024_12_15,36.03043116489792,-75.66413,First Street,1,0.948565,1.4821,13,12,"NIGHT_OVERCAST,NIGHT_MOSTLY_CLOUDY","Onshore,Onshore",2
5842041f4e65fad6a7708a43,2024_12_15,36.06829910590498,-75.6899,Old Station/Laundromats,1,0.98165,1.34268,13,12,"NIGHT_OVERCAST,NIGHT_BRIEF_SHOWERS","Onshore,Onshore",2
5842041f4e65fad6a7708a44,2024_12_15,36.10126676607491,-75.71107,Kitty Hawk Pier,1,1.047735,1.451685,13,12,"NIGHT_OVERCAST,NIGHT_BRIEF_SHOWERS","Onshore,Onshore",2
5842041f4e65fad6a7708a45,2024_12_15,36.18220630068973,-75.75014,Duck Pier,0.5,0.635,0.94,14,14,"NIGHT_CLOUDY,NIGHT_MOSTLY_CLOUDY","Onshore,Onshore",2
5842041f4e65fad6a7708a46,2024_12_15,36.37660668125033,-75.8241,Corolla,0.5,0.5800000000000001,0.885,13,13,"NIGHT_CLOUDY,NIGHT_CLEAR","Onshore,Onshore",2
5842041f4e65fad6a7708a47,2024_12_15,33.90373404124834,-78.08241431707907,Oak Island,2.5,0.7949999999999999,1.0350000000000001,13,13,"NIGHT_MOSTLY_CLOUDY,NIGHT_LIGHT_RAIN","Offshore,Offshore",2
5842041f4e65fad6a7708a48,2024_12_15,33.91108837766468,-78.29653,South Brunswick Beaches,2,0.41583000000000003,0.79966,13,13,"NIGHT_CLEAR,NIGHT_MOSTLY_CLOUDY","Offshore,Offshore",2
5842041f4e65fad6a7708a49,2024_12_15,34.05683595651973,-77.88128,Carolina Beach Pier,0.5833333333333334,1.0139,1.5556649999999999,14,13,"NIGHT_MOSTLY_CLOUDY,NIGHT_OVERCAST","Cross-shore,Cross-shore",2
5842041f4e65fad6a7708a4a,2024_12_15,33.96841191816696,-77.9180242565498,Fort Fisher,0.5833333333333334,1.145985,1.6881650000000001,14,13,"NIGHT_CLEAR,NIGHT_CLOUDY","Cross-shore,Onshore",2
5842041f4e65fad6a7708a4b,2024_12_15,34.46776662988774,-77.47083,Topsail Beach,2,1.2286000000000001,1.5729000000000002,14,13,"NIGHT_MOSTLY_CLOUDY,NIGHT_CLEAR","Offshore,Offshore",2
5842041f4e65fad6a7708a4c,2024_12_15,34.69270354752445,-76.82854854446575,Iron Steamer,1.4166666666666665,0.43870499999999996,0.720565,14,13,"NIGHT_CLOUDY,NIGHT_MOSTLY_CLOUDY","Offshore,Offshore",2
5842041f4e65fad6a7708a4f,2024_12_15,30.85132684893727,-81.42283496231143,Cumberland Island,0,1.87,2.21,16,16,"NIGHT_CLEAR,NIGHT_BRIEF_SHOWERS","Cross-shore,Cross-shore",2
5842041f4e65fad6a7708a50,2024_12_15,34.686741128540874,-76.47516712138378,Cape Lookout National Seashore,0,1.81,2.16,16,16,"NIGHT_MOSTLY_CLOUDY,NIGHT_MOSTLY_CLOUDY","Cross-shore,Cross-shore",2
5842041f4e65fad6a7708a51,2024_12_15,31.10585419260024,-81.40422767604812,Jekyll Island,0,1.23,1.5,15,15,"NIGHT_MIST,NIGHT_LIGHT_RAIN","Onshore,Onshore",2
5842041f4e65fad6a7708a52,2024_12_15,31.16212806376699,-81.32512426500224,Harbor Marker Buoys,0,1.665,1.9649999999999999,15,15,"NIGHT_MIST,NIGHT_CLEAR","Cross-shore,Cross-shore",2
5842041f4e65fad6a7708a53,2024_12_15,31.20076299997009,-81.32629,Sea Island,0.5,1.595,1.9,15,15,"NIGHT_MIST,NIGHT_DRIZZLE","Cross-shore,Cross-shore",2
5842041f4e65fad6a7708a54,2024_12_15,31.13553222995767,-81.38457634790909,St. Simons Island,2,1.425,1.6949999999999998,15,15,"NIGHT_BRIEF_SHOWERS,NIGHT_LIGHT_RAIN","Offshore,Offshore",2
5842041f4e65fad6a7708a55,2024_12_15,31.33550077186516,-81.28383377408417,Wolf Island,1,1.355,1.655,14,14,"NIGHT_MOSTLY_CLOUDY,NIGHT_CLOUDY","Cross-shore,Onshore",2
5842041f4e65fad6a7708a56,2024_12_15,31.2704493877174,-81.27324039152315,Little St. Simons Island,0.5,1.62,1.93,15,15,"NIGHT_BRIEF_SHOWERS,NIGHT_CLOUDY","Onshore,Onshore",2
5842041f4e65fad6a7708a57,2024_12_15,31.39261761368919,-81.26190520231917,Sapelo Island,1,1.32,1.625,14,14,"NIGHT_BRIEF_SHOWERS,NIGHT_DRIZZLE","Cross-shore,Cross-shore",2
5842041f4e65fad6a7708a58,2024_12_15,34.42458783809001,-77.54492,Surf City Pier,2,1.2765149999999998,1.573315,14,13,"NIGHT_MOSTLY_CLOUDY,NIGHT_CLEAR","Offshore,Cross-shore",2
5842041f4e65fad6a7708a59,2024_12_15,31.4231993614213,-81.24725340591522,Cabretta Island,2,1.77,2.0100000000000002,14,14,"NIGHT_MOSTLY_CLOUDY,NIGHT_MOSTLY_CLOUDY","Cross-shore,Cross-shore",2
5842041f4e65fad6a7708a5a,2024_12_15,31.46684389030369,-81.2100056410468,Blackbeard Island,0.5,1.32,1.625,15,15,"NIGHT_CLEAR,NIGHT_OVERCAST","Cross-shore,Cross-shore",2
5842041f4e65fad6a7708a5b,2024_12_15,31.85953587631629,-80.99031310336719,Wassaw Island/South End,0,0.675,0.98,15,15,"NIGHT_MOSTLY_CLOUDY,NIGHT_CLOUDY","Cross-shore,Cross-shore",2
5842041f4e65fad6a7708a5c,2024_12_15,31.62535662342983,-81.13328352167974,St. Catherines Island,0.5,1.755,2.0700000000000003,14,14,"NIGHT_MOSTLY_CLOUDY,NIGHT_MOSTLY_CLOUDY","Cross-shore,Onshore",2
5842041f4e65fad6a7708a5d,2024_12_15,31.76502169596568,-81.07655443806622,Ossabaw Island,0,1.26,1.525,14,14,"NIGHT_MOSTLY_CLOUDY,NIGHT_OVERCAST","Cross-shore,Cross-shore",2
5842041f4e65fad6a7708a5e,2024_12_15,31.90593619092352,-80.93589231700857,Wassaw Island/North End,0,1.88,2.05,15,15,"NIGHT_MOSTLY_CLEAR,NIGHT_CLOUDY","Cross-shore,Cross-shore",2
5842041f4e65fad6a7708a5f,2024_12_15,31.96738675414547,-80.86977980706155,Little Tybee Island,0,1.685,1.9849999999999999,15,15,"NIGHT_MOSTLY_CLEAR,NIGHT_MOSTLY_CLOUDY","Cross-shore,Cross-shore",2
5842041f4e65fad6a7708a60,2024_12_15,31.9812255780179,-80.84773973467009,South Tybee Sandbars,0,1.3450000000000002,1.6099999999999999,15,15,"NIGHT_MOSTLY_CLEAR,NIGHT_MOSTLY_CLOUDY","Onshore,Onshore",2
5842041f4e65fad6a7708a61,2024_12_15,32.01226,-80.83983,Sugar Shack,0,0.97,1.28,15,15,"NIGHT_CLEAR,NIGHT_MOSTLY_CLOUDY","Onshore,Onshore",2
5842041f4e65fad6a7708a62,2024_12_15,31.98722842396969,-80.84773,18th St. Jetty,0,1.57191,1.87878,15,15,"NIGHT_MOSTLY_CLEAR,NIGHT_MOSTLY_CLOUDY","Onshore,Onshore",2
5842041f4e65fad6a7708a64,2024_12_15,34.013473721006676,-77.8991,"Alabama Ave., Kure Beach",1,1.335,1.6099999999999999,13,13,"NIGHT_MOSTLY_CLOUDY,NIGHT_DRIZZLE","Onshore,Onshore",2
5842041f4e65fad6a7708a65,2024_12_15,34.20859853336924,-77.79293,"C Street, Wrightsville Beach",1,1.2417,1.615415,14,13,"NIGHT_CLOUDY,NIGHT_MOSTLY_CLOUDY","Cross-shore,Cross-shore",2
5842041f4e65fad6a7708a66,2024_12_15,32.831,-79.71,Dewees Island,2,1.435,1.615,14,14,"NIGHT_CLEAR,NIGHT_MOSTLY_CLOUDY","Onshore,Onshore",2
5842041f4e65fad6a7708a67,2024_12_15,33.82924423172106,-78.62813,Cherry Grove Pier,1.4166666666666665,0.791435,1.186885,13,13,"NIGHT_CLEAR,NIGHT_CLEAR","Offshore,Offshore",2
5842041f4e65fad6a7708a69,2024_12_15,34.27197439666496,-77.74050223196774,Figure Eight and Shell Islands,1.3333333333333333,1.257115,1.620415,14,13,"NIGHT_MOSTLY_CLOUDY,NIGHT_MOSTLY_CLEAR","Offshore,Cross-shore",2
5842041f4e65fad6a7708a6b,2024_12_15,33.49041958261793,-79.07666070599386,North End,1,0.9550000000000001,1.195,13,13,"NIGHT_BRIEF_SHOWERS,NIGHT_MOSTLY_CLEAR","Cross-shore,Cross-shore",2
5842041f4e65fad6a7708a6c,2024_12_15,33.39537062495087,-79.13835037835189,The South End,0,1.06,1.28,13,13,"NIGHT_MOSTLY_CLOUDY,NIGHT_CLEAR","Cross-shore,Cross-shore",2
5842041f4e65fad6a7708a6d,2024_12_15,33.29001727666697,-79.17190003352977,North Island,0,1.5,1.7799999999999998,13,13,"NIGHT_MOSTLY_CLOUDY,NIGHT_OVERCAST","Onshore,Onshore",2
5842041f4e65fad6a7708a6e,2024_12_15,32.90929771158952,-79.57810400297359,Bull Island,0,1.445,1.635,14,14,"NIGHT_MOSTLY_CLOUDY,NIGHT_CLEAR","Cross-shore,Cross-shore",2
5842041f4e65fad6a7708a6f,2024_12_15,31.99153112815895,-80.84543050470074,Tybee Island Pier,0,0.845,1.06,15,15,"NIGHT_CLEAR,NIGHT_MOSTLY_CLOUDY","Onshore,Onshore",2
5842041f4e65fad6a7708a70,2024_12_15,33.03478144356316,-79.35021028265125,Cape Romain,0,1.62,1.935,13,13,"NIGHT_MOSTLY_CLOUDY,NIGHT_MOSTLY_CLOUDY","Cross-shore,Cross-shore",2
5842041f4e65fad6a7708a71,2024_12_15,33.43231073271028,-79.11789,The Pier,0,0.967705,1.3399,13,13,"NIGHT_BRIEF_SHOWERS,NIGHT_CLEAR","Cross-shore,Cross-shore",2
5842041f4e65fad6a7708a72,2024_12_15,33.45423621397969,-79.10497798178424,South Litchfield,1.5,1.125,1.4300000000000002,13,13,"NIGHT_MOSTLY_CLOUDY,NIGHT_CLEAR","Cross-shore,Cross-shore",2
5842041f4e65fad6a7708a73,2024_12_15,34.19316590251396,-77.8045,Crystal Pier,0.5833333333333334,1.04576,1.4599350000000002,14,13,"NIGHT_CLOUDY,NIGHT_MOSTLY_CLOUDY","Cross-shore,Cross-shore",2
5842041f4e65fad6a7708a74,2024_12_15,33.68628680045124,-78.88346,Myrtle Beach,2,0.96,1.265,13,13,"NIGHT_MOSTLY_CLEAR,NIGHT_CLEAR","Cross-shore,Cross-shore",2
5842041f4e65fad6a7708a75,2024_12_15,32.66166297145973,-79.91951806398808,10th Street,2,1.455,1.74,14,14,"NIGHT_CLEAR,NIGHT_MOSTLY_CLOUDY","Cross-shore,Cross-shore",2
5842041f4e65fad6a7708a76,2024_12_15,33.16729555197199,-79.19829236867845,South Island,0,1.42,1.655,13,13,"NIGHT_CLEAR,NIGHT_MOSTLY_CLOUDY","Cross-shore,Cross-shore",2
5842041f4e65fad6a7708a77,2024_12_15,32.595,-80.088,Kiawah Island/Seabrook Island,2.5,1.075,1.325,15,15,"NIGHT_MOSTLY_CLEAR,NIGHT_CLEAR","Offshore,Offshore",2
5842041f4e65fad6a7708a78,2024_12_15,32.51356930575787,-80.28223,Edisto Beach,1.5,0.96183,1.35983,14,14,"NIGHT_BRIEF_SHOWERS,NIGHT_MOSTLY_CLOUDY","Cross-shore,Cross-shore",2
5842041f4e65fad6a7708a79,2024_12_15,32.366270751262,-80.43911,Hunting Island,0,1.4797500000000001,1.8512300000000002,14,14,"NIGHT_MOSTLY_CLOUDY,NIGHT_CLOUDY","Onshore,Onshore",2
5842041f4e65fad6a7708a7a,2024_12_15,32.65337734408365,-79.93983,Folly Beach Pier,1.4166666666666665,1.041405,1.30016,14,14,"NIGHT_CLEAR,NIGHT_MOSTLY_CLOUDY","Offshore,Offshore",2
5842041f4e65fad6a7708a7b,2024_12_15,33.41209545530049,-79.13026341393126,South Jetty,1,1.06,1.28,13,13,"NIGHT_MOSTLY_CLOUDY,NIGHT_MOSTLY_CLEAR","Cross-shore,Cross-shore",2
5842041f4e65fad6a7708a7c,2024_12_15,32.31115640606869,-80.48564,Fripp Island,0.5,1.26763,1.66417,15,15,"NIGHT_BRIEF_SHOWERS,NIGHT_MOSTLY_CLOUDY","Offshore,Offshore",2
5842041f4e65fad6a7708a7d,2024_12_15,32.14365226036034,-80.74402,Hilton Head Island,0,0.27,0.5700000000000001,15,15,"NIGHT_MOSTLY_CLOUDY,NIGHT_MOSTLY_CLOUDY","Cross-shore,Cross-shore",2
5842041f4e65fad6a7708a7e,2024_12_15,29.70405364733744,-81.22426,Matanzas Inlet,1,1.570945,2.063675,19,19,"NIGHT_CLOUDY,NIGHT_MOSTLY_CLOUDY","Onshore,Onshore",2
5842041f4e65fad6a7708a81,2024_12_15,29.76878537149042,-81.25109,Crescent Beach,1,1.76,2.06,18,18,"NIGHT_OVERCAST,NIGHT_MOSTLY_CLEAR","Onshore,Onshore",2
5842041f4e65fad6a7708a82,2024_12_15,32.80251718689188,-79.73221919500764,Wild Dunes,1,1.455,1.76,14,14,"NIGHT_CLEAR,NIGHT_MOSTLY_CLOUDY","Cross-shore,Cross-shore",2
5842041f4e65fad6a7708a84,2024_12_15,32.75733539419244,-79.83258856064796,Bert's Bar,2,1.04,1.21,14,14,"NIGHT_MOSTLY_CLEAR,NIGHT_MOSTLY_CLOUDY","Cross-shore,Cross-shore",2
5842041f4e65fad6a7708a85,2024_12_15,32.66829212943039,-79.90735,Washout,1.4166666666666665,1.09868,1.700945,14,12,"NIGHT_CLEAR,NIGHT_BRIEF_SHOWERS","Cross-shore,Cross-shore",2
5842041f4e65fad6a7708a86,2024_12_15,32.78452968219067,-79.7854,The Pier/Windjammer,2,1.4500000000000002,1.73,14,14,"NIGHT_MOSTLY_CLEAR,NIGHT_MOSTLY_CLOUDY","Offshore,Offshore",2
5842041f4e65fad6a7708a87,2024_12_15,29.86618162637438,-81.2662150259608,Anastasia Park (The Entrance),1,1.4449999999999998,1.75,18,18,"NIGHT_CLOUDY,NIGHT_CLEAR","Onshore,Onshore",2
5842041f4e65fad6a7708a89,2024_12_15,29.89149785916623,-81.2723223244215,Blowholes,1,1.50415,1.81095,24,23,"NIGHT_CLOUDY,NIGHT_MOSTLY_CLEAR","Onshore,Onshore",2
5842041f4e65fad6a7708a8a,2024_12_15,30.16227112983666,-81.35502907491218,Crossroads,1,1.45415,1.7847,24,23,"NIGHT_RAIN,NIGHT_SHOWERS","Onshore,Onshore",2
5842041f4e65fad6a7708a8b,2024_12_15,30.19308537587637,-81.36314247820911,Sawgrass,1,1.5529000000000002,1.9397,24,23,"NIGHT_OVERCAST,NIGHT_MOSTLY_CLOUDY","Onshore,Onshore",2
5842041f4e65fad6a7708a8c,2024_12_15,30.34696027700899,-81.39451,18th Street,2,1.689625,2.081035,17,17,"NIGHT_OVERCAST,NIGHT_MOSTLY_CLOUDY","Offshore,Onshore",2
5842041f4e65fad6a7708a8d,2024_12_15,30.381793,-81.39686,Mayport Poles,1.5,2.145,2.5599999999999996,17,17,"NIGHT_OVERCAST,NIGHT_MOSTLY_CLOUDY","Onshore,Cross-shore",2
5842041f4e65fad6a7708a8e,2024_12_15,30.390516,-81.395591,Blue Roofs,1.5,2.0149999999999997,2.41,17,17,"NIGHT_OVERCAST,NIGHT_MOSTLY_CLOUDY","Cross-shore,Onshore",2
5842041f4e65fad6a7708a8f,2024_12_15,30.40517712722211,-81.40074116169004,Huguenot Park (North Jetty),1,2.215,2.44,17,17,"NIGHT_OVERCAST,NIGHT_MOSTLY_CLOUDY","Onshore,Onshore",2
5842041f4e65fad6a7708a90,2024_12_15,30.47788918872762,-81.41055821335078,Talbot Island,1,1.74725,2.28011,19,19,"NIGHT_DRIZZLE,NIGHT_BRIEF_SHOWERS","Onshore,Cross-shore",2
5842041f4e65fad6a7708a91,2024_12_15,30.66753984549761,-81.42983,Main Beach,0.5,1.8900000000000001,2.1950000000000003,17,17,"NIGHT_MOSTLY_CLOUDY,NIGHT_HEAVY_SHOWERS","Cross-shore,Cross-shore",2
5842041f4e65fad6a7708a92,2024_12_15,30.69983581209126,-81.42483,Ft. Clinch State Park,0.5,2.33,2.635,17,17,"NIGHT_MOSTLY_CLOUDY,NIGHT_BRIEF_SHOWERS","Onshore,Onshore",2
5842041f4e65fad6a7708a93,2024_12_15,30.62059700777582,-81.437252942757425,Amelia Pier,1.5,1.915,2.215,17,17,"NIGHT_MOSTLY_CLOUDY,NIGHT_MOSTLY_CLOUDY","Onshore,Onshore",2
5842041f4e65fad6a7708a95,2024_12_15,28.95125170929067,-80.83837,Bethune Beach,1,2.1750000000000003,2.4,20,20,"NIGHT_DRIZZLE,NIGHT_CLEAR","Onshore,Onshore",2
5842041f4e65fad6a7708a96,2024_12_15,29.03874288905362,-80.8933424949646,Flagler Ave.,1,1.53928,1.95538,24,23,"NIGHT_RAIN,NIGHT_MOSTLY_CLEAR","Onshore,Onshore",2
5842041f4e65fad6a7708a98,2024_12_15,30.332297686992757,-81.39319,Atlantic Beach,2,1.6277849999999998,2.016895,17,17,"NIGHT_OVERCAST,NIGHT_BRIEF_SHOWERS","Cross-shore,Onshore",2
5842041f4e65fad6a7708a99,2024_12_15,29.87530059952514,-81.26757958498874,Middles,1,1.3324799999999999,1.63345,24,23,"NIGHT_CLOUDY,NIGHT_MOSTLY_CLOUDY","Onshore,Onshore",2
5842041f4e65fad6a7708a9a,2024_12_15,29.146475528378218,-80.96347,Sunglow Pier,1,1.775,2.085,20,20,"NIGHT_OVERCAST,NIGHT_BRIEF_SHOWERS","Onshore,Onshore",2
5842041f4e65fad6a7708a9b,2024_12_15,30.02251238001095,-81.32183077344881,Gate Station,1.5,1.439985,1.731785,24,23,"NIGHT_OVERCAST,NIGHT_CLEAR","Onshore,Onshore",2
5842041f4e65fad6a7708a9c,2024_12_15,29.33976495417899,-81.0606,Bicentennial Park,1,1.6600000000000001,1.9649999999999999,19,19,"NIGHT_DRIZZLE,NIGHT_CLEAR","Onshore,Onshore",2
5842041f4e65fad6a7708a9d,2024_12_15,29.08257353385602,-80.92137,Ponce Inlet,1,1.8999799999999998,2.77234,21,19,"NIGHT_OVERCAST,NIGHT_MOSTLY_CLOUDY","Onshore,Onshore",2
5842041f4e65fad6a7708a9f,2024_12_15,27.862962005874696,-80.44668,Sebastian Inlet,0.9166666666666666,1.600945,2.3490349999999998,22,21,"NIGHT_OVERCAST,NIGHT_CLEAR","Onshore,Onshore",2
5842041f4e65fad6a7708aa0,2024_12_15,30.292626880836885,-81.38579,Jacksonville Beach Pier,1.4166666666666665,2.1328,2.5949850000000003,19,19,"NIGHT_OVERCAST,NIGHT_MOSTLY_CLOUDY","Cross-shore,Cross-shore",2
5842041f4e65fad6a7708aa2,2024_12_15,29.21860397328164,-81.0019,Daytona Beach,1,1.94,2.1550000000000002,20,20,"NIGHT_OVERCAST,NIGHT_MOSTLY_CLOUDY","Onshore,Onshore",2
5842041f4e65fad6a7708aa3,2024_12_15,27.47531255634912,-80.28914,Ft. Pierce Inlet,1,1.5237500000000002,2.4879,25,23,"NIGHT_OVERCAST,NIGHT_BRIEF_SHOWERS","Onshore,Onshore",2
5842041f4e65fad6a7708aa4,2024_12_15,29.29239875585548,-81.0386,Ormond Beach,1,2.09,2.33,19,19,"NIGHT_RAIN,NIGHT_CLEAR","Onshore,Onshore",2
5842041f4e65fad6a7708aa5,2024_12_15,29.91629441498523,-81.28801,Vilano,1,1.5499999999999998,1.8599999999999999,18,18,"NIGHT_OVERCAST,NIGHT_MOSTLY_CLOUDY","Onshore,Onshore",2
5842041f4e65fad6a7708aa6,2024_12_15,27.876230736320828,-80.4551,Spanish House,0,2.5856700000000004,3.12107,22,21,"NIGHT_DRIZZLE,NIGHT_BRIEF_SHOWERS","Onshore,Onshore",2
5842041f4e65fad6a7708aa7,2024_12_15,28.64397251741012,-80.62329,Playalinda,1,2.25,2.52,20,20,"NIGHT_MOSTLY_CLOUDY,NIGHT_BRIEF_SHOWERS","Onshore,Onshore",2
5842041f4e65fad6a7708aa8,2024_12_15,28.406142,-80.58886,Jetty Park,2,1.34,1.54,20,20,"NIGHT_MOSTLY_CLOUDY,NIGHT_MOSTLY_CLOUDY","Onshore,Onshore",2
5842041f4e65fad6a7708aa9,2024_12_15,28.49083243010974,-80.58001715986319,Kennedy Space Center,2,2.325,2.63,20,20,"NIGHT_CLEAR,NIGHT_BRIEF_SHOWERS","Onshore,Onshore",2
5842041f4e65fad6a7708aab,2024_12_15,28.336757013024314,-80.60568,Lori Wilson Park,1,1.7135850000000001,2.499985,19,18,"NIGHT_MOSTLY_CLOUDY,NIGHT_MOSTLY_CLEAR","Onshore,Onshore",2
5842041f4e65fad6a7708aad,2024_12_15,27.76388821683801,-80.3962958234027,Wabasso,0.5,2.605,2.77,23,23,"NIGHT_BRIEF_SHOWERS,NIGHT_MOSTLY_CLOUDY","Onshore,Onshore",2
5842041f4e65fad6a7708aae,2024_12_15,27.521583322459,-80.30987620353699,P.V. Martin's,1,2.214,2.7426,23,22,"NIGHT_OVERCAST,NIGHT_MOSTLY_CLOUDY","Onshore,Onshore",2
5842041f4e65fad6a7708aaf,2024_12_15,27.644996047720046,-80.35242676734924,Riomar,0.5,2.22525,2.61135,23,22,"NIGHT_CLEAR,NIGHT_MOSTLY_CLOUDY","Onshore,Onshore",2
5842041f4e65fad6a7708ab1,2024_12_15,27.670121806659253,-80.36026954650879,Vero Pier,0,2.924,3.3101000000000003,23,22,"NIGHT_DRIZZLE,NIGHT_CLEAR","Onshore,Onshore",2
5842041f4e65fad6a7708ab2,2024_12_15,28.047705032021486,-80.54680109024048,Spessard Holland,1,2.274505,2.543235,21,21,"NIGHT_MOSTLY_CLOUDY,NIGHT_MOSTLY_CLOUDY","Onshore,Onshore",2
5842041f4e65fad6a7708ab7,2024_12_15,28.135426226217064,-80.57895541191101,The Radisson,1,2.496085,2.857185,21,19,"NIGHT_MOSTLY_CLOUDY,NIGHT_MOSTLY_CLOUDY","Onshore,Onshore",2
5842041f4e65fad6a7708ab8,2024_12_15,28.26664623907351,-80.60448,Picnic Tables,1,2.52,3.0149999999999997,20,20,"NIGHT_BRIEF_SHOWERS,NIGHT_MOSTLY_CLOUDY","Onshore,Onshore",2
5842041f4e65fad6a7708ab9,2024_12_15,28.200840983180232,-80.59493,Perkins,1,3.02,3.325,20,20,"NIGHT_BRIEF_SHOWERS,NIGHT_MOSTLY_CLOUDY","Onshore,Onshore",2
5842041f4e65fad6a7708aba,2024_12_15,28.185652556759443,-80.59154,RC's,0.5833333333333334,2.23969,2.66401,20,20,"NIGHT_BRIEF_SHOWERS,NIGHT_MOSTLY_CLOUDY","Onshore,Onshore",2
5842041f4e65fad6a7708abc,2024_12_15,28.252541991968208,-80.60269,2nd Light,1,2.4699999999999998,2.95,20,20,"NIGHT_BRIEF_SHOWERS,NIGHT_MOSTLY_CLOUDY","Onshore,Onshore",2
5842041f4e65fad6a7708abd,2024_12_15,27.901611308716447,-80.4697,Bonsteel Park,1,2.28317,2.8206499999999997,22,21,"NIGHT_LIGHT_RAIN,NIGHT_MOSTLY_CLOUDY","Onshore,Onshore",2
5842041f4e65fad6a7708abe,2024_12_15,28.2423394657007,-80.60104,Hangar's Beach,1,2.825,3.065,20,20,"NIGHT_BRIEF_SHOWERS,NIGHT_MOSTLY_CLOUDY","Onshore,Onshore",2
5842041f4e65fad6a7708abf,2024_12_15,27.34018197146798,-80.23278,Walton Rocks,0,1.557165,2.535565,25,23,"NIGHT_CLOUDY,NIGHT_CLEAR","Onshore,Onshore",2
5842041f4e65fad6a7708ac0,2024_12_15,25.80407401902198,-80.1222227290161,30th Street,1,0.69,1,25,25,"NIGHT_CLOUDY,NIGHT_DRIZZLE","Onshore,Onshore",2
5842041f4e65fad6a7708ac1,2024_12_15,25.76570280215999,-80.12983,South Beach,1,0.849815,1.238035,26,24,"NIGHT_CLOUDY,NIGHT_OVERCAST","Onshore,Onshore",2
5842041f4e65fad6a7708ac2,2024_12_15,26.058022412197,-80.10873562327671,Dania Pier,1,1.15,1.45,25,25,"NIGHT_CLOUDY,NIGHT_CLOUDY","Onshore,Onshore",2
5842041f4e65fad6a7708ac3,2024_12_15,26.04825428257198,-80.11153150137932,Franklin Street,0.5,1.145,1.45,25,25,"NIGHT_CLOUDY,NIGHT_CLEAR","Onshore,Onshore",2
5842041f4e65fad6a7708ac4,2024_12_15,26.09086461141498,-80.10728410144065,John Lloyd State Park,0,1.15,1.45,25,25,"NIGHT_CLOUDY,NIGHT_MOSTLY_CLOUDY","Onshore,Onshore",2
5842041f4e65fad6a7708ac5,2024_12_15,26.0971397396683,-80.10298876028907,Spoils,1,1.1099999999999999,1.415,25,25,"NIGHT_DRIZZLE,NIGHT_MOSTLY_CLOUDY","Onshore,Onshore",2
5842041f4e65fad6a7708ac6,2024_12_15,26.18920557475824,-80.09224,Commercial Pier,1,1.245,1.545,25,25,"NIGHT_OVERCAST,NIGHT_MOSTLY_CLOUDY","Onshore,Onshore",2
5842041f4e65fad6a7708ac7,2024_12_15,28.289851576629342,-80.6063,16th St. South,1,1.717485,2.0205349999999997,23,22,"NIGHT_BRIEF_SHOWERS,NIGHT_CLEAR","Onshore,Onshore",2
5842041f4e65fad6a7708ac8,2024_12_15,26.23467460139735,-80.0874,Pompano Pier,1,0.735,1.045,25,25,"NIGHT_MOSTLY_CLOUDY,NIGHT_MOSTLY_CLOUDY","Onshore,Onshore",2
5842041f4e65fad6a7708acb,2024_12_15,26.44179551370651,-80.05928855229453,Atlantic Dunes Park,0,0.843215,1.22818,25,23,"NIGHT_MOSTLY_CLOUDY,NIGHT_MOSTLY_CLOUDY","Cross-shore,Cross-shore",2
5842041f4e65fad6a7708acd,2024_12_15,26.62215707439298,-80.03599398392342,Hilton Hotel Backyard,0.41666666666666663,1.56755,2.009865,25,23,"NIGHT_OVERCAST,NIGHT_CLEAR","Onshore,Onshore",2
5842041f4e65fad6a7708ace,2024_12_15,26.96418190555367,-80.07769168113562,Coral Cove Park,0.9166666666666666,2.3335,2.7758149999999997,25,23,"NIGHT_MOSTLY_CLOUDY,NIGHT_SHOWERS","Onshore,Onshore",2
5842041f4e65fad6a7708acf,2024_12_15,26.7029496416037,-80.03184,Palm Beach,1.3333333333333333,1.6708850000000002,2.1082,25,23,"NIGHT_OVERCAST,NIGHT_CLEAR","Onshore,Onshore",2
5842041f4e65fad6a7708ad0,2024_12_15,26.97679878167375,-80.08141631388132,Blowing Rocks,0.9166666666666666,1.994335,2.4329,25,23,"NIGHT_MOSTLY_CLOUDY,NIGHT_BRIEF_SHOWERS","Onshore,Onshore",2
5842041f4e65fad6a7708ad2,2024_12_15,26.45661880078336,-80.057,Delray Beach,0,0.86565,1.261865,25,23,"NIGHT_MOSTLY_CLOUDY,NIGHT_MOSTLY_CLOUDY","Onshore,Onshore",2
5842041f4e65fad6a7708ad3,2024_12_15,27.205685534312778,-80.16826629638672,Fletcher's,0,2.168915,2.606235,25,23,"NIGHT_MOSTLY_CLOUDY,NIGHT_MOSTLY_CLOUDY","Onshore,Onshore",2
5842041f4e65fad6a7708ad5,2024_12_15,26.5848450388814,-80.03649735753257,Lantana Public Beach,0.41666666666666663,1.68255,2.1282,25,23,"NIGHT_CLOUDY,NIGHT_MOSTLY_CLOUDY","Onshore,Onshore",2
5842041f4e65fad6a7708ad6,2024_12_15,25.77468432731322,-80.12884045797499,5th Street,0.5,0.81,1.115,25,25,"NIGHT_OVERCAST,NIGHT_OVERCAST","Onshore,Onshore",2
5842041f4e65fad6a7708ad7,2024_12_15,25.795157990715975,-80.12527585029602,21st Street,0.5,0.845,1.04,25,25,"NIGHT_OVERCAST,NIGHT_MOSTLY_CLEAR","Onshore,Onshore",2
5842041f4e65fad6a7708ad8,2024_12_15,25.897806453088073,-80.1211827993393,Haulover Inlet (South Jetty),0,1.24,1.545,25,25,"NIGHT_CLOUDY,NIGHT_OVERCAST","Onshore,Onshore",2
5842041f4e65fad6a7708ad9,2024_12_15,25.90147392328634,-80.12110769748688,Haulover Inlet (North Jetty),0,1.12,1.42,25,25,"NIGHT_CLOUDY,NIGHT_OVERCAST","Onshore,Onshore",2
5842041f4e65fad6a7708ada,2024_12_15,25.87049374242476,-80.11828560342356,85th Street,0.5,1.005,1.31,25,25,"NIGHT_OVERCAST,NIGHT_OVERCAST","Onshore,Onshore",2
5842041f4e65fad6a7708adb,2024_12_15,26.25486382031396,-80.0805,Hillsboro Inlet,0,1.422875,1.7001249999999999,25,25,"NIGHT_MOSTLY_CLOUDY,NIGHT_MOSTLY_CLOUDY","Onshore,Onshore",2
5842041f4e65fad6a7708add,2024_12_15,26.29705672965111,-80.07612,Hillsboro Beach,1,1.23,1.54,25,25,"NIGHT_MOSTLY_CLOUDY,NIGHT_MOSTLY_CLOUDY","Onshore,Onshore",2
5842041f4e65fad6a7708ade,2024_12_15,26.36569956413266,-80.06717936869391,Red Reef Park,0.9166666666666666,1.333265,1.7851650000000001,25,24,"NIGHT_MOSTLY_CLOUDY,NIGHT_MOSTLY_CLOUDY","Onshore,Onshore",2
5842041f4e65fad6a7708adf,2024_12_15,26.54593873498907,-80.04104359585143,Boynton Beach Inlet (Northside),0.41666666666666663,1.3613,1.804865,25,23,"NIGHT_MOSTLY_CLOUDY,NIGHT_MOSTLY_CLOUDY","Onshore,Onshore",2
5842041f4e65fad6a7708ae0,2024_12_15,26.92746505629809,-80.06721138954163,Corners,1,1.460205,2.08907,25,23,"NIGHT_MOSTLY_CLOUDY,NIGHT_BRIEF_SHOWERS","Onshore,Onshore",2
5842041f4e65fad6a7708ae1,2024_12_15,26.76983179886943,-80.03413481937037,The Cove,0.9166666666666666,1.7142149999999998,2.156535,25,23,"NIGHT_OVERCAST,NIGHT_BRIEF_SHOWERS","Onshore,Onshore",2
5842041f4e65fad6a7708ae3,2024_12_15,26.39224485175123,-80.0650461233983,Japanese Rock,1.3333333333333333,1.186185,1.6318350000000001,25,24,"NIGHT_CLEAR,NIGHT_SHOWERS","Onshore,Onshore",2
5842041f4e65fad6a7708ae4,2024_12_15,29.94810928551321,-85.42545434612366,Mexico Beach,1,0,0.19,19,19,"NIGHT_CLEAR,NIGHT_CLEAR","Offshore,Offshore",2
5842041f4e65fad6a7708ae5,2024_12_15,30.11752500931267,-85.7306,Shell Island,1,0,0.22,20,20,"NIGHT_CLEAR,NIGHT_CLEAR","Offshore,Offshore",2
5842041f4e65fad6a7708ae7,2024_12_15,29.94901514702268,-85.43042978529013,D.J.'s,1,0,0.185,19,19,"NIGHT_CLEAR,NIGHT_CLEAR","Cross-shore,Offshore",2
5842041f4e65fad6a7708ae8,2024_12_15,30.12396111446713,-85.73637,St. Andrew's Park,0.3333333333333333,0,0.221035,18,18,"NIGHT_CLEAR,NIGHT_CLEAR","Offshore,Offshore",2
5842041f4e65fad6a7708ae9,2024_12_15,30.16781531760227,-85.79604918824084,Spinnaker,0.3333333333333333,0,0.26853499999999997,18,18,"NIGHT_CLEAR,NIGHT_CLEAR","Offshore,Offshore",2
5842041f4e65fad6a7708aea,2024_12_15,30.18877050526983,-85.83243530466363,Wood Pier,1,0.0254,0.31079999999999997,18,18,"NIGHT_CLEAR,NIGHT_CLEAR","Offshore,Offshore",2
5842041f4e65fad6a7708aeb,2024_12_15,30.2676205895555,-85.9938578144113,Inlet Beach Pier,1.5,0.051235,0.3508,18,18,"NIGHT_CLEAR,NIGHT_CLEAR","Offshore,Offshore",2
5842041f4e65fad6a7708aec,2024_12_15,30.31815542759119,-86.1383771867044,Bud and Alley's,1,0.0729,0.37329999999999997,18,18,"NIGHT_CLEAR,NIGHT_CLEAR","Offshore,Offshore",2
5842041f4e65fad6a7708aed,2024_12_15,30.32686082481946,-86.16650590275447,Grayton Beach,1,0.142065,0.447465,18,18,"NIGHT_CLEAR,NIGHT_CLEAR","Offshore,Offshore",2
5842041f4e65fad6a7708aee,2024_12_15,30.33661488976303,-86.20094,Blue Mountain Beach,1,0.076235,0.381635,18,18,"NIGHT_CLEAR,NIGHT_CLEAR","Offshore,Offshore",2
5842041f4e65fad6a7708aef,2024_12_15,30.37677202831587,-86.38513,Pompano Joe's,1.5,0.22623500000000002,0.5358,18,18,"NIGHT_CLEAR,NIGHT_CLEAR","Cross-shore,Offshore",2
5842041f4e65fad6a7708af0,2024_12_15,30.37429731725911,-86.36687,Seascape,1.5,0.12373500000000001,0.4283,18,18,"NIGHT_CLEAR,NIGHT_CLEAR","Cross-shore,Offshore",2
5842041f4e65fad6a7708af1,2024_12_15,30.382815988547186,-86.45839,The Back Porch,1,0.269565,0.5799650000000001,18,18,"NIGHT_CLEAR,NIGHT_CLEAR","Offshore,Offshore",2
5842041f4e65fad6a7708af2,2024_12_15,30.21207176798612,-85.87989730830542,Panama City Pier,1,0.029565,0.324135,18,18,"NIGHT_CLEAR,NIGHT_CLEAR","Offshore,Offshore",2
5842041f4e65fad6a7708af3,2024_12_15,30.37521499110326,-86.3717,Whale's Tail,1.5,0.16123500000000002,0.461635,18,18,"NIGHT_CLEAR,NIGHT_CLEAR","Cross-shore,Offshore",2
5842041f4e65fad6a7708af4,2024_12_15,30.38120596658251,-86.43046,Old Crystal Pier,1,0.16956500000000002,0.479135,18,18,"NIGHT_CLEAR,NIGHT_CLOUDY","Offshore,Offshore",2
5842041f4e65fad6a7708af5,2024_12_15,30.38090573159031,-86.50655,Jetty East,1,0.2254,0.5257999999999999,18,18,"NIGHT_CLEAR,NIGHT_MOSTLY_CLOUDY","Offshore,Offshore",2
5842041f4e65fad6a7708af6,2024_12_15,30.37584509640838,-86.50563,HMO's,1,0.2254,0.524965,18,18,"NIGHT_CLEAR,NIGHT_MOSTLY_CLOUDY","Offshore,Offshore",2
5842041f4e65fad6a7708af7,2024_12_15,30.38124006131522,-86.50052,Two By Fours,0.5,0.204565,0.504965,18,18,"NIGHT_CLEAR,NIGHT_CLEAR","Cross-shore,Cross-shore",2
5842041f4e65fad6a7708af8,2024_12_15,30.38250751017554,-86.45776,The Pumphouse,1,0.2254,0.5357999999999999,18,18,"NIGHT_CLEAR,NIGHT_MOSTLY_CLOUDY","Offshore,Offshore",2
5842041f4e65fad6a7708af9,2024_12_15,30.38655981578935,-86.52475,NCO Club,1,0.2254,0.5257999999999999,18,18,"NIGHT_CLEAR,NIGHT_MOSTLY_CLOUDY","Cross-shore,Offshore",2
5842041f4e65fad6a7708afa,2024_12_15,30.39024516541047,-86.59341,Okaloosa Pier,1,0.196235,0.4958,18,18,"NIGHT_CLEAR,NIGHT_CLEAR","Offshore,Offshore",2
5842041f4e65fad6a7708afb,2024_12_15,30.39281125722673,-86.59766,Dead Man's,1,0.3579,0.6633,18,18,"NIGHT_CLEAR,NIGHT_MOSTLY_CLOUDY","Cross-shore,Offshore",2
5842041f4e65fad6a7708afc,2024_12_15,30.32703176167034,-87.14196,Pensacola Pier,1,0.605,0.91,20,20,"NIGHT_CLEAR,NIGHT_CLEAR","Onshore,Cross-shore",2
5842041f4e65fad6a7708afd,2024_12_15,30.37920054094992,-86.85583,Navarre Beach,2,0.180065,0.433465,18,18,"NIGHT_CLEAR,NIGHT_CLEAR","Offshore,Offshore",2
5842041f4e65fad6a7708afe,2024_12_15,30.39491626029151,-86.61248,Blue Horizon Motel,1,0.348735,0.6541349999999999,18,18,"NIGHT_CLEAR,NIGHT_MOSTLY_CLOUDY","Cross-shore,Offshore",2
5842041f4e65fad6a7708aff,2024_12_15,30.29345899260828,-87.43547,First Parking Lot,1,0.62,0.925,20,20,"NIGHT_CLEAR,NIGHT_MOSTLY_CLEAR","Cross-shore,Cross-shore",2
5842041f4e65fad6a7708b00,2024_12_15,30.29767401311303,-87.41362,Johnsons Beach,1,0.65,0.95,20,20,"NIGHT_CLEAR,NIGHT_CLEAR","Cross-shore,Cross-shore",2
5842041f4e65fad6a7708b01,2024_12_15,30.29513397370759,-87.42642,Sandy Key,1,0.62,0.925,20,20,"NIGHT_CLEAR,NIGHT_MOSTLY_CLEAR","Cross-shore,Cross-shore",2
5842041f4e65fad6a7708b03,2024_12_15,30.377504907388026,-86.86444,Navarre Pier,2,0.3254,0.6308,18,18,"NIGHT_CLEAR,NIGHT_CLEAR","Offshore,Offshore",2
5842041f4e65fad6a7708b04,2024_12_15,30.31482647791307,-87.26164,Pickens Point Dunes,1,0.62,0.9299999999999999,20,20,"NIGHT_CLEAR,NIGHT_CLEAR","Cross-shore,Cross-shore",2
5842041f4e65fad6a7708b05,2024_12_15,30.32632110836516,-87.16019503253068,Slabs,1,0.64,0.9450000000000001,20,20,"NIGHT_CLEAR,NIGHT_CLEAR","Onshore,Cross-shore",2
5842041f4e65fad6a7708b06,2024_12_15,30.32739721382043,-87.30406515493348,Pickens Point,2,0.6699999999999999,0.975,20,20,"NIGHT_CLEAR,NIGHT_CLEAR","Offshore,Offshore",2
5842041f4e65fad6a7708b07,2024_12_15,30.27406893266753,-87.54367,Bungalows,1,0.6699999999999999,0.98,20,20,"NIGHT_MOSTLY_CLEAR,NIGHT_OVERCAST","Cross-shore,Cross-shore",2
5842041f4e65fad6a7708b08,2024_12_15,27.99627311846992,-82.82942,880,0,0,0.20373999999999998,18,18,"NIGHT_CLEAR,NIGHT_CLEAR","Offshore,Offshore",2
5842041f4e65fad6a7708b09,2024_12_15,27.97779860371595,-82.83246509090527,Pier 60,0,0,0.135,18,18,"NIGHT_CLEAR,NIGHT_CLEAR","Offshore,Offshore",2
5842041f4e65fad6a7708b0a,2024_12_15,27.96296387618043,-82.8332635965418,Sand Key,0,0,0.14,18,18,"NIGHT_MOSTLY_CLEAR,NIGHT_CLEAR","Offshore,Offshore",2
5842041f4e65fad6a7708b0b,2024_12_15,27.92492619212885,-82.8449122845279,Belleair,0,0,0.135,18,18,"NIGHT_MOSTLY_CLEAR,NIGHT_MOSTLY_CLEAR","Offshore,Offshore",2
5842041f4e65fad6a7708b0c,2024_12_15,27.882,-82.854,Indian Rocks Beach,0,0,0.13,18,18,"NIGHT_MOSTLY_CLEAR,NIGHT_CLEAR","Offshore,Offshore",2
5842041f4e65fad6a7708b0d,2024_12_15,27.83106104966094,-82.83550218771384,Redington Breakwater,0,0,0.14500000000000002,18,18,"NIGHT_CLEAR,NIGHT_CLEAR","Offshore,Offshore",2
5842041f4e65fad6a7708b0e,2024_12_15,27.74369029906206,-82.76053473435867,Middle Jetty,0,0,0.12000000000000001,18,18,"NIGHT_CLEAR,NIGHT_CLEAR","Offshore,Offshore",2
5842041f4e65fad6a7708b0f,2024_12_15,27.82174178852146,-82.83148664631841,Redington Pier,0,0,0.14500000000000002,18,18,"NIGHT_CLEAR,NIGHT_CLEAR","Offshore,Offshore",2
5842041f4e65fad6a7708b10,2024_12_15,27.31496308261514,-82.5830466912004,Lido Beach,0,0,0.085,19,19,"NIGHT_CLEAR,NIGHT_CLEAR","Offshore,Offshore",2
5842041f4e65fad6a7708b11,2024_12_15,27.31122010159892,-82.57833234007632,Coolidge,0,0,0.09,19,19,"NIGHT_CLEAR,NIGHT_CLEAR","Offshore,Offshore",2
5842041f4e65fad6a7708b12,2024_12_15,27.26471672017615,-82.55464835167173,Siesta Key,0,0,0.03,19,18,"NIGHT_CLEAR,NIGHT_MOSTLY_CLEAR","Offshore,Offshore",2
5842041f4e65fad6a7708b13,2024_12_15,27.24638693488133,-82.53809115716797,Stickney Point,0,0,0.08,19,19,"NIGHT_CLEAR,NIGHT_CLEAR","Offshore,Offshore",2
5842041f4e65fad6a7708b14,2024_12_15,27.21907878229092,-82.51813937562073,Turtles,0,0,0.08,19,19,"NIGHT_CLEAR,NIGHT_CLEAR","Offshore,Offshore",2
5842041f4e65fad6a7708b15,2024_12_15,27.11375765852028,-82.47039,Venice Jetties North,0,0,0.05500000000000001,19,18,"NIGHT_CLEAR,NIGHT_CLEAR","Offshore,Offshore",2
5842041f4e65fad6a7708b16,2024_12_15,27.111485758834025,-82.46757,Venice Jetties South,0,0,0.065,19,18,"NIGHT_CLEAR,NIGHT_CLEAR","Offshore,Offshore",2
5842041f4e65fad6a7708b17,2024_12_15,27.07249378831575,-82.4530285256104,Venice Pier,0,0,0.08,19,18,"NIGHT_CLEAR,NIGHT_CLEAR","Offshore,Offshore",2
5842041f4e65fad6a7708b19,2024_12_15,27.49680446426314,-82.7140145455959,Holmes Beach Pier,0,0,0.085,19,19,"NIGHT_CLEAR,NIGHT_CLEAR","Offshore,Offshore",2
5842041f4e65fad6a7708b1a,2024_12_15,27.7390348493064,-82.75763,Sunset Beach,0,0,0.12000000000000001,18,18,"NIGHT_CLEAR,NIGHT_CLEAR","Offshore,Offshore",2
5842041f4e65fad6a7708b1b,2024_12_15,26.80347307599041,-82.28564775623539,Gasparilla Point,0,0,0.08,20,20,"NIGHT_CLEAR,NIGHT_CLEAR","Offshore,Offshore",2
5842041f4e65fad6a7708b1c,2024_12_15,27.45365831548911,-82.69609,Coquina Jetties,0,0,0.09,19,19,"NIGHT_CLEAR,NIGHT_CLEAR","Offshore,Offshore",2
5842041f4e65fad6a7708b1d,2024_12_15,27.46077315206043,-82.69924,Twin Piers,0.5,0,0.109735,19,18,"NIGHT_CLEAR,NIGHT_CLEAR","Offshore,Offshore",2
5842041f4e65fad6a7708b1e,2024_12_15,26.91007316019612,-82.35352,Englewood,0,0,0.045,19,19,"NIGHT_CLEAR,NIGHT_CLEAR","Offshore,Offshore",2
5842041f4e65fad6a7708b1f,2024_12_15,26.88221101560038,-82.3359828282636,Knight's Point,0,0,0.075,19,19,"NIGHT_CLEAR,NIGHT_CLEAR","Offshore,Offshore",2
5842041f4e65fad6a7708b20,2024_12_15,26.51219285784982,-82.1928203289264,Tween Waters,0,0,0.11,20,20,"NIGHT_CLEAR,NIGHT_MOSTLY_CLEAR","Offshore,Offshore",2
5842041f4e65fad6a7708b21,2024_12_15,26.55130241615096,-82.20222762415648,Redfish Pass,0,0,0.10500000000000001,20,20,"NIGHT_MOSTLY_CLEAR,NIGHT_MOSTLY_CLEAR","Offshore,Offshore",2
5842041f4e65fad6a7708b22,2024_12_15,26.71713432926596,-82.26287777058234,Boca Grande,0,0,0.085,20,20,"NIGHT_MOSTLY_CLOUDY,NIGHT_CLEAR","Offshore,Offshore",2
5842041f4e65fad6a7708b23,2024_12_15,26.47856785808584,-82.181288592828,Blind Pass,0,0,0.11000000000000001,20,20,"NIGHT_CLEAR,NIGHT_CLEAR","Offshore,Offshore",2
5842041f4e65fad6a7708b24,2024_12_15,26.25358330618783,-81.82429246081317,The Wall,0,0,0.065,20,20,"NIGHT_CLEAR,NIGHT_MOSTLY_CLOUDY","Offshore,Offshore",2
5842041f4e65fad6a7708b25,2024_12_15,26.17456407516186,-81.81588575623482,Doctor's Pass,0,0,0.065,20,20,"NIGHT_MOSTLY_CLEAR,NIGHT_MOSTLY_CLOUDY","Offshore,Offshore",2
5842041f4e65fad6a7708b26,2024_12_15,27.427134501874612,-82.68110766159296,Whitney Beach,0,0,0.105,19,19,"NIGHT_MOSTLY_CLEAR,NIGHT_MOSTLY_CLEAR","Offshore,Offshore",2
5842041f4e65fad6a7708b27,2024_12_15,26.17300183052463,-81.81515842430267,Doctor's Pass (South Jetty),0,0,0.065,20,20,"NIGHT_MOSTLY_CLEAR,NIGHT_MOSTLY_CLOUDY","Offshore,Offshore",2
5842041f4e65fad6a7708b28,2024_12_15,27.73496421495629,-82.75268962468695,Upham Beach Park,0,0,0.12000000000000001,18,18,"NIGHT_CLEAR,NIGHT_CLEAR","Offshore,Offshore",2
5842041f4e65fad6a7708b29,2024_12_15,26.13144856766723,-81.8090395116521,Naples Pier,0,0,0.065,20,20,"NIGHT_MOSTLY_CLOUDY,NIGHT_MOSTLY_CLOUDY","Offshore,Offshore",2
5842041f4e65fad6a7708b2a,2024_12_15,20.63474,-156.45211,Little Beach,1,0,0.225,26,26,"CLEAR,NIGHT_CLEAR","Onshore,Onshore",2
5842041f4e65fad6a7708b2b,2024_12_15,20.613,-156.438,Dumps,1,0,0.185,26,26,"CLEAR,NIGHT_CLEAR","Onshore,Onshore",2
5842041f4e65fad6a7708b2c,2024_12_15,22.216,-159.502,Hanalei Bay,3.5,1.29,1.44,25,25,"BRIEF_SHOWERS,NIGHT_LIGHT_SHOWERS_POSSIBLE","Offshore,Offshore",2
5842041f4e65fad6a7708b2d,2024_12_15,22.225,-159.567,Ha'Ena Bay (Cannons/Tunnels),2,1.3050000000000002,1.6099999999999999,25,25,"BRIEF_SHOWERS,NIGHT_CLEAR","Cross-shore,Cross-shore",2
5842041f4e65fad6a7708b2f,2024_12_15,22.148,-159.301,Anahola Bay,1,0.6699999999999999,0.98,25,25,"MOSTLY_CLOUDY,NIGHT_MOSTLY_CLOUDY","Onshore,Onshore",2
5842041f4e65fad6a7708b30,2024_12_15,21.872,-159.462,Poipu Outer Reef,2,0.43,0.735,26,26,"MOSTLY_CLOUDY,NIGHT_MOSTLY_CLOUDY","Offshore,Offshore",2
5842041f4e65fad6a7708b31,2024_12_15,21.936,-159.652,Pakala,2,0.20500000000000002,0.51,25,25,"CLEAR,NIGHT_CLEAR","Onshore,Cross-shore",2
5842041f4e65fad6a7708b32,2024_12_15,21.272,-157.832,Populars,1,0.16329,0.46935499999999997,26,25,"CLEAR,NIGHT_CLEAR","Offshore,Offshore",2
5842041f4e65fad6a7708b33,2024_12_15,21.26841992117695,-157.82329,Publics,1,0.217235,0.518635,26,25,"CLEAR,NIGHT_CLEAR","Offshore,Offshore",2
5842041f4e65fad6a7708b34,2024_12_15,21.25460513357954,-157.79432,Black Point,1,0.626835,0.948105,26,26,"MOSTLY_CLEAR,NIGHT_CLEAR","Offshore,Offshore",2
5842041f4e65fad6a7708b35,2024_12_15,21.27394674233747,-157.82777,Canoes,1,0.229315,0.530715,26,25,"CLEAR,NIGHT_CLEAR","Offshore,Offshore",2
5842041f4e65fad6a7708b36,2024_12_15,21.273658410008455,-157.8263,Queen's,1,0.153485,0.464885,26,25,"CLEAR,NIGHT_CLEAR","Offshore,Offshore",2
5842041f4e65fad6a7708b37,2024_12_15,20.869,-156.679,Lahaina Harbor - Breakwall,2,0.08,0.385,26,26,"CLEAR,NIGHT_CLEAR","Onshore,Offshore",2
5842041f4e65fad6a7708b38,2024_12_15,21.277,-157.841,Kaiser's,2,0.49546999999999997,0.80153,26,25,"CLEAR,NIGHT_CLEAR","Offshore,Offshore",2
5842041f4e65fad6a7708b39,2024_12_15,21.280537020769913,-157.84107,Rockpiles,1.5,0.28346499999999997,0.58802,26,25,"CLEAR,NIGHT_CLEAR","Offshore,Offshore",2
5842041f4e65fad6a7708b3a,2024_12_15,21.2745,-157.8395,Four's,2,0.35,0.66,26,26,"CLEAR,NIGHT_CLEAR","Offshore,Offshore",2
5842041f4e65fad6a7708b3b,2024_12_15,21.576,-158.282,Kaena Point,0.5,0.7050000000000001,1.01,26,26,"CLEAR,NIGHT_CLEAR","Cross-shore,Cross-shore",2
5842041f4e65fad6a7708b3c,2024_12_15,21.31110306220024,-157.6590697786346,Makapu'u,1,0.685,0.99,25,25,"MOSTLY_CLEAR,NIGHT_CLEAR","Onshore,Onshore",2
5842041f4e65fad6a7708b3d,2024_12_15,21.276618032562773,-157.83386,Three's,1.5,0.43564,0.7401599999999999,26,25,"CLEAR,NIGHT_CLEAR","Offshore,Offshore",2
5842041f4e65fad6a7708b3f,2024_12_15,39.63537452931482,-123.7858735430881,Westport,1.5,3.465,4.055,12,12,"MOSTLY_CLOUDY,NIGHT_FOG","Cross-shore,Cross-shore",2
5842041f4e65fad6a7708b40,2024_12_15,39.47339314374171,-123.8053109861082,MacKerricher,1.5,4.98,5.885,13,13,"OVERCAST,NIGHT_FOG","Onshore,Offshore",2
5842041f4e65fad6a7708b41,2024_12_15,39.30271935445495,-123.79757,Mendocino Township,2.5,3.085,3.6799999999999997,13,13,"MOSTLY_CLOUDY,NIGHT_MOSTLY_CLOUDY","Cross-shore,Offshore",2
5842041f4e65fad6a7708b42,2024_12_15,21.281416779283845,-157.8457,Ala Moana Bowls,2,0.55916,0.86842,26,25,"CLEAR,NIGHT_CLEAR","Offshore,Offshore",2
5842041f4e65fad6a7708b43,2024_12_15,15.846,-97.06,Puerto Escondido,3,0.55,0.85,29,29,"CLEAR,NIGHT_CLEAR","Onshore,Offshore",2
5842041f4e65fad6a7708b44,2024_12_15,11.44175,-86.08519,Santana,2,0.32,0.63,27,27,"CLEAR,NIGHT_CLEAR","Offshore,Offshore",2
5842041f4e65fad6a7708b46,2024_12_15,38.91444690804076,-123.7104245288878,Point Arena,2.5,3.9799999999999995,4.755,13,13,"MOSTLY_CLOUDY,NIGHT_MOSTLY_CLOUDY","Cross-shore,Cross-shore",2
5842041f4e65fad6a7708b47,2024_12_15,18.46,-66.07383728027,San Juan,4,1.2298499999999999,1.8425150000000001,27,26,"NIGHT_CLEAR,NIGHT_CLEAR","Offshore,Offshore",2
5842041f4e65fad6a7708b48,2024_12_15,13.21526058417982,-59.52183,Soup Bowl,2,0.921485,1.413135,28,28,"NIGHT_CLEAR,NIGHT_LIGHT_SHOWERS_POSSIBLE","Onshore,Onshore",2
5842041f4e65fad6a7708b49,2024_12_15,18.371581,-67.25941,Puntas,3.416666666666667,0.9427000000000001,1.4074149999999999,28,27,"NIGHT_CLEAR,NIGHT_MOSTLY_CLEAR","Offshore,Offshore",2
5842041f4e65fad6a7708b4b,2024_12_15,-8.814,115.089,Uluwatu,1.9166666666666665,0.958135,1.2372,28,28,"CLEAR,THUNDER_SHOWERS","Onshore,Onshore",2
5842041f4e65fad6a7708b4c,2024_12_15,-8.950192825865,115.12573242187,Kuta,2,1.4249999999999998,1.705,29,29,"BRIEF_SHOWERS_POSSIBLE,LIGHT_RAIN","Cross-shore,Cross-shore",2
5842041f4e65fad6a7708b4d,2024_12_15,9.94,-85.668,Guiones,3,0.4,0.705,28,28,"CLEAR,NIGHT_CLEAR","Onshore,Offshore",2
5842041f4e65fad6a7708b4e,2024_12_15,9.56516,-84.59148,Playa Hermosa South,3,0.33502,0.6870700000000001,29,29,"CLEAR,NIGHT_BRIEF_SHOWERS_POSSIBLE","Onshore,Cross-shore",2
5842041f4e65fad6a7708b4f,2024_12_15,9.526305556,-84.48822,Playa Esterillos,3,0.665,0.965,29,29,"CLEAR,NIGHT_CLEAR","Onshore,Offshore",2
5842041f4e65fad6a7708b50,2024_12_15,9.576,-84.608,Playa Hermosa North,2.5,0.525,0.825,29,29,"CLEAR,NIGHT_BRIEF_SHOWERS_POSSIBLE","Onshore,Offshore",2
5842041f4e65fad6a7708b53,2024_12_15,-12.337,-76.839,Pico Alto,2.5,1.2722099999999998,1.573815,18,18,"CLEAR,NIGHT_CLEAR","Onshore,Onshore",2
5842041f4e65fad6a7708b55,2024_12_15,-12.17155,-77.08515,Peruazul,2,1.02,1.275,18,18,"CLEAR,NIGHT_CLEAR","Cross-shore,Cross-shore",2
5842041f4e65fad6a7708b56,2024_12_15,-12.133164,-77.03916,Makaha,3,1.36684,1.634745,18,18,"CLEAR,NIGHT_CLEAR","Cross-shore,Cross-shore",2
5842041f4e65fad6a7708b57,2024_12_15,43.29,-2.1708,Zarautz,2,1.075535,1.2804,14,14,"NIGHT_LIGHT_SHOWERS,NIGHT_BRIEF_SHOWERS","Cross-shore,Cross-shore",2
5842041f4e65fad6a7708b58,2024_12_15,54.27129984804951,-8.60171,Strandhill,3,1.49634,2.338025,11,11,"NIGHT_OVERCAST,NIGHT_MIST","Onshore,Onshore",2
5842041f4e65fad6a7708b5b,2024_12_15,39.276101,-74.56709,7th Street,1,0.058165,0.36995500000000003,8,7,"NIGHT_CLEAR,NIGHT_MOSTLY_CLOUDY","Cross-shore,Offshore",2
5842041f4e65fad6a7708b5d,2024_12_15,39.321896,-74.506191,Sumner Avenue,1,0.1375,0.44555,13,13,"NIGHT_CLEAR,NIGHT_MOSTLY_CLOUDY","Offshore,Cross-shore",2
5842041f4e65fad6a7708b5e,2024_12_15,39.093673,-74.71653,26th to 30th Street Pier,1,0.082915,0.38380000000000003,8,7,"NIGHT_CLEAR,NIGHT_MOSTLY_CLOUDY","Cross-shore,Cross-shore",2
5842041f4e65fad6a7708b5f,2024_12_15,39.039903,-74.76417,Nun's Beach,1,0.132915,0.49722,8,7,"NIGHT_CLEAR,NIGHT_MOSTLY_CLOUDY","Cross-shore,Cross-shore",2
5842041f4e65fad6a7708b60,2024_12_15,38.96768,-74.82565,Rambler Road,1,0.14375,0.45555,8,7,"NIGHT_CLEAR,NIGHT_MOSTLY_CLOUDY","Cross-shore,Cross-shore",2
5842041f4e65fad6a7708b61,2024_12_15,38.99931,-74.78814,2nd St. to 10th St.,1,0.181665,0.493465,8,7,"NIGHT_CLEAR,NIGHT_MOSTLY_CLOUDY","Cross-shore,Cross-shore",2
5842041f4e65fad6a7708b62,2024_12_15,38.929886,-74.91718,Stockton Avenue,1,0.064595,0.433355,8,7,"NIGHT_MOSTLY_CLEAR,NIGHT_MOSTLY_CLOUDY","Onshore,Cross-shore",2
5842041f4e65fad6a7708b63,2024_12_15,38.942988,-74.862452,The Rocks,1,0.067085,0.365135,8,7,"NIGHT_CLEAR,NIGHT_MOSTLY_CLOUDY","Cross-shore,Cross-shore",2
5842041f4e65fad6a7708b64,2024_12_15,38.93036,-74.91257,Queen Street,1.5,0.11499999999999999,0.4218,8,7,"NIGHT_CLEAR,NIGHT_MOSTLY_CLOUDY","Cross-shore,Offshore",2
5842041f4e65fad6a7708b65,2024_12_15,38.942757,-74.880791,Poverty Beach,1,0.11499999999999999,0.41305000000000003,8,7,"NIGHT_CLEAR,NIGHT_MOSTLY_CLOUDY","Offshore,Offshore",2
5842041f4e65fad6a7708b66,2024_12_15,38.929441,-74.93129,Broadway Beach,1.5,0.10125,0.4043,8,7,"NIGHT_CLEAR,NIGHT_MOSTLY_CLOUDY","Cross-shore,Offshore",2
5842041f4e65fad6a7708b67,2024_12_15,38.92870117926206,-74.92116,Grant Street Beach,1.5,0.11000000000000001,0.4218,8,7,"NIGHT_MOSTLY_CLEAR,NIGHT_MOSTLY_CLOUDY","Cross-shore,Offshore",2
5842041f4e65fad6a7708b68,2024_12_15,38.928934874358276,-74.93582,The Cove,1.5,0.02,0.315,12,12,"NIGHT_CLEAR,NIGHT_MOSTLY_CLOUDY","Cross-shore,Offshore",2
5842041f4e65fad6a7708b69,2024_12_15,26.775154329102108,-80.03124833106995,Pumphouse,0.5,2.14,2.45,25,25,"NIGHT_OVERCAST,NIGHT_OVERCAST","Onshore,Onshore",2
5842041f4e65fad6a7708b6a,2024_12_15,26.72114353296791,-80.03310374527736,Sunrise,1.3333333333333333,1.563385,2.015285,25,23,"NIGHT_OVERCAST,NIGHT_CLEAR","Onshore,Onshore",2
5842041f4e65fad6a7708b6b,2024_12_15,26.71306786153966,-80.03222170715443,Breakers,1.3333333333333333,1.740465,2.049035,25,23,"NIGHT_OVERCAST,NIGHT_OVERCAST","Onshore,Onshore",2
5842041f4e65fad6a7708b6c,2024_12_15,26.699075556703683,-80.03263235092163,Charlie's Crab,1.3333333333333333,1.6629649999999998,2.101535,25,23,"NIGHT_OVERCAST,NIGHT_OVERCAST","Onshore,Onshore",2
5842041f4e65fad6a7708b6d,2024_12_15,26.79441490392914,-80.0306161110009,Ocean Reef Park,0.41666666666666663,1.53255,1.9832,25,23,"NIGHT_OVERCAST,NIGHT_OVERCAST","Onshore,Onshore",2
5842041f4e65fad6a7708b6f,2024_12_15,26.93134670517399,-80.06760115579169,Civic Center,1,1.4600499999999998,2.08628,25,23,"NIGHT_MOSTLY_CLOUDY,NIGHT_BRIEF_SHOWERS","Onshore,Onshore",2
5842041f4e65fad6a7708b70,2024_12_15,26.90524197396177,-80.0593609780092,Kite Beach,1,1.603715,2.125825,25,23,"NIGHT_CLOUDY,NIGHT_HEAVY_SHOWERS","Onshore,Onshore",2
5842041f4e65fad6a7708b71,2024_12_15,26.54279208054373,-80.04292130470276,Boynton Beach Inlet (Southside),0.9166666666666666,1.3613,1.804865,25,23,"NIGHT_MOSTLY_CLOUDY,NIGHT_MOSTLY_CLOUDY","Onshore,Onshore",2
5842041f4e65fad6a7708b72,2024_12_15,26.613511029817357,-80.03534,Lake Worth Pier,1,0.946815,1.468585,25,23,"NIGHT_OVERCAST,NIGHT_MOSTLY_CLOUDY","Onshore,Onshore",2
5842041f4e65fad6a7708b73,2024_12_15,27.06670219261476,-80.11447191238403,Hobe Sound Public Beach,0.41666666666666663,2.200165,2.515815,25,23,"NIGHT_MOSTLY_CLOUDY,NIGHT_MOSTLY_CLOUDY","Onshore,Onshore",2
5842041f4e65fad6a7708b75,2024_12_15,27.21467611230439,-80.17308,Stuart Public Beach,0,2.106415,2.696765,25,23,"NIGHT_MOSTLY_CLOUDY,NIGHT_CLEAR","Onshore,Onshore",2
5842041f4e65fad6a7708b76,2024_12_15,27.36627923374593,-80.24622,Blind Creek Park,0,1.71939,2.590845,25,23,"NIGHT_CLOUDY,NIGHT_MOSTLY_CLOUDY","Onshore,Onshore",2
5842041f4e65fad6a7708b77,2024_12_15,26.94256932088346,-80.07057,Jupiter Inlet,0.9166666666666666,2.050165,2.3587350000000002,25,23,"NIGHT_MOSTLY_CLOUDY,NIGHT_BRIEF_SHOWERS","Onshore,Onshore",2
5842041f4e65fad6a7708b78,2024_12_15,26.89365359499372,-80.056,Juno Pier,1,1.589,2.2136,25,23,"NIGHT_CLOUDY,NIGHT_HEAVY_SHOWERS","Onshore,Onshore",2
5842041f4e65fad6a7708b7a,2024_12_15,29.67671206577928,-85.3689474172784,Cape San Blas,2,0.13,0.43,21,21,"NIGHT_CLEAR,NIGHT_MOSTLY_CLOUDY","Offshore,Offshore",2
5842041f4e65fad6a7708b7b,2024_12_15,26.706551543472415,-80.03280401229858,Flagpole,1.3333333333333333,1.6325500000000002,2.07445,25,23,"NIGHT_OVERCAST,NIGHT_OVERCAST","Onshore,Onshore",2
5842041f4e65fad6a7708b7c,2024_12_15,29.94036477533054,-85.40953557392244,El Governor,0.5,0,0.175,19,19,"NIGHT_CLEAR,NIGHT_CLEAR","Offshore,Offshore",2
5842041f4e65fad6a7708b7d,2024_12_15,29.68231979841189,-85.30627194238092,Toilet Bowls,2,0.155,0.45999999999999996,20,20,"NIGHT_CLEAR,NIGHT_CLEAR","Offshore,Cross-shore",2
5842041f4e65fad6a7708b7e,2024_12_15,29.6607153445246,-84.86361191991014,St. George Island,0,0.075,0.375,18,18,"NIGHT_CLEAR,NIGHT_MOSTLY_CLEAR","Cross-shore,Cross-shore",2
5842041f4e65fad6a7708b7f,2024_12_15,29.77441172865639,-84.65942657000329,Dog Island,0.5,0.055,0.345,18,18,"NIGHT_MOSTLY_CLOUDY,NIGHT_MOSTLY_CLOUDY","Offshore,Cross-shore",2
5842041f4e65fad6a7708b80,2024_12_15,28.59674155718017,-95.97559,Matagorda,2,0.755,1.065,19,19,"MIST,NIGHT_MOSTLY_CLOUDY","Onshore,Onshore",2
5842041f4e65fad6a7708b81,2024_12_15,27.84601633294622,-97.04372701603208,St. Joe's Island,2.5,0.735,1.0350000000000001,21,21,"CLEAR,NIGHT_MOSTLY_CLEAR","Onshore,Onshore",2
5842041f4e65fad6a7708b82,2024_12_15,27.64327897922308,-97.18612,J.P. Luby Surf Park,2,0.834875,1.201255,21,21,"CLEAR,NIGHT_CLEAR","Onshore,Onshore",2
5842041f4e65fad6a7708b83,2024_12_15,27.82704888028459,-97.05277,Horace Caldwell Pier,2,0.80365,1.1662,21,21,"CLEAR,NIGHT_MOSTLY_CLEAR","Onshore,Onshore",2
5842041f4e65fad6a7708b84,2024_12_15,27.67634780977739,-97.16473,Fish Pass,3,0.834875,1.201255,21,21,"CLEAR,NIGHT_MOSTLY_CLOUDY","Onshore,Onshore",2
5842041f4e65fad6a7708b85,2024_12_15,27.58118015227788,-97.2191,Bob Hall Pier,2,0.82159,1.20173,22,22,"CLEAR,NIGHT_CLEAR","Onshore,Onshore",2
5842041f4e65fad6a7708b86,2024_12_15,28.93236038480434,-95.30205,Quintana,3,0.80972,1.159235,19,19,"MIST,NIGHT_MIST","Onshore,Onshore",2
5842041f4e65fad6a7708b87,2024_12_15,28.94367955201253,-95.28969,Octagon,2,0.856325,1.2058399999999998,18,18,"MIST,NIGHT_MIST","Onshore,Onshore",2
5842041f4e65fad6a7708b88,2024_12_15,29.02647703020454,-95.18702498902157,Boilers,2,0.675,0.98,18,18,"MIST,NIGHT_MIST","Onshore,Onshore",2
5842041f4e65fad6a7708b89,2024_12_15,28.9653363517684,-95.26739753922841,Assholes,2,0.71,1.0150000000000001,18,18,"MIST,NIGHT_MIST","Onshore,Onshore",2
5842041f4e65fad6a7708b8a,2024_12_15,29.27159138874912,-94.81532732168617,51st Street,2,0.72,1.025,17,17,"MOSTLY_CLOUDY,NIGHT_FOG","Onshore,Onshore",2
5842041f4e65fad6a7708b8b,2024_12_15,29.13902635892794,-95.04070493829546,West Galveston,2,0.72,1.025,17,17,"DRIZZLE,NIGHT_MIST","Onshore,Onshore",2
5842041f4e65fad6a7708b8c,2024_12_15,29.26596874354759,-94.82556,61st Street,2.5,0.64413,1.01737,17,17,"CLEAR,NIGHT_MIST","Onshore,Onshore",2
5842041f4e65fad6a7708b8d,2024_12_15,29.279815639798642,-94.80146,37th Street,2,0.47977,0.845595,17,17,"MOSTLY_CLOUDY,NIGHT_MIST","Onshore,Onshore",2
5842041f4e65fad6a7708b8e,2024_12_15,29.28680654948785,-94.79106,Flagship,2,0.449975,0.8170550000000001,17,17,"MOSTLY_CLOUDY,NIGHT_MIST","Onshore,Onshore",2
5842041f4e65fad6a7708b8f,2024_12_15,29.4702751255731,-94.59146640261427,A-Frames,2,0.5549999999999999,0.855,16,16,"MIST,NIGHT_FOG","Onshore,Onshore",2
5842041f4e65fad6a7708b90,2024_12_15,29.52172627288487,-94.45911,Meacom's Pier,2,0.46188,0.83867,16,16,"MIST,NIGHT_MOSTLY_CLEAR","Onshore,Onshore",2
5842041f4e65fad6a7708b91,2024_12_15,29.4510876813709,-94.63230467945758,Crystal Beach,2,0.575,0.88,16,16,"OVERCAST,NIGHT_BRIEF_SHOWERS","Onshore,Onshore",2
5842041f4e65fad6a7708b92,2024_12_15,26.06123118244004,-97.14769,Boca Chica,2,0.84721,1.190675,25,25,"CLEAR,NIGHT_CLEAR","Onshore,Onshore",2
5842041f4e65fad6a7708b93,2024_12_15,26.06961904983808,-97.15243,Isla Blanca State Park,2,0.7692,1.10676,25,25,"CLEAR,NIGHT_CLEAR","Cross-shore,Onshore",2
5842041f4e65fad6a7708b96,2024_12_15,26.56132001354785,-97.26967,Port Mansfield,2,0.81345,1.1783000000000001,24,24,"CLEAR,NIGHT_CLEAR","Onshore,Onshore",2
5842041f4e65fad6a7708b98,2024_12_15,10.85099440725964,-85.79981,Ollie's Point,1,0.215,0.52,27,27,"CLEAR,NIGHT_CLEAR","Offshore,Offshore",2
5842041f4e65fad6a7708b99,2024_12_15,10.79489213393012,-85.68066,Witches Rock,2,0.345,0.65,28,28,"CLEAR,NIGHT_CLEAR","Offshore,Offshore",2
5842041f4e65fad6a7708b9a,2024_12_15,9.570222044864844,-85.14184,Mal Pais,2.5,0.595,0.905,28,28,"CLEAR,NIGHT_CLEAR","Onshore,Offshore",2
5842041f4e65fad6a7708b9b,2024_12_15,10.29970304257365,-85.84398,Tamarindo,1,0.19,0.495,28,28,"CLEAR,NIGHT_CLEAR","Cross-shore,Offshore",2
5842041f4e65fad6a7708b9c,2024_12_15,9.250593929300813,-83.86522,Dominical,3,0.41000000000000003,0.715,29,29,"CLEAR,NIGHT_CLEAR","Onshore,Offshore",2
5842041f4e65fad6a7708b9d,2024_12_15,9.48278011021258,-84.28883991550364,Bejuco,2.5,0.455,0.755,29,29,"THUNDER_STORMS,NIGHT_CLEAR","Onshore,Offshore",2
5842041f4e65fad6a7708ba1,2024_12_15,9.616940559391795,-84.63541,Playa Jaco,2.5,0.399335,0.742425,29,29,"CLEAR,NIGHT_BRIEF_SHOWERS_POSSIBLE","Onshore,Offshore",2
5842041f4e65fad6a7708ba3,2024_12_15,9.661646156842439,-84.67316883195207,Playa Escondida,2.5,0.375,0.675,28,28,"CLEAR,NIGHT_CLEAR","Cross-shore,Offshore",2
5842041f4e65fad6a7708ba4,2024_12_15,9.635059578319176,-84.66159522794959,Herradura,2.5,0.395,0.695,29,29,"CLEAR,NIGHT_CLEAR","Cross-shore,Offshore",2
5842041f4e65fad6a7708ba5,2024_12_15,9.958235741436532,-84.74122,Boca Barranca,3,0.35416,0.71422,28,28,"CLEAR,NIGHT_CLEAR","Onshore,Offshore",2
5842041f4e65fad6a7708ba6,2024_12_15,9.922484732656224,-84.7158981889118,Caldera Jetty,2,0.315,0.625,28,28,"CLEAR,NIGHT_CLEAR","Onshore,Offshore",2
5842041f4e65fad6a7708ba7,2024_12_15,9.661180947362254,-82.75273,Salsa Brava,2.5,0.83645,1.191655,29,29,"BRIEF_SHOWERS,NIGHT_CLEAR","Onshore,Offshore",2
5842041f4e65fad6a7708ba8,2024_12_15,8.38230022212565,-83.28332,Matapalo,2.5,0.61,0.92,29,29,"BRIEF_SHOWERS_POSSIBLE,NIGHT_BRIEF_SHOWERS_POSSIBLE","Onshore,Offshore",2
5842041f4e65fad6a7708ba9,2024_12_15,8.394937,-83.13952,Pavones,3,0.445,0.755,29,29,"BRIEF_SHOWERS_POSSIBLE,NIGHT_BRIEF_SHOWERS_POSSIBLE","Onshore,Cross-shore",2
5842041f4e65fad6a7708baa,2024_12_15,13.47971255664387,-89.28610104791234,Playa San Diego,3,0.53,0.835,29,29,"CLEAR,NIGHT_CLEAR","Onshore,Offshore",2
5842041f4e65fad6a7708bab,2024_12_15,13.4834740494465,-89.32376,La Paz,2,0.20768,0.49746999999999997,29,29,"CLEAR,NIGHT_CLEAR","Cross-shore,Offshore",2
5842041f4e65fad6a7708bac,2024_12_15,13.48587874937462,-89.31998852531258,El Muelle (Pier),3,0.51,0.815,29,29,"CLEAR,NIGHT_CLEAR","Onshore,Offshore",2
5842041f4e65fad6a7708bad,2024_12_15,13.47973883183636,-89.32655,Punta Roca,2.5,0.515,0.82,29,29,"CLEAR,NIGHT_CLEAR","Onshore,Offshore",2
5842041f4e65fad6a7708bae,2024_12_15,13.491596878346689,-89.38104,La Bocana,2.5,0.3727,0.70155,29,29,"CLEAR,NIGHT_CLEAR","Onshore,Offshore",2
5842041f4e65fad6a7708baf,2024_12_15,13.48324995683858,-89.33946,Playa Conchalio,3,0.33044,0.66649,29,29,"CLEAR,NIGHT_CLEAR","Onshore,Offshore",2
5842041f4e65fad6a7708bb0,2024_12_15,13.49167561061991,-89.39,Sunzal,2,0.244,0.488,29,29,"CLEAR,NIGHT_CLEAR","Cross-shore,Offshore",2
5842041f4e65fad6a7708bb1,2024_12_15,35.92499624829542,-121.46957,Sand Dollar Beach,2,4.572,6.096,13,13,"MIST,NIGHT_CLEAR","Cross-shore,Offshore",2
5842041f4e65fad6a7708bb3,2024_12_15,36.55448900657569,-121.93114,Carmel Beach,2,2.755,3.295,13,13,"CLEAR,NIGHT_CLEAR","Onshore,Cross-shore",2
5842041f4e65fad6a7708bb4,2024_12_15,36.27968576518622,-121.85962,Big Sur Rivermouth,2.5,3.24,3.875,13,13,"MOSTLY_CLOUDY,NIGHT_MOSTLY_CLEAR","Cross-shore,Offshore",2
5842041f4e65fad6a7708bb5,2024_12_15,36.60883280895963,-121.9603486684287,Mole Point,1.5,4.095,4.890000000000001,13,13,"CLEAR,NIGHT_CLEAR","Onshore,Onshore",2
5842041f4e65fad6a7708bb6,2024_12_15,36.63788026219399,-121.9311174079908,Boneyard,1,3.25,3.88,13,13,"MOSTLY_CLOUDY,NIGHT_CLEAR","Onshore,Onshore",2
5842041f4e65fad6a7708bb7,2024_12_15,36.61880091818895,-121.9422482210244,Asilomar,1,4.5760000000000005,5.708,13,13,"CLEAR,NIGHT_CLEAR","Onshore,Cross-shore",2
5842041f4e65fad6a7708bb8,2024_12_15,36.56037685095311,-121.9516152313922,Ghost Tree,2,3.5,4.1850000000000005,13,13,"MOSTLY_CLOUDY,NIGHT_CLEAR","Onshore,Offshore",2
5842041f4e65fad6a7708bbb,2024_12_15,35.89412279173619,-121.462380148047,Willow Creek,2,4.635,5.54,13,13,"MIST,NIGHT_CLEAR","Cross-shore,Offshore",2
5842041f4e65fad6a7708bbc,2024_12_15,36.6260658643635,-121.91548,Lovers Point,2,2.915,3.43,13,13,"MOSTLY_CLOUDY,NIGHT_CLEAR","Cross-shore,Onshore",2
5842041f4e65fad6a7708bbd,2024_12_15,38.945,-9.42,Foz de Lizandro,4,1.2459099999999999,1.38986,16,16,"NIGHT_CLEAR,NIGHT_CLEAR","Offshore,Offshore",2
5842041f4e65fad6a7708bbf,2024_12_15,36.80821791915616,-121.79055,Moss Landing,1,4.345,5.1899999999999995,13,13,"CLEAR,NIGHT_CLEAR","Onshore,Onshore",2
5842041f4e65fad6a7708bc0,2024_12_15,38.67869246746279,-9.33685,Carcavelos,2,0.24067,0.558155,16,16,"NIGHT_CLEAR,NIGHT_CLEAR","Offshore,Offshore",2
5842041f4e65fad6a7708bc1,2024_12_15,38.983,-9.425,Reef,4,1.51,1.72,16,16,"NIGHT_CLEAR,NIGHT_CLEAR","Offshore,Offshore",2
5842041f4e65fad6a7708bc2,2024_12_15,38.988,-9.424,Ribeira D'Ilhas,4,1.26,1.4,16,16,"NIGHT_CLEAR,NIGHT_CLEAR","Offshore,Offshore",2
5842041f4e65fad6a7708bc3,2024_12_15,39.34167968424256,-9.36331,Supertubos,3,0.365,0.6699999999999999,16,16,"NIGHT_CLEAR,NIGHT_CLEAR","Offshore,Offshore",2
5842041f4e65fad6a7708bc4,2024_12_15,39.001,-9.4284,Coxos,4,1.3650950000000002,1.60662,16,16,"NIGHT_CLEAR,NIGHT_CLEAR","Offshore,Offshore",2
5842041f4e65fad6a7708bc5,2024_12_15,40.13063921100635,-8.87044,Cabedelo,3,1.159465,1.38421,16,16,"NIGHT_CLEAR,NIGHT_CLEAR","Offshore,Offshore",2
5842041f4e65fad6a7708bc6,2024_12_15,39.37397686060677,-9.33235,Baleal,3,0.72,1.02,16,16,"NIGHT_CLEAR,NIGHT_CLEAR","Cross-shore,Cross-shore",2
5842041f4e65fad6a7708bc7,2024_12_15,31.80902927937703,-116.8081979700041,Todos Santos / Killers,NA,2.9699999999999998,3.545,16,16,"CLEAR,NIGHT_MIST","Onshore,Onshore",2
