_id,date,lat,lon,name,daily_mean_swell_rating,daily_mean_wave_height_min,daily_mean_wave_height_max,daily_mean_water_temperature_max,daily_mean_water_temperature_min,weather_per_timestamp,wind_per_timestamp,n_samples_per_day
5842041f4e65fad6a77087f9,2024_03_08,37.741668,-122.51038,South Ocean Beach,2.634,1.1804000000000001,1.7248999999999999,14,14,"CLEAR,CLEAR,CLEAR,CLEAR,CLEAR","Offshore,Offshore,Onshore,Onshore,Onshore",5
5842041f4e65fad6a7708801,2024_03_08,37.49142,-122.50428,Maverick's,NA,1.11,1.324,13,13,"CLEAR,CLEAR,CLEAR,CLEAR,CLEAR","Offshore,Offshore,Offshore,Offshore,Offshore",5
5842041f4e65fad6a7708804,2024_03_08,44.997,-124.018,Roads End,3.6,1.24,1.524,10,10,"CLEAR,CLEAR,CLEAR,CLEAR,CLEAR","Offshore,Offshore,Offshore,Cross-shore,Cross-shore",5
5842041f4e65fad6a7708805,2024_03_08,36.95188851423011,-122.02522,Steamer Lane,2.5,0.7723000000000001,1.0744,14,14,"CLEAR,CLEAR,CLEAR,CLEAR,CLEAR","Offshore,Offshore,Onshore,Onshore,Cross-shore",5
5842041f4e65fad6a7708806,2024_03_08,36.95918781542251,-122.02489,Cowells,1,0,0.15730000000000002,14,14,"CLEAR,CLEAR,CLEAR,CLEAR,CLEAR","Cross-shore,Cross-shore,Onshore,Cross-shore,Offshore",5
5842041f4e65fad6a7708807,2024_03_08,36.95468082526536,-121.97234,Pleasure Point,3,0.5337,0.9481,14,14,"CLEAR,CLEAR,CLEAR,CLEAR,CLEAR","Onshore,Onshore,Onshore,Onshore,Cross-shore",5
5842041f4e65fad6a770880a,2024_03_08,35.37815414378748,-120.86589,Morro Bay,3,0.8783,1.2547,14,14,"CLEAR,CLEAR,CLEAR,CLEAR,CLEAR","Offshore,Cross-shore,Onshore,Offshore,Cross-shore",5
5842041f4e65fad6a770880b,2024_03_08,36.95782765000708,-121.9672887511276,Jack's,1,-0.021499999999999995,0.1718,14,14,"CLEAR,CLEAR,CLEAR,CLEAR,CLEAR","Onshore,Onshore,Onshore,Onshore,Cross-shore",5
5842041f4e65fad6a770880d,2024_03_08,34.29982939936656,-119.3489016603669,Gold Coast Beachbreaks,2,0.126,0.43,14,14,"CLEAR,CLEAR,CLEAR,CLEAR,CLEAR","Cross-shore,Onshore,Onshore,Onshore,Cross-shore",5
5842041f4e65fad6a7708811,2024_03_08,34.245076,-119.26799,Ventura Harbor,2.834,0.8455126666666667,1.270567,14,14,"CLEAR,CLEAR,CLEAR,CLEAR,CLEAR","Onshore,Offshore,Cross-shore,Cross-shore,Cross-shore",5
5842041f4e65fad6a7708813,2024_03_08,34.051,-118.964,County Line,2.166,0.4912,0.7968,15,15,"CLEAR,CLEAR,CLEAR,MOSTLY_CLEAR,BRIEF_SHOWERS","Offshore,Cross-shore,Cross-shore,Cross-shore,Onshore",5
5842041f4e65fad6a7708814,2024_03_08,34.37256264378892,-119.47797,Rincon,2,0.17400000000000002,0.48,14,14,"CLEAR,CLEAR,CLEAR,CLEAR,CLEAR","Offshore,Onshore,Onshore,Cross-shore,Cross-shore",5
5842041f4e65fad6a7708817,2024_03_08,34.03096101876324,-118.68109,Malibu Third Point,2,0.14600000000000002,0.45,15,15,"CLEAR,CLEAR,CLEAR,CLEAR,CLEAR","Cross-shore,Onshore,Onshore,Onshore,Onshore",5
5842041f4e65fad6a7708819,2024_03_08,33.984079047970035,-118.47381591796875,Venice Beach,2.3,0.5062000000000001,0.9205999999999999,14,14,"MIST,CLEAR,CLEAR,MIST,BRIEF_SHOWERS_POSSIBLE","Offshore,Offshore,Onshore,Onshore,Onshore",5
5842041f4e65fad6a770881e,2024_03_08,34.037508438646746,-118.58339846155594,Topanga Beach,2,0.2276,0.5392,15,15,"CLEAR,CLEAR,CLEAR,CLEAR,MOSTLY_CLEAR","Cross-shore,Onshore,Onshore,Onshore,Onshore",5
5842041f4e65fad6a7708820,2024_03_08,33.73954373690184,-118.11414,Seal Beach Jetty,2,0.15,0.454,15,15,"MOSTLY_CLOUDY,MOSTLY_CLOUDY,MOSTLY_CLOUDY,MOSTLY_CLOUDY,CLEAR","Offshore,Offshore,Onshore,Onshore,Onshore",5
5842041f4e65fad6a7708822,2024_03_08,33.72309983348433,-118.08078,Anderson Street,1.8,0.212,0.514,15,15,"MOSTLY_CLOUDY,MOSTLY_CLOUDY,MOSTLY_CLOUDY,MOSTLY_CLOUDY,MOSTLY_CLOUDY","Offshore,Offshore,Onshore,Onshore,Onshore",5
5842041f4e65fad6a7708827,2024_03_08,33.65574085629463,-118.00397,Huntington Beach Pier Northside,2.666,0.7028,1.0649000000000002,15,15,"MOSTLY_CLOUDY,MOSTLY_CLOUDY,MOSTLY_CLOUDY,MOSTLY_CLOUDY,MOSTLY_CLOUDY","Offshore,Offshore,Cross-shore,Onshore,Onshore",5
5842041f4e65fad6a7708828,2024_03_08,34.272041739333,-119.2997646331,C St.,2,0.2733333333333333,0.5833333333333333,14,14,"CLEAR,CLEAR,CLEAR,CLEAR,CLEAR","Offshore,Offshore,Cross-shore,Onshore,Cross-shore",5
5842041f4e65fad6a770882a,2024_03_08,33.61555743705257,-117.93676,Newport Lower Jetties,1.8,0.4542,0.7563,15,15,"MOSTLY_CLOUDY,MOSTLY_CLOUDY,MOSTLY_CLOUDY,CLEAR,CLEAR","Offshore,Offshore,Onshore,Onshore,Onshore",5
5842041f4e65fad6a770882b,2024_03_08,33.5930302087,-117.88199,The Wedge,2,0.247752,0.68389200000000006,15,15,"MOSTLY_CLOUDY,MOSTLY_CLOUDY,MOSTLY_CLOUDY,MOSTLY_CLOUDY,MOSTLY_CLOUDY","Offshore,Offshore,Onshore,Onshore,Onshore",5
5842041f4e65fad6a770882c,2024_03_08,33.60577342582,-117.9315376281,Newport Beach Pier,3,0.4632,0.8851,15,15,"MOSTLY_CLOUDY,MOSTLY_CLOUDY,MOSTLY_CLOUDY,MOSTLY_CLOUDY,MOSTLY_CLOUDY","Onshore,Onshore,Onshore,Onshore,Onshore",5
5842041f4e65fad6a770882e,2024_03_08,33.475793399792984,-117.72291,Salt Creek,3,0.8363,1.2547,15,15,"MOSTLY_CLOUDY,MOSTLY_CLOUDY,MOSTLY_CLOUDY,MOSTLY_CLOUDY,MOSTLY_CLOUDY","Cross-shore,Cross-shore,Onshore,Onshore,Onshore",5
5842041f4e65fad6a7708830,2024_03_08,33.41800974113613,-117.61952,T-Street,1.966,0.5467000000000001,0.9665999999999999,16,16,"MOSTLY_CLOUDY,MOSTLY_CLOUDY,MOSTLY_CLOUDY,MOSTLY_CLOUDY,MOSTLY_CLEAR","Onshore,Onshore,Onshore,Onshore,Onshore",5
5842041f4e65fad6a7708832,2024_03_08,33.202391008646,-117.39475,Oceanside Harbor,1.966,0.7338,1.1502000000000001,16,16,"MOSTLY_CLOUDY,MOSTLY_CLOUDY,CLEAR,CLEAR,MIST","Offshore,Offshore,Onshore,Onshore,Onshore",5
5842041f4e65fad6a7708835,2024_03_08,33.19477795952803,-117.38667,Oceanside Pier,2,0.7238,1.0259,16,16,"MOSTLY_CLOUDY,MOSTLY_CLEAR,CLEAR,CLEAR,CLEAR","Offshore,Offshore,Offshore,Onshore,Onshore",5
5842041f4e65fad6a7708837,2024_03_08,33.14948100706,-117.35029,Tamarack,2.6,0.402,0.706,16,16,"CLEAR,CLEAR,CLEAR,CLEAR,CLEAR","Offshore,Offshore,Cross-shore,Cross-shore,Onshore",5
5842041f4e65fad6a7708839,2024_03_08,32.865777159358856,-117.25614295356122,Scripps,2.434,1.0134,1.278,16,16,"CLEAR,CLEAR,CLEAR,CLEAR,MIST","Offshore,Cross-shore,Onshore,Onshore,Onshore",5
5842041f4e65fad6a770883a,2024_03_08,32.813094,-117.27381,Birdrock,3,0.944,1.168,16,16,"CLEAR,CLEAR,CLEAR,CLEAR,CLEAR","Offshore,Offshore,Onshore,Onshore,Cross-shore",5
5842041f4e65fad6a770883b,2024_03_08,32.877231,-117.25303,Blacks,2.466,1.0649,1.5566,16,16,"CLEAR,CLEAR,CLEAR,CLEAR,MIST","Onshore,Onshore,Onshore,Onshore,Onshore",5
5842041f4e65fad6a770883c,2024_03_08,32.82978974229765,-117.28161740727381,Windansea,2,1.0039,1.2395,15,15,"CLEAR,CLEAR,CLEAR,CLEAR,CLEAR","Offshore,Offshore,Cross-shore,Onshore,Onshore",5
5842041f4e65fad6a770883d,2024_03_08,32.838278,-117.28396,Horseshoe,3.4,1.102,1.334,16,16,"CLEAR,CLEAR,CLEAR,CLEAR,CLEAR","Offshore,Offshore,Onshore,Onshore,Onshore",5
5842041f4e65fad6a770883f,2024_03_08,32.75034717673179,-117.25337,Ocean Beach,1.9,1.0609000000000002,1.343,15,15,"CLEAR,CLEAR,CLEAR,CLEAR,CLEAR","Offshore,Offshore,Onshore,Onshore,Onshore",5
5842041f4e65fad6a7708840,2024_03_08,32.73693,-117.25718,Sunset Cliffs,2.6,1.106,1.368,16,16,"CLEAR,CLEAR,CLEAR,CLEAR,CLEAR","Offshore,Offshore,Onshore,Onshore,Onshore",5
5842041f4e65fad6a7708841,2024_03_08,32.796582258728826,-117.25779,Pacific Beach,2.466,1.0269,1.3165,15,15,"CLEAR,CLEAR,CLEAR,CLEAR,CLEAR","Offshore,Offshore,Onshore,Onshore,Cross-shore",5
5842041f4e65fad6a7708842,2024_03_08,32.776636,-117.25514,Mission Beach,1.966,1.0289000000000001,1.3245,15,15,"CLEAR,CLEAR,CLEAR,CLEAR,CLEAR","Offshore,Offshore,Onshore,Onshore,Onshore",5
5842041f4e65fad6a7708844,2024_03_08,32.577195519016,-117.13475,Imperial Beach Pier,2.8,1.292,1.548,15,15,"CLEAR,CLEAR,CLEAR,CLEAR,CLEAR","Offshore,Offshore,Cross-shore,Onshore,Onshore",5
5842041f4e65fad6a770884a,2024_03_08,42.88678181061,-70.80843,Seabrook,2,1.1273517857142858,1.59106,4,3,"NIGHT_CLEAR,NIGHT_CLEAR,NIGHT_CLEAR,NIGHT_CLEAR,NIGHT_CLEAR,CLEAR,CLEAR,CLEAR,CLEAR,CLEAR,CLEAR,CLEAR,CLEAR,CLEAR","Cross-shore,Cross-shore,Cross-shore,Cross-shore,Cross-shore,Cross-shore,Cross-shore,Cross-shore,Cross-shore,Cross-shore,Cross-shore,Onshore,Onshore,Onshore",14
5842041f4e65fad6a770884e,2024_03_08,41.434181432898335,-71.45312118111178,Narragansett,1.8857142857142857,0.5000097402597403,0.8009835497835498,6,4,"NIGHT_CLEAR,NIGHT_CLEAR,NIGHT_CLEAR,NIGHT_CLEAR,NIGHT_CLEAR,CLEAR,CLEAR,CLEAR,CLEAR,CLEAR,CLEAR,CLEAR,CLEAR,CLEAR","Offshore,Offshore,Offshore,Offshore,Offshore,Offshore,Offshore,Offshore,Offshore,Offshore,Offshore,Offshore,Offshore,Offshore",14
5842041f4e65fad6a7708850,2024_03_08,40.582703230722,-73.65247,Lincoln Blvd,2.845,0.652752380952381,0.9970966666666667,7,6,"NIGHT_CLEAR,NIGHT_CLEAR,NIGHT_CLEAR,NIGHT_CLEAR,NIGHT_MIST,CLEAR,MIST,CLEAR,CLEAR,CLEAR,CLEAR,CLEAR,CLEAR,CLEAR","Offshore,Offshore,Offshore,Offshore,Offshore,Offshore,Offshore,Offshore,Offshore,Offshore,Offshore,Onshore,Onshore,Onshore",14
5842041f4e65fad6a7708852,2024_03_08,40.58342841721757,-73.81182,Rockaways,3.185714285714286,0.8502238095238095,1.1646,7,6,"NIGHT_CLEAR,NIGHT_CLEAR,NIGHT_CLEAR,NIGHT_CLEAR,NIGHT_CLEAR,CLEAR,MIST,CLEAR,CLEAR,CLEAR,CLEAR,CLEAR,CLEAR,CLEAR","Offshore,Offshore,Offshore,Offshore,Offshore,Offshore,Offshore,Offshore,Offshore,Offshore,Offshore,Offshore,Offshore,Cross-shore",14
5842041f4e65fad6a7708853,2024_03_08,40.330474,-73.9734,Monmouth Beach,1.905,0.8708428571428571,1.195642857142857,7,6,"NIGHT_CLEAR,NIGHT_CLEAR,NIGHT_CLEAR,NIGHT_CLEAR,NIGHT_CLEAR,CLEAR,CLEAR,CLEAR,CLEAR,CLEAR,CLEAR,CLEAR,CLEAR,CLEAR","Cross-shore,Cross-shore,Offshore,Offshore,Offshore,Cross-shore,Cross-shore,Cross-shore,Cross-shore,Cross-shore,Cross-shore,Cross-shore,Cross-shore,Cross-shore",14
5842041f4e65fad6a7708856,2024_03_08,40.113,-74.028,Manasquan Inlet,1.4878571428571428,0.9300690476190476,1.2641214285714286,7,6,"NIGHT_CLEAR,NIGHT_CLEAR,NIGHT_CLEAR,NIGHT_CLEAR,NIGHT_CLEAR,CLEAR,CLEAR,CLEAR,CLEAR,CLEAR,CLEAR,CLEAR,CLEAR,CLEAR","Cross-shore,Cross-shore,Cross-shore,Offshore,Cross-shore,Cross-shore,Cross-shore,Cross-shore,Cross-shore,Cross-shore,Cross-shore,Onshore,Cross-shore,Onshore",14
5842041f4e65fad6a7708857,2024_03_08,39.941519877445664,-74.06829,Casino Pier,1.3757142857142857,1.1033261904761904,1.4068214285714284,7,6,"NIGHT_CLEAR,NIGHT_CLEAR,NIGHT_CLEAR,NIGHT_CLEAR,NIGHT_CLEAR,CLEAR,CLEAR,CLEAR,CLEAR,CLEAR,CLEAR,CLEAR,CLEAR,CLEAR","Cross-shore,Cross-shore,Offshore,Offshore,Offshore,Offshore,Cross-shore,Cross-shore,Cross-shore,Cross-shore,Cross-shore,Cross-shore,Cross-shore,Cross-shore",14
5842041f4e65fad6a7708858,2024_03_08,39.28223089949212,-74.55766,North End OC,1.8035714285714286,0.8162166666666667,1.1491857142857143,7.428571428571429,6,"NIGHT_CLEAR,NIGHT_CLEAR,NIGHT_CLEAR,NIGHT_CLEAR,NIGHT_CLEAR,CLEAR,CLEAR,CLEAR,CLEAR,CLEAR,CLEAR,CLEAR,CLEAR,CLEAR","Offshore,Offshore,Offshore,Offshore,Offshore,Offshore,Cross-shore,Cross-shore,Cross-shore,Cross-shore,Cross-shore,Onshore,Cross-shore,Onshore",14
5842041f4e65fad6a770885b,2024_03_08,39.65080599934257,-74.17146,Ship Bottom,1.6664285714285714,0.9503833333333334,1.4232738095238096,7.428571428571429,6,"NIGHT_CLEAR,NIGHT_CLEAR,NIGHT_CLEAR,NIGHT_CLEAR,NIGHT_CLEAR,CLEAR,CLEAR,CLEAR,CLEAR,CLEAR,CLEAR,CLEAR,CLEAR,CLEAR","Offshore,Offshore,Offshore,Offshore,Offshore,Offshore,Offshore,Cross-shore,Cross-shore,Cross-shore,Cross-shore,Cross-shore,Cross-shore,Cross-shore",14
5842041f4e65fad6a7708863,2024_03_08,36.034151543144,-75.66791,Third Street,1.2857142857142858,0.8770571428571429,1.2001785714285715,10.142857142857142,8.571428571428571,"NIGHT_CLEAR,NIGHT_CLEAR,NIGHT_CLEAR,NIGHT_OVERCAST,NIGHT_OVERCAST,OVERCAST,OVERCAST,OVERCAST,OVERCAST,CLEAR,CLEAR,CLEAR,CLEAR,CLEAR","Onshore,Onshore,Onshore,Onshore,Onshore,Onshore,Onshore,Onshore,Onshore,Onshore,Onshore,Onshore,Onshore,Onshore",14
5842041f4e65fad6a7708867,2024_03_08,35.605833221351425,-75.46303,S-Turns,0.6285714285714286,1.0276266666666667,1.5213228571428572,11,9,"NIGHT_MIST,NIGHT_CLEAR,NIGHT_CLEAR,NIGHT_MIST,NIGHT_MIST,MIST,MIST,DRIZZLE,DRIZZLE,MOSTLY_CLOUDY,MIST,MIST,MIST,MIST","Cross-shore,Cross-shore,Cross-shore,Onshore,Onshore,Onshore,Cross-shore,Cross-shore,Onshore,Onshore,Onshore,Cross-shore,Cross-shore,Cross-shore",14
5842041f4e65fad6a770886d,2024_03_08,38.338461,-75.08117,Ocean City Boardwalk,1.2735714285714286,0.9778214285714286,1.3380119047619048,8,7,"NIGHT_CLEAR,NIGHT_CLEAR,NIGHT_CLEAR,NIGHT_CLEAR,NIGHT_CLEAR,CLEAR,CLEAR,CLEAR,CLEAR,CLEAR,CLEAR,CLEAR,MOSTLY_CLEAR,CLEAR","Onshore,Onshore,Onshore,Onshore,Onshore,Onshore,Onshore,Onshore,Onshore,Onshore,Onshore,Onshore,Onshore,Onshore",14
5842041f4e65fad6a770886f,2024_03_08,29.844757212379562,-81.26136,A St.,2.2142857142857144,0.45,0.755,17,17,"NIGHT_CLEAR,NIGHT_CLEAR,NIGHT_MIST,NIGHT_MIST,NIGHT_MIST,MIST,MIST,CLEAR,CLEAR,MIST,MIST,MIST,MIST,MIST","Cross-shore,Cross-shore,Cross-shore,Onshore,Onshore,Onshore,Onshore,Onshore,Onshore,Onshore,Onshore,Onshore,Onshore,Onshore",14
5842041f4e65fad6a7708871,2024_03_08,29.069417851135093,-80.90824,New Smyrna Beach,2.5828571428571427,0.904245238095238,1.2958766666666666,19,17,"NIGHT_MIST,NIGHT_MIST,NIGHT_CLOUDY,NIGHT_CLOUDY,NIGHT_MIST,MOSTLY_CLOUDY,BRIEF_SHOWERS,MIST,MIST,MIST,BRIEF_SHOWERS,SHOWERS,MIST,BRIEF_SHOWERS","Onshore,Onshore,Onshore,Onshore,Onshore,Onshore,Onshore,Onshore,Onshore,Onshore,Onshore,Onshore,Onshore,Onshore",14
5842041f4e65fad6a7708872,2024_03_08,28.367707417566,-80.60171,Cocoa Beach Pier,2,0.5807,0.9261714285714285,21,20,"NIGHT_CLEAR,NIGHT_MIST,NIGHT_MIST,NIGHT_MIST,NIGHT_MIST,MOSTLY_CLOUDY,MOSTLY_CLOUDY,MOSTLY_CLOUDY,BRIEF_SHOWERS,CLEAR,CLEAR,CLEAR,CLEAR,CLEAR","Onshore,Onshore,Onshore,Onshore,Onshore,Onshore,Onshore,Onshore,Onshore,Onshore,Onshore,Onshore,Onshore,Onshore",14
5842041f4e65fad6a7708873,2024_03_08,28.091782738658846,-80.56479,Indialantic,2.69,0.7742857142857142,1.0788095238095239,21,20,"NIGHT_MIST,NIGHT_MIST,NIGHT_MIST,NIGHT_BRIEF_SHOWERS,NIGHT_MIST,CLEAR,MIST,MIST,MOSTLY_CLOUDY,CLEAR,CLEAR,MIST,MIST,MIST","Cross-shore,Cross-shore,Onshore,Onshore,Onshore,Onshore,Onshore,Onshore,Onshore,Onshore,Onshore,Onshore,Onshore,Onshore",14
5842041f4e65fad6a7708876,2024_03_08,27.25392904143517,-80.19455,Jensen Beach,1.832857142857143,0.49874285714285715,0.8006142857142857,23,22,"NIGHT_MIST,NIGHT_MIST,NIGHT_MIST,NIGHT_MOSTLY_CLOUDY,NIGHT_MOSTLY_CLOUDY,MIST,MOSTLY_CLOUDY,MOSTLY_CLOUDY,CLEAR,MIST,MIST,MIST,MIST,BRIEF_SHOWERS","Offshore,Cross-shore,Onshore,Offshore,Onshore,Offshore,Cross-shore,Cross-shore,Cross-shore,Onshore,Onshore,Onshore,Onshore,Onshore",14
5842041f4e65fad6a7708879,2024_03_08,26.76346795333825,-80.0360655784607,Reef Road,0.3578571428571429,0.06233809523809525,0.2636047619047619,24,23,"NIGHT_MIST,NIGHT_MIST,NIGHT_MIST,NIGHT_FOG,NIGHT_MIST,MIST,MIST,MIST,MOSTLY_CLOUDY,CLEAR,CLEAR,CLEAR,CLEAR,BRIEF_SHOWERS_POSSIBLE","Offshore,Offshore,Offshore,Offshore,Offshore,Offshore,Offshore,Offshore,Cross-shore,Onshore,Onshore,Onshore,Onshore,Onshore",14
5842041f4e65fad6a770887c,2024_03_08,26.336499228484,-80.06956100463,Boca Raton Inlet,0.9642857142857143,0.03428571428571429,0.3384714285714286,25,23,"NIGHT_MIST,NIGHT_CLEAR,NIGHT_CLEAR,NIGHT_CLEAR,NIGHT_CLEAR,MIST,CLEAR,CLEAR,CLEAR,CLEAR,CLEAR,CLEAR,CLEAR,CLEAR","Cross-shore,Offshore,Cross-shore,Cross-shore,Offshore,Offshore,Offshore,Offshore,Cross-shore,Onshore,Onshore,Onshore,Onshore,Onshore",14
5842041f4e65fad6a770887d,2024_03_08,26.31719311695038,-80.07452525176168,Deerfield Beach Pier,0,-0.0010476190476190492,0.1527666666666667,25,23,"NIGHT_CLEAR,NIGHT_CLEAR,NIGHT_BRIEF_SHOWERS_POSSIBLE,NIGHT_MIST,NIGHT_MIST,BRIEF_SHOWERS_POSSIBLE,BRIEF_SHOWERS_POSSIBLE,CLEAR,CLEAR,CLEAR,CLEAR,CLEAR,CLEAR,CLEAR","Cross-shore,Offshore,Offshore,Cross-shore,Offshore,Offshore,Offshore,Offshore,Onshore,Onshore,Onshore,Onshore,Onshore,Onshore",14
5842041f4e65fad6a7708881,2024_03_08,30.20276320866628,-85.85626528676136,"Spyglass Dr., Panama City",0.5335714285714286,-9.999999999999998e-4,0.2206357142857143,19,18,"NIGHT_CLEAR,NIGHT_CLEAR,NIGHT_CLEAR,NIGHT_MIST,NIGHT_MIST,NIGHT_CLEAR,CLEAR,CLEAR,CLEAR,CLEAR,MOSTLY_CLOUDY,CLEAR,OVERCAST,MOSTLY_CLEAR","Cross-shore,Cross-shore,Cross-shore,Offshore,Cross-shore,Cross-shore,Offshore,Cross-shore,Cross-shore,Cross-shore,Cross-shore,Cross-shore,Cross-shore,Cross-shore",14
5842041f4e65fad6a7708884,2024_03_08,33.39000832738053,-117.59852,Cottons,1.9,0.5847000000000001,0.8943,16,16,"MOSTLY_CLOUDY,MOSTLY_CLOUDY,MOSTLY_CLOUDY,MOSTLY_CLOUDY,MOSTLY_CLEAR","Cross-shore,Cross-shore,Onshore,Onshore,Onshore",5
5842041f4e65fad6a7708885,2024_03_08,33.359416282661,-117.54167901405711,Trails,2.4,0.424,0.724,15,15,"MOSTLY_CLOUDY,MOSTLY_CLOUDY,MOSTLY_CLOUDY,MOSTLY_CLEAR,MOSTLY_CLEAR","Offshore,Offshore,Onshore,Onshore,Onshore",5
5842041f4e65fad6a7708886,2024_03_08,33.38042605929805,-117.58332,Middles,2.434,0.4782,0.7803,16,16,"MOSTLY_CLOUDY,MOSTLY_CLOUDY,MOSTLY_CLOUDY,MOSTLY_CLOUDY,MOSTLY_CLEAR","Offshore,Offshore,Onshore,Onshore,Onshore",5
5842041f4e65fad6a7708887,2024_03_08,33.38445596302903,-117.59445,Upper Trestles,1.9,0.6212,0.9213,16,16,"MOSTLY_CLOUDY,MOSTLY_CLOUDY,MOSTLY_CLOUDY,MOSTLY_CLOUDY,MOSTLY_CLEAR","Offshore,Offshore,Onshore,Onshore,Onshore",5
5842041f4e65fad6a7708889,2024_03_08,28.944414,-95.28883,Surfside,2,0.73117,1.142452,18,18,"MIST,MIST,LIGHT_RAIN,MIST,CLEAR","Onshore,Onshore,Cross-shore,Cross-shore,Cross-shore",5
5842041f4e65fad6a770888a,2024_03_08,33.38143999849023,-117.58843,Lower Trestles,2.3,0.5147,0.8168000000000001,16,16,"MOSTLY_CLOUDY,MOSTLY_CLOUDY,MOSTLY_CLOUDY,MOSTLY_CLOUDY,MOSTLY_CLEAR","Offshore,Offshore,Onshore,Onshore,Onshore",5
5842041f4e65fad6a770888b,2024_03_08,33.379622288757,-117.57894,Church,2.434,0.4937000000000001,0.7958,16,16,"MOSTLY_CLOUDY,MOSTLY_CLOUDY,MOSTLY_CLOUDY,MOSTLY_CLOUDY,MOSTLY_CLEAR","Offshore,Offshore,Onshore,Onshore,Onshore",5
5842041f4e65fad6a770888d,2024_03_08,21.679,-158.042,Sunset Beach,2.7857142857142856,0.9575285714285714,1.2239714285714285,26,25,"NIGHT_MOSTLY_CLOUDY,NIGHT_BRIEF_SHOWERS,NIGHT_CLEAR,NIGHT_MOSTLY_CLEAR,NIGHT_MOSTLY_CLOUDY,NIGHT_BRIEF_SHOWERS,NIGHT_BRIEF_SHOWERS,NIGHT_LIGHT_RAIN,NIGHT_BRIEF_SHOWERS,NIGHT_CLEAR,BRIEF_SHOWERS,OVERCAST,CLEAR,MOSTLY_CLOUDY","Cross-shore,Cross-shore,Cross-shore,Cross-shore,Offshore,Offshore,Offshore,Offshore,Offshore,Offshore,Cross-shore,Offshore,Offshore,Cross-shore",14
5842041f4e65fad6a770888e,2024_03_08,21.670550036401,-158.0482,Rocky Point,2.7857142857142856,0.9946714285714285,1.2583714285714287,26,25,"NIGHT_MOSTLY_CLOUDY,NIGHT_CLEAR,NIGHT_CLEAR,NIGHT_MOSTLY_CLEAR,NIGHT_CLEAR,NIGHT_CLEAR,NIGHT_CLEAR,NIGHT_DRIZZLE,NIGHT_CLEAR,NIGHT_CLEAR,LIGHT_RAIN,CLOUDY,OVERCAST,CLEAR","Cross-shore,Cross-shore,Cross-shore,Cross-shore,Cross-shore,Cross-shore,Cross-shore,Cross-shore,Cross-shore,Cross-shore,Cross-shore,Cross-shore,Cross-shore,Cross-shore",14
5842041f4e65fad6a770888f,2024_03_08,21.668,-158.05,Chambers,3,0.8314285714285714,1.0857142857142859,24,24,"NIGHT_MOSTLY_CLOUDY,NIGHT_CLEAR,NIGHT_CLEAR,NIGHT_MOSTLY_CLEAR,NIGHT_CLEAR,NIGHT_CLEAR,NIGHT_CLEAR,NIGHT_DRIZZLE,NIGHT_CLEAR,NIGHT_CLEAR,LIGHT_RAIN,CLOUDY,OVERCAST,CLEAR","Cross-shore,Cross-shore,Cross-shore,Cross-shore,Offshore,Cross-shore,Cross-shore,Cross-shore,Cross-shore,Cross-shore,Cross-shore,Cross-shore,Cross-shore,Cross-shore",14
5842041f4e65fad6a7708890,2024_03_08,21.66522,-158.0526,Pipeline,1.4285714285714286,0.7434714285714286,1.0592000000000001,26,25,"NIGHT_MOSTLY_CLOUDY,NIGHT_CLEAR,NIGHT_CLEAR,NIGHT_MOSTLY_CLEAR,NIGHT_CLEAR,NIGHT_CLEAR,NIGHT_CLEAR,NIGHT_DRIZZLE,NIGHT_CLEAR,NIGHT_CLEAR,LIGHT_RAIN,CLOUDY,OVERCAST,CLEAR","Cross-shore,Cross-shore,Cross-shore,Cross-shore,Cross-shore,Cross-shore,Cross-shore,Cross-shore,Cross-shore,Cross-shore,Cross-shore,Cross-shore,Cross-shore,Cross-shore",14
5842041f4e65fad6a7708891,2024_03_08,21.665,-158.054,Backdoor,2.7857142857142856,0.7434714285714286,1.0592000000000001,26,25,"NIGHT_MOSTLY_CLOUDY,NIGHT_CLEAR,NIGHT_CLEAR,NIGHT_MOSTLY_CLEAR,NIGHT_CLEAR,NIGHT_CLEAR,NIGHT_CLEAR,NIGHT_DRIZZLE,NIGHT_CLEAR,NIGHT_CLEAR,LIGHT_RAIN,CLOUDY,OVERCAST,CLEAR","Cross-shore,Cross-shore,Cross-shore,Cross-shore,Cross-shore,Cross-shore,Cross-shore,Cross-shore,Cross-shore,Cross-shore,Cross-shore,Cross-shore,Cross-shore,Cross-shore",14
5842041f4e65fad6a7708892,2024_03_08,21.662,-158.057,Rockpile,3,1.0042857142857142,1.207142857142857,24,24,"NIGHT_MOSTLY_CLOUDY,NIGHT_CLEAR,NIGHT_CLEAR,NIGHT_MOSTLY_CLEAR,NIGHT_CLEAR,NIGHT_CLEAR,NIGHT_CLEAR,NIGHT_DRIZZLE,NIGHT_CLEAR,NIGHT_CLEAR,LIGHT_RAIN,CLOUDY,OVERCAST,CLEAR","Cross-shore,Cross-shore,Cross-shore,Cross-shore,Cross-shore,Cross-shore,Cross-shore,Cross-shore,Cross-shore,Cross-shore,Cross-shore,Cross-shore,Cross-shore,Cross-shore",14
5842041f4e65fad6a7708893,2024_03_08,21.65870453806827,-158.06058,Log Cabins,2.4285714285714284,0.75,1.0442857142857143,24,24,"NIGHT_MOSTLY_CLOUDY,NIGHT_CLEAR,NIGHT_CLEAR,NIGHT_MOSTLY_CLEAR,NIGHT_CLEAR,NIGHT_CLEAR,NIGHT_CLEAR,NIGHT_DRIZZLE,NIGHT_CLEAR,NIGHT_CLEAR,LIGHT_RAIN,CLOUDY,OVERCAST,CLEAR","Cross-shore,Cross-shore,Cross-shore,Cross-shore,Cross-shore,Cross-shore,Cross-shore,Cross-shore,Cross-shore,Cross-shore,Cross-shore,Cross-shore,Cross-shore,Cross-shore",14
5842041f4e65fad6a7708894,2024_03_08,21.66203493640557,-158.05495,Off-The-Wall,3,0.9371428571428572,1.1635714285714285,24,24,"NIGHT_MOSTLY_CLOUDY,NIGHT_CLEAR,NIGHT_CLEAR,NIGHT_MOSTLY_CLEAR,NIGHT_CLEAR,NIGHT_CLEAR,NIGHT_CLEAR,NIGHT_DRIZZLE,NIGHT_CLEAR,NIGHT_CLEAR,LIGHT_RAIN,CLOUDY,OVERCAST,CLEAR","Cross-shore,Cross-shore,Cross-shore,Cross-shore,Cross-shore,Cross-shore,Cross-shore,Cross-shore,Cross-shore,Cross-shore,Cross-shore,Cross-shore,Cross-shore,Cross-shore",14
5842041f4e65fad6a7708895,2024_03_08,21.643,-158.067,Waimea Bay,NA,0.9746714285714286,1.2457571428571428,26,25,"NIGHT_MOSTLY_CLOUDY,NIGHT_CLEAR,NIGHT_CLEAR,NIGHT_MOSTLY_CLEAR,NIGHT_CLEAR,NIGHT_CLEAR,NIGHT_CLEAR,NIGHT_DRIZZLE,NIGHT_CLEAR,NIGHT_CLEAR,LIGHT_RAIN,CLOUDY,OVERCAST,CLEAR","Cross-shore,Offshore,Offshore,Cross-shore,Offshore,Offshore,Offshore,Offshore,Offshore,Offshore,Offshore,Offshore,Offshore,Offshore",14
5842041f4e65fad6a7708896,2024_03_08,21.622,-158.087,Hultin's,2.4285714285714284,0.9839571428571429,1.2176571428571428,26,25,"NIGHT_MOSTLY_CLOUDY,NIGHT_CLEAR,NIGHT_MOSTLY_CLOUDY,NIGHT_CLEAR,NIGHT_CLEAR,NIGHT_MOSTLY_CLOUDY,NIGHT_MOSTLY_CLOUDY,NIGHT_CLEAR,NIGHT_CLEAR,NIGHT_CLEAR,CLOUDY,CLEAR,CLEAR,CLEAR","Offshore,Offshore,Offshore,Offshore,Offshore,Offshore,Offshore,Offshore,Offshore,Offshore,Offshore,Offshore,Offshore,Offshore",14
5842041f4e65fad6a7708897,2024_03_08,21.623,-158.085,Jocko's,2,0.7085714285714285,1.012857142857143,24,24,"NIGHT_MOSTLY_CLOUDY,NIGHT_CLEAR,NIGHT_CLEAR,NIGHT_CLEAR,NIGHT_CLEAR,NIGHT_MOSTLY_CLOUDY,NIGHT_MOSTLY_CLOUDY,NIGHT_CLEAR,NIGHT_CLEAR,NIGHT_CLEAR,CLOUDY,CLEAR,CLEAR,CLEAR","Onshore,Onshore,Onshore,Onshore,Onshore,Onshore,Onshore,Onshore,Onshore,Onshore,Onshore,Onshore,Onshore,Onshore",14
5842041f4e65fad6a7708898,2024_03_08,21.62,-158.088,Laniakea,2.2264285714285714,0.8900285714285714,1.1248,26,25,"NIGHT_MOSTLY_CLOUDY,NIGHT_CLEAR,NIGHT_MOSTLY_CLOUDY,NIGHT_CLEAR,NIGHT_CLEAR,NIGHT_MOSTLY_CLOUDY,NIGHT_MOSTLY_CLOUDY,NIGHT_CLEAR,NIGHT_CLEAR,NIGHT_CLEAR,CLOUDY,CLEAR,CLEAR,CLEAR","Cross-shore,Cross-shore,Cross-shore,Cross-shore,Cross-shore,Cross-shore,Cross-shore,Cross-shore,Cross-shore,Cross-shore,Cross-shore,Cross-shore,Cross-shore,Cross-shore",14
5842041f4e65fad6a7708899,2024_03_08,21.625,-158.083,Chun's,1.9285714285714286,0.8407142857142857,1.0857142857142856,24,24,"NIGHT_MOSTLY_CLOUDY,NIGHT_CLEAR,NIGHT_MOSTLY_CLOUDY,NIGHT_CLEAR,NIGHT_CLEAR,NIGHT_MOSTLY_CLOUDY,NIGHT_MOSTLY_CLOUDY,NIGHT_CLEAR,NIGHT_CLEAR,NIGHT_CLEAR,CLOUDY,CLEAR,CLEAR,CLEAR","Cross-shore,Cross-shore,Offshore,Cross-shore,Cross-shore,Cross-shore,Cross-shore,Cross-shore,Offshore,Offshore,Cross-shore,Offshore,Cross-shore,Cross-shore",14
5842041f4e65fad6a770889c,2024_03_08,21.286357895152136,-157.8515,South Shore - Ala Moana Park,1,0.23285714285714287,0.535,24.357142857142858,24.357142857142858,"NIGHT_CLEAR,NIGHT_BRIEF_SHOWERS_POSSIBLE,NIGHT_CLEAR,NIGHT_CLEAR,NIGHT_CLEAR,NIGHT_CLEAR,NIGHT_CLEAR,NIGHT_CLEAR,NIGHT_CLEAR,NIGHT_CLEAR,CLEAR,CLEAR,CLEAR,CLEAR","Offshore,Offshore,Offshore,Offshore,Offshore,Offshore,Offshore,Offshore,Offshore,Offshore,Offshore,Offshore,Offshore,Offshore",14
5842041f4e65fad6a770889d,2024_03_08,19.606,-155.978,Banyans,2.3214285714285716,0.31219285714285716,0.6181357142857142,26,25,"NIGHT_CLEAR,NIGHT_CLEAR,NIGHT_CLEAR,NIGHT_FOG,NIGHT_OVERCAST,NIGHT_OVERCAST,NIGHT_MIST,NIGHT_CLEAR,NIGHT_CLEAR,NIGHT_CLEAR,CLEAR,CLEAR,CLEAR,MOSTLY_CLOUDY","Cross-shore,Onshore,Cross-shore,Onshore,Onshore,Onshore,Onshore,Offshore,Offshore,Cross-shore,Cross-shore,Onshore,Onshore,Onshore",14
5842041f4e65fad6a770889e,2024_03_08,20.029,-155.831,Kawaihae,1.9285714285714286,0.4444,0.65593,25,25,"NIGHT_MOSTLY_CLOUDY,NIGHT_MOSTLY_CLOUDY,NIGHT_CLEAR,NIGHT_OVERCAST,NIGHT_CLEAR,NIGHT_CLEAR,NIGHT_MOSTLY_CLOUDY,NIGHT_CLEAR,NIGHT_CLEAR,NIGHT_CLEAR,CLEAR,CLEAR,CLEAR,CLEAR","Offshore,Offshore,Offshore,Offshore,Offshore,Offshore,Offshore,Offshore,Offshore,Offshore,Offshore,Offshore,Offshore,Offshore",14
5842041f4e65fad6a770889f,2024_03_08,33.07541383424675,-117.3105,Grandview,3,0.786,1.04,16,16,"CLEAR,CLEAR,CLEAR,CLEAR,CLEAR","Offshore,Offshore,Onshore,Onshore,Onshore",5
5842041f4e65fad6a77088a0,2024_03_08,33.065267421296596,-117.30577,Beacons,3,0.794,1.048,16,16,"CLEAR,CLEAR,CLEAR,CLEAR,CLEAR","Offshore,Offshore,Onshore,Onshore,Onshore",5
5842041f4e65fad6a77088a2,2024_03_08,21.252,-157.805,Diamond Head,1.7735714285714286,0.5033771428571429,0.8182703571428571,26,25,"NIGHT_CLEAR,NIGHT_CLEAR,NIGHT_CLEAR,NIGHT_CLEAR,NIGHT_CLEAR,NIGHT_CLEAR,NIGHT_CLEAR,NIGHT_CLEAR,NIGHT_CLEAR,NIGHT_CLEAR,CLEAR,CLEAR,CLEAR,CLEAR","Offshore,Offshore,Cross-shore,Offshore,Offshore,Offshore,Offshore,Offshore,Offshore,Offshore,Offshore,Offshore,Offshore,Offshore",14
5842041f4e65fad6a77088a3,2024_03_08,33.04694255008896,-117.29966,Moonlight State Beach,2.6,0.784,1.042,16,16,"CLEAR,CLEAR,CLEAR,CLEAR,CLEAR","Offshore,Offshore,Onshore,Onshore,Onshore",5
5842041f4e65fad6a77088a5,2024_03_08,33.08685865930869,-117.31532,Ponto,2.8,0.996,1.214,16,16,"CLEAR,CLEAR,CLEAR,CLEAR,CLEAR","Offshore,Offshore,Onshore,Onshore,Onshore",5
5842041f4e65fad6a77088a6,2024_03_08,33.130343587871906,-117.33667796442558,Terra Mar Point,1.966,0.7778,1.1902,16,16,"CLEAR,CLEAR,CLEAR,CLEAR,CLEAR","Offshore,Offshore,Cross-shore,Cross-shore,Onshore",5
5842041f4e65fad6a77088af,2024_03_08,32.95916304183685,-117.26963,Del Mar,2.6,0.948,1.182,16,16,"MOSTLY_CLEAR,CLEAR,CLEAR,CLEAR,CLEAR","Offshore,Offshore,Onshore,Onshore,Onshore",5
5842041f4e65fad6a77088b0,2024_03_08,32.97527261243354,-117.2721061331305,Del Mar Rivermouth,2.8,1.018,1.238,16,16,"CLEAR,CLEAR,CLEAR,CLEAR,CLEAR","Offshore,Offshore,Onshore,Onshore,Onshore",5
5842041f4e65fad6a77088b1,2024_03_08,33.01352178146273,-117.28219,Cardiff Reef,1.934,0.9929000000000001,1.2515,16,16,"MOSTLY_CLEAR,CLEAR,CLEAR,CLEAR,CLEAR","Offshore,Offshore,Cross-shore,Onshore,Onshore",5
5842041f4e65fad6a77088b3,2024_03_08,33.00211185876003,-117.2811,Seaside Reef,1.9,0.9839,1.2435,16,16,"MOSTLY_CLEAR,CLEAR,CLEAR,CLEAR,CLEAR","Offshore,Offshore,Cross-shore,Onshore,Onshore",5
5842041f4e65fad6a77088b4,2024_03_08,33.0341859796287,-117.29552,Swami's,1.9,0.6708000000000001,1.1012,16,16,"MOSTLY_CLEAR,CLEAR,CLEAR,CLEAR,CLEAR","Offshore,Offshore,Onshore,Onshore,Onshore",5
5842041f4e65fad6a77088b7,2024_03_08,33.04569760260221,-117.2994,D Street,2.6,0.926,1.152,16,16,"CLEAR,CLEAR,CLEAR,CLEAR,CLEAR","Offshore,Offshore,Onshore,Onshore,Onshore",5
5842041f4e65fad6a77088b8,2024_03_08,33.02090944350196,-117.28535,San Elijo State Beach,1.966,0.6903,1.219,16,16,"MOSTLY_CLEAR,CLEAR,CLEAR,CLEAR,CLEAR","Offshore,Offshore,Cross-shore,Onshore,Onshore",5
5842041f4e65fad6a77088c2,2024_03_08,32.80662846492798,-117.2688764333725,PB Point,3,1.042,1.314,16,16,"CLEAR,CLEAR,CLEAR,CLEAR,CLEAR","Offshore,Onshore,Onshore,Cross-shore,Cross-shore",5
5842041f4e65fad6a77088c4,2024_03_08,32.8060476681448,-117.26479,Old Man's at Tourmaline,2.6,0.704,1.006,16,16,"CLEAR,CLEAR,CLEAR,CLEAR,CLEAR","Offshore,Cross-shore,Onshore,Cross-shore,Cross-shore",5
5842041f4e65fad6a77088cb,2024_03_08,32.557056711256,-117.1327445020322,Tijuana Slough,2.4,0.796,1.054,15,15,"CLEAR,CLEAR,CLEAR,CLEAR,CLEAR","Offshore,Offshore,Cross-shore,Onshore,Onshore",5
5842041f4e65fad6a77088cc,2024_03_08,32.863,-117.257,La Jolla Shores,2.6,0.86,1.094,16,16,"CLEAR,CLEAR,CLEAR,CLEAR,MIST","Offshore,Cross-shore,Onshore,Onshore,Onshore",5
5842041f4e65fad6a77088ce,2024_03_08,32.67443657790586,-117.17421316238693,Coronado Beach,2.6,0.416,0.72,15,15,"CLEAR,CLEAR,CLEAR,CLEAR,CLEAR","Offshore,Offshore,Offshore,Cross-shore,Cross-shore",5
5842041f4e65fad6a77088cf,2024_03_08,33.40484417640326,-117.60749,San Clemente State Beach,2.6,0.55,0.856,15,15,"MOSTLY_CLOUDY,MOSTLY_CLOUDY,MOSTLY_CLOUDY,MOSTLY_CLOUDY,MOSTLY_CLEAR","Onshore,Onshore,Onshore,Onshore,Onshore",5
5842041f4e65fad6a77088d5,2024_03_08,33.4663042002114,-117.7168352817103,Strands,3,0.8213,1.2411999999999999,15,15,"MOSTLY_CLOUDY,MOSTLY_CLOUDY,MOSTLY_CLOUDY,MOSTLY_CLOUDY,MOSTLY_CLOUDY","Cross-shore,Onshore,Onshore,Onshore,Onshore",5
5842041f4e65fad6a77088d7,2024_03_08,33.4609858001748,-117.68535,Doheny State Beach,0.432,-0.030500000000000006,0.16080000000000003,16,16,"MOSTLY_CLOUDY,MOSTLY_CLOUDY,MOSTLY_CLOUDY,MOSTLY_CLOUDY,MOSTLY_CLOUDY","Offshore,Offshore,Onshore,Onshore,Onshore",5
5842041f4e65fad6a77088dc,2024_03_08,33.50894790083017,-117.75243,Aliso Creek,2,0.392,0.698,15,15,"MOSTLY_CLOUDY,MOSTLY_CLOUDY,MOSTLY_CLOUDY,MOSTLY_CLOUDY,MOSTLY_CLOUDY","Cross-shore,Onshore,Onshore,Onshore,Onshore",5
5842041f4e65fad6a77088dd,2024_03_08,33.5326591767067,-117.77764,Brooks Street,2,0.272,0.578,15,15,"MOSTLY_CLOUDY,MOSTLY_CLOUDY,MOSTLY_CLOUDY,MOSTLY_CLOUDY,MOSTLY_CLOUDY","Onshore,Onshore,Onshore,Onshore,Onshore",5
5842041f4e65fad6a77088de,2024_03_08,33.53561225884637,-117.7799,Thalia Street,2.4,0.298,0.602,15,15,"MOSTLY_CLOUDY,MOSTLY_CLOUDY,MOSTLY_CLOUDY,MOSTLY_CLOUDY,MOSTLY_CLOUDY","Onshore,Onshore,Onshore,Onshore,Onshore",5
5842041f4e65fad6a77088e3,2024_03_08,33.54268310353641,-117.7916,Rockpile,2.4,0.294,0.6,15,15,"MOSTLY_CLOUDY,MOSTLY_CLOUDY,MOSTLY_CLOUDY,MOSTLY_CLOUDY,MOSTLY_CLOUDY","Onshore,Onshore,Onshore,Onshore,Onshore",5
5842041f4e65fad6a77088e4,2024_03_08,33.7368459504689,-118.10342,"Seal Beach Pier, Southside",1.6,0.018000000000000002,0.322,15,15,"MOSTLY_CLOUDY,MOSTLY_CLOUDY,MOSTLY_CLOUDY,MOSTLY_CLOUDY,CLEAR","Offshore,Offshore,Onshore,Onshore,Onshore",5
5842041f4e65fad6a77088e5,2024_03_08,33.73933701820233,-118.117,Ray Bay,1,0,0.28,15,15,"MOSTLY_CLOUDY,MOSTLY_CLOUDY,MOSTLY_CLOUDY,MOSTLY_CLOUDY,CLEAR","Offshore,Offshore,Onshore,Onshore,Onshore",5
5842041f4e65fad6a77088e7,2024_03_08,33.728733,-118.08982,Surfside,1.8,0.076,0.382,15,15,"MOSTLY_CLOUDY,MOSTLY_CLOUDY,MOSTLY_CLOUDY,MOSTLY_CLOUDY,MOSTLY_CLOUDY","Offshore,Offshore,Onshore,Onshore,Onshore",5
5842041f4e65fad6a77088e8,2024_03_08,33.68760321488161,-118.04236,Bolsa Chica State Beach,2,0.23910000000000003,0.5467,15,15,"MOSTLY_CLOUDY,MOSTLY_CLOUDY,MOSTLY_CLOUDY,MOSTLY_CLOUDY,MOSTLY_CLOUDY","Offshore,Onshore,Onshore,Onshore,Onshore",5
5842041f4e65fad6a77088ea,2024_03_08,33.66704400178788,-118.0192,North HB Streets,2.466,0.42869999999999997,0.8282999999999999,15,15,"MOSTLY_CLOUDY,MOSTLY_CLOUDY,MOSTLY_CLOUDY,CLEAR,MOSTLY_CLOUDY","Cross-shore,Onshore,Onshore,Onshore,Onshore",5
5842041f4e65fad6a77088ed,2024_03_08,33.65475101379567,-118.00291,Huntington Beach Pier Southside,2.7,0.6813,1.1931999999999998,15,15,"MOSTLY_CLOUDY,MOSTLY_CLOUDY,MOSTLY_CLOUDY,MOSTLY_CLOUDY,MOSTLY_CLOUDY","Offshore,Offshore,Cross-shore,Onshore,Onshore",5
5842041f4e65fad6a77088ee,2024_03_08,33.62778647706099,-117.95939,River Jetties,1.9,0.6287,1.0471,15,15,"MOSTLY_CLOUDY,MOSTLY_CLOUDY,MOSTLY_CLOUDY,CLEAR,CLEAR","Offshore,Cross-shore,Onshore,Onshore,Onshore",5
5842041f4e65fad6a77088f2,2024_03_08,33.605165797643664,-117.92500376701355,Newport Point,2,0.186,0.492,15,15,"MOSTLY_CLOUDY,MOSTLY_CLOUDY,MOSTLY_CLOUDY,MOSTLY_CLOUDY,MOSTLY_CLOUDY","Onshore,Onshore,Onshore,Onshore,Onshore",5
5842041f4e65fad6a77088f3,2024_03_08,33.58982984726977,-117.87713,Corona del Mar,1,0.127336,0.198964,15,15,"MOSTLY_CLOUDY,MOSTLY_CLOUDY,MOSTLY_CLOUDY,MOSTLY_CLOUDY,MOSTLY_CLOUDY","Offshore,Offshore,Onshore,Onshore,Onshore",5
5842041f4e65fad6a77088f7,2024_03_08,34.00750300824362,-118.4971783496269,Santa Monica Pier,1.8,0.256,0.56,15,15,"CLEAR,CLEAR,CLEAR,CLEAR,CLEAR","Offshore,Offshore,Cross-shore,Onshore,Onshore",5
5842041f4e65fad6a77088ff,2024_03_08,33.94070283102945,-118.44321,Dockweiler Beach,2.5,0.83497999999999994,1.1062925000000001,14,14,"MIST,CLEAR,CLEAR,CLEAR,BRIEF_SHOWERS","Offshore,Offshore,Cross-shore,Onshore,Onshore",5
5842041f4e65fad6a7708900,2024_03_08,33.9231846937237,-118.4341465777908,Shitpipe,2.5,0.7248,1.0344,14,14,"MIST,CLEAR,CLEAR,CLEAR,MIST","Offshore,Offshore,Cross-shore,Onshore,Onshore",5
5842041f4e65fad6a7708902,2024_03_08,33.9108528052242,-118.4279133138721,Hammerland,2.534,0.7122999999999999,1.245,14,14,"MIST,CLEAR,CLEAR,CLEAR,MIST","Offshore,Offshore,Cross-shore,Onshore,Onshore",5
5842041f4e65fad6a7708904,2024_03_08,33.87201368173932,-118.4075151286262,Hermosa Beach,2.534,0.7078,1.1297,14,14,"MIST,MIST,CLEAR,CLEAR,MIST","Offshore,Offshore,Cross-shore,Onshore,Onshore",5
5842041f4e65fad6a7708906,2024_03_08,33.90129336911256,-118.42184,El Porto,2.534,0.7098,1.273,14,14,"CLEAR,MIST,MOSTLY_CLEAR,CLEAR,MIST","Offshore,Offshore,Cross-shore,Onshore,Onshore",5
5842041f4e65fad6a7708907,2024_03_08,33.87963506431794,-118.41102,Manhattan Beach Pier,2.5,0.7243,1.1712,14,14,"CLEAR,MIST,MOSTLY_CLEAR,CLEAR,MIST","Offshore,Offshore,Cross-shore,Onshore,Onshore",5
5842041f4e65fad6a7708914,2024_03_08,34.038053387863464,-118.5532,Sunset Point,2,0.114,0.422,15,15,"CLEAR,CLEAR,CLEAR,CLEAR,MIST","Cross-shore,Onshore,Onshore,Onshore,Cross-shore",5
5842041f4e65fad6a7708920,2024_03_08,33.80930828074364,-118.3933198342649,Haggerty's,1.8,0.1524,0.336,15,15,"CLEAR,CLEAR,CLEAR,MOSTLY_CLOUDY,MIST","Offshore,Offshore,Offshore,Cross-shore,Cross-shore",5
5842041f4e65fad6a7708921,2024_03_08,33.85044519861206,-118.40048,Redondo Breakwater,2.6,0.622,0.9279999999999999,15,15,"MIST,MIST,CLEAR,CLEAR,MIST","Offshore,Offshore,Cross-shore,Onshore,Onshore",5
5842041f4e65fad6a7708927,2024_03_08,33.70877301002487,-118.2840112858389,Cabrillo Beach,1.6,0.012,0.312,15,15,"MOSTLY_CLOUDY,MOSTLY_CLOUDY,MIST,MOSTLY_CLOUDY,MOSTLY_CLOUDY","Cross-shore,Onshore,Onshore,Onshore,Onshore",5
5842041f4e65fad6a770892c,2024_03_08,33.77209986806257,-118.4268428476672,Lunada Bay,1.2,0.5640000000000001,0.868,15,15,"CLEAR,CLEAR,MIST,MIST,MIST","Cross-shore,Cross-shore,Cross-shore,Onshore,Onshore",5
5842041f4e65fad6a770892d,2024_03_08,33.79294656286144,-118.4070316699825,PV Cove,2.6,0.64955,0.904022,15,15,"CLEAR,CLEAR,CLEAR,MOSTLY_CLOUDY,MIST","Offshore,Offshore,Offshore,Cross-shore,Cross-shore",5
5842041f4e65fad6a7708930,2024_03_08,34.03944902292561,-118.57539,Chart House,2,0.03,0.336,15,15,"CLEAR,CLEAR,CLEAR,CLEAR,MOSTLY_CLEAR","Onshore,Onshore,Onshore,Onshore,Cross-shore",5
5842041f4e65fad6a7708936,2024_03_08,34.0016731994772,-118.80456,Point Dume,1,-0.0165,0.2831,15,15,"CLEAR,CLEAR,MIST,MIST,MIST","Onshore,Onshore,Onshore,Onshore,Onshore",5
5842041f4e65fad6a7708937,2024_03_08,34.02587527588963,-118.7554939066114,Latigo Point,2,0.024,0.332,15,15,"CLEAR,CLEAR,MIST,MIST,MIST","Cross-shore,Onshore,Onshore,Onshore,Onshore",5
5842041f4e65fad6a770893f,2024_03_08,34.043762,-118.93294,Leo Carrillo,2.166,0.4692,0.7827999999999999,15,15,"CLEAR,CLEAR,MIST,MIST,BRIEF_SHOWERS","Offshore,Onshore,Onshore,Onshore,Onshore",5
5842041f4e65fad6a7708941,2024_03_08,36.69388179265737,-121.81289,Marina State Beach,3.8,1.174,1.43,13,13,"CLEAR,CLEAR,CLEAR,CLEAR,CLEAR","Offshore,Offshore,Offshore,Offshore,Cross-shore",5
5842041f4e65fad6a7708944,2024_03_08,34.34145077331085,-119.416999352654,Stanley's,2,0.154,0.462,14,14,"CLEAR,CLEAR,CLEAR,CLEAR,CLEAR","Offshore,Offshore,Onshore,Onshore,Onshore",5
5842041f4e65fad6a7708945,2024_03_08,34.35113017313915,-119.426921498899,Oil Piers,2,0.088,0.394,14,14,"CLEAR,CLEAR,CLEAR,CLEAR,CLEAR","Offshore,Cross-shore,Onshore,Onshore,Onshore",5
5842041f4e65fad6a770894c,2024_03_08,34.17876333306018,-119.2399483564372,Oxnard,2.8,0.41,0.716,14,14,"CLEAR,CLEAR,CLEAR,CLEAR,CLEAR","Offshore,Offshore,Offshore,Cross-shore,Onshore",5
5842041f4e65fad6a7708957,2024_03_08,34.31720331100517,-119.3882324751725,Pitas Point,2,0.148,0.454,14,14,"CLEAR,CLEAR,CLEAR,CLEAR,CLEAR","Cross-shore,Onshore,Onshore,Cross-shore,Offshore",5
5842041f4e65fad6a7708959,2024_03_08,34.27851754384724,-119.316202617226,Emma Wood,1.8,0.138,0.444,14,14,"CLEAR,CLEAR,CLEAR,CLEAR,CLEAR","Offshore,Offshore,Onshore,Cross-shore,Onshore",5
5842041f4e65fad6a770895a,2024_03_08,34.35513640390276,-119.4400589884255,Mussel Shoals (aka Little Rincon),2,0.134,0.44,14,14,"CLEAR,CLEAR,CLEAR,CLEAR,CLEAR","Offshore,Onshore,Onshore,Onshore,Onshore",5
5842041f4e65fad6a770895e,2024_03_08,34.28991757054902,-119.3366646794652,Summer Beach,1.8,0.062,0.368,14,14,"CLEAR,CLEAR,CLEAR,CLEAR,CLEAR","Offshore,Offshore,Onshore,Offshore,Onshore",5
5842041f4e65fad6a770895f,2024_03_08,34.30897456105926,-119.3582501170116,Solimar,2,0.082,0.384,14,14,"CLEAR,CLEAR,CLEAR,CLEAR,CLEAR","Cross-shore,Onshore,Onshore,Onshore,Cross-shore",5
5842041f4e65fad6a7708960,2024_03_08,34.39836265281686,-119.70213,Leadbetter Point,1,0,0.20400000000000001,14,14,"CLEAR,CLEAR,CLEAR,CLEAR,CLEAR","Offshore,Cross-shore,Onshore,Cross-shore,Cross-shore",5
5842041f4e65fad6a7708961,2024_03_08,34.46052293893899,-120.07328,Refugio,1,0,0.238,14,14,"CLEAR,CLEAR,CLEAR,CLEAR,CLEAR","Onshore,Onshore,Onshore,Onshore,Onshore",5
5842041f4e65fad6a7708962,2024_03_08,34.40754276777778,-119.87639,Devereux,2,0.124,0.428,14,14,"CLEAR,CLEAR,CLEAR,CLEAR,CLEAR","Cross-shore,Onshore,Onshore,Onshore,Cross-shore",5
5842041f4e65fad6a7708963,2024_03_08,34.27479983305182,-119.3133222656776,Ventura Overhead,1.8,0.15,0.454,14,14,"CLEAR,CLEAR,CLEAR,CLEAR,CLEAR","Offshore,Offshore,Onshore,Offshore,Onshore",5
5842041f4e65fad6a7708964,2024_03_08,34.41023236011655,-119.88261,Sands,2,0.188,0.494,14,14,"CLEAR,CLEAR,CLEAR,CLEAR,CLEAR","Offshore,Cross-shore,Onshore,Onshore,Onshore",5
5842041f4e65fad6a7708966,2024_03_08,34.40450193869233,-119.68752,Sandspit,0.4,0,0.128,14,14,"CLEAR,CLEAR,CLEAR,CLEAR,CLEAR","Offshore,Cross-shore,Onshore,Cross-shore,Cross-shore",5
5842041f4e65fad6a7708967,2024_03_08,34.41549098334453,-119.6375149840203,Hammond's,1,0,0.186,14,14,"CLEAR,CLEAR,CLEAR,CLEAR,CLEAR","Offshore,Onshore,Onshore,Onshore,Onshore",5
5842041f4e65fad6a7708968,2024_03_08,34.45759322742309,-120.0220251867315,El Capitan,1.8,0.012,0.314,14,14,"CLEAR,CLEAR,CLEAR,CLEAR,CLEAR","Onshore,Onshore,Onshore,Onshore,Onshore",5
5842041f4e65fad6a770896c,2024_03_08,34.405117655616,-119.84317,Campus Point,1.2,0.002,0.294,14,14,"CLEAR,CLEAR,CLEAR,CLEAR,CLEAR","Cross-shore,Onshore,Onshore,Cross-shore,Cross-shore",5
5842041f4e65fad6a770896e,2024_03_08,34.38935162233354,-119.51955,Carpinteria State Beach,1.8,0.032,0.334,14,14,"CLEAR,CLEAR,CLEAR,CLEAR,CLEAR","Offshore,Onshore,Onshore,Onshore,Onshore",5
5842041f4e65fad6a770896f,2024_03_08,37.48296565175612,-122.4549300127824,Half Moon Bay,3,0.662,0.968,13,13,"CLEAR,CLEAR,CLEAR,CLEAR,CLEAR","Offshore,Offshore,Offshore,Offshore,Offshore",5
5842041f4e65fad6a7708970,2024_03_08,37.499,-122.471,Princeton Jetty,3,0.514,0.82,13,13,"CLEAR,CLEAR,CLEAR,CLEAR,CLEAR","Offshore,Offshore,Offshore,Offshore,Offshore",5
5842041f4e65fad6a7708972,2024_03_08,37.35699547365155,-122.4069534707252,Tunitas Creek,3,1.358,1.578,13,13,"CLEAR,CLEAR,CLEAR,CLEAR,CLEAR","Offshore,Offshore,Offshore,Onshore,Onshore",5
5842041f4e65fad6a7708974,2024_03_08,37.54735589428842,-122.5161090212687,Montara,3,0.992,1.228,13,13,"CLEAR,CLEAR,CLEAR,CLEAR,CLEAR","Offshore,Offshore,Offshore,Offshore,Cross-shore",5
5842041f4e65fad6a7708975,2024_03_08,34.3869373724559,-119.5142334209018,Tarpits,1.8,0.024,0.332,14,14,"CLEAR,CLEAR,CLEAR,CLEAR,CLEAR","Cross-shore,Onshore,Onshore,Cross-shore,Cross-shore",5
5842041f4e65fad6a7708976,2024_03_08,37.59881852720143,-122.50463,Pacifica / Linda Mar,2.534,0.4767,0.7808,14,14,"CLEAR,CLEAR,CLEAR,CLEAR,CLEAR","Offshore,Offshore,Offshore,Offshore,Cross-shore",5
5842041f4e65fad6a7708978,2024_03_08,37.59883098461164,-122.5143843582282,Pedro Point,2.6,0.982,1.238,13,13,"CLEAR,CLEAR,CLEAR,CLEAR,CLEAR","Offshore,Offshore,Offshore,Offshore,Onshore",5
5842041f4e65fad6a7708979,2024_03_08,37.61081996647663,-122.4973287570634,Rockaway,3,0.98,1.212,13,13,"CLEAR,CLEAR,CLEAR,CLEAR,CLEAR","Offshore,Offshore,Offshore,Offshore,Offshore",5
5842041f4e65fad6a770897a,2024_03_08,37.809987384424446,-122.4751353263855,Fort Point,3,0.556,0.858,13,13,"CLEAR,CLEAR,CLEAR,CLEAR,CLEAR","Cross-shore,Cross-shore,Cross-shore,Cross-shore,Offshore",5
5842041f4e65fad6a770897c,2024_03_08,37.63422542967464,-122.4951,Sharp Park,3,1.048,1.304,13,13,"CLEAR,CLEAR,CLEAR,CLEAR,CLEAR","Offshore,Offshore,Offshore,Offshore,Cross-shore",5
5842041f4e65fad6a770897d,2024_03_08,37.27313605072472,-122.4127387912554,Pescadero,3,1.268,1.518,13,13,"CLEAR,CLEAR,CLEAR,CLEAR,CLEAR","Offshore,Offshore,Cross-shore,Onshore,Onshore",5
5842041f4e65fad6a770897e,2024_03_08,37.18140279972666,-122.3926685899327,Pigeon Point,3.2,1.238,1.47,13,13,"CLEAR,CLEAR,CLEAR,CLEAR,CLEAR","Offshore,Offshore,Onshore,Onshore,Onshore",5
5842041f4e65fad6a770897f,2024_03_08,37.11578956919415,-122.314699271291,Ano Nuevo,3,0.66,0.966,13,13,"CLEAR,CLEAR,CLEAR,CLEAR,CLEAR","Cross-shore,Onshore,Onshore,Onshore,Onshore",5
5842041f4e65fad6a7708980,2024_03_08,37.09520872681598,-122.2805474707768,Waddell Creek,3,0.964,1.148,13,13,"CLEAR,CLEAR,CLEAR,CLEAR,CLEAR","Cross-shore,Onshore,Onshore,Onshore,Onshore",5
5842041f4e65fad6a7708981,2024_03_08,36.96512852130351,-122.1252825495626,Four Mile,2.8,0.74,1.016,13,13,"CLEAR,CLEAR,CLEAR,CLEAR,CLEAR","Cross-shore,Onshore,Onshore,Onshore,Onshore",5
5842041f4e65fad6a7708982,2024_03_08,37.04122807048655,-122.2333684729756,Scott Creek,3,1.04,1.292,13,13,"CLEAR,CLEAR,CLEAR,CLEAR,CLEAR","Onshore,Onshore,Onshore,Onshore,Onshore",5
5842041f4e65fad6a7708983,2024_03_08,37.02350229387179,-122.21908,Davenport,3,1,1.214,13,13,"CLEAR,CLEAR,CLEAR,CLEAR,CLEAR","Onshore,Onshore,Onshore,Onshore,Onshore",5
5842041f4e65fad6a7708986,2024_03_08,36.94905295955728,-122.0611823912244,Natural Bridges,2.8,0.908,1.126,13,13,"CLEAR,CLEAR,CLEAR,CLEAR,CLEAR","Offshore,Cross-shore,Cross-shore,Onshore,Onshore",5
5842041f4e65fad6a7708987,2024_03_08,36.95154854910425,-122.0420693940968,Mitchell's Cove,2.6,0.302,0.612,13,13,"CLEAR,CLEAR,CLEAR,CLEAR,CLEAR","Cross-shore,Onshore,Onshore,Onshore,Onshore",5
5842041f4e65fad6a770898a,2024_03_08,36.9572312370203,-121.98177,26th Ave,3,0.524,0.824,13,13,"CLEAR,CLEAR,CLEAR,CLEAR,CLEAR","Offshore,Cross-shore,Cross-shore,Onshore,Onshore",5
5842041f4e65fad6a770898e,2024_03_08,36.91899972819882,-121.85536,Manresa,3,0.792,1.058,13,13,"CLEAR,CLEAR,CLEAR,CLEAR,CLEAR","Offshore,Offshore,Offshore,Cross-shore,Onshore",5
5842041f4e65fad6a7708990,2024_03_08,34.45747731928454,-120.34242,The Ranch,2,0.14,0.444,14,14,"CLEAR,CLEAR,CLEAR,CLEAR,CLEAR","Offshore,Onshore,Onshore,Onshore,Onshore",5
5842041f4e65fad6a7708991,2024_03_08,34.50875036590315,-120.50348,Jalama,2.2,0.574,0.88,14,14,"CLEAR,CLEAR,CLEAR,CLEAR,CLEAR","Offshore,Cross-shore,Onshore,Onshore,Onshore",5
5842041f4e65fad6a7708996,2024_03_08,34.68700870220497,-120.6111611019887,Surf Beach,3,1.762,2.076,14,14,"CLEAR,CLEAR,CLEAR,CLEAR,CLEAR","Cross-shore,Cross-shore,Onshore,Onshore,Onshore",5
5842041f4e65fad6a770899c,2024_03_08,35.5730538161116,-121.1143362345574,Moonstone,3,1.008,1.206,14,14,"CLEAR,CLEAR,CLEAR,CLEAR,CLEAR","Offshore,Onshore,Onshore,Onshore,Onshore",5
5842041f4e65fad6a770899d,2024_03_08,35.61533716776573,-121.1502053073914,Pico Creek,3,0.974,1.178,14,14,"CLEAR,CLEAR,CLEAR,CLEAR,CLEAR","Offshore,Onshore,Onshore,Onshore,Onshore",5
5842041f4e65fad6a770899e,2024_03_08,35.56829031927379,-121.1120653023953,Santa Rosa Creek,3.4,1.008,1.206,14,14,"CLEAR,CLEAR,CLEAR,CLEAR,CLEAR","Offshore,Offshore,Onshore,Onshore,Onshore",5
5842041f4e65fad6a77089a2,2024_03_08,35.44820114936284,-120.90715,"Cayucos Pier, Southside ",2,0.404,0.712,14,14,"CLEAR,CLEAR,CLEAR,CLEAR,CLEAR","Offshore,Offshore,Offshore,Offshore,Offshore",5
5842041f4e65fad6a77089a4,2024_03_08,35.30143372628852,-120.877819239902,Cable Landing,3.6,1.888,2.164,14,14,"CLEAR,CLEAR,CLEAR,CLEAR,CLEAR","Offshore,Offshore,Offshore,Offshore,Onshore",5
5842041f4e65fad6a77089a9,2024_03_08,35.61269103500222,-121.1480725356606,San Simeon,2.6,0.5334,0.7252,14,14,"CLEAR,CLEAR,CLEAR,CLEAR,CLEAR","Offshore,Onshore,Onshore,Onshore,Onshore",5
5842041f4e65fad6a77089ab,2024_03_08,35.1775325966252,-120.7341125142258,Avila Beach,1,0,0.164,14,14,"CLEAR,CLEAR,CLEAR,CLEAR,CLEAR","Offshore,Offshore,Offshore,Offshore,Offshore",5
5842041f4e65fad6a77089ac,2024_03_08,35.13877877884115,-120.64535,Pismo Beach Pier,2.466,0.6958,1.2077,14,14,"CLEAR,CLEAR,CLEAR,CLEAR,CLEAR","Cross-shore,Cross-shore,Cross-shore,Cross-shore,Cross-shore",5
5842041f4e65fad6a77089ad,2024_03_08,46.8907710233147,-124.12964,Westport/Olympic Peninsula,3,1.0885714285714285,1.3357142857142856,8,8,"NIGHT_CLEAR,NIGHT_MOSTLY_CLOUDY,NIGHT_OVERCAST,NIGHT_OVERCAST,NIGHT_CLEAR,NIGHT_CLOUDY,NIGHT_CLOUDY,NIGHT_DRIZZLE,LIGHT_SHOWERS_POSSIBLE,OVERCAST,OVERCAST,OVERCAST,OVERCAST,CLEAR","Cross-shore,Cross-shore,Offshore,Offshore,Offshore,Offshore,Offshore,Offshore,Offshore,Offshore,Offshore,Offshore,Offshore,Cross-shore",14
5842041f4e65fad6a77089ae,2024_03_08,46.35185177248545,-124.06747,Long Beach Peninsula,3.5714285714285716,1.6564285714285716,1.897857142857143,9,9,"NIGHT_CLEAR,NIGHT_MOSTLY_CLEAR,NIGHT_MOSTLY_CLOUDY,NIGHT_CLEAR,NIGHT_CLEAR,NIGHT_CLEAR,NIGHT_CLOUDY,NIGHT_CLEAR,CLEAR,CLOUDY,CLEAR,CLEAR,CLEAR,CLEAR","Offshore,Offshore,Offshore,Offshore,Offshore,Offshore,Offshore,Offshore,Offshore,Offshore,Offshore,Offshore,Offshore,Cross-shore",14
5842041f4e65fad6a77089af,2024_03_08,47.90649175554033,-124.6370864743483,La Push,0.9285714285714286,1.3671428571428572,1.612142857142857,8,8,"NIGHT_CLOUDY,NIGHT_OVERCAST,NIGHT_OVERCAST,NIGHT_OVERCAST,NIGHT_DRIZZLE,NIGHT_DRIZZLE,NIGHT_LIGHT_RAIN,NIGHT_LIGHT_RAIN,LIGHT_RAIN,CLOUDY,CLOUDY,OVERCAST,OVERCAST,OVERCAST","Cross-shore,Cross-shore,Cross-shore,Cross-shore,Cross-shore,Cross-shore,Cross-shore,Cross-shore,Cross-shore,Cross-shore,Cross-shore,Cross-shore,Cross-shore,Cross-shore",14
5842041f4e65fad6a77089b0,2024_03_08,42.04368239985442,-124.26828,Brookings Jetty,3,0.665682,1.040128,11,11,"CLEAR,CLEAR,CLEAR,CLEAR,CLEAR","Offshore,Offshore,Onshore,Onshore,Onshore",5
5842041f4e65fad6a77089b1,2024_03_08,42.74071837900346,-124.4983727491047,Port Orford,2.2,0.612,0.916,11,11,"CLEAR,CLEAR,CLEAR,CLEAR,CLEAR","Onshore,Onshore,Onshore,Onshore,Onshore",5
5842041f4e65fad6a77089b2,2024_03_08,44.01532689312291,-124.13865,Florence South Jetty,3.2,1.364,1.63,11,11,"CLEAR,CLEAR,CLEAR,CLEAR,CLEAR","Offshore,Offshore,Offshore,Cross-shore,Onshore",5
5842041f4e65fad6a77089b3,2024_03_08,42.41812540774362,-124.42945,Gold Beach South Jetty,3,1.034,1.276,11,11,"CLEAR,CLEAR,CLEAR,CLEAR,CLEAR","Onshore,Onshore,Onshore,Onshore,Onshore",5
5842041f4e65fad6a77089b4,2024_03_08,44.95857310226525,-124.0219017690976,Lincoln City,3.6,1.268,1.572,10,10,"CLEAR,CLEAR,CLEAR,CLEAR,CLEAR","Offshore,Offshore,Offshore,Cross-shore,Cross-shore",5
5842041f4e65fad6a77089b5,2024_03_08,44.63792761362982,-124.0657,Newport,3.6,1.448,1.674,10,10,"CLEAR,CLEAR,CLEAR,CLEAR,CLEAR","Offshore,Offshore,Offshore,Cross-shore,Onshore",5
5842041f4e65fad6a77089b6,2024_03_08,45.61468496266301,-123.94643,Rockaway Beach,4,1.67,1.9,9,9,"NIGHT_CLEAR,NIGHT_CLEAR,NIGHT_CLEAR,NIGHT_CLEAR,NIGHT_CLEAR,NIGHT_CLEAR,NIGHT_CLEAR,NIGHT_CLEAR,CLEAR,CLEAR,CLEAR,CLEAR,CLEAR,CLEAR","Offshore,Offshore,Offshore,Offshore,Offshore,Offshore,Offshore,Offshore,Offshore,Offshore,Offshore,Offshore,Cross-shore,Cross-shore",14
5842041f4e65fad6a77089b7,2024_03_08,45.20252914186085,-123.96975,Pacific City,3.357142857142857,1.2221428571428572,1.51,10,10,"NIGHT_CLEAR,NIGHT_CLEAR,NIGHT_CLEAR,NIGHT_CLEAR,NIGHT_CLEAR,NIGHT_CLEAR,NIGHT_CLEAR,NIGHT_CLEAR,CLEAR,CLEAR,CLEAR,CLEAR,CLEAR,CLEAR","Offshore,Offshore,Offshore,Offshore,Offshore,Offshore,Offshore,Offshore,Offshore,Offshore,Offshore,Offshore,Cross-shore,Cross-shore",14
5842041f4e65fad6a77089b8,2024_03_08,45.88179930310263,-123.96681,Cannon Beach,3,1.505,1.7635714285714286,9,9,"NIGHT_CLEAR,NIGHT_CLEAR,NIGHT_CLEAR,NIGHT_CLEAR,NIGHT_CLEAR,NIGHT_CLEAR,NIGHT_CLEAR,NIGHT_CLEAR,CLEAR,CLEAR,CLEAR,CLEAR,CLEAR,CLEAR","Offshore,Offshore,Offshore,Offshore,Offshore,Offshore,Offshore,Offshore,Offshore,Offshore,Cross-shore,Cross-shore,Onshore,Onshore",14
5842041f4e65fad6a77089ba,2024_03_08,40.02528754746774,-124.06372,Shelter Cove,2,0.32382,0.505966,12,12,"CLEAR,CLEAR,CLEAR,CLEAR,CLEAR","Cross-shore,Onshore,Onshore,Onshore,Onshore",5
5842041f4e65fad6a77089bb,2024_03_08,40.76816197136951,-124.24248,Humboldt Harbor Entrance,3,1.344,1.638,11,11,"CLEAR,CLEAR,CLEAR,CLEAR,CLEAR","Cross-shore,Cross-shore,Onshore,Onshore,Onshore",5
5842041f4e65fad6a77089bc,2024_03_08,40.76684246920174,-124.23107,North Jetty,3,1.928,2.218,11,11,"CLEAR,CLEAR,CLEAR,CLEAR,CLEAR","Offshore,Onshore,Onshore,Onshore,Onshore",5
5842041f4e65fad6a77089bd,2024_03_08,41.02731183893966,-124.1149972888982,Westhaven,3.4,2.086,2.386,11,11,"CLEAR,CLEAR,CLEAR,CLEAR,CLEAR","Offshore,Cross-shore,Onshore,Onshore,Onshore",5
5842041f4e65fad6a77089be,2024_03_08,41.13016238153297,-124.16466,Sue-meg,3.4,1.444,1.728,11,11,"CLEAR,CLEAR,CLEAR,CLEAR,CLEAR","Offshore,Cross-shore,Cross-shore,Cross-shore,Cross-shore",5
5842041f4e65fad6a77089bf,2024_03_08,37.8289474958188,-122.5376795097543,Fort Cronkite/Rodeo Beach,3,0.796,1.05,13,13,"CLEAR,CLEAR,CLEAR,CLEAR,CLEAR","Offshore,Offshore,Cross-shore,Offshore,Onshore",5
5842041f4e65fad6a77089c0,2024_03_08,41.74415759876137,-124.17717,South Beach CA,2.8,0.432,0.736,11,11,"CLEAR,CLEAR,CLEAR,CLEAR,CLEAR","Cross-shore,Cross-shore,Onshore,Onshore,Cross-shore",5
5842041f4e65fad6a77089c1,2024_03_08,37.89801283969752,-122.64519,Stinson Beach,2,0.2,0.502,13,13,"CLEAR,CLEAR,CLEAR,CLEAR,CLEAR","Cross-shore,Offshore,Offshore,Cross-shore,Cross-shore",5
5842041f4e65fad6a77089c2,2024_03_08,37.90514516176495,-122.68151,Bolinas,2,0.264302,0.412972,13,13,"CLEAR,CLEAR,CLEAR,CLEAR,CLEAR","Cross-shore,Offshore,Offshore,Offshore,Offshore",5
5842041f4e65fad6a77089c3,2024_03_08,38.04892513158693,-122.9892494965416,Point Reyes (north),3,1.29,1.538,13,13,"CLEAR,CLEAR,CLEAR,CLEAR,CLEAR","Cross-shore,Onshore,Onshore,Onshore,Onshore",5
5842041f4e65fad6a77089c6,2024_03_08,38.31088736605785,-123.0496777333731,Doran Beach,1,0,0.298,13,13,"CLEAR,CLEAR,CLEAR,CLEAR,CLEAR","Cross-shore,Onshore,Onshore,Cross-shore,Cross-shore",5
5842041f4e65fad6a77089c7,2024_03_08,38.45077228660809,-123.13008,Russian Rivermouth,2.8,0.85,1.086,13,13,"CLEAR,CLEAR,CLEAR,CLEAR,CLEAR","Onshore,Onshore,Onshore,Onshore,Onshore",5
5842041f4e65fad6a77089c8,2024_03_08,38.35329968518107,-123.06906,Salmon Creek,3,1.016,1.254,13,13,"CLEAR,CLEAR,CLEAR,CLEAR,CLEAR","Offshore,Cross-shore,Onshore,Onshore,Onshore",5
5842041f4e65fad6a77089c9,2024_03_08,38.6845180197959,-123.4322714291198,Black Point Beach,3,0.386,0.69,13,13,"CLEAR,CLEAR,CLEAR,CLEAR,CLEAR","Offshore,Offshore,Cross-shore,Cross-shore,Onshore",5
5842041f4e65fad6a77089ca,2024_03_08,43.251076,-70.59144,Ogunquit,2.309285714285714,1.3773785714285713,1.713457142857143,4,3,"NIGHT_CLEAR,NIGHT_CLEAR,NIGHT_CLEAR,NIGHT_CLEAR,NIGHT_CLEAR,CLEAR,CLEAR,CLEAR,CLEAR,CLEAR,CLEAR,CLEAR,CLEAR,CLEAR","Cross-shore,Cross-shore,Cross-shore,Cross-shore,Cross-shore,Cross-shore,Cross-shore,Cross-shore,Cross-shore,Cross-shore,Cross-shore,Cross-shore,Onshore,Onshore",14
5842041f4e65fad6a77089cb,2024_03_08,41.362631366305415,-71.48006772942608,Point Judith,0.8114285714285714,0.5384404761904762,0.944595238095238,6,4,"NIGHT_CLEAR,NIGHT_CLEAR,NIGHT_CLEAR,NIGHT_CLEAR,NIGHT_CLEAR,CLEAR,CLEAR,CLEAR,CLEAR,CLEAR,CLEAR,CLEAR,CLEAR,CLEAR","Onshore,Onshore,Onshore,Onshore,Onshore,Onshore,Cross-shore,Cross-shore,Cross-shore,Onshore,Onshore,Onshore,Onshore,Onshore",14
5842041f4e65fad6a77089cd,2024_03_08,41.422678090954726,-71.45413,Monahan's - Narragansett,0.7857142857142857,0.45146857142857144,0.7054185714285715,5.357142857142857,5.357142857142857,"NIGHT_CLEAR,NIGHT_CLEAR,NIGHT_CLEAR,NIGHT_CLEAR,NIGHT_CLEAR,CLEAR,CLEAR,CLEAR,CLEAR,CLEAR,CLEAR,CLEAR,CLEAR,CLEAR","Cross-shore,Cross-shore,Cross-shore,Cross-shore,Cross-shore,Cross-shore,Cross-shore,Cross-shore,Cross-shore,Cross-shore,Cross-shore,Cross-shore,Cross-shore,Cross-shore",14
5842041f4e65fad6a77089ce,2024_03_08,41.469,-71.293,Ruggles - Newport,2.357142857142857,0.5886978571428572,0.91984,5.357142857142857,5.357142857142857,"NIGHT_CLEAR,NIGHT_CLEAR,NIGHT_CLEAR,NIGHT_CLEAR,NIGHT_CLEAR,CLEAR,CLEAR,CLEAR,CLEAR,CLEAR,CLEAR,CLEAR,CLEAR,CLEAR","Offshore,Offshore,Offshore,Offshore,Offshore,Offshore,Offshore,Offshore,Offshore,Offshore,Offshore,Offshore,Offshore,Offshore",14
5842041f4e65fad6a77089cf,2024_03_08,43.175394,-70.606351,Short Sands Beach,2,1.23,1.5342857142857143,5,5,"NIGHT_CLEAR,NIGHT_CLEAR,NIGHT_CLEAR,NIGHT_CLEAR,NIGHT_CLEAR,CLEAR,CLEAR,CLEAR,CLEAR,CLEAR,CLEAR,CLEAR,CLEAR,CLEAR","Cross-shore,Cross-shore,Cross-shore,Cross-shore,Cross-shore,Cross-shore,Cross-shore,Cross-shore,Cross-shore,Cross-shore,Cross-shore,Onshore,Onshore,Onshore",14
5842041f4e65fad6a77089d0,2024_03_08,41.487408,-71.29017,First Beach,1.7142857142857142,0.35,0.6542857142857142,5,5,"NIGHT_CLEAR,NIGHT_CLEAR,NIGHT_CLEAR,NIGHT_CLEAR,NIGHT_CLEAR,CLEAR,CLEAR,CLEAR,CLEAR,CLEAR,CLEAR,CLEAR,CLEAR,CLEAR","Offshore,Offshore,Offshore,Offshore,Offshore,Offshore,Offshore,Offshore,Offshore,Offshore,Offshore,Offshore,Offshore,Offshore",14
5842041f4e65fad6a77089d1,2024_03_08,42.27916830233153,-70.86498,Nantasket Beach,1.095,1.2092142857142858,1.5777,4,3,"NIGHT_CLEAR,NIGHT_CLEAR,NIGHT_CLEAR,NIGHT_CLEAR,NIGHT_CLEAR,CLEAR,CLEAR,CLEAR,CLEAR,CLEAR,CLEAR,CLEAR,CLEAR,CLEAR","Onshore,Onshore,Onshore,Onshore,Onshore,Onshore,Onshore,Onshore,Onshore,Onshore,Onshore,Onshore,Onshore,Onshore",14
5842041f4e65fad6a77089d2,2024_03_08,41.817,-69.935,Cape Cod,0,2.36,2.632142857142857,5,5,"NIGHT_CLEAR,NIGHT_CLEAR,NIGHT_CLEAR,NIGHT_CLEAR,NIGHT_CLEAR,CLEAR,CLEAR,CLEAR,CLEAR,CLEAR,CLEAR,CLEAR,CLEAR,CLEAR","Cross-shore,Cross-shore,Cross-shore,Cross-shore,Cross-shore,Cross-shore,Cross-shore,Cross-shore,Cross-shore,Cross-shore,Cross-shore,Cross-shore,Cross-shore,Cross-shore",14
5842041f4e65fad6a77089d3,2024_03_08,42.22055448975661,-70.70634873403819,Egypt Beach,0.35714285714285715,1.6171428571428572,1.9135714285714285,4,4,"NIGHT_CLEAR,NIGHT_CLEAR,NIGHT_CLEAR,NIGHT_CLEAR,NIGHT_CLEAR,CLEAR,CLEAR,CLEAR,CLEAR,CLEAR,CLEAR,CLEAR,CLEAR,CLEAR","Onshore,Onshore,Onshore,Onshore,Onshore,Onshore,Onshore,Onshore,Cross-shore,Cross-shore,Onshore,Onshore,Onshore,Onshore",14
5842041f4e65fad6a77089d4,2024_03_08,41.48739647744607,-71.25723,Second Beach,1.6785714285714286,0.34113125,0.6044548214285714,6,4,"NIGHT_CLEAR,NIGHT_CLEAR,NIGHT_CLEAR,NIGHT_CLEAR,NIGHT_CLEAR,CLEAR,CLEAR,CLEAR,CLEAR,CLEAR,CLEAR,CLEAR,CLEAR,CLEAR","Offshore,Offshore,Offshore,Offshore,Offshore,Offshore,Offshore,Offshore,Offshore,Offshore,Offshore,Offshore,Offshore,Offshore",14
5842041f4e65fad6a77089d5,2024_03_08,42.964,-70.769,Fox Hill,2.1664285714285714,0.9122,1.2003071428571428,4,3,"NIGHT_CLEAR,NIGHT_CLEAR,NIGHT_CLEAR,NIGHT_CLEAR,NIGHT_CLEAR,CLEAR,CLEAR,CLEAR,CLEAR,CLEAR,CLEAR,CLEAR,CLEAR,CLEAR","Offshore,Offshore,Offshore,Offshore,Offshore,Offshore,Offshore,Offshore,Offshore,Offshore,Cross-shore,Cross-shore,Onshore,Onshore",14
5842041f4e65fad6a77089d6,2024_03_08,42.991359,-70.75149,Straws Point,2.7735714285714286,1.2320214285714286,1.5320928571428571,4,3,"NIGHT_CLEAR,NIGHT_CLEAR,NIGHT_CLEAR,NIGHT_CLEAR,NIGHT_CLEAR,CLEAR,CLEAR,CLEAR,CLEAR,CLEAR,CLEAR,CLEAR,CLEAR,CLEAR","Offshore,Offshore,Offshore,Offshore,Offshore,Offshore,Offshore,Offshore,Offshore,Offshore,Offshore,Cross-shore,Cross-shore,Cross-shore",14
5842041f4e65fad6a77089d7,2024_03_08,42.946,-70.786,Plaice Cove,1.845,0.9122,1.2003071428571428,4,3,"NIGHT_CLEAR,NIGHT_CLEAR,NIGHT_CLEAR,NIGHT_CLEAR,NIGHT_CLEAR,CLEAR,CLEAR,CLEAR,CLEAR,CLEAR,CLEAR,CLEAR,CLEAR,CLEAR","Cross-shore,Cross-shore,Cross-shore,Cross-shore,Cross-shore,Cross-shore,Cross-shore,Cross-shore,Cross-shore,Cross-shore,Cross-shore,Onshore,Onshore,Onshore",14
5842041f4e65fad6a77089d9,2024_03_08,42.911574,-70.80831,The Main Beach,2.297857142857143,1.0101107142857144,1.477605892857143,4,3,"NIGHT_CLEAR,NIGHT_CLEAR,NIGHT_CLEAR,NIGHT_CLEAR,NIGHT_CLEAR,CLEAR,CLEAR,CLEAR,CLEAR,CLEAR,CLEAR,CLEAR,CLEAR,CLEAR","Offshore,Offshore,Offshore,Offshore,Offshore,Offshore,Offshore,Offshore,Offshore,Offshore,Offshore,Cross-shore,Cross-shore,Cross-shore",14
5842041f4e65fad6a77089da,2024_03_08,42.97583846220203,-70.764,Sawyer's Beach,2.559285714285714,1.0055928571428572,1.266557142857143,4,3,"NIGHT_CLEAR,NIGHT_CLEAR,NIGHT_CLEAR,NIGHT_CLEAR,NIGHT_CLEAR,CLEAR,CLEAR,CLEAR,CLEAR,CLEAR,CLEAR,CLEAR,CLEAR,CLEAR","Cross-shore,Offshore,Offshore,Offshore,Cross-shore,Cross-shore,Cross-shore,Cross-shore,Cross-shore,Offshore,Cross-shore,Cross-shore,Onshore,Onshore",14
5842041f4e65fad6a77089db,2024_03_08,42.97,-70.77,Rye on the Rocks / 5-0's,2.012142857142857,0.9795955357142858,1.3551717857142858,4,3,"NIGHT_CLEAR,NIGHT_CLEAR,NIGHT_CLEAR,NIGHT_CLEAR,NIGHT_CLEAR,CLEAR,CLEAR,CLEAR,CLEAR,CLEAR,CLEAR,CLEAR,CLEAR,CLEAR","Offshore,Offshore,Offshore,Offshore,Offshore,Offshore,Offshore,Offshore,Offshore,Offshore,Offshore,Cross-shore,Cross-shore,Onshore",14
5842041f4e65fad6a77089dc,2024_03_08,43.55902946610303,-70.27795,Higgins Beach,2.942857142857143,0.5556785714285715,0.9137071428571428,4,3,"NIGHT_CLEAR,NIGHT_CLEAR,NIGHT_CLEAR,NIGHT_CLEAR,NIGHT_CLEAR,CLEAR,CLEAR,CLEAR,CLEAR,CLEAR,CLEAR,CLEAR,CLEAR,CLEAR","Offshore,Offshore,Offshore,Offshore,Offshore,Offshore,Offshore,Offshore,Offshore,Offshore,Offshore,Offshore,Offshore,Offshore",14
5842041f4e65fad6a77089dd,2024_03_08,43.302676,-70.5652,Wells Beach,2.202142857142857,0.9575571428571429,1.2670285714285714,4,3,"NIGHT_CLEAR,NIGHT_CLEAR,NIGHT_CLEAR,NIGHT_CLEAR,NIGHT_CLEAR,CLEAR,CLEAR,CLEAR,CLEAR,CLEAR,CLEAR,CLEAR,CLEAR,CLEAR","Cross-shore,Cross-shore,Cross-shore,Cross-shore,Cross-shore,Cross-shore,Cross-shore,Cross-shore,Cross-shore,Cross-shore,Cross-shore,Cross-shore,Onshore,Onshore",14
5842041f4e65fad6a77089de,2024_03_08,43.545359,-70.30479,Scarborough Beach State Park,2.5,0.9383701785714287,1.32570875,4,3,"NIGHT_CLEAR,NIGHT_CLEAR,NIGHT_CLEAR,NIGHT_CLEAR,NIGHT_CLEAR,CLEAR,CLEAR,CLEAR,CLEAR,CLEAR,CLEAR,CLEAR,CLEAR,CLEAR","Offshore,Offshore,Offshore,Offshore,Offshore,Offshore,Offshore,Offshore,Offshore,Offshore,Offshore,Offshore,Offshore,Cross-shore",14
5842041f4e65fad6a77089df,2024_03_08,43.514481,-70.372146,Old Orchard Beach,2.8,0.68265,1.0273785714285715,4,3,"NIGHT_CLEAR,NIGHT_CLEAR,NIGHT_CLEAR,NIGHT_CLEAR,NIGHT_CLEAR,CLEAR,CLEAR,CLEAR,CLEAR,CLEAR,CLEAR,CLEAR,CLEAR,CLEAR","Offshore,Offshore,Offshore,Offshore,Offshore,Offshore,Offshore,Offshore,Offshore,Offshore,Offshore,Offshore,Cross-shore,Cross-shore",14
5842041f4e65fad6a77089e0,2024_03_08,43.34711,-70.48165,Gooch's Beach,3.262142857142857,0.6390714285714286,1.0254285714285714,4,3,"NIGHT_CLEAR,NIGHT_CLEAR,NIGHT_CLEAR,NIGHT_CLEAR,NIGHT_CLEAR,CLEAR,CLEAR,CLEAR,CLEAR,CLEAR,CLEAR,CLEAR,CLEAR,CLEAR","Offshore,Offshore,Offshore,Offshore,Offshore,Offshore,Offshore,Offshore,Offshore,Offshore,Offshore,Offshore,Offshore,Offshore",14
5842041f4e65fad6a77089e2,2024_03_08,40.58433,-73.62953,Lido Beach,2.9571428571428573,0.7049428571428572,1.0892214285714286,7,6,"NIGHT_CLEAR,NIGHT_CLEAR,NIGHT_CLEAR,NIGHT_CLEAR,NIGHT_CLEAR,CLEAR,CLEAR,CLEAR,CLEAR,CLEAR,CLEAR,CLEAR,CLEAR,CLEAR","Offshore,Offshore,Offshore,Offshore,Offshore,Offshore,Offshore,Offshore,Offshore,Offshore,Offshore,Onshore,Onshore,Onshore",14
5842041f4e65fad6a77089e3,2024_03_08,43.163135,-70.61689,Long Sands Beach,2.8,0.7377520595238095,1.0934354166666667,4,3,"NIGHT_CLEAR,NIGHT_CLEAR,NIGHT_CLEAR,NIGHT_CLEAR,NIGHT_CLEAR,CLEAR,CLEAR,CLEAR,CLEAR,CLEAR,CLEAR,CLEAR,CLEAR,CLEAR","Offshore,Offshore,Offshore,Offshore,Offshore,Offshore,Offshore,Offshore,Offshore,Offshore,Offshore,Offshore,Cross-shore,Cross-shore",14
5842041f4e65fad6a77089e4,2024_03_08,40.61695351251805,-73.39376,Gilgo Beach,2.8214285714285716,0.6758785714285714,1.0119571428571428,5,4,"NIGHT_CLEAR,NIGHT_CLEAR,NIGHT_CLEAR,NIGHT_CLEAR,NIGHT_CLEAR,CLEAR,CLEAR,CLEAR,CLEAR,CLEAR,CLEAR,CLEAR,CLEAR,CLEAR","Offshore,Offshore,Offshore,Offshore,Offshore,Offshore,Offshore,Offshore,Offshore,Offshore,Offshore,Offshore,Offshore,Offshore",14
5842041f4e65fad6a77089e5,2024_03_08,40.62530081928036,-73.23827,Robert Moses,2.357142857142857,0.5378571428571428,0.8442857142857143,5.714285714285714,5.714285714285714,"NIGHT_CLEAR,NIGHT_CLEAR,NIGHT_CLEAR,NIGHT_CLEAR,NIGHT_CLEAR,CLEAR,CLEAR,CLEAR,CLEAR,CLEAR,CLEAR,CLEAR,CLEAR,CLEAR","Offshore,Offshore,Offshore,Offshore,Offshore,Offshore,Offshore,Offshore,Offshore,Offshore,Offshore,Offshore,Offshore,Offshore",14
5842041f4e65fad6a77089e6,2024_03_08,40.64313317632791,-73.15727,Fire Island,2.4285714285714284,0.5457142857142857,0.8521428571428572,5.714285714285714,5.714285714285714,"NIGHT_CLEAR,NIGHT_CLEAR,NIGHT_CLEAR,NIGHT_CLEAR,NIGHT_CLEAR,CLEAR,CLEAR,CLEAR,CLEAR,CLEAR,CLEAR,CLEAR,CLEAR,CLEAR","Offshore,Offshore,Offshore,Offshore,Offshore,Offshore,Offshore,Offshore,Offshore,Offshore,Offshore,Offshore,Offshore,Offshore",14
5842041f4e65fad6a77089e8,2024_03_08,40.76653118828782,-72.74579619372713,Cupsogue,3.2142857142857144,0.9907142857142858,1.2385714285714287,5.714285714285714,5.714285714285714,"NIGHT_CLEAR,NIGHT_CLEAR,NIGHT_CLEAR,NIGHT_CLEAR,NIGHT_CLEAR,CLEAR,CLEAR,CLEAR,CLEAR,CLEAR,CLEAR,CLEAR,CLEAR,CLEAR","Offshore,Offshore,Offshore,Offshore,Offshore,Offshore,Offshore,Offshore,Offshore,Offshore,Offshore,Offshore,Offshore,Offshore",14
5842041f4e65fad6a77089e9,2024_03_08,42.9376373334092,-70.79141,The Wall ,1.8671428571428572,1.200649642857143,1.775325,4,3,"NIGHT_CLEAR,NIGHT_CLEAR,NIGHT_CLEAR,NIGHT_CLEAR,NIGHT_CLEAR,CLEAR,CLEAR,CLEAR,CLEAR,CLEAR,CLEAR,CLEAR,CLEAR,CLEAR","Cross-shore,Cross-shore,Cross-shore,Cross-shore,Cross-shore,Cross-shore,Cross-shore,Cross-shore,Cross-shore,Cross-shore,Cross-shore,Onshore,Onshore,Onshore",14
5842041f4e65fad6a77089ea,2024_03_08,40.887088,-72.33856,Flys,3,0.8792857142857142,1.1264285714285713,5.714285714285714,5.714285714285714,"NIGHT_CLEAR,NIGHT_CLEAR,NIGHT_CLEAR,NIGHT_CLEAR,NIGHT_CLEAR,CLEAR,CLEAR,CLEAR,CLEAR,CLEAR,CLEAR,CLEAR,CLEAR,CLEAR","Offshore,Offshore,Offshore,Offshore,Offshore,Offshore,Offshore,Offshore,Offshore,Offshore,Offshore,Offshore,Offshore,Offshore",14
5842041f4e65fad6a77089eb,2024_03_08,41.0389266436591,-71.91068529316958,Trailer Park,2.9885714285714284,0.8716527261904762,1.1947569523809525,5,4,"NIGHT_CLEAR,NIGHT_CLEAR,NIGHT_CLEAR,NIGHT_CLEAR,NIGHT_CLEAR,CLEAR,CLEAR,CLEAR,CLEAR,CLEAR,CLEAR,CLEAR,CLEAR,CLEAR","Offshore,Offshore,Offshore,Offshore,Offshore,Offshore,Offshore,Offshore,Offshore,Offshore,Offshore,Offshore,Offshore,Offshore",14
5842041f4e65fad6a77089ec,2024_03_08,41.039505402729105,-71.9142,Ditch Plains,2.857142857142857,0.72602,1.1344057142857142,5.357142857142857,5.357142857142857,"NIGHT_CLEAR,NIGHT_CLEAR,NIGHT_CLEAR,NIGHT_CLEAR,NIGHT_CLEAR,CLEAR,CLEAR,CLEAR,CLEAR,CLEAR,CLEAR,CLEAR,CLEAR,CLEAR","Offshore,Offshore,Offshore,Offshore,Offshore,Offshore,Offshore,Offshore,Offshore,Offshore,Offshore,Cross-shore,Cross-shore,Cross-shore",14
5842041f4e65fad6a77089ee,2024_03_08,40.57633275206492,-73.56895305108567,"West End, Jones Beach",2.7857142857142856,0.6371071428571429,1.02275,7,6,"NIGHT_CLEAR,NIGHT_CLEAR,NIGHT_CLEAR,NIGHT_CLEAR,NIGHT_CLEAR,CLEAR,CLEAR,CLEAR,CLEAR,CLEAR,CLEAR,CLEAR,CLEAR,CLEAR","Offshore,Offshore,Offshore,Offshore,Offshore,Offshore,Offshore,Offshore,Offshore,Offshore,Offshore,Offshore,Offshore,Offshore",14
5842041f4e65fad6a77089f1,2024_03_08,41.038286691230795,-71.91991567611694,Poles,2.9885714285714284,0.8211515833333334,1.1577445952380954,5,4,"NIGHT_CLEAR,NIGHT_CLEAR,NIGHT_CLEAR,NIGHT_CLEAR,NIGHT_CLEAR,CLEAR,CLEAR,CLEAR,CLEAR,CLEAR,CLEAR,CLEAR,CLEAR,CLEAR","Offshore,Offshore,Offshore,Offshore,Offshore,Offshore,Offshore,Offshore,Offshore,Offshore,Offshore,Offshore,Offshore,Offshore",14
5842041f4e65fad6a77089f3,2024_03_08,40.84077769766295,-72.47989493724765,The Bowl,3,0.8714285714285714,1.1192857142857142,5.714285714285714,5.714285714285714,"NIGHT_CLEAR,NIGHT_CLEAR,NIGHT_CLEAR,NIGHT_CLEAR,NIGHT_CLEAR,CLEAR,CLEAR,CLEAR,CLEAR,CLEAR,CLEAR,CLEAR,CLEAR,CLEAR","Offshore,Offshore,Offshore,Offshore,Offshore,Offshore,Offshore,Offshore,Offshore,Offshore,Offshore,Offshore,Offshore,Offshore",14
5842041f4e65fad6a77089f4,2024_03_08,40.94235535243154,-72.19286,Main Beach,2.4285714285714284,0.7738928571428572,1.0828285714285715,13,12,"NIGHT_CLEAR,NIGHT_CLEAR,NIGHT_CLEAR,NIGHT_CLEAR,NIGHT_CLEAR,CLEAR,CLEAR,CLEAR,CLEAR,CLEAR,CLEAR,CLEAR,CLEAR,CLEAR","Offshore,Offshore,Offshore,Offshore,Offshore,Offshore,Offshore,Offshore,Offshore,Offshore,Offshore,Offshore,Offshore,Offshore",14
5842041f4e65fad6a77089f5,2024_03_08,40.58270702399518,-73.67251552079799,Laurelton Blvd.,2.7857142857142856,0.6571751904761906,0.954361,7,6,"NIGHT_CLEAR,NIGHT_CLEAR,NIGHT_CLEAR,NIGHT_CLEAR,NIGHT_MIST,CLEAR,MIST,CLEAR,CLEAR,CLEAR,CLEAR,CLEAR,CLEAR,CLEAR","Offshore,Offshore,Offshore,Offshore,Offshore,Offshore,Offshore,Offshore,Offshore,Offshore,Offshore,Onshore,Onshore,Onshore",14
5842041f4e65fad6a77089f6,2024_03_08,41.033752854071416,-71.93695522488403,Terrace,2.9978571428571428,0.7700666666666667,1.1042119047619048,5,4,"NIGHT_CLEAR,NIGHT_CLEAR,NIGHT_CLEAR,NIGHT_CLEAR,NIGHT_CLEAR,CLEAR,CLEAR,CLEAR,CLEAR,CLEAR,CLEAR,CLEAR,CLEAR,CLEAR","Offshore,Offshore,Offshore,Offshore,Offshore,Offshore,Offshore,Offshore,Offshore,Offshore,Offshore,Offshore,Offshore,Offshore",14
5842041f4e65fad6a77089f7,2024_03_08,40.83372943645748,-72.50426173210144,K Road,3.2857142857142856,1.0364285714285715,1.2835714285714286,5.714285714285714,5.714285714285714,"NIGHT_CLEAR,NIGHT_CLEAR,NIGHT_CLEAR,NIGHT_CLEAR,NIGHT_CLEAR,CLEAR,CLEAR,CLEAR,CLEAR,CLEAR,CLEAR,CLEAR,CLEAR,CLEAR","Offshore,Offshore,Offshore,Offshore,Offshore,Offshore,Offshore,Offshore,Offshore,Offshore,Offshore,Offshore,Offshore,Offshore",14
5842041f4e65fad6a77089f8,2024_03_08,40.58456099581507,-73.80730032920837,84th Street,3.185714285714286,0.8803071428571428,1.1788261904761905,7,6,"NIGHT_CLEAR,NIGHT_CLEAR,NIGHT_CLEAR,NIGHT_CLEAR,NIGHT_CLEAR,CLEAR,MIST,CLEAR,CLEAR,CLEAR,CLEAR,CLEAR,CLEAR,CLEAR","Offshore,Offshore,Offshore,Offshore,Offshore,Offshore,Offshore,Offshore,Offshore,Offshore,Offshore,Offshore,Offshore,Cross-shore",14
5842041f4e65fad6a77089fa,2024_03_08,40.1319,-74.02788,Sea Girt,2.237142857142857,0.990247619047619,1.3604309523809524,7,6,"NIGHT_CLEAR,NIGHT_CLEAR,NIGHT_CLEAR,NIGHT_CLEAR,NIGHT_CLEAR,CLEAR,CLEAR,CLEAR,CLEAR,CLEAR,CLEAR,CLEAR,CLEAR,CLEAR","Cross-shore,Cross-shore,Cross-shore,Cross-shore,Cross-shore,Cross-shore,Onshore,Onshore,Onshore,Onshore,Onshore,Onshore,Onshore,Onshore",14
5842041f4e65fad6a77089fb,2024_03_08,40.54698301868125,-73.9268,Breezy Point,3,0.5907142857142857,0.8957142857142857,6.357142857142857,6.357142857142857,"NIGHT_CLEAR,NIGHT_CLEAR,NIGHT_CLEAR,NIGHT_MIST,NIGHT_CLEAR,CLEAR,CLEAR,CLEAR,CLEAR,CLEAR,CLEAR,CLEAR,CLEAR,CLEAR","Offshore,Offshore,Offshore,Offshore,Offshore,Offshore,Offshore,Offshore,Offshore,Offshore,Offshore,Offshore,Offshore,Offshore",14
5842041f4e65fad6a77089fc,2024_03_08,40.152504,-74.021383,Spring Lake,2.177857142857143,0.9525690476190476,1.2846904761904763,7,6,"NIGHT_CLEAR,NIGHT_CLEAR,NIGHT_CLEAR,NIGHT_CLEAR,NIGHT_CLEAR,CLEAR,CLEAR,CLEAR,CLEAR,CLEAR,CLEAR,CLEAR,CLEAR,CLEAR","Cross-shore,Cross-shore,Cross-shore,Cross-shore,Cross-shore,Cross-shore,Onshore,Onshore,Onshore,Onshore,Onshore,Onshore,Onshore,Onshore",14
5842041f4e65fad6a77089fd,2024_03_08,40.591277,-73.770792,30th - 39th Streets,2.7857142857142856,0.5740714285714286,0.8821785714285715,7,6,"NIGHT_CLEAR,NIGHT_CLEAR,NIGHT_CLEAR,NIGHT_MIST,NIGHT_CLEAR,CLEAR,CLEAR,CLEAR,CLEAR,CLEAR,CLEAR,CLEAR,CLEAR,CLEAR","Offshore,Offshore,Offshore,Offshore,Offshore,Offshore,Offshore,Offshore,Offshore,Offshore,Offshore,Offshore,Offshore,Offshore",14
5842041f4e65fad6a77089fe,2024_03_08,40.18834955871439,-74.00860982500222,Avon,2.1664285714285714,1.0119142857142858,1.3290357142857143,7,6,"NIGHT_CLEAR,NIGHT_CLEAR,NIGHT_CLEAR,NIGHT_CLEAR,NIGHT_CLEAR,CLEAR,CLEAR,CLEAR,CLEAR,CLEAR,CLEAR,CLEAR,CLEAR,CLEAR","Cross-shore,Cross-shore,Cross-shore,Cross-shore,Cross-shore,Cross-shore,Onshore,Onshore,Onshore,Onshore,Onshore,Onshore,Onshore,Onshore",14
5842041f4e65fad6a77089ff,2024_03_08,40.1974229100932,-74.00650533798255,Bradley Beach,2.095,0.9611404761904762,1.26975,7,6,"NIGHT_CLEAR,NIGHT_CLEAR,NIGHT_CLEAR,NIGHT_CLEAR,NIGHT_CLEAR,CLEAR,CLEAR,CLEAR,CLEAR,CLEAR,CLEAR,CLEAR,CLEAR,CLEAR","Cross-shore,Onshore,Cross-shore,Cross-shore,Cross-shore,Cross-shore,Onshore,Onshore,Onshore,Onshore,Onshore,Onshore,Onshore,Cross-shore",14
5842041f4e65fad6a7708a01,2024_03_08,40.17202,-74.01503,"16th Ave., Belmar",1.4642857142857142,0.9507833333333333,1.2582619047619048,7,6,"NIGHT_CLEAR,NIGHT_CLEAR,NIGHT_CLEAR,NIGHT_CLEAR,NIGHT_CLEAR,CLEAR,CLEAR,CLEAR,CLEAR,CLEAR,CLEAR,CLEAR,CLEAR,CLEAR","Cross-shore,Onshore,Cross-shore,Cross-shore,Cross-shore,Cross-shore,Onshore,Onshore,Onshore,Onshore,Onshore,Onshore,Onshore,Cross-shore",14
5842041f4e65fad6a7708a02,2024_03_08,40.217443,-73.99982,Asbury Park,2.1064285714285713,0.9580452380952381,1.2598095238095237,7,6,"NIGHT_CLEAR,NIGHT_CLEAR,NIGHT_CLEAR,NIGHT_CLEAR,NIGHT_CLEAR,CLEAR,CLEAR,CLEAR,CLEAR,CLEAR,CLEAR,CLEAR,CLEAR,CLEAR","Cross-shore,Cross-shore,Cross-shore,Cross-shore,Cross-shore,Cross-shore,Onshore,Onshore,Onshore,Onshore,Onshore,Onshore,Onshore,Onshore",14
5842041f4e65fad6a7708a03,2024_03_08,40.229841,-73.996782,Loch Arbour and Deal,2.2857142857142856,0.9616761904761905,1.2811190476190477,7,6,"NIGHT_CLEAR,NIGHT_CLEAR,NIGHT_CLEAR,NIGHT_CLEAR,NIGHT_CLEAR,CLEAR,CLEAR,CLEAR,CLEAR,CLEAR,CLEAR,CLEAR,CLEAR,CLEAR","Cross-shore,Cross-shore,Offshore,Offshore,Offshore,Cross-shore,Cross-shore,Cross-shore,Cross-shore,Cross-shore,Cross-shore,Cross-shore,Cross-shore,Cross-shore",14
5842041f4e65fad6a7708a05,2024_03_08,40.41754,-73.97935,Sandy Hook,1.8571428571428572,0.32642857142857146,0.6307142857142857,6.357142857142857,6.357142857142857,"NIGHT_CLEAR,NIGHT_CLEAR,NIGHT_CLEAR,NIGHT_CLEAR,NIGHT_CLEAR,CLEAR,CLEAR,CLEAR,CLEAR,CLEAR,CLEAR,CLEAR,CLEAR,CLEAR","Cross-shore,Cross-shore,Cross-shore,Offshore,Offshore,Cross-shore,Cross-shore,Cross-shore,Cross-shore,Cross-shore,Cross-shore,Onshore,Cross-shore,Offshore",14
5842041f4e65fad6a7708a06,2024_03_08,39.36353,-74.40873,Crystals,2.2264285714285714,0.8259808333333333,1.342189642857143,7.428571428571429,6,"NIGHT_CLEAR,NIGHT_CLEAR,NIGHT_CLEAR,NIGHT_CLEAR,NIGHT_CLEAR,CLEAR,CLEAR,CLEAR,CLEAR,CLEAR,CLEAR,CLEAR,CLEAR,CLEAR","Offshore,Offshore,Offshore,Offshore,Offshore,Offshore,Offshore,Offshore,Offshore,Cross-shore,Cross-shore,Cross-shore,Cross-shore,Cross-shore",14
5842041f4e65fad6a7708a07,2024_03_08,39.31443,-74.51863,32nd Street,1.7085714285714286,0.8262541071428571,1.1741116071428572,7.428571428571429,6,"NIGHT_CLEAR,NIGHT_CLEAR,NIGHT_CLEAR,NIGHT_CLEAR,NIGHT_CLEAR,CLEAR,CLEAR,CLEAR,CLEAR,CLEAR,CLEAR,CLEAR,CLEAR,CLEAR","Offshore,Offshore,Offshore,Offshore,Offshore,Offshore,Offshore,Cross-shore,Cross-shore,Cross-shore,Cross-shore,Cross-shore,Cross-shore,Cross-shore",14
5842041f4e65fad6a7708a08,2024_03_08,39.327688,-74.49524,Margate Pier Northside,1.7085714285714286,0.8262541071428571,1.1741116071428572,7.428571428571429,6,"NIGHT_CLEAR,NIGHT_CLEAR,NIGHT_CLEAR,NIGHT_CLEAR,NIGHT_CLEAR,CLEAR,CLEAR,CLEAR,CLEAR,CLEAR,CLEAR,CLEAR,CLEAR,CLEAR","Offshore,Offshore,Offshore,Offshore,Offshore,Offshore,Offshore,Cross-shore,Cross-shore,Cross-shore,Cross-shore,Cross-shore,Cross-shore,Cross-shore",14
5842041f4e65fad6a7708a09,2024_03_08,39.336276,-74.47782,Ventnor Pier,2.0957142857142856,0.8120880952380952,1.3204805952380951,7.428571428571429,6,"NIGHT_CLEAR,NIGHT_CLEAR,NIGHT_CLEAR,NIGHT_CLEAR,NIGHT_CLEAR,CLEAR,CLEAR,CLEAR,CLEAR,CLEAR,CLEAR,CLEAR,CLEAR,CLEAR","Offshore,Offshore,Offshore,Offshore,Offshore,Offshore,Offshore,Offshore,Offshore,Cross-shore,Cross-shore,Cross-shore,Cross-shore,Cross-shore",14
5842041f4e65fad6a7708a0a,2024_03_08,39.35929751441085,-74.41683,States Avenue,2.2264285714285714,0.8259808333333333,1.342189642857143,7.214285714285714,6,"NIGHT_CLEAR,NIGHT_CLEAR,NIGHT_CLEAR,NIGHT_CLEAR,NIGHT_CLEAR,CLEAR,CLEAR,CLEAR,CLEAR,CLEAR,CLEAR,CLEAR,CLEAR,CLEAR","Offshore,Offshore,Offshore,Offshore,Offshore,Offshore,Offshore,Offshore,Offshore,Cross-shore,Cross-shore,Cross-shore,Cross-shore,Cross-shore",14
5842041f4e65fad6a7708a0b,2024_03_08,39.37274173278517,-74.40454,Brigantine Jetty,2.262142857142857,0.7995523809523809,1.3008959523809525,7.428571428571429,6,"NIGHT_CLEAR,NIGHT_CLEAR,NIGHT_CLEAR,NIGHT_CLEAR,NIGHT_CLEAR,CLEAR,CLEAR,CLEAR,CLEAR,CLEAR,CLEAR,CLEAR,CLEAR,CLEAR","Offshore,Offshore,Offshore,Offshore,Offshore,Offshore,Offshore,Offshore,Offshore,Offshore,Offshore,Offshore,Offshore,Offshore",14
5842041f4e65fad6a7708a0c,2024_03_08,39.356505,-74.42263,South Carolina Avenue,2.262142857142857,0.7996602380952381,1.3010645238095238,7.428571428571429,6,"NIGHT_CLEAR,NIGHT_CLEAR,NIGHT_CLEAR,NIGHT_CLEAR,NIGHT_CLEAR,CLEAR,CLEAR,CLEAR,CLEAR,CLEAR,CLEAR,CLEAR,CLEAR,CLEAR","Offshore,Offshore,Offshore,Offshore,Offshore,Offshore,Offshore,Offshore,Offshore,Offshore,Offshore,Offshore,Offshore,Offshore",14
5842041f4e65fad6a7708a0d,2024_03_08,39.413485,-74.35476,14th Street North,2.2264285714285714,0.9048238095238095,1.3749047619047619,7.428571428571429,6,"NIGHT_CLEAR,NIGHT_CLEAR,NIGHT_CLEAR,NIGHT_CLEAR,NIGHT_CLEAR,CLEAR,CLEAR,CLEAR,CLEAR,CLEAR,CLEAR,CLEAR,CLEAR,CLEAR","Offshore,Offshore,Offshore,Offshore,Offshore,Offshore,Offshore,Cross-shore,Cross-shore,Cross-shore,Cross-shore,Cross-shore,Cross-shore,Cross-shore",14
5842041f4e65fad6a7708a0e,2024_03_08,39.531319,-74.263252,The Wooden Jetty,1.6428571428571428,0.9368120238095238,1.3718905357142857,7.428571428571429,6,"NIGHT_CLEAR,NIGHT_CLEAR,NIGHT_CLEAR,NIGHT_CLEAR,NIGHT_CLEAR,CLEAR,CLEAR,CLEAR,CLEAR,CLEAR,CLEAR,CLEAR,CLEAR,CLEAR","Offshore,Offshore,Offshore,Offshore,Offshore,Offshore,Offshore,Cross-shore,Offshore,Offshore,Cross-shore,Cross-shore,Cross-shore,Cross-shore",14
5842041f4e65fad6a7708a0f,2024_03_08,39.552472,-74.24344,Holyoke,1.6664285714285714,0.8464478571428571,1.370766011904762,7.428571428571429,6,"NIGHT_CLEAR,NIGHT_CLEAR,NIGHT_CLEAR,NIGHT_CLEAR,NIGHT_CLEAR,CLEAR,CLEAR,CLEAR,CLEAR,CLEAR,CLEAR,CLEAR,CLEAR,CLEAR","Offshore,Offshore,Offshore,Offshore,Offshore,Offshore,Offshore,Cross-shore,Cross-shore,Cross-shore,Cross-shore,Cross-shore,Cross-shore,Cross-shore",14
5842041f4e65fad6a7708a10,2024_03_08,39.692364,-74.14068,Hudson Ave.,1.6428571428571428,1.126554761904762,1.437857142857143,7.428571428571429,6,"NIGHT_CLEAR,NIGHT_CLEAR,NIGHT_CLEAR,NIGHT_CLEAR,NIGHT_CLEAR,CLEAR,CLEAR,CLEAR,CLEAR,CLEAR,CLEAR,CLEAR,CLEAR,CLEAR","Offshore,Offshore,Offshore,Offshore,Offshore,Offshore,Offshore,Offshore,Offshore,Offshore,Offshore,Offshore,Offshore,Cross-shore",14
5842041f4e65fad6a7708a11,2024_03_08,39.79614,-74.09248,Island Beach State Park,1.9885714285714287,1.228504761904762,1.5106904761904763,7,6,"NIGHT_CLEAR,NIGHT_CLEAR,NIGHT_CLEAR,NIGHT_CLEAR,NIGHT_CLEAR,CLEAR,CLEAR,CLEAR,CLEAR,CLEAR,CLEAR,CLEAR,CLEAR,CLEAR","Cross-shore,Cross-shore,Cross-shore,Offshore,Offshore,Offshore,Cross-shore,Cross-shore,Cross-shore,Cross-shore,Cross-shore,Cross-shore,Cross-shore,Cross-shore",14
5842041f4e65fad6a7708a12,2024_03_08,39.91813588078152,-74.07527,Seaside Park,1.9285714285714286,1.121302380952381,1.4300357142857143,7,6,"NIGHT_CLEAR,NIGHT_CLEAR,NIGHT_CLEAR,NIGHT_CLEAR,NIGHT_CLEAR,CLEAR,CLEAR,CLEAR,CLEAR,CLEAR,CLEAR,CLEAR,CLEAR,CLEAR","Cross-shore,Cross-shore,Cross-shore,Offshore,Offshore,Offshore,Cross-shore,Cross-shore,Cross-shore,Cross-shore,Cross-shore,Cross-shore,Cross-shore,Cross-shore",14
5842041f4e65fad6a7708a14,2024_03_08,39.946638,-74.06884,Seaside Heights,2.2857142857142856,1.065247619047619,1.5323571428571428,7,6,"NIGHT_CLEAR,NIGHT_CLEAR,NIGHT_CLEAR,NIGHT_CLEAR,NIGHT_CLEAR,CLEAR,CLEAR,CLEAR,CLEAR,CLEAR,CLEAR,CLEAR,CLEAR,CLEAR","Cross-shore,Cross-shore,Offshore,Offshore,Offshore,Offshore,Cross-shore,Cross-shore,Cross-shore,Cross-shore,Cross-shore,Cross-shore,Cross-shore,Cross-shore",14
5842041f4e65fad6a7708a15,2024_03_08,39.95745637606704,-74.06736,Ortley Beach,2.190714285714286,0.9665571428571429,1.484402380952381,7,6,"NIGHT_CLEAR,NIGHT_CLEAR,NIGHT_CLEAR,NIGHT_CLEAR,NIGHT_CLEAR,CLEAR,CLEAR,CLEAR,CLEAR,CLEAR,CLEAR,CLEAR,CLEAR,CLEAR","Cross-shore,Cross-shore,Offshore,Offshore,Offshore,Offshore,Cross-shore,Cross-shore,Cross-shore,Cross-shore,Cross-shore,Cross-shore,Cross-shore,Cross-shore",14
5842041f4e65fad6a7708a16,2024_03_08,39.98313468342945,-74.06265685577506,Lavallette,2.190714285714286,0.9732238095238095,1.5191642857142857,7,6,"NIGHT_CLEAR,NIGHT_CLEAR,NIGHT_CLEAR,NIGHT_CLEAR,NIGHT_CLEAR,CLEAR,CLEAR,CLEAR,CLEAR,CLEAR,CLEAR,CLEAR,CLEAR,CLEAR","Cross-shore,Cross-shore,Cross-shore,Offshore,Offshore,Offshore,Cross-shore,Cross-shore,Cross-shore,Cross-shore,Cross-shore,Cross-shore,Cross-shore,Cross-shore",14
5842041f4e65fad6a7708a17,2024_03_08,40.0699319967757,-74.04144910856634,Bay Head,2.1785714285714284,0.9760214285714286,1.5142833333333332,7,6,"NIGHT_CLEAR,NIGHT_CLEAR,NIGHT_CLEAR,NIGHT_CLEAR,NIGHT_CLEAR,CLEAR,CLEAR,CLEAR,CLEAR,CLEAR,CLEAR,CLEAR,CLEAR,CLEAR","Cross-shore,Cross-shore,Offshore,Offshore,Offshore,Cross-shore,Cross-shore,Cross-shore,Cross-shore,Cross-shore,Cross-shore,Cross-shore,Cross-shore,Cross-shore",14
5842041f4e65fad6a7708a18,2024_03_08,40.094041,-74.034859,Jenkinson's,2.440714285714286,0.9762595238095239,1.5397595238095239,7,6,"NIGHT_CLEAR,NIGHT_CLEAR,NIGHT_CLEAR,NIGHT_CLEAR,NIGHT_CLEAR,CLEAR,CLEAR,CLEAR,CLEAR,CLEAR,CLEAR,CLEAR,CLEAR,CLEAR","Offshore,Offshore,Offshore,Offshore,Offshore,Offshore,Cross-shore,Cross-shore,Cross-shore,Cross-shore,Cross-shore,Cross-shore,Cross-shore,Cross-shore",14
5842041f4e65fad6a7708a1a,2024_03_08,38.148058,-75.17704,Assateague,1.2142857142857142,1.022047619047619,1.366047619047619,8,7,"NIGHT_CLEAR,NIGHT_CLEAR,NIGHT_CLEAR,NIGHT_CLEAR,NIGHT_CLEAR,CLEAR,CLEAR,CLEAR,CLEAR,CLEAR,CLEAR,CLEAR,MOSTLY_CLEAR,CLEAR","Cross-shore,Cross-shore,Cross-shore,Cross-shore,Cross-shore,Cross-shore,Cross-shore,Cross-shore,Cross-shore,Cross-shore,Cross-shore,Cross-shore,Cross-shore,Cross-shore",14
5842041f4e65fad6a7708a1b,2024_03_08,38.33889038664497,-75.08017670566352,North End to Ocean City Inlet,1.3335714285714286,1.0082380952380952,1.3647380952380952,8,7,"NIGHT_CLEAR,NIGHT_CLEAR,NIGHT_CLEAR,NIGHT_CLEAR,NIGHT_CLEAR,CLEAR,CLEAR,CLEAR,CLEAR,CLEAR,CLEAR,CLEAR,MOSTLY_CLEAR,CLEAR","Onshore,Onshore,Onshore,Onshore,Onshore,Onshore,Onshore,Onshore,Onshore,Onshore,Onshore,Onshore,Onshore,Onshore",14
5842041f4e65fad6a7708a1c,2024_03_08,38.603993,-75.06271,Indian River Inlet,1.0957142857142856,0.8490430952380952,1.297714761904762,8,7,"NIGHT_CLEAR,NIGHT_CLEAR,NIGHT_CLEAR,NIGHT_CLEAR,NIGHT_CLEAR,CLEAR,CLEAR,CLEAR,CLEAR,CLEAR,CLEAR,CLEAR,CLEAR,CLEAR","Cross-shore,Cross-shore,Cross-shore,Cross-shore,Cross-shore,Cross-shore,Cross-shore,Cross-shore,Onshore,Onshore,Onshore,Onshore,Onshore,Onshore",14
5842041f4e65fad6a7708a1d,2024_03_08,38.460477,-75.052069,Fenwick Island,1.1192857142857142,0.8093095238095238,1.1914642857142856,8,7,"NIGHT_CLEAR,NIGHT_CLEAR,NIGHT_CLEAR,NIGHT_CLEAR,NIGHT_CLEAR,CLEAR,CLEAR,CLEAR,CLEAR,CLEAR,MOSTLY_CLEAR,MOSTLY_CLOUDY,MOSTLY_CLOUDY,CLEAR","Onshore,Onshore,Onshore,Onshore,Onshore,Onshore,Onshore,Onshore,Onshore,Onshore,Onshore,Onshore,Onshore,Onshore",14
5842041f4e65fad6a7708a1e,2024_03_08,38.538767,-75.05619,Bethany Beach,1.0957142857142856,0.8500189285714286,1.299237738095238,8,7,"NIGHT_CLEAR,NIGHT_CLEAR,NIGHT_CLEAR,NIGHT_CLEAR,NIGHT_CLEAR,CLEAR,CLEAR,CLEAR,CLEAR,CLEAR,CLEAR,CLEAR,CLEAR,CLEAR","Cross-shore,Cross-shore,Cross-shore,Cross-shore,Cross-shore,Cross-shore,Cross-shore,Cross-shore,Onshore,Onshore,Onshore,Onshore,Onshore,Onshore",14
5842041f4e65fad6a7708a1f,2024_03_08,38.697657,-75.075951,Dewey Beach,1.5478571428571428,0.9106190476190477,1.2519404761904762,8,7,"NIGHT_CLEAR,NIGHT_CLEAR,NIGHT_CLEAR,NIGHT_CLEAR,NIGHT_CLEAR,CLEAR,CLEAR,CLEAR,CLEAR,CLEAR,CLEAR,CLEAR,CLEAR,CLEAR","Onshore,Onshore,Onshore,Onshore,Onshore,Onshore,Onshore,Onshore,Onshore,Onshore,Onshore,Onshore,Onshore,Onshore",14
5842041f4e65fad6a7708a20,2024_03_08,38.75034741676525,-75.08194,Gordons Pond,1.6907142857142856,0.7739159523809523,1.18033,8,7,"NIGHT_CLEAR,NIGHT_CLEAR,NIGHT_CLEAR,NIGHT_CLEAR,NIGHT_CLEAR,CLEAR,CLEAR,CLEAR,CLEAR,CLEAR,CLEAR,CLEAR,CLEAR,CLEAR","Cross-shore,Cross-shore,Cross-shore,Cross-shore,Cross-shore,Cross-shore,Cross-shore,Cross-shore,Onshore,Onshore,Onshore,Onshore,Onshore,Onshore",14
5842041f4e65fad6a7708a21,2024_03_08,38.767837,-75.082841,Naval Jetties,1.405,0.9116309523809524,1.258547619047619,8,7,"NIGHT_CLEAR,NIGHT_CLEAR,NIGHT_CLEAR,NIGHT_CLEAR,NIGHT_CLEAR,CLEAR,CLEAR,CLEAR,CLEAR,CLEAR,CLEAR,CLEAR,CLEAR,CLEAR","Onshore,Onshore,Onshore,Onshore,Onshore,Onshore,Onshore,Onshore,Onshore,Onshore,Onshore,Onshore,Onshore,Onshore",14
5842041f4e65fad6a7708a22,2024_03_08,36.81735875786576,-75.96624,Camp Pendleton,0.9021428571428571,0.5600714285714286,0.8662142857142858,9,8,"NIGHT_CLEAR,NIGHT_CLEAR,NIGHT_CLEAR,NIGHT_MIST,NIGHT_MIST,MIST,CLEAR,CLEAR,CLEAR,MIST,MIST,MOSTLY_CLOUDY,MOSTLY_CLOUDY,MOSTLY_CLOUDY","Cross-shore,Onshore,Onshore,Onshore,Onshore,Onshore,Onshore,Onshore,Onshore,Onshore,Onshore,Onshore,Onshore,Onshore",14
5842041f4e65fad6a7708a23,2024_03_08,36.9102212316428,-75.98732471466064,North End,1.0285714285714285,0.30433571428571426,0.6079785714285715,9,8,"NIGHT_CLEAR,NIGHT_CLEAR,NIGHT_CLEAR,NIGHT_CLEAR,NIGHT_CLEAR,CLEAR,CLEAR,CLEAR,CLEAR,MOSTLY_CLEAR,MOSTLY_CLEAR,MOSTLY_CLEAR,MOSTLY_CLOUDY,MOSTLY_CLOUDY","Onshore,Onshore,Onshore,Onshore,Onshore,Onshore,Onshore,Onshore,Onshore,Onshore,Onshore,Onshore,Onshore,Onshore",14
5842041f4e65fad6a7708a24,2024_03_08,36.737117517621314,-75.93923719853362,Sandbridge Beach,1.4521428571428572,0.6216142857142857,0.9247428571428571,9,8,"NIGHT_CLEAR,NIGHT_CLEAR,NIGHT_CLEAR,NIGHT_MIST,NIGHT_MIST,MIST,CLEAR,CLEAR,CLEAR,MOSTLY_CLOUDY,MOSTLY_CLOUDY,MOSTLY_CLOUDY,MOSTLY_CLOUDY,MOSTLY_CLOUDY","Cross-shore,Onshore,Onshore,Onshore,Onshore,Onshore,Onshore,Onshore,Onshore,Onshore,Onshore,Onshore,Onshore,Onshore",14
5842041f4e65fad6a7708a26,2024_03_08,36.818257440557794,-75.96666,Croatan to Pendleton,0.8857142857142857,0.4332857142857143,0.7381785714285715,9,8,"NIGHT_CLEAR,NIGHT_CLEAR,NIGHT_CLEAR,NIGHT_MIST,NIGHT_MIST,MIST,CLEAR,CLEAR,CLEAR,MIST,MIST,MOSTLY_CLOUDY,MOSTLY_CLOUDY,MOSTLY_CLOUDY","Cross-shore,Onshore,Onshore,Onshore,Onshore,Onshore,Onshore,Onshore,Onshore,Onshore,Onshore,Onshore,Onshore,Onshore",14
5842041f4e65fad6a7708a27,2024_03_08,36.84318777204769,-75.9719,South End,1.19,0.47494285714285717,0.7784071428571429,9,8,"NIGHT_CLEAR,NIGHT_CLEAR,NIGHT_CLEAR,NIGHT_MIST,NIGHT_MIST,CLEAR,CLEAR,CLEAR,CLEAR,MOSTLY_CLOUDY,MOSTLY_CLEAR,MOSTLY_CLOUDY,MOSTLY_CLOUDY,MOSTLY_CLOUDY","Onshore,Onshore,Onshore,Onshore,Onshore,Onshore,Onshore,Onshore,Onshore,Onshore,Onshore,Onshore,Onshore,Onshore",14
5842041f4e65fad6a7708a28,2024_03_08,37.08612627584661,-75.976121638199,Fishermans Island,1.2142857142857142,0.22314285714285714,0.3454285714285714,9,9,"NIGHT_CLEAR,NIGHT_CLEAR,NIGHT_CLOUDY,NIGHT_CLEAR,NIGHT_CLEAR,CLEAR,CLEAR,CLEAR,CLEAR,CLEAR,CLEAR,CLEAR,CLEAR,CLEAR","Cross-shore,Cross-shore,Cross-shore,Cross-shore,Cross-shore,Cross-shore,Cross-shore,Cross-shore,Cross-shore,Cross-shore,Cross-shore,Cross-shore,Cross-shore,Cross-shore",14
5842041f4e65fad6a7708a38,2024_03_08,35.254619418229026,-75.52074,Cape Hatteras Lighthouse,0.6285714285714286,0.9712255595238095,1.3946689523809523,12.571428571428571,11.571428571428571,"NIGHT_CLEAR,NIGHT_CLEAR,NIGHT_CLEAR,NIGHT_MIST,NIGHT_MIST,MIST,MIST,BRIEF_SHOWERS,DRIZZLE,MOSTLY_CLOUDY,CLOUDY,CLOUDY,CLOUDY,MIST","Cross-shore,Cross-shore,Cross-shore,Cross-shore,Cross-shore,Cross-shore,Cross-shore,Cross-shore,Cross-shore,Cross-shore,Cross-shore,Cross-shore,Cross-shore,Cross-shore",14
5842041f4e65fad6a7708a3a,2024_03_08,35.54572934093336,-75.46477,Waves and Salvo,1.0357142857142858,0.9417,1.3226642857142856,11.571428571428571,10.571428571428571,"NIGHT_CLEAR,NIGHT_CLOUDY,NIGHT_CLEAR,NIGHT_MIST,NIGHT_MIST,MIST,MIST,MIST,MIST,MOSTLY_CLOUDY,DRIZZLE,MIST,MIST,CLOUDY","Cross-shore,Cross-shore,Cross-shore,Cross-shore,Cross-shore,Cross-shore,Cross-shore,Cross-shore,Cross-shore,Cross-shore,Cross-shore,Cross-shore,Cross-shore,Cross-shore",14
5842041f4e65fad6a7708a3b,2024_03_08,35.22565892751075,-75.63606,Frisco,2.392857142857143,0.6956571428571429,1.0452214285714285,13.571428571428571,12.571428571428571,"NIGHT_CLEAR,NIGHT_CLEAR,NIGHT_MOSTLY_CLOUDY,NIGHT_CLOUDY,NIGHT_CLOUDY,CLOUDY,MIST,MIST,MIST,CLEAR,MOSTLY_CLOUDY,CLOUDY,MIST,MIST","Offshore,Offshore,Offshore,Offshore,Offshore,Offshore,Offshore,Offshore,Offshore,Offshore,Offshore,Offshore,Offshore,Offshore",14
5842041f4e65fad6a7708a3c,2024_03_08,35.13086,-75.90591,Ocracoke,1.5714285714285714,0.6793442857142857,1.0614742857142856,12.642857142857142,12.642857142857142,"NIGHT_CLEAR,NIGHT_CLEAR,NIGHT_BRIEF_SHOWERS,NIGHT_MIST,NIGHT_MIST,MIST,MIST,MIST,MIST,CLEAR,CLEAR,MOSTLY_CLOUDY,CLEAR,MIST","Offshore,Offshore,Offshore,Offshore,Cross-shore,Offshore,Offshore,Offshore,Offshore,Offshore,Offshore,Offshore,Offshore,Offshore",14
5842041f4e65fad6a7708a3d,2024_03_08,35.34721340158342,-75.50084,Avon Pier,0.5571428571428572,0.9479328571428571,1.528955238095238,12.571428571428571,11.571428571428571,"NIGHT_CLEAR,NIGHT_CLEAR,NIGHT_CLEAR,NIGHT_OVERCAST,NIGHT_OVERCAST,OVERCAST,MIST,MIST,DRIZZLE,CLEAR,CLOUDY,OVERCAST,OVERCAST,OVERCAST","Cross-shore,Cross-shore,Cross-shore,Cross-shore,Cross-shore,Cross-shore,Cross-shore,Cross-shore,Cross-shore,Cross-shore,Cross-shore,Cross-shore,Cross-shore,Cross-shore",14
5842041f4e65fad6a7708a3f,2024_03_08,35.71680821253768,-75.49243,Pea Island,1.0714285714285714,0.8721428571428571,1.177857142857143,10,10,"NIGHT_FOG,NIGHT_CLOUDY,NIGHT_CLEAR,NIGHT_OVERCAST,NIGHT_OVERCAST,OVERCAST,MIST,MIST,OVERCAST,CLEAR,MOSTLY_CLOUDY,MOSTLY_CLOUDY,MOSTLY_CLOUDY,CLOUDY","Cross-shore,Cross-shore,Onshore,Onshore,Onshore,Onshore,Onshore,Onshore,Onshore,Onshore,Onshore,Onshore,Onshore,Onshore",14
5842041f4e65fad6a7708a40,2024_03_08,35.97427620657821,-75.62984,Nags Head Pier,1.1285714285714286,0.9236285714285714,1.21775,10.142857142857142,8.571428571428571,"NIGHT_OVERCAST,NIGHT_CLEAR,NIGHT_CLEAR,NIGHT_OVERCAST,NIGHT_OVERCAST,OVERCAST,MIST,OVERCAST,OVERCAST,CLEAR,CLEAR,MOSTLY_CLOUDY,MOSTLY_CLOUDY,MOSTLY_CLOUDY","Onshore,Onshore,Onshore,Onshore,Onshore,Onshore,Onshore,Onshore,Onshore,Onshore,Onshore,Onshore,Onshore,Onshore",14
5842041f4e65fad6a7708a41,2024_03_08,36.0439998039079,-75.67288,Avalon Pier,1.3928571428571428,0.9456285714285714,1.2423214285714286,10.142857142857142,8.571428571428571,"NIGHT_CLEAR,NIGHT_CLEAR,NIGHT_CLOUDY,NIGHT_OVERCAST,NIGHT_OVERCAST,OVERCAST,OVERCAST,OVERCAST,OVERCAST,CLEAR,CLEAR,CLEAR,CLEAR,CLEAR","Onshore,Onshore,Onshore,Onshore,Onshore,Onshore,Onshore,Onshore,Onshore,Onshore,Onshore,Onshore,Onshore,Onshore",14
5842041f4e65fad6a7708a42,2024_03_08,36.03043116489792,-75.66413,First Street,1.3928571428571428,0.9266047619047619,1.2648333333333333,10.142857142857142,8.571428571428571,"NIGHT_CLEAR,NIGHT_CLEAR,NIGHT_CLOUDY,NIGHT_OVERCAST,NIGHT_OVERCAST,OVERCAST,OVERCAST,OVERCAST,OVERCAST,CLEAR,CLEAR,CLEAR,CLEAR,CLEAR","Cross-shore,Cross-shore,Onshore,Onshore,Onshore,Onshore,Cross-shore,Onshore,Onshore,Onshore,Onshore,Onshore,Onshore,Onshore",14
5842041f4e65fad6a7708a43,2024_03_08,36.06829910590498,-75.6899,Old Station/Laundromats,1.3928571428571428,0.9050928571428571,1.2021428571428572,10.142857142857142,8.571428571428571,"NIGHT_CLOUDY,NIGHT_CLEAR,NIGHT_CLEAR,NIGHT_OVERCAST,NIGHT_OVERCAST,OVERCAST,MIST,MIST,CLOUDY,CLEAR,CLEAR,CLEAR,CLEAR,MOSTLY_CLOUDY","Cross-shore,Cross-shore,Onshore,Onshore,Onshore,Onshore,Cross-shore,Onshore,Onshore,Onshore,Onshore,Onshore,Onshore,Onshore",14
5842041f4e65fad6a7708a44,2024_03_08,36.10126676607491,-75.71107462163894,Kitty Hawk Pier,1.3928571428571428,0.8667238095238096,1.2325714285714287,10.142857142857142,8.571428571428571,"NIGHT_OVERCAST,NIGHT_CLEAR,NIGHT_CLOUDY,NIGHT_OVERCAST,NIGHT_OVERCAST,OVERCAST,MIST,MIST,CLOUDY,CLEAR,CLEAR,CLEAR,CLEAR,CLEAR","Cross-shore,Cross-shore,Onshore,Onshore,Onshore,Onshore,Cross-shore,Onshore,Onshore,Onshore,Onshore,Onshore,Onshore,Onshore",14
5842041f4e65fad6a7708a45,2024_03_08,36.18220630068973,-75.75013580649097,Duck Pier,1.1071428571428572,0.6111928571428572,0.9464571428571429,9.571428571428571,8.571428571428571,"NIGHT_CLOUDY,NIGHT_CLEAR,NIGHT_CLEAR,NIGHT_CLOUDY,NIGHT_MIST,MIST,MIST,MIST,MIST,MIST,MIST,MOSTLY_CLOUDY,MIST,MOSTLY_CLOUDY","Cross-shore,Cross-shore,Onshore,Onshore,Onshore,Onshore,Cross-shore,Onshore,Onshore,Onshore,Onshore,Onshore,Onshore,Onshore",14
5842041f4e65fad6a7708a46,2024_03_08,36.37660668125033,-75.82409701687456,Corolla,1,0.6174428571428572,0.9493142857142857,9.571428571428571,8.571428571428571,"NIGHT_CLEAR,NIGHT_CLEAR,NIGHT_CLEAR,NIGHT_CLOUDY,NIGHT_MIST,MIST,MIST,MIST,MIST,MIST,MIST,CLEAR,CLEAR,MOSTLY_CLOUDY","Cross-shore,Cross-shore,Onshore,Onshore,Onshore,Onshore,Cross-shore,Onshore,Onshore,Onshore,Onshore,Onshore,Onshore,Onshore",14
5842041f4e65fad6a7708a47,2024_03_08,33.90373404124834,-78.08241431707907,Oak Island,1.2857142857142858,0.255,0.56,13.357142857142858,13.357142857142858,"NIGHT_CLEAR,NIGHT_CLEAR,NIGHT_CLEAR,NIGHT_CLEAR,NIGHT_CLEAR,CLEAR,MOSTLY_CLOUDY,CLEAR,CLEAR,CLEAR,CLEAR,CLEAR,CLEAR,CLEAR","Offshore,Offshore,Offshore,Offshore,Offshore,Offshore,Offshore,Offshore,Offshore,Offshore,Offshore,Offshore,Offshore,Offshore",14
5842041f4e65fad6a7708a48,2024_03_08,33.91108837766468,-78.29653,South Brunswick Beaches,1.4285714285714286,0.27756071428571427,0.433685,14,14,"NIGHT_MIST,NIGHT_MOSTLY_CLOUDY,NIGHT_CLEAR,NIGHT_MIST,NIGHT_CLEAR,CLEAR,CLEAR,CLEAR,CLEAR,CLEAR,CLEAR,CLEAR,CLEAR,CLEAR","Offshore,Cross-shore,Offshore,Offshore,Offshore,Offshore,Offshore,Cross-shore,Cross-shore,Offshore,Offshore,Cross-shore,Offshore,Cross-shore",14
5842041f4e65fad6a7708a49,2024_03_08,34.05683595651973,-77.88128,Carolina Beach Pier,0.9878571428571429,0.602402380952381,0.9099190476190476,14,13,"NIGHT_CLEAR,NIGHT_CLEAR,NIGHT_CLEAR,NIGHT_CLEAR,NIGHT_CLEAR,CLEAR,CLEAR,CLEAR,CLEAR,CLEAR,CLEAR,CLEAR,CLEAR,CLEAR","Onshore,Onshore,Onshore,Onshore,Onshore,Onshore,Onshore,Onshore,Onshore,Onshore,Onshore,Onshore,Onshore,Onshore",14
5842041f4e65fad6a7708a4a,2024_03_08,33.96841191816696,-77.9180242565498,Fort Fisher,1.0357142857142858,0.6451880952380953,0.9493714285714285,14,13,"NIGHT_CLEAR,NIGHT_CLEAR,NIGHT_CLEAR,NIGHT_CLEAR,NIGHT_CLEAR,CLEAR,CLEAR,CLEAR,CLEAR,CLEAR,CLEAR,CLEAR,CLEAR,CLEAR","Onshore,Onshore,Onshore,Onshore,Onshore,Onshore,Onshore,Onshore,Onshore,Onshore,Onshore,Onshore,Onshore,Onshore",14
5842041f4e65fad6a7708a4b,2024_03_08,34.46776662988774,-77.47083191635772,Topsail Beach,1.2857142857142858,0.4362214285714286,0.7732714285714286,14,13,"NIGHT_CLEAR,NIGHT_CLEAR,NIGHT_CLEAR,NIGHT_MIST,NIGHT_MIST,CLEAR,CLEAR,CLEAR,CLEAR,CLEAR,CLEAR,CLEAR,CLEAR,CLEAR","Offshore,Offshore,Cross-shore,Cross-shore,Cross-shore,Cross-shore,Cross-shore,Cross-shore,Cross-shore,Cross-shore,Cross-shore,Cross-shore,Cross-shore,Cross-shore",14
5842041f4e65fad6a7708a4c,2024_03_08,34.69270354752445,-76.82854854446575,Iron Steamer,1.4071428571428573,0.21196523809523812,0.5167652380952381,14,13,"NIGHT_CLEAR,NIGHT_CLEAR,NIGHT_CLEAR,NIGHT_CLEAR,NIGHT_CLEAR,CLEAR,CLEAR,CLEAR,CLEAR,CLEAR,CLEAR,CLEAR,CLEAR,CLEAR","Offshore,Offshore,Offshore,Offshore,Offshore,Offshore,Offshore,Offshore,Offshore,Offshore,Offshore,Offshore,Offshore,Offshore",14
5842041f4e65fad6a7708a4f,2024_03_08,30.85132684893727,-81.42283496231143,Cumberland Island,1.6428571428571428,0.42928571428571427,0.7342857142857143,16.642857142857142,16.642857142857142,"NIGHT_MIST,NIGHT_MIST,NIGHT_MIST,NIGHT_MIST,NIGHT_MIST,MIST,MIST,MIST,MIST,MOSTLY_CLOUDY,MIST,MIST,CLOUDY,OVERCAST","Cross-shore,Cross-shore,Onshore,Onshore,Onshore,Cross-shore,Cross-shore,Cross-shore,Cross-shore,Onshore,Cross-shore,Cross-shore,Cross-shore,Cross-shore",14
5842041f4e65fad6a7708a50,2024_03_08,34.686741128540874,-76.47516712138378,Cape Lookout National Seashore,0.6428571428571429,0.6735714285714286,0.9771428571428571,12,12,"NIGHT_CLEAR,NIGHT_CLEAR,NIGHT_CLEAR,NIGHT_CLEAR,NIGHT_CLEAR,MOSTLY_CLEAR,CLEAR,MOSTLY_CLEAR,CLEAR,CLEAR,CLEAR,CLEAR,CLEAR,CLEAR","Cross-shore,Cross-shore,Cross-shore,Cross-shore,Cross-shore,Cross-shore,Cross-shore,Cross-shore,Cross-shore,Cross-shore,Cross-shore,Cross-shore,Cross-shore,Cross-shore",14
5842041f4e65fad6a7708a51,2024_03_08,31.10585419260024,-81.40422767604812,Jekyll Island,1,0.20142857142857143,0.5042857142857143,15.642857142857142,15.642857142857142,"NIGHT_MIST,NIGHT_MIST,NIGHT_MIST,NIGHT_DRIZZLE,NIGHT_MIST,MIST,MIST,MIST,CLEAR,MIST,MIST,MIST,MIST,CLOUDY","Onshore,Onshore,Onshore,Onshore,Onshore,Onshore,Onshore,Onshore,Onshore,Onshore,Onshore,Onshore,Onshore,Onshore",14
5842041f4e65fad6a7708a52,2024_03_08,31.16212806376699,-81.32512426500224,Harbor Marker Buoys,1.3571428571428572,0.4542857142857143,0.7607142857142857,15.642857142857142,15.642857142857142,"NIGHT_MIST,NIGHT_MIST,NIGHT_MIST,NIGHT_MIST,NIGHT_MIST,DRIZZLE,MIST,CLOUDY,MOSTLY_CLOUDY,MIST,MIST,CLEAR,MIST,MIST","Cross-shore,Cross-shore,Onshore,Onshore,Onshore,Onshore,Cross-shore,Onshore,Cross-shore,Onshore,Cross-shore,Cross-shore,Cross-shore,Cross-shore",14
5842041f4e65fad6a7708a53,2024_03_08,31.20076299997009,-81.32629,Sea Island,1.6428571428571428,0.44357142857142856,0.7471428571428571,15.642857142857142,15.642857142857142,"NIGHT_MIST,NIGHT_MIST,NIGHT_MIST,NIGHT_MIST,NIGHT_OVERCAST,MIST,MIST,CLOUDY,MOSTLY_CLOUDY,CLEAR,MOSTLY_CLOUDY,MOSTLY_CLOUDY,MOSTLY_CLOUDY,MOSTLY_CLOUDY","Cross-shore,Cross-shore,Cross-shore,Cross-shore,Onshore,Cross-shore,Cross-shore,Cross-shore,Cross-shore,Cross-shore,Cross-shore,Cross-shore,Cross-shore,Cross-shore",14
5842041f4e65fad6a7708a54,2024_03_08,31.13553222995767,-81.38457634790909,St. Simons Island,1.7142857142857142,0.3992857142857143,0.7035714285714285,15.642857142857142,15.642857142857142,"NIGHT_MIST,NIGHT_MIST,NIGHT_MIST,NIGHT_MIST,NIGHT_MIST,MIST,MIST,CLEAR,MOSTLY_CLOUDY,MOSTLY_CLOUDY,CLEAR,CLEAR,MOSTLY_CLOUDY,CLOUDY","Cross-shore,Cross-shore,Cross-shore,Cross-shore,Cross-shore,Cross-shore,Cross-shore,Cross-shore,Cross-shore,Cross-shore,Cross-shore,Cross-shore,Cross-shore,Cross-shore",14
5842041f4e65fad6a7708a55,2024_03_08,31.33550077186516,-81.28383377408417,Wolf Island,1.6428571428571428,0.31857142857142856,0.625,15.642857142857142,15.642857142857142,"NIGHT_MIST,NIGHT_MIST,NIGHT_MIST,NIGHT_MIST,NIGHT_MIST,MIST,MIST,CLEAR,MOSTLY_CLEAR,MIST,CLEAR,MIST,MOSTLY_CLOUDY,MIST","Onshore,Onshore,Cross-shore,Onshore,Onshore,Onshore,Onshore,Onshore,Cross-shore,Onshore,Cross-shore,Onshore,Cross-shore,Cross-shore",14
5842041f4e65fad6a7708a56,2024_03_08,31.2704493877174,-81.27324039152315,Little St. Simons Island,1.7142857142857142,0.41,0.7171428571428571,15.642857142857142,15.642857142857142,"NIGHT_MIST,NIGHT_MIST,NIGHT_MIST,NIGHT_MIST,NIGHT_MIST,MIST,MIST,CLOUDY,MOSTLY_CLOUDY,MIST,MIST,MIST,MIST,MIST","Onshore,Onshore,Onshore,Onshore,Onshore,Onshore,Onshore,Onshore,Onshore,Onshore,Onshore,Onshore,Onshore,Onshore",14
5842041f4e65fad6a7708a57,2024_03_08,31.39261761368919,-81.26190520231917,Sapelo Island,1.7857142857142858,0.3742857142857143,0.6807142857142857,15.642857142857142,15.642857142857142,"NIGHT_MIST,NIGHT_MIST,NIGHT_MIST,NIGHT_MIST,NIGHT_MIST,DRIZZLE,MOSTLY_CLOUDY,MOSTLY_CLOUDY,SHOWERS,BRIEF_SHOWERS,CLEAR,MOSTLY_CLOUDY,OVERCAST,OVERCAST","Cross-shore,Cross-shore,Cross-shore,Onshore,Onshore,Onshore,Onshore,Onshore,Cross-shore,Onshore,Onshore,Onshore,Cross-shore,Cross-shore",14
5842041f4e65fad6a7708a58,2024_03_08,34.42458783809001,-77.54492,Surf City Pier,1.3571428571428572,0.44979285714285716,0.7848785714285714,14,13,"NIGHT_CLEAR,NIGHT_CLEAR,NIGHT_CLEAR,NIGHT_CLEAR,NIGHT_CLEAR,CLEAR,CLEAR,CLEAR,CLEAR,CLEAR,CLEAR,CLEAR,CLEAR,CLEAR","Cross-shore,Cross-shore,Cross-shore,Cross-shore,Cross-shore,Cross-shore,Cross-shore,Cross-shore,Cross-shore,Cross-shore,Cross-shore,Cross-shore,Cross-shore,Cross-shore",14
5842041f4e65fad6a7708a59,2024_03_08,31.4231993614213,-81.24725340591522,Cabretta Island,1.8571428571428572,0.3985714285714286,0.7042857142857143,15,15,"NIGHT_CLEAR,NIGHT_MIST,NIGHT_MIST,NIGHT_MIST,NIGHT_DRIZZLE,MIST,MOSTLY_CLOUDY,CLEAR,MIST,MOSTLY_CLOUDY,CLEAR,MOSTLY_CLOUDY,DRIZZLE,CLOUDY","Cross-shore,Cross-shore,Onshore,Onshore,Onshore,Onshore,Onshore,Cross-shore,Cross-shore,Cross-shore,Cross-shore,Cross-shore,Cross-shore,Cross-shore",14
5842041f4e65fad6a7708a5a,2024_03_08,31.46684389030369,-81.2100056410468,Blackbeard Island,1.7857142857142858,0.37357142857142855,0.6792857142857143,15,15,"NIGHT_CLEAR,NIGHT_OVERCAST,NIGHT_MIST,NIGHT_MIST,NIGHT_DRIZZLE,DRIZZLE,MOSTLY_CLOUDY,MIST,CLEAR,MOSTLY_CLOUDY,MOSTLY_CLOUDY,MOSTLY_CLOUDY,CLOUDY,OVERCAST","Cross-shore,Cross-shore,Onshore,Onshore,Onshore,Cross-shore,Cross-shore,Cross-shore,Cross-shore,Cross-shore,Cross-shore,Cross-shore,Cross-shore,Cross-shore",14
5842041f4e65fad6a7708a5b,2024_03_08,31.85953587631629,-80.99031310336719,Wassaw Island/South End,1.1428571428571428,0.07928571428571429,0.38285714285714284,15,15,"NIGHT_MIST,NIGHT_MIST,NIGHT_MIST,NIGHT_BRIEF_SHOWERS,NIGHT_MIST,MIST,MIST,MIST,MIST,MIST,MIST,MIST,MIST,MIST","Cross-shore,Cross-shore,Cross-shore,Onshore,Onshore,Onshore,Cross-shore,Cross-shore,Cross-shore,Cross-shore,Cross-shore,Cross-shore,Cross-shore,Cross-shore",14
5842041f4e65fad6a7708a5c,2024_03_08,31.62535662342983,-81.13328352167974,St. Catherines Island,1.6428571428571428,0.395,0.7,15,15,"NIGHT_MIST,NIGHT_MIST,NIGHT_MOSTLY_CLOUDY,NIGHT_MIST,NIGHT_MIST,DRIZZLE,MIST,MOSTLY_CLOUDY,MOSTLY_CLEAR,MOSTLY_CLOUDY,MOSTLY_CLOUDY,MOSTLY_CLOUDY,CLOUDY,OVERCAST","Onshore,Onshore,Onshore,Onshore,Onshore,Onshore,Onshore,Onshore,Cross-shore,Cross-shore,Cross-shore,Onshore,Onshore,Onshore",14
5842041f4e65fad6a7708a5d,2024_03_08,31.76502169596568,-81.07655443806622,Ossabaw Island,1.5714285714285714,0.3242857142857143,0.6285714285714286,15,15,"NIGHT_MIST,NIGHT_MIST,NIGHT_MIST,NIGHT_CLEAR,NIGHT_MIST,MIST,MIST,MIST,CLEAR,CLEAR,BRIEF_SHOWERS,MOSTLY_CLOUDY,LIGHT_RAIN,MIST","Cross-shore,Cross-shore,Cross-shore,Onshore,Onshore,Onshore,Onshore,Cross-shore,Cross-shore,Cross-shore,Cross-shore,Onshore,Cross-shore,Cross-shore",14
5842041f4e65fad6a7708a5e,2024_03_08,31.90593619092352,-80.93589231700857,Wassaw Island/North End,1.5,0.5442857142857143,0.8478571428571429,15,15,"NIGHT_MIST,NIGHT_MIST,NIGHT_MIST,NIGHT_MIST,NIGHT_MIST,MIST,MIST,MIST,CLEAR,MIST,OVERCAST,MIST,MIST,OVERCAST","Cross-shore,Cross-shore,Cross-shore,Cross-shore,Onshore,Onshore,Cross-shore,Cross-shore,Cross-shore,Cross-shore,Cross-shore,Cross-shore,Cross-shore,Cross-shore",14
5842041f4e65fad6a7708a5f,2024_03_08,31.96738675414547,-80.86977980706155,Little Tybee Island,1.4285714285714286,0.4692857142857143,0.7771428571428571,15,15,"NIGHT_MIST,NIGHT_MIST,NIGHT_MIST,NIGHT_MIST,NIGHT_MIST,MIST,MOSTLY_CLOUDY,MOSTLY_CLOUDY,MOSTLY_CLOUDY,MOSTLY_CLOUDY,OVERCAST,BRIEF_SHOWERS,OVERCAST,MOSTLY_CLOUDY","Cross-shore,Cross-shore,Cross-shore,Onshore,Onshore,Onshore,Cross-shore,Cross-shore,Cross-shore,Cross-shore,Cross-shore,Cross-shore,Cross-shore,Cross-shore",14
5842041f4e65fad6a7708a60,2024_03_08,31.9812255780179,-80.84773973467009,South Tybee Sandbars,1.5,0.3992857142857143,0.7042857142857143,15,15,"NIGHT_MIST,NIGHT_MIST,NIGHT_MIST,NIGHT_MIST,NIGHT_MIST,MIST,MOSTLY_CLOUDY,MOSTLY_CLOUDY,MOSTLY_CLOUDY,MOSTLY_CLOUDY,OVERCAST,BRIEF_SHOWERS,OVERCAST,MOSTLY_CLOUDY","Onshore,Cross-shore,Onshore,Onshore,Onshore,Onshore,Cross-shore,Onshore,Onshore,Onshore,Onshore,Onshore,Onshore,Onshore",14
5842041f4e65fad6a7708a61,2024_03_08,32.01226,-80.83983,Sugar Shack,1.5714285714285714,0.32071428571428573,0.6242857142857142,15,15,"NIGHT_MIST,NIGHT_MIST,NIGHT_MIST,NIGHT_MIST,NIGHT_MIST,MIST,MIST,MIST,MIST,MIST,MIST,BRIEF_SHOWERS,MIST,MIST","Onshore,Onshore,Onshore,Onshore,Onshore,Onshore,Onshore,Onshore,Onshore,Onshore,Onshore,Onshore,Onshore,Onshore",14
5842041f4e65fad6a7708a62,2024_03_08,31.98722842396969,-80.84773,18th St. Jetty,1.4285714285714286,0.5075071428571428,0.7929792857142857,15,15,"NIGHT_MIST,NIGHT_MIST,NIGHT_MIST,NIGHT_MIST,NIGHT_MIST,MIST,MIST,MIST,BRIEF_SHOWERS,BRIEF_SHOWERS_POSSIBLE,MIST,MIST,MIST,MIST","Onshore,Onshore,Onshore,Onshore,Onshore,Onshore,Onshore,Onshore,Onshore,Onshore,Onshore,Onshore,Onshore,Onshore",14
