_id,date,lat,lon,name,daily_mean_swell_rating,daily_mean_wave_height_min,daily_mean_wave_height_max,daily_mean_water_temperature_max,daily_mean_water_temperature_min,weather_per_timestamp,wind_per_timestamp,n_samples_per_day
5842041f4e65fad6a77087f9,2024_04_08,37.741668,-122.51038,South Ocean Beach,1,1.53245,1.838375,14,14,"NIGHT_CLEAR,NIGHT_CLEAR,NIGHT_CLEAR,NIGHT_CLEAR","Onshore,Onshore,Onshore,Onshore",4
5842041f4e65fad6a7708801,2024_04_08,37.49142,-122.50428,Maverick's,NA,1.995,2.31,13,13,"NIGHT_CLEAR,NIGHT_CLEAR,NIGHT_MOSTLY_CLOUDY,NIGHT_MOSTLY_CLOUDY","Offshore,Offshore,Offshore,Offshore",4
5842041f4e65fad6a7708804,2024_04_08,44.997,-124.018,Roads End,3,1.9125,2.1525,11,11,"NIGHT_MOSTLY_CLEAR,NIGHT_MOSTLY_CLOUDY,NIGHT_CLEAR,NIGHT_MOSTLY_CLOUDY","Onshore,Onshore,Onshore,Offshore",4
5842041f4e65fad6a7708805,2024_04_08,36.95188851423011,-122.02522,Steamer Lane,3,0.8543499999999999,1.075275,14,14,"NIGHT_CLEAR,NIGHT_CLEAR,NIGHT_CLEAR,NIGHT_CLEAR","Offshore,Offshore,Offshore,Offshore",4
5842041f4e65fad6a7708806,2024_04_08,36.95918781542251,-122.02489,Cowells,0.25,0,0.14952500000000002,14,14,"NIGHT_CLEAR,NIGHT_CLEAR,NIGHT_CLEAR,NIGHT_CLEAR","Offshore,Offshore,Cross-shore,Cross-shore",4
5842041f4e65fad6a7708807,2024_04_08,36.95468082526536,-121.97234,Pleasure Point,3,0.6837249999999999,0.989025,14,14,"NIGHT_CLEAR,NIGHT_CLEAR,NIGHT_CLEAR,NIGHT_CLEAR","Offshore,Offshore,Offshore,Offshore",4
5842041f4e65fad6a770880a,2024_04_08,35.37815414378748,-120.86589,Morro Bay,3,0.9942583333333332,1.2968583333333334,12,12,"NIGHT_CLEAR,NIGHT_CLEAR,NIGHT_CLEAR,NIGHT_CLEAR","Offshore,Offshore,Cross-shore,Offshore",4
5842041f4e65fad6a770880b,2024_04_08,36.95782765000708,-121.96729,Jack's,2,0.19624999999999998,0.49905,14,14,"NIGHT_CLEAR,NIGHT_CLEAR,NIGHT_CLEAR,NIGHT_CLEAR","Offshore,Offshore,Offshore,Offshore",4
5842041f4e65fad6a770880d,2024_04_08,34.29982939936656,-119.3489016603669,Gold Coast Beachbreaks,3,0.4525,0.755,13,13,"NIGHT_CLEAR,NIGHT_CLEAR,NIGHT_CLEAR,NIGHT_CLEAR","Cross-shore,Cross-shore,Cross-shore,Offshore",4
5842041f4e65fad6a7708811,2024_04_08,34.245076,-119.26799,Ventura Harbor,3,0.998098125,1.267221875,12,12,"NIGHT_CLEAR,NIGHT_CLEAR,NIGHT_CLEAR,NIGHT_CLEAR","Offshore,Offshore,Offshore,Offshore",4
5842041f4e65fad6a7708813,2024_04_08,34.051,-118.964,County Line,3,0.7443666666666667,1.0494666666666668,13,13,"NIGHT_CLEAR,NIGHT_CLEAR,NIGHT_CLEAR,NIGHT_CLEAR","Offshore,Offshore,Offshore,Cross-shore",4
5842041f4e65fad6a7708814,2024_04_08,34.37256264378892,-119.47797,Rincon,3,0.4775,0.785,13,13,"NIGHT_CLEAR,NIGHT_CLEAR,NIGHT_CLEAR,NIGHT_CLEAR","Offshore,Offshore,Offshore,Offshore",4
5842041f4e65fad6a7708817,2024_04_08,34.03096101876324,-118.68109,Malibu Third Point,2,0.3925,0.6975,14,14,"NIGHT_CLEAR,NIGHT_CLEAR,NIGHT_CLEAR,NIGHT_CLEAR","Offshore,Offshore,Offshore,Offshore",4
5842041f4e65fad6a7708819,2024_04_08,33.984079047970035,-118.47382,Venice Beach,3,0.9093666666666667,1.0969666666666666,14,14,"NIGHT_CLEAR,NIGHT_CLEAR,NIGHT_CLEAR,NIGHT_CLEAR","Offshore,Cross-shore,Cross-shore,Offshore",4
5842041f4e65fad6a770881e,2024_04_08,34.037508438646746,-118.5834,Topanga Beach,3,0.5576,0.8602000000000001,14,14,"NIGHT_CLEAR,NIGHT_CLEAR,NIGHT_CLEAR,NIGHT_CLEAR","Offshore,Offshore,Cross-shore,Cross-shore",4
5842041f4e65fad6a7708820,2024_04_08,33.73954373690184,-118.11414,Seal Beach Jetty,2.25,0.2375,0.5425,15,15,"NIGHT_MIST,NIGHT_MIST,NIGHT_OVERCAST,NIGHT_DRIZZLE","Offshore,Offshore,Offshore,Offshore",4
5842041f4e65fad6a7708822,2024_04_08,33.72309983348433,-118.08078,Anderson Street,2.25,0.3424916666666667,0.6448833333333334,14,14,"NIGHT_MIST,NIGHT_MIST,NIGHT_OVERCAST,NIGHT_OVERCAST","Offshore,Offshore,Offshore,Offshore",4
5842041f4e65fad6a7708827,2024_04_08,33.65574085629463,-118.00397,Huntington Beach Pier Northside,2.75,0.8779083333333333,1.1378,14,14,"NIGHT_MIST,NIGHT_MIST,NIGHT_MIST,NIGHT_MIST","Onshore,Offshore,Offshore,Offshore",4
5842041f4e65fad6a7708828,2024_04_08,34.272041739333,-119.29976,C St.,3,0.6273916666666667,0.9324916666666667,12,12,"NIGHT_MIST,NIGHT_MIST,NIGHT_MIST,NIGHT_MIST","Offshore,Offshore,Offshore,Offshore",4
5842041f4e65fad6a770882a,2024_04_08,33.61555743705257,-117.93676,Newport Lower Jetties,3,0.514575,0.8219666666666666,14,14,"NIGHT_MIST,NIGHT_MIST,NIGHT_DRIZZLE,NIGHT_MIST","Cross-shore,Cross-shore,Offshore,Offshore",4
5842041f4e65fad6a770882b,2024_04_08,33.5930302087,-117.88199,The Wedge,2,0.47597979166666665,0.8991241666666667,14,14,"NIGHT_MIST,NIGHT_MIST,NIGHT_MIST,NIGHT_MIST","Offshore,Offshore,Offshore,Offshore",4
5842041f4e65fad6a770882c,2024_04_08,33.60577342582,-117.9315376281,Newport Beach Pier,2,0.505825,0.8132166666666667,14,14,"NIGHT_MIST,NIGHT_MIST,NIGHT_MIST,NIGHT_MIST","Onshore,Onshore,Onshore,Cross-shore",4
5842041f4e65fad6a770882e,2024_04_08,33.475793399792984,-117.72291,Salt Creek,3,0.66895,0.97655,13,13,"NIGHT_BRIEF_SHOWERS,NIGHT_BRIEF_SHOWERS,NIGHT_MIST,NIGHT_MIST","Offshore,Offshore,Offshore,Offshore",4
5842041f4e65fad6a7708830,2024_04_08,33.41800974113613,-117.61952,T-Street,2,0.556975,0.8618666666666667,14,14,"NIGHT_MIST,NIGHT_CLEAR,NIGHT_MIST,NIGHT_MIST","Cross-shore,Cross-shore,Cross-shore,Cross-shore",4
5842041f4e65fad6a7708832,2024_04_08,33.202391008646,-117.39475,Oceanside Harbor,3,0.6379083333333333,0.9455083333333333,14,14,"NIGHT_DRIZZLE,NIGHT_DRIZZLE,NIGHT_MIST,NIGHT_MIST","Cross-shore,Offshore,Offshore,Offshore",4
5842041f4e65fad6a7708835,2024_04_08,33.19477795952803,-117.38667,Oceanside Pier,3,0.5355166666666666,0.8429083333333334,14,14,"NIGHT_MIST,NIGHT_MIST,NIGHT_MIST,NIGHT_MIST","Cross-shore,Offshore,Offshore,Offshore",4
5842041f4e65fad6a7708837,2024_04_08,33.14948100706,-117.35029,Tamarack,3,0.395,0.6975,15,15,"NIGHT_MIST,NIGHT_MIST,NIGHT_MIST,NIGHT_MOSTLY_CLOUDY","Offshore,Offshore,Offshore,Offshore",4
5842041f4e65fad6a7708839,2024_04_08,32.865777159358856,-117.25614,Scripps,3,0.88635,1.18895,16,16,"NIGHT_MIST,NIGHT_MIST,NIGHT_MIST,NIGHT_MIST","Offshore,Offshore,Offshore,Offshore",4
5842041f4e65fad6a770883a,2024_04_08,32.813094,-117.27381,Birdrock,3,0.7175,1.02,15,15,"NIGHT_MIST,NIGHT_MIST,NIGHT_OVERCAST,NIGHT_OVERCAST","Onshore,Onshore,Offshore,Offshore",4
5842041f4e65fad6a770883b,2024_04_08,32.877231,-117.25303,Blacks,2,0.94145,1.1163416666666668,16,16,"NIGHT_MIST,NIGHT_MIST,NIGHT_MIST,NIGHT_MIST","Onshore,Onshore,Cross-shore,Cross-shore",4
5842041f4e65fad6a770883c,2024_04_08,32.82978974229765,-117.28162,Windansea,2,0.8601000000000001,1.1624916666666667,15,15,"NIGHT_MIST,NIGHT_OVERCAST,NIGHT_OVERCAST,NIGHT_MIST","Cross-shore,Cross-shore,Offshore,Offshore",4
5842041f4e65fad6a770883d,2024_04_08,32.838278,-117.28396,Horseshoe,3,0.8675,1.17,15,15,"NIGHT_MIST,NIGHT_OVERCAST,NIGHT_OVERCAST,NIGHT_MIST","Cross-shore,Cross-shore,Cross-shore,Offshore",4
5842041f4e65fad6a770883f,2024_04_08,32.75034717673179,-117.25337,Ocean Beach,2.75,0.7797833333333333,1.0380583333333333,15,15,"NIGHT_BRIEF_SHOWERS,NIGHT_OVERCAST,NIGHT_CLOUDY,NIGHT_MIST","Cross-shore,Cross-shore,Offshore,Offshore",4
5842041f4e65fad6a7708840,2024_04_08,32.73693,-117.25718,Sunset Cliffs,2,0.78,1.0875,15,15,"NIGHT_MOSTLY_CLOUDY,NIGHT_MIST,NIGHT_MIST,NIGHT_MIST","Onshore,Cross-shore,Offshore,Offshore",4
5842041f4e65fad6a7708841,2024_04_08,32.796582258728826,-117.25779,Pacific Beach,2.5,0.87895,1.17905,15,15,"NIGHT_MIST,NIGHT_MIST,NIGHT_CLOUDY,NIGHT_CLOUDY","Onshore,Onshore,Offshore,Offshore",4
5842041f4e65fad6a7708842,2024_04_08,32.776636,-117.25514,Mission Beach,3,0.9518666666666666,1.2617583333333333,15,15,"NIGHT_MIST,NIGHT_MIST,NIGHT_CLOUDY,NIGHT_CLOUDY","Onshore,Onshore,Offshore,Offshore",4
5842041f4e65fad6a7708844,2024_04_08,32.577195519016,-117.13475,Imperial Beach Pier,2.75,0.6725,0.98,15,15,"NIGHT_MIST,NIGHT_MOSTLY_CLOUDY,NIGHT_MIST,NIGHT_MIST","Onshore,Offshore,Offshore,Offshore",4
5842041f4e65fad6a770884a,2024_04_08,42.88678181061,-70.80843,Seabrook,3,0.5581775,0.872155,5,4,"NIGHT_CLEAR,NIGHT_CLEAR,NIGHT_CLEAR,NIGHT_CLEAR","Offshore,Offshore,Offshore,Offshore",4
5842041f4e65fad6a770884e,2024_04_08,41.434181432898335,-71.45312,Narragansett,0,0,0.30063333333333336,6,5,"NIGHT_CLEAR,NIGHT_CLEAR,NIGHT_CLEAR,NIGHT_CLEAR","Offshore,Offshore,Offshore,Offshore",4
5842041f4e65fad6a7708850,2024_04_08,40.582703230722,-73.65247,Lincoln Blvd,0,0,0.15115,8,7,"NIGHT_CLEAR,NIGHT_CLEAR,NIGHT_CLEAR,NIGHT_CLEAR","Onshore,Cross-shore,Onshore,Cross-shore",4
5842041f4e65fad6a7708852,2024_04_08,40.58342841721757,-73.81182,Rockaways,0,0,0.1565666666666667,8,7,"NIGHT_CLEAR,NIGHT_CLEAR,NIGHT_CLEAR,NIGHT_CLEAR","Cross-shore,Cross-shore,Offshore,Offshore",4
5842041f4e65fad6a7708853,2024_04_08,40.330474,-73.9734,Monmouth Beach,2,0.0175,0.3225,8,7,"NIGHT_CLEAR,NIGHT_CLEAR,NIGHT_CLEAR,NIGHT_CLEAR","Offshore,Offshore,Offshore,Offshore",4
5842041f4e65fad6a7708856,2024_04_08,40.113,-74.028,Manasquan Inlet,1,-0.005833333333333329,0.29605,8,7,"NIGHT_CLEAR,NIGHT_CLEAR,NIGHT_CLEAR,NIGHT_CLEAR","Offshore,Offshore,Offshore,Offshore",4
5842041f4e65fad6a7708857,2024_04_08,39.941519877445664,-74.06829,Casino Pier,1,0.29938333333333333,0.5987666666666667,8,7,"NIGHT_CLEAR,NIGHT_CLEAR,NIGHT_CLEAR,NIGHT_CLEAR","Offshore,Offshore,Offshore,Offshore",4
5842041f4e65fad6a7708858,2024_04_08,39.28223089949212,-74.55766,North End OC,2,0.3302166666666667,0.6350166666666667,8,7,"NIGHT_CLEAR,NIGHT_CLEAR,NIGHT_CLEAR,NIGHT_CLEAR","Cross-shore,Onshore,Cross-shore,Cross-shore",4
5842041f4e65fad6a770885b,2024_04_08,39.65080599934257,-74.17146,Ship Bottom,2,0.29896666666666666,0.5987666666666667,8,7,"NIGHT_CLEAR,NIGHT_CLEAR,NIGHT_CLEAR,NIGHT_CLEAR","Offshore,Offshore,Offshore,Offshore",4
5842041f4e65fad6a7708863,2024_04_08,36.034151543144,-75.66791,Third Street,3,0.6575,0.965,12,10,"NIGHT_CLEAR,NIGHT_CLEAR,NIGHT_CLEAR,NIGHT_CLEAR","Offshore,Offshore,Offshore,Offshore",4
5842041f4e65fad6a7708867,2024_04_08,35.605833221351425,-75.46303,S-Turns,2,0.49693333333333334,0.9198833333333334,14,13,"NIGHT_CLEAR,NIGHT_CLEAR,NIGHT_CLEAR,NIGHT_CLEAR","Offshore,Offshore,Offshore,Offshore",4
5842041f4e65fad6a770886d,2024_04_08,38.338461,-75.08117,Ocean City Boardwalk,2,0.5806833333333333,0.8859,9,8,"NIGHT_CLEAR,NIGHT_CLEAR,NIGHT_CLEAR,NIGHT_CLEAR","Cross-shore,Cross-shore,Cross-shore,Cross-shore",4
5842041f4e65fad6a770886f,2024_04_08,29.844757212379562,-81.26136,A St.,1,0.1275,0.4325,19,19,"NIGHT_CLEAR,NIGHT_CLEAR,NIGHT_CLEAR,NIGHT_CLEAR","Onshore,Onshore,Onshore,Onshore",4
5842041f4e65fad6a7708871,2024_04_08,29.069417851135093,-80.90824,New Smyrna Beach,1,0.32,0.625,20,19,"NIGHT_MOSTLY_CLOUDY,NIGHT_MOSTLY_CLOUDY,NIGHT_MOSTLY_CLOUDY,NIGHT_CLEAR","Onshore,Onshore,Onshore,Onshore",4
5842041f4e65fad6a7708872,2024_04_08,28.367707417566,-80.60171,Cocoa Beach Pier,1,0.125,0.4275,24,23,"NIGHT_MOSTLY_CLOUDY,NIGHT_MOSTLY_CLOUDY,NIGHT_CLEAR,NIGHT_CLOUDY","Onshore,Onshore,Onshore,Onshore",4
5842041f4e65fad6a7708873,2024_04_08,28.091782738658846,-80.56479,Indialantic,1,0.3425,0.6475,24,23,"NIGHT_MOSTLY_CLOUDY,NIGHT_CLEAR,NIGHT_CLEAR,NIGHT_CLEAR","Onshore,Onshore,Onshore,Onshore",4
5842041f4e65fad6a7708876,2024_04_08,27.25392904143517,-80.19455,Jensen Beach,1,0.345,0.6475,24,23,"NIGHT_MOSTLY_CLOUDY,NIGHT_CLEAR,NIGHT_MOSTLY_CLOUDY,NIGHT_MOSTLY_CLOUDY","Onshore,Onshore,Onshore,Onshore",4
5842041f4e65fad6a7708879,2024_04_08,26.76346795333825,-80.0360655784607,Reef Road,1,0.485,0.7925,26,24,"NIGHT_CLEAR,NIGHT_MOSTLY_CLOUDY,NIGHT_CLOUDY,NIGHT_MOSTLY_CLOUDY","Onshore,Onshore,Onshore,Onshore",4
5842041f4e65fad6a770887c,2024_04_08,26.336499228484,-80.06956100463,Boca Raton Inlet,1,0.08,0.3825,26,24,"NIGHT_MOSTLY_CLOUDY,NIGHT_CLEAR,NIGHT_MOSTLY_CLOUDY,NIGHT_MOSTLY_CLOUDY","Onshore,Onshore,Onshore,Onshore",4
5842041f4e65fad6a770887d,2024_04_08,26.31719311695038,-80.07453,Deerfield Beach Pier,1,0.18568,0.31984999999999997,26,24,"NIGHT_MOSTLY_CLOUDY,NIGHT_CLEAR,NIGHT_MOSTLY_CLOUDY,NIGHT_MOSTLY_CLOUDY","Onshore,Onshore,Onshore,Onshore",4
5842041f4e65fad6a7708881,2024_04_08,30.20276320866628,-85.85626528676136,"Spyglass Dr., Panama City",0,0,0.155,19,18,"NIGHT_CLEAR,NIGHT_CLEAR,NIGHT_CLEAR,NIGHT_CLEAR","Onshore,Cross-shore,Cross-shore,Cross-shore",4
5842041f4e65fad6a7708884,2024_04_08,33.39000832738053,-117.59852,Cottons,3,0.6947833333333333,0.9973833333333333,14,14,"NIGHT_MIST,NIGHT_CLEAR,NIGHT_MIST,NIGHT_CLEAR","Cross-shore,Cross-shore,Cross-shore,Offshore",4
5842041f4e65fad6a7708885,2024_04_08,33.359416282661,-117.54167901405711,Trails,3,0.3725,0.6799999999999999,15,15,"NIGHT_CLEAR,NIGHT_MIST,NIGHT_BRIEF_SHOWERS,NIGHT_MIST","Offshore,Offshore,Offshore,Offshore",4
5842041f4e65fad6a7708886,2024_04_08,33.38042605929805,-117.58332,Middles,3,0.5053083333333334,0.8052,14,14,"NIGHT_MIST,NIGHT_CLEAR,NIGHT_MIST,NIGHT_CLEAR","Offshore,Offshore,Offshore,Offshore",4
5842041f4e65fad6a7708887,2024_04_08,33.38445596302903,-117.59445,Upper Trestles,3,0.6443666666666666,0.9442583333333333,14,14,"NIGHT_MIST,NIGHT_CLEAR,NIGHT_MIST,NIGHT_CLEAR","Offshore,Offshore,Offshore,Offshore",4
5842041f4e65fad6a7708889,2024_04_08,28.944414,-95.28883,Surfside,2.25,0.7886625,1.2322825,21,21,"NIGHT_LIGHT_RAIN,NIGHT_MIST,NIGHT_MIST,NIGHT_MIST","Onshore,Onshore,Onshore,Onshore",4
5842041f4e65fad6a770888a,2024_04_08,33.38143999849023,-117.58843,Lower Trestles,3,0.6587416666666667,0.9663416666666667,14,14,"NIGHT_MIST,NIGHT_CLEAR,NIGHT_MIST,NIGHT_CLEAR","Offshore,Offshore,Offshore,Offshore",4
5842041f4e65fad6a770888b,2024_04_08,33.379622288757,-117.57894,Church,3,0.49093333333333333,0.7960333333333334,14,14,"NIGHT_MIST,NIGHT_CLEAR,NIGHT_MIST,NIGHT_CLEAR","Cross-shore,Offshore,Cross-shore,Offshore",4
5842041f4e65fad6a770888d,2024_04_08,21.679,-158.042,Sunset Beach,3,0.655,0.9624999999999999,26,25,"NIGHT_MOSTLY_CLEAR,NIGHT_SHOWERS,NIGHT_BRIEF_SHOWERS,NIGHT_BRIEF_SHOWERS","Cross-shore,Offshore,Cross-shore,Offshore",4
5842041f4e65fad6a770888e,2024_04_08,21.670550036401,-158.0482,Rocky Point,3,0.735,1.04,26,25,"NIGHT_SHOWERS,NIGHT_BRIEF_SHOWERS,NIGHT_MOSTLY_CLOUDY,NIGHT_CLEAR","Cross-shore,Cross-shore,Cross-shore,Offshore",4
5842041f4e65fad6a770888f,2024_04_08,21.668,-158.05,Chambers,3,0.6625000000000001,0.9675,24,24,"NIGHT_SHOWERS,NIGHT_BRIEF_SHOWERS,NIGHT_MOSTLY_CLOUDY,NIGHT_CLEAR","Cross-shore,Cross-shore,Cross-shore,Offshore",4
5842041f4e65fad6a7708890,2024_04_08,21.66522,-158.0526,Pipeline,1,0.44,0.7424999999999999,26,25,"NIGHT_SHOWERS,NIGHT_BRIEF_SHOWERS,NIGHT_MOSTLY_CLOUDY,NIGHT_CLEAR","Cross-shore,Cross-shore,Cross-shore,Offshore",4
5842041f4e65fad6a7708891,2024_04_08,21.665,-158.054,Backdoor,3,0.44,0.7424999999999999,26,25,"NIGHT_SHOWERS,NIGHT_BRIEF_SHOWERS,NIGHT_MOSTLY_CLOUDY,NIGHT_CLEAR","Cross-shore,Cross-shore,Cross-shore,Offshore",4
5842041f4e65fad6a7708892,2024_04_08,21.662,-158.057,Rockpile,3,0.775,1.085,24,24,"NIGHT_SHOWERS,NIGHT_BRIEF_SHOWERS,NIGHT_MOSTLY_CLOUDY,NIGHT_CLEAR","Cross-shore,Cross-shore,Cross-shore,Offshore",4
5842041f4e65fad6a7708893,2024_04_08,21.65870453806827,-158.06058,Log Cabins,2,0.54,0.8474999999999999,24,24,"NIGHT_SHOWERS,NIGHT_BRIEF_SHOWERS,NIGHT_MOSTLY_CLOUDY,NIGHT_CLEAR","Cross-shore,Cross-shore,Cross-shore,Offshore",4
5842041f4e65fad6a7708894,2024_04_08,21.66203493640557,-158.05495,Off-The-Wall,3,0.6025,0.9075,24,24,"NIGHT_SHOWERS,NIGHT_BRIEF_SHOWERS,NIGHT_MOSTLY_CLOUDY,NIGHT_CLEAR","Cross-shore,Cross-shore,Cross-shore,Offshore",4
5842041f4e65fad6a7708895,2024_04_08,21.643,-158.067,Waimea Bay,NA,0.475,0.7825,26,25,"NIGHT_SHOWERS,NIGHT_BRIEF_SHOWERS,NIGHT_MOSTLY_CLOUDY,NIGHT_CLEAR","Cross-shore,Offshore,Offshore,Offshore",4
5842041f4e65fad6a7708896,2024_04_08,21.622,-158.087,Hultin's,2,0.535,0.8374999999999999,26,25,"NIGHT_CLEAR,NIGHT_CLEAR,NIGHT_CLEAR,NIGHT_CLEAR","Offshore,Offshore,Offshore,Offshore",4
5842041f4e65fad6a7708897,2024_04_08,21.623,-158.085,Jocko's,2,0.47,0.775,24,24,"NIGHT_CLEAR,NIGHT_CLEAR,NIGHT_CLEAR,NIGHT_CLEAR","Cross-shore,Cross-shore,Cross-shore,Cross-shore",4
5842041f4e65fad6a7708898,2024_04_08,21.62,-158.088,Laniakea,3,0.795,1.0950000000000002,26,25,"NIGHT_CLEAR,NIGHT_CLEAR,NIGHT_CLEAR,NIGHT_CLEAR","Offshore,Cross-shore,Offshore,Offshore",4
5842041f4e65fad6a7708899,2024_04_08,21.625,-158.083,Chun's,1.25,0.6625000000000001,0.9675,24,24,"NIGHT_CLEAR,NIGHT_CLEAR,NIGHT_CLEAR,NIGHT_CLEAR","Offshore,Offshore,Offshore,Offshore",4
5842041f4e65fad6a770889c,2024_04_08,21.286357895152136,-157.8515,South Shore - Ala Moana Park,2,0.6425000000000001,0.9475,24,24,"NIGHT_CLEAR,NIGHT_CLEAR,NIGHT_CLEAR,NIGHT_CLEAR","Offshore,Offshore,Offshore,Offshore",4
5842041f4e65fad6a770889d,2024_04_08,19.606,-155.978,Banyans,2,0.3275,0.6325000000000001,26,25,"NIGHT_CLEAR,NIGHT_MOSTLY_CLEAR,NIGHT_FOG,NIGHT_CLEAR","Onshore,Onshore,Onshore,Onshore",4
5842041f4e65fad6a770889e,2024_04_08,20.029,-155.831,Kawaihae,1.25,0.4444,0.52132,25,25,"NIGHT_MOSTLY_CLEAR,NIGHT_MOSTLY_CLEAR,NIGHT_CLEAR,NIGHT_CLEAR","Onshore,Offshore,Offshore,Offshore",4
5842041f4e65fad6a770889f,2024_04_08,33.07541383424675,-117.3105,Grandview,2.5,0.67,0.975,15,15,"NIGHT_MIST,NIGHT_MIST,NIGHT_MIST,NIGHT_MIST","Cross-shore,Cross-shore,Offshore,Offshore",4
5842041f4e65fad6a77088a0,2024_04_08,33.065267421296596,-117.30577,Beacons,3,0.6725,0.9775,15,15,"NIGHT_MIST,NIGHT_MIST,NIGHT_MIST,NIGHT_MIST","Cross-shore,Cross-shore,Offshore,Offshore",4
5842041f4e65fad6a77088a2,2024_04_08,21.252,-157.805,Diamond Head,3,0.985325,1.30533,26,25,"NIGHT_CLEAR,NIGHT_MOSTLY_CLOUDY,NIGHT_CLEAR,NIGHT_MOSTLY_CLOUDY","Cross-shore,Cross-shore,Cross-shore,Cross-shore",4
5842041f4e65fad6a77088a3,2024_04_08,33.04694255008896,-117.29966,Moonlight State Beach,3,0.665,0.9675,15,15,"NIGHT_DRIZZLE,NIGHT_OVERCAST,NIGHT_CLOUDY,NIGHT_CLOUDY","Offshore,Offshore,Offshore,Offshore",4
5842041f4e65fad6a77088a5,2024_04_08,33.08685865930869,-117.31532,Ponto,3,0.835,1.14,15,15,"NIGHT_MIST,NIGHT_MIST,NIGHT_MIST,NIGHT_MIST","Offshore,Offshore,Offshore,Offshore",4
5842041f4e65fad6a77088a6,2024_04_08,33.130343587871906,-117.33668,Terra Mar Point,3,0.5343666666666667,0.8419666666666666,14,14,"NIGHT_MIST,NIGHT_MIST,NIGHT_MIST,NIGHT_OVERCAST","Offshore,Offshore,Offshore,Offshore",4
5842041f4e65fad6a77088af,2024_04_08,32.95916304183685,-117.26963,Del Mar,3,0.8474999999999999,1.1524999999999999,15,15,"NIGHT_MIST,NIGHT_CLOUDY,NIGHT_CLOUDY,NIGHT_CLOUDY","Cross-shore,Cross-shore,Cross-shore,Offshore",4
5842041f4e65fad6a77088b0,2024_04_08,32.97527261243354,-117.2721061331305,Del Mar Rivermouth,2.25,0.815,1.1225,15,15,"NIGHT_CLOUDY,NIGHT_MIST,NIGHT_MIST,NIGHT_MIST","Cross-shore,Cross-shore,Cross-shore,Offshore",4
5842041f4e65fad6a77088b1,2024_04_08,33.01352178146273,-117.28219,Cardiff Reef,2,0.73645,1.039725,14,14,"NIGHT_CLOUDY,NIGHT_CLOUDY,NIGHT_CLOUDY,NIGHT_CLOUDY","Offshore,Offshore,Offshore,Offshore",4
5842041f4e65fad6a77088b3,2024_04_08,33.00211185876003,-117.2811,Seaside Reef,2.25,0.825825,1.1291,14,14,"NIGHT_CLOUDY,NIGHT_CLOUDY,NIGHT_CLOUDY,NIGHT_MIST","Cross-shore,Cross-shore,Cross-shore,Cross-shore",4
5842041f4e65fad6a77088b4,2024_04_08,33.0341859796287,-117.29552,Swami's,2.25,0.7081166666666667,1.0130083333333333,14,14,"NIGHT_CLOUDY,NIGHT_CLOUDY,NIGHT_CLOUDY,NIGHT_CLOUDY","Offshore,Offshore,Offshore,Offshore",4
5842041f4e65fad6a77088b7,2024_04_08,33.04569760260221,-117.2994,D Street,3,0.735,1.0425,15,15,"NIGHT_DRIZZLE,NIGHT_OVERCAST,NIGHT_CLOUDY,NIGHT_CLOUDY","Offshore,Offshore,Offshore,Offshore",4
5842041f4e65fad6a77088b8,2024_04_08,33.02090944350196,-117.28535,San Elijo State Beach,2,0.5406166666666666,0.8511833333333333,14,14,"NIGHT_CLOUDY,NIGHT_CLOUDY,NIGHT_CLOUDY,NIGHT_CLOUDY","Offshore,Offshore,Offshore,Offshore",4
5842041f4e65fad6a77088c2,2024_04_08,32.80662846492798,-117.2688764333725,PB Point,2.5,0.7175,1.0225,15,15,"NIGHT_MIST,NIGHT_MIST,NIGHT_OVERCAST,NIGHT_OVERCAST","Onshore,Cross-shore,Offshore,Offshore",4
5842041f4e65fad6a77088c4,2024_04_08,32.8060476681448,-117.26479,Old Man's at Tourmaline,3,0.6275,0.935,15,15,"NIGHT_MIST,NIGHT_MIST,NIGHT_OVERCAST,NIGHT_OVERCAST","Onshore,Onshore,Offshore,Offshore",4
5842041f4e65fad6a77088cb,2024_04_08,32.557056711256,-117.1327445020322,Tijuana Slough,2.5,0.6775,0.9824999999999999,15,15,"NIGHT_MIST,NIGHT_MIST,NIGHT_MIST,NIGHT_MIST","Onshore,Offshore,Offshore,Cross-shore",4
5842041f4e65fad6a77088cc,2024_04_08,32.863,-117.257,La Jolla Shores,3,0.6825,0.9875,15,15,"NIGHT_MIST,NIGHT_MIST,NIGHT_MIST,NIGHT_MIST","Offshore,Offshore,Offshore,Offshore",4
5842041f4e65fad6a77088ce,2024_04_08,32.67443657790586,-117.17421316238693,Coronado Beach,2,0.365,0.6675,15,15,"NIGHT_MOSTLY_CLOUDY,NIGHT_MOSTLY_CLOUDY,NIGHT_FOG,NIGHT_FOG","Onshore,Onshore,Onshore,Cross-shore",4
5842041f4e65fad6a77088cf,2024_04_08,33.40484417640326,-117.60749,San Clemente State Beach,2,0.47250000000000003,0.7775,15,15,"NIGHT_MIST,NIGHT_CLEAR,NIGHT_CLEAR,NIGHT_CLEAR","Cross-shore,Cross-shore,Cross-shore,Offshore",4
5842041f4e65fad6a77088d5,2024_04_08,33.4663042002114,-117.7168352817103,Strands,2.25,0.6591583333333333,0.96155,13,13,"NIGHT_BRIEF_SHOWERS,NIGHT_BRIEF_SHOWERS,NIGHT_MIST,NIGHT_MIST","Offshore,Cross-shore,Cross-shore,Cross-shore",4
5842041f4e65fad6a77088d7,2024_04_08,33.4609858001748,-117.68535,Doheny State Beach,2,0.06416666666666666,0.3667666666666667,14,14,"NIGHT_MIST,NIGHT_MIST,NIGHT_MOSTLY_CLOUDY,NIGHT_MIST","Offshore,Offshore,Offshore,Offshore",4
5842041f4e65fad6a77088dc,2024_04_08,33.50894790083017,-117.75243,Aliso Creek,2,0.4275,0.7275,15,15,"NIGHT_MIST,NIGHT_MIST,NIGHT_MIST,NIGHT_MIST","Cross-shore,Cross-shore,Cross-shore,Cross-shore",4
5842041f4e65fad6a77088dd,2024_04_08,33.5326591767067,-117.77764,Brooks Street,2,0.3275,0.635,15,15,"NIGHT_MIST,NIGHT_MIST,NIGHT_MIST,NIGHT_MIST","Cross-shore,Cross-shore,Cross-shore,Cross-shore",4
5842041f4e65fad6a77088de,2024_04_08,33.53561225884637,-117.7799,Thalia Street,2,0.38,0.6825,15,15,"NIGHT_MIST,NIGHT_MIST,NIGHT_MIST,NIGHT_MIST","Cross-shore,Cross-shore,Cross-shore,Cross-shore",4
5842041f4e65fad6a77088e3,2024_04_08,33.54268310353641,-117.7916,Rockpile,2,0.415,0.72,15,15,"NIGHT_MIST,NIGHT_MIST,NIGHT_MIST,NIGHT_MIST","Cross-shore,Cross-shore,Cross-shore,Cross-shore",4
5842041f4e65fad6a77088e4,2024_04_08,33.7368459504689,-118.10342,"Seal Beach Pier, Southside",2,0.065,0.3675,15,15,"NIGHT_MIST,NIGHT_MIST,NIGHT_MIST,NIGHT_MIST","Offshore,Offshore,Offshore,Offshore",4
5842041f4e65fad6a77088e5,2024_04_08,33.73933701820233,-118.117,Ray Bay,2,0.07,0.37,15,15,"NIGHT_MIST,NIGHT_MIST,NIGHT_OVERCAST,NIGHT_DRIZZLE","Offshore,Offshore,Offshore,Offshore",4
5842041f4e65fad6a77088e7,2024_04_08,33.728733,-118.08982,Surfside,2,0.165,0.475,15,15,"NIGHT_MIST,NIGHT_MIST,NIGHT_OVERCAST,NIGHT_OVERCAST","Offshore,Offshore,Offshore,Offshore",4
5842041f4e65fad6a77088e8,2024_04_08,33.68760321488161,-118.04236,Bolsa Chica State Beach,2.5,0.6056166666666667,0.9132166666666667,14,14,"NIGHT_MIST,NIGHT_MIST,NIGHT_MIST,NIGHT_MIST","Cross-shore,Cross-shore,Cross-shore,Cross-shore",4
5842041f4e65fad6a77088ea,2024_04_08,33.66704400178788,-118.0192,North HB Streets,2.5,0.7972833333333333,1.0748833333333334,14,14,"NIGHT_MIST,NIGHT_MIST,NIGHT_MIST,NIGHT_MIST","Onshore,Onshore,Cross-shore,Cross-shore",4
5842041f4e65fad6a77088ed,2024_04_08,33.65475101379567,-118.00291,Huntington Beach Pier Southside,2.75,0.848325,1.0963916666666667,14,14,"NIGHT_MIST,NIGHT_MIST,NIGHT_MIST,NIGHT_MIST","Onshore,Offshore,Offshore,Offshore",4
5842041f4e65fad6a77088ee,2024_04_08,33.62778647706099,-117.95939,River Jetties,3,0.6749916666666667,0.9798833333333333,14,14,"NIGHT_MIST,NIGHT_MIST,NIGHT_DRIZZLE,NIGHT_MIST","Offshore,Offshore,Offshore,Offshore",4
5842041f4e65fad6a77088f2,2024_04_08,33.605165797643664,-117.92500376701355,Newport Point,2,0.53,0.8374999999999999,15,15,"NIGHT_MIST,NIGHT_MIST,NIGHT_MIST,NIGHT_MIST","Onshore,Onshore,Cross-shore,Cross-shore",4
5842041f4e65fad6a77088f3,2024_04_08,33.58982984726977,-117.87713,Corona del Mar,1,0.190145,0.2970975,15,15,"NIGHT_MIST,NIGHT_MIST,NIGHT_MIST,NIGHT_MIST","Offshore,Offshore,Offshore,Offshore",4
5842041f4e65fad6a77088f7,2024_04_08,34.00750300824362,-118.4971783496269,Santa Monica Pier,2.5,0.58,0.885,14,14,"NIGHT_CLEAR,NIGHT_CLEAR,NIGHT_CLEAR,NIGHT_MOSTLY_CLEAR","Offshore,Offshore,Offshore,Offshore",4
5842041f4e65fad6a77088ff,2024_04_08,33.94070283102945,-118.44321,Dockweiler Beach,3,1.06512,1.263665625,14,14,"NIGHT_CLEAR,NIGHT_MOSTLY_CLEAR,NIGHT_CLEAR,NIGHT_MIST","Onshore,Onshore,Offshore,Cross-shore",4
5842041f4e65fad6a7708900,2024_04_08,33.9231846937237,-118.4341465777908,Shitpipe,3,0.9154083333333334,1.2211833333333333,14,14,"NIGHT_CLEAR,NIGHT_MOSTLY_CLEAR,NIGHT_MIST,NIGHT_MIST","Onshore,Onshore,Offshore,Cross-shore",4
5842041f4e65fad6a7708902,2024_04_08,33.9108528052242,-118.4279133138721,Hammerland,3,0.9042583333333334,1.2100333333333333,14,14,"NIGHT_CLEAR,NIGHT_MOSTLY_CLEAR,NIGHT_MIST,NIGHT_MIST","Onshore,Onshore,Offshore,Cross-shore",4
5842041f4e65fad6a7708904,2024_04_08,33.87201368173932,-118.40752,Hermosa Beach,3,0.88905,1.1889416666666666,14,14,"NIGHT_CLEAR,NIGHT_CLEAR,NIGHT_CLEAR,NIGHT_MIST","Cross-shore,Cross-shore,Offshore,Offshore",4
5842041f4e65fad6a7708906,2024_04_08,33.90129336911256,-118.42184,El Porto,3,1.0107166666666667,1.3164916666666666,14,14,"NIGHT_CLEAR,NIGHT_MOSTLY_CLEAR,NIGHT_MIST,NIGHT_MIST","Onshore,Cross-shore,Offshore,Offshore",4
5842041f4e65fad6a7708907,2024_04_08,33.87963506431794,-118.41102,Manhattan Beach Pier,3,0.8275916666666667,1.1324833333333333,14,14,"NIGHT_CLEAR,NIGHT_MOSTLY_CLEAR,NIGHT_MIST,NIGHT_MIST","Onshore,Cross-shore,Offshore,Offshore",4
5842041f4e65fad6a7708914,2024_04_08,34.038053387863464,-118.5532,Sunset Point,2.75,0.375,0.675,14,14,"NIGHT_CLEAR,NIGHT_CLEAR,NIGHT_CLEAR,NIGHT_CLEAR","Offshore,Offshore,Cross-shore,Cross-shore",4
5842041f4e65fad6a7708920,2024_04_08,33.80930828074364,-118.3933198342649,Haggerty's,2,0.255,0.4395,14,14,"NIGHT_CLEAR,NIGHT_CLEAR,NIGHT_MOSTLY_CLOUDY,NIGHT_MIST","Cross-shore,Offshore,Offshore,Cross-shore",4
5842041f4e65fad6a7708921,2024_04_08,33.85044519861206,-118.40048,Redondo Breakwater,3,0.9425,1.245,14,14,"NIGHT_CLEAR,NIGHT_CLEAR,NIGHT_CLEAR,NIGHT_MIST","Cross-shore,Cross-shore,Offshore,Offshore",4
5842041f4e65fad6a7708927,2024_04_08,33.70877301002487,-118.2840112858389,Cabrillo Beach,2,0.1575,0.4675,14,14,"NIGHT_MIST,NIGHT_MIST,NIGHT_MIST,NIGHT_MIST","Cross-shore,Onshore,Onshore,Onshore",4
5842041f4e65fad6a770892c,2024_04_08,33.77209986806257,-118.4268428476672,Lunada Bay,2,0.925,1.225,14,14,"NIGHT_CLEAR,NIGHT_CLEAR,NIGHT_CLEAR,NIGHT_MOSTLY_CLOUDY","Onshore,Cross-shore,Offshore,Offshore",4
5842041f4e65fad6a770892d,2024_04_08,33.79294656286144,-118.4070316699825,PV Cove,3,0.8483050000000001,1.1040174999999999,14,14,"NIGHT_CLEAR,NIGHT_CLEAR,NIGHT_MOSTLY_CLOUDY,NIGHT_MIST","Offshore,Offshore,Cross-shore,Offshore",4
5842041f4e65fad6a7708930,2024_04_08,34.03944902292561,-118.57539,Chart House,2,0.27,0.575,14,14,"NIGHT_CLEAR,NIGHT_CLEAR,NIGHT_CLEAR,NIGHT_CLEAR","Offshore,Offshore,Cross-shore,Cross-shore",4
5842041f4e65fad6a7708936,2024_04_08,34.0016731994772,-118.80456,Point Dume,2,0.22864166666666666,0.5310333333333334,14,14,"NIGHT_CLEAR,NIGHT_MIST,NIGHT_CLEAR,NIGHT_CLEAR","Onshore,Cross-shore,Offshore,Offshore",4
5842041f4e65fad6a7708937,2024_04_08,34.02587527588963,-118.7554939066114,Latigo Point,2,0.1875,0.49,14,14,"NIGHT_CLEAR,NIGHT_CLEAR,NIGHT_CLEAR,NIGHT_CLEAR","Offshore,Offshore,Offshore,Offshore",4
5842041f4e65fad6a770893f,2024_04_08,34.043762,-118.93294,Leo Carrillo,3,0.508325,0.813425,13,13,"NIGHT_CLEAR,NIGHT_CLEAR,NIGHT_CLEAR,NIGHT_CLEAR","Offshore,Offshore,Offshore,Offshore",4
5842041f4e65fad6a7708941,2024_04_08,36.69388179265737,-121.81289,Marina State Beach,2,1.4300000000000002,1.6475,13,13,"NIGHT_CLEAR,NIGHT_MOSTLY_CLEAR,NIGHT_MOSTLY_CLOUDY,NIGHT_MOSTLY_CLOUDY","Onshore,Onshore,Onshore,Onshore",4
5842041f4e65fad6a7708944,2024_04_08,34.34145077331085,-119.416999352654,Stanley's,2.25,0.5175,0.8225,13,13,"NIGHT_CLEAR,NIGHT_CLEAR,NIGHT_CLEAR,NIGHT_CLEAR","Offshore,Offshore,Offshore,Offshore",4
5842041f4e65fad6a7708945,2024_04_08,34.35113017313915,-119.426921498899,Oil Piers,2.75,0.3575,0.66,13,13,"NIGHT_CLEAR,NIGHT_CLEAR,NIGHT_CLEAR,NIGHT_CLEAR","Offshore,Offshore,Offshore,Offshore",4
5842041f4e65fad6a770894c,2024_04_08,34.17876333306018,-119.2399483564372,Oxnard,3,0.685,0.9875,14,14,"NIGHT_CLEAR,NIGHT_CLEAR,NIGHT_CLEAR,NIGHT_MIST","Cross-shore,Offshore,Offshore,Offshore",4
5842041f4e65fad6a7708957,2024_04_08,34.31720331100517,-119.3882324751725,Pitas Point,3,0.4825,0.7925,13,13,"NIGHT_CLEAR,NIGHT_CLEAR,NIGHT_CLEAR,NIGHT_CLEAR","Offshore,Offshore,Offshore,Offshore",4
5842041f4e65fad6a7708959,2024_04_08,34.27851754384724,-119.316202617226,Emma Wood,3,0.485,0.7949999999999999,13,13,"NIGHT_CLEAR,NIGHT_CLEAR,NIGHT_CLEAR,NIGHT_CLEAR","Offshore,Offshore,Offshore,Offshore",4
5842041f4e65fad6a770895a,2024_04_08,34.35513640390276,-119.4400589884255,Mussel Shoals (aka Little Rincon),3,0.445,0.745,13,13,"NIGHT_CLEAR,NIGHT_CLEAR,NIGHT_CLEAR,NIGHT_CLEAR","Offshore,Offshore,Offshore,Offshore",4
5842041f4e65fad6a770895e,2024_04_08,34.28991757054902,-119.3366646794652,Summer Beach,2.75,0.3425,0.65,13,13,"NIGHT_CLEAR,NIGHT_CLEAR,NIGHT_CLEAR,NIGHT_CLEAR","Cross-shore,Offshore,Offshore,Offshore",4
5842041f4e65fad6a770895f,2024_04_08,34.30897456105926,-119.3582501170116,Solimar,3,0.38,0.685,13,13,"NIGHT_CLEAR,NIGHT_CLEAR,NIGHT_CLEAR,NIGHT_CLEAR","Offshore,Offshore,Offshore,Offshore",4
5842041f4e65fad6a7708960,2024_04_08,34.39836265281686,-119.70213,Leadbetter Point,1.25,0.0025,0.29000000000000004,13,13,"NIGHT_CLEAR,NIGHT_CLEAR,NIGHT_CLEAR,NIGHT_CLEAR","Offshore,Offshore,Offshore,Cross-shore",4
5842041f4e65fad6a7708961,2024_04_08,34.46052293893899,-120.07328,Refugio,1,0,0.3025,12,12,"NIGHT_CLEAR,NIGHT_CLEAR,NIGHT_CLEAR,NIGHT_CLEAR","Offshore,Offshore,Offshore,Offshore",4
5842041f4e65fad6a7708962,2024_04_08,34.40754276777778,-119.87639,Devereux,2,0.2175,0.5175000000000001,12,12,"NIGHT_CLEAR,NIGHT_CLEAR,NIGHT_CLEAR,NIGHT_CLEAR","Offshore,Offshore,Offshore,Offshore",4
5842041f4e65fad6a7708963,2024_04_08,34.27479983305182,-119.3133222656776,Ventura Overhead,3,0.495,0.8,13,13,"NIGHT_MIST,NIGHT_MIST,NIGHT_MIST,NIGHT_MIST","Cross-shore,Offshore,Offshore,Offshore",4
5842041f4e65fad6a7708964,2024_04_08,34.41023236011655,-119.88261,Sands,2,0.305,0.6074999999999999,12,12,"NIGHT_CLEAR,NIGHT_CLEAR,NIGHT_CLEAR,NIGHT_CLEAR","Cross-shore,Cross-shore,Offshore,Offshore",4
5842041f4e65fad6a7708966,2024_04_08,34.40450193869233,-119.68752,Sandspit,1,0,0.1775,13,13,"NIGHT_CLEAR,NIGHT_CLEAR,NIGHT_CLEAR,NIGHT_CLEAR","Offshore,Offshore,Offshore,Offshore",4
5842041f4e65fad6a7708967,2024_04_08,34.41549098334453,-119.6375149840203,Hammond's,1.25,0.0075,0.29000000000000004,13,13,"NIGHT_CLEAR,NIGHT_CLEAR,NIGHT_CLEAR,NIGHT_CLEAR","Cross-shore,Cross-shore,Cross-shore,Offshore",4
5842041f4e65fad6a7708968,2024_04_08,34.45759322742309,-120.0220251867315,El Capitan,2,0.0875,0.3925,12,12,"NIGHT_CLEAR,NIGHT_CLEAR,NIGHT_CLEAR,NIGHT_CLEAR","Offshore,Offshore,Offshore,Offshore",4
5842041f4e65fad6a770896c,2024_04_08,34.405117655616,-119.84317,Campus Point,2,0.1,0.405,13,13,"NIGHT_CLEAR,NIGHT_CLEAR,NIGHT_CLEAR,NIGHT_CLEAR","Offshore,Offshore,Offshore,Offshore",4
5842041f4e65fad6a770896e,2024_04_08,34.38935162233354,-119.51955,Carpinteria State Beach,2.5,0.295,0.6,13,13,"NIGHT_CLEAR,NIGHT_CLEAR,NIGHT_CLEAR,NIGHT_CLEAR","Onshore,Onshore,Onshore,Onshore",4
5842041f4e65fad6a770896f,2024_04_08,37.48296565175612,-122.4549300127824,Half Moon Bay,2.5,1.275,1.5775000000000001,13,13,"NIGHT_MOSTLY_CLOUDY,NIGHT_MIST,NIGHT_MOSTLY_CLOUDY,NIGHT_MOSTLY_CLOUDY","Cross-shore,Cross-shore,Cross-shore,Cross-shore",4
5842041f4e65fad6a7708970,2024_04_08,37.499,-122.471,Princeton Jetty,2.5,0.9875,1.295,13,13,"NIGHT_BRIEF_SHOWERS,NIGHT_MOSTLY_CLOUDY,NIGHT_BRIEF_SHOWERS,NIGHT_BRIEF_SHOWERS","Offshore,Cross-shore,Offshore,Offshore",4
5842041f4e65fad6a7708972,2024_04_08,37.35699547365155,-122.4069534707252,Tunitas Creek,2,2.385,2.615,13,13,"NIGHT_MOSTLY_CLOUDY,NIGHT_MOSTLY_CLOUDY,NIGHT_MOSTLY_CLOUDY,NIGHT_MOSTLY_CLOUDY","Cross-shore,Cross-shore,Cross-shore,Cross-shore",4
5842041f4e65fad6a7708974,2024_04_08,37.54735589428842,-122.5161090212687,Montara,1,2.0025,2.3075,13,13,"NIGHT_MOSTLY_CLOUDY,NIGHT_MIST,NIGHT_MIST,NIGHT_MIST","Onshore,Onshore,Onshore,Onshore",4
5842041f4e65fad6a7708975,2024_04_08,34.3869373724559,-119.5142334209018,Tarpits,2.25,0.27999999999999997,0.5800000000000001,13,13,"NIGHT_CLEAR,NIGHT_CLEAR,NIGHT_CLEAR,NIGHT_CLEAR","Onshore,Onshore,Onshore,Onshore",4
5842041f4e65fad6a7708976,2024_04_08,37.59881852720143,-122.50463,Pacifica / Linda Mar,2,0.62405,0.92935,14,14,"NIGHT_MOSTLY_CLOUDY,NIGHT_MOSTLY_CLOUDY,NIGHT_MOSTLY_CLOUDY,NIGHT_MOSTLY_CLOUDY","Onshore,Onshore,Onshore,Onshore",4
5842041f4e65fad6a7708978,2024_04_08,37.59883098461164,-122.5143843582282,Pedro Point,1.25,2.1275,2.4325,13,13,"NIGHT_MOSTLY_CLOUDY,NIGHT_MOSTLY_CLOUDY,NIGHT_MOSTLY_CLOUDY,NIGHT_MOSTLY_CLOUDY","Onshore,Onshore,Onshore,Onshore",4
5842041f4e65fad6a7708979,2024_04_08,37.61081996647663,-122.4973287570634,Rockaway,2,2.0475,2.3575,13,13,"NIGHT_MOSTLY_CLOUDY,NIGHT_MOSTLY_CLOUDY,NIGHT_MOSTLY_CLOUDY,NIGHT_MOSTLY_CLOUDY","Onshore,Cross-shore,Onshore,Onshore",4
5842041f4e65fad6a770897a,2024_04_08,37.809987384424446,-122.4751353263855,Fort Point,3,1.0325,1.34,13,13,"NIGHT_CLEAR,NIGHT_CLEAR,NIGHT_CLEAR,NIGHT_CLEAR","Offshore,Offshore,Offshore,Offshore",4
5842041f4e65fad6a770897c,2024_04_08,37.63422542967464,-122.4951,Sharp Park,2,2.19,2.4925,13,13,"NIGHT_MOSTLY_CLOUDY,NIGHT_MOSTLY_CLOUDY,NIGHT_MOSTLY_CLOUDY,NIGHT_MOSTLY_CLEAR","Cross-shore,Cross-shore,Onshore,Onshore",4
5842041f4e65fad6a770897d,2024_04_08,37.27313605072472,-122.4127387912554,Pescadero,0.75,2.3525,2.62,13,13,"NIGHT_CLOUDY,NIGHT_CLOUDY,NIGHT_CLOUDY,NIGHT_MIST","Onshore,Onshore,Cross-shore,Cross-shore",4
5842041f4e65fad6a770897e,2024_04_08,37.18140279972666,-122.3926685899327,Pigeon Point,3,2.27,2.3975,13,13,"NIGHT_CLOUDY,NIGHT_MIST,NIGHT_MIST,NIGHT_MIST","Offshore,Offshore,Offshore,Offshore",4
5842041f4e65fad6a770897f,2024_04_08,37.11578956919415,-122.314699271291,Ano Nuevo,3.75,1.3075,1.585,13,13,"NIGHT_MOSTLY_CLOUDY,NIGHT_MIST,NIGHT_BRIEF_SHOWERS,NIGHT_MIST","Offshore,Offshore,Offshore,Offshore",4
5842041f4e65fad6a7708980,2024_04_08,37.09520872681598,-122.2805474707768,Waddell Creek,3,1.5975000000000001,1.8675,13,13,"NIGHT_MOSTLY_CLOUDY,NIGHT_MOSTLY_CLOUDY,NIGHT_BRIEF_SHOWERS,NIGHT_MOSTLY_CLOUDY","Cross-shore,Cross-shore,Offshore,Cross-shore",4
5842041f4e65fad6a7708981,2024_04_08,36.96512852130351,-122.1252825495626,Four Mile,4,1.3475000000000001,1.62,12,12,"NIGHT_CLEAR,NIGHT_CLEAR,NIGHT_CLEAR,NIGHT_CLEAR","Offshore,Offshore,Offshore,Offshore",4
5842041f4e65fad6a7708982,2024_04_08,37.04122807048655,-122.2333684729756,Scott Creek,3,1.7425,1.99,13,13,"NIGHT_CLEAR,NIGHT_CLEAR,NIGHT_CLEAR,NIGHT_MOSTLY_CLOUDY","Cross-shore,Offshore,Offshore,Offshore",4
5842041f4e65fad6a7708983,2024_04_08,37.02350229387179,-122.21908,Davenport,3,1.5625,1.8675,13,13,"NIGHT_MOSTLY_CLOUDY,NIGHT_MOSTLY_CLOUDY,NIGHT_CLEAR,NIGHT_MOSTLY_CLOUDY","Cross-shore,Offshore,Offshore,Offshore",4
5842041f4e65fad6a7708986,2024_04_08,36.94905295955728,-122.0611823912244,Natural Bridges,3,1.445,1.6625,12,12,"NIGHT_CLEAR,NIGHT_CLEAR,NIGHT_CLEAR,NIGHT_CLEAR","Offshore,Offshore,Offshore,Offshore",4
5842041f4e65fad6a7708987,2024_04_08,36.95154854910425,-122.04207,Mitchell's Cove,3,0.605,0.9125000000000001,13,13,"NIGHT_CLEAR,NIGHT_CLEAR,NIGHT_CLEAR,NIGHT_CLEAR","Offshore,Offshore,Offshore,Offshore",4
5842041f4e65fad6a770898a,2024_04_08,36.9572312370203,-121.98177,26th Ave,2.75,0.7325,1.0075,13,13,"NIGHT_CLEAR,NIGHT_CLEAR,NIGHT_CLEAR,NIGHT_CLEAR","Cross-shore,Onshore,Cross-shore,Cross-shore",4
5842041f4e65fad6a770898e,2024_04_08,36.91899972819882,-121.85536,Manresa,3,1.0525,1.2725,13,13,"NIGHT_CLEAR,NIGHT_CLEAR,NIGHT_CLEAR,NIGHT_CLEAR","Cross-shore,Cross-shore,Offshore,Cross-shore",4
5842041f4e65fad6a7708990,2024_04_08,34.45747731928454,-120.34242,The Ranch,1,0.1925,0.495,12,12,"NIGHT_CLEAR,NIGHT_CLEAR,NIGHT_CLEAR,NIGHT_CLEAR","Offshore,Offshore,Offshore,Offshore",4
5842041f4e65fad6a7708991,2024_04_08,34.50875036590315,-120.50348,Jalama,1,0.64,0.945,12,12,"NIGHT_CLEAR,NIGHT_CLEAR,NIGHT_CLEAR,NIGHT_CLEAR","Cross-shore,Offshore,Offshore,Offshore",4
5842041f4e65fad6a7708996,2024_04_08,34.68700870220497,-120.6111611019887,Surf Beach,1,2.2025,2.4575,12,12,"NIGHT_CLEAR,NIGHT_MOSTLY_CLEAR,NIGHT_CLEAR,NIGHT_CLEAR","Onshore,Onshore,Onshore,Cross-shore",4
5842041f4e65fad6a770899c,2024_04_08,35.5730538161116,-121.1143362345574,Moonstone,3,1.275,1.525,12,12,"NIGHT_CLEAR,NIGHT_CLEAR,NIGHT_CLEAR,NIGHT_CLEAR","Cross-shore,Cross-shore,Cross-shore,Cross-shore",4
5842041f4e65fad6a770899d,2024_04_08,35.61533716776573,-121.1502053073914,Pico Creek,2.5,1.3450000000000002,1.4625,12,12,"NIGHT_CLEAR,NIGHT_CLEAR,NIGHT_CLEAR,NIGHT_CLEAR","Onshore,Onshore,Cross-shore,Cross-shore",4
5842041f4e65fad6a770899e,2024_04_08,35.56829031927379,-121.1120653023953,Santa Rosa Creek,3,1.275,1.525,12,12,"NIGHT_CLEAR,NIGHT_CLEAR,NIGHT_CLEAR,NIGHT_CLEAR","Offshore,Cross-shore,Cross-shore,Cross-shore",4
5842041f4e65fad6a77089a2,2024_04_08,35.44820114936284,-120.90715,"Cayucos Pier, Southside ",3,0.495,0.7975000000000001,12,12,"NIGHT_CLEAR,NIGHT_CLEAR,NIGHT_CLEAR,NIGHT_CLEAR","Offshore,Offshore,Offshore,Offshore",4
5842041f4e65fad6a77089a4,2024_04_08,35.30143372628852,-120.877819239902,Cable Landing,2.5,2.4699999999999998,2.65,12,12,"NIGHT_CLEAR,NIGHT_CLEAR,NIGHT_CLEAR,NIGHT_CLEAR","Cross-shore,Cross-shore,Cross-shore,Cross-shore",4
5842041f4e65fad6a77089a9,2024_04_08,35.61269103500222,-121.1480725356606,San Simeon,3,0.728,0.9432499999999999,12,12,"NIGHT_CLEAR,NIGHT_CLEAR,NIGHT_CLEAR,NIGHT_CLEAR","Offshore,Offshore,Offshore,Offshore",4
5842041f4e65fad6a77089ab,2024_04_08,35.1775325966252,-120.7341125142258,Avila Beach,1,0,0.28,12,12,"NIGHT_CLEAR,NIGHT_CLEAR,NIGHT_CLEAR,NIGHT_CLEAR","Offshore,Offshore,Offshore,Offshore",4
5842041f4e65fad6a77089ac,2024_04_08,35.13877877884115,-120.64535,Pismo Beach Pier,2.5,0.7654083333333334,1.0711833333333334,12,12,"NIGHT_MOSTLY_CLEAR,NIGHT_CLEAR,NIGHT_CLEAR,NIGHT_CLEAR","Onshore,Cross-shore,Onshore,Onshore",4
5842041f4e65fad6a77089ad,2024_04_08,46.8907710233147,-124.12964,Westport/Olympic Peninsula,2,1.32,1.5625,10,10,"NIGHT_MOSTLY_CLOUDY,NIGHT_MOSTLY_CLOUDY,NIGHT_DRIZZLE,NIGHT_BRIEF_SHOWERS","Onshore,Onshore,Onshore,Onshore",4
5842041f4e65fad6a77089ae,2024_04_08,46.35185177248545,-124.06747,Long Beach Peninsula,2,1.9725,2.225,10,10,"NIGHT_CLOUDY,NIGHT_CLOUDY,NIGHT_MOSTLY_CLOUDY,NIGHT_MOSTLY_CLOUDY","Onshore,Cross-shore,Cross-shore,Cross-shore",4
5842041f4e65fad6a77089af,2024_04_08,47.90649175554033,-124.6370864743483,La Push,2.75,1.57,1.7675,10,10,"NIGHT_CLEAR,NIGHT_CLEAR,NIGHT_OVERCAST,NIGHT_LIGHT_RAIN","Onshore,Onshore,Cross-shore,Offshore",4
5842041f4e65fad6a77089b0,2024_04_08,42.04368239985442,-124.26828,Brookings Jetty,3,0.8959975,1.399995,10,10,"NIGHT_CLEAR,NIGHT_CLEAR,NIGHT_CLEAR,NIGHT_CLEAR","Offshore,Offshore,Offshore,Offshore",4
5842041f4e65fad6a77089b1,2024_04_08,42.74071837900346,-124.4983727491047,Port Orford,3,1.0175,1.3225,11,11,"NIGHT_CLEAR,NIGHT_CLEAR,NIGHT_MOSTLY_CLOUDY,NIGHT_CLEAR","Offshore,Offshore,Offshore,Offshore",4
5842041f4e65fad6a77089b2,2024_04_08,44.01532689312291,-124.13865,Florence South Jetty,3,2.1425,2.4725,11,11,"NIGHT_MOSTLY_CLEAR,NIGHT_MOSTLY_CLEAR,NIGHT_CLEAR,NIGHT_CLEAR","Onshore,Onshore,Onshore,Onshore",4
5842041f4e65fad6a77089b3,2024_04_08,42.41812540774362,-124.42945,Gold Beach South Jetty,4,1.625,1.9075,10,10,"NIGHT_CLEAR,NIGHT_CLEAR,NIGHT_MOSTLY_CLEAR,NIGHT_MOSTLY_CLOUDY","Offshore,Offshore,Offshore,Offshore",4
5842041f4e65fad6a77089b4,2024_04_08,44.95857310226525,-124.0219017690976,Lincoln City,3,2.0025,2.2825,11,11,"NIGHT_MOSTLY_CLOUDY,NIGHT_BRIEF_SHOWERS,NIGHT_MOSTLY_CLOUDY,NIGHT_MOSTLY_CLOUDY","Onshore,Onshore,Cross-shore,Cross-shore",4
5842041f4e65fad6a77089b5,2024_04_08,44.63792761362982,-124.0657,Newport,3,2.21,2.565,10,10,"NIGHT_MOSTLY_CLEAR,NIGHT_MOSTLY_CLEAR,NIGHT_MOSTLY_CLOUDY,NIGHT_CLEAR","Onshore,Onshore,Onshore,Onshore",4
5842041f4e65fad6a77089b6,2024_04_08,45.61468496266301,-123.94643,Rockaway Beach,3,2.04,2.3325,10,10,"NIGHT_MOSTLY_CLOUDY,NIGHT_MOSTLY_CLOUDY,NIGHT_MOSTLY_CLOUDY,NIGHT_CLEAR","Cross-shore,Cross-shore,Cross-shore,Cross-shore",4
5842041f4e65fad6a77089b7,2024_04_08,45.20252914186085,-123.96975,Pacific City,3,1.7325,2.0075,11,11,"NIGHT_CLEAR,NIGHT_MOSTLY_CLOUDY,NIGHT_MOSTLY_CLOUDY,NIGHT_MOSTLY_CLOUDY","Onshore,Onshore,Onshore,Onshore",4
5842041f4e65fad6a77089b8,2024_04_08,45.88179930310263,-123.96681,Cannon Beach,3,1.8925,2.135,10,10,"NIGHT_MIST,NIGHT_MOSTLY_CLOUDY,NIGHT_BRIEF_SHOWERS,NIGHT_MOSTLY_CLOUDY","Onshore,Onshore,Onshore,Onshore",4
5842041f4e65fad6a77089ba,2024_04_08,40.02528754746774,-124.06372,Shelter Cove,3,0.4409875,0.6890375,11,11,"NIGHT_CLEAR,NIGHT_CLEAR,NIGHT_CLEAR,NIGHT_CLEAR","Offshore,Offshore,Offshore,Offshore",4
5842041f4e65fad6a77089bb,2024_04_08,40.76816197136951,-124.24248,Humboldt Harbor Entrance,3,2.1725000000000003,2.505,10,10,"NIGHT_OVERCAST,NIGHT_CLOUDY,NIGHT_CLOUDY,NIGHT_OVERCAST","Cross-shore,Cross-shore,Cross-shore,Cross-shore",4
5842041f4e65fad6a77089bc,2024_04_08,40.76684246920174,-124.23107,North Jetty,3,3.065,3.57,10,10,"NIGHT_OVERCAST,NIGHT_OVERCAST,NIGHT_CLOUDY,NIGHT_OVERCAST","Cross-shore,Cross-shore,Cross-shore,Cross-shore",4
5842041f4e65fad6a77089bd,2024_04_08,41.02731183893966,-124.1149972888982,Westhaven,3,3.255,3.7925,10,10,"NIGHT_CLEAR,NIGHT_CLOUDY,NIGHT_CLOUDY,NIGHT_CLEAR","Cross-shore,Cross-shore,Cross-shore,Cross-shore",4
5842041f4e65fad6a77089be,2024_04_08,41.13016238153297,-124.16466,Sue-meg,2,2.26,2.56,10,10,"NIGHT_CLOUDY,NIGHT_OVERCAST,NIGHT_OVERCAST,NIGHT_OVERCAST","Cross-shore,Cross-shore,Cross-shore,Cross-shore",4
5842041f4e65fad6a77089bf,2024_04_08,37.8289474958188,-122.5376795097543,Fort Cronkite/Rodeo Beach,3,1.3475000000000001,1.6125,13,13,"NIGHT_CLEAR,NIGHT_CLEAR,NIGHT_CLEAR,NIGHT_CLEAR","Offshore,Offshore,Offshore,Offshore",4
5842041f4e65fad6a77089c0,2024_04_08,41.74415759876137,-124.17717,South Beach CA,3,0.6875,0.995,10,10,"NIGHT_CLEAR,NIGHT_MOSTLY_CLOUDY,NIGHT_CLEAR,NIGHT_MOSTLY_CLEAR","Offshore,Offshore,Offshore,Offshore",4
5842041f4e65fad6a77089c1,2024_04_08,37.89801283969752,-122.64519,Stinson Beach,3,0.5075000000000001,0.815,12,12,"NIGHT_MOSTLY_CLEAR,NIGHT_CLEAR,NIGHT_CLEAR,NIGHT_CLEAR","Offshore,Offshore,Offshore,Offshore",4
5842041f4e65fad6a77089c2,2024_04_08,37.90514516176495,-122.68151,Bolinas,2,0.3153125,0.4926775,12,12,"NIGHT_CLEAR,NIGHT_CLEAR,NIGHT_CLEAR,NIGHT_CLEAR","Cross-shore,Cross-shore,Cross-shore,Cross-shore",4
5842041f4e65fad6a77089c3,2024_04_08,38.04892513158693,-122.9892494965416,Point Reyes (north),1,2.7525,3.0300000000000002,12,12,"NIGHT_MOSTLY_CLOUDY,NIGHT_CLEAR,NIGHT_CLEAR,NIGHT_CLEAR","Onshore,Onshore,Onshore,Onshore",4
5842041f4e65fad6a77089c6,2024_04_08,38.31088736605785,-123.0496777333731,Doran Beach,2,0.165,0.47,11,11,"NIGHT_CLEAR,NIGHT_CLEAR,NIGHT_CLEAR,NIGHT_CLEAR","Offshore,Offshore,Offshore,Offshore",4
5842041f4e65fad6a77089c7,2024_04_08,38.45077228660809,-123.13008,Russian Rivermouth,3,1.64,1.96,11,11,"NIGHT_CLEAR,NIGHT_CLEAR,NIGHT_CLEAR,NIGHT_CLEAR","Cross-shore,Cross-shore,Offshore,Offshore",4
5842041f4e65fad6a77089c8,2024_04_08,38.35329968518107,-123.06906,Salmon Creek,2,2.1975,2.4225,11,11,"NIGHT_CLEAR,NIGHT_CLEAR,NIGHT_CLEAR,NIGHT_CLEAR","Onshore,Cross-shore,Cross-shore,Onshore",4
5842041f4e65fad6a77089c9,2024_04_08,38.6845180197959,-123.4322714291198,Black Point Beach,2,0.71,1.0150000000000001,10,10,"NIGHT_CLEAR,NIGHT_CLEAR,NIGHT_CLEAR,NIGHT_CLEAR","Onshore,Onshore,Onshore,Onshore",4
5842041f4e65fad6a77089ca,2024_04_08,43.251076,-70.59144,Ogunquit,3,0.585,0.89,5,4,"NIGHT_CLEAR,NIGHT_CLEAR,NIGHT_CLEAR,NIGHT_CLEAR","Offshore,Offshore,Offshore,Offshore",4
5842041f4e65fad6a77089cb,2024_04_08,41.362631366305415,-71.48007,Point Judith,0,0,0.30063333333333336,6,5,"NIGHT_CLEAR,NIGHT_CLEAR,NIGHT_CLEAR,NIGHT_CLEAR","Offshore,Offshore,Offshore,Offshore",4
5842041f4e65fad6a77089cd,2024_04_08,41.422678090954726,-71.45413,Monahan's - Narragansett,1,0.13234,0.20678000000000002,6,6,"NIGHT_CLEAR,NIGHT_CLEAR,NIGHT_CLEAR,NIGHT_CLEAR","Offshore,Offshore,Offshore,Offshore",4
5842041f4e65fad6a77089ce,2024_04_08,41.469,-71.293,Ruggles - Newport,1,0.14304,0.2235,6,6,"NIGHT_CLEAR,NIGHT_CLEAR,NIGHT_CLEAR,NIGHT_CLEAR","Offshore,Offshore,Offshore,Offshore",4
5842041f4e65fad6a77089cf,2024_04_08,43.175394,-70.606351,Short Sands Beach,2,0.4375,0.7424999999999999,5,5,"NIGHT_CLEAR,NIGHT_CLEAR,NIGHT_CLEAR,NIGHT_CLEAR","Cross-shore,Offshore,Offshore,Offshore",4
5842041f4e65fad6a77089d0,2024_04_08,41.487408,-71.29017,First Beach,0,0,0.1125,6,6,"NIGHT_CLEAR,NIGHT_CLEAR,NIGHT_CLEAR,NIGHT_CLEAR","Offshore,Offshore,Offshore,Offshore",4
5842041f4e65fad6a77089d1,2024_04_08,42.27916830233153,-70.86498,Nantasket Beach,2,0.465,0.7675000000000001,6,4,"NIGHT_CLEAR,NIGHT_CLEAR,NIGHT_CLEAR,NIGHT_CLEAR","Cross-shore,Cross-shore,Cross-shore,Cross-shore",4
5842041f4e65fad6a77089d2,2024_04_08,41.817,-69.935,Cape Cod,3,0.765,1.0725,5,5,"NIGHT_CLEAR,NIGHT_CLEAR,NIGHT_CLEAR,NIGHT_CLEAR","Offshore,Offshore,Offshore,Offshore",4
5842041f4e65fad6a77089d3,2024_04_08,42.22055448975661,-70.70634873403819,Egypt Beach,2,0.64,0.95,5,5,"NIGHT_CLEAR,NIGHT_CLEAR,NIGHT_CLEAR,NIGHT_CLEAR","Offshore,Offshore,Offshore,Offshore",4
5842041f4e65fad6a77089d4,2024_04_08,41.48739647744607,-71.25723,Second Beach,0,0.08749,0.1367,6,5,"NIGHT_CLEAR,NIGHT_CLEAR,NIGHT_CLEAR,NIGHT_CLEAR","Offshore,Offshore,Offshore,Offshore",4
5842041f4e65fad6a77089d5,2024_04_08,42.964,-70.769,Fox Hill,2,0.1475,0.4525,5,4,"NIGHT_CLEAR,NIGHT_CLEAR,NIGHT_CLEAR,NIGHT_CLEAR","Offshore,Offshore,Offshore,Offshore",4
5842041f4e65fad6a77089d6,2024_04_08,42.991359,-70.75149,Straws Point,3,0.4375,0.74,5,4,"NIGHT_CLEAR,NIGHT_CLEAR,NIGHT_CLEAR,NIGHT_CLEAR","Offshore,Offshore,Offshore,Offshore",4
5842041f4e65fad6a77089d7,2024_04_08,42.946,-70.786,Plaice Cove,2,0.1475,0.4525,5,4,"NIGHT_CLEAR,NIGHT_CLEAR,NIGHT_CLEAR,NIGHT_CLEAR","Offshore,Offshore,Offshore,Offshore",4
5842041f4e65fad6a77089d9,2024_04_08,42.911574,-70.80831,The Main Beach,3,0.6994250000000001,1.0190320833333333,6,4,"NIGHT_CLEAR,NIGHT_CLEAR,NIGHT_CLEAR,NIGHT_CLEAR","Offshore,Offshore,Offshore,Offshore",4
5842041f4e65fad6a77089da,2024_04_08,42.97583846220203,-70.764,Sawyer's Beach,2,0.2275,0.535,5,4,"NIGHT_CLEAR,NIGHT_CLEAR,NIGHT_CLEAR,NIGHT_CLEAR","Offshore,Offshore,Offshore,Offshore",4
5842041f4e65fad6a77089db,2024_04_08,42.97,-70.77,Rye on the Rocks / 5-0's,2.875,0.6300583333333334,0.9306495833333334,6,4,"NIGHT_CLEAR,NIGHT_CLEAR,NIGHT_CLEAR,NIGHT_CLEAR","Offshore,Offshore,Offshore,Offshore",4
5842041f4e65fad6a77089dc,2024_04_08,43.55902946610303,-70.27795,Higgins Beach,1.1675,-0.014833333333333294,0.2903833333333333,5,4,"NIGHT_CLEAR,NIGHT_CLEAR,NIGHT_CLEAR,NIGHT_CLEAR","Offshore,Offshore,Offshore,Offshore",4
5842041f4e65fad6a77089dd,2024_04_08,43.302676,-70.5652,Wells Beach,2,0.20500000000000002,0.51,5,4,"NIGHT_CLEAR,NIGHT_CLEAR,NIGHT_CLEAR,NIGHT_CLEAR","Offshore,Offshore,Offshore,Offshore",4
5842041f4e65fad6a77089de,2024_04_08,43.545359,-70.30479,Scarborough Beach State Park,2,0.3095625,0.4836875,5,4,"NIGHT_CLEAR,NIGHT_CLEAR,NIGHT_CLEAR,NIGHT_CLEAR","Offshore,Offshore,Offshore,Offshore",4
5842041f4e65fad6a77089df,2024_04_08,43.514481,-70.372146,Old Orchard Beach,3,0.5479333333333334,0.8473166666666667,5,4,"NIGHT_CLEAR,NIGHT_CLEAR,NIGHT_CLEAR,NIGHT_CLEAR","Offshore,Offshore,Offshore,Offshore",4
5842041f4e65fad6a77089e0,2024_04_08,43.34711,-70.48165,Gooch's Beach,2,0.115,0.42,5,4,"NIGHT_CLEAR,NIGHT_CLEAR,NIGHT_CLEAR,NIGHT_CLEAR","Offshore,Offshore,Offshore,Offshore",4
5842041f4e65fad6a77089e2,2024_04_08,40.58433,-73.62953,Lido Beach,0,0,0.14906666666666668,8,7,"NIGHT_CLEAR,NIGHT_CLEAR,NIGHT_CLEAR,NIGHT_CLEAR","Cross-shore,Cross-shore,Onshore,Offshore",4
5842041f4e65fad6a77089e3,2024_04_08,43.163135,-70.61689,Long Sands Beach,3,0.5674295833333334,0.8485058333333333,5,4,"NIGHT_CLEAR,NIGHT_CLEAR,NIGHT_CLEAR,NIGHT_CLEAR","Offshore,Offshore,Offshore,Offshore",4
5842041f4e65fad6a77089e4,2024_04_08,40.61695351251805,-73.39376,Gilgo Beach,0,0,0.125,8,7,"NIGHT_CLEAR,NIGHT_CLEAR,NIGHT_CLEAR,NIGHT_CLEAR","Cross-shore,Cross-shore,Offshore,Offshore",4
5842041f4e65fad6a77089e5,2024_04_08,40.62530081928036,-73.23827,Robert Moses,0,0,0.1475,6,6,"NIGHT_CLEAR,NIGHT_CLEAR,NIGHT_CLEAR,NIGHT_CLEAR","Cross-shore,Offshore,Offshore,Offshore",4
5842041f4e65fad6a77089e6,2024_04_08,40.64313317632791,-73.15727,Fire Island,0.25,0,0.1525,6,6,"NIGHT_CLEAR,NIGHT_CLEAR,NIGHT_CLEAR,NIGHT_CLEAR","Cross-shore,Offshore,Offshore,Offshore",4
5842041f4e65fad6a77089e8,2024_04_08,40.76653118828782,-72.74579619372713,Cupsogue,1,0,0.215,6,6,"NIGHT_CLEAR,NIGHT_CLEAR,NIGHT_CLEAR,NIGHT_CLEAR","Cross-shore,Cross-shore,Offshore,Offshore",4
5842041f4e65fad6a77089e9,2024_04_08,42.9376373334092,-70.79141,The Wall ,3,0.7071708333333334,1.0311366666666666,6,4,"NIGHT_CLEAR,NIGHT_CLEAR,NIGHT_CLEAR,NIGHT_CLEAR","Offshore,Offshore,Offshore,Offshore",4
5842041f4e65fad6a77089ea,2024_04_08,40.887088,-72.33856,Flys,1,0,0.2175,6,6,"NIGHT_CLEAR,NIGHT_CLEAR,NIGHT_CLEAR,NIGHT_CLEAR","Cross-shore,Offshore,Cross-shore,Offshore",4
5842041f4e65fad6a77089eb,2024_04_08,41.0389266436591,-71.91068529316958,Trailer Park,0.54,0,0.303475,8,7,"NIGHT_CLEAR,NIGHT_CLEAR,NIGHT_CLEAR,NIGHT_CLEAR","Offshore,Offshore,Offshore,Offshore",4
5842041f4e65fad6a77089ec,2024_04_08,41.039505402729105,-71.9142,Ditch Plains,1,0.16932250000000001,0.2645675,6,6,"NIGHT_CLEAR,NIGHT_CLEAR,NIGHT_CLEAR,NIGHT_CLEAR","Offshore,Offshore,Offshore,Offshore",4
5842041f4e65fad6a77089ee,2024_04_08,40.57633275206492,-73.56895305108567,"West End, Jones Beach",0,0,0.16,8,7,"NIGHT_CLEAR,NIGHT_CLEAR,NIGHT_CLEAR,NIGHT_CLEAR","Cross-shore,Cross-shore,Cross-shore,Offshore",4
5842041f4e65fad6a77089f1,2024_04_08,41.038286691230795,-71.91991567611694,Poles,0.2075,0,0.31279583333333333,8,7,"NIGHT_CLEAR,NIGHT_CLEAR,NIGHT_CLEAR,NIGHT_CLEAR","Offshore,Offshore,Offshore,Offshore",4
5842041f4e65fad6a77089f3,2024_04_08,40.84077769766295,-72.47989493724765,The Bowl,1,0,0.215,6,6,"NIGHT_CLEAR,NIGHT_CLEAR,NIGHT_CLEAR,NIGHT_CLEAR","Cross-shore,Cross-shore,Offshore,Offshore",4
5842041f4e65fad6a77089f4,2024_04_08,40.94235535243154,-72.19286,Main Beach,1,0,0.20500000000000002,14,13,"NIGHT_CLEAR,NIGHT_CLEAR,NIGHT_CLEAR,NIGHT_CLEAR","Cross-shore,Cross-shore,Cross-shore,Offshore",4
5842041f4e65fad6a77089f5,2024_04_08,40.58270702399518,-73.67251552079799,Laurelton Blvd.,0,0,0.15035791666666665,8,7,"NIGHT_CLEAR,NIGHT_CLEAR,NIGHT_CLEAR,NIGHT_CLEAR","Onshore,Cross-shore,Onshore,Cross-shore",4
5842041f4e65fad6a77089f6,2024_04_08,41.033752854071416,-71.93696,Terrace,0.54,0,0.30855,8,7,"NIGHT_CLEAR,NIGHT_CLEAR,NIGHT_CLEAR,NIGHT_CLEAR","Cross-shore,Offshore,Offshore,Offshore",4
5842041f4e65fad6a77089f7,2024_04_08,40.83372943645748,-72.50426173210144,K Road,1,0,0.2425,6,6,"NIGHT_CLEAR,NIGHT_CLEAR,NIGHT_CLEAR,NIGHT_CLEAR","Cross-shore,Offshore,Offshore,Offshore",4
5842041f4e65fad6a77089f8,2024_04_08,40.58456099581507,-73.80730032920837,84th Street,0,0,0.15614999999999998,8,7,"NIGHT_CLEAR,NIGHT_CLEAR,NIGHT_CLEAR,NIGHT_CLEAR","Cross-shore,Cross-shore,Offshore,Offshore",4
5842041f4e65fad6a77089fa,2024_04_08,40.1319,-74.02788,Sea Girt,2,0.11,0.4175,8,7,"NIGHT_CLEAR,NIGHT_CLEAR,NIGHT_CLEAR,NIGHT_CLEAR","Offshore,Offshore,Offshore,Offshore",4
5842041f4e65fad6a77089fb,2024_04_08,40.54698301868125,-73.9268,Breezy Point,1,0,0.17,7,7,"NIGHT_CLEAR,NIGHT_CLEAR,NIGHT_CLEAR,NIGHT_CLEAR","Cross-shore,Cross-shore,Cross-shore,Offshore",4
5842041f4e65fad6a77089fc,2024_04_08,40.152504,-74.021383,Spring Lake,2,0.105,0.4075,8,7,"NIGHT_CLEAR,NIGHT_CLEAR,NIGHT_CLEAR,NIGHT_CLEAR","Offshore,Offshore,Offshore,Offshore",4
5842041f4e65fad6a77089fd,2024_04_08,40.591277,-73.770792,30th - 39th Streets,0,0,0.1375,8,7,"NIGHT_CLEAR,NIGHT_CLEAR,NIGHT_CLEAR,NIGHT_MIST","Cross-shore,Cross-shore,Offshore,Offshore",4
5842041f4e65fad6a77089fe,2024_04_08,40.18834955871439,-74.00860982500222,Avon,2,0.14750000000000002,0.455,8,7,"NIGHT_CLEAR,NIGHT_CLEAR,NIGHT_CLEAR,NIGHT_CLEAR","Offshore,Offshore,Offshore,Offshore",4
5842041f4e65fad6a77089ff,2024_04_08,40.1974229100932,-74.00650533798255,Bradley Beach,2,0.1275,0.4325,8,7,"NIGHT_CLEAR,NIGHT_CLEAR,NIGHT_CLEAR,NIGHT_CLEAR","Offshore,Offshore,Offshore,Offshore",4
5842041f4e65fad6a7708a01,2024_04_08,40.17202,-74.01503,"16th Ave., Belmar",0.46,-0.011250000000000003,0.29646666666666666,8,7,"NIGHT_CLEAR,NIGHT_CLEAR,NIGHT_CLEAR,NIGHT_CLEAR","Offshore,Offshore,Offshore,Offshore",4
5842041f4e65fad6a7708a02,2024_04_08,40.217443,-73.99982,Asbury Park,2,0.0775,0.3825,8,7,"NIGHT_CLEAR,NIGHT_CLEAR,NIGHT_CLEAR,NIGHT_CLEAR","Offshore,Offshore,Offshore,Offshore",4
5842041f4e65fad6a7708a03,2024_04_08,40.229841,-73.996782,Loch Arbour and Deal,2,0.075,0.38,8,7,"NIGHT_CLEAR,NIGHT_CLEAR,NIGHT_CLEAR,NIGHT_CLEAR","Offshore,Offshore,Offshore,Offshore",4
5842041f4e65fad6a7708a05,2024_04_08,40.41754,-73.97935,Sandy Hook,0.25,0,0.1475,7,7,"NIGHT_CLEAR,NIGHT_CLEAR,NIGHT_CLEAR,NIGHT_CLEAR","Offshore,Offshore,Offshore,Offshore",4
5842041f4e65fad6a7708a06,2024_04_08,39.36353,-74.40873,Crystals,1,0.2376525,0.37133499999999997,8,7,"NIGHT_CLEAR,NIGHT_CLEAR,NIGHT_CLEAR,NIGHT_CLEAR","Cross-shore,Cross-shore,Cross-shore,Cross-shore",4
5842041f4e65fad6a7708a07,2024_04_08,39.31443,-74.51863,32nd Street,2,0.2837145833333334,0.5766554166666668,8,7,"NIGHT_CLEAR,NIGHT_CLEAR,NIGHT_CLEAR,NIGHT_CLEAR","Cross-shore,Cross-shore,Cross-shore,Cross-shore",4
5842041f4e65fad6a7708a08,2024_04_08,39.327688,-74.49524,Margate Pier Northside,2,0.2837145833333334,0.5766554166666668,8,7,"NIGHT_CLEAR,NIGHT_CLEAR,NIGHT_CLEAR,NIGHT_CLEAR","Cross-shore,Cross-shore,Cross-shore,Cross-shore",4
5842041f4e65fad6a7708a09,2024_04_08,39.336276,-74.47782,Ventnor Pier,1,0.2309525,0.3608625,8,7,"NIGHT_CLEAR,NIGHT_CLEAR,NIGHT_CLEAR,NIGHT_CLEAR","Cross-shore,Cross-shore,Cross-shore,Cross-shore",4
5842041f4e65fad6a7708a0a,2024_04_08,39.35929751441085,-74.41683,States Avenue,1.5,0.2376525,0.37133499999999997,8,7,"NIGHT_CLEAR,NIGHT_CLEAR,NIGHT_CLEAR,NIGHT_CLEAR","Cross-shore,Cross-shore,Cross-shore,Cross-shore",4
5842041f4e65fad6a7708a0b,2024_04_08,39.37274173278517,-74.40454,Brigantine Jetty,1,0.15977,0.24964250000000002,8,7,"NIGHT_CLEAR,NIGHT_CLEAR,NIGHT_CLEAR,NIGHT_CLEAR","Onshore,Cross-shore,Cross-shore,Cross-shore",4
5842041f4e65fad6a7708a0c,2024_04_08,39.356505,-74.42263,South Carolina Avenue,1,0.15977,0.24964250000000002,8,7,"NIGHT_CLEAR,NIGHT_CLEAR,NIGHT_CLEAR,NIGHT_CLEAR","Onshore,Cross-shore,Cross-shore,Cross-shore",4
5842041f4e65fad6a7708a0d,2024_04_08,39.413485,-74.35476,14th Street North,1.75,0.015,0.3175,8,7,"NIGHT_CLEAR,NIGHT_CLEAR,NIGHT_CLEAR,NIGHT_CLEAR","Cross-shore,Cross-shore,Cross-shore,Offshore",4
5842041f4e65fad6a7708a0e,2024_04_08,39.531319,-74.263252,The Wooden Jetty,2,0.29721875,0.6102029166666667,8,7,"NIGHT_CLEAR,NIGHT_CLEAR,NIGHT_CLEAR,NIGHT_CLEAR","Cross-shore,Cross-shore,Cross-shore,Offshore",4
5842041f4e65fad6a7708a0f,2024_04_08,39.552472,-74.24344,Holyoke,2,0.29791125000000007,0.5988370833333334,8,7,"NIGHT_CLEAR,NIGHT_CLEAR,NIGHT_CLEAR,NIGHT_CLEAR","Cross-shore,Cross-shore,Cross-shore,Offshore",4
5842041f4e65fad6a7708a10,2024_04_08,39.692364,-74.14068,Hudson Ave.,2,0.30355,0.6054333333333334,8,7,"NIGHT_CLEAR,NIGHT_CLEAR,NIGHT_CLEAR,NIGHT_CLEAR","Offshore,Offshore,Offshore,Offshore",4
5842041f4e65fad6a7708a11,2024_04_08,39.79614,-74.09248,Island Beach State Park,2,0.1225,0.4275,8,7,"NIGHT_CLEAR,NIGHT_CLEAR,NIGHT_CLEAR,NIGHT_CLEAR","Offshore,Offshore,Offshore,Offshore",4
5842041f4e65fad6a7708a12,2024_04_08,39.91813588078152,-74.07527,Seaside Park,2,0.12,0.4275,8,7,"NIGHT_CLEAR,NIGHT_CLEAR,NIGHT_CLEAR,NIGHT_CLEAR","Offshore,Offshore,Offshore,Offshore",4
5842041f4e65fad6a7708a14,2024_04_08,39.946638,-74.06884,Seaside Heights,2,0.155,0.46,8,7,"NIGHT_CLEAR,NIGHT_CLEAR,NIGHT_CLEAR,NIGHT_CLEAR","Offshore,Offshore,Offshore,Offshore",4
5842041f4e65fad6a7708a15,2024_04_08,39.95745637606704,-74.06736,Ortley Beach,2,0.115,0.42,8,7,"NIGHT_CLEAR,NIGHT_CLEAR,NIGHT_CLEAR,NIGHT_CLEAR","Offshore,Offshore,Offshore,Offshore",4
5842041f4e65fad6a7708a16,2024_04_08,39.98313468342945,-74.06265685577506,Lavallette,2,0.11,0.4175,8,7,"NIGHT_CLEAR,NIGHT_CLEAR,NIGHT_CLEAR,NIGHT_CLEAR","Offshore,Offshore,Offshore,Offshore",4
5842041f4e65fad6a7708a17,2024_04_08,40.0699319967757,-74.04144910856634,Bay Head,2,0.12,0.4275,8,7,"NIGHT_CLEAR,NIGHT_CLEAR,NIGHT_CLEAR,NIGHT_CLEAR","Offshore,Offshore,Offshore,Offshore",4
5842041f4e65fad6a7708a18,2024_04_08,40.094041,-74.034859,Jenkinson's,2,0.075,0.38,8,7,"NIGHT_CLEAR,NIGHT_CLEAR,NIGHT_CLEAR,NIGHT_CLEAR","Offshore,Offshore,Offshore,Offshore",4
5842041f4e65fad6a7708a1a,2024_04_08,38.148058,-75.17704,Assateague,2,0.4325,0.74,8,7,"NIGHT_CLEAR,NIGHT_CLEAR,NIGHT_CLEAR,NIGHT_CLEAR","Cross-shore,Cross-shore,Cross-shore,Onshore",4
5842041f4e65fad6a7708a1b,2024_04_08,38.33889038664497,-75.08017670566352,North End to Ocean City Inlet,2,0.485,0.7875000000000001,8,7,"NIGHT_CLEAR,NIGHT_CLEAR,NIGHT_CLEAR,NIGHT_CLEAR","Offshore,Cross-shore,Cross-shore,Cross-shore",4
5842041f4e65fad6a7708a1c,2024_04_08,38.603993,-75.06271,Indian River Inlet,2,0.412605,0.6446974999999999,8,7,"NIGHT_CLEAR,NIGHT_CLEAR,NIGHT_CLEAR,NIGHT_MIST","Onshore,Onshore,Cross-shore,Cross-shore",4
5842041f4e65fad6a7708a1d,2024_04_08,38.460477,-75.052069,Fenwick Island,2,0.20500000000000002,0.515,8,7,"NIGHT_CLEAR,NIGHT_CLEAR,NIGHT_CLEAR,NIGHT_CLEAR","Offshore,Offshore,Offshore,Offshore",4
5842041f4e65fad6a7708a1e,2024_04_08,38.538767,-75.05619,Bethany Beach,2,0.42263,0.6603600000000001,8,7,"NIGHT_CLEAR,NIGHT_CLEAR,NIGHT_CLEAR,NIGHT_CLEAR","Cross-shore,Cross-shore,Cross-shore,Cross-shore",4
5842041f4e65fad6a7708a1f,2024_04_08,38.697657,-75.075951,Dewey Beach,2,0.24,0.545,8,7,"NIGHT_CLEAR,NIGHT_CLEAR,NIGHT_CLEAR,NIGHT_MIST","Offshore,Offshore,Offshore,Offshore",4
5842041f4e65fad6a7708a20,2024_04_08,38.75034741676525,-75.08194,Gordons Pond,1,0.2559775,0.39996750000000003,8,7,"NIGHT_CLEAR,NIGHT_CLEAR,NIGHT_CLEAR,NIGHT_CLEAR","Cross-shore,Cross-shore,Cross-shore,Cross-shore",4
5842041f4e65fad6a7708a21,2024_04_08,38.767837,-75.082841,Naval Jetties,2,0.28500000000000003,0.5874999999999999,8,7,"NIGHT_CLEAR,NIGHT_CLEAR,NIGHT_CLEAR,NIGHT_CLEAR","Offshore,Offshore,Offshore,Offshore",4
5842041f4e65fad6a7708a22,2024_04_08,36.81735875786576,-75.96624,Camp Pendleton,1.54,0.26255,0.56735,10,9,"NIGHT_CLEAR,NIGHT_CLEAR,NIGHT_CLEAR,NIGHT_CLEAR","Offshore,Offshore,Offshore,Offshore",4
5842041f4e65fad6a7708a23,2024_04_08,36.9102212316428,-75.98732471466064,North End,0.54,0.2592166666666667,0.5694333333333333,10,9,"NIGHT_CLEAR,NIGHT_CLEAR,NIGHT_CLEAR,NIGHT_CLEAR","Offshore,Offshore,Offshore,Offshore",4
5842041f4e65fad6a7708a24,2024_04_08,36.737117517621314,-75.93924,Sandbridge Beach,3,0.33,0.6325000000000001,10,9,"NIGHT_CLEAR,NIGHT_CLEAR,NIGHT_CLEAR,NIGHT_CLEAR","Offshore,Offshore,Offshore,Offshore",4
5842041f4e65fad6a7708a26,2024_04_08,36.818257440557794,-75.96666,Croatan to Pendleton,1.54,0.25505,0.5648500000000001,10,9,"NIGHT_CLEAR,NIGHT_CLEAR,NIGHT_CLEAR,NIGHT_CLEAR","Offshore,Offshore,Offshore,Offshore",4
5842041f4e65fad6a7708a27,2024_04_08,36.84318777204769,-75.9719,South End,2,0.22999999999999998,0.5325,10,9,"NIGHT_CLEAR,NIGHT_CLEAR,NIGHT_CLEAR,NIGHT_CLEAR","Offshore,Offshore,Offshore,Offshore",4
5842041f4e65fad6a7708a28,2024_04_08,37.08612627584661,-75.976121638199,Fishermans Island,0,0,0.068,11,11,"NIGHT_CLEAR,NIGHT_CLEAR,NIGHT_CLEAR,NIGHT_CLEAR","Cross-shore,Cross-shore,Cross-shore,Cross-shore",4
5842041f4e65fad6a7708a38,2024_04_08,35.254619418229026,-75.52074,Cape Hatteras Lighthouse,2.54,0.7797791666666667,1.0445670833333334,16,14,"NIGHT_CLEAR,NIGHT_CLEAR,NIGHT_CLEAR,NIGHT_CLEAR","Offshore,Offshore,Offshore,Offshore",4
5842041f4e65fad6a7708a3a,2024_04_08,35.54572934093336,-75.46477,Waves and Salvo,3,0.7725,1.0775000000000001,15,13,"NIGHT_CLEAR,NIGHT_CLEAR,NIGHT_CLEAR,NIGHT_CLEAR","Offshore,Offshore,Offshore,Offshore",4
5842041f4e65fad6a7708a3b,2024_04_08,35.22565892751075,-75.63606,Frisco,1,0,0.224,17,16,"NIGHT_CLEAR,NIGHT_CLEAR,NIGHT_CLEAR,NIGHT_CLEAR","Offshore,Offshore,Offshore,Cross-shore",4
5842041f4e65fad6a7708a3c,2024_04_08,35.13086,-75.90591,Ocracoke,1.75,0.2028625,0.3169725,15,15,"NIGHT_CLEAR,NIGHT_CLEAR,NIGHT_CLEAR,NIGHT_CLEAR","Onshore,Cross-shore,Onshore,Cross-shore",4
5842041f4e65fad6a7708a3d,2024_04_08,35.34721340158342,-75.50084,Avon Pier,2.54,0.7579833333333332,1.062366666666667,16,14,"NIGHT_CLEAR,NIGHT_CLEAR,NIGHT_CLEAR,NIGHT_CLEAR","Offshore,Offshore,Offshore,Offshore",4
5842041f4e65fad6a7708a3f,2024_04_08,35.71680821253768,-75.49243,Pea Island,2.75,0.58,0.885,12,12,"NIGHT_CLEAR,NIGHT_CLEAR,NIGHT_CLEAR,NIGHT_CLEAR","Offshore,Offshore,Offshore,Offshore",4
5842041f4e65fad6a7708a40,2024_04_08,35.97427620657821,-75.62984,Nags Head Pier,1.9175,0.5852666666666667,0.9000666666666667,12,10,"NIGHT_CLEAR,NIGHT_CLEAR,NIGHT_CLEAR,NIGHT_CLEAR","Offshore,Offshore,Offshore,Onshore",4
5842041f4e65fad6a7708a41,2024_04_08,36.0439998039079,-75.67288,Avalon Pier,3,0.675,0.9825,12,10,"NIGHT_CLEAR,NIGHT_CLEAR,NIGHT_CLEAR,NIGHT_CLEAR","Offshore,Offshore,Offshore,Offshore",4
5842041f4e65fad6a7708a42,2024_04_08,36.03043116489792,-75.66413,First Street,2.54,0.5161,0.94905,12,10,"NIGHT_CLEAR,NIGHT_CLEAR,NIGHT_CLEAR,NIGHT_CLEAR","Offshore,Offshore,Offshore,Offshore",4
5842041f4e65fad6a7708a43,2024_04_08,36.06829910590498,-75.6899,Old Station/Laundromats,3,0.5725,0.875,12,10,"NIGHT_CLEAR,NIGHT_CLEAR,NIGHT_CLEAR,NIGHT_CLEAR","Offshore,Offshore,Offshore,Offshore",4
5842041f4e65fad6a7708a44,2024_04_08,36.10126676607491,-75.71107,Kitty Hawk Pier,1.7925,0.56735,0.86465,12,10,"NIGHT_CLEAR,NIGHT_CLEAR,NIGHT_CLEAR,NIGHT_CLEAR","Offshore,Offshore,Offshore,Offshore",4
5842041f4e65fad6a7708a45,2024_04_08,36.18220630068973,-75.75013580649097,Duck Pier,2,0.2825,0.5875,11,9,"NIGHT_CLEAR,NIGHT_CLEAR,NIGHT_CLEAR,NIGHT_CLEAR","Offshore,Offshore,Offshore,Offshore",4
5842041f4e65fad6a7708a46,2024_04_08,36.37660668125033,-75.82409701687456,Corolla,3,0.3375,0.6425000000000001,11,9,"NIGHT_CLEAR,NIGHT_CLEAR,NIGHT_CLEAR,NIGHT_CLEAR","Offshore,Offshore,Offshore,Offshore",4
5842041f4e65fad6a7708a47,2024_04_08,33.90373404124834,-78.08241431707907,Oak Island,0,0,0.14,17,17,"NIGHT_CLEAR,NIGHT_CLEAR,NIGHT_CLEAR,NIGHT_CLEAR","Onshore,Onshore,Onshore,Onshore",4
5842041f4e65fad6a7708a48,2024_04_08,33.91108837766468,-78.29653,South Brunswick Beaches,1,0.108155,0.1689875,16,16,"NIGHT_CLEAR,NIGHT_CLEAR,NIGHT_CLEAR,NIGHT_CLEAR","Onshore,Onshore,Onshore,Onshore",4
5842041f4e65fad6a7708a49,2024_04_08,34.05683595651973,-77.88128,Carolina Beach Pier,0.5,0,0.23,15,14,"NIGHT_CLEAR,NIGHT_CLEAR,NIGHT_CLEAR,NIGHT_CLEAR","Cross-shore,Cross-shore,Cross-shore,Cross-shore",4
5842041f4e65fad6a7708a4a,2024_04_08,33.96841191816696,-77.9180242565498,Fort Fisher,1,0,0.225,15,14,"NIGHT_CLEAR,NIGHT_CLEAR,NIGHT_CLEAR,NIGHT_CLEAR","Cross-shore,Cross-shore,Cross-shore,Cross-shore",4
5842041f4e65fad6a7708a4b,2024_04_08,34.46776662988774,-77.47083191635772,Topsail Beach,0.5,0,0.2375,15,14,"NIGHT_CLEAR,NIGHT_CLEAR,NIGHT_CLEAR,NIGHT_CLEAR","Onshore,Onshore,Onshore,Onshore",4
5842041f4e65fad6a7708a4c,2024_04_08,34.69270354752445,-76.82854854446575,Iron Steamer,0,0,0.1875,16,14,"NIGHT_CLEAR,NIGHT_CLEAR,NIGHT_CLEAR,NIGHT_CLEAR","Onshore,Onshore,Onshore,Onshore",4
5842041f4e65fad6a7708a4f,2024_04_08,30.85132684893727,-81.42283496231143,Cumberland Island,1,0.0125,0.3175,18,18,"NIGHT_CLEAR,NIGHT_CLEAR,NIGHT_CLEAR,NIGHT_CLEAR","Onshore,Onshore,Onshore,Onshore",4
5842041f4e65fad6a7708a50,2024_04_08,34.686741128540874,-76.47516712138378,Cape Lookout National Seashore,1.25,0.14250000000000002,0.4475,17,17,"NIGHT_CLEAR,NIGHT_CLEAR,NIGHT_CLEAR,NIGHT_CLEAR","Onshore,Onshore,Onshore,Onshore",4
5842041f4e65fad6a7708a51,2024_04_08,31.10585419260024,-81.40422767604812,Jekyll Island,1,0,0.175,18,18,"NIGHT_CLEAR,NIGHT_CLEAR,NIGHT_CLEAR,NIGHT_CLEAR","Onshore,Onshore,Onshore,Onshore",4
5842041f4e65fad6a7708a52,2024_04_08,31.16212806376699,-81.32512426500224,Harbor Marker Buoys,0,0,0.22,18,18,"NIGHT_CLEAR,NIGHT_CLEAR,NIGHT_CLEAR,NIGHT_CLEAR","Onshore,Onshore,Onshore,Onshore",4
5842041f4e65fad6a7708a53,2024_04_08,31.20076299997009,-81.32629,Sea Island,1,0,0.2125,18,18,"NIGHT_CLEAR,NIGHT_CLEAR,NIGHT_CLEAR,NIGHT_CLEAR","Onshore,Onshore,Onshore,Onshore",4
5842041f4e65fad6a7708a54,2024_04_08,31.13553222995767,-81.38457634790909,St. Simons Island,1,0,0.23,18,18,"NIGHT_CLEAR,NIGHT_CLEAR,NIGHT_CLEAR,NIGHT_CLEAR","Onshore,Onshore,Onshore,Onshore",4
5842041f4e65fad6a7708a55,2024_04_08,31.33550077186516,-81.28383377408417,Wolf Island,0.25,0,0.2,18,18,"NIGHT_CLEAR,NIGHT_CLEAR,NIGHT_CLEAR,NIGHT_CLEAR","Onshore,Onshore,Onshore,Onshore",4
5842041f4e65fad6a7708a56,2024_04_08,31.2704493877174,-81.27324039152315,Little St. Simons Island,0.25,0,0.2375,18,18,"NIGHT_CLEAR,NIGHT_CLEAR,NIGHT_CLEAR,NIGHT_CLEAR","Onshore,Onshore,Onshore,Onshore",4
5842041f4e65fad6a7708a57,2024_04_08,31.39261761368919,-81.26190520231917,Sapelo Island,1,0,0.2025,18,18,"NIGHT_CLEAR,NIGHT_CLEAR,NIGHT_CLEAR,NIGHT_CLEAR","Onshore,Onshore,Onshore,Onshore",4
5842041f4e65fad6a7708a58,2024_04_08,34.42458783809001,-77.54492,Surf City Pier,0.5,0,0.23249999999999998,15,14,"NIGHT_CLEAR,NIGHT_CLEAR,NIGHT_CLEAR,NIGHT_CLEAR","Onshore,Onshore,Onshore,Onshore",4
5842041f4e65fad6a7708a59,2024_04_08,31.4231993614213,-81.24725340591522,Cabretta Island,1,0,0.2225,18,18,"NIGHT_CLEAR,NIGHT_CLEAR,NIGHT_CLEAR,NIGHT_CLEAR","Onshore,Onshore,Onshore,Onshore",4
5842041f4e65fad6a7708a5a,2024_04_08,31.46684389030369,-81.2100056410468,Blackbeard Island,1,0,0.2025,17,17,"NIGHT_CLEAR,NIGHT_CLEAR,NIGHT_CLEAR,NIGHT_CLEAR","Onshore,Onshore,Onshore,Onshore",4
5842041f4e65fad6a7708a5b,2024_04_08,31.85953587631629,-80.99031310336719,Wassaw Island/South End,0,0,0.15,18,18,"NIGHT_CLEAR,NIGHT_CLEAR,NIGHT_CLEAR,NIGHT_CLEAR","Onshore,Onshore,Onshore,Onshore",4
5842041f4e65fad6a7708a5c,2024_04_08,31.62535662342983,-81.13328352167974,St. Catherines Island,1,0,0.24,18,18,"NIGHT_CLEAR,NIGHT_CLEAR,NIGHT_CLEAR,NIGHT_CLEAR","Onshore,Onshore,Onshore,Onshore",4
5842041f4e65fad6a7708a5d,2024_04_08,31.76502169596568,-81.07655443806622,Ossabaw Island,1,0,0.1875,18,18,"NIGHT_CLEAR,NIGHT_CLEAR,NIGHT_CLEAR,NIGHT_CLEAR","Onshore,Onshore,Onshore,Onshore",4
5842041f4e65fad6a7708a5e,2024_04_08,31.90593619092352,-80.93589231700857,Wassaw Island/North End,1,0,0.2125,18,18,"NIGHT_CLEAR,NIGHT_CLEAR,NIGHT_CLEAR,NIGHT_CLEAR","Onshore,Onshore,Onshore,Onshore",4
5842041f4e65fad6a7708a5f,2024_04_08,31.96738675414547,-80.86977980706155,Little Tybee Island,1,0,0.2125,17,17,"NIGHT_CLEAR,NIGHT_CLEAR,NIGHT_CLEAR,NIGHT_CLEAR","Onshore,Onshore,Onshore,Onshore",4
5842041f4e65fad6a7708a60,2024_04_08,31.9812255780179,-80.84773973467009,South Tybee Sandbars,0,0,0.2275,17,17,"NIGHT_CLEAR,NIGHT_CLEAR,NIGHT_CLEAR,NIGHT_CLEAR","Onshore,Onshore,Onshore,Onshore",4
5842041f4e65fad6a7708a61,2024_04_08,32.01226,-80.83983,Sugar Shack,1,0,0.1775,17,17,"NIGHT_CLEAR,NIGHT_CLEAR,NIGHT_CLEAR,NIGHT_CLEAR","Cross-shore,Cross-shore,Cross-shore,Cross-shore",4
5842041f4e65fad6a7708a62,2024_04_08,31.98722842396969,-80.84773,18th St. Jetty,0,0.15936,0.249,17,17,"NIGHT_CLEAR,NIGHT_CLEAR,NIGHT_CLEAR,NIGHT_CLEAR","Onshore,Onshore,Onshore,Onshore",4
5842041f4e65fad6a7708a64,2024_04_08,34.013473721006676,-77.8991,"Alabama Ave., Kure Beach",1,0,0.22,16,16,"NIGHT_CLEAR,NIGHT_CLEAR,NIGHT_CLEAR,NIGHT_CLEAR","Offshore,Offshore,Offshore,Offshore",4
5842041f4e65fad6a7708a65,2024_04_08,34.20859853336924,-77.79293,"C Street, Wrightsville Beach",1,0,0.235,15,14,"NIGHT_CLEAR,NIGHT_CLEAR,NIGHT_CLEAR,NIGHT_CLEAR","Cross-shore,Cross-shore,Cross-shore,Cross-shore",4
5842041f4e65fad6a7708a66,2024_04_08,32.831,-79.71,Dewees Island,0,0,0.15,17,17,"NIGHT_CLEAR,NIGHT_CLEAR,NIGHT_CLEAR,NIGHT_CLEAR","Onshore,Onshore,Onshore,Onshore",4
5842041f4e65fad6a7708a67,2024_04_08,33.82924423172106,-78.62813,Cherry Grove Pier,0,0,0.13,16,16,"NIGHT_CLEAR,NIGHT_CLEAR,NIGHT_CLEAR,NIGHT_CLEAR","Onshore,Onshore,Onshore,Onshore",4
5842041f4e65fad6a7708a69,2024_04_08,34.27197439666496,-77.74050223196774,Figure Eight and Shell Islands,1,0,0.2325,15,14,"NIGHT_CLEAR,NIGHT_CLEAR,NIGHT_CLEAR,NIGHT_CLEAR","Onshore,Onshore,Onshore,Onshore",4
5842041f4e65fad6a7708a6b,2024_04_08,33.49041958261793,-79.07666070599386,North End,1,0,0.165,17,17,"NIGHT_CLEAR,NIGHT_CLEAR,NIGHT_CLEAR,NIGHT_CLEAR","Onshore,Onshore,Onshore,Onshore",4
5842041f4e65fad6a7708a6c,2024_04_08,33.39537062495087,-79.13835037835189,The South End,1,0,0.17,17,17,"NIGHT_CLEAR,NIGHT_CLEAR,NIGHT_CLEAR,NIGHT_CLEAR","Onshore,Onshore,Cross-shore,Cross-shore",4
5842041f4e65fad6a7708a6d,2024_04_08,33.29001727666697,-79.17190003352977,North Island,1,0,0.2675,17,17,"NIGHT_CLEAR,NIGHT_CLEAR,NIGHT_CLEAR,NIGHT_CLEAR","Cross-shore,Cross-shore,Cross-shore,Cross-shore",4
5842041f4e65fad6a7708a6e,2024_04_08,32.90929771158952,-79.57810400297359,Bull Island,1,0,0.20500000000000002,17,17,"NIGHT_CLEAR,NIGHT_CLEAR,NIGHT_CLEAR,NIGHT_CLEAR","Onshore,Onshore,Onshore,Onshore",4
5842041f4e65fad6a7708a6f,2024_04_08,31.99153112815895,-80.84543050470074,Tybee Island Pier,0,0,0.15,17,17,"NIGHT_CLEAR,NIGHT_CLEAR,NIGHT_CLEAR,NIGHT_CLEAR","Onshore,Onshore,Onshore,Onshore",4
5842041f4e65fad6a7708a70,2024_04_08,33.03478144356316,-79.35021028265125,Cape Romain,1,0,0.26,17,17,"NIGHT_CLEAR,NIGHT_CLEAR,NIGHT_CLEAR,NIGHT_CLEAR","Onshore,Onshore,Onshore,Onshore",4
5842041f4e65fad6a7708a71,2024_04_08,33.43231073271028,-79.11789,The Pier,0,0.1288825,0.20138,17,17,"NIGHT_CLEAR,NIGHT_CLEAR,NIGHT_CLEAR,NIGHT_CLEAR","Onshore,Onshore,Cross-shore,Cross-shore",4
5842041f4e65fad6a7708a72,2024_04_08,33.45423621397969,-79.10497798178424,South Litchfield,1,0,0.17,17,17,"NIGHT_CLEAR,NIGHT_CLEAR,NIGHT_CLEAR,NIGHT_CLEAR","Onshore,Onshore,Onshore,Onshore",4
5842041f4e65fad6a7708a73,2024_04_08,34.19316590251396,-77.8045,Crystal Pier,1,0,0.1975,15,14,"NIGHT_CLEAR,NIGHT_CLEAR,NIGHT_CLEAR,NIGHT_CLEAR","Offshore,Cross-shore,Cross-shore,Cross-shore",4
5842041f4e65fad6a7708a74,2024_04_08,33.68628680045124,-78.88346,Myrtle Beach,1,0,0.16,17,17,"NIGHT_CLEAR,NIGHT_CLEAR,NIGHT_CLEAR,NIGHT_CLEAR","Onshore,Onshore,Onshore,Onshore",4
5842041f4e65fad6a7708a75,2024_04_08,32.66166297145973,-79.91951806398808,10th Street,1,0,0.2375,17,17,"NIGHT_CLEAR,NIGHT_CLEAR,NIGHT_CLEAR,NIGHT_CLEAR","Onshore,Onshore,Onshore,Onshore",4
5842041f4e65fad6a7708a76,2024_04_08,33.16729555197199,-79.19829236867845,South Island,0,0,0.27,17,17,"NIGHT_CLEAR,NIGHT_CLEAR,NIGHT_CLEAR,NIGHT_CLEAR","Cross-shore,Onshore,Cross-shore,Cross-shore",4
5842041f4e65fad6a7708a77,2024_04_08,32.595,-80.088,Kiawah Island/Seabrook Island,1,0,0.17,17,17,"NIGHT_CLEAR,NIGHT_CLEAR,NIGHT_CLEAR,NIGHT_CLEAR","Onshore,Onshore,Onshore,Onshore",4
5842041f4e65fad6a7708a78,2024_04_08,32.51356930575787,-80.28223,Edisto Beach,1,0.13792,0.2155,17,17,"NIGHT_CLEAR,NIGHT_CLEAR,NIGHT_CLEAR,NIGHT_CLEAR","Onshore,Onshore,Onshore,Onshore",4
5842041f4e65fad6a7708a79,2024_04_08,32.366270751262,-80.43911,Hunting Island,1,0.1437775,0.2246525,18,18,"NIGHT_CLEAR,NIGHT_CLEAR,NIGHT_CLEAR,NIGHT_CLEAR","Onshore,Cross-shore,Onshore,Onshore",4
5842041f4e65fad6a7708a7a,2024_04_08,32.65337734408365,-79.93983,Folly Beach Pier,1,0,0.18,17,16,"NIGHT_CLEAR,NIGHT_CLEAR,NIGHT_CLEAR,NIGHT_CLEAR","Onshore,Onshore,Onshore,Onshore",4
5842041f4e65fad6a7708a7b,2024_04_08,33.41209545530049,-79.13026341393126,South Jetty,1,0,0.17,17,17,"NIGHT_CLEAR,NIGHT_CLEAR,NIGHT_CLEAR,NIGHT_CLEAR","Onshore,Onshore,Cross-shore,Cross-shore",4
5842041f4e65fad6a7708a7c,2024_04_08,32.31115640606869,-80.48564,Fripp Island,1,0.15193,0.237385,17,17,"NIGHT_CLEAR,NIGHT_CLEAR,NIGHT_CLEAR,NIGHT_CLEAR","Onshore,Onshore,Onshore,Onshore",4
5842041f4e65fad6a7708a7d,2024_04_08,32.14365226036034,-80.74402,Hilton Head Island,0,0,0.07,17,17,"NIGHT_CLEAR,NIGHT_CLEAR,NIGHT_CLEAR,NIGHT_CLEAR","Onshore,Onshore,Onshore,Onshore",4
5842041f4e65fad6a7708a7e,2024_04_08,29.70405364733744,-81.22426,Matanzas Inlet,1,0.035,0.3375,19,18,"NIGHT_CLEAR,NIGHT_CLEAR,NIGHT_CLEAR,NIGHT_CLEAR","Onshore,Onshore,Onshore,Onshore",4
5842041f4e65fad6a7708a81,2024_04_08,29.76878537149042,-81.25109,Crescent Beach,1,0.0475,0.355,19,19,"NIGHT_CLEAR,NIGHT_CLEAR,NIGHT_CLEAR,NIGHT_CLEAR","Onshore,Onshore,Onshore,Onshore",4
5842041f4e65fad6a7708a82,2024_04_08,32.80251718689188,-79.73221919500764,Wild Dunes,1,0,0.24,17,17,"NIGHT_CLEAR,NIGHT_CLEAR,NIGHT_CLEAR,NIGHT_CLEAR","Onshore,Onshore,Onshore,Onshore",4
5842041f4e65fad6a7708a84,2024_04_08,32.75733539419244,-79.83258856064796,Bert's Bar,1,0,0.16,17,17,"NIGHT_CLEAR,NIGHT_CLEAR,NIGHT_CLEAR,NIGHT_CLEAR","Onshore,Onshore,Onshore,Onshore",4
5842041f4e65fad6a7708a85,2024_04_08,32.66829212943039,-79.90735,Washout,1,0,0.2,17,16,"NIGHT_CLEAR,NIGHT_CLEAR,NIGHT_CLEAR,NIGHT_CLEAR","Onshore,Onshore,Onshore,Onshore",4
5842041f4e65fad6a7708a86,2024_04_08,32.78452968219067,-79.78540233488354,The Pier/Windjammer,0.5,0,0.2125,17,17,"NIGHT_CLEAR,NIGHT_CLEAR,NIGHT_CLEAR,NIGHT_CLEAR","Onshore,Onshore,Onshore,Onshore",4
5842041f4e65fad6a7708a87,2024_04_08,29.86618162637438,-81.2662150259608,Anastasia Park (The Entrance),1,0.035,0.3375,19,19,"NIGHT_CLEAR,NIGHT_CLEAR,NIGHT_CLEAR,NIGHT_CLEAR","Onshore,Onshore,Onshore,Onshore",4
5842041f4e65fad6a7708a89,2024_04_08,29.89149785916623,-81.2723223244215,Blowholes,1,0.02,0.3225,24,22,"NIGHT_CLEAR,NIGHT_CLEAR,NIGHT_CLEAR,NIGHT_CLEAR","Onshore,Onshore,Onshore,Onshore",4
5842041f4e65fad6a7708a8a,2024_04_08,30.16227112983666,-81.35502907491218,Crossroads,1,0.08499999999999999,0.3925,24,22,"NIGHT_CLEAR,NIGHT_CLEAR,NIGHT_CLEAR,NIGHT_CLEAR","Onshore,Onshore,Onshore,Onshore",4
5842041f4e65fad6a7708a8b,2024_04_08,30.19308537587637,-81.36314247820911,Sawgrass,1,0.08499999999999999,0.3925,24,22,"NIGHT_CLEAR,NIGHT_CLEAR,NIGHT_CLEAR,NIGHT_CLEAR","Onshore,Onshore,Onshore,Onshore",4
5842041f4e65fad6a7708a8c,2024_04_08,30.34696027700899,-81.39451,18th Street,0,0.14554250000000002,0.22740749999999998,18,18,"NIGHT_CLEAR,NIGHT_CLEAR,NIGHT_CLEAR,NIGHT_CLEAR","Onshore,Onshore,Onshore,Onshore",4
5842041f4e65fad6a7708a8d,2024_04_08,30.381793,-81.39686,Mayport Poles,1,0.09,0.395,18,18,"NIGHT_CLEAR,NIGHT_CLEAR,NIGHT_CLEAR,NIGHT_CLEAR","Onshore,Onshore,Onshore,Onshore",4
5842041f4e65fad6a7708a8e,2024_04_08,30.390516,-81.395591,Blue Roofs,1,0.0675,0.3725,18,18,"NIGHT_CLEAR,NIGHT_CLEAR,NIGHT_CLEAR,NIGHT_CLEAR","Onshore,Onshore,Onshore,Onshore",4
5842041f4e65fad6a7708a8f,2024_04_08,30.40517712722211,-81.40074116169004,Huguenot Park (North Jetty),1,0.02,0.325,18,18,"NIGHT_CLEAR,NIGHT_CLEAR,NIGHT_CLEAR,NIGHT_CLEAR","Onshore,Onshore,Onshore,Onshore",4
5842041f4e65fad6a7708a90,2024_04_08,30.47788918872762,-81.41055821335078,Talbot Island,1,0.43008749999999996,0.590835,19,18,"NIGHT_CLEAR,NIGHT_CLEAR,NIGHT_CLEAR,NIGHT_CLEAR","Onshore,Onshore,Onshore,Onshore",4
5842041f4e65fad6a7708a91,2024_04_08,30.66753984549761,-81.42983,Main Beach,1,0,0.265,18,18,"NIGHT_CLEAR,NIGHT_CLEAR,NIGHT_CLEAR,NIGHT_CLEAR","Onshore,Onshore,Onshore,Onshore",4
5842041f4e65fad6a7708a92,2024_04_08,30.69983581209126,-81.42483,Ft. Clinch State Park,1,0,0.3,18,18,"NIGHT_CLEAR,NIGHT_CLEAR,NIGHT_CLEAR,NIGHT_CLEAR","Onshore,Onshore,Onshore,Onshore",4
5842041f4e65fad6a7708a93,2024_04_08,30.62059700777582,-81.437252942757425,Amelia Pier,0.5,0.0025,0.305,18,18,"NIGHT_CLEAR,NIGHT_CLEAR,NIGHT_CLEAR,NIGHT_CLEAR","Onshore,Onshore,Onshore,Onshore",4
5842041f4e65fad6a7708a95,2024_04_08,28.95125170929067,-80.83837,Bethune Beach,1,0.2175,0.5225,21,21,"NIGHT_CLEAR,NIGHT_CLEAR,NIGHT_MOSTLY_CLOUDY,NIGHT_MOSTLY_CLOUDY","Onshore,Onshore,Onshore,Onshore",4
5842041f4e65fad6a7708a96,2024_04_08,29.03874288905362,-80.8933424949646,Flagler Ave.,1,0.1525,0.455,24,22,"NIGHT_MOSTLY_CLOUDY,NIGHT_MOSTLY_CLOUDY,NIGHT_MOSTLY_CLOUDY,NIGHT_MOSTLY_CLOUDY","Onshore,Onshore,Onshore,Onshore",4
5842041f4e65fad6a7708a98,2024_04_08,30.332297686992757,-81.39319,Atlantic Beach,0,0.1429975,0.22343749999999998,18,18,"NIGHT_CLEAR,NIGHT_CLEAR,NIGHT_CLEAR,NIGHT_CLEAR","Onshore,Onshore,Onshore,Onshore",4
5842041f4e65fad6a7708a99,2024_04_08,29.87530059952514,-81.26757958498874,Middles,1,0.03,0.33,24,22,"NIGHT_CLEAR,NIGHT_CLEAR,NIGHT_CLEAR,NIGHT_CLEAR","Onshore,Onshore,Onshore,Onshore",4
5842041f4e65fad6a7708a9a,2024_04_08,29.146475528378218,-80.96347,Sunglow Pier,1,0.1525,0.455,20,20,"NIGHT_MOSTLY_CLOUDY,NIGHT_CLEAR,NIGHT_MOSTLY_CLOUDY,NIGHT_MOSTLY_CLOUDY","Onshore,Onshore,Onshore,Onshore",4
5842041f4e65fad6a7708a9b,2024_04_08,30.02251238001095,-81.32183077344881,Gate Station,1,0.03,0.3325,24,22,"NIGHT_CLEAR,NIGHT_CLEAR,NIGHT_CLEAR,NIGHT_CLEAR","Onshore,Onshore,Onshore,Onshore",4
5842041f4e65fad6a7708a9c,2024_04_08,29.33976495417899,-81.0606,Bicentennial Park,1,0.14500000000000002,0.4475,19,19,"NIGHT_MOSTLY_CLOUDY,NIGHT_CLEAR,NIGHT_MOSTLY_CLOUDY,NIGHT_CLOUDY","Onshore,Onshore,Onshore,Onshore",4
5842041f4e65fad6a7708a9d,2024_04_08,29.08257353385602,-80.92137,Ponce Inlet,1,0.3275,0.63,20,19,"NIGHT_MOSTLY_CLOUDY,NIGHT_MOSTLY_CLOUDY,NIGHT_MOSTLY_CLOUDY,NIGHT_MOSTLY_CLOUDY","Onshore,Onshore,Onshore,Onshore",4
5842041f4e65fad6a7708a9f,2024_04_08,27.862962005874696,-80.44668,Sebastian Inlet,1,0.6538,0.8138225,24,23,"NIGHT_MOSTLY_CLOUDY,NIGHT_MOSTLY_CLOUDY,NIGHT_CLEAR,NIGHT_CLEAR","Onshore,Onshore,Onshore,Onshore",4
5842041f4e65fad6a7708aa0,2024_04_08,30.292626880836885,-81.38579,Jacksonville Beach Pier,1.5,0.0825,0.385,19,18,"NIGHT_CLEAR,NIGHT_CLEAR,NIGHT_CLEAR,NIGHT_CLEAR","Onshore,Onshore,Onshore,Onshore",4
5842041f4e65fad6a7708aa1,2024_04_08,29.22878213864532,-81.00551,Main Street North,1,0.411895,0.581445,20,20,"NIGHT_CLEAR,NIGHT_CLEAR,NIGHT_MOSTLY_CLOUDY,NIGHT_CLEAR","Onshore,Onshore,Onshore,Onshore",4
5842041f4e65fad6a7708aa2,2024_04_08,29.21860397328164,-81.0019,Daytona Beach,1,0.1525,0.4575,20,20,"NIGHT_CLEAR,NIGHT_CLEAR,NIGHT_MOSTLY_CLOUDY,NIGHT_CLEAR","Onshore,Onshore,Onshore,Onshore",4
5842041f4e65fad6a7708aa3,2024_04_08,27.47531255634912,-80.28914,Ft. Pierce Inlet,1.75,0.2675,0.57,24,23,"NIGHT_CLEAR,NIGHT_MOSTLY_CLEAR,NIGHT_BRIEF_SHOWERS,NIGHT_CLEAR","Onshore,Onshore,Onshore,Onshore",4
5842041f4e65fad6a7708aa4,2024_04_08,29.29239875585548,-81.0386,Ormond Beach,1,0.245,0.55,20,20,"NIGHT_MOSTLY_CLOUDY,NIGHT_MOSTLY_CLOUDY,NIGHT_CLEAR,NIGHT_CLEAR","Onshore,Onshore,Onshore,Onshore",4
5842041f4e65fad6a7708aa5,2024_04_08,29.91629441498523,-81.28801,Vilano,1,0.0175,0.32,19,19,"NIGHT_CLEAR,NIGHT_CLEAR,NIGHT_CLEAR,NIGHT_CLEAR","Onshore,Onshore,Onshore,Onshore",4
5842041f4e65fad6a7708aa6,2024_04_08,27.876230736320828,-80.4551,Spanish House,1,0.4875,0.7925,24,23,"NIGHT_CLEAR,NIGHT_MOSTLY_CLOUDY,NIGHT_CLEAR,NIGHT_MOSTLY_CLOUDY","Onshore,Onshore,Onshore,Onshore",4
5842041f4e65fad6a7708aa7,2024_04_08,28.64397251741012,-80.62328519781694,Playalinda,1,0.2525,0.5575,22,22,"NIGHT_MOSTLY_CLOUDY,NIGHT_MOSTLY_CLOUDY,NIGHT_MOSTLY_CLOUDY,NIGHT_CLEAR","Onshore,Onshore,Onshore,Onshore",4
5842041f4e65fad6a7708aa8,2024_04_08,28.406142,-80.588858,Jetty Park,1,0.0275,0.335,22,22,"NIGHT_MOSTLY_CLOUDY,NIGHT_MOSTLY_CLOUDY,NIGHT_CLEAR,NIGHT_CLEAR","Onshore,Onshore,Onshore,Onshore",4
5842041f4e65fad6a7708aa9,2024_04_08,28.49083243010974,-80.58001715986319,Kennedy Space Center,0,0.2825,0.59,22,22,"NIGHT_MOSTLY_CLOUDY,NIGHT_CLEAR,NIGHT_MOSTLY_CLOUDY,NIGHT_CLOUDY","Onshore,Onshore,Onshore,Onshore",4
5842041f4e65fad6a7708aab,2024_04_08,28.336757013024314,-80.60568,Lori Wilson Park,1,0.1825,0.4875,24,23,"NIGHT_MOSTLY_CLOUDY,NIGHT_CLEAR,NIGHT_MOSTLY_CLOUDY,NIGHT_OVERCAST","Onshore,Onshore,Onshore,Onshore",4
5842041f4e65fad6a7708aad,2024_04_08,27.76388821683801,-80.3962958234027,Wabasso,1,0.445,0.75,23,23,"NIGHT_CLEAR,NIGHT_CLEAR,NIGHT_MOSTLY_CLOUDY,NIGHT_MOSTLY_CLOUDY","Onshore,Onshore,Onshore,Onshore",4
5842041f4e65fad6a7708aae,2024_04_08,27.521583322459,-80.30987620353699,P.V. Martin's,1,0.565,0.87,24,23,"NIGHT_CLEAR,NIGHT_MOSTLY_CLEAR,NIGHT_MOSTLY_CLOUDY,NIGHT_MOSTLY_CLEAR","Onshore,Onshore,Onshore,Onshore",4
5842041f4e65fad6a7708aaf,2024_04_08,27.644996047720046,-80.35242676734924,Riomar,1,0.5725,0.8775,24,23,"NIGHT_CLEAR,NIGHT_CLEAR,NIGHT_MOSTLY_CLOUDY,NIGHT_MOSTLY_CLOUDY","Onshore,Onshore,Onshore,Onshore",4
5842041f4e65fad6a7708ab1,2024_04_08,27.670121806659253,-80.36026954650879,Vero Pier,1,0.575,0.885,24,23,"NIGHT_CLEAR,NIGHT_CLEAR,NIGHT_BRIEF_SHOWERS,NIGHT_MOSTLY_CLOUDY","Onshore,Onshore,Onshore,Onshore",4
5842041f4e65fad6a7708ab2,2024_04_08,28.047705032021486,-80.54680109024048,Spessard Holland,2,0.5522525,0.7992125,24,23,"NIGHT_MOSTLY_CLOUDY,NIGHT_MOSTLY_CLOUDY,NIGHT_SHOWERS,NIGHT_CLEAR","Onshore,Onshore,Onshore,Onshore",4
5842041f4e65fad6a7708ab7,2024_04_08,28.135426226217064,-80.57895541191101,The Radisson,1,0.395,0.6975,24,23,"NIGHT_CLEAR,NIGHT_CLEAR,NIGHT_CLEAR,NIGHT_CLEAR","Onshore,Onshore,Onshore,Onshore",4
5842041f4e65fad6a7708ab8,2024_04_08,28.26664623907351,-80.60448467731476,Picnic Tables,1,0.355,0.6625,22,22,"NIGHT_MOSTLY_CLEAR,NIGHT_CLEAR,NIGHT_CLEAR,NIGHT_OVERCAST","Onshore,Onshore,Onshore,Onshore",4
5842041f4e65fad6a7708ab9,2024_04_08,28.200840983180232,-80.59493,Perkins,1,0.315,0.6225,24,23,"NIGHT_CLEAR,NIGHT_CLEAR,NIGHT_CLEAR,NIGHT_MOSTLY_CLOUDY","Onshore,Onshore,Onshore,Onshore",4
5842041f4e65fad6a7708aba,2024_04_08,28.185652556759443,-80.59154,RC's,2,0.3775,0.6775,24,23,"NIGHT_MOSTLY_CLEAR,NIGHT_MOSTLY_CLEAR,NIGHT_CLEAR,NIGHT_CLEAR","Onshore,Onshore,Onshore,Onshore",4
5842041f4e65fad6a7708abc,2024_04_08,28.252541991968208,-80.60269,2nd Light,1,0.35250000000000004,0.6575,22,22,"NIGHT_MOSTLY_CLEAR,NIGHT_CLEAR,NIGHT_CLEAR,NIGHT_OVERCAST","Onshore,Onshore,Onshore,Onshore",4
5842041f4e65fad6a7708abd,2024_04_08,27.901611308716447,-80.4697,Bonsteel Park,1,0.48,0.7875000000000001,24,23,"NIGHT_MOSTLY_CLOUDY,NIGHT_MOSTLY_CLOUDY,NIGHT_CLEAR,NIGHT_MOSTLY_CLOUDY","Onshore,Onshore,Onshore,Onshore",4
5842041f4e65fad6a7708abe,2024_04_08,28.2423394657007,-80.60104,Hangar's Beach,1,0.375,0.68,24,23,"NIGHT_MOSTLY_CLEAR,NIGHT_CLEAR,NIGHT_CLEAR,NIGHT_MOSTLY_CLOUDY","Onshore,Onshore,Onshore,Onshore",4
5842041f4e65fad6a7708abf,2024_04_08,27.34018197146798,-80.23278,Walton Rocks,1,0.5175000000000001,0.8200000000000001,24,23,"NIGHT_MOSTLY_CLOUDY,NIGHT_MOSTLY_CLOUDY,NIGHT_MOSTLY_CLOUDY,NIGHT_MOSTLY_CLOUDY","Onshore,Onshore,Onshore,Onshore",4
5842041f4e65fad6a7708ac0,2024_04_08,25.80407401902198,-80.1222227290161,30th Street,1,0,0.29,24,24,"NIGHT_MOSTLY_CLEAR,NIGHT_MOSTLY_CLOUDY,NIGHT_MOSTLY_CLOUDY,NIGHT_CLEAR","Onshore,Onshore,Onshore,Onshore",4
5842041f4e65fad6a7708ac1,2024_04_08,25.76570280215999,-80.12983,South Beach,1,0.045,0.34750000000000003,26,24,"NIGHT_MOSTLY_CLEAR,NIGHT_MOSTLY_CLOUDY,NIGHT_MOSTLY_CLOUDY,NIGHT_MOSTLY_CLOUDY","Onshore,Onshore,Onshore,Onshore",4
5842041f4e65fad6a7708ac2,2024_04_08,26.058022412197,-80.10873562327671,Dania Pier,1,0.04,0.3425,24,24,"NIGHT_MOSTLY_CLOUDY,NIGHT_CLEAR,NIGHT_CLEAR,NIGHT_MOSTLY_CLOUDY","Onshore,Onshore,Onshore,Onshore",4
5842041f4e65fad6a7708ac3,2024_04_08,26.04825428257198,-80.11153150137932,Franklin Street,1,0.2225,0.53,24,24,"NIGHT_MOSTLY_CLOUDY,NIGHT_CLEAR,NIGHT_CLEAR,NIGHT_MOSTLY_CLOUDY","Onshore,Onshore,Onshore,Onshore",4
5842041f4e65fad6a7708ac4,2024_04_08,26.09086461141498,-80.10728410144065,John Lloyd State Park,1,0.2225,0.5275000000000001,24,24,"NIGHT_CLEAR,NIGHT_CLEAR,NIGHT_CLEAR,NIGHT_MOSTLY_CLOUDY","Onshore,Onshore,Onshore,Onshore",4
5842041f4e65fad6a7708ac5,2024_04_08,26.0971397396683,-80.10298876028907,Spoils,0,0.055,0.36,24,24,"NIGHT_MOSTLY_CLOUDY,NIGHT_CLEAR,NIGHT_CLEAR,NIGHT_MOSTLY_CLOUDY","Onshore,Onshore,Onshore,Onshore",4
5842041f4e65fad6a7708ac6,2024_04_08,26.18920557475824,-80.09224470008016,Commercial Pier,1,0.1225,0.4275,24,24,"NIGHT_MOSTLY_CLOUDY,NIGHT_CLEAR,NIGHT_CLEAR,NIGHT_MOSTLY_CLOUDY","Onshore,Onshore,Onshore,Onshore",4
5842041f4e65fad6a7708ac7,2024_04_08,28.289851576629342,-80.6063,16th St. South,1,0.2775,0.5775,24,23,"NIGHT_CLEAR,NIGHT_CLEAR,NIGHT_MOSTLY_CLEAR,NIGHT_OVERCAST","Onshore,Onshore,Onshore,Onshore",4
5842041f4e65fad6a7708ac8,2024_04_08,26.23467460139735,-80.0874,Pompano Pier,1,0,0.28,26,24,"NIGHT_MOSTLY_CLOUDY,NIGHT_MOSTLY_CLOUDY,NIGHT_CLEAR,NIGHT_MOSTLY_CLOUDY","Onshore,Onshore,Onshore,Onshore",4
5842041f4e65fad6a7708acb,2024_04_08,26.44179551370651,-80.05928855229453,Atlantic Dunes Park,1.5,0.2082675,0.38397250000000005,26,24,"NIGHT_MOSTLY_CLEAR,NIGHT_CLOUDY,NIGHT_OVERCAST,NIGHT_OVERCAST","Offshore,Onshore,Cross-shore,Onshore",4
5842041f4e65fad6a7708acd,2024_04_08,26.62215707439298,-80.03599398392342,Hilton Hotel Backyard,1,0.44,0.7424999999999999,26,24,"NIGHT_CLEAR,NIGHT_CLEAR,NIGHT_OVERCAST,NIGHT_CLEAR","Onshore,Onshore,Onshore,Onshore",4
5842041f4e65fad6a7708ace,2024_04_08,26.96418190555367,-80.07769168113562,Coral Cove Park,1,0.635,0.9375,24,23,"NIGHT_MOSTLY_CLOUDY,NIGHT_OVERCAST,NIGHT_MOSTLY_CLOUDY,NIGHT_MOSTLY_CLOUDY","Onshore,Onshore,Onshore,Onshore",4
5842041f4e65fad6a7708acf,2024_04_08,26.7029496416037,-80.0318372872607,Palm Beach,2,0.4675,0.7725,26,24,"NIGHT_CLEAR,NIGHT_MOSTLY_CLOUDY,NIGHT_OVERCAST,NIGHT_MOSTLY_CLOUDY","Onshore,Onshore,Onshore,Onshore",4
5842041f4e65fad6a7708ad0,2024_04_08,26.97679878167375,-80.08141631388132,Blowing Rocks,1,0.55,0.855,24,23,"NIGHT_MOSTLY_CLOUDY,NIGHT_OVERCAST,NIGHT_MOSTLY_CLOUDY,NIGHT_MOSTLY_CLOUDY","Onshore,Onshore,Onshore,Onshore",4
5842041f4e65fad6a7708ad2,2024_04_08,26.45661880078336,-80.057,Delray Beach,1,0.14750000000000002,0.45,26,24,"NIGHT_MOSTLY_CLEAR,NIGHT_CLOUDY,NIGHT_OVERCAST,NIGHT_OVERCAST","Onshore,Onshore,Onshore,Onshore",4
5842041f4e65fad6a7708ad3,2024_04_08,27.205685534312778,-80.16826629638672,Fletcher's,1,0.515,0.8225,24,23,"NIGHT_CLEAR,NIGHT_MOSTLY_CLOUDY,NIGHT_MOSTLY_CLOUDY,NIGHT_MOSTLY_CLOUDY","Onshore,Onshore,Onshore,Onshore",4
5842041f4e65fad6a7708ad5,2024_04_08,26.5848450388814,-80.03649735753257,Lantana Public Beach,1,0.4975,0.8025,26,24,"NIGHT_CLEAR,NIGHT_CLEAR,NIGHT_OVERCAST,NIGHT_MOSTLY_CLOUDY","Onshore,Onshore,Onshore,Onshore",4
5842041f4e65fad6a7708ad6,2024_04_08,25.77468432731322,-80.12884045797499,5th Street,1,0.115,0.4175,24,24,"NIGHT_CLEAR,NIGHT_MOSTLY_CLOUDY,NIGHT_MOSTLY_CLOUDY,NIGHT_MOSTLY_CLOUDY","Onshore,Onshore,Onshore,Onshore",4
5842041f4e65fad6a7708ad7,2024_04_08,25.795157990715975,-80.12527585029602,21st Street,1,0,0.2775,24,24,"NIGHT_CLEAR,NIGHT_MOSTLY_CLOUDY,NIGHT_MOSTLY_CLOUDY,NIGHT_MOSTLY_CLOUDY","Onshore,Onshore,Onshore,Onshore",4
5842041f4e65fad6a7708ad8,2024_04_08,25.897806453088073,-80.1211827993393,Haulover Inlet (South Jetty),1,0.0925,0.4,24,24,"NIGHT_CLEAR,NIGHT_CLEAR,NIGHT_CLEAR,NIGHT_MOSTLY_CLOUDY","Onshore,Onshore,Onshore,Onshore",4
5842041f4e65fad6a7708ad9,2024_04_08,25.90147392328634,-80.12110769748688,Haulover Inlet (North Jetty),1,0.225,0.5275000000000001,24,24,"NIGHT_CLEAR,NIGHT_CLEAR,NIGHT_CLEAR,NIGHT_MOSTLY_CLOUDY","Onshore,Onshore,Onshore,Onshore",4
5842041f4e65fad6a7708ada,2024_04_08,25.87049374242476,-80.11828560342356,85th Street,1,0.115,0.4175,24,24,"NIGHT_MOSTLY_CLOUDY,NIGHT_MOSTLY_CLOUDY,NIGHT_BRIEF_SHOWERS,NIGHT_MOSTLY_CLOUDY","Onshore,Onshore,Onshore,Onshore",4
5842041f4e65fad6a7708adb,2024_04_08,26.25486382031396,-80.0805,Hillsboro Inlet,1,0.33497,0.5233925,28,27,"NIGHT_MOSTLY_CLOUDY,NIGHT_CLEAR,NIGHT_MOSTLY_CLOUDY,NIGHT_MOSTLY_CLOUDY","Onshore,Onshore,Onshore,Onshore",4
5842041f4e65fad6a7708add,2024_04_08,26.29705672965111,-80.07612393274484,Hillsboro Beach,1,0.1075,0.4125,28,27,"NIGHT_MOSTLY_CLOUDY,NIGHT_CLEAR,NIGHT_MOSTLY_CLOUDY,NIGHT_MOSTLY_CLOUDY","Onshore,Onshore,Onshore,Onshore",4
5842041f4e65fad6a7708ade,2024_04_08,26.36569956413266,-80.06717936869391,Red Reef Park,1,0.2175,0.5225,26,24,"NIGHT_CLEAR,NIGHT_MOSTLY_CLOUDY,NIGHT_MOSTLY_CLOUDY,NIGHT_MOSTLY_CLOUDY","Onshore,Onshore,Onshore,Onshore",4
5842041f4e65fad6a7708adf,2024_04_08,26.54593873498907,-80.04104359585143,Boynton Beach Inlet (Northside),1,0.1525,0.4575,26,24,"NIGHT_CLEAR,NIGHT_CLEAR,NIGHT_OVERCAST,NIGHT_MOSTLY_CLOUDY","Onshore,Onshore,Onshore,Onshore",4
5842041f4e65fad6a7708ae0,2024_04_08,26.92746505629809,-80.06721138954163,Corners,1,0.6918150000000001,0.8764375,26,24,"NIGHT_MOSTLY_CLOUDY,NIGHT_OVERCAST,NIGHT_MOSTLY_CLOUDY,NIGHT_MOSTLY_CLOUDY","Onshore,Onshore,Onshore,Onshore",4
5842041f4e65fad6a7708ae1,2024_04_08,26.76983179886943,-80.03413481937037,The Cove,1,0.4925,0.7925,26,24,"NIGHT_CLEAR,NIGHT_MOSTLY_CLOUDY,NIGHT_CLOUDY,NIGHT_MOSTLY_CLOUDY","Onshore,Onshore,Onshore,Onshore",4
5842041f4e65fad6a7708ae3,2024_04_08,26.39224485175123,-80.0650461233983,Japanese Rock,1,0.18,0.4875,26,24,"NIGHT_CLEAR,NIGHT_MOSTLY_CLOUDY,NIGHT_MOSTLY_CLOUDY,NIGHT_MOSTLY_CLOUDY","Onshore,Onshore,Onshore,Onshore",4
5842041f4e65fad6a7708ae4,2024_04_08,29.94810928551321,-85.42545434612366,Mexico Beach,0,0,0.10250000000000001,20,20,"NIGHT_CLEAR,NIGHT_CLEAR,NIGHT_CLEAR,NIGHT_CLEAR","Offshore,Offshore,Offshore,Offshore",4
5842041f4e65fad6a7708ae5,2024_04_08,30.11752500931267,-85.7306039427457,Shell Island,0,0,0.135,20,20,"NIGHT_CLEAR,NIGHT_CLEAR,NIGHT_CLEAR,NIGHT_CLEAR","Cross-shore,Cross-shore,Offshore,Offshore",4
5842041f4e65fad6a7708ae7,2024_04_08,29.94901514702268,-85.43042978529013,D.J.'s,0,0,0.10250000000000001,20,20,"NIGHT_CLEAR,NIGHT_CLEAR,NIGHT_CLEAR,NIGHT_CLEAR","Offshore,Offshore,Offshore,Offshore",4
5842041f4e65fad6a7708ae8,2024_04_08,30.12396111446713,-85.73636797034509,St. Andrew's Park,0,0,0.135,19,18,"NIGHT_CLEAR,NIGHT_CLEAR,NIGHT_CLEAR,NIGHT_CLEAR","Cross-shore,Cross-shore,Offshore,Offshore",4
5842041f4e65fad6a7708ae9,2024_04_08,30.16781531760227,-85.79604918824084,Spinnaker,0,0,0.235,19,18,"NIGHT_CLEAR,NIGHT_CLEAR,NIGHT_CLEAR,NIGHT_CLEAR","Onshore,Cross-shore,Cross-shore,Cross-shore",4
5842041f4e65fad6a7708aea,2024_04_08,30.18877050526983,-85.83243530466363,Wood Pier,0,0,0.2425,19,18,"NIGHT_CLEAR,NIGHT_CLEAR,NIGHT_CLEAR,NIGHT_CLEAR","Cross-shore,Cross-shore,Offshore,Offshore",4
5842041f4e65fad6a7708aeb,2024_04_08,30.2676205895555,-85.9938578144113,Inlet Beach Pier,1,0,0.265,19,18,"NIGHT_CLEAR,NIGHT_CLEAR,NIGHT_CLEAR,NIGHT_CLEAR","Cross-shore,Cross-shore,Cross-shore,Cross-shore",4
5842041f4e65fad6a7708aec,2024_04_08,30.31815542759119,-86.1383771867044,Bud and Alley's,0,0,0.2825,19,18,"NIGHT_CLEAR,NIGHT_CLEAR,NIGHT_CLEAR,NIGHT_CLEAR","Onshore,Onshore,Cross-shore,Cross-shore",4
5842041f4e65fad6a7708aed,2024_04_08,30.32686082481946,-86.16650590275447,Grayton Beach,0.5,0.0025,0.305,19,18,"NIGHT_CLEAR,NIGHT_CLEAR,NIGHT_CLEAR,NIGHT_CLEAR","Onshore,Onshore,Cross-shore,Cross-shore",4
5842041f4e65fad6a7708aee,2024_04_08,30.33661488976303,-86.20094370184573,Blue Mountain Beach,0,0,0.28500000000000003,19,18,"NIGHT_CLEAR,NIGHT_CLEAR,NIGHT_CLEAR,NIGHT_CLEAR","Onshore,Onshore,Cross-shore,Cross-shore",4
5842041f4e65fad6a7708aef,2024_04_08,30.37677202831587,-86.38513326644897,Pompano Joe's,1.5,0.0625,0.365,19,18,"NIGHT_CLEAR,NIGHT_CLEAR,NIGHT_CLEAR,NIGHT_CLEAR","Onshore,Cross-shore,Cross-shore,Onshore",4
5842041f4e65fad6a7708af0,2024_04_08,30.37429731725911,-86.36686966905461,Seascape,1,0.005,0.305,19,18,"NIGHT_CLEAR,NIGHT_CLEAR,NIGHT_CLEAR,NIGHT_CLEAR","Onshore,Cross-shore,Onshore,Onshore",4
5842041f4e65fad6a7708af1,2024_04_08,30.382815988547186,-86.45838975906372,The Back Porch,1,0.07250000000000001,0.38,19,18,"NIGHT_CLEAR,NIGHT_CLEAR,NIGHT_CLEAR,NIGHT_MOSTLY_CLEAR","Onshore,Onshore,Onshore,Onshore",4
5842041f4e65fad6a7708af2,2024_04_08,30.21207176798612,-85.87989730830542,Panama City Pier,0.75,0,0.2525,19,18,"NIGHT_CLEAR,NIGHT_CLEAR,NIGHT_CLEAR,NIGHT_CLEAR","Cross-shore,Cross-shore,Offshore,Offshore",4
5842041f4e65fad6a7708af3,2024_04_08,30.37521499110326,-86.37169944119874,Whale's Tail,2,0.04,0.345,19,18,"NIGHT_CLEAR,NIGHT_CLEAR,NIGHT_CLEAR,NIGHT_CLEAR","Onshore,Cross-shore,Cross-shore,Cross-shore",4
5842041f4e65fad6a7708af4,2024_04_08,30.38120596658251,-86.43045768307817,Old Crystal Pier,1,0.0375,0.3425,19,18,"NIGHT_CLEAR,NIGHT_CLEAR,NIGHT_CLEAR,NIGHT_CLEAR","Onshore,Onshore,Onshore,Onshore",4
5842041f4e65fad6a7708af5,2024_04_08,30.38090573159031,-86.50654862060082,Jetty East,1,0.052500000000000005,0.355,19,18,"NIGHT_CLEAR,NIGHT_CLEAR,NIGHT_CLEAR,NIGHT_CLEAR","Onshore,Onshore,Onshore,Onshore",4
5842041f4e65fad6a7708af6,2024_04_08,30.37584509640838,-86.50563273884252,HMO's,0,0.052500000000000005,0.3575,19,18,"NIGHT_CLEAR,NIGHT_CLEAR,NIGHT_CLEAR,NIGHT_CLEAR","Onshore,Onshore,Onshore,Onshore",4
5842041f4e65fad6a7708af7,2024_04_08,30.38124006131522,-86.50052254675529,Two By Fours,0,0.055,0.3625,19,18,"NIGHT_CLEAR,NIGHT_CLEAR,NIGHT_CLEAR,NIGHT_CLEAR","Onshore,Onshore,Onshore,Onshore",4
5842041f4e65fad6a7708af8,2024_04_08,30.38250751017554,-86.45775957227345,The Pumphouse,1,0.0625,0.3675,19,18,"NIGHT_CLEAR,NIGHT_CLEAR,NIGHT_CLEAR,NIGHT_MOSTLY_CLEAR","Onshore,Onshore,Onshore,Onshore",4
5842041f4e65fad6a7708af9,2024_04_08,30.38655981578935,-86.52475380603576,NCO Club,1,0.052500000000000005,0.3575,19,18,"NIGHT_CLEAR,NIGHT_CLEAR,NIGHT_CLEAR,NIGHT_CLEAR","Onshore,Onshore,Onshore,Onshore",4
5842041f4e65fad6a7708afa,2024_04_08,30.39024516541047,-86.59341,Okaloosa Pier,1,0.052500000000000005,0.355,19,18,"NIGHT_CLEAR,NIGHT_CLEAR,NIGHT_MOSTLY_CLEAR,NIGHT_MOSTLY_CLOUDY","Onshore,Onshore,Onshore,Onshore",4
5842041f4e65fad6a7708afb,2024_04_08,30.39281125722673,-86.59766184693287,Dead Man's,1,0.08750000000000001,0.3925,19,18,"NIGHT_CLEAR,NIGHT_CLEAR,NIGHT_MOSTLY_CLEAR,NIGHT_MOSTLY_CLOUDY","Onshore,Onshore,Onshore,Onshore",4
5842041f4e65fad6a7708afc,2024_04_08,30.32703176167034,-87.14196,Pensacola Pier,1,0.215,0.52,19,19,"NIGHT_CLEAR,NIGHT_CLEAR,NIGHT_CLEAR,NIGHT_MOSTLY_CLOUDY","Onshore,Onshore,Onshore,Onshore",4
5842041f4e65fad6a7708afd,2024_04_08,30.37920054094992,-86.85583,Navarre Beach,1.75,0.277445,0.4335125,19,18,"NIGHT_CLEAR,NIGHT_CLEAR,NIGHT_MOSTLY_CLOUDY,NIGHT_MOSTLY_CLEAR","Onshore,Onshore,Onshore,Onshore",4
5842041f4e65fad6a7708afe,2024_04_08,30.39491626029151,-86.61248004999744,Blue Horizon Motel,1,0.085,0.3925,19,18,"NIGHT_CLEAR,NIGHT_CLEAR,NIGHT_MOSTLY_CLEAR,NIGHT_MOSTLY_CLOUDY","Onshore,Onshore,Onshore,Onshore",4
5842041f4e65fad6a7708aff,2024_04_08,30.29345899260828,-87.43546812169637,First Parking Lot,0,0.225,0.5275000000000001,19,19,"NIGHT_CLEAR,NIGHT_CLEAR,NIGHT_CLEAR,NIGHT_CLEAR","Onshore,Onshore,Onshore,Onshore",4
5842041f4e65fad6a7708b00,2024_04_08,30.29767401311303,-87.41361598257893,Johnsons Beach,1,0.235,0.535,19,19,"NIGHT_CLEAR,NIGHT_CLEAR,NIGHT_CLEAR,NIGHT_MOSTLY_CLOUDY","Onshore,Onshore,Onshore,Onshore",4
5842041f4e65fad6a7708b01,2024_04_08,30.29513397370759,-87.42642359089679,Sandy Key,1,0.225,0.5275000000000001,19,19,"NIGHT_CLEAR,NIGHT_CLEAR,NIGHT_CLEAR,NIGHT_CLEAR","Onshore,Onshore,Onshore,Onshore",4
5842041f4e65fad6a7708b03,2024_04_08,30.377504907388026,-86.86444,Navarre Pier,1,0.05,0.3575,19,18,"NIGHT_CLEAR,NIGHT_CLEAR,NIGHT_MOSTLY_CLOUDY,NIGHT_MOSTLY_CLEAR","Onshore,Onshore,Onshore,Onshore",4
5842041f4e65fad6a7708b04,2024_04_08,30.31482647791307,-87.26163894669438,Pickens Point Dunes,1,0.225,0.5275000000000001,19,19,"NIGHT_CLEAR,NIGHT_CLEAR,NIGHT_CLEAR,NIGHT_MOSTLY_CLOUDY","Onshore,Onshore,Onshore,Onshore",4
5842041f4e65fad6a7708b05,2024_04_08,30.32632110836516,-87.16019503253068,Slabs,1,0.235,0.5375000000000001,19,19,"NIGHT_CLEAR,NIGHT_CLEAR,NIGHT_CLEAR,NIGHT_MOSTLY_CLOUDY","Onshore,Onshore,Onshore,Onshore",4
5842041f4e65fad6a7708b06,2024_04_08,30.32739721382043,-87.30406515493348,Pickens Point,1,0.225,0.525,19,19,"NIGHT_CLEAR,NIGHT_CLEAR,NIGHT_CLEAR,NIGHT_MOSTLY_CLOUDY","Cross-shore,Cross-shore,Cross-shore,Cross-shore",4
5842041f4e65fad6a7708b07,2024_04_08,30.27406893266753,-87.5436749948929,Bungalows,1,0.245,0.5475,19,19,"NIGHT_CLEAR,NIGHT_CLEAR,NIGHT_CLEAR,NIGHT_CLEAR","Onshore,Onshore,Onshore,Onshore",4
5842041f4e65fad6a7708b08,2024_04_08,27.99627311846992,-82.82942,880,0,0.0591425,0.09240999999999999,22,22,"NIGHT_CLEAR,NIGHT_CLEAR,NIGHT_CLEAR,NIGHT_CLEAR","Offshore,Offshore,Offshore,Offshore",4
5842041f4e65fad6a7708b09,2024_04_08,27.97779860371595,-82.83246509090527,Pier 60,0,0,0.07250000000000001,22,22,"NIGHT_CLEAR,NIGHT_CLEAR,NIGHT_CLEAR,NIGHT_CLEAR","Offshore,Offshore,Offshore,Offshore",4
5842041f4e65fad6a7708b0a,2024_04_08,27.96296387618043,-82.8332635965418,Sand Key,0,0,0.065,22,22,"NIGHT_CLEAR,NIGHT_CLEAR,NIGHT_CLEAR,NIGHT_CLEAR","Offshore,Offshore,Offshore,Offshore",4
5842041f4e65fad6a7708b0b,2024_04_08,27.92492619212885,-82.8449122845279,Belleair,0,0,0.065,22,22,"NIGHT_CLEAR,NIGHT_CLEAR,NIGHT_CLEAR,NIGHT_CLEAR","Offshore,Offshore,Offshore,Offshore",4
5842041f4e65fad6a7708b0c,2024_04_08,27.882,-82.854,Indian Rocks Beach,0,0,0.07250000000000001,22,22,"NIGHT_CLEAR,NIGHT_CLEAR,NIGHT_CLEAR,NIGHT_CLEAR","Offshore,Offshore,Offshore,Offshore",4
5842041f4e65fad6a7708b0d,2024_04_08,27.83106104966094,-82.83550218771384,Redington Breakwater,0,0,0.065,22,22,"NIGHT_CLEAR,NIGHT_CLEAR,NIGHT_MOSTLY_CLEAR,NIGHT_CLEAR","Offshore,Offshore,Offshore,Offshore",4
5842041f4e65fad6a7708b0e,2024_04_08,27.74369029906206,-82.76053473435867,Middle Jetty,0,0,0.065,22,22,"NIGHT_CLEAR,NIGHT_CLEAR,NIGHT_CLEAR,NIGHT_CLEAR","Offshore,Offshore,Offshore,Offshore",4
5842041f4e65fad6a7708b0f,2024_04_08,27.82174178852146,-82.83148664631841,Redington Pier,0,0,0.065,22,22,"NIGHT_CLEAR,NIGHT_CLEAR,NIGHT_MOSTLY_CLEAR,NIGHT_CLEAR","Offshore,Offshore,Offshore,Offshore",4
5842041f4e65fad6a7708b10,2024_04_08,27.31496308261514,-82.5830466912004,Lido Beach,0,0,0.075,23,23,"NIGHT_CLEAR,NIGHT_CLEAR,NIGHT_CLEAR,NIGHT_CLEAR","Offshore,Offshore,Offshore,Offshore",4
5842041f4e65fad6a7708b11,2024_04_08,27.31122010159892,-82.57833234007632,Coolidge,0,0,0.075,23,23,"NIGHT_CLEAR,NIGHT_CLEAR,NIGHT_CLEAR,NIGHT_CLEAR","Offshore,Offshore,Offshore,Offshore",4
5842041f4e65fad6a7708b12,2024_04_08,27.26471672017615,-82.55464835167173,Siesta Key,0,0,0.025,23,22,"NIGHT_CLEAR,NIGHT_CLEAR,NIGHT_CLEAR,NIGHT_CLEAR","Offshore,Offshore,Offshore,Offshore",4
5842041f4e65fad6a7708b13,2024_04_08,27.24638693488133,-82.53809115716797,Stickney Point,0,0,0.0875,23,23,"NIGHT_CLEAR,NIGHT_CLEAR,NIGHT_CLEAR,NIGHT_CLEAR","Offshore,Offshore,Offshore,Offshore",4
5842041f4e65fad6a7708b14,2024_04_08,27.21907878229092,-82.51813937562073,Turtles,0,0,0.0875,23,23,"NIGHT_CLEAR,NIGHT_CLEAR,NIGHT_CLEAR,NIGHT_CLEAR","Offshore,Offshore,Offshore,Offshore",4
5842041f4e65fad6a7708b15,2024_04_08,27.11375765852028,-82.47039,Venice Jetties North,0,0,0.0525,23,22,"NIGHT_CLEAR,NIGHT_CLEAR,NIGHT_CLEAR,NIGHT_CLEAR","Offshore,Offshore,Offshore,Offshore",4
5842041f4e65fad6a7708b16,2024_04_08,27.111485758834025,-82.46756550419744,Venice Jetties South,0,0,0.0575,23,22,"NIGHT_CLEAR,NIGHT_CLEAR,NIGHT_CLEAR,NIGHT_CLEAR","Offshore,Offshore,Offshore,Offshore",4
5842041f4e65fad6a7708b17,2024_04_08,27.07249378831575,-82.4530285256104,Venice Pier,0,0,0.09,23,22,"NIGHT_CLEAR,NIGHT_CLEAR,NIGHT_CLEAR,NIGHT_CLEAR","Offshore,Offshore,Offshore,Offshore",4
5842041f4e65fad6a7708b19,2024_04_08,27.49680446426314,-82.7140145455959,Holmes Beach Pier,0,0,0.07250000000000001,22,22,"NIGHT_CLEAR,NIGHT_CLEAR,NIGHT_CLEAR,NIGHT_CLEAR","Offshore,Offshore,Offshore,Offshore",4
5842041f4e65fad6a7708b1a,2024_04_08,27.7390348493064,-82.75763,Sunset Beach,0,0,0.065,22,22,"NIGHT_CLEAR,NIGHT_CLEAR,NIGHT_CLEAR,NIGHT_CLEAR","Offshore,Offshore,Offshore,Offshore",4
5842041f4e65fad6a7708b1b,2024_04_08,26.80347307599041,-82.28564775623539,Gasparilla Point,0,0,0.11,24,24,"NIGHT_CLEAR,NIGHT_CLEAR,NIGHT_CLEAR,NIGHT_CLEAR","Offshore,Offshore,Offshore,Offshore",4
5842041f4e65fad6a7708b1c,2024_04_08,27.45365831548911,-82.69609,Coquina Jetties,0,0,0.0675,22,22,"NIGHT_CLEAR,NIGHT_CLEAR,NIGHT_CLEAR,NIGHT_CLEAR","Offshore,Offshore,Offshore,Offshore",4
5842041f4e65fad6a7708b1d,2024_04_08,27.46077315206043,-82.69924,Twin Piers,0,0,0.035,23,22,"NIGHT_CLEAR,NIGHT_CLEAR,NIGHT_CLEAR,NIGHT_CLEAR","Offshore,Offshore,Offshore,Offshore",4
5842041f4e65fad6a7708b1e,2024_04_08,26.91007316019612,-82.35352,Englewood,0,0,0.0225,24,24,"NIGHT_CLEAR,NIGHT_CLEAR,NIGHT_CLEAR,NIGHT_CLEAR","Offshore,Offshore,Offshore,Offshore",4
5842041f4e65fad6a7708b1f,2024_04_08,26.88221101560038,-82.3359828282636,Knight's Point,0,0,0.10500000000000001,24,24,"NIGHT_CLEAR,NIGHT_CLEAR,NIGHT_CLEAR,NIGHT_CLEAR","Offshore,Offshore,Offshore,Offshore",4
5842041f4e65fad6a7708b20,2024_04_08,26.51219285784982,-82.1928203289264,Tween Waters,0,0,0.1125,24,24,"NIGHT_CLEAR,NIGHT_CLEAR,NIGHT_CLEAR,NIGHT_MOSTLY_CLEAR","Offshore,Offshore,Offshore,Offshore",4
5842041f4e65fad6a7708b21,2024_04_08,26.55130241615096,-82.20222762415648,Redfish Pass,0,0,0.1125,24,24,"NIGHT_CLEAR,NIGHT_CLEAR,NIGHT_CLEAR,NIGHT_CLEAR","Offshore,Offshore,Offshore,Offshore",4
5842041f4e65fad6a7708b22,2024_04_08,26.71713432926596,-82.26287777058234,Boca Grande,0,0,0.11,23,23,"NIGHT_CLEAR,NIGHT_CLEAR,NIGHT_CLEAR,NIGHT_CLEAR","Offshore,Offshore,Offshore,Offshore",4
5842041f4e65fad6a7708b23,2024_04_08,26.47856785808584,-82.181288592828,Blind Pass,0,0,0.1125,24,24,"NIGHT_CLEAR,NIGHT_CLEAR,NIGHT_CLEAR,NIGHT_CLEAR","Offshore,Offshore,Offshore,Offshore",4
