_id,date,lat,lon,name,daily_mean_swell_rating,daily_mean_wave_height_min,daily_mean_wave_height_max,daily_mean_water_temperature_max,daily_mean_water_temperature_min,weather_per_timestamp,wind_per_timestamp,n_samples_per_day
5842041f4e65fad6a77087f9,2024_08_12,37.741668,-122.51038,South Ocean Beach,1.15,0.716067,1.023538,13,13,"NIGHT_MIST,NIGHT_MIST,NIGHT_MIST,NIGHT_MIST,NIGHT_MIST,NIGHT_MIST,NIGHT_MIST,MIST,MIST,MIST","Onshore,Onshore,Onshore,Onshore,Onshore,Onshore,Onshore,Onshore,Onshore,Onshore",10
5842041f4e65fad6a7708801,2024_08_12,37.49142,-122.50428,Maverick's,NA,0.9390000000000001,1.232,16,16,"NIGHT_MIST,NIGHT_MIST,NIGHT_MIST,NIGHT_BRIEF_SHOWERS,NIGHT_BRIEF_SHOWERS,NIGHT_BRIEF_SHOWERS,NIGHT_BRIEF_SHOWERS,MIST,BRIEF_SHOWERS,MIST","Cross-shore,Cross-shore,Onshore,Cross-shore,Cross-shore,Cross-shore,Cross-shore,Cross-shore,Cross-shore,Cross-shore",10
5842041f4e65fad6a7708804,2024_08_12,44.997,-124.018,Roads End,2.4,0.935,1.238,13,13,"NIGHT_CLEAR,NIGHT_MIST,NIGHT_FOG,NIGHT_MIST,NIGHT_FOG,NIGHT_FOG,NIGHT_CLEAR,MIST,FOG,MIST","Cross-shore,Cross-shore,Cross-shore,Cross-shore,Cross-shore,Cross-shore,Cross-shore,Cross-shore,Cross-shore,Onshore",10
5842041f4e65fad6a7708805,2024_08_12,36.95188851423011,-122.02522,Steamer Lane,2,0.338544,0.645619,15,15,"NIGHT_CLEAR,NIGHT_MOSTLY_CLEAR,NIGHT_MOSTLY_CLOUDY,NIGHT_MOSTLY_CLEAR,NIGHT_MOSTLY_CLOUDY,NIGHT_MOSTLY_CLOUDY,NIGHT_MOSTLY_CLOUDY,MOSTLY_CLOUDY,CLEAR,CLEAR","Onshore,Onshore,Onshore,Onshore,Cross-shore,Onshore,Onshore,Onshore,Onshore,Onshore",10
5842041f4e65fad6a7708806,2024_08_12,36.95918781542251,-122.02489,Cowells,0.85,0,0.16462100000000002,15,15,"NIGHT_CLEAR,NIGHT_MOSTLY_CLEAR,NIGHT_MOSTLY_CLOUDY,NIGHT_MOSTLY_CLEAR,NIGHT_MOSTLY_CLOUDY,NIGHT_MOSTLY_CLOUDY,NIGHT_MOSTLY_CLOUDY,MOSTLY_CLOUDY,CLEAR,CLEAR","Onshore,Cross-shore,Cross-shore,Onshore,Onshore,Onshore,Onshore,Onshore,Cross-shore,Onshore",10
5842041f4e65fad6a7708807,2024_08_12,36.95468082526536,-121.97234,Pleasure Point,2.65,0.451565,0.755321,15,15,"NIGHT_MOSTLY_CLEAR,NIGHT_MOSTLY_CLEAR,NIGHT_MOSTLY_CLOUDY,NIGHT_MIST,NIGHT_MIST,NIGHT_MIST,NIGHT_BRIEF_SHOWERS,BRIEF_SHOWERS,BRIEF_SHOWERS,CLEAR","Onshore,Onshore,Onshore,Onshore,Onshore,Onshore,Onshore,Onshore,Onshore,Onshore",10
5842041f4e65fad6a770880a,2024_08_12,35.37815414378748,-120.86589,Morro Bay,2.85,0.6657959999999999,1.018134,13,13,"NIGHT_MIST,NIGHT_MIST,NIGHT_MOSTLY_CLEAR,NIGHT_MOSTLY_CLEAR,NIGHT_MOSTLY_CLEAR,NIGHT_MOSTLY_CLEAR,NIGHT_MOSTLY_CLEAR,MOSTLY_CLEAR,CLEAR,CLEAR","Offshore,Cross-shore,Cross-shore,Cross-shore,Offshore,Offshore,Onshore,Offshore,Offshore,Onshore",10
5842041f4e65fad6a770880b,2024_08_12,36.95782765000708,-121.96729,Jack's,1.45,0.029389,0.300037,15,15,"NIGHT_MOSTLY_CLEAR,NIGHT_MOSTLY_CLEAR,NIGHT_MOSTLY_CLOUDY,NIGHT_MIST,NIGHT_MIST,NIGHT_MIST,NIGHT_BRIEF_SHOWERS,BRIEF_SHOWERS,BRIEF_SHOWERS,CLEAR","Onshore,Onshore,Onshore,Onshore,Onshore,Onshore,Onshore,Onshore,Onshore,Onshore",10
5842041f4e65fad6a770880d,2024_08_12,34.29982939936656,-119.3489016603669,Gold Coast Beachbreaks,2,0.126,0.431,18.5,18.5,"NIGHT_CLEAR,NIGHT_CLEAR,NIGHT_CLEAR,NIGHT_CLEAR,NIGHT_CLEAR,NIGHT_CLEAR,NIGHT_CLEAR,CLEAR,CLEAR,CLEAR","Onshore,Cross-shore,Offshore,Offshore,Cross-shore,Offshore,Offshore,Offshore,Cross-shore,Onshore",10
5842041f4e65fad6a7708811,2024_08_12,34.245076,-119.26799,Ventura Harbor,2.85,0.553396,0.861864,17.9,17.9,"NIGHT_CLEAR,NIGHT_CLEAR,NIGHT_CLEAR,NIGHT_CLEAR,NIGHT_CLEAR,NIGHT_CLEAR,NIGHT_CLEAR,CLEAR,CLEAR,CLEAR","Offshore,Onshore,Onshore,Onshore,Onshore,Onshore,Onshore,Onshore,Onshore,Onshore",10
5842041f4e65fad6a7708813,2024_08_12,34.051,-118.964,County Line,2.45,0.443444,0.7473500000000001,18,18,"NIGHT_CLEAR,NIGHT_CLEAR,NIGHT_CLEAR,NIGHT_CLEAR,NIGHT_CLEAR,NIGHT_CLEAR,NIGHT_CLEAR,CLEAR,CLEAR,CLEAR","Offshore,Offshore,Offshore,Onshore,Cross-shore,Onshore,Cross-shore,Offshore,Offshore,Onshore",10
5842041f4e65fad6a7708814,2024_08_12,34.37256264378892,-119.47797,Rincon,2,0.04,0.34600000000000003,18,18,"NIGHT_CLEAR,NIGHT_CLEAR,NIGHT_CLEAR,NIGHT_CLEAR,NIGHT_MIST,NIGHT_CLEAR,NIGHT_CLEAR,CLEAR,CLEAR,MIST","Onshore,Cross-shore,Offshore,Offshore,Offshore,Offshore,Offshore,Offshore,Cross-shore,Cross-shore",10
5842041f4e65fad6a7708817,2024_08_12,34.03096101876324,-118.68109,Malibu Third Point,2.8,0.372784,0.6805100000000001,20,20,"NIGHT_CLEAR,NIGHT_CLEAR,NIGHT_CLEAR,NIGHT_CLEAR,NIGHT_CLEAR,NIGHT_CLEAR,NIGHT_CLEAR,CLEAR,CLEAR,CLEAR","Onshore,Onshore,Onshore,Offshore,Offshore,Offshore,Offshore,Offshore,Onshore,Cross-shore",10
5842041f4e65fad6a7708819,2024_08_12,33.984079047970035,-118.47382,Venice Beach,2,0.479649,0.828526,18,18,"NIGHT_MIST,NIGHT_MIST,NIGHT_MIST,NIGHT_MIST,NIGHT_MIST,NIGHT_MIST,NIGHT_MIST,MIST,MIST,MIST","Onshore,Onshore,Onshore,Onshore,Onshore,Onshore,Onshore,Onshore,Onshore,Onshore",10
5842041f4e65fad6a770881e,2024_08_12,34.037508438646746,-118.5834,Topanga Beach,2,0.21573900000000001,0.429276,20,20,"NIGHT_CLEAR,NIGHT_CLEAR,NIGHT_CLEAR,NIGHT_CLEAR,NIGHT_CLEAR,NIGHT_CLEAR,NIGHT_CLEAR,CLEAR,CLEAR,CLEAR","Offshore,Cross-shore,Offshore,Cross-shore,Offshore,Offshore,Onshore,Onshore,Cross-shore,Onshore",10
5842041f4e65fad6a7708820,2024_08_12,33.73954373690184,-118.11414,Seal Beach Jetty,1.9,0.233,0.538,20.5,20.5,"NIGHT_MOSTLY_CLEAR,NIGHT_BRIEF_SHOWERS,NIGHT_BRIEF_SHOWERS,NIGHT_CLEAR,NIGHT_CLEAR,NIGHT_CLEAR,NIGHT_CLEAR,MOSTLY_CLEAR,MOSTLY_CLEAR,CLEAR","Onshore,Onshore,Onshore,Cross-shore,Cross-shore,Offshore,Offshore,Cross-shore,Onshore,Onshore",10
5842041f4e65fad6a7708822,2024_08_12,33.72309983348433,-118.08078,Anderson Street,1.2,0.11229599999999999,0.400629,19,19,"NIGHT_CLEAR,NIGHT_CLEAR,NIGHT_CLEAR,NIGHT_MOSTLY_CLEAR,NIGHT_CLEAR,NIGHT_MOSTLY_CLEAR,NIGHT_MOSTLY_CLEAR,MOSTLY_CLEAR,MOSTLY_CLEAR,CLEAR","Onshore,Onshore,Onshore,Cross-shore,Onshore,Offshore,Offshore,Cross-shore,Cross-shore,Onshore",10
5842041f4e65fad6a7708827,2024_08_12,33.65574085629463,-118.00397,Huntington Beach Pier Northside,2.7,0.615909,0.991273,19,19,"NIGHT_MOSTLY_CLOUDY,NIGHT_BRIEF_SHOWERS,NIGHT_MOSTLY_CLOUDY,NIGHT_CLEAR,NIGHT_CLEAR,NIGHT_CLEAR,NIGHT_CLEAR,MOSTLY_CLEAR,MOSTLY_CLEAR,CLEAR","Onshore,Onshore,Cross-shore,Onshore,Onshore,Onshore,Onshore,Onshore,Onshore,Onshore",10
5842041f4e65fad6a7708828,2024_08_12,34.272041739333,-119.29976,C St.,1.85,0.449603,0.757671,17.9,17.9,"NIGHT_CLEAR,NIGHT_CLEAR,NIGHT_CLEAR,NIGHT_CLEAR,NIGHT_CLEAR,NIGHT_CLEAR,NIGHT_CLEAR,CLEAR,CLEAR,MIST","Onshore,Cross-shore,Cross-shore,Cross-shore,Cross-shore,Offshore,Cross-shore,Cross-shore,Cross-shore,Onshore",10
5842041f4e65fad6a770882a,2024_08_12,33.61555743705257,-117.93676,Newport Lower Jetties,2.55,0.482249,0.789577,20,20,"NIGHT_MOSTLY_CLOUDY,NIGHT_MOSTLY_CLOUDY,NIGHT_MOSTLY_CLOUDY,NIGHT_CLEAR,NIGHT_CLEAR,NIGHT_CLEAR,NIGHT_CLEAR,MOSTLY_CLOUDY,MOSTLY_CLOUDY,CLEAR","Onshore,Onshore,Onshore,Onshore,Onshore,Onshore,Onshore,Cross-shore,Cross-shore,Onshore",10
5842041f4e65fad6a770882b,2024_08_12,33.5930302087,-117.88199,The Wedge,2.25,0.7420640000000001,1.034674,20,20,"NIGHT_MOSTLY_CLOUDY,NIGHT_MOSTLY_CLOUDY,NIGHT_MOSTLY_CLOUDY,NIGHT_CLEAR,NIGHT_MOSTLY_CLEAR,NIGHT_MOSTLY_CLEAR,NIGHT_MOSTLY_CLEAR,MOSTLY_CLOUDY,MOSTLY_CLOUDY,CLEAR","Onshore,Onshore,Cross-shore,Onshore,Offshore,Onshore,Onshore,Cross-shore,Cross-shore,Onshore",10
5842041f4e65fad6a770882e,2024_08_12,33.475793399792984,-117.72291,Salt Creek,2.7,0.516716,0.823101,20,20,"NIGHT_MIST,NIGHT_MIST,NIGHT_MIST,NIGHT_CLEAR,NIGHT_CLEAR,NIGHT_CLEAR,NIGHT_CLEAR,MIST,CLEAR,MIST","Onshore,Onshore,Onshore,Onshore,Onshore,Onshore,Onshore,Onshore,Onshore,Onshore",10
5842041f4e65fad6a7708830,2024_08_12,33.41800974113613,-117.61952,T-Street,2.7,0.533538,0.8678440000000001,22,22,"NIGHT_MOSTLY_CLOUDY,NIGHT_MOSTLY_CLEAR,NIGHT_MIST,NIGHT_MIST,NIGHT_CLEAR,NIGHT_CLEAR,NIGHT_CLEAR,CLEAR,MIST,MIST","Cross-shore,Onshore,Cross-shore,Cross-shore,Cross-shore,Cross-shore,Cross-shore,Onshore,Onshore,Onshore",10
5842041f4e65fad6a7708832,2024_08_12,33.202391008646,-117.39475,Oceanside Harbor,2.85,0.52273,0.82797,21.2,21.2,"NIGHT_MIST,NIGHT_MIST,NIGHT_MIST,NIGHT_MIST,NIGHT_MIST,NIGHT_MIST,NIGHT_MIST,MIST,MIST,MIST","Onshore,Cross-shore,Cross-shore,Cross-shore,Cross-shore,Cross-shore,Cross-shore,Cross-shore,Onshore,Onshore",10
5842041f4e65fad6a7708835,2024_08_12,33.19477795952803,-117.38667,Oceanside Pier,2.85,0.624913,0.981391,21.2,21.2,"NIGHT_CLEAR,NIGHT_CLEAR,NIGHT_CLEAR,NIGHT_MOSTLY_CLEAR,NIGHT_CLEAR,NIGHT_CLEAR,NIGHT_CLEAR,MOSTLY_CLEAR,MOSTLY_CLEAR,CLEAR","Onshore,Cross-shore,Cross-shore,Cross-shore,Cross-shore,Offshore,Cross-shore,Cross-shore,Onshore,Onshore",10
5842041f4e65fad6a7708837,2024_08_12,33.14948100706,-117.35029,Tamarack,2.9,0.454897,0.758943,21.5,21.5,"NIGHT_MIST,NIGHT_MIST,NIGHT_MIST,NIGHT_MIST,NIGHT_MIST,NIGHT_MIST,NIGHT_CLEAR,CLEAR,MIST,MIST","Cross-shore,Onshore,Onshore,Onshore,Offshore,Offshore,Offshore,Offshore,Offshore,Onshore",10
5842041f4e65fad6a7708839,2024_08_12,32.865777159358856,-117.25614,Scripps,2.4,0.369897,0.677393,21,21,"NIGHT_OVERCAST,NIGHT_MIST,NIGHT_MIST,NIGHT_MIST,NIGHT_MIST,NIGHT_MIST,NIGHT_MIST,MIST,MIST,MIST","Onshore,Onshore,Onshore,Onshore,Onshore,Onshore,Onshore,Onshore,Onshore,Onshore",10
5842041f4e65fad6a770883a,2024_08_12,32.813094,-117.27381,Birdrock,2.9,0.411,0.717,21.5,21.5,"NIGHT_CLEAR,NIGHT_CLEAR,NIGHT_CLEAR,NIGHT_CLEAR,NIGHT_CLEAR,NIGHT_CLEAR,NIGHT_CLEAR,CLEAR,CLEAR,CLEAR","Cross-shore,Cross-shore,Cross-shore,Cross-shore,Cross-shore,Cross-shore,Offshore,Cross-shore,Cross-shore,Onshore",10
5842041f4e65fad6a770883b,2024_08_12,32.877231,-117.25303,Blacks,3,0.640563,0.984506,21,21,"NIGHT_OVERCAST,NIGHT_MIST,NIGHT_MIST,NIGHT_MIST,NIGHT_MIST,NIGHT_MIST,NIGHT_MIST,MIST,MIST,MIST","Onshore,Onshore,Onshore,Onshore,Onshore,Onshore,Onshore,Onshore,Onshore,Onshore",10
5842041f4e65fad6a770883c,2024_08_12,32.82978974229765,-117.28162,Windansea,2,0.46974,0.772396,18.3,18.3,"NIGHT_CLEAR,NIGHT_CLEAR,NIGHT_CLEAR,NIGHT_CLEAR,NIGHT_CLEAR,NIGHT_MIST,NIGHT_MIST,MIST,MOSTLY_CLEAR,MOSTLY_CLOUDY","Onshore,Onshore,Cross-shore,Cross-shore,Cross-shore,Cross-shore,Cross-shore,Cross-shore,Onshore,Onshore",10
5842041f4e65fad6a770883d,2024_08_12,32.838278,-117.28396,Horseshoe,2.9,0.525,0.829,21.5,21.5,"NIGHT_CLEAR,NIGHT_CLEAR,NIGHT_CLEAR,NIGHT_CLEAR,NIGHT_CLEAR,NIGHT_MIST,NIGHT_MIST,MIST,MOSTLY_CLEAR,MOSTLY_CLOUDY","Onshore,Onshore,Cross-shore,Cross-shore,Cross-shore,Cross-shore,Cross-shore,Cross-shore,Onshore,Onshore",10
5842041f4e65fad6a770883f,2024_08_12,32.75034717673179,-117.25337,Ocean Beach,2.85,0.54687,0.8535820000000001,18.3,18.3,"NIGHT_MOSTLY_CLOUDY,NIGHT_MIST,NIGHT_MIST,NIGHT_CLEAR,NIGHT_CLEAR,NIGHT_CLEAR,NIGHT_MIST,MIST,MIST,MIST","Onshore,Onshore,Onshore,Cross-shore,Cross-shore,Cross-shore,Cross-shore,Onshore,Onshore,Onshore",10
5842041f4e65fad6a7708840,2024_08_12,32.73693,-117.25718,Sunset Cliffs,2,0.3,0.605,21,21,"NIGHT_CLEAR,NIGHT_MIST,NIGHT_MIST,NIGHT_MIST,NIGHT_MIST,NIGHT_MIST,NIGHT_MIST,MIST,MOSTLY_CLOUDY,MOSTLY_CLOUDY","Onshore,Onshore,Onshore,Cross-shore,Onshore,Onshore,Onshore,Onshore,Onshore,Onshore",10
5842041f4e65fad6a7708841,2024_08_12,32.796582258728826,-117.25779,Pacific Beach,2.8833333333333333,0.563369,0.927466,18.3,18.3,"NIGHT_MIST,NIGHT_MIST,NIGHT_CLEAR,NIGHT_CLEAR,NIGHT_CLEAR,NIGHT_CLEAR,NIGHT_CLEAR,CLEAR,MIST,MIST","Cross-shore,Cross-shore,Cross-shore,Cross-shore,Cross-shore,Cross-shore,Offshore,Cross-shore,Cross-shore,Onshore",10
5842041f4e65fad6a7708842,2024_08_12,32.776636,-117.25514,Mission Beach,2.85,0.426656,0.730646,18.3,18.3,"NIGHT_MIST,NIGHT_MIST,NIGHT_CLEAR,NIGHT_CLEAR,NIGHT_CLEAR,NIGHT_CLEAR,NIGHT_CLEAR,CLEAR,MIST,MIST","Onshore,Onshore,Onshore,Onshore,Cross-shore,Cross-shore,Offshore,Onshore,Onshore,Onshore",10
5842041f4e65fad6a7708844,2024_08_12,32.577195519016,-117.13475,Imperial Beach Pier,2.9,0.539,0.844,20,20,"NIGHT_CLEAR,NIGHT_CLEAR,NIGHT_CLEAR,NIGHT_CLEAR,NIGHT_CLEAR,NIGHT_CLEAR,NIGHT_MIST,MIST,MIST,MIST","Onshore,Onshore,Onshore,Onshore,Onshore,Onshore,Onshore,Onshore,Onshore,Onshore",10
5842041f4e65fad6a770884a,2024_08_12,42.88678181061,-70.80843,Seabrook,1.7333333333333334,0.226286,0.560044,19,17,"NIGHT_CLEAR,NIGHT_CLEAR,NIGHT_CLEAR,CLEAR,CLEAR,CLEAR,CLEAR,CLEAR,CLEAR,MOSTLY_CLOUDY","Offshore,Offshore,Offshore,Offshore,Offshore,Offshore,Offshore,Offshore,Offshore,Offshore",10
5842041f4e65fad6a770884e,2024_08_12,41.434181432898335,-71.45312,Narragansett,2.15,0.122859,0.42710000000000004,23,21,"NIGHT_CLEAR,NIGHT_CLEAR,NIGHT_CLEAR,CLEAR,CLEAR,CLEAR,CLEAR,CLEAR,CLEAR,CLEAR","Cross-shore,Offshore,Offshore,Offshore,Offshore,Offshore,Offshore,Offshore,Cross-shore,Cross-shore",10
5842041f4e65fad6a7708850,2024_08_12,40.582703230722,-73.65247,Lincoln Blvd,1.95,0.571683,0.910212,23,21,"NIGHT_CLEAR,NIGHT_CLEAR,NIGHT_CLEAR,NIGHT_CLEAR,CLEAR,CLEAR,CLEAR,CLEAR,CLEAR,SHOWERS","Offshore,Cross-shore,Onshore,Cross-shore,Cross-shore,Cross-shore,Onshore,Onshore,Onshore,Cross-shore",10
5842041f4e65fad6a7708852,2024_08_12,40.58342841721757,-73.81182,Rockaways,1.9,0.450079,0.754505,23,21,"NIGHT_CLEAR,NIGHT_CLEAR,NIGHT_CLEAR,NIGHT_CLEAR,CLEAR,CLEAR,CLEAR,CLEAR,CLEAR,HEAVY_SHOWERS","Offshore,Cross-shore,Onshore,Offshore,Offshore,Cross-shore,Onshore,Onshore,Onshore,Offshore",10
5842041f4e65fad6a7708853,2024_08_12,40.330474,-73.9734,Monmouth Beach,2.1,0.321746,0.624826,22,21,"NIGHT_CLEAR,NIGHT_CLEAR,NIGHT_CLEAR,NIGHT_CLEAR,CLEAR,CLEAR,CLEAR,CLEAR,CLEAR,MOSTLY_CLOUDY","Cross-shore,Offshore,Cross-shore,Offshore,Offshore,Offshore,Offshore,Offshore,Offshore,Offshore",10
5842041f4e65fad6a7708856,2024_08_12,40.113,-74.028,Manasquan Inlet,1.7333333333333334,0.275357,0.5788800000000001,22,21,"NIGHT_CLEAR,NIGHT_CLEAR,NIGHT_CLEAR,NIGHT_CLEAR,CLEAR,CLEAR,CLEAR,CLEAR,CLEAR,CLEAR","Offshore,Offshore,Offshore,Offshore,Offshore,Offshore,Offshore,Offshore,Offshore,Offshore",10
5842041f4e65fad6a7708857,2024_08_12,39.941519877445664,-74.06829,Casino Pier,2,0.286524,0.590214,22,21,"NIGHT_CLEAR,NIGHT_CLEAR,NIGHT_CLEAR,NIGHT_CLEAR,CLEAR,CLEAR,CLEAR,CLEAR,CLEAR,CLEAR","Offshore,Offshore,Offshore,Offshore,Offshore,Offshore,Offshore,Offshore,Cross-shore,Cross-shore",10
5842041f4e65fad6a7708858,2024_08_12,39.28223089949212,-74.55766,North End OC,1.5,0.296844,0.597898,21,21,"NIGHT_CLEAR,NIGHT_CLEAR,NIGHT_CLEAR,NIGHT_CLEAR,CLEAR,CLEAR,CLEAR,CLEAR,CLEAR,CLEAR","Cross-shore,Cross-shore,Cross-shore,Offshore,Offshore,Offshore,Offshore,Cross-shore,Onshore,Cross-shore",10
5842041f4e65fad6a770885b,2024_08_12,39.65080599934257,-74.17146,Ship Bottom,2.3833333333333333,0.474219,0.799533,21,21,"NIGHT_CLEAR,NIGHT_CLEAR,NIGHT_CLEAR,NIGHT_CLEAR,CLEAR,CLEAR,CLEAR,CLEAR,CLEAR,MOSTLY_CLOUDY","Offshore,Offshore,Offshore,Offshore,Offshore,Offshore,Offshore,Offshore,Offshore,Cross-shore",10
5842041f4e65fad6a7708863,2024_08_12,36.034151543144,-75.66791,Third Street,1.4,0.2289,0.5338,23.8,22.6,"NIGHT_MIST,NIGHT_LIGHT_SHOWERS_POSSIBLE,NIGHT_MIST,NIGHT_MIST,MIST,BRIEF_SHOWERS_POSSIBLE,CLEAR,CLEAR,CLEAR,OVERCAST","Onshore,Onshore,Onshore,Onshore,Onshore,Onshore,Onshore,Onshore,Onshore,Onshore",10
5842041f4e65fad6a7708867,2024_08_12,35.605833221351425,-75.46303,S-Turns,1.15,0.447251,0.755372,26,25,"NIGHT_MOSTLY_CLOUDY,NIGHT_MOSTLY_CLOUDY,NIGHT_MIST,NIGHT_MIST,MOSTLY_CLEAR,CLEAR,MIST,CLEAR,MOSTLY_CLOUDY,MOSTLY_CLOUDY","Cross-shore,Cross-shore,Cross-shore,Onshore,Onshore,Onshore,Onshore,Onshore,Onshore,Onshore",10
5842041f4e65fad6a770886d,2024_08_12,38.338461,-75.08117,Ocean City Boardwalk,1.4,0.282188,0.582875,22,20.6,"NIGHT_CLEAR,NIGHT_CLEAR,NIGHT_CLEAR,NIGHT_CLEAR,CLEAR,CLEAR,CLEAR,CLEAR,CLEAR,MOSTLY_CLOUDY","Offshore,Offshore,Offshore,Cross-shore,Cross-shore,Onshore,Onshore,Onshore,Onshore,Offshore",10
5842041f4e65fad6a770886f,2024_08_12,29.844757212379562,-81.26136,A St.,2,0.176,0.484,26.5,26.5,"NIGHT_CLEAR,NIGHT_CLEAR,NIGHT_CLEAR,NIGHT_CLEAR,CLEAR,CLEAR,CLEAR,CLEAR,CLEAR,MOSTLY_CLOUDY","Offshore,Offshore,Offshore,Offshore,Offshore,Offshore,Offshore,Offshore,Cross-shore,Cross-shore",10
5842041f4e65fad6a7708871,2024_08_12,29.069417851135093,-80.90824,New Smyrna Beach,1.8166666666666667,0.548103,0.856019,28,26,"NIGHT_CLEAR,NIGHT_CLEAR,NIGHT_MOSTLY_CLOUDY,NIGHT_CLEAR,CLEAR,CLEAR,CLEAR,CLEAR,MOSTLY_CLEAR,MOSTLY_CLEAR","Offshore,Offshore,Offshore,Offshore,Offshore,Offshore,Offshore,Cross-shore,Cross-shore,Cross-shore",10
5842041f4e65fad6a7708872,2024_08_12,28.367707417566,-80.60171,Cocoa Beach Pier,1.4333333333333333,0.254524,0.562225,26,25.8,"NIGHT_CLEAR,NIGHT_CLEAR,NIGHT_CLEAR,NIGHT_CLEAR,CLEAR,CLEAR,CLEAR,LIGHT_SHOWERS_POSSIBLE,CLEAR,CLEAR","Cross-shore,Cross-shore,Offshore,Cross-shore,Cross-shore,Cross-shore,Cross-shore,Cross-shore,Cross-shore,Onshore",10
5842041f4e65fad6a7708873,2024_08_12,28.091782738658846,-80.56479,Indialantic,1.6833333333333333,0.2214,0.52554,27,26,"NIGHT_CLEAR,NIGHT_CLEAR,NIGHT_CLEAR,NIGHT_CLEAR,MOSTLY_CLOUDY,MOSTLY_CLOUDY,MOSTLY_CLOUDY,CLEAR,CLEAR,MIST","Offshore,Offshore,Offshore,Cross-shore,Cross-shore,Cross-shore,Cross-shore,Cross-shore,Onshore,Onshore",10
5842041f4e65fad6a7708876,2024_08_12,27.25392904143517,-80.19455,Jensen Beach,-0.016666666666666666,0,0.216207,28,27,"NIGHT_CLEAR,NIGHT_CLEAR,NIGHT_CLEAR,NIGHT_CLEAR,MOSTLY_CLOUDY,MOSTLY_CLOUDY,CLEAR,CLEAR,MOSTLY_CLOUDY,CLEAR","Offshore,Offshore,Cross-shore,Offshore,Offshore,Cross-shore,Onshore,Cross-shore,Onshore,Onshore",10
5842041f4e65fad6a7708879,2024_08_12,26.76346795333825,-80.03607,Reef Road,-0.03333333333333333,0,0.157359,30,29,"NIGHT_CLEAR,NIGHT_CLEAR,NIGHT_CLEAR,NIGHT_CLEAR,CLEAR,CLEAR,CLEAR,CLEAR,CLEAR,CLEAR","Cross-shore,Cross-shore,Onshore,Onshore,Onshore,Onshore,Onshore,Onshore,Onshore,Onshore",10
5842041f4e65fad6a770887c,2024_08_12,26.336499228484,-80.06956100463,Boca Raton Inlet,0.75,0,0.234247,30,29,"NIGHT_CLEAR,NIGHT_CLEAR,NIGHT_CLEAR,NIGHT_CLEAR,CLEAR,CLEAR,CLEAR,CLEAR,CLEAR,CLEAR","Cross-shore,Cross-shore,Cross-shore,Onshore,Onshore,Onshore,Onshore,Onshore,Onshore,Onshore",10
5842041f4e65fad6a770887d,2024_08_12,26.31719311695038,-80.07453,Deerfield Beach Pier,0,0,0.1524,31,29,"NIGHT_CLEAR,NIGHT_CLEAR,NIGHT_CLEAR,NIGHT_CLEAR,CLEAR,CLEAR,CLEAR,CLEAR,CLEAR,CLEAR","Cross-shore,Cross-shore,Cross-shore,Onshore,Onshore,Onshore,Onshore,Onshore,Onshore,Onshore",10
5842041f4e65fad6a7708881,2024_08_12,30.20276320866628,-85.85626528676136,"Spyglass Dr., Panama City",-0.11666666666666665,0,0.17311300000000002,30,29,"NIGHT_CLEAR,NIGHT_CLEAR,NIGHT_CLEAR,NIGHT_CLEAR,NIGHT_CLEAR,CLEAR,CLEAR,CLEAR,CLEAR,CLEAR","Onshore,Onshore,Onshore,Offshore,Offshore,Offshore,Offshore,Offshore,Offshore,Onshore",10
5842041f4e65fad6a7708884,2024_08_12,33.39000832738053,-117.59852,Cottons,2.95,0.632146,0.942614,22,22,"NIGHT_MOSTLY_CLOUDY,NIGHT_MOSTLY_CLEAR,NIGHT_MOSTLY_CLEAR,NIGHT_MOSTLY_CLEAR,NIGHT_MOSTLY_CLEAR,NIGHT_MOSTLY_CLEAR,NIGHT_MOSTLY_CLEAR,MOSTLY_CLEAR,MOSTLY_CLEAR,CLEAR","Onshore,Offshore,Offshore,Cross-shore,Cross-shore,Cross-shore,Cross-shore,Cross-shore,Onshore,Onshore",10
5842041f4e65fad6a7708885,2024_08_12,33.359416282661,-117.54168,Trails,2.9,0.46699999999999997,0.772,22,22,"NIGHT_CLEAR,NIGHT_MOSTLY_CLEAR,NIGHT_MOSTLY_CLOUDY,NIGHT_MOSTLY_CLEAR,NIGHT_MIST,NIGHT_CLEAR,NIGHT_CLEAR,CLEAR,CLEAR,CLEAR","Offshore,Cross-shore,Cross-shore,Offshore,Offshore,Cross-shore,Offshore,Offshore,Onshore,Onshore",10
5842041f4e65fad6a7708886,2024_08_12,33.38042605929805,-117.58332,Middles,3,0.628,0.9319999999999999,22,22,"NIGHT_MOSTLY_CLOUDY,NIGHT_MOSTLY_CLEAR,NIGHT_MOSTLY_CLEAR,NIGHT_MOSTLY_CLEAR,NIGHT_MOSTLY_CLEAR,NIGHT_MOSTLY_CLEAR,NIGHT_MOSTLY_CLEAR,MOSTLY_CLEAR,MOSTLY_CLEAR,CLEAR","Cross-shore,Offshore,Offshore,Offshore,Offshore,Offshore,Offshore,Cross-shore,Cross-shore,Onshore",10
5842041f4e65fad6a7708887,2024_08_12,33.38445596302903,-117.59445,Upper Trestles,3,0.614646,0.9245300000000001,22,22,"NIGHT_MOSTLY_CLOUDY,NIGHT_MOSTLY_CLEAR,NIGHT_MOSTLY_CLEAR,NIGHT_MOSTLY_CLEAR,NIGHT_MOSTLY_CLEAR,NIGHT_MOSTLY_CLEAR,NIGHT_MOSTLY_CLEAR,MOSTLY_CLEAR,MOSTLY_CLEAR,CLEAR","Cross-shore,Offshore,Offshore,Offshore,Offshore,Offshore,Offshore,Cross-shore,Cross-shore,Onshore",10
5842041f4e65fad6a7708889,2024_08_12,28.944414,-95.28883,Surfside,1,0.05143,0.406768,31,31,"NIGHT_CLEAR,NIGHT_MOSTLY_CLOUDY,NIGHT_CLEAR,NIGHT_MOSTLY_CLOUDY,NIGHT_CLEAR,MOSTLY_CLOUDY,MOSTLY_CLOUDY,MOSTLY_CLOUDY,CLOUDY,CLEAR","Onshore,Onshore,Onshore,Onshore,Onshore,Onshore,Onshore,Onshore,Onshore,Onshore",10
5842041f4e65fad6a770888a,2024_08_12,33.38143999849023,-117.58843,Lower Trestles,3,0.818742,1.194289,22,22,"NIGHT_MOSTLY_CLOUDY,NIGHT_MOSTLY_CLEAR,NIGHT_MOSTLY_CLEAR,NIGHT_MOSTLY_CLEAR,NIGHT_MOSTLY_CLEAR,NIGHT_MOSTLY_CLEAR,NIGHT_MOSTLY_CLEAR,MOSTLY_CLEAR,MOSTLY_CLEAR,CLEAR","Cross-shore,Offshore,Offshore,Offshore,Offshore,Offshore,Offshore,Offshore,Cross-shore,Onshore",10
5842041f4e65fad6a770888b,2024_08_12,33.379622288757,-117.57894,Church,2.95,0.562194,0.9004099999999999,22,22,"NIGHT_MOSTLY_CLOUDY,NIGHT_MOSTLY_CLEAR,NIGHT_MOSTLY_CLEAR,NIGHT_MOSTLY_CLEAR,NIGHT_MOSTLY_CLEAR,NIGHT_MOSTLY_CLEAR,NIGHT_MOSTLY_CLEAR,MOSTLY_CLEAR,MOSTLY_CLEAR,CLEAR","Offshore,Offshore,Offshore,Offshore,Cross-shore,Offshore,Offshore,Cross-shore,Onshore,Onshore",10
5842041f4e65fad6a770888d,2024_08_12,21.679,-158.042,Sunset Beach,1.9833333333333334,0.259204,0.564835,26,25,"NIGHT_CLEAR,NIGHT_BRIEF_SHOWERS_POSSIBLE,NIGHT_MOSTLY_CLOUDY,NIGHT_CLEAR,NIGHT_CLEAR,NIGHT_CLEAR,NIGHT_CLEAR,NIGHT_BRIEF_SHOWERS,NIGHT_CLEAR,CLEAR","Cross-shore,Cross-shore,Cross-shore,Cross-shore,Cross-shore,Cross-shore,Cross-shore,Offshore,Offshore,Offshore",10
5842041f4e65fad6a770888e,2024_08_12,21.670550036401,-158.0482,Rocky Point,2.0833333333333335,0.463977,0.769548,26,25,"NIGHT_CLEAR,NIGHT_LIGHT_SHOWERS_POSSIBLE,NIGHT_BRIEF_SHOWERS_POSSIBLE,NIGHT_BRIEF_SHOWERS_POSSIBLE,NIGHT_CLEAR,NIGHT_LIGHT_SHOWERS_POSSIBLE,NIGHT_LIGHT_SHOWERS_POSSIBLE,NIGHT_LIGHT_SHOWERS_POSSIBLE,NIGHT_BRIEF_SHOWERS,CLEAR","Onshore,Cross-shore,Cross-shore,Cross-shore,Cross-shore,Cross-shore,Cross-shore,Offshore,Cross-shore,Cross-shore",10
5842041f4e65fad6a770888f,2024_08_12,21.668,-158.05,Chambers,2,0.47036900000000004,0.775831,26,26,"NIGHT_CLEAR,NIGHT_LIGHT_SHOWERS_POSSIBLE,NIGHT_BRIEF_SHOWERS_POSSIBLE,NIGHT_BRIEF_SHOWERS_POSSIBLE,NIGHT_CLEAR,NIGHT_LIGHT_SHOWERS_POSSIBLE,NIGHT_LIGHT_SHOWERS_POSSIBLE,NIGHT_LIGHT_SHOWERS_POSSIBLE,NIGHT_BRIEF_SHOWERS,CLEAR","Cross-shore,Offshore,Cross-shore,Cross-shore,Cross-shore,Cross-shore,Cross-shore,Cross-shore,Cross-shore,Cross-shore",10
5842041f4e65fad6a7708890,2024_08_12,21.66522,-158.0526,Pipeline,1,0.059417000000000005,0.35160199999999997,26,25,"NIGHT_CLEAR,NIGHT_LIGHT_SHOWERS_POSSIBLE,NIGHT_BRIEF_SHOWERS_POSSIBLE,NIGHT_BRIEF_SHOWERS_POSSIBLE,NIGHT_CLEAR,NIGHT_LIGHT_SHOWERS_POSSIBLE,NIGHT_LIGHT_SHOWERS_POSSIBLE,NIGHT_LIGHT_SHOWERS_POSSIBLE,NIGHT_BRIEF_SHOWERS,CLEAR","Cross-shore,Cross-shore,Cross-shore,Cross-shore,Cross-shore,Cross-shore,Cross-shore,Offshore,Cross-shore,Cross-shore",10
5842041f4e65fad6a7708891,2024_08_12,21.665,-158.054,Backdoor,1.7,0.059417000000000005,0.35160199999999997,26,25,"NIGHT_CLEAR,NIGHT_LIGHT_SHOWERS_POSSIBLE,NIGHT_BRIEF_SHOWERS_POSSIBLE,NIGHT_BRIEF_SHOWERS_POSSIBLE,NIGHT_CLEAR,NIGHT_LIGHT_SHOWERS_POSSIBLE,NIGHT_LIGHT_SHOWERS_POSSIBLE,NIGHT_LIGHT_SHOWERS_POSSIBLE,NIGHT_BRIEF_SHOWERS,CLEAR","Cross-shore,Cross-shore,Cross-shore,Cross-shore,Cross-shore,Cross-shore,Cross-shore,Cross-shore,Cross-shore,Cross-shore",10
5842041f4e65fad6a7708892,2024_08_12,21.662,-158.057,Rockpile,2.7,0.404,0.709,26,26,"NIGHT_CLEAR,NIGHT_LIGHT_SHOWERS_POSSIBLE,NIGHT_BRIEF_SHOWERS_POSSIBLE,NIGHT_BRIEF_SHOWERS_POSSIBLE,NIGHT_CLEAR,NIGHT_LIGHT_SHOWERS_POSSIBLE,NIGHT_LIGHT_SHOWERS_POSSIBLE,NIGHT_LIGHT_SHOWERS_POSSIBLE,NIGHT_BRIEF_SHOWERS,CLEAR","Cross-shore,Cross-shore,Cross-shore,Cross-shore,Cross-shore,Cross-shore,Cross-shore,Offshore,Cross-shore,Cross-shore",10
5842041f4e65fad6a7708893,2024_08_12,21.65870453806827,-158.06058,Log Cabins,1.4,0.333581,0.637703,26,26,"NIGHT_CLEAR,NIGHT_LIGHT_SHOWERS_POSSIBLE,NIGHT_BRIEF_SHOWERS_POSSIBLE,NIGHT_BRIEF_SHOWERS_POSSIBLE,NIGHT_CLEAR,NIGHT_LIGHT_SHOWERS_POSSIBLE,NIGHT_LIGHT_SHOWERS_POSSIBLE,NIGHT_LIGHT_SHOWERS_POSSIBLE,NIGHT_BRIEF_SHOWERS,CLEAR","Cross-shore,Cross-shore,Cross-shore,Cross-shore,Cross-shore,Cross-shore,Cross-shore,Cross-shore,Cross-shore,Cross-shore",10
5842041f4e65fad6a7708894,2024_08_12,21.66203493640557,-158.05495,Off-The-Wall,2,0.134,0.438,26,26,"NIGHT_CLEAR,NIGHT_LIGHT_SHOWERS_POSSIBLE,NIGHT_BRIEF_SHOWERS_POSSIBLE,NIGHT_BRIEF_SHOWERS_POSSIBLE,NIGHT_CLEAR,NIGHT_LIGHT_SHOWERS_POSSIBLE,NIGHT_LIGHT_SHOWERS_POSSIBLE,NIGHT_LIGHT_SHOWERS_POSSIBLE,NIGHT_BRIEF_SHOWERS,CLEAR","Cross-shore,Cross-shore,Cross-shore,Cross-shore,Cross-shore,Cross-shore,Cross-shore,Cross-shore,Cross-shore,Cross-shore",10
5842041f4e65fad6a7708895,2024_08_12,21.643,-158.067,Waimea Bay,NA,0.181,0.47616000000000003,26,25,"NIGHT_CLEAR,NIGHT_LIGHT_SHOWERS_POSSIBLE,NIGHT_BRIEF_SHOWERS_POSSIBLE,NIGHT_BRIEF_SHOWERS_POSSIBLE,NIGHT_CLEAR,NIGHT_LIGHT_SHOWERS_POSSIBLE,NIGHT_LIGHT_SHOWERS_POSSIBLE,NIGHT_LIGHT_SHOWERS_POSSIBLE,NIGHT_BRIEF_SHOWERS,CLEAR","Cross-shore,Offshore,Offshore,Cross-shore,Cross-shore,Offshore,Cross-shore,Offshore,Offshore,Offshore",10
5842041f4e65fad6a7708896,2024_08_12,21.622,-158.087,Hultin's,1,0.229653,0.537973,26,25,"NIGHT_CLEAR,NIGHT_CLEAR,NIGHT_MOSTLY_CLOUDY,NIGHT_CLEAR,NIGHT_MOSTLY_CLEAR,NIGHT_CLEAR,NIGHT_CLEAR,NIGHT_CLEAR,NIGHT_CLEAR,CLEAR","Offshore,Offshore,Offshore,Offshore,Offshore,Offshore,Offshore,Offshore,Offshore,Offshore",10
5842041f4e65fad6a7708897,2024_08_12,21.623,-158.085,Jocko's,2,0.081,0.385,26,26,"NIGHT_CLEAR,NIGHT_CLEAR,NIGHT_MOSTLY_CLOUDY,NIGHT_CLEAR,NIGHT_MOSTLY_CLEAR,NIGHT_CLEAR,NIGHT_CLEAR,NIGHT_CLEAR,NIGHT_CLEAR,CLEAR","Onshore,Onshore,Onshore,Onshore,Onshore,Onshore,Onshore,Onshore,Onshore,Cross-shore",10
5842041f4e65fad6a7708898,2024_08_12,21.62,-158.088,Laniakea,1.9833333333333334,0.508578,0.812644,26,25,"NIGHT_CLEAR,NIGHT_CLEAR,NIGHT_MOSTLY_CLOUDY,NIGHT_CLEAR,NIGHT_MOSTLY_CLEAR,NIGHT_CLEAR,NIGHT_CLEAR,NIGHT_CLEAR,NIGHT_CLEAR,CLEAR","Cross-shore,Cross-shore,Cross-shore,Cross-shore,Cross-shore,Cross-shore,Cross-shore,Cross-shore,Cross-shore,Cross-shore",10
5842041f4e65fad6a7708899,2024_08_12,21.625,-158.083,Chun's,1,0.269,0.573,26,26,"NIGHT_CLEAR,NIGHT_CLEAR,NIGHT_MOSTLY_CLOUDY,NIGHT_CLEAR,NIGHT_MOSTLY_CLEAR,NIGHT_CLEAR,NIGHT_CLEAR,NIGHT_CLEAR,NIGHT_CLEAR,CLEAR","Offshore,Offshore,Offshore,Offshore,Offshore,Offshore,Cross-shore,Offshore,Offshore,Offshore",10
5842041f4e65fad6a770889c,2024_08_12,21.286357895152136,-157.8515,South Shore - Ala Moana Park,2.9,0.728,1.022,26,26,"NIGHT_CLEAR,NIGHT_CLEAR,NIGHT_CLEAR,NIGHT_CLEAR,NIGHT_CLEAR,NIGHT_CLEAR,NIGHT_CLEAR,NIGHT_CLEAR,NIGHT_CLEAR,CLEAR","Offshore,Offshore,Offshore,Offshore,Offshore,Offshore,Offshore,Offshore,Offshore,Offshore",10
5842041f4e65fad6a770889d,2024_08_12,19.606,-155.978,Banyans,2.6,0.423,0.728,26,25,"NIGHT_CLEAR,NIGHT_CLEAR,NIGHT_CLEAR,NIGHT_CLEAR,NIGHT_CLEAR,NIGHT_CLEAR,NIGHT_CLEAR,NIGHT_CLEAR,NIGHT_CLEAR,CLEAR","Onshore,Cross-shore,Cross-shore,Cross-shore,Cross-shore,Onshore,Onshore,Onshore,Offshore,Onshore",10
5842041f4e65fad6a770889e,2024_08_12,20.029,-155.831,Kawaihae,2,0.4444,0.55978000000000006,27,27,"NIGHT_CLEAR,NIGHT_CLEAR,NIGHT_CLEAR,NIGHT_CLEAR,NIGHT_MOSTLY_CLEAR,NIGHT_CLEAR,NIGHT_CLEAR,NIGHT_CLEAR,NIGHT_CLEAR,CLEAR","Cross-shore,Offshore,Offshore,Offshore,Offshore,Offshore,Offshore,Offshore,Offshore,Onshore",10
5842041f4e65fad6a770889f,2024_08_12,33.07541383424675,-117.3105,Grandview,2.9,0.519891,0.826573,22,22,"NIGHT_MIST,NIGHT_MIST,NIGHT_MIST,NIGHT_CLEAR,NIGHT_MOSTLY_CLEAR,NIGHT_MIST,NIGHT_MIST,MOSTLY_CLOUDY,MIST,MIST","Onshore,Onshore,Cross-shore,Cross-shore,Cross-shore,Cross-shore,Onshore,Onshore,Onshore,Onshore",10
5842041f4e65fad6a77088a0,2024_08_12,33.065267421296596,-117.30577,Beacons,2.9,0.431,0.737,22,22,"NIGHT_MIST,NIGHT_MIST,NIGHT_MIST,NIGHT_CLEAR,NIGHT_MOSTLY_CLEAR,NIGHT_MIST,NIGHT_MIST,MOSTLY_CLOUDY,MIST,MIST","Onshore,Onshore,Cross-shore,Cross-shore,Cross-shore,Cross-shore,Onshore,Onshore,Onshore,Onshore",10
5842041f4e65fad6a77088a2,2024_08_12,21.252,-157.805,Diamond Head,3,0.763945,1.081853,26,25,"NIGHT_BRIEF_SHOWERS,NIGHT_MOSTLY_CLOUDY,NIGHT_MOSTLY_CLEAR,NIGHT_MOSTLY_CLOUDY,NIGHT_MOSTLY_CLOUDY,NIGHT_MOSTLY_CLOUDY,NIGHT_MOSTLY_CLOUDY,NIGHT_MOSTLY_CLOUDY,NIGHT_MOSTLY_CLOUDY,CLEAR","Cross-shore,Cross-shore,Cross-shore,Offshore,Cross-shore,Cross-shore,Cross-shore,Cross-shore,Cross-shore,Cross-shore",10
5842041f4e65fad6a77088a3,2024_08_12,33.04694255008896,-117.29966,Moonlight State Beach,2.9,0.414,0.721,22,22,"NIGHT_MIST,NIGHT_MIST,NIGHT_MIST,NIGHT_MIST,NIGHT_MIST,NIGHT_MIST,NIGHT_MIST,MOSTLY_CLOUDY,MIST,MIST","Cross-shore,Onshore,Onshore,Offshore,Offshore,Cross-shore,Cross-shore,Cross-shore,Onshore,Onshore",10
5842041f4e65fad6a77088a5,2024_08_12,33.08685865930869,-117.31532,Ponto,2.9,0.451394,0.7560910000000001,21.5,21.5,"NIGHT_MIST,NIGHT_MIST,NIGHT_MIST,NIGHT_CLEAR,NIGHT_MOSTLY_CLEAR,NIGHT_MIST,NIGHT_MIST,MOSTLY_CLOUDY,MIST,MIST","Onshore,Onshore,Offshore,Onshore,Onshore,Offshore,Cross-shore,Cross-shore,Onshore,Onshore",10
5842041f4e65fad6a77088a6,2024_08_12,33.130343587871906,-117.33668,Terra Mar Point,2.7,0.374465,0.679613,21.2,21.2,"NIGHT_CLEAR,NIGHT_CLEAR,NIGHT_CLEAR,NIGHT_CLEAR,NIGHT_CLEAR,NIGHT_CLEAR,NIGHT_CLEAR,CLEAR,MOSTLY_CLEAR,CLEAR","Onshore,Onshore,Onshore,Onshore,Offshore,Offshore,Cross-shore,Cross-shore,Offshore,Onshore",10
5842041f4e65fad6a77088af,2024_08_12,32.95916304183685,-117.26963,Del Mar,2.9,0.40591699999999997,0.710592,21.5,21.5,"NIGHT_MIST,NIGHT_MIST,NIGHT_MIST,NIGHT_MIST,NIGHT_MIST,NIGHT_MIST,NIGHT_MIST,MIST,MIST,MIST","Onshore,Onshore,Cross-shore,Cross-shore,Cross-shore,Cross-shore,Cross-shore,Cross-shore,Onshore,Onshore",10
5842041f4e65fad6a77088b0,2024_08_12,32.97527261243354,-117.2721061331305,Del Mar Rivermouth,2.9,0.415,0.721,22,22,"NIGHT_MIST,NIGHT_MIST,NIGHT_MIST,NIGHT_MIST,NIGHT_MIST,NIGHT_MIST,NIGHT_MIST,MIST,MIST,MIST","Onshore,Onshore,Cross-shore,Cross-shore,Cross-shore,Cross-shore,Cross-shore,Cross-shore,Onshore,Onshore",10
5842041f4e65fad6a77088b1,2024_08_12,33.01352178146273,-117.28219,Cardiff Reef,2,0.25284,0.5573319999999999,21.2,21.2,"NIGHT_MIST,NIGHT_MIST,NIGHT_MIST,NIGHT_MIST,NIGHT_MIST,NIGHT_BRIEF_SHOWERS_POSSIBLE,NIGHT_MIST,MOSTLY_CLOUDY,MIST,MIST","Onshore,Onshore,Onshore,Onshore,Cross-shore,Offshore,Offshore,Offshore,Offshore,Onshore",10
5842041f4e65fad6a77088b3,2024_08_12,33.00211185876003,-117.2811,Seaside Reef,2.9,0.457,0.762,22,22,"NIGHT_MIST,NIGHT_MIST,NIGHT_MIST,NIGHT_MIST,NIGHT_CLEAR,NIGHT_MIST,NIGHT_MIST,MOSTLY_CLOUDY,MIST,MIST","Onshore,Cross-shore,Cross-shore,Cross-shore,Cross-shore,Cross-shore,Cross-shore,Cross-shore,Onshore,Onshore",10
5842041f4e65fad6a77088b4,2024_08_12,33.0341859796287,-117.29552,Swami's,2.7,0.388699,0.691647,21.2,21.2,"NIGHT_MIST,NIGHT_MIST,NIGHT_MIST,NIGHT_MIST,NIGHT_MIST,NIGHT_BRIEF_SHOWERS_POSSIBLE,NIGHT_MIST,MOSTLY_CLOUDY,MIST,MIST","Cross-shore,Onshore,Onshore,Cross-shore,Cross-shore,Cross-shore,Cross-shore,Cross-shore,Onshore,Onshore",10
5842041f4e65fad6a77088b7,2024_08_12,33.04569760260221,-117.2994,D Street,2.9,0.507747,0.815871,22,22,"NIGHT_MIST,NIGHT_MIST,NIGHT_MIST,NIGHT_MIST,NIGHT_MIST,NIGHT_MIST,NIGHT_MIST,MOSTLY_CLOUDY,MIST,MIST","Offshore,Onshore,Onshore,Offshore,Offshore,Cross-shore,Cross-shore,Cross-shore,Onshore,Onshore",10
5842041f4e65fad6a77088b8,2024_08_12,33.02090944350196,-117.28535,San Elijo State Beach,2,0.213901,0.518111,21.2,21.2,"NIGHT_MIST,NIGHT_MIST,NIGHT_MIST,NIGHT_MIST,NIGHT_MIST,NIGHT_BRIEF_SHOWERS_POSSIBLE,NIGHT_MIST,MOSTLY_CLOUDY,MIST,MIST","Cross-shore,Onshore,Onshore,Onshore,Cross-shore,Offshore,Offshore,Offshore,Offshore,Onshore",10
5842041f4e65fad6a77088c2,2024_08_12,32.80662846492798,-117.26888,PB Point,2.9,0.419,0.722,21,21,"NIGHT_CLEAR,NIGHT_CLEAR,NIGHT_CLEAR,NIGHT_CLEAR,NIGHT_CLEAR,NIGHT_CLEAR,NIGHT_CLEAR,CLEAR,CLEAR,CLEAR","Cross-shore,Cross-shore,Cross-shore,Cross-shore,Offshore,Offshore,Offshore,Cross-shore,Cross-shore,Cross-shore",10
5842041f4e65fad6a77088c4,2024_08_12,32.8060476681448,-117.26479,Old Man's at Tourmaline,2.7,0.31958,0.62173,21,21,"NIGHT_CLEAR,NIGHT_CLEAR,NIGHT_CLEAR,NIGHT_CLEAR,NIGHT_CLEAR,NIGHT_CLEAR,NIGHT_CLEAR,CLEAR,CLEAR,CLEAR","Offshore,Cross-shore,Cross-shore,Cross-shore,Offshore,Offshore,Offshore,Cross-shore,Cross-shore,Cross-shore",10
5842041f4e65fad6a77088cb,2024_08_12,32.557056711256,-117.1327445020322,Tijuana Slough,2.5,0.306,0.608,20,20,"NIGHT_MOSTLY_CLOUDY,NIGHT_MOSTLY_CLEAR,NIGHT_CLEAR,NIGHT_CLEAR,NIGHT_CLEAR,NIGHT_CLEAR,NIGHT_MIST,MIST,MIST,MIST","Onshore,Onshore,Cross-shore,Cross-shore,Onshore,Onshore,Onshore,Onshore,Onshore,Onshore",10
5842041f4e65fad6a77088cc,2024_08_12,32.863,-117.257,La Jolla Shores,2.2,0.307,0.614,21.5,21.5,"NIGHT_OVERCAST,NIGHT_MIST,NIGHT_MIST,NIGHT_MIST,NIGHT_MIST,NIGHT_MIST,NIGHT_MIST,MIST,MIST,MIST","Onshore,Onshore,Onshore,Onshore,Onshore,Onshore,Onshore,Onshore,Onshore,Onshore",10
5842041f4e65fad6a77088ce,2024_08_12,32.67443657790586,-117.17421,Coronado Beach,2,0.295,0.603,21,21,"NIGHT_CLEAR,NIGHT_CLEAR,NIGHT_CLEAR,NIGHT_CLEAR,NIGHT_CLEAR,NIGHT_MOSTLY_CLEAR,NIGHT_MOSTLY_CLEAR,CLEAR,MIST,MIST","Onshore,Cross-shore,Cross-shore,Onshore,Onshore,Onshore,Onshore,Onshore,Onshore,Onshore",10
5842041f4e65fad6a77088cf,2024_08_12,33.40484417640326,-117.60749,San Clemente State Beach,2.9,0.371,0.675,22,22,"NIGHT_MOSTLY_CLOUDY,NIGHT_MOSTLY_CLEAR,NIGHT_MOSTLY_CLEAR,NIGHT_CLEAR,NIGHT_CLEAR,NIGHT_CLEAR,NIGHT_CLEAR,MOSTLY_CLEAR,CLEAR,CLEAR","Cross-shore,Cross-shore,Cross-shore,Cross-shore,Offshore,Offshore,Cross-shore,Onshore,Onshore,Onshore",10
5842041f4e65fad6a77088d5,2024_08_12,33.4663042002114,-117.7168352817103,Strands,2.7,0.45136,0.755266,20,20,"NIGHT_MIST,NIGHT_MIST,NIGHT_MIST,NIGHT_CLEAR,NIGHT_CLEAR,NIGHT_CLEAR,NIGHT_CLEAR,MIST,CLEAR,MIST","Onshore,Onshore,Onshore,Cross-shore,Cross-shore,Cross-shore,Onshore,Onshore,Onshore,Onshore",10
5842041f4e65fad6a77088d7,2024_08_12,33.4609858001748,-117.68535,Doheny State Beach,2.85,0.358294,0.664339,17.5,17.5,"NIGHT_CLEAR,NIGHT_CLEAR,NIGHT_CLEAR,NIGHT_CLEAR,NIGHT_CLEAR,NIGHT_CLEAR,NIGHT_CLEAR,CLEAR,CLEAR,CLEAR","Onshore,Onshore,Onshore,Onshore,Cross-shore,Offshore,Onshore,Onshore,Onshore,Onshore",10
5842041f4e65fad6a77088dc,2024_08_12,33.50894790083017,-117.75243,Aliso Creek,2.9,0.369,0.675,21.5,21.5,"NIGHT_MOSTLY_CLOUDY,NIGHT_MOSTLY_CLOUDY,NIGHT_MIST,NIGHT_MIST,NIGHT_MIST,NIGHT_MIST,NIGHT_CLEAR,CLEAR,MIST,MIST","Onshore,Cross-shore,Cross-shore,Cross-shore,Cross-shore,Cross-shore,Cross-shore,Cross-shore,Onshore,Onshore",10
5842041f4e65fad6a77088dd,2024_08_12,33.5326591767067,-117.77764,Brooks Street,2,0.295,0.598,21.5,21.5,"NIGHT_MOSTLY_CLOUDY,NIGHT_MOSTLY_CLOUDY,NIGHT_MIST,NIGHT_MIST,NIGHT_MIST,NIGHT_MIST,NIGHT_MIST,MIST,MIST,MIST","Onshore,Cross-shore,Cross-shore,Cross-shore,Cross-shore,Offshore,Cross-shore,Cross-shore,Onshore,Onshore",10
5842041f4e65fad6a77088de,2024_08_12,33.53561225884637,-117.7799,Thalia Street,2,0.245,0.548,21.5,21.5,"NIGHT_MOSTLY_CLOUDY,NIGHT_MOSTLY_CLOUDY,NIGHT_MIST,NIGHT_MIST,NIGHT_MIST,NIGHT_MIST,NIGHT_MIST,MIST,MIST,MIST","Onshore,Cross-shore,Cross-shore,Cross-shore,Cross-shore,Offshore,Cross-shore,Cross-shore,Cross-shore,Onshore",10
5842041f4e65fad6a77088e3,2024_08_12,33.54268310353641,-117.7916,Rockpile,2,0.295,0.598,21.5,21.5,"NIGHT_MOSTLY_CLOUDY,NIGHT_MOSTLY_CLOUDY,NIGHT_MIST,NIGHT_MIST,NIGHT_MIST,NIGHT_MIST,NIGHT_MIST,MIST,MIST,MIST","Cross-shore,Cross-shore,Cross-shore,Cross-shore,Offshore,Offshore,Cross-shore,Cross-shore,Cross-shore,Onshore",10
5842041f4e65fad6a77088e4,2024_08_12,33.7368459504689,-118.10342,"Seal Beach Pier, Southside",1.9,0.014,0.317,20.5,20.5,"NIGHT_BRIEF_SHOWERS,NIGHT_BRIEF_SHOWERS,NIGHT_MIST,NIGHT_MIST,NIGHT_MIST,NIGHT_MIST,NIGHT_MIST,MIST,MIST,MIST","Onshore,Onshore,Cross-shore,Onshore,Offshore,Offshore,Offshore,Cross-shore,Cross-shore,Onshore",10
5842041f4e65fad6a77088e5,2024_08_12,33.73933701820233,-118.117,Ray Bay,1.9,0.274,0.58,20.5,20.5,"NIGHT_MOSTLY_CLEAR,NIGHT_BRIEF_SHOWERS,NIGHT_BRIEF_SHOWERS,NIGHT_CLEAR,NIGHT_CLEAR,NIGHT_CLEAR,NIGHT_CLEAR,MOSTLY_CLEAR,MOSTLY_CLEAR,CLEAR","Onshore,Onshore,Cross-shore,Cross-shore,Offshore,Offshore,Offshore,Cross-shore,Onshore,Onshore",10
5842041f4e65fad6a77088e7,2024_08_12,33.728733,-118.08982,Surfside,1,0,0.279,20.5,20.5,"NIGHT_CLEAR,NIGHT_CLEAR,NIGHT_CLEAR,NIGHT_MOSTLY_CLEAR,NIGHT_CLEAR,NIGHT_MOSTLY_CLEAR,NIGHT_MOSTLY_CLEAR,MOSTLY_CLEAR,MOSTLY_CLEAR,CLEAR","Onshore,Onshore,Cross-shore,Onshore,Offshore,Offshore,Offshore,Cross-shore,Onshore,Onshore",10
5842041f4e65fad6a77088e8,2024_08_12,33.68760321488161,-118.04236,Bolsa Chica State Beach,2.466666666666667,0.450005,0.754075,19,19,"NIGHT_CLEAR,NIGHT_CLEAR,NIGHT_CLEAR,NIGHT_MOSTLY_CLOUDY,NIGHT_MOSTLY_CLOUDY,NIGHT_MOSTLY_CLOUDY,NIGHT_MOSTLY_CLOUDY,MOSTLY_CLOUDY,MOSTLY_CLEAR,CLEAR","Offshore,Offshore,Offshore,Offshore,Offshore,Offshore,Offshore,Offshore,Onshore,Onshore",10
5842041f4e65fad6a77088ea,2024_08_12,33.66704400178788,-118.0192,North HB Streets,2.7,0.585991,0.933829,19,19,"NIGHT_MOSTLY_CLOUDY,NIGHT_BRIEF_SHOWERS,NIGHT_MOSTLY_CLOUDY,NIGHT_CLEAR,NIGHT_CLEAR,NIGHT_CLEAR,NIGHT_CLEAR,MOSTLY_CLEAR,MOSTLY_CLEAR,CLEAR","Onshore,Onshore,Cross-shore,Onshore,Onshore,Onshore,Onshore,Onshore,Cross-shore,Onshore",10
5842041f4e65fad6a77088ed,2024_08_12,33.65475101379567,-118.00291,Huntington Beach Pier Southside,2.6333333333333333,0.614781,0.926928,19,19,"NIGHT_MOSTLY_CLOUDY,NIGHT_BRIEF_SHOWERS,NIGHT_MOSTLY_CLOUDY,NIGHT_CLEAR,NIGHT_CLEAR,NIGHT_CLEAR,NIGHT_CLEAR,MOSTLY_CLEAR,MOSTLY_CLEAR,CLEAR","Onshore,Onshore,Onshore,Onshore,Onshore,Onshore,Onshore,Onshore,Onshore,Onshore",10
5842041f4e65fad6a77088ee,2024_08_12,33.62778647706099,-117.95939,River Jetties,2.7,0.624896,0.965114,19,19,"NIGHT_MOSTLY_CLOUDY,NIGHT_MOSTLY_CLOUDY,NIGHT_MOSTLY_CLOUDY,NIGHT_CLEAR,NIGHT_CLEAR,NIGHT_CLEAR,NIGHT_CLEAR,MOSTLY_CLOUDY,MOSTLY_CLOUDY,CLEAR","Onshore,Onshore,Onshore,Onshore,Onshore,Onshore,Onshore,Onshore,Onshore,Onshore",10
5842041f4e65fad6a77088f2,2024_08_12,33.605165797643664,-117.925,Newport Point,2.9,0.5589999999999999,0.866,21.5,21.5,"NIGHT_MIST,NIGHT_MIST,NIGHT_MIST,NIGHT_MIST,NIGHT_MIST,NIGHT_MIST,NIGHT_MIST,MIST,MIST,MIST","Onshore,Onshore,Onshore,Cross-shore,Cross-shore,Cross-shore,Cross-shore,Onshore,Onshore,Onshore",10
5842041f4e65fad6a77088f3,2024_08_12,33.58982984726977,-117.87713,Corona del Mar,2.9,0.362,0.668,21.5,21.5,"NIGHT_MIST,NIGHT_MOSTLY_CLOUDY,NIGHT_MOSTLY_CLOUDY,NIGHT_MIST,NIGHT_MIST,NIGHT_MOSTLY_CLOUDY,NIGHT_MIST,MOSTLY_CLOUDY,MIST,MIST","Onshore,Onshore,Cross-shore,Onshore,Offshore,Onshore,Onshore,Onshore,Cross-shore,Onshore",10
5842041f4e65fad6a77088f7,2024_08_12,34.00750300824362,-118.4971783496269,Santa Monica Pier,1.9,0.237,0.54,20.5,20.5,"NIGHT_CLEAR,NIGHT_CLEAR,NIGHT_CLEAR,NIGHT_MOSTLY_CLEAR,NIGHT_MOSTLY_CLEAR,NIGHT_MOSTLY_CLEAR,NIGHT_MOSTLY_CLEAR,MOSTLY_CLEAR,MOSTLY_CLEAR,CLEAR","Onshore,Onshore,Onshore,Onshore,Onshore,Onshore,Onshore,Onshore,Onshore,Onshore",10
5842041f4e65fad6a77088ff,2024_08_12,33.94070283102945,-118.44321,Dockweiler Beach,2.1,0.331174,0.63531,18,18,"NIGHT_MIST,NIGHT_MIST,NIGHT_MIST,NIGHT_MIST,NIGHT_MIST,NIGHT_MIST,NIGHT_MIST,MIST,MIST,MIST","Onshore,Onshore,Onshore,Onshore,Onshore,Onshore,Onshore,Onshore,Onshore,Onshore",10
5842041f4e65fad6a7708900,2024_08_12,33.9231846937237,-118.4341465777908,Shitpipe,2.2333333333333334,0.378506,0.683644,18,18,"NIGHT_MIST,NIGHT_MIST,NIGHT_MIST,NIGHT_MIST,NIGHT_MIST,NIGHT_MIST,NIGHT_MIST,MIST,MIST,MIST","Onshore,Onshore,Onshore,Onshore,Onshore,Onshore,Onshore,Onshore,Onshore,Onshore",10
5842041f4e65fad6a7708902,2024_08_12,33.9108528052242,-118.4279133138721,Hammerland,2.3,0.378506,0.683644,18,18,"NIGHT_MIST,NIGHT_MIST,NIGHT_MIST,NIGHT_MIST,NIGHT_MIST,NIGHT_MIST,NIGHT_MIST,MIST,MIST,MIST","Onshore,Onshore,Onshore,Onshore,Onshore,Onshore,Onshore,Onshore,Onshore,Onshore",10
5842041f4e65fad6a7708904,2024_08_12,33.87201368173932,-118.40752,Hermosa Beach,2.15,0.316012,0.622748,18,18,"NIGHT_MIST,NIGHT_MIST,NIGHT_MIST,NIGHT_MIST,NIGHT_MIST,NIGHT_MIST,NIGHT_MIST,MIST,MIST,MIST","Onshore,Onshore,Onshore,Onshore,Onshore,Onshore,Onshore,Onshore,Onshore,Onshore",10
5842041f4e65fad6a7708906,2024_08_12,33.90129336911256,-118.42184,El Porto,2.4,0.469382,0.774953,18,18,"NIGHT_MIST,NIGHT_MIST,NIGHT_MIST,NIGHT_MIST,NIGHT_MIST,NIGHT_MIST,NIGHT_MIST,MIST,MIST,MIST","Onshore,Onshore,Onshore,Onshore,Onshore,Onshore,Onshore,Onshore,Onshore,Onshore",10
5842041f4e65fad6a7708907,2024_08_12,33.87963506431794,-118.41102,Manhattan Beach Pier,2.4,0.477939,0.853495,18,18,"NIGHT_MIST,NIGHT_MIST,NIGHT_MIST,NIGHT_MIST,NIGHT_MIST,NIGHT_MIST,NIGHT_MIST,MIST,MIST,MIST","Onshore,Onshore,Onshore,Onshore,Onshore,Onshore,Onshore,Onshore,Onshore,Onshore",10
5842041f4e65fad6a7708914,2024_08_12,34.038053387863464,-118.5532,Sunset Point,2,0.137,0.446,20,20,"NIGHT_CLEAR,NIGHT_CLEAR,NIGHT_CLEAR,NIGHT_MIST,NIGHT_CLEAR,NIGHT_CLEAR,NIGHT_MIST,MIST,CLEAR,CLEAR","Offshore,Onshore,Offshore,Offshore,Offshore,Offshore,Cross-shore,Onshore,Onshore,Cross-shore",10
5842041f4e65fad6a7708920,2024_08_12,33.80282,-118.39989,Haggerty's,1.9,0.1016,0.344,21,21,"NIGHT_MIST,NIGHT_MIST,NIGHT_MIST,NIGHT_BRIEF_SHOWERS,NIGHT_MIST,NIGHT_MIST,NIGHT_MIST,MIST,MIST,MIST","Cross-shore,Onshore,Onshore,Onshore,Onshore,Onshore,Onshore,Cross-shore,Onshore,Onshore",10
5842041f4e65fad6a7708921,2024_08_12,33.85044519861206,-118.40048,Redondo Breakwater,1.9,0.252062,0.558072,21,21,"NIGHT_MIST,NIGHT_MIST,NIGHT_MIST,NIGHT_MIST,NIGHT_MIST,NIGHT_MIST,NIGHT_MIST,MIST,MIST,MIST","Onshore,Onshore,Onshore,Onshore,Onshore,Onshore,Onshore,Onshore,Onshore,Onshore",10
5842041f4e65fad6a7708927,2024_08_12,33.70877301002487,-118.2840112858389,Cabrillo Beach,2,0.123,0.429,20.5,20.5,"NIGHT_CLEAR,NIGHT_CLEAR,NIGHT_CLEAR,NIGHT_CLEAR,NIGHT_CLEAR,NIGHT_CLEAR,NIGHT_CLEAR,CLEAR,CLEAR,CLEAR","Onshore,Onshore,Cross-shore,Cross-shore,Cross-shore,Onshore,Offshore,Cross-shore,Cross-shore,Onshore",10
5842041f4e65fad6a770892c,2024_08_12,33.77209986806257,-118.4268428476672,Lunada Bay,1,0.20700000000000002,0.512,21,21,"NIGHT_MIST,NIGHT_MIST,NIGHT_MIST,NIGHT_MIST,NIGHT_MIST,NIGHT_MIST,NIGHT_MIST,MIST,MIST,MIST","Onshore,Cross-shore,Cross-shore,Cross-shore,Cross-shore,Cross-shore,Cross-shore,Cross-shore,Cross-shore,Onshore",10
5842041f4e65fad6a770892d,2024_08_12,33.79294656286144,-118.40703,PV Cove,1.9,0.127,0.43,21,21,"NIGHT_MIST,NIGHT_MIST,NIGHT_MIST,NIGHT_BRIEF_SHOWERS,NIGHT_MIST,NIGHT_MIST,NIGHT_MIST,MIST,MIST,MIST","Onshore,Onshore,Onshore,Onshore,Onshore,Onshore,Onshore,Onshore,Onshore,Onshore",10
5842041f4e65fad6a7708930,2024_08_12,34.03944902292561,-118.57539,Chart House,0,0,0.128,20,20,"NIGHT_CLEAR,NIGHT_CLEAR,NIGHT_CLEAR,NIGHT_CLEAR,NIGHT_CLEAR,NIGHT_CLEAR,NIGHT_CLEAR,CLEAR,CLEAR,CLEAR","Offshore,Onshore,Offshore,Cross-shore,Cross-shore,Offshore,Offshore,Onshore,Cross-shore,Cross-shore",10
5842041f4e65fad6a7708936,2024_08_12,34.0016731994772,-118.80456,Point Dume,2,0.250406,0.553314,19,19,"NIGHT_MIST,NIGHT_MIST,NIGHT_CLEAR,NIGHT_MIST,NIGHT_CLEAR,NIGHT_CLEAR,NIGHT_CLEAR,CLEAR,CLEAR,MIST","Cross-shore,Cross-shore,Cross-shore,Offshore,Offshore,Offshore,Cross-shore,Cross-shore,Cross-shore,Cross-shore",10
5842041f4e65fad6a7708937,2024_08_12,34.02587527588963,-118.7554939066114,Latigo Point,2.9,0.313,0.618,20,20,"NIGHT_CLEAR,NIGHT_CLEAR,NIGHT_CLEAR,NIGHT_CLEAR,NIGHT_CLEAR,NIGHT_CLEAR,NIGHT_CLEAR,CLEAR,CLEAR,CLEAR","Offshore,Offshore,Onshore,Offshore,Offshore,Offshore,Offshore,Offshore,Cross-shore,Onshore",10
5842041f4e65fad6a770893f,2024_08_12,34.043762,-118.93294,Leo Carrillo,2.35,0.49161000000000005,0.7956,18,18,"NIGHT_CLEAR,NIGHT_CLEAR,NIGHT_CLEAR,NIGHT_CLEAR,NIGHT_CLEAR,NIGHT_CLEAR,NIGHT_CLEAR,CLEAR,CLEAR,MIST","Offshore,Cross-shore,Offshore,Cross-shore,Cross-shore,Cross-shore,Cross-shore,Offshore,Cross-shore,Cross-shore",10
5842041f4e65fad6a7708941,2024_08_12,36.69388179265737,-121.81289,Marina State Beach,1.9,0.682,0.986,14,14,"NIGHT_MOSTLY_CLOUDY,NIGHT_MOSTLY_CLOUDY,NIGHT_MOSTLY_CLOUDY,NIGHT_MIST,NIGHT_MIST,NIGHT_MIST,NIGHT_MIST,MIST,MIST,MOSTLY_CLEAR","Onshore,Onshore,Onshore,Onshore,Onshore,Onshore,Onshore,Onshore,Onshore,Onshore",10
5842041f4e65fad6a7708944,2024_08_12,34.34145077331085,-119.416999352654,Stanley's,1.4,0.011,0.307,18,18,"NIGHT_CLEAR,NIGHT_CLEAR,NIGHT_CLEAR,NIGHT_CLEAR,NIGHT_CLEAR,NIGHT_CLEAR,NIGHT_CLEAR,CLEAR,CLEAR,CLEAR","Offshore,Offshore,Offshore,Cross-shore,Cross-shore,Offshore,Offshore,Offshore,Onshore,Onshore",10
5842041f4e65fad6a7708945,2024_08_12,34.35113017313915,-119.426921498899,Oil Piers,1.4,0.011,0.307,18,18,"NIGHT_CLEAR,NIGHT_CLEAR,NIGHT_CLEAR,NIGHT_CLEAR,NIGHT_CLEAR,NIGHT_CLEAR,NIGHT_CLEAR,CLEAR,CLEAR,CLEAR","Offshore,Offshore,Offshore,Offshore,Offshore,Offshore,Offshore,Offshore,Cross-shore,Onshore",10
5842041f4e65fad6a770894c,2024_08_12,34.17876333306018,-119.23995,Oxnard,2.1,0.386,0.691,19,19,"NIGHT_CLEAR,NIGHT_CLEAR,NIGHT_CLEAR,NIGHT_CLEAR,NIGHT_CLEAR,NIGHT_CLEAR,NIGHT_CLEAR,CLEAR,CLEAR,CLEAR","Cross-shore,Onshore,Onshore,Onshore,Onshore,Cross-shore,Onshore,Onshore,Onshore,Onshore",10
5842041f4e65fad6a7708957,2024_08_12,34.31720331100517,-119.3882324751725,Pitas Point,2,0.137,0.44,18.5,18.5,"NIGHT_CLEAR,NIGHT_CLEAR,NIGHT_CLEAR,NIGHT_CLEAR,NIGHT_CLEAR,NIGHT_CLEAR,NIGHT_CLEAR,CLEAR,CLEAR,MIST","Cross-shore,Offshore,Offshore,Offshore,Offshore,Offshore,Offshore,Offshore,Offshore,Onshore",10
5842041f4e65fad6a7708959,2024_08_12,34.27851754384724,-119.3162,Emma Wood,1.9,0.219,0.526,18.5,18.5,"NIGHT_CLEAR,NIGHT_CLEAR,NIGHT_CLEAR,NIGHT_CLEAR,NIGHT_CLEAR,NIGHT_CLEAR,NIGHT_CLEAR,CLEAR,CLEAR,MIST","Cross-shore,Cross-shore,Onshore,Onshore,Onshore,Cross-shore,Cross-shore,Cross-shore,Onshore,Onshore",10
5842041f4e65fad6a770895a,2024_08_12,34.35513640390276,-119.4400589884255,Mussel Shoals (aka Little Rincon),2,0.025,0.326,18,18,"NIGHT_CLEAR,NIGHT_CLEAR,NIGHT_CLEAR,NIGHT_MIST,NIGHT_MIST,NIGHT_CLEAR,NIGHT_CLEAR,CLEAR,CLEAR,MIST","Cross-shore,Onshore,Offshore,Offshore,Offshore,Offshore,Offshore,Offshore,Offshore,Onshore",10
5842041f4e65fad6a770895e,2024_08_12,34.28991757054902,-119.3366646794652,Summer Beach,1.9,0.126,0.431,18.5,18.5,"NIGHT_CLEAR,NIGHT_CLEAR,NIGHT_CLEAR,NIGHT_CLEAR,NIGHT_CLEAR,NIGHT_CLEAR,NIGHT_CLEAR,CLEAR,CLEAR,MIST","Onshore,Onshore,Onshore,Onshore,Onshore,Cross-shore,Onshore,Onshore,Onshore,Onshore",10
5842041f4e65fad6a770895f,2024_08_12,34.30897456105926,-119.3582501170116,Solimar,2,0.126,0.431,18.5,18.5,"NIGHT_CLEAR,NIGHT_CLEAR,NIGHT_CLEAR,NIGHT_CLEAR,NIGHT_CLEAR,NIGHT_CLEAR,NIGHT_CLEAR,CLEAR,CLEAR,MIST","Cross-shore,Offshore,Offshore,Offshore,Offshore,Offshore,Offshore,Offshore,Offshore,Onshore",10
5842041f4e65fad6a7708960,2024_08_12,34.39836265281686,-119.70213,Leadbetter Point,0.6,0,0.11,17.5,17.5,"NIGHT_CLEAR,NIGHT_CLEAR,NIGHT_CLEAR,NIGHT_CLEAR,NIGHT_CLEAR,NIGHT_CLEAR,NIGHT_CLEAR,CLEAR,CLEAR,CLEAR","Cross-shore,Offshore,Offshore,Offshore,Offshore,Offshore,Offshore,Offshore,Offshore,Cross-shore",10
5842041f4e65fad6a7708961,2024_08_12,34.46052293893899,-120.07328,Refugio,2,0.004,0.311,16.5,16.5,"NIGHT_CLEAR,NIGHT_CLEAR,NIGHT_CLEAR,NIGHT_CLEAR,NIGHT_CLEAR,NIGHT_CLEAR,NIGHT_CLEAR,CLEAR,CLEAR,CLEAR","Onshore,Onshore,Cross-shore,Offshore,Offshore,Cross-shore,Offshore,Cross-shore,Offshore,Cross-shore",10
5842041f4e65fad6a7708962,2024_08_12,34.40754276777778,-119.87639,Devereux,1,0,0.263,17,17,"NIGHT_MIST,NIGHT_MIST,NIGHT_MIST,NIGHT_CLEAR,NIGHT_CLEAR,NIGHT_CLEAR,NIGHT_CLEAR,CLEAR,MIST,MIST","Onshore,Onshore,Onshore,Cross-shore,Cross-shore,Cross-shore,Cross-shore,Cross-shore,Cross-shore,Cross-shore",10
5842041f4e65fad6a7708963,2024_08_12,34.27479983305182,-119.3133222656776,Ventura Overhead,1.9,0.219,0.526,18.5,18.5,"NIGHT_CLEAR,NIGHT_CLEAR,NIGHT_CLEAR,NIGHT_CLEAR,NIGHT_CLEAR,NIGHT_CLEAR,NIGHT_CLEAR,CLEAR,CLEAR,MIST","Onshore,Cross-shore,Onshore,Onshore,Onshore,Cross-shore,Onshore,Onshore,Onshore,Onshore",10
5842041f4e65fad6a7708964,2024_08_12,34.41023236011655,-119.88261,Sands,1,0,0.251,16.5,16.5,"NIGHT_MIST,NIGHT_MIST,NIGHT_MIST,NIGHT_CLEAR,NIGHT_CLEAR,NIGHT_CLEAR,NIGHT_CLEAR,CLEAR,MIST,MIST","Cross-shore,Offshore,Cross-shore,Onshore,Onshore,Onshore,Onshore,Onshore,Onshore,Onshore",10
5842041f4e65fad6a7708966,2024_08_12,34.40450193869233,-119.68752,Sandspit,0.5,0,0.11,17.5,17.5,"NIGHT_CLEAR,NIGHT_CLEAR,NIGHT_CLEAR,NIGHT_CLEAR,NIGHT_CLEAR,NIGHT_CLEAR,NIGHT_CLEAR,CLEAR,CLEAR,CLEAR","Cross-shore,Offshore,Offshore,Offshore,Offshore,Offshore,Offshore,Offshore,Offshore,Cross-shore",10
5842041f4e65fad6a7708967,2024_08_12,34.41549098334453,-119.6375149840203,Hammond's,1,0,0.224,17.5,17.5,"NIGHT_CLEAR,NIGHT_CLEAR,NIGHT_CLEAR,NIGHT_CLEAR,NIGHT_CLEAR,NIGHT_CLEAR,NIGHT_CLEAR,CLEAR,CLEAR,CLEAR","Cross-shore,Onshore,Offshore,Onshore,Onshore,Offshore,Onshore,Offshore,Onshore,Onshore",10
5842041f4e65fad6a7708968,2024_08_12,34.45759322742309,-120.02203,El Capitan,2,0.004,0.312,16.5,16.5,"NIGHT_CLEAR,NIGHT_CLEAR,NIGHT_CLEAR,NIGHT_CLEAR,NIGHT_CLEAR,NIGHT_CLEAR,NIGHT_CLEAR,CLEAR,CLEAR,CLEAR","Onshore,Cross-shore,Onshore,Offshore,Offshore,Onshore,Cross-shore,Offshore,Onshore,Onshore",10
5842041f4e65fad6a770896c,2024_08_12,34.405117655616,-119.84317,Campus Point,1,0,0.251,17,17,"NIGHT_CLEAR,NIGHT_CLEAR,NIGHT_CLEAR,NIGHT_CLEAR,NIGHT_CLEAR,NIGHT_CLEAR,NIGHT_CLEAR,CLEAR,CLEAR,CLEAR","Onshore,Onshore,Onshore,Cross-shore,Cross-shore,Onshore,Cross-shore,Cross-shore,Cross-shore,Onshore",10
5842041f4e65fad6a770896e,2024_08_12,34.38935162233354,-119.51955,Carpinteria State Beach,1.4,0.007,0.306,17.5,17.5,"NIGHT_CLEAR,NIGHT_CLEAR,NIGHT_CLEAR,NIGHT_CLEAR,NIGHT_CLEAR,NIGHT_CLEAR,NIGHT_CLEAR,CLEAR,CLEAR,MIST","Onshore,Onshore,Cross-shore,Offshore,Offshore,Offshore,Offshore,Offshore,Cross-shore,Onshore",10
5842041f4e65fad6a770896f,2024_08_12,37.48296565175612,-122.45493,Half Moon Bay,2,0.702,1.0050000000000001,16,16,"NIGHT_BRIEF_SHOWERS,NIGHT_BRIEF_SHOWERS,NIGHT_BRIEF_SHOWERS,NIGHT_BRIEF_SHOWERS,NIGHT_BRIEF_SHOWERS,NIGHT_BRIEF_SHOWERS,NIGHT_BRIEF_SHOWERS,BRIEF_SHOWERS,BRIEF_SHOWERS,MIST","Onshore,Onshore,Onshore,Onshore,Onshore,Onshore,Onshore,Onshore,Onshore,Onshore",10
5842041f4e65fad6a7708970,2024_08_12,37.499,-122.471,Princeton Jetty,1.9,0.479,0.784,16,16,"NIGHT_BRIEF_SHOWERS,NIGHT_BRIEF_SHOWERS,NIGHT_BRIEF_SHOWERS,NIGHT_BRIEF_SHOWERS,NIGHT_BRIEF_SHOWERS,NIGHT_BRIEF_SHOWERS,NIGHT_BRIEF_SHOWERS,BRIEF_SHOWERS,BRIEF_SHOWERS,MIST","Onshore,Onshore,Onshore,Onshore,Onshore,Onshore,Onshore,Onshore,Onshore,Onshore",10
5842041f4e65fad6a7708972,2024_08_12,37.35699547365155,-122.4069534707252,Tunitas Creek,3.6,1.1179999999999999,1.424,16,16,"NIGHT_MIST,NIGHT_BRIEF_SHOWERS,NIGHT_BRIEF_SHOWERS,NIGHT_BRIEF_SHOWERS,NIGHT_BRIEF_SHOWERS,NIGHT_BRIEF_SHOWERS,NIGHT_BRIEF_SHOWERS,BRIEF_SHOWERS,BRIEF_SHOWERS,MIST","Offshore,Offshore,Offshore,Offshore,Offshore,Offshore,Offshore,Offshore,Offshore,Cross-shore",10
5842041f4e65fad6a7708974,2024_08_12,37.54735589428842,-122.51611,Montara,2.5,1.1320000000000001,1.436,16,16,"NIGHT_SHOWERS,NIGHT_BRIEF_SHOWERS,NIGHT_BRIEF_SHOWERS,NIGHT_BRIEF_SHOWERS,NIGHT_BRIEF_SHOWERS,NIGHT_BRIEF_SHOWERS,NIGHT_BRIEF_SHOWERS,BRIEF_SHOWERS,BRIEF_SHOWERS,SHOWERS","Onshore,Onshore,Onshore,Onshore,Onshore,Onshore,Onshore,Onshore,Onshore,Onshore",10
5842041f4e65fad6a7708975,2024_08_12,34.3869373724559,-119.5142334209018,Tarpits,1.6,0.012,0.314,18,18,"NIGHT_CLEAR,NIGHT_CLEAR,NIGHT_CLEAR,NIGHT_MOSTLY_CLEAR,NIGHT_MOSTLY_CLEAR,NIGHT_MOSTLY_CLEAR,NIGHT_MOSTLY_CLEAR,MOSTLY_CLEAR,CLEAR,CLEAR","Cross-shore,Cross-shore,Cross-shore,Offshore,Cross-shore,Cross-shore,Cross-shore,Cross-shore,Onshore,Onshore",10
5842041f4e65fad6a7708976,2024_08_12,37.59881852720143,-122.50463,Linda Mar,1.75,0.500795,0.830775,13,13,"NIGHT_SHOWERS,NIGHT_SHOWERS,NIGHT_SHOWERS,NIGHT_SHOWERS,NIGHT_SHOWERS,NIGHT_SHOWERS,NIGHT_SHOWERS,SHOWERS,SHOWERS,SHOWERS","Onshore,Onshore,Onshore,Onshore,Onshore,Onshore,Cross-shore,Onshore,Onshore,Onshore",10
5842041f4e65fad6a7708978,2024_08_12,37.59883098461164,-122.5143843582282,Pedro Point,2,1.172,1.475,17,17,"NIGHT_MIST,NIGHT_MIST,NIGHT_MIST,NIGHT_MIST,NIGHT_MIST,NIGHT_MIST,NIGHT_MIST,MIST,MIST,MIST","Onshore,Onshore,Onshore,Onshore,Onshore,Onshore,Cross-shore,Onshore,Onshore,Onshore",10
5842041f4e65fad6a7708979,2024_08_12,37.61081996647663,-122.49733,Rockaway,2.7,1.066,1.373,17,17,"NIGHT_SHOWERS,NIGHT_SHOWERS,NIGHT_SHOWERS,NIGHT_SHOWERS,NIGHT_SHOWERS,NIGHT_SHOWERS,NIGHT_SHOWERS,SHOWERS,SHOWERS,SHOWERS","Cross-shore,Cross-shore,Cross-shore,Cross-shore,Onshore,Cross-shore,Cross-shore,Cross-shore,Cross-shore,Onshore",10
5842041f4e65fad6a770897a,2024_08_12,37.809987384424446,-122.47514,Fort Point,1.4,0.544,0.848,17,17,"NIGHT_MIST,NIGHT_MIST,NIGHT_MIST,NIGHT_BRIEF_SHOWERS,NIGHT_MIST,NIGHT_MIST,NIGHT_MIST,MIST,MIST,MIST","Cross-shore,Onshore,Cross-shore,Cross-shore,Cross-shore,Onshore,Onshore,Onshore,Onshore,Cross-shore",10
5842041f4e65fad6a770897c,2024_08_12,37.63422542967464,-122.4951,Sharp Park,2.6,1.134,1.439,17,17,"NIGHT_BRIEF_SHOWERS,NIGHT_BRIEF_SHOWERS,NIGHT_BRIEF_SHOWERS,NIGHT_BRIEF_SHOWERS,NIGHT_BRIEF_SHOWERS,NIGHT_BRIEF_SHOWERS,NIGHT_BRIEF_SHOWERS,BRIEF_SHOWERS,BRIEF_SHOWERS,MIST","Onshore,Onshore,Onshore,Onshore,Onshore,Onshore,Onshore,Onshore,Cross-shore,Onshore",10
5842041f4e65fad6a770897d,2024_08_12,37.27313605072472,-122.4127387912554,Pescadero,3,1.067,1.37,16,16,"NIGHT_MIST,NIGHT_MIST,NIGHT_MIST,NIGHT_BRIEF_SHOWERS,NIGHT_MOSTLY_CLOUDY,NIGHT_MOSTLY_CLOUDY,NIGHT_MIST,MIST,MIST,MIST","Cross-shore,Offshore,Offshore,Cross-shore,Offshore,Cross-shore,Cross-shore,Cross-shore,Cross-shore,Onshore",10
5842041f4e65fad6a770897e,2024_08_12,37.18140279972666,-122.3926685899327,Pigeon Point,3,1,1.304,15,15,"NIGHT_MIST,NIGHT_MIST,NIGHT_MIST,NIGHT_MIST,NIGHT_MOSTLY_CLOUDY,NIGHT_MOSTLY_CLOUDY,NIGHT_MOSTLY_CLOUDY,BRIEF_SHOWERS,BRIEF_SHOWERS,MIST","Offshore,Offshore,Offshore,Offshore,Offshore,Offshore,Offshore,Offshore,Offshore,Offshore",10
5842041f4e65fad6a770897f,2024_08_12,37.11578956919415,-122.314699271291,Ano Nuevo,2.8,0.517,0.821,15,15,"NIGHT_MIST,NIGHT_MIST,NIGHT_MOSTLY_CLOUDY,NIGHT_MIST,NIGHT_MOSTLY_CLOUDY,NIGHT_MIST,NIGHT_MOSTLY_CLOUDY,MOSTLY_CLOUDY,MOSTLY_CLOUDY,CLEAR","Offshore,Offshore,Offshore,Offshore,Offshore,Offshore,Offshore,Offshore,Offshore,Offshore",10
5842041f4e65fad6a7708980,2024_08_12,37.09520872681598,-122.2805474707768,Waddell Creek,2.9,0.741,1.0230000000000001,15,15,"NIGHT_CLEAR,NIGHT_CLEAR,NIGHT_CLEAR,NIGHT_CLEAR,NIGHT_CLEAR,NIGHT_CLEAR,NIGHT_CLEAR,CLEAR,CLEAR,CLEAR","Offshore,Onshore,Offshore,Offshore,Cross-shore,Onshore,Offshore,Offshore,Cross-shore,Cross-shore",10
5842041f4e65fad6a7708981,2024_08_12,36.96512852130351,-122.1252825495626,Four Mile,2.8,0.394,0.699,15,15,"NIGHT_MIST,NIGHT_MIST,NIGHT_MIST,NIGHT_MIST,NIGHT_MIST,NIGHT_MIST,NIGHT_CLEAR,CLEAR,MOSTLY_CLOUDY,CLEAR","Onshore,Offshore,Cross-shore,Offshore,Offshore,Offshore,Cross-shore,Cross-shore,Cross-shore,Cross-shore",10
5842041f4e65fad6a7708982,2024_08_12,37.04122807048655,-122.23337,Scott Creek,2.7,0.78,1.0630000000000002,15,15,"NIGHT_CLEAR,NIGHT_CLEAR,NIGHT_CLEAR,NIGHT_CLEAR,NIGHT_CLEAR,NIGHT_CLEAR,NIGHT_CLEAR,CLEAR,CLEAR,CLEAR","Offshore,Offshore,Cross-shore,Offshore,Offshore,Cross-shore,Offshore,Cross-shore,Offshore,Cross-shore",10
5842041f4e65fad6a7708983,2024_08_12,37.02350229387179,-122.21908,Davenport,2.8,0.825,1.069,15,15,"NIGHT_CLEAR,NIGHT_CLEAR,NIGHT_MIST,NIGHT_CLEAR,NIGHT_CLEAR,NIGHT_CLEAR,NIGHT_CLEAR,MIST,CLEAR,MIST","Offshore,Offshore,Cross-shore,Offshore,Offshore,Offshore,Offshore,Cross-shore,Cross-shore,Cross-shore",10
5842041f4e65fad6a7708986,2024_08_12,36.94905295955728,-122.06118,Natural Bridges,2.9,0.743,0.996,15,15,"NIGHT_CLEAR,NIGHT_CLEAR,NIGHT_CLEAR,NIGHT_MOSTLY_CLOUDY,NIGHT_MOSTLY_CLEAR,NIGHT_MOSTLY_CLOUDY,NIGHT_MOSTLY_CLOUDY,MOSTLY_CLOUDY,MOSTLY_CLOUDY,CLEAR","Onshore,Onshore,Onshore,Onshore,Onshore,Cross-shore,Cross-shore,Onshore,Onshore,Cross-shore",10
5842041f4e65fad6a7708987,2024_08_12,36.95154854910425,-122.04207,Mitchell's Cove,3,0.339,0.645,15,15,"NIGHT_CLEAR,NIGHT_MOSTLY_CLEAR,NIGHT_MOSTLY_CLOUDY,NIGHT_MOSTLY_CLEAR,NIGHT_MOSTLY_CLOUDY,NIGHT_MOSTLY_CLOUDY,NIGHT_MOSTLY_CLOUDY,MOSTLY_CLOUDY,CLEAR,CLEAR","Onshore,Onshore,Onshore,Onshore,Onshore,Onshore,Onshore,Onshore,Onshore,Onshore",10
5842041f4e65fad6a770898a,2024_08_12,36.9572312370203,-121.98177,26th Ave,2.8,0.462,0.767,15,15,"NIGHT_MOSTLY_CLEAR,NIGHT_MOSTLY_CLEAR,NIGHT_BRIEF_SHOWERS,NIGHT_MOSTLY_CLEAR,NIGHT_MOSTLY_CLEAR,NIGHT_CLEAR,NIGHT_CLEAR,CLEAR,CLEAR,CLEAR","Cross-shore,Cross-shore,Cross-shore,Onshore,Offshore,Cross-shore,Cross-shore,Cross-shore,Cross-shore,Cross-shore",10
5842041f4e65fad6a770898e,2024_08_12,36.91899972819882,-121.85536,Manresa,2.3,0.38,0.684,15,15,"NIGHT_BRIEF_SHOWERS,NIGHT_MIST,NIGHT_MIST,NIGHT_MOSTLY_CLOUDY,NIGHT_MIST,NIGHT_MIST,NIGHT_MIST,MIST,MIST,MIST","Cross-shore,Cross-shore,Cross-shore,Onshore,Onshore,Onshore,Cross-shore,Cross-shore,Cross-shore,Onshore",10
5842041f4e65fad6a7708990,2024_08_12,34.45747731928454,-120.34242,The Ranch,2,0.21,0.515,15.5,15.5,"NIGHT_CLEAR,NIGHT_CLEAR,NIGHT_CLEAR,NIGHT_CLEAR,NIGHT_CLEAR,NIGHT_CLEAR,NIGHT_CLEAR,CLEAR,CLEAR,CLEAR","Offshore,Onshore,Cross-shore,Offshore,Offshore,Offshore,Offshore,Offshore,Onshore,Onshore",10
5842041f4e65fad6a7708991,2024_08_12,34.50875036590315,-120.50348,Jalama,2,0.445,0.749,15.5,15.5,"NIGHT_CLEAR,NIGHT_CLEAR,NIGHT_CLEAR,NIGHT_CLEAR,NIGHT_CLEAR,NIGHT_CLEAR,NIGHT_CLEAR,CLEAR,CLEAR,CLEAR","Offshore,Offshore,Offshore,Cross-shore,Offshore,Offshore,Offshore,Offshore,Onshore,Onshore",10
5842041f4e65fad6a7708996,2024_08_12,34.68700870220497,-120.6111611019887,Surf Beach,2.6,0.996,1.302,15,15,"NIGHT_MIST,NIGHT_MIST,NIGHT_MIST,NIGHT_MIST,NIGHT_MIST,NIGHT_MIST,NIGHT_OVERCAST,MOSTLY_CLOUDY,MOSTLY_CLOUDY,MIST","Onshore,Onshore,Onshore,Onshore,Onshore,Onshore,Cross-shore,Cross-shore,Cross-shore,Onshore",10
5842041f4e65fad6a770899c,2024_08_12,35.5730538161116,-121.1143362345574,Moonstone,2.9,0.636,0.942,14,14,"NIGHT_CLEAR,NIGHT_MOSTLY_CLEAR,NIGHT_MOSTLY_CLEAR,NIGHT_BRIEF_SHOWERS,NIGHT_MOSTLY_CLOUDY,NIGHT_MOSTLY_CLOUDY,NIGHT_MOSTLY_CLOUDY,MOSTLY_CLOUDY,MOSTLY_CLOUDY,CLEAR","Cross-shore,Cross-shore,Onshore,Onshore,Onshore,Onshore,Onshore,Onshore,Onshore,Onshore",10
5842041f4e65fad6a770899d,2024_08_12,35.61533716776573,-121.1502053073914,Pico Creek,2.9,0.741,1.045,14,14,"NIGHT_CLEAR,NIGHT_CLEAR,NIGHT_CLEAR,NIGHT_MOSTLY_CLOUDY,NIGHT_MOSTLY_CLOUDY,NIGHT_MOSTLY_CLOUDY,NIGHT_MOSTLY_CLOUDY,MOSTLY_CLOUDY,MOSTLY_CLOUDY,CLEAR","Offshore,Cross-shore,Cross-shore,Offshore,Cross-shore,Offshore,Offshore,Offshore,Onshore,Onshore",10
5842041f4e65fad6a770899e,2024_08_12,35.56829031927379,-121.11207,Santa Rosa Creek,2.8,0.636,0.942,14,14,"NIGHT_CLEAR,NIGHT_CLEAR,NIGHT_CLEAR,NIGHT_BRIEF_SHOWERS,NIGHT_MOSTLY_CLOUDY,NIGHT_MOSTLY_CLOUDY,NIGHT_MOSTLY_CLOUDY,MOSTLY_CLOUDY,MIST,MIST","Onshore,Onshore,Onshore,Onshore,Cross-shore,Cross-shore,Onshore,Onshore,Onshore,Onshore",10
5842041f4e65fad6a77089a2,2024_08_12,35.44820114936284,-120.90715,"Cayucos Pier, Southside",1.9,0.258068,0.563319,15,15,"NIGHT_MOSTLY_CLEAR,NIGHT_MOSTLY_CLEAR,NIGHT_MOSTLY_CLEAR,NIGHT_MOSTLY_CLEAR,NIGHT_MOSTLY_CLEAR,NIGHT_MOSTLY_CLOUDY,NIGHT_MOSTLY_CLOUDY,MOSTLY_CLOUDY,MOSTLY_CLEAR,CLEAR","Onshore,Onshore,Cross-shore,Onshore,Onshore,Cross-shore,Cross-shore,Cross-shore,Onshore,Onshore",10
5842041f4e65fad6a77089a4,2024_08_12,35.30143372628852,-120.877819239902,Cable Landing,2,1.43,1.7349999999999999,14.5,14.5,"NIGHT_BRIEF_SHOWERS,NIGHT_MIST,NIGHT_MIST,NIGHT_CLEAR,NIGHT_CLEAR,NIGHT_MOSTLY_CLOUDY,NIGHT_MOSTLY_CLOUDY,MOSTLY_CLOUDY,MIST,MIST","Onshore,Onshore,Onshore,Onshore,Onshore,Onshore,Onshore,Onshore,Onshore,Onshore",10
5842041f4e65fad6a77089a9,2024_08_12,35.61269103500222,-121.14807,San Simeon,2.9,0.5054000000000001,0.7182,14,14,"NIGHT_CLEAR,NIGHT_MOSTLY_CLEAR,NIGHT_MOSTLY_CLEAR,NIGHT_MOSTLY_CLEAR,NIGHT_MOSTLY_CLEAR,NIGHT_MOSTLY_CLOUDY,NIGHT_MOSTLY_CLOUDY,MOSTLY_CLOUDY,MOSTLY_CLEAR,CLEAR","Cross-shore,Cross-shore,Cross-shore,Cross-shore,Cross-shore,Cross-shore,Cross-shore,Cross-shore,Onshore,Onshore",10
5842041f4e65fad6a77089ab,2024_08_12,35.1775325966252,-120.73411,Avila Beach,2,0.048,0.353,14.5,14.5,"NIGHT_CLEAR,NIGHT_CLEAR,NIGHT_CLEAR,NIGHT_CLEAR,NIGHT_CLEAR,NIGHT_CLEAR,NIGHT_CLEAR,CLEAR,CLEAR,CLEAR","Cross-shore,Onshore,Offshore,Cross-shore,Onshore,Cross-shore,Onshore,Offshore,Onshore,Onshore",10
5842041f4e65fad6a77089ac,2024_08_12,35.13877877884115,-120.64535,Pismo Beach Pier,2.7,0.45449,0.761563,13,13,"NIGHT_CLEAR,NIGHT_CLEAR,NIGHT_CLEAR,NIGHT_MOSTLY_CLOUDY,NIGHT_MOSTLY_CLOUDY,NIGHT_MOSTLY_CLOUDY,NIGHT_MOSTLY_CLOUDY,MOSTLY_CLOUDY,MOSTLY_CLOUDY,CLEAR","Offshore,Onshore,Offshore,Offshore,Offshore,Offshore,Onshore,Cross-shore,Offshore,Onshore",10
5842041f4e65fad6a77089ad,2024_08_12,46.8907710233147,-124.12964,Westport/Olympic Peninsula,2.6,0.697,1.0010000000000001,15,15,"NIGHT_FOG,NIGHT_FOG,NIGHT_FOG,NIGHT_FOG,NIGHT_FOG,NIGHT_MOSTLY_CLOUDY,NIGHT_MOSTLY_CLOUDY,FOG,MIST,MOSTLY_CLOUDY","Onshore,Onshore,Onshore,Onshore,Onshore,Onshore,Onshore,Onshore,Onshore,Onshore",10
5842041f4e65fad6a77089ae,2024_08_12,46.35185177248545,-124.06747,Long Beach Peninsula,2.3,0.759,1.064,15,15,"NIGHT_MOSTLY_CLOUDY,NIGHT_BRIEF_SHOWERS,NIGHT_DRIZZLE,NIGHT_MOSTLY_CLOUDY,NIGHT_FOG,NIGHT_FOG,NIGHT_OVERCAST,MIST,MIST,MOSTLY_CLOUDY","Onshore,Onshore,Onshore,Onshore,Onshore,Onshore,Onshore,Onshore,Onshore,Onshore",10
5842041f4e65fad6a77089af,2024_08_12,47.90649175554033,-124.63709,La Push,2.9,0.512,0.8170000000000001,13,13,"NIGHT_MIST,NIGHT_MIST,NIGHT_MIST,NIGHT_MIST,NIGHT_MIST,NIGHT_MIST,NIGHT_MOSTLY_CLOUDY,MIST,MIST,MIST","Cross-shore,Offshore,Offshore,Cross-shore,Cross-shore,Cross-shore,Offshore,Cross-shore,Onshore,Onshore",10
5842041f4e65fad6a77089b0,2024_08_12,42.04368239985442,-124.26828,Brookings Jetty,2.2,0.323266,0.570372,11,11,"NIGHT_MOSTLY_CLEAR,NIGHT_MOSTLY_CLOUDY,NIGHT_MOSTLY_CLOUDY,NIGHT_MOSTLY_CLOUDY,NIGHT_BRIEF_SHOWERS,NIGHT_MOSTLY_CLOUDY,NIGHT_MOSTLY_CLOUDY,MOSTLY_CLOUDY,MOSTLY_CLOUDY,CLEAR","Cross-shore,Onshore,Onshore,Onshore,Onshore,Cross-shore,Cross-shore,Cross-shore,Cross-shore,Cross-shore",10
5842041f4e65fad6a77089b1,2024_08_12,42.74071837900346,-124.4983727491047,Port Orford,1.4,0.181,0.485,10.5,10.5,"NIGHT_CLEAR,NIGHT_CLEAR,NIGHT_CLEAR,NIGHT_CLEAR,NIGHT_CLEAR,NIGHT_CLEAR,NIGHT_CLEAR,MOSTLY_CLEAR,MIST,CLEAR","Offshore,Offshore,Offshore,Offshore,Offshore,Offshore,Offshore,Offshore,Offshore,Offshore",10
5842041f4e65fad6a77089b2,2024_08_12,44.01532689312291,-124.13865,Florence South Jetty,2.8,0.783,1.089,13,13,"NIGHT_MIST,NIGHT_MIST,NIGHT_MIST,NIGHT_MIST,NIGHT_MIST,NIGHT_MIST,NIGHT_MIST,MIST,MIST,MIST","Cross-shore,Cross-shore,Cross-shore,Cross-shore,Cross-shore,Cross-shore,Cross-shore,Cross-shore,Cross-shore,Onshore",10
5842041f4e65fad6a77089b3,2024_08_12,42.41812540774362,-124.42945,Gold Beach South Jetty,2.3,0.584,0.888,10.5,10.5,"NIGHT_CLEAR,NIGHT_CLEAR,NIGHT_CLEAR,NIGHT_CLEAR,NIGHT_CLEAR,NIGHT_CLEAR,NIGHT_MIST,MIST,MIST,MIST","Offshore,Offshore,Offshore,Offshore,Offshore,Offshore,Offshore,Offshore,Offshore,Offshore",10
5842041f4e65fad6a77089b4,2024_08_12,44.95857310226525,-124.0219,Lincoln City,2.5,0.763,1.069,13,13,"NIGHT_CLEAR,NIGHT_CLEAR,NIGHT_CLEAR,NIGHT_CLEAR,NIGHT_MIST,NIGHT_MIST,NIGHT_MIST,CLEAR,MIST,MIST","Cross-shore,Cross-shore,Cross-shore,Cross-shore,Cross-shore,Cross-shore,Cross-shore,Cross-shore,Cross-shore,Onshore",10
5842041f4e65fad6a77089b5,2024_08_12,44.63792761362982,-124.0657,Newport,3,0.772,1.073,12.5,12.5,"NIGHT_MIST,NIGHT_MIST,NIGHT_MIST,NIGHT_MIST,NIGHT_MIST,NIGHT_MIST,NIGHT_MIST,MIST,MIST,MIST","Cross-shore,Cross-shore,Cross-shore,Cross-shore,Cross-shore,Cross-shore,Cross-shore,Cross-shore,Cross-shore,Onshore",10
5842041f4e65fad6a77089b6,2024_08_12,45.61468496266301,-123.94643,Rockaway Beach,2.5,0.794,1.098,15,15,"NIGHT_BRIEF_SHOWERS,NIGHT_MIST,NIGHT_BRIEF_SHOWERS,NIGHT_FOG,NIGHT_BRIEF_SHOWERS,NIGHT_BRIEF_SHOWERS,NIGHT_MIST,MIST,MIST,MIST","Cross-shore,Onshore,Onshore,Onshore,Onshore,Onshore,Onshore,Onshore,Onshore,Onshore",10
5842041f4e65fad6a77089b7,2024_08_12,45.20252914186085,-123.96975,Pacific City,2,0.473,0.779,14,14,"NIGHT_CLEAR,NIGHT_FOG,NIGHT_FOG,NIGHT_CLEAR,NIGHT_FOG,NIGHT_MIST,NIGHT_FOG,FOG,CLEAR,CLEAR","Offshore,Cross-shore,Cross-shore,Cross-shore,Cross-shore,Cross-shore,Cross-shore,Cross-shore,Cross-shore,Onshore",10
5842041f4e65fad6a77089b8,2024_08_12,45.88179930310263,-123.96681,Cannon Beach,2.3,0.735,1.0390000000000001,15,15,"NIGHT_FOG,NIGHT_FOG,NIGHT_FOG,NIGHT_FOG,NIGHT_FOG,NIGHT_FOG,NIGHT_FOG,MOSTLY_CLOUDY,MIST,MOSTLY_CLOUDY","Cross-shore,Cross-shore,Cross-shore,Onshore,Onshore,Onshore,Onshore,Onshore,Onshore,Onshore",10
5842041f4e65fad6a77089ba,2024_08_12,40.02528754746774,-124.06372,Shelter Cove,1.6,0.147742,0.322502,12,12,"NIGHT_CLEAR,NIGHT_CLEAR,NIGHT_CLEAR,NIGHT_CLEAR,NIGHT_CLEAR,NIGHT_CLEAR,NIGHT_CLEAR,CLEAR,CLEAR,CLEAR","Offshore,Offshore,Offshore,Offshore,Offshore,Offshore,Offshore,Offshore,Offshore,Offshore",10
5842041f4e65fad6a77089bb,2024_08_12,40.76816197136951,-124.24248,Humboldt Harbor Entrance,2.9,0.9339999999999999,1.171,12,12,"NIGHT_MIST,NIGHT_MIST,NIGHT_DRIZZLE,NIGHT_MIST,NIGHT_DRIZZLE,NIGHT_LIGHT_RAIN,NIGHT_DRIZZLE,MIST,MIST,CLEAR","Onshore,Onshore,Onshore,Onshore,Onshore,Cross-shore,Onshore,Onshore,Onshore,Onshore",10
5842041f4e65fad6a77089bc,2024_08_12,40.76684246920174,-124.23107,North Jetty,3,1.201,1.507,12,12,"NIGHT_DRIZZLE,NIGHT_DRIZZLE,NIGHT_MIST,NIGHT_DRIZZLE,NIGHT_MIST,NIGHT_MIST,NIGHT_MIST,MIST,DRIZZLE,MOSTLY_CLOUDY","Onshore,Onshore,Onshore,Onshore,Onshore,Onshore,Onshore,Onshore,Onshore,Onshore",10
5842041f4e65fad6a77089be,2024_08_12,41.13016238153297,-124.16466,Sue-meg,2.9,1.042,1.347,13,13,"NIGHT_DRIZZLE,NIGHT_DRIZZLE,NIGHT_DRIZZLE,NIGHT_DRIZZLE,NIGHT_DRIZZLE,NIGHT_DRIZZLE,NIGHT_DRIZZLE,MIST,MIST,MIST","Onshore,Onshore,Onshore,Onshore,Onshore,Onshore,Onshore,Onshore,Onshore,Cross-shore",10
5842041f4e65fad6a77089bf,2024_08_12,37.8289474958188,-122.53768,Fort Cronkite/Rodeo Beach,1,0.656,0.96,17,17,"NIGHT_MIST,NIGHT_MIST,NIGHT_MIST,NIGHT_MIST,NIGHT_MIST,NIGHT_MIST,NIGHT_MIST,MIST,MIST,MIST","Onshore,Onshore,Onshore,Onshore,Onshore,Onshore,Onshore,Onshore,Onshore,Cross-shore",10
5842041f4e65fad6a77089c0,2024_08_12,41.74415759876137,-124.17717,South Beach CA,2,0.186,0.489,12,12,"NIGHT_MOSTLY_CLOUDY,NIGHT_MOSTLY_CLOUDY,NIGHT_MOSTLY_CLOUDY,NIGHT_MOSTLY_CLOUDY,NIGHT_FOG,NIGHT_FOG,NIGHT_FOG,FOG,FOG,MOSTLY_CLEAR","Onshore,Onshore,Onshore,Onshore,Onshore,Onshore,Cross-shore,Cross-shore,Cross-shore,Offshore",10
5842041f4e65fad6a77089c1,2024_08_12,37.89801283969752,-122.64519,Stinson Beach,2.2,0.291,0.595,16,16,"NIGHT_CLEAR,NIGHT_CLEAR,NIGHT_CLEAR,NIGHT_CLEAR,NIGHT_CLEAR,NIGHT_CLEAR,NIGHT_CLEAR,CLEAR,CLEAR,CLEAR","Offshore,Offshore,Offshore,Offshore,Offshore,Cross-shore,Offshore,Offshore,Offshore,Cross-shore",10
5842041f4e65fad6a77089c2,2024_08_12,37.90514516176495,-122.68151,Bolinas,2,0.103929,0.40482,16,16,"NIGHT_BRIEF_SHOWERS,NIGHT_MIST,NIGHT_MIST,NIGHT_MIST,NIGHT_MIST,NIGHT_MIST,NIGHT_MIST,MIST,CLEAR,CLEAR","Offshore,Offshore,Offshore,Offshore,Offshore,Cross-shore,Offshore,Offshore,Offshore,Offshore",10
5842041f4e65fad6a77089c3,2024_08_12,38.04892513158693,-122.98925,Point Reyes (north),1,1.756,2.059,14,14,"NIGHT_MIST,NIGHT_MIST,NIGHT_MIST,NIGHT_MIST,NIGHT_MIST,NIGHT_MIST,NIGHT_MIST,MIST,MIST,MIST","Onshore,Onshore,Onshore,Onshore,Onshore,Onshore,Onshore,Onshore,Onshore,Onshore",10
5842041f4e65fad6a77089c6,2024_08_12,38.31088736605785,-123.0496777333731,Doran Beach,1,0,0.255,13,13,"NIGHT_MOSTLY_CLOUDY,NIGHT_MOSTLY_CLOUDY,NIGHT_MOSTLY_CLOUDY,NIGHT_MIST,NIGHT_MOSTLY_CLOUDY,NIGHT_MIST,NIGHT_MIST,MIST,MOSTLY_CLOUDY,CLEAR","Offshore,Offshore,Offshore,Offshore,Offshore,Offshore,Offshore,Offshore,Onshore,Offshore",10
5842041f4e65fad6a77089c7,2024_08_12,38.45077228660809,-123.13008,Russian Rivermouth,2.8,1.022,1.329,13,13,"NIGHT_CLEAR,NIGHT_CLEAR,NIGHT_CLEAR,NIGHT_CLEAR,NIGHT_CLEAR,NIGHT_CLEAR,NIGHT_CLEAR,CLEAR,CLEAR,CLEAR","Onshore,Cross-shore,Cross-shore,Onshore,Onshore,Cross-shore,Onshore,Onshore,Cross-shore,Onshore",10
5842041f4e65fad6a77089c8,2024_08_12,38.35329968518107,-123.06906,Salmon Creek,2.6,1.4869999999999999,1.791,13,13,"NIGHT_MIST,NIGHT_MIST,NIGHT_MIST,NIGHT_MIST,NIGHT_MIST,NIGHT_MIST,NIGHT_MIST,MIST,MIST,MIST","Onshore,Onshore,Onshore,Offshore,Onshore,Onshore,Onshore,Offshore,Offshore,Onshore",10
5842041f4e65fad6a77089c9,2024_08_12,38.6845180197959,-123.4322714291198,Black Point Beach,2.8,0.472,0.775,11,11,"NIGHT_MIST,NIGHT_MIST,NIGHT_MIST,NIGHT_MIST,NIGHT_MIST,NIGHT_MIST,NIGHT_MIST,MIST,CLEAR,CLEAR","Onshore,Onshore,Onshore,Onshore,Onshore,Onshore,Onshore,Onshore,Onshore,Onshore",10
5842041f4e65fad6a77089ca,2024_08_12,43.251076,-70.59144,Ogunquit,2.033333333333333,0.321517,0.6227,19,17,"NIGHT_MOSTLY_CLEAR,NIGHT_CLEAR,NIGHT_CLEAR,CLEAR,CLEAR,CLEAR,CLEAR,CLEAR,CLEAR,MOSTLY_CLOUDY","Offshore,Offshore,Offshore,Offshore,Offshore,Offshore,Offshore,Offshore,Offshore,Offshore",10
5842041f4e65fad6a77089cb,2024_08_12,41.362631366305415,-71.48007,Point Judith,2.4833333333333334,0.42914,0.73446,23,21,"NIGHT_CLEAR,NIGHT_CLEAR,NIGHT_CLEAR,CLEAR,CLEAR,CLEAR,CLEAR,CLEAR,CLEAR,CLEAR","Offshore,Cross-shore,Offshore,Offshore,Offshore,Offshore,Offshore,Offshore,Offshore,Offshore",10
5842041f4e65fad6a77089cd,2024_08_12,41.422678090954726,-71.45413,Monahan's - Narragansett,1.9,0.118507,0.418203,22,22,"NIGHT_CLEAR,NIGHT_CLEAR,NIGHT_CLEAR,CLEAR,CLEAR,CLEAR,CLEAR,CLEAR,CLEAR,CLEAR","Offshore,Offshore,Offshore,Offshore,Offshore,Offshore,Offshore,Offshore,Offshore,Offshore",10
5842041f4e65fad6a77089ce,2024_08_12,41.469,-71.293,Ruggles - Newport,1.9,0.360558,0.7096709999999999,22,22,"NIGHT_CLEAR,NIGHT_CLEAR,NIGHT_CLEAR,CLEAR,CLEAR,CLEAR,CLEAR,CLEAR,CLEAR,CLEAR","Cross-shore,Cross-shore,Cross-shore,Offshore,Offshore,Cross-shore,Cross-shore,Cross-shore,Cross-shore,Onshore",10
5842041f4e65fad6a77089cf,2024_08_12,43.175394,-70.606351,Short Sands Beach,2.5,0.326,0.632,20,20,"NIGHT_CLEAR,NIGHT_CLEAR,NIGHT_CLEAR,CLEAR,CLEAR,CLEAR,CLEAR,CLEAR,CLEAR,CLEAR","Offshore,Offshore,Offshore,Offshore,Offshore,Offshore,Offshore,Offshore,Offshore,Offshore",10
5842041f4e65fad6a77089d0,2024_08_12,41.487408,-71.29017,First Beach,1.9,0.198,0.503,22,22,"NIGHT_CLEAR,NIGHT_CLEAR,NIGHT_CLEAR,CLEAR,CLEAR,CLEAR,CLEAR,CLEAR,CLEAR,CLEAR","Cross-shore,Cross-shore,Offshore,Offshore,Offshore,Offshore,Cross-shore,Cross-shore,Cross-shore,Onshore",10
5842041f4e65fad6a77089d1,2024_08_12,42.27916830233153,-70.86498,Nantasket Beach,0,0,0.142133,19,18,"NIGHT_CLEAR,NIGHT_CLEAR,NIGHT_CLEAR,CLEAR,CLEAR,CLEAR,CLEAR,CLEAR,CLEAR,OVERCAST","Offshore,Offshore,Offshore,Offshore,Offshore,Offshore,Offshore,Offshore,Offshore,Offshore",10
5842041f4e65fad6a77089d2,2024_08_12,41.817,-69.935,Cape Cod,1.9,0.091,0.393,18.5,18.5,"NIGHT_CLEAR,NIGHT_CLEAR,NIGHT_CLEAR,CLEAR,CLEAR,CLEAR,CLEAR,CLEAR,CLEAR,CLEAR","Offshore,Offshore,Offshore,Offshore,Offshore,Offshore,Offshore,Offshore,Offshore,Offshore",10
5842041f4e65fad6a77089d3,2024_08_12,42.22055448975661,-70.70634873403819,Egypt Beach,0,0,0.13,19,19,"NIGHT_CLEAR,NIGHT_CLEAR,NIGHT_CLEAR,CLEAR,CLEAR,CLEAR,CLEAR,CLEAR,CLEAR,CLEAR","Offshore,Offshore,Offshore,Offshore,Offshore,Offshore,Offshore,Offshore,Offshore,Cross-shore",10
5842041f4e65fad6a77089d4,2024_08_12,41.48739647744607,-71.25723,Second Beach,1.9,0.429205,0.698668,23,21,"NIGHT_CLEAR,NIGHT_CLEAR,NIGHT_CLEAR,CLEAR,CLEAR,CLEAR,CLEAR,CLEAR,CLEAR,CLEAR","Onshore,Cross-shore,Cross-shore,Cross-shore,Cross-shore,Cross-shore,Cross-shore,Cross-shore,Onshore,Onshore",10
5842041f4e65fad6a77089d5,2024_08_12,42.964,-70.769,Fox Hill,1.7333333333333334,0.250517,0.558117,19,17,"NIGHT_CLEAR,NIGHT_CLEAR,NIGHT_CLEAR,CLEAR,CLEAR,CLEAR,CLEAR,CLEAR,CLEAR,MOSTLY_CLOUDY","Offshore,Offshore,Offshore,Offshore,Offshore,Offshore,Offshore,Offshore,Offshore,Offshore",10
5842041f4e65fad6a77089d6,2024_08_12,42.991359,-70.75149,Straws Point,1.7333333333333334,0.265933,0.568783,19,17,"NIGHT_CLEAR,NIGHT_CLEAR,NIGHT_CLEAR,CLEAR,CLEAR,CLEAR,CLEAR,CLEAR,CLEAR,MOSTLY_CLOUDY","Cross-shore,Cross-shore,Offshore,Cross-shore,Cross-shore,Cross-shore,Cross-shore,Cross-shore,Cross-shore,Offshore",10
5842041f4e65fad6a77089d7,2024_08_12,42.946,-70.786,Plaice Cove,1.7333333333333334,0.250517,0.558117,19,17,"NIGHT_CLEAR,NIGHT_CLEAR,NIGHT_CLEAR,CLEAR,CLEAR,CLEAR,CLEAR,CLEAR,CLEAR,MOSTLY_CLOUDY","Offshore,Offshore,Offshore,Offshore,Offshore,Offshore,Offshore,Offshore,Offshore,Offshore",10
5842041f4e65fad6a77089d9,2024_08_12,42.911574,-70.80831,The Main Beach,1.15,0.06650299999999999,0.408603,19,17,"NIGHT_CLEAR,NIGHT_CLEAR,NIGHT_CLEAR,CLEAR,CLEAR,CLEAR,CLEAR,CLEAR,CLEAR,MOSTLY_CLOUDY","Cross-shore,Cross-shore,Offshore,Cross-shore,Cross-shore,Cross-shore,Cross-shore,Cross-shore,Cross-shore,Cross-shore",10
5842041f4e65fad6a77089da,2024_08_12,42.97583846220203,-70.764,Sawyer's Beach,1.7333333333333334,0.288517,0.5917,19,17,"NIGHT_CLEAR,NIGHT_CLEAR,NIGHT_CLEAR,CLEAR,CLEAR,CLEAR,CLEAR,CLEAR,CLEAR,MOSTLY_CLOUDY","Offshore,Offshore,Offshore,Offshore,Offshore,Offshore,Offshore,Offshore,Offshore,Offshore",10
5842041f4e65fad6a77089db,2024_08_12,42.97,-70.77,Rye on the Rocks / 5-0's,1.0666666666666667,0.228963,0.503965,19,17,"NIGHT_CLEAR,NIGHT_CLEAR,NIGHT_CLEAR,CLEAR,CLEAR,CLEAR,CLEAR,CLEAR,CLEAR,MOSTLY_CLOUDY","Offshore,Offshore,Offshore,Offshore,Offshore,Offshore,Offshore,Offshore,Offshore,Offshore",10
5842041f4e65fad6a77089dc,2024_08_12,43.55902946610303,-70.27795,Higgins Beach,1.9,0.267183,0.572117,19,17,"NIGHT_MOSTLY_CLEAR,NIGHT_CLEAR,NIGHT_CLEAR,CLEAR,CLEAR,CLEAR,CLEAR,CLEAR,CLEAR,MOSTLY_CLEAR","Onshore,Cross-shore,Cross-shore,Cross-shore,Cross-shore,Cross-shore,Cross-shore,Cross-shore,Cross-shore,Onshore",10
5842041f4e65fad6a77089dd,2024_08_12,43.302676,-70.5652,Wells Beach,1.8333333333333333,0.31435,0.621283,19,17,"NIGHT_MOSTLY_CLEAR,NIGHT_CLEAR,NIGHT_CLEAR,CLEAR,CLEAR,CLEAR,CLEAR,CLEAR,CLEAR,MOSTLY_CLOUDY","Offshore,Offshore,Offshore,Offshore,Offshore,Offshore,Offshore,Offshore,Offshore,Offshore",10
5842041f4e65fad6a77089de,2024_08_12,43.545359,-70.30479,Scarborough Beach State Park,1.7333333333333334,0.318167,0.65549,19,17,"NIGHT_CLEAR,NIGHT_CLEAR,NIGHT_CLEAR,CLEAR,CLEAR,CLEAR,CLEAR,CLEAR,CLEAR,CLEAR","Cross-shore,Offshore,Offshore,Offshore,Cross-shore,Cross-shore,Cross-shore,Cross-shore,Cross-shore,Cross-shore",10
5842041f4e65fad6a77089df,2024_08_12,43.514481,-70.37215,Old Orchard Beach,1.6666666666666667,0.239377,0.548337,19,17,"NIGHT_CLEAR,NIGHT_MOSTLY_CLEAR,NIGHT_CLEAR,CLEAR,CLEAR,CLEAR,CLEAR,CLEAR,CLEAR,CLEAR","Cross-shore,Offshore,Offshore,Offshore,Cross-shore,Offshore,Offshore,Offshore,Cross-shore,Cross-shore",10
5842041f4e65fad6a77089e0,2024_08_12,43.34711,-70.48165,Gooch's Beach,1.65,0.17282,0.477753,19,17,"NIGHT_CLEAR,NIGHT_CLEAR,NIGHT_CLEAR,CLEAR,CLEAR,CLEAR,CLEAR,CLEAR,CLEAR,CLEAR","Onshore,Cross-shore,Cross-shore,Cross-shore,Cross-shore,Cross-shore,Cross-shore,Cross-shore,Onshore,Onshore",10
5842041f4e65fad6a77089e2,2024_08_12,40.58433,-73.62953,Lido Beach,1.9,0.332364,0.639534,23,21,"NIGHT_CLEAR,NIGHT_CLEAR,NIGHT_CLEAR,NIGHT_CLEAR,CLEAR,CLEAR,CLEAR,CLEAR,CLEAR,MOSTLY_CLOUDY","Offshore,Cross-shore,Cross-shore,Offshore,Offshore,Cross-shore,Cross-shore,Cross-shore,Cross-shore,Onshore",10
5842041f4e65fad6a77089e3,2024_08_12,43.163135,-70.61689,Long Sands Beach,1.6166666666666667,0.258844,0.546722,19,17,"NIGHT_CLEAR,NIGHT_CLEAR,NIGHT_CLEAR,CLEAR,CLEAR,CLEAR,CLEAR,CLEAR,CLEAR,MOSTLY_CLOUDY","Cross-shore,Cross-shore,Offshore,Cross-shore,Cross-shore,Cross-shore,Cross-shore,Cross-shore,Cross-shore,Onshore",10
5842041f4e65fad6a77089e4,2024_08_12,40.61695351251805,-73.39376,Gilgo Beach,1.55,0.313133,0.62448,22,21,"NIGHT_CLEAR,NIGHT_CLEAR,NIGHT_CLEAR,NIGHT_CLEAR,CLEAR,CLEAR,CLEAR,CLEAR,CLEAR,MOSTLY_CLOUDY","Offshore,Cross-shore,Cross-shore,Cross-shore,Cross-shore,Cross-shore,Cross-shore,Cross-shore,Onshore,Onshore",10
5842041f4e65fad6a77089e5,2024_08_12,40.62530081928036,-73.23827,Robert Moses,1.8,0.239,0.546,21.5,21.5,"NIGHT_CLEAR,NIGHT_CLEAR,NIGHT_CLEAR,CLEAR,CLEAR,CLEAR,CLEAR,CLEAR,CLEAR,CLEAR","Offshore,Cross-shore,Cross-shore,Cross-shore,Cross-shore,Cross-shore,Cross-shore,Cross-shore,Onshore,Onshore",10
5842041f4e65fad6a77089e6,2024_08_12,40.64313317632791,-73.15727,Fire Island,1.8,0.238,0.54,21.5,21.5,"NIGHT_CLEAR,NIGHT_CLEAR,NIGHT_CLEAR,CLEAR,CLEAR,CLEAR,CLEAR,CLEAR,CLEAR,CLEAR","Offshore,Cross-shore,Cross-shore,Cross-shore,Cross-shore,Cross-shore,Cross-shore,Cross-shore,Cross-shore,Onshore",10
5842041f4e65fad6a77089e8,2024_08_12,40.76653118828782,-72.7458,Cupsogue,1.9,0.565,0.871,22,22,"NIGHT_CLEAR,NIGHT_CLEAR,NIGHT_CLEAR,CLEAR,CLEAR,CLEAR,CLEAR,CLEAR,CLEAR,CLEAR","Offshore,Cross-shore,Cross-shore,Offshore,Offshore,Cross-shore,Cross-shore,Cross-shore,Onshore,Onshore",10
5842041f4e65fad6a77089e9,2024_08_12,42.9376373334092,-70.79141,The Wall,1.15,0.134665,0.459892,19,17,"NIGHT_CLEAR,NIGHT_CLEAR,NIGHT_CLEAR,CLEAR,CLEAR,CLEAR,CLEAR,CLEAR,CLEAR,MOSTLY_CLOUDY","Offshore,Offshore,Offshore,Offshore,Offshore,Offshore,Offshore,Offshore,Offshore,Offshore",10
5842041f4e65fad6a77089ea,2024_08_12,40.887088,-72.33856,Flys,1.9,0.466,0.773,21.5,21.5,"NIGHT_CLEAR,NIGHT_CLEAR,NIGHT_CLEAR,CLEAR,CLEAR,CLEAR,CLEAR,CLEAR,CLEAR,CLEAR","Cross-shore,Cross-shore,Cross-shore,Cross-shore,Cross-shore,Cross-shore,Cross-shore,Cross-shore,Onshore,Onshore",10
5842041f4e65fad6a77089eb,2024_08_12,41.0389266436591,-71.91068529316958,Trailer Park,2.185714285714286,0.597129,0.873546,22,21,"NIGHT_CLEAR,NIGHT_CLEAR,NIGHT_CLEAR,CLEAR,CLEAR,CLEAR,CLEAR,CLEAR,CLEAR,CLEAR","Cross-shore,Cross-shore,Cross-shore,Offshore,Offshore,Offshore,Cross-shore,Cross-shore,Cross-shore,Onshore",10
5842041f4e65fad6a77089ec,2024_08_12,41.039505402729105,-71.9142,Ditch Plains,2.4,0.353365,0.6932659999999999,21,21,"NIGHT_CLEAR,NIGHT_CLEAR,NIGHT_CLEAR,CLEAR,CLEAR,CLEAR,CLEAR,CLEAR,CLEAR,CLEAR","Cross-shore,Offshore,Offshore,Offshore,Offshore,Offshore,Offshore,Offshore,Cross-shore,Cross-shore",10
5842041f4e65fad6a77089ee,2024_08_12,40.57633275206492,-73.56895305108567,"West End, Jones Beach",2,0.337226,0.64462,23,21,"NIGHT_CLEAR,NIGHT_CLEAR,NIGHT_CLEAR,NIGHT_CLEAR,CLEAR,CLEAR,CLEAR,CLEAR,CLEAR,MOSTLY_CLOUDY","Offshore,Cross-shore,Cross-shore,Cross-shore,Cross-shore,Cross-shore,Onshore,Onshore,Onshore,Onshore",10
5842041f4e65fad6a77089f1,2024_08_12,41.038286691230795,-71.91991567611694,Poles,2.185714285714286,0.542495,0.849741,22,21,"NIGHT_CLEAR,NIGHT_CLEAR,NIGHT_CLEAR,CLEAR,CLEAR,CLEAR,CLEAR,CLEAR,CLEAR,CLEAR","Cross-shore,Cross-shore,Cross-shore,Offshore,Offshore,Offshore,Cross-shore,Cross-shore,Cross-shore,Onshore",10
5842041f4e65fad6a77089f3,2024_08_12,40.84077769766295,-72.47989493724765,The Bowl,1.9,0.494,0.799,22,22,"NIGHT_CLEAR,NIGHT_CLEAR,NIGHT_CLEAR,CLEAR,CLEAR,CLEAR,CLEAR,CLEAR,CLEAR,CLEAR","Cross-shore,Cross-shore,Cross-shore,Offshore,Offshore,Cross-shore,Cross-shore,Cross-shore,Onshore,Onshore",10
5842041f4e65fad6a77089f4,2024_08_12,40.94235535243154,-72.19286,Main Beach,1.9,0.54162,0.844847,22,21,"NIGHT_CLEAR,NIGHT_CLEAR,NIGHT_CLEAR,CLEAR,CLEAR,CLEAR,CLEAR,CLEAR,CLEAR,CLEAR","Cross-shore,Cross-shore,Cross-shore,Cross-shore,Cross-shore,Cross-shore,Cross-shore,Cross-shore,Onshore,Onshore",10
5842041f4e65fad6a77089f5,2024_08_12,40.58270702399518,-73.67251552079799,Laurelton Blvd.,2,0.412727,0.662636,23,21,"NIGHT_CLEAR,NIGHT_CLEAR,NIGHT_CLEAR,NIGHT_CLEAR,CLEAR,CLEAR,CLEAR,CLEAR,CLEAR,SHOWERS","Offshore,Cross-shore,Onshore,Cross-shore,Cross-shore,Cross-shore,Onshore,Onshore,Onshore,Cross-shore",10
5842041f4e65fad6a77089f6,2024_08_12,41.033752854071416,-71.93696,Terrace,2.1,0.522762,0.890675,22,21,"NIGHT_CLEAR,NIGHT_CLEAR,NIGHT_CLEAR,CLEAR,CLEAR,CLEAR,CLEAR,CLEAR,CLEAR,CLEAR","Cross-shore,Cross-shore,Cross-shore,Offshore,Offshore,Cross-shore,Cross-shore,Cross-shore,Cross-shore,Onshore",10
5842041f4e65fad6a77089f7,2024_08_12,40.83372943645748,-72.50426173210144,K Road,2.6,0.583,0.888,22,22,"NIGHT_CLEAR,NIGHT_CLEAR,NIGHT_CLEAR,CLEAR,CLEAR,CLEAR,CLEAR,CLEAR,CLEAR,CLEAR","Offshore,Cross-shore,Cross-shore,Offshore,Offshore,Cross-shore,Cross-shore,Cross-shore,Onshore,Onshore",10
5842041f4e65fad6a77089f8,2024_08_12,40.58456099581507,-73.80730032920837,84th Street,2,0.35203,0.654866,23,21,"NIGHT_CLEAR,NIGHT_CLEAR,NIGHT_CLEAR,NIGHT_CLEAR,CLEAR,CLEAR,CLEAR,CLEAR,CLEAR,HEAVY_SHOWERS","Offshore,Cross-shore,Onshore,Offshore,Cross-shore,Cross-shore,Onshore,Onshore,Onshore,Offshore",10
5842041f4e65fad6a77089fa,2024_08_12,40.1319,-74.02788,Sea Girt,2.65,0.33708,0.643993,22,21,"NIGHT_CLEAR,NIGHT_CLEAR,NIGHT_CLEAR,NIGHT_CLEAR,CLEAR,CLEAR,CLEAR,CLEAR,CLEAR,CLEAR","Offshore,Offshore,Offshore,Offshore,Offshore,Offshore,Offshore,Offshore,Offshore,Offshore",10
5842041f4e65fad6a77089fb,2024_08_12,40.54698301868125,-73.9268,Breezy Point,1.9,0.192,0.497,23,23,"NIGHT_CLEAR,NIGHT_CLEAR,NIGHT_CLEAR,NIGHT_CLEAR,CLEAR,CLEAR,CLEAR,CLEAR,CLEAR,MOSTLY_CLOUDY","Offshore,Cross-shore,Onshore,Cross-shore,Cross-shore,Cross-shore,Onshore,Cross-shore,Onshore,Offshore",10
5842041f4e65fad6a77089fc,2024_08_12,40.152504,-74.02138,Spring Lake,2.4,0.320247,0.62416,22,21,"NIGHT_CLEAR,NIGHT_CLEAR,NIGHT_CLEAR,NIGHT_CLEAR,CLEAR,CLEAR,CLEAR,CLEAR,CLEAR,CLEAR","Cross-shore,Offshore,Offshore,Offshore,Offshore,Offshore,Offshore,Offshore,Offshore,Offshore",10
5842041f4e65fad6a77089fd,2024_08_12,40.591277,-73.770792,30th - 39th Streets,1.9,0.284894,0.590454,23,21,"NIGHT_CLEAR,NIGHT_CLEAR,NIGHT_CLEAR,NIGHT_CLEAR,CLEAR,CLEAR,CLEAR,CLEAR,CLEAR,HEAVY_SHOWERS","Offshore,Cross-shore,Onshore,Cross-shore,Cross-shore,Cross-shore,Onshore,Onshore,Onshore,Offshore",10
5842041f4e65fad6a77089fe,2024_08_12,40.18834955871439,-74.00860982500222,Avon,2.15,0.311746,0.61566,22,21,"NIGHT_CLEAR,NIGHT_CLEAR,NIGHT_CLEAR,NIGHT_CLEAR,CLEAR,CLEAR,CLEAR,CLEAR,CLEAR,CLEAR","Offshore,Offshore,Offshore,Offshore,Offshore,Offshore,Offshore,Offshore,Offshore,Offshore",10
5842041f4e65fad6a77089ff,2024_08_12,40.1974229100932,-74.00650533798255,Bradley Beach,2.4,0.303247,0.60416,22,21,"NIGHT_CLEAR,NIGHT_CLEAR,NIGHT_CLEAR,NIGHT_CLEAR,CLEAR,CLEAR,CLEAR,CLEAR,CLEAR,CLEAR","Offshore,Offshore,Offshore,Offshore,Offshore,Offshore,Offshore,Offshore,Offshore,Offshore",10
5842041f4e65fad6a7708a01,2024_08_12,40.17202,-74.01503,"16th Ave., Belmar",1.7333333333333334,0.27819,0.581546,22,21,"NIGHT_CLEAR,NIGHT_CLEAR,NIGHT_CLEAR,NIGHT_CLEAR,CLEAR,CLEAR,CLEAR,CLEAR,CLEAR,CLEAR","Offshore,Offshore,Offshore,Offshore,Offshore,Offshore,Offshore,Offshore,Offshore,Offshore",10
5842041f4e65fad6a7708a02,2024_08_12,40.217443,-73.99982,Asbury Park,2.15,0.325746,0.63366,22,21,"NIGHT_CLEAR,NIGHT_CLEAR,NIGHT_CLEAR,NIGHT_MIST,CLEAR,CLEAR,CLEAR,CLEAR,CLEAR,CLEAR","Offshore,Offshore,Offshore,Offshore,Offshore,Offshore,Offshore,Offshore,Offshore,Offshore",10
5842041f4e65fad6a7708a03,2024_08_12,40.229841,-73.99678,Loch Arbour and Deal,2.2,0.33058,0.636494,22,21,"NIGHT_CLEAR,NIGHT_CLEAR,NIGHT_CLEAR,NIGHT_CLEAR,CLEAR,CLEAR,CLEAR,CLEAR,CLEAR,CLEAR","Cross-shore,Cross-shore,Cross-shore,Offshore,Offshore,Offshore,Offshore,Offshore,Offshore,Offshore",10
5842041f4e65fad6a7708a05,2024_08_12,40.41754,-73.97935,Sandy Hook,2,0.104,0.40800000000000003,23,23,"NIGHT_CLEAR,NIGHT_CLEAR,NIGHT_CLEAR,NIGHT_CLEAR,CLEAR,CLEAR,CLEAR,CLEAR,CLEAR,CLEAR","Offshore,Offshore,Offshore,Offshore,Offshore,Offshore,Offshore,Offshore,Offshore,Offshore",10
5842041f4e65fad6a7708a06,2024_08_12,39.36353,-74.40873,Crystals,2,0.309108,0.631652,21,21,"NIGHT_CLEAR,NIGHT_CLEAR,NIGHT_CLEAR,NIGHT_CLEAR,CLEAR,CLEAR,CLEAR,CLEAR,CLEAR,MOSTLY_CLOUDY","Cross-shore,Cross-shore,Cross-shore,Offshore,Offshore,Offshore,Cross-shore,Cross-shore,Onshore,Onshore",10
5842041f4e65fad6a7708a07,2024_08_12,39.31443,-74.51863,32nd Street,1.6333333333333333,0.28560399999999997,0.613557,21,21,"NIGHT_CLEAR,NIGHT_CLEAR,NIGHT_CLEAR,NIGHT_CLEAR,CLEAR,CLEAR,CLEAR,CLEAR,CLEAR,MOSTLY_CLEAR","Cross-shore,Cross-shore,Cross-shore,Offshore,Offshore,Offshore,Offshore,Onshore,Onshore,Cross-shore",10
5842041f4e65fad6a7708a08,2024_08_12,39.327688,-74.49524,Margate Pier Northside,1.6333333333333333,0.28560399999999997,0.613557,21,21,"NIGHT_CLEAR,NIGHT_CLEAR,NIGHT_CLEAR,NIGHT_CLEAR,CLEAR,CLEAR,CLEAR,CLEAR,CLEAR,MOSTLY_CLEAR","Cross-shore,Cross-shore,Cross-shore,Offshore,Offshore,Offshore,Offshore,Onshore,Onshore,Cross-shore",10
5842041f4e65fad6a7708a09,2024_08_12,39.336276,-74.47782,Ventnor Pier,1.9,0.300025,0.630973,21,21,"NIGHT_CLEAR,NIGHT_CLEAR,NIGHT_CLEAR,NIGHT_CLEAR,CLEAR,CLEAR,CLEAR,CLEAR,CLEAR,MOSTLY_CLEAR","Cross-shore,Cross-shore,Cross-shore,Offshore,Offshore,Offshore,Offshore,Onshore,Onshore,Cross-shore",10
5842041f4e65fad6a7708a0a,2024_08_12,39.35929751441085,-74.41683,States Avenue,2.3,0.309108,0.631652,21,21,"NIGHT_CLEAR,NIGHT_CLEAR,NIGHT_CLEAR,NIGHT_CLEAR,CLEAR,CLEAR,CLEAR,CLEAR,CLEAR,MOSTLY_CLOUDY","Cross-shore,Cross-shore,Cross-shore,Offshore,Offshore,Offshore,Cross-shore,Cross-shore,Onshore,Onshore",10
5842041f4e65fad6a7708a0b,2024_08_12,39.37274173278517,-74.40454,Brigantine Jetty,1.9,0.300713,0.621677,21,21,"NIGHT_CLEAR,NIGHT_CLEAR,NIGHT_CLEAR,NIGHT_CLEAR,CLEAR,CLEAR,CLEAR,CLEAR,CLEAR,MOSTLY_CLOUDY","Cross-shore,Cross-shore,Cross-shore,Offshore,Offshore,Offshore,Offshore,Cross-shore,Onshore,Onshore",10
5842041f4e65fad6a7708a0c,2024_08_12,39.356505,-74.42263,South Carolina Avenue,1.9,0.300713,0.621677,21,21,"NIGHT_CLEAR,NIGHT_CLEAR,NIGHT_CLEAR,NIGHT_CLEAR,CLEAR,CLEAR,CLEAR,CLEAR,CLEAR,MOSTLY_CLOUDY","Cross-shore,Cross-shore,Cross-shore,Offshore,Offshore,Offshore,Offshore,Cross-shore,Onshore,Onshore",10
5842041f4e65fad6a7708a0d,2024_08_12,39.413485,-74.35476,14th Street North,2.4,0.349486,0.6563060000000001,21,21,"NIGHT_CLEAR,NIGHT_CLEAR,NIGHT_CLEAR,NIGHT_CLEAR,CLEAR,CLEAR,CLEAR,CLEAR,CLEAR,MOSTLY_CLOUDY","Offshore,Offshore,Offshore,Offshore,Offshore,Offshore,Cross-shore,Cross-shore,Offshore,Onshore",10
5842041f4e65fad6a7708a0e,2024_08_12,39.531319,-74.263252,The Wooden Jetty,2.1,0.431686,0.696145,21,21,"NIGHT_CLEAR,NIGHT_CLEAR,NIGHT_CLEAR,NIGHT_CLEAR,CLEAR,CLEAR,CLEAR,CLEAR,CLEAR,MOSTLY_CLOUDY","Offshore,Offshore,Offshore,Offshore,Offshore,Offshore,Offshore,Offshore,Offshore,Onshore",10
5842041f4e65fad6a7708a0f,2024_08_12,39.552472,-74.24344,Holyoke,1.9,0.318317,0.647015,21,21,"NIGHT_CLEAR,NIGHT_CLEAR,NIGHT_CLEAR,NIGHT_CLEAR,CLEAR,CLEAR,CLEAR,CLEAR,CLEAR,MOSTLY_CLOUDY","Offshore,Offshore,Offshore,Offshore,Offshore,Offshore,Offshore,Cross-shore,Cross-shore,Onshore",10
5842041f4e65fad6a7708a10,2024_08_12,39.692364,-74.14068,Hudson Ave.,2.1166666666666667,0.357384,0.662074,21,21,"NIGHT_CLEAR,NIGHT_CLEAR,NIGHT_CLEAR,NIGHT_CLEAR,CLEAR,CLEAR,CLEAR,CLEAR,CLEAR,MOSTLY_CLOUDY","Offshore,Offshore,Offshore,Offshore,Offshore,Offshore,Cross-shore,Onshore,Onshore,Cross-shore",10
5842041f4e65fad6a7708a11,2024_08_12,39.79614,-74.09248,Island Beach State Park,2.05,0.32208,0.626993,22,21,"NIGHT_CLEAR,NIGHT_CLEAR,NIGHT_CLEAR,NIGHT_CLEAR,CLEAR,CLEAR,CLEAR,CLEAR,CLEAR,MOSTLY_CLOUDY","Offshore,Offshore,Offshore,Offshore,Offshore,Offshore,Offshore,Offshore,Onshore,Cross-shore",10
5842041f4e65fad6a7708a12,2024_08_12,39.91813588078152,-74.07527,Seaside Park,2.283333333333333,0.49362999999999996,0.860374,22,21,"NIGHT_CLEAR,NIGHT_CLEAR,NIGHT_CLEAR,NIGHT_CLEAR,CLEAR,CLEAR,CLEAR,CLEAR,CLEAR,CLEAR","Offshore,Offshore,Offshore,Offshore,Offshore,Offshore,Offshore,Offshore,Cross-shore,Cross-shore",10
5842041f4e65fad6a7708a15,2024_08_12,39.95745637606704,-74.06736,Ortley Beach,2.2,0.32147,0.627684,22,21,"NIGHT_CLEAR,NIGHT_CLEAR,NIGHT_CLEAR,NIGHT_CLEAR,CLEAR,CLEAR,CLEAR,CLEAR,CLEAR,CLEAR","Offshore,Offshore,Offshore,Offshore,Offshore,Offshore,Offshore,Offshore,Cross-shore,Cross-shore",10
5842041f4e65fad6a7708a16,2024_08_12,39.98313468342945,-74.06265685577506,Lavallette,2.15,0.32108000000000003,0.626993,22,21,"NIGHT_CLEAR,NIGHT_CLEAR,NIGHT_CLEAR,NIGHT_CLEAR,CLEAR,CLEAR,CLEAR,CLEAR,CLEAR,CLEAR","Offshore,Offshore,Offshore,Offshore,Offshore,Offshore,Offshore,Offshore,Cross-shore,Cross-shore",10
5842041f4e65fad6a7708a17,2024_08_12,40.0699319967757,-74.04145,Bay Head,2.4,0.305913,0.610826,22,21,"NIGHT_CLEAR,NIGHT_CLEAR,NIGHT_CLEAR,NIGHT_CLEAR,CLEAR,CLEAR,CLEAR,CLEAR,CLEAR,CLEAR","Offshore,Offshore,Offshore,Offshore,Offshore,Offshore,Offshore,Offshore,Cross-shore,Cross-shore",10
5842041f4e65fad6a7708a18,2024_08_12,40.094041,-74.034859,Jenkinson's,2.3,0.319247,0.62216,22,21,"NIGHT_CLEAR,NIGHT_CLEAR,NIGHT_CLEAR,NIGHT_CLEAR,CLEAR,CLEAR,CLEAR,CLEAR,CLEAR,CLEAR","Offshore,Offshore,Offshore,Offshore,Offshore,Offshore,Offshore,Offshore,Offshore,Cross-shore",10
5842041f4e65fad6a7708a1a,2024_08_12,38.148058,-75.17704,Assateague,1.8833333333333333,0.33164,0.6372800000000001,21,20.6,"NIGHT_CLEAR,NIGHT_CLEAR,NIGHT_MOSTLY_CLEAR,NIGHT_MOSTLY_CLEAR,CLEAR,CLEAR,CLEAR,CLEAR,MOSTLY_CLOUDY,MOSTLY_CLOUDY","Offshore,Offshore,Cross-shore,Offshore,Offshore,Offshore,Cross-shore,Cross-shore,Cross-shore,Offshore",10
5842041f4e65fad6a7708a1b,2024_08_12,38.33889038664497,-75.08017670566352,North End to Ocean City Inlet,2.0833333333333335,0.31914,0.6242800000000001,21,20.6,"NIGHT_CLEAR,NIGHT_CLEAR,NIGHT_CLEAR,NIGHT_CLEAR,CLEAR,CLEAR,CLEAR,CLEAR,CLEAR,MOSTLY_CLOUDY","Offshore,Offshore,Cross-shore,Cross-shore,Cross-shore,Onshore,Onshore,Onshore,Onshore,Offshore",10
5842041f4e65fad6a7708a1c,2024_08_12,38.603993,-75.06271,Indian River Inlet,2,0.20255600000000001,0.562655,23,23,"NIGHT_CLEAR,NIGHT_MOSTLY_CLOUDY,NIGHT_CLEAR,NIGHT_CLEAR,CLEAR,CLEAR,CLEAR,CLEAR,CLEAR,CLEAR","Offshore,Offshore,Offshore,Offshore,Offshore,Offshore,Offshore,Cross-shore,Cross-shore,Offshore",10
5842041f4e65fad6a7708a1d,2024_08_12,38.460477,-75.05207,Fenwick Island,2,0.155,0.459,23.5,23.5,"NIGHT_CLEAR,NIGHT_CLEAR,NIGHT_MOSTLY_CLEAR,NIGHT_CLEAR,CLEAR,CLEAR,CLEAR,CLEAR,CLEAR,MOSTLY_CLOUDY","Offshore,Offshore,Offshore,Offshore,Cross-shore,Cross-shore,Onshore,Onshore,Onshore,Offshore",10
5842041f4e65fad6a7708a1e,2024_08_12,38.538767,-75.05619,Bethany Beach,2,0.201096,0.55861,23,23,"NIGHT_CLEAR,NIGHT_MOSTLY_CLOUDY,NIGHT_CLEAR,NIGHT_CLEAR,CLEAR,CLEAR,CLEAR,CLEAR,CLEAR,CLEAR","Offshore,Offshore,Offshore,Offshore,Offshore,Cross-shore,Cross-shore,Cross-shore,Cross-shore,Offshore",10
5842041f4e65fad6a7708a1f,2024_08_12,38.697657,-75.07595,Dewey Beach,2.5,0.353,0.66,23.5,23.5,"NIGHT_CLEAR,NIGHT_MOSTLY_CLOUDY,NIGHT_MOSTLY_CLEAR,NIGHT_CLEAR,CLEAR,CLEAR,CLEAR,CLEAR,CLEAR,CLEAR","Offshore,Offshore,Offshore,Offshore,Cross-shore,Cross-shore,Cross-shore,Onshore,Onshore,Offshore",10
5842041f4e65fad6a7708a20,2024_08_12,38.75034741676525,-75.08194,Gordons Pond,2,0.0259,0.42216,23.5,23.5,"NIGHT_CLEAR,NIGHT_MOSTLY_CLOUDY,NIGHT_MOSTLY_CLEAR,NIGHT_CLEAR,CLEAR,CLEAR,CLEAR,CLEAR,CLEAR,CLEAR","Offshore,Offshore,Offshore,Offshore,Offshore,Offshore,Offshore,Offshore,Offshore,Cross-shore",10
5842041f4e65fad6a7708a21,2024_08_12,38.767837,-75.08284,Naval Jetties,2,0.254,0.558,23.5,23.5,"NIGHT_CLEAR,NIGHT_MOSTLY_CLOUDY,NIGHT_MOSTLY_CLEAR,NIGHT_CLEAR,CLEAR,CLEAR,CLEAR,CLEAR,CLEAR,CLEAR","Offshore,Offshore,Offshore,Cross-shore,Cross-shore,Cross-shore,Cross-shore,Cross-shore,Cross-shore,Offshore",10
5842041f4e65fad6a7708a22,2024_08_12,36.81735875786576,-75.96624,Camp Pendleton,1.3833333333333333,0.016651,0.32060900000000003,21,19,"NIGHT_FOG,NIGHT_MIST,NIGHT_FOG,NIGHT_MIST,CLEAR,CLEAR,CLEAR,CLEAR,CLEAR,CLEAR","Onshore,Onshore,Onshore,Onshore,Onshore,Onshore,Onshore,Onshore,Onshore,Cross-shore",10
5842041f4e65fad6a7708a23,2024_08_12,36.9102212316428,-75.98732471466064,North End,1.0333333333333334,0.015084,0.318357,21,19,"NIGHT_MIST,NIGHT_MIST,NIGHT_MIST,NIGHT_MOSTLY_CLOUDY,CLEAR,CLEAR,CLEAR,CLEAR,CLEAR,CLEAR","Onshore,Onshore,Onshore,Onshore,Onshore,Onshore,Onshore,Onshore,Onshore,Onshore",10
5842041f4e65fad6a7708a24,2024_08_12,36.737117517621314,-75.93924,Sandbridge Beach,1.2833333333333332,0.051787,0.359977,21,19,"NIGHT_FOG,NIGHT_FOG,NIGHT_FOG,NIGHT_MIST,CLEAR,CLEAR,CLEAR,MOSTLY_CLEAR,CLEAR,CLEAR","Onshore,Onshore,Onshore,Onshore,Onshore,Onshore,Onshore,Onshore,Onshore,Onshore",10
5842041f4e65fad6a7708a26,2024_08_12,36.818257440557794,-75.96666,Croatan to Pendleton,1.2666666666666666,0.192641,0.496733,21,19,"NIGHT_FOG,NIGHT_MIST,NIGHT_FOG,NIGHT_MIST,CLEAR,CLEAR,CLEAR,CLEAR,CLEAR,CLEAR","Onshore,Onshore,Onshore,Onshore,Onshore,Onshore,Onshore,Onshore,Onshore,Cross-shore",10
5842041f4e65fad6a7708a27,2024_08_12,36.84318777204769,-75.9719,South End,1.2833333333333332,0.034417,0.334773,21,19,"NIGHT_MIST,NIGHT_MIST,NIGHT_MIST,NIGHT_MIST,MIST,CLEAR,CLEAR,CLEAR,MOSTLY_CLEAR,CLEAR","Onshore,Onshore,Onshore,Onshore,Onshore,Onshore,Onshore,Onshore,Onshore,Cross-shore",10
5842041f4e65fad6a7708a28,2024_08_12,37.08612627584661,-75.976121638199,Fishermans Island,1.1,0.11,0.232,23,23,"NIGHT_MIST,NIGHT_MIST,NIGHT_MIST,NIGHT_CLEAR,CLEAR,CLEAR,CLEAR,CLEAR,CLEAR,CLEAR","Onshore,Cross-shore,Cross-shore,Cross-shore,Cross-shore,Cross-shore,Cross-shore,Cross-shore,Cross-shore,Cross-shore",10
5842041f4e65fad6a7708a38,2024_08_12,35.254619418229026,-75.52074,Cape Hatteras Lighthouse,1.6833333333333333,0.341387,0.668073,27,26,"NIGHT_CLEAR,NIGHT_CLEAR,NIGHT_MIST,NIGHT_MOSTLY_CLEAR,SHOWERS,LIGHT_SHOWERS_POSSIBLE,MIST,MOSTLY_CLOUDY,MIST,CLEAR","Cross-shore,Cross-shore,Cross-shore,Offshore,Cross-shore,Offshore,Offshore,Offshore,Cross-shore,Cross-shore",10
5842041f4e65fad6a7708a3a,2024_08_12,35.54572934093336,-75.46477,Waves and Salvo,1.15,0.376404,0.67802,26,26,"NIGHT_MOSTLY_CLOUDY,NIGHT_CLEAR,NIGHT_CLEAR,NIGHT_FOG,MOSTLY_CLEAR,CLEAR,MOSTLY_CLEAR,CLEAR,MIST,MOSTLY_CLOUDY","Cross-shore,Cross-shore,Cross-shore,Offshore,Cross-shore,Cross-shore,Cross-shore,Cross-shore,Cross-shore,Cross-shore",10
5842041f4e65fad6a7708a3b,2024_08_12,35.22565892751075,-75.63606,Frisco,1.7833333333333332,0.408186,0.67842,28,27,"NIGHT_CLEAR,NIGHT_MIST,NIGHT_MIST,NIGHT_MOSTLY_CLEAR,FOG,MOSTLY_CLEAR,CLEAR,CLEAR,CLEAR,MOSTLY_CLEAR","Onshore,Onshore,Onshore,Cross-shore,Cross-shore,Offshore,Offshore,Offshore,Offshore,Offshore",10
5842041f4e65fad6a7708a3c,2024_08_12,35.13086,-75.90591,Ocracoke,1.5,0.378369,0.741414,27,27,"NIGHT_MOSTLY_CLOUDY,NIGHT_MIST,NIGHT_MIST,NIGHT_CLEAR,SHOWERS,MIST,MIST,MOSTLY_CLOUDY,CLEAR,CLEAR","Onshore,Onshore,Onshore,Cross-shore,Cross-shore,Offshore,Offshore,Offshore,Offshore,Cross-shore",10
5842041f4e65fad6a7708a3d,2024_08_12,35.34721340158342,-75.50084,Avon Pier,1.6166666666666667,0.402013,0.71114,27,26,"NIGHT_CLEAR,NIGHT_MIST,NIGHT_CLEAR,NIGHT_CLEAR,FOG,HEAVY_SHOWERS_POSSIBLE,CLEAR,CLEAR,CLEAR,CLEAR","Cross-shore,Cross-shore,Cross-shore,Offshore,Cross-shore,Offshore,Offshore,Cross-shore,Cross-shore,Cross-shore",10
5842041f4e65fad6a7708a3f,2024_08_12,35.71680821253768,-75.49243,Pea Island,1.4,0.214,0.517,25.5,25.5,"NIGHT_FOG,NIGHT_CLEAR,NIGHT_CLEAR,NIGHT_MOSTLY_CLEAR,CLEAR,CLEAR,CLEAR,CLEAR,CLEAR,MOSTLY_CLOUDY","Cross-shore,Cross-shore,Offshore,Onshore,Onshore,Onshore,Onshore,Onshore,Onshore,Onshore",10
5842041f4e65fad6a7708a40,2024_08_12,35.97427620657821,-75.62984,Nags Head Pier,1.3833333333333333,0.22864099999999998,0.53248,23.8,22.6,"NIGHT_FOG,NIGHT_CLEAR,NIGHT_CLEAR,NIGHT_MIST,MIST,MIST,MIST,MIST,MIST,CLOUDY","Cross-shore,Onshore,Onshore,Onshore,Onshore,Onshore,Onshore,Onshore,Onshore,Cross-shore",10
5842041f4e65fad6a7708a41,2024_08_12,36.0439998039079,-75.67288,Avalon Pier,1.4,0.2299,0.5308,23.8,22.6,"NIGHT_MIST,NIGHT_LIGHT_SHOWERS_POSSIBLE,NIGHT_MIST,NIGHT_MIST,MIST,BRIEF_SHOWERS_POSSIBLE,CLEAR,CLEAR,CLEAR,OVERCAST","Onshore,Onshore,Onshore,Onshore,Onshore,Onshore,Onshore,Onshore,Onshore,Onshore",10
5842041f4e65fad6a7708a42,2024_08_12,36.03043116489792,-75.66413,First Street,1.7166666666666668,0.2429,0.5493,23.8,22.6,"NIGHT_MIST,NIGHT_LIGHT_SHOWERS_POSSIBLE,NIGHT_MIST,NIGHT_MIST,MIST,BRIEF_SHOWERS_POSSIBLE,CLEAR,CLEAR,CLEAR,OVERCAST","Cross-shore,Onshore,Onshore,Onshore,Onshore,Onshore,Onshore,Onshore,Onshore,Cross-shore",10
5842041f4e65fad6a7708a43,2024_08_12,36.06829910590498,-75.6899,Old Station/Laundromats,1.3,0.2459,0.5543,23.8,22.6,"NIGHT_MIST,NIGHT_LIGHT_SHOWERS_POSSIBLE,NIGHT_BRIEF_SHOWERS_POSSIBLE,NIGHT_MIST,MIST,MIST,MIST,MIST,MIST,OVERCAST","Onshore,Onshore,Onshore,Onshore,Onshore,Onshore,Onshore,Onshore,Onshore,Cross-shore",10
5842041f4e65fad6a7708a44,2024_08_12,36.10126676607491,-75.71107,Kitty Hawk Pier,1.1,0.2589,0.5608,23.8,22.6,"NIGHT_MIST,NIGHT_CLEAR,NIGHT_MIST,NIGHT_FOG,MIST,MIST,MIST,CLEAR,CLEAR,MOSTLY_CLOUDY","Onshore,Onshore,Onshore,Onshore,Onshore,Onshore,Onshore,Onshore,Onshore,Cross-shore",10
5842041f4e65fad6a7708a45,2024_08_12,36.18220630068973,-75.75013580649097,Duck Pier,1,0.2124,0.5153,22.8,20.8,"NIGHT_MIST,NIGHT_MIST,NIGHT_MIST,NIGHT_MIST,MIST,MIST,MIST,MIST,MIST,MIST","Onshore,Onshore,Cross-shore,Onshore,Onshore,Onshore,Onshore,Cross-shore,Onshore,Onshore",10
5842041f4e65fad6a7708a46,2024_08_12,36.37660668125033,-75.82409701687456,Corolla,1,0.2214,0.5268,22.8,20.8,"NIGHT_BRIEF_SHOWERS,NIGHT_HEAVY_SHOWERS,NIGHT_HEAVY_SHOWERS_POSSIBLE,NIGHT_MIST,MIST,MIST,MIST,MIST,MOSTLY_CLEAR,CLEAR","Onshore,Onshore,Onshore,Onshore,Onshore,Onshore,Onshore,Onshore,Cross-shore,Cross-shore",10
5842041f4e65fad6a7708a47,2024_08_12,33.90373404124834,-78.08241431707907,Oak Island,1.1,0.193,0.498,27,27,"NIGHT_CLEAR,NIGHT_CLEAR,NIGHT_CLEAR,NIGHT_CLEAR,FOG,FOG,MIST,BRIEF_SHOWERS_POSSIBLE,CLEAR,CLEAR","Onshore,Onshore,Onshore,Onshore,Onshore,Onshore,Onshore,Onshore,Onshore,Onshore",10
5842041f4e65fad6a7708a48,2024_08_12,33.91108837766468,-78.29653,South Brunswick Beaches,1.1,0.106197,0.496431,27.5,27.5,"NIGHT_MIST,NIGHT_CLEAR,NIGHT_CLOUDY,NIGHT_MIST,MIST,DRIZZLE,MIST,MIST,CLOUDY,CLEAR","Onshore,Onshore,Onshore,Onshore,Onshore,Onshore,Onshore,Onshore,Onshore,Cross-shore",10
5842041f4e65fad6a7708a49,2024_08_12,34.05683595651973,-77.88128,Carolina Beach Pier,0.5166666666666667,0.00343,0.30979,27,27,"NIGHT_DRIZZLE,NIGHT_MIST,NIGHT_MIST,NIGHT_BRIEF_SHOWERS_POSSIBLE,BRIEF_SHOWERS,MIST,MIST,MIST,MIST,MOSTLY_CLOUDY","Cross-shore,Cross-shore,Cross-shore,Cross-shore,Offshore,Cross-shore,Cross-shore,Offshore,Cross-shore,Cross-shore",10
5842041f4e65fad6a7708a4a,2024_08_12,33.96841191816696,-77.9180242565498,Fort Fisher,0.9333333333333333,0.011708999999999999,0.315569,27,27,"NIGHT_MIST,NIGHT_MIST,NIGHT_MIST,NIGHT_MIST,MIST,MIST,MIST,MIST,MIST,MOSTLY_CLOUDY","Cross-shore,Cross-shore,Cross-shore,Cross-shore,Offshore,Cross-shore,Cross-shore,Offshore,Offshore,Cross-shore",10
5842041f4e65fad6a7708a4b,2024_08_12,34.46776662988774,-77.47083,Topsail Beach,1.6833333333333333,0.343987,0.6454730000000001,27,27,"NIGHT_MIST,NIGHT_MIST,NIGHT_MIST,NIGHT_MOSTLY_CLOUDY,MOSTLY_CLOUDY,HEAVY_SHOWERS,CLEAR,LIGHT_SHOWERS_POSSIBLE,CLEAR,MIST","Onshore,Onshore,Onshore,Onshore,Onshore,Cross-shore,Offshore,Cross-shore,Cross-shore,Onshore",10
5842041f4e65fad6a7708a4c,2024_08_12,34.69270354752445,-76.82854854446575,Iron Steamer,1.6666666666666667,0.34308,0.643827,28,27,"NIGHT_MIST,NIGHT_MIST,NIGHT_MIST,NIGHT_BRIEF_SHOWERS,MOSTLY_CLOUDY,HEAVY_SHOWERS,MIST,CLEAR,CLEAR,MIST","Onshore,Onshore,Onshore,Onshore,Onshore,Cross-shore,Offshore,Offshore,Offshore,Onshore",10
5842041f4e65fad6a7708a4f,2024_08_12,30.85132684893727,-81.42283496231143,Cumberland Island,1.8,0.267,0.572,27,27,"NIGHT_CLEAR,NIGHT_MOSTLY_CLEAR,NIGHT_CLEAR,NIGHT_CLEAR,CLEAR,CLEAR,MOSTLY_CLOUDY,CLEAR,CLEAR,MIST","Cross-shore,Cross-shore,Cross-shore,Cross-shore,Offshore,Offshore,Offshore,Cross-shore,Cross-shore,Onshore",10
5842041f4e65fad6a7708a50,2024_08_12,34.686741128540874,-76.47516712138378,Cape Lookout National Seashore,1.6,0.509,0.8109999999999999,27.5,27.5,"NIGHT_CLOUDY,NIGHT_MIST,NIGHT_MIST,NIGHT_BRIEF_SHOWERS,SHOWERS,BRIEF_SHOWERS,HEAVY_SHOWERS_POSSIBLE,MIST,CLEAR,SHOWERS","Cross-shore,Cross-shore,Cross-shore,Cross-shore,Cross-shore,Cross-shore,Offshore,Offshore,Offshore,Cross-shore",10
5842041f4e65fad6a7708a51,2024_08_12,31.10585419260024,-81.40422767604812,Jekyll Island,1.7,0.028999999999999998,0.334,28,28,"NIGHT_CLEAR,NIGHT_CLEAR,NIGHT_CLEAR,NIGHT_CLEAR,CLEAR,CLEAR,CLEAR,MOSTLY_CLOUDY,MOSTLY_CLOUDY,CLEAR","Offshore,Offshore,Offshore,Offshore,Offshore,Offshore,Offshore,Offshore,Cross-shore,Cross-shore",10
5842041f4e65fad6a7708a52,2024_08_12,31.16212806376699,-81.32512426500224,Harbor Marker Buoys,1.3,0.214,0.521,28,28,"NIGHT_CLEAR,NIGHT_CLEAR,NIGHT_CLEAR,NIGHT_CLEAR,CLEAR,CLEAR,CLEAR,CLEAR,CLEAR,CLEAR","Cross-shore,Cross-shore,Cross-shore,Cross-shore,Offshore,Offshore,Offshore,Cross-shore,Cross-shore,Onshore",10
5842041f4e65fad6a7708a53,2024_08_12,31.20076299997009,-81.32629,Sea Island,1.4,0.187,0.493,28,28,"NIGHT_CLEAR,NIGHT_CLEAR,NIGHT_CLEAR,NIGHT_CLEAR,CLEAR,CLEAR,CLEAR,CLEAR,CLEAR,CLEAR","Cross-shore,Cross-shore,Cross-shore,Cross-shore,Offshore,Offshore,Offshore,Cross-shore,Cross-shore,Onshore",10
5842041f4e65fad6a7708a54,2024_08_12,31.13553222995767,-81.38457634790909,St. Simons Island,1.8,0.203,0.506,28,28,"NIGHT_CLEAR,NIGHT_CLEAR,NIGHT_CLEAR,NIGHT_CLEAR,CLEAR,CLEAR,CLEAR,MOSTLY_CLOUDY,MOSTLY_CLOUDY,MIST","Onshore,Cross-shore,Cross-shore,Cross-shore,Cross-shore,Cross-shore,Cross-shore,Cross-shore,Onshore,Onshore",10
