_id,date,lat,lon,name,daily_mean_swell_rating,daily_mean_wave_height_min,daily_mean_wave_height_max,daily_mean_water_temperature_max,daily_mean_water_temperature_min,weather_per_timestamp,wind_per_timestamp,n_samples_per_day
5842041f4e65fad6a77087f9,2024_02_17,37.741668,-122.51038,South Ocean Beach,3.234,1.0678,1.6184666666666667,14,14,"CLEAR,CLEAR,CLEAR,NIGHT_CLEAR,NIGHT_CLEAR","Offshore,Cross-shore,Cross-shore,Offshore,Offshore",5
5842041f4e65fad6a7708801,2024_02_17,37.49142,-122.50428,Maverick's,NA,1.282,1.464,13,13,"MIST,CLEAR,MIST,NIGHT_CLEAR,NIGHT_CLEAR","Onshore,Onshore,Onshore,Cross-shore,Onshore",5
5842041f4e65fad6a7708804,2024_02_17,44.997,-124.018,Roads End,3.2,1.188,1.48,11,11,"CLEAR,CLEAR,CLEAR,NIGHT_CLEAR,NIGHT_OVERCAST","Offshore,Offshore,Offshore,Offshore,Offshore",5
5842041f4e65fad6a7708805,2024_02_17,36.95188851423011,-122.02522,Steamer Lane,3.368,0.9148000000000001,1.2999999999999998,14,14,"CLEAR,CLEAR,CLEAR,NIGHT_MIST,NIGHT_CLEAR","Onshore,Cross-shore,Onshore,Onshore,Offshore",5
5842041f4e65fad6a7708806,2024_02_17,36.95918781542251,-122.02489,Cowells,1.3679999999999999,-0.006666666666666666,0.25953333333333334,14,14,"CLEAR,CLEAR,CLEAR,NIGHT_MIST,NIGHT_CLEAR","Cross-shore,Cross-shore,Cross-shore,Cross-shore,Cross-shore",5
5842041f4e65fad6a7708807,2024_02_17,36.95468082526536,-121.97234,Pleasure Point,3.368,0.7046,1.2643333333333333,14,14,"CLEAR,CLEAR,CLEAR,NIGHT_CLEAR,NIGHT_CLEAR","Cross-shore,Cross-shore,Onshore,Onshore,Offshore",5
5842041f4e65fad6a770880a,2024_02_17,35.37815414378748,-120.86589,Morro Bay,3,0.9704000000000002,1.5006000000000002,14,14,"CLEAR,CLEAR,CLEAR,NIGHT_CLEAR,NIGHT_MIST","Onshore,Onshore,Onshore,Onshore,Cross-shore",5
5842041f4e65fad6a770880b,2024_02_17,36.95782765000708,-121.9672887511276,Jack's,2,0.2348666666666667,0.5420666666666667,14,14,"CLEAR,CLEAR,CLEAR,NIGHT_CLEAR,NIGHT_CLEAR","Cross-shore,Cross-shore,Onshore,Onshore,Offshore",5
5842041f4e65fad6a770880d,2024_02_17,34.29982939936656,-119.3489016603669,Gold Coast Beachbreaks,2,0.258,0.5640000000000001,15,15,"MOSTLY_CLEAR,OVERCAST,MIST,NIGHT_MIST,NIGHT_MIST","Onshore,Onshore,Onshore,Cross-shore,Cross-shore",5
5842041f4e65fad6a7708811,2024_02_17,34.245076,-119.26799,Ventura Harbor,2.466,1.058296,1.5771425,14,14,"CLEAR,OVERCAST,MOSTLY_CLOUDY,NIGHT_MIST,NIGHT_MIST","Onshore,Onshore,Onshore,Onshore,Onshore",5
5842041f4e65fad6a7708813,2024_02_17,34.051,-118.964,County Line,2,0.5407000000000001,0.8503,15,15,"MOSTLY_CLOUDY,MOSTLY_CLOUDY,CLEAR,NIGHT_CLEAR,NIGHT_CLEAR","Onshore,Onshore,Onshore,Onshore,Onshore",5
5842041f4e65fad6a7708814,2024_02_17,34.37256264378892,-119.47797,Rincon,2,0.272,0.576,15,15,"CLEAR,CLEAR,CLEAR,NIGHT_MIST,NIGHT_MOSTLY_CLEAR","Cross-shore,Cross-shore,Cross-shore,Cross-shore,Cross-shore",5
5842041f4e65fad6a7708817,2024_02_17,34.03096101876324,-118.68109,Malibu Third Point,2,0.28400000000000003,0.59,15,15,"MOSTLY_CLEAR,MOSTLY_CLOUDY,CLEAR,NIGHT_CLEAR,NIGHT_CLEAR","Cross-shore,Offshore,Offshore,Offshore,Offshore",5
5842041f4e65fad6a7708819,2024_02_17,33.984079047970035,-118.47381591796875,Venice Beach,2,0.7242999999999999,1.0979,14,14,"BRIEF_SHOWERS_POSSIBLE,MIST,MIST,NIGHT_CLEAR,NIGHT_CLEAR","Onshore,Onshore,Onshore,Onshore,Onshore",5
5842041f4e65fad6a770881e,2024_02_17,34.037508438646746,-118.58339846155594,Topanga Beach,2,0.28359999999999996,0.5897,15,15,"MOSTLY_CLEAR,MOSTLY_CLOUDY,CLEAR,NIGHT_MIST,NIGHT_CLEAR","Onshore,Onshore,Onshore,Onshore,Offshore",5
5842041f4e65fad6a7708820,2024_02_17,33.73954373690184,-118.11414,Seal Beach Jetty,1.8,0.274,0.578,15,15,"CLEAR,CLEAR,CLEAR,NIGHT_CLEAR,NIGHT_MOSTLY_CLOUDY","Onshore,Onshore,Onshore,Onshore,Onshore",5
5842041f4e65fad6a7708822,2024_02_17,33.72309983348433,-118.08078,Anderson Street,1.2,0.3,0.604,15,15,"MOSTLY_CLEAR,MOSTLY_CLEAR,CLEAR,NIGHT_CLEAR,NIGHT_MOSTLY_CLOUDY","Onshore,Onshore,Onshore,Onshore,Onshore",5
5842041f4e65fad6a7708827,2024_02_17,33.65574085629463,-118.00397,Huntington Beach Pier Northside,2.2,0.9182666666666667,1.2130666666666665,14,14,"MOSTLY_CLOUDY,MOSTLY_CLOUDY,MOSTLY_CLEAR,NIGHT_MOSTLY_CLOUDY,NIGHT_MOSTLY_CLOUDY","Onshore,Onshore,Onshore,Onshore,Onshore",5
5842041f4e65fad6a7708828,2024_02_17,34.272041739333,-119.2997646331,C St.,3,0.7878,1.1059,14,14,"CLEAR,CLOUDY,MOSTLY_CLOUDY,NIGHT_MOSTLY_CLOUDY,NIGHT_MIST","Onshore,Offshore,Onshore,Cross-shore,Cross-shore",5
5842041f4e65fad6a770882a,2024_02_17,33.61555743705257,-117.93676,Newport Lower Jetties,2,0.5044,0.9045333333333333,15,15,"MOSTLY_CLOUDY,MOSTLY_CLOUDY,MOSTLY_CLOUDY,NIGHT_MOSTLY_CLOUDY,NIGHT_MOSTLY_CLOUDY","Onshore,Onshore,Onshore,Cross-shore,Cross-shore",5
5842041f4e65fad6a770882b,2024_02_17,33.5930302087,-117.88199,The Wedge,2,0.427834,0.858346,15,15,"MOSTLY_CLOUDY,MOSTLY_CLEAR,MOSTLY_CLOUDY,NIGHT_BRIEF_SHOWERS,NIGHT_MIST","Onshore,Onshore,Onshore,Cross-shore,Cross-shore",5
5842041f4e65fad6a770882c,2024_02_17,33.60577342582,-117.9315376281,Newport Beach Pier,2,0.4597333333333334,0.7602666666666666,15,15,"CLEAR,CLEAR,MIST,NIGHT_MIST,NIGHT_MOSTLY_CLOUDY","Cross-shore,Cross-shore,Cross-shore,Cross-shore,Cross-shore",5
5842041f4e65fad6a770882e,2024_02_17,33.475793399792984,-117.72291,Salt Creek,3,0.7264,1.0665333333333333,14,14,"CLEAR,CLEAR,CLEAR,NIGHT_CLEAR,NIGHT_CLEAR","Onshore,Onshore,Onshore,Onshore,Onshore",5
5842041f4e65fad6a7708830,2024_02_17,33.41800974113613,-117.61952,T-Street,2,0.6737333333333333,1.0305333333333333,14,14,"MOSTLY_CLOUDY,CLEAR,CLEAR,NIGHT_BRIEF_SHOWERS,NIGHT_MIST","Cross-shore,Cross-shore,Cross-shore,Cross-shore,Cross-shore",5
5842041f4e65fad6a7708832,2024_02_17,33.202391008646,-117.39475,Oceanside Harbor,2,0.7069333333333333,1.2646666666666668,15,15,"CLEAR,MOSTLY_CLOUDY,MOSTLY_CLOUDY,NIGHT_MOSTLY_CLOUDY,NIGHT_CLOUDY","Onshore,Onshore,Onshore,Onshore,Onshore",5
5842041f4e65fad6a7708835,2024_02_17,33.19477795952803,-117.38667,Oceanside Pier,2.2,0.6676,1.1583999999999999,15,15,"CLEAR,MOSTLY_CLOUDY,MOSTLY_CLOUDY,NIGHT_MOSTLY_CLOUDY,NIGHT_MIST","Onshore,Onshore,Onshore,Onshore,Onshore",5
5842041f4e65fad6a7708837,2024_02_17,33.14948100706,-117.35029,Tamarack,2.2,0.448,0.752,15,15,"CLEAR,CLEAR,CLOUDY,NIGHT_OVERCAST,NIGHT_MIST","Onshore,Onshore,Onshore,Cross-shore,Onshore",5
5842041f4e65fad6a7708839,2024_02_17,32.865777159358856,-117.25614295356122,Scripps,2.434,0.8114,1.1727,14,14,"MIST,MIST,OVERCAST,NIGHT_OVERCAST,NIGHT_MIST","Onshore,Onshore,Onshore,Onshore,Onshore",5
5842041f4e65fad6a770883a,2024_02_17,32.813094,-117.27381,Birdrock,3,1.176,1.426,15,15,"MOSTLY_CLOUDY,MOSTLY_CLOUDY,MIST,NIGHT_MIST,NIGHT_OVERCAST","Cross-shore,Cross-shore,Cross-shore,Cross-shore,Cross-shore",5
5842041f4e65fad6a770883b,2024_02_17,32.877231,-117.25303,Blacks,3.234,1.1818666666666666,1.6386333333333334,14,14,"MIST,MIST,OVERCAST,NIGHT_OVERCAST,NIGHT_MIST","Onshore,Onshore,Onshore,Onshore,Onshore",5
5842041f4e65fad6a770883c,2024_02_17,32.82978974229765,-117.28161740727381,Windansea,3,1.0402333333333333,1.3879333333333332,14,14,"MOSTLY_CLOUDY,MIST,MIST,NIGHT_MIST,NIGHT_MIST","Onshore,Onshore,Onshore,Onshore,Onshore",5
5842041f4e65fad6a770883d,2024_02_17,32.838278,-117.28396,Horseshoe,3,1.306,1.562,15,15,"MOSTLY_CLOUDY,MIST,MIST,NIGHT_MIST,NIGHT_MIST","Onshore,Onshore,Onshore,Onshore,Cross-shore",5
5842041f4e65fad6a770883f,2024_02_17,32.75034717673179,-117.25337,Ocean Beach,2.934,1.2350333333333334,1.5235,14,14,"MOSTLY_CLOUDY,MOSTLY_CLOUDY,OVERCAST,NIGHT_MIST,NIGHT_MIST","Onshore,Onshore,Onshore,Onshore,Cross-shore",5
5842041f4e65fad6a7708840,2024_02_17,32.73693,-117.25718,Sunset Cliffs,3,1.198,1.43,15,15,"MOSTLY_CLOUDY,MOSTLY_CLOUDY,MIST,NIGHT_MIST,NIGHT_MIST","Onshore,Onshore,Onshore,Onshore,Cross-shore",5
5842041f4e65fad6a7708841,2024_02_17,32.796582258728826,-117.25779,Pacific Beach,3,0.9360666666666666,1.3031,14,14,"MOSTLY_CLOUDY,MOSTLY_CLOUDY,MIST,NIGHT_MIST,NIGHT_MIST","Cross-shore,Cross-shore,Cross-shore,Cross-shore,Cross-shore",5
5842041f4e65fad6a7708842,2024_02_17,32.776636,-117.25514,Mission Beach,3,0.9917333333333332,1.3447666666666664,14,14,"MOSTLY_CLOUDY,MOSTLY_CLOUDY,MIST,NIGHT_MIST,NIGHT_MIST","Onshore,Onshore,Onshore,Onshore,Cross-shore",5
5842041f4e65fad6a7708844,2024_02_17,32.577195519016,-117.13475,Imperial Beach Pier,2.4,1.248,1.492,15,15,"MOSTLY_CLOUDY,MOSTLY_CLOUDY,OVERCAST,NIGHT_OVERCAST,NIGHT_MIST","Onshore,Onshore,Onshore,Onshore,Onshore",5
5842041f4e65fad6a770884a,2024_02_17,42.88678181061,-70.80843,Seabrook,0.966,0.07854083333333334,0.24971733333333335,4,3,"NIGHT_CLEAR,NIGHT_CLEAR,NIGHT_CLEAR,NIGHT_CLEAR,NIGHT_CLEAR","Offshore,Offshore,Offshore,Offshore,Offshore",5
5842041f4e65fad6a770884e,2024_02_17,41.434181432898335,-71.45312118111178,Narragansett,1,0,0.29433333333333334,5,4,"NIGHT_CLEAR,NIGHT_CLEAR,NIGHT_CLEAR,NIGHT_CLEAR,NIGHT_CLEAR","Offshore,Offshore,Offshore,Offshore,Offshore",5
5842041f4e65fad6a7708850,2024_02_17,40.582703230722,-73.65247,Lincoln Blvd,1,-0.012999999999999994,0.2886666666666667,5,4,"NIGHT_CLEAR,NIGHT_CLEAR,NIGHT_CLEAR,NIGHT_CLEAR,NIGHT_CLEAR","Onshore,Onshore,Offshore,Offshore,Offshore",5
5842041f4e65fad6a7708852,2024_02_17,40.58342841721757,-73.81182,Rockaways,0.3,-0.02,0.28400000000000003,5,4,"NIGHT_CLEAR,NIGHT_CLEAR,NIGHT_CLEAR,NIGHT_CLEAR,NIGHT_CLEAR","Offshore,Offshore,Offshore,Offshore,Offshore",5
5842041f4e65fad6a7708853,2024_02_17,40.330474,-73.9734,Monmouth Beach,0.6,-0.07066666666666667,0.16416666666666663,6,5,"NIGHT_CLEAR,NIGHT_CLEAR,NIGHT_CLEAR,NIGHT_CLEAR,NIGHT_CLEAR","Offshore,Offshore,Offshore,Offshore,Cross-shore",5
5842041f4e65fad6a7708856,2024_02_17,40.113,-74.028,Manasquan Inlet,1,0,0.272,6,5,"NIGHT_CLEAR,NIGHT_CLEAR,NIGHT_CLEAR,NIGHT_CLEAR,NIGHT_CLEAR","Offshore,Offshore,Offshore,Offshore,Offshore",5
5842041f4e65fad6a7708857,2024_02_17,39.941519877445664,-74.06829,Casino Pier,0.866,-0.012666666666666666,0.2733333333333334,6,5,"NIGHT_CLEAR,NIGHT_CLEAR,NIGHT_CLEAR,NIGHT_CLEAR,NIGHT_CLEAR","Offshore,Offshore,Offshore,Offshore,Offshore",5
5842041f4e65fad6a7708858,2024_02_17,39.28223089949212,-74.55766,North End OC,0.3,-0.019,0.26166666666666666,6,5,"NIGHT_CLEAR,NIGHT_CLEAR,NIGHT_CLEAR,NIGHT_CLEAR,NIGHT_CLEAR","Offshore,Offshore,Offshore,Offshore,Onshore",5
5842041f4e65fad6a770885b,2024_02_17,39.65080599934257,-74.17146,Ship Bottom,1,-0.017,0.279,6,5,"NIGHT_CLEAR,NIGHT_CLEAR,NIGHT_CLEAR,NIGHT_CLEAR,NIGHT_CLEAR","Offshore,Offshore,Offshore,Offshore,Offshore",5
5842041f4e65fad6a7708863,2024_02_17,36.034151543144,-75.66791,Third Street,1,0.33516666666666667,0.641,7,6,"NIGHT_CLEAR,NIGHT_OVERCAST,NIGHT_CLEAR,NIGHT_CLEAR,NIGHT_CLEAR","Onshore,Onshore,Onshore,Onshore,Cross-shore",5
5842041f4e65fad6a7708867,2024_02_17,35.605833221351425,-75.46303,S-Turns,1,0.38766666666666666,0.6956666666666667,9,8,"NIGHT_CLEAR,NIGHT_CLOUDY,NIGHT_CLOUDY,NIGHT_CLEAR,NIGHT_CLEAR","Onshore,Onshore,Onshore,Onshore,Onshore",5
5842041f4e65fad6a770886d,2024_02_17,38.338461,-75.08117,Ocean City Boardwalk,0.5,-0.07899999999999999,0.1978,7,5,"NIGHT_CLEAR,NIGHT_CLEAR,NIGHT_CLEAR,NIGHT_CLEAR,NIGHT_CLEAR","Offshore,Offshore,Onshore,Onshore,Onshore",5
5842041f4e65fad6a770886f,2024_02_17,29.844757212379562,-81.26136,A St.,1,0.006,0.304,16,16,"MIST,NIGHT_OVERCAST,NIGHT_CLEAR,NIGHT_CLEAR,NIGHT_CLEAR","Onshore,Onshore,Cross-shore,Offshore,Offshore",5
5842041f4e65fad6a7708871,2024_02_17,29.069417851135093,-80.90824,New Smyrna Beach,2,0.8585999999999999,1.2900666666666665,17,16,"OVERCAST,NIGHT_OVERCAST,NIGHT_MOSTLY_CLOUDY,NIGHT_CLEAR,NIGHT_CLEAR","Offshore,Offshore,Offshore,Offshore,Offshore",5
5842041f4e65fad6a7708872,2024_02_17,28.367707417566,-80.60171,Cocoa Beach Pier,1.3,0.26233333333333336,0.5723333333333334,18,17,"CLEAR,NIGHT_CLEAR,NIGHT_CLEAR,NIGHT_CLEAR,NIGHT_CLEAR","Onshore,Cross-shore,Cross-shore,Cross-shore,Cross-shore",5
5842041f4e65fad6a7708873,2024_02_17,28.091782738658846,-80.56479,Indialantic,1.8,0.3738,0.7564000000000001,19,18,"CLEAR,NIGHT_MOSTLY_CLOUDY,NIGHT_OVERCAST,NIGHT_CLEAR,NIGHT_CLEAR","Onshore,Onshore,Onshore,Cross-shore,Offshore",5
5842041f4e65fad6a7708876,2024_02_17,27.25392904143517,-80.19455,Jensen Beach,1.666,0.4208,0.8034,22,20,"MOSTLY_CLEAR,NIGHT_CLEAR,NIGHT_CLEAR,NIGHT_OVERCAST,NIGHT_CLEAR","Onshore,Cross-shore,Cross-shore,Cross-shore,Offshore",5
5842041f4e65fad6a7708879,2024_02_17,26.76346795333825,-80.0360655784607,Reef Road,1.2,0.33039999999999997,0.6338,23,22,"CLEAR,NIGHT_CLEAR,NIGHT_CLEAR,NIGHT_CLEAR,NIGHT_CLEAR","Cross-shore,Cross-shore,Cross-shore,Cross-shore,Cross-shore",5
5842041f4e65fad6a770887c,2024_02_17,26.336499228484,-80.06956100463,Boca Raton Inlet,0.866,0.025999999999999995,0.33240000000000003,24,22,"CLEAR,NIGHT_CLEAR,NIGHT_CLEAR,NIGHT_CLEAR,NIGHT_CLEAR","Onshore,Onshore,Cross-shore,Cross-shore,Cross-shore",5
5842041f4e65fad6a770887d,2024_02_17,26.31719311695038,-80.07452525176168,Deerfield Beach Pier,0,0.004251666666666665,0.15401166666666666,24,23,"CLEAR,NIGHT_CLEAR,NIGHT_CLEAR,NIGHT_CLEAR,NIGHT_CLEAR","Onshore,Onshore,Cross-shore,Cross-shore,Cross-shore",5
5842041f4e65fad6a7708881,2024_02_17,30.20276320866628,-85.85626528676136,"Spyglass Dr., Panama City",0,0,0.05212,16,15,"CLEAR,NIGHT_CLEAR,NIGHT_LIGHT_RAIN,NIGHT_BRIEF_SHOWERS_POSSIBLE,NIGHT_OVERCAST","Cross-shore,Offshore,Offshore,Cross-shore,Onshore",5
5842041f4e65fad6a7708884,2024_02_17,33.39000832738053,-117.59852,Cottons,3,0.8616,1.1461333333333334,14,14,"MOSTLY_CLOUDY,MOSTLY_CLEAR,MOSTLY_CLEAR,NIGHT_MOSTLY_CLOUDY,NIGHT_MOSTLY_CLOUDY","Onshore,Onshore,Onshore,Onshore,Onshore",5
5842041f4e65fad6a7708885,2024_02_17,33.359416282661,-117.54167901405711,Trails,2.4,0.68,0.984,15,15,"MOSTLY_CLOUDY,MOSTLY_CLEAR,MOSTLY_CLOUDY,NIGHT_MOSTLY_CLOUDY,NIGHT_MOSTLY_CLOUDY","Onshore,Onshore,Onshore,Onshore,Cross-shore",5
5842041f4e65fad6a7708886,2024_02_17,33.38042605929805,-117.58332,Middles,2.734,0.5830666666666666,0.8922666666666667,14,14,"MOSTLY_CLOUDY,MOSTLY_CLEAR,MOSTLY_CLEAR,NIGHT_MOSTLY_CLOUDY,NIGHT_MIST","Onshore,Onshore,Onshore,Onshore,Onshore",5
5842041f4e65fad6a7708887,2024_02_17,33.38445596302903,-117.59445,Upper Trestles,3,0.8642666666666667,1.1828,14,14,"MOSTLY_CLOUDY,MOSTLY_CLEAR,MOSTLY_CLEAR,NIGHT_MOSTLY_CLOUDY,NIGHT_MIST","Onshore,Onshore,Onshore,Onshore,Onshore",5
5842041f4e65fad6a7708889,2024_02_17,28.944414,-95.28883,Surfside,1,0.17476,0.273058,15,15,"OVERCAST,OVERCAST,NIGHT_FOG,NIGHT_MIST,NIGHT_MIST","Offshore,Offshore,Cross-shore,Onshore,Onshore",5
5842041f4e65fad6a770888a,2024_02_17,33.38143999849023,-117.58843,Lower Trestles,3,0.9109333333333333,1.1561333333333332,14,14,"MOSTLY_CLOUDY,MOSTLY_CLEAR,MOSTLY_CLEAR,NIGHT_MOSTLY_CLOUDY,NIGHT_MIST","Onshore,Onshore,Onshore,Onshore,Onshore",5
5842041f4e65fad6a770888b,2024_02_17,33.379622288757,-117.57894,Church,2.868,0.5750666666666667,0.9142666666666668,14,14,"MOSTLY_CLOUDY,MOSTLY_CLEAR,MOSTLY_CLEAR,NIGHT_MOSTLY_CLOUDY,NIGHT_MOSTLY_CLOUDY","Onshore,Onshore,Onshore,Onshore,Onshore",5
5842041f4e65fad6a770888d,2024_02_17,21.679,-158.042,Sunset Beach,2,5.0921666666666665,6.225499999999999,26,25,"MOSTLY_CLEAR,CLEAR,MOSTLY_CLEAR,MOSTLY_CLOUDY,MOSTLY_CLEAR","Cross-shore,Cross-shore,Cross-shore,Cross-shore,Cross-shore",5
5842041f4e65fad6a770888e,2024_02_17,21.670550036401,-158.0482,Rocky Point,1.966,4.903666666666667,6.0024999999999995,26,25,"MOSTLY_CLEAR,MOSTLY_CLEAR,MOSTLY_CLEAR,MOSTLY_CLEAR,MOSTLY_CLEAR","Onshore,Cross-shore,Cross-shore,Cross-shore,Cross-shore",5
5842041f4e65fad6a770888f,2024_02_17,21.668,-158.05,Chambers,2,4.528,5.414,24,24,"MOSTLY_CLEAR,MOSTLY_CLEAR,MOSTLY_CLEAR,MOSTLY_CLEAR,MOSTLY_CLEAR","Onshore,Onshore,Cross-shore,Onshore,Cross-shore",5
5842041f4e65fad6a7708890,2024_02_17,21.66522,-158.0526,Pipeline,2.934,4.6935,5.748,26,25,"MOSTLY_CLEAR,MOSTLY_CLEAR,MOSTLY_CLEAR,MOSTLY_CLEAR,MOSTLY_CLEAR","Onshore,Cross-shore,Cross-shore,Cross-shore,Cross-shore",5
5842041f4e65fad6a7708891,2024_02_17,21.665,-158.054,Backdoor,1.966,4.6695,5.72,26,25,"MOSTLY_CLEAR,MOSTLY_CLEAR,MOSTLY_CLEAR,MOSTLY_CLEAR,CLEAR","Onshore,Cross-shore,Cross-shore,Cross-shore,Cross-shore",5
5842041f4e65fad6a7708892,2024_02_17,21.662,-158.057,Rockpile,2,5.028,6.008,24,24,"MOSTLY_CLEAR,MOSTLY_CLEAR,MOSTLY_CLEAR,MOSTLY_CLEAR,MOSTLY_CLEAR","Onshore,Onshore,Cross-shore,Cross-shore,Cross-shore",5
5842041f4e65fad6a7708893,2024_02_17,21.65870453806827,-158.06058,Log Cabins,2,3.936,4.702,24,24,"MOSTLY_CLEAR,MOSTLY_CLEAR,MOSTLY_CLEAR,MOSTLY_CLEAR,CLEAR","Onshore,Cross-shore,Cross-shore,Cross-shore,Cross-shore",5
5842041f4e65fad6a7708894,2024_02_17,21.66203493640557,-158.05495,Off-The-Wall,2,5.048,6.032,24,24,"MOSTLY_CLEAR,MOSTLY_CLEAR,MOSTLY_CLEAR,MOSTLY_CLEAR,MOSTLY_CLEAR","Onshore,Cross-shore,Cross-shore,Onshore,Cross-shore",5
5842041f4e65fad6a7708895,2024_02_17,21.643,-158.067,Waimea Bay,NA,4.9605,6.066833333333333,26,25,"MOSTLY_CLEAR,MOSTLY_CLEAR,MOSTLY_CLEAR,MOSTLY_CLEAR,MOSTLY_CLEAR","Cross-shore,Cross-shore,Cross-shore,Cross-shore,Cross-shore",5
5842041f4e65fad6a7708896,2024_02_17,21.622,-158.087,Hultin's,1.966,5.150166666666667,6.291666666666666,26,25,"CLEAR,CLEAR,CLEAR,CLEAR,CLEAR","Cross-shore,Cross-shore,Cross-shore,Cross-shore,Cross-shore",5
5842041f4e65fad6a7708897,2024_02_17,21.623,-158.085,Jocko's,2,4.044,4.836,24,24,"CLEAR,CLEAR,CLEAR,CLEAR,CLEAR","Onshore,Onshore,Onshore,Onshore,Onshore",5
5842041f4e65fad6a7708898,2024_02_17,21.62,-158.088,Laniakea,1.966,3.9713333333333334,4.756833333333333,26,25,"CLEAR,CLEAR,CLEAR,CLEAR,CLEAR","Cross-shore,Cross-shore,Cross-shore,Cross-shore,Cross-shore",5
5842041f4e65fad6a7708899,2024_02_17,21.625,-158.083,Chun's,2,4.106,4.906,24,24,"CLEAR,CLEAR,CLEAR,CLEAR,CLEAR","Cross-shore,Cross-shore,Cross-shore,Cross-shore,Cross-shore",5
5842041f4e65fad6a770889c,2024_02_17,21.286357895152136,-157.8515,South Shore - Ala Moana Park,2,0.46199999999999997,0.77,24,24,"CLEAR,CLEAR,CLEAR,LIGHT_SHOWERS_POSSIBLE,CLEAR","Offshore,Offshore,Offshore,Offshore,Offshore",5
5842041f4e65fad6a770889d,2024_02_17,19.606,-155.978,Banyans,3.334,1.9904000000000002,2.5082,26,25,"CLEAR,CLEAR,CLEAR,CLEAR,CLEAR","Onshore,Onshore,Cross-shore,Onshore,Cross-shore",5
5842041f4e65fad6a770889e,2024_02_17,20.029,-155.831,Kawaihae,3,1.018736,1.408464,25,25,"MOSTLY_CLEAR,CLEAR,MOSTLY_CLEAR,MOSTLY_CLEAR,MOSTLY_CLEAR","Offshore,Offshore,Offshore,Offshore,Offshore",5
5842041f4e65fad6a770889f,2024_02_17,33.07541383424675,-117.3105,Grandview,2.2,0.98,1.168,15,15,"MOSTLY_CLOUDY,CLEAR,CLEAR,NIGHT_CLOUDY,NIGHT_MIST","Onshore,Onshore,Onshore,Onshore,Offshore",5
5842041f4e65fad6a77088a0,2024_02_17,33.065267421296596,-117.30577,Beacons,2.8,0.908,1.118,15,15,"MOSTLY_CLOUDY,CLEAR,CLEAR,NIGHT_CLOUDY,NIGHT_MIST","Onshore,Onshore,Onshore,Onshore,Offshore",5
5842041f4e65fad6a77088a2,2024_02_17,21.252,-157.805,Diamond Head,3,0.6692068333333334,1.0538088333333333,26,25,"CLEAR,CLEAR,CLEAR,CLEAR,CLEAR","Offshore,Offshore,Offshore,Offshore,Offshore",5
5842041f4e65fad6a77088a3,2024_02_17,33.04694255008896,-117.29966,Moonlight State Beach,2.4,0.966,1.15,15,15,"MOSTLY_CLOUDY,CLOUDY,CLEAR,NIGHT_CLOUDY,NIGHT_MIST","Onshore,Onshore,Onshore,Onshore,Onshore",5
5842041f4e65fad6a77088a5,2024_02_17,33.08685865930869,-117.31532,Ponto,2.2,1.1199999999999999,1.382,15,15,"MOSTLY_CLOUDY,CLEAR,CLEAR,NIGHT_CLOUDY,NIGHT_MIST","Onshore,Onshore,Onshore,Onshore,Onshore",5
5842041f4e65fad6a77088a6,2024_02_17,33.130343587871906,-117.33667796442558,Terra Mar Point,3,0.7362666666666667,1.244,15,15,"MOSTLY_CLOUDY,OVERCAST,OVERCAST,NIGHT_OVERCAST,NIGHT_MIST","Onshore,Onshore,Onshore,Cross-shore,Onshore",5
5842041f4e65fad6a77088af,2024_02_17,32.95916304183685,-117.26963,Del Mar,3,1.088,1.342,15,15,"CLOUDY,CLOUDY,CLOUDY,NIGHT_CLOUDY,NIGHT_MIST","Onshore,Onshore,Onshore,Onshore,Cross-shore",5
5842041f4e65fad6a77088b0,2024_02_17,32.97527261243354,-117.2721061331305,Del Mar Rivermouth,3,1.222,1.462,15,15,"CLOUDY,CLOUDY,CLOUDY,NIGHT_CLOUDY,NIGHT_MIST","Onshore,Onshore,Onshore,Onshore,Cross-shore",5
5842041f4e65fad6a77088b1,2024_02_17,33.01352178146273,-117.28219,Cardiff Reef,3,0.8649333333333333,1.2757333333333332,15,15,"CLOUDY,CLOUDY,CLOUDY,NIGHT_CLOUDY,NIGHT_MIST","Onshore,Onshore,Onshore,Cross-shore,Cross-shore",5
5842041f4e65fad6a77088b3,2024_02_17,33.00211185876003,-117.2811,Seaside Reef,3,0.8916,1.2930666666666666,15,15,"CLOUDY,CLOUDY,CLOUDY,NIGHT_CLOUDY,NIGHT_CLOUDY","Onshore,Onshore,Onshore,Cross-shore,Cross-shore",5
5842041f4e65fad6a77088b4,2024_02_17,33.0341859796287,-117.29552,Swami's,2.868,0.8749333333333332,1.2730666666666666,15,15,"CLOUDY,CLOUDY,CLOUDY,NIGHT_CLOUDY,NIGHT_MIST","Onshore,Onshore,Onshore,Onshore,Onshore",5
5842041f4e65fad6a77088b7,2024_02_17,33.04569760260221,-117.2994,D Street,2.4,1.02,1.302,15,15,"MOSTLY_CLOUDY,CLOUDY,CLEAR,NIGHT_CLOUDY,NIGHT_MIST","Onshore,Onshore,Onshore,Onshore,Onshore",5
5842041f4e65fad6a77088b8,2024_02_17,33.02090944350196,-117.28535,San Elijo State Beach,3,0.7869333333333334,1.1957333333333333,15,15,"CLOUDY,CLOUDY,CLOUDY,NIGHT_CLOUDY,NIGHT_OVERCAST","Onshore,Onshore,Onshore,Cross-shore,Cross-shore",5
5842041f4e65fad6a77088c2,2024_02_17,32.80662846492798,-117.2688764333725,PB Point,3,1.038,1.324,15,15,"MOSTLY_CLOUDY,MOSTLY_CLOUDY,MIST,NIGHT_MIST,NIGHT_MIST","Cross-shore,Offshore,Cross-shore,Cross-shore,Offshore",5
5842041f4e65fad6a77088c4,2024_02_17,32.8060476681448,-117.26479,Old Man's at Tourmaline,2.6,0.718,1.02,15,15,"MOSTLY_CLOUDY,MOSTLY_CLOUDY,MIST,NIGHT_MIST,NIGHT_OVERCAST","Cross-shore,Cross-shore,Cross-shore,Cross-shore,Offshore",5
5842041f4e65fad6a77088cb,2024_02_17,32.557056711256,-117.1327445020322,Tijuana Slough,2,0.7,1.006,15,15,"MOSTLY_CLOUDY,MOSTLY_CLOUDY,OVERCAST,NIGHT_OVERCAST,NIGHT_MIST","Onshore,Onshore,Onshore,Onshore,Cross-shore",5
5842041f4e65fad6a77088cc,2024_02_17,32.863,-117.257,La Jolla Shores,2.4,0.968,1.152,15,15,"MIST,MIST,OVERCAST,NIGHT_OVERCAST,NIGHT_MIST","Onshore,Onshore,Onshore,Onshore,Onshore",5
5842041f4e65fad6a77088ce,2024_02_17,32.67443657790586,-117.17421316238693,Coronado Beach,2.8,0.626,0.928,15,15,"MOSTLY_CLOUDY,CLOUDY,CLOUDY,NIGHT_CLOUDY,NIGHT_MIST","Cross-shore,Cross-shore,Cross-shore,Offshore,Offshore",5
5842041f4e65fad6a77088cf,2024_02_17,33.40484417640326,-117.60749,San Clemente State Beach,2.2,0.746,1.028,15,15,"MOSTLY_CLOUDY,CLEAR,MOSTLY_CLEAR,NIGHT_MOSTLY_CLOUDY,NIGHT_MOSTLY_CLOUDY","Onshore,Cross-shore,Cross-shore,Cross-shore,Cross-shore",5
5842041f4e65fad6a77088d5,2024_02_17,33.4663042002114,-117.7168352817103,Strands,3,0.6757333333333334,1.0932000000000002,14,14,"CLEAR,CLEAR,CLEAR,NIGHT_CLEAR,NIGHT_MOSTLY_CLOUDY","Onshore,Onshore,Cross-shore,Cross-shore,Cross-shore",5
5842041f4e65fad6a77088d7,2024_02_17,33.4609858001748,-117.68535,Doheny State Beach,2,0.046666666666666655,0.3452,14,14,"CLEAR,CLEAR,CLEAR,NIGHT_MIST,NIGHT_MIST","Onshore,Onshore,Onshore,Cross-shore,Cross-shore",5
5842041f4e65fad6a77088dc,2024_02_17,33.50894790083017,-117.75243,Aliso Creek,2,0.458,0.762,15,15,"CLEAR,CLEAR,CLEAR,NIGHT_MOSTLY_CLOUDY,NIGHT_CLOUDY","Cross-shore,Cross-shore,Cross-shore,Cross-shore,Cross-shore",5
5842041f4e65fad6a77088dd,2024_02_17,33.5326591767067,-117.77764,Brooks Street,2,0.27,0.576,15,15,"CLEAR,CLEAR,MIST,NIGHT_MIST,NIGHT_OVERCAST","Cross-shore,Cross-shore,Cross-shore,Cross-shore,Cross-shore",5
5842041f4e65fad6a77088de,2024_02_17,33.53561225884637,-117.7799,Thalia Street,2,0.328,0.634,15,15,"CLEAR,CLEAR,MIST,NIGHT_MIST,NIGHT_OVERCAST","Cross-shore,Cross-shore,Cross-shore,Cross-shore,Cross-shore",5
5842041f4e65fad6a77088e3,2024_02_17,33.54268310353641,-117.7916,Rockpile,2,0.364,0.67,15,15,"CLEAR,CLEAR,MIST,NIGHT_MIST,NIGHT_OVERCAST","Cross-shore,Cross-shore,Cross-shore,Cross-shore,Cross-shore",5
5842041f4e65fad6a77088e4,2024_02_17,33.7368459504689,-118.10342,"Seal Beach Pier, Southside",1.2,0.128,0.434,15,15,"CLEAR,CLEAR,CLEAR,NIGHT_MOSTLY_CLOUDY,NIGHT_MOSTLY_CLOUDY","Onshore,Onshore,Onshore,Onshore,Onshore",5
5842041f4e65fad6a77088e5,2024_02_17,33.73933701820233,-118.117,Ray Bay,1.2,0.108,0.414,15,15,"CLEAR,CLEAR,CLEAR,NIGHT_CLEAR,NIGHT_MOSTLY_CLOUDY","Onshore,Onshore,Onshore,Onshore,Onshore",5
5842041f4e65fad6a77088e7,2024_02_17,33.728733,-118.08982,Surfside,1,0.268,0.57,15,15,"MOSTLY_CLEAR,MOSTLY_CLEAR,CLEAR,NIGHT_CLEAR,NIGHT_MOSTLY_CLOUDY","Onshore,Onshore,Onshore,Onshore,Onshore",5
5842041f4e65fad6a77088e8,2024_02_17,33.68760321488161,-118.04236,Bolsa Chica State Beach,2.4,0.4584,0.9491999999999999,14,14,"MOSTLY_CLOUDY,MOSTLY_CLOUDY,MOSTLY_CLEAR,NIGHT_MOSTLY_CLOUDY,NIGHT_MOSTLY_CLOUDY","Onshore,Onshore,Onshore,Onshore,Cross-shore",5
5842041f4e65fad6a77088ea,2024_02_17,33.66704400178788,-118.0192,North HB Streets,3,0.6882666666666667,1.1444,14,14,"CLEAR,CLEAR,CLEAR,NIGHT_MOSTLY_CLOUDY,NIGHT_MIST","Onshore,Onshore,Onshore,Onshore,Cross-shore",5
5842041f4e65fad6a77088ed,2024_02_17,33.65475101379567,-118.00291,Huntington Beach Pier Southside,2.2,0.7282666666666666,1.1910666666666665,14,14,"MOSTLY_CLOUDY,MOSTLY_CLOUDY,MOSTLY_CLEAR,NIGHT_MOSTLY_CLOUDY,NIGHT_MOSTLY_CLOUDY","Onshore,Onshore,Onshore,Onshore,Onshore",5
5842041f4e65fad6a77088ee,2024_02_17,33.62778647706099,-117.95939,River Jetties,2.368,0.5670666666666667,0.9778666666666666,15,15,"MOSTLY_CLOUDY,MOSTLY_CLOUDY,MOSTLY_CLOUDY,NIGHT_MOSTLY_CLOUDY,NIGHT_MOSTLY_CLOUDY","Onshore,Onshore,Onshore,Onshore,Onshore",5
5842041f4e65fad6a77088f2,2024_02_17,33.605165797643664,-117.92500376701355,Newport Point,2,0.392,0.698,15,15,"CLEAR,CLEAR,MIST,NIGHT_MIST,NIGHT_MOSTLY_CLOUDY","Cross-shore,Cross-shore,Cross-shore,Cross-shore,Cross-shore",5
5842041f4e65fad6a77088f3,2024_02_17,33.58982984726977,-117.87713,Corona del Mar,1.8,0.20125,0.31445,15,15,"CLEAR,CLEAR,MIST,NIGHT_MIST,NIGHT_MIST","Onshore,Onshore,Onshore,Onshore,Onshore",5
5842041f4e65fad6a77088f7,2024_02_17,34.00750300824362,-118.4971783496269,Santa Monica Pier,1.4,0.276,0.582,15,15,"CLEAR,CLEAR,CLEAR,NIGHT_CLEAR,NIGHT_MOSTLY_CLOUDY","Onshore,Onshore,Onshore,Onshore,Onshore",5
5842041f4e65fad6a77088ff,2024_02_17,33.94070283102945,-118.44321,Dockweiler Beach,2.466,0.8397295,1.346914,14,14,"MIST,MIST,MIST,NIGHT_MOSTLY_CLOUDY,NIGHT_MIST","Onshore,Onshore,Onshore,Onshore,Onshore",5
5842041f4e65fad6a7708900,2024_02_17,33.9231846937237,-118.4341465777908,Shitpipe,1.8,0.7028,1.2369999999999999,14,14,"MIST,MOSTLY_CLOUDY,MIST,NIGHT_MOSTLY_CLOUDY,NIGHT_CLEAR","Onshore,Onshore,Onshore,Onshore,Onshore",5
5842041f4e65fad6a7708902,2024_02_17,33.9108528052242,-118.4279133138721,Hammerland,1.966,1.0019,1.3135,14,14,"MIST,MOSTLY_CLOUDY,MIST,NIGHT_MOSTLY_CLOUDY,NIGHT_MIST","Onshore,Onshore,Onshore,Onshore,Onshore",5
5842041f4e65fad6a7708904,2024_02_17,33.87201368173932,-118.4075151286262,Hermosa Beach,1.966,0.5402,0.9601,14,14,"MIST,MIST,MIST,NIGHT_MIST,NIGHT_MIST","Onshore,Onshore,Onshore,Onshore,Onshore",5
5842041f4e65fad6a7708906,2024_02_17,33.90129336911256,-118.42184,El Porto,1.966,1.0419,1.3605,14,14,"MIST,MIST,MIST,NIGHT_MOSTLY_CLOUDY,NIGHT_MIST","Onshore,Onshore,Onshore,Onshore,Onshore",5
5842041f4e65fad6a7708907,2024_02_17,33.87963506431794,-118.41102,Manhattan Beach Pier,1.966,0.8473,1.2637,14,14,"MIST,MIST,MIST,NIGHT_MOSTLY_CLOUDY,NIGHT_MIST","Onshore,Onshore,Onshore,Onshore,Onshore",5
5842041f4e65fad6a7708914,2024_02_17,34.038053387863464,-118.5532,Sunset Point,1.2,0.19,0.492,15,15,"CLEAR,CLEAR,CLEAR,NIGHT_CLEAR,NIGHT_CLEAR","Onshore,Onshore,Onshore,Onshore,Onshore",5
5842041f4e65fad6a7708920,2024_02_17,33.80930828074364,-118.3933198342649,Haggerty's,2,0.228,0.4104,15,15,"MIST,MIST,MIST,NIGHT_MIST,NIGHT_MOSTLY_CLOUDY","Onshore,Onshore,Onshore,Onshore,Onshore",5
5842041f4e65fad6a7708921,2024_02_17,33.85044519861206,-118.40048,Redondo Breakwater,2.8,0.892,1.1,15,15,"MIST,MIST,MIST,NIGHT_MIST,NIGHT_MIST","Onshore,Onshore,Onshore,Onshore,Onshore",5
5842041f4e65fad6a7708927,2024_02_17,33.70877301002487,-118.2840112858389,Cabrillo Beach,2,0.058,0.362,15,15,"MOSTLY_CLOUDY,CLEAR,CLEAR,NIGHT_MIST,NIGHT_CLEAR","Offshore,Offshore,Offshore,Offshore,Offshore",5
5842041f4e65fad6a770892c,2024_02_17,33.77209986806257,-118.4268428476672,Lunada Bay,1.8,0.782,1.038,15,15,"MOSTLY_CLOUDY,MIST,MOSTLY_CLOUDY,NIGHT_MIST,NIGHT_CLEAR","Onshore,Cross-shore,Onshore,Onshore,Onshore",5
5842041f4e65fad6a770892d,2024_02_17,33.79294656286144,-118.4070316699825,PV Cove,2,0.694458,0.952254,15,15,"MIST,MIST,MIST,NIGHT_MIST,NIGHT_MOSTLY_CLOUDY","Onshore,Onshore,Onshore,Onshore,Onshore",5
5842041f4e65fad6a7708930,2024_02_17,34.03944902292561,-118.57539,Chart House,1,0.004,0.306,15,15,"MOSTLY_CLEAR,CLEAR,CLEAR,NIGHT_CLEAR,NIGHT_CLEAR","Onshore,Cross-shore,Cross-shore,Cross-shore,Onshore",5
5842041f4e65fad6a7708936,2024_02_17,34.0016731994772,-118.80456,Point Dume,1.8,0.032,0.3396,15,15,"MOSTLY_CLEAR,CLEAR,CLEAR,NIGHT_CLEAR,NIGHT_CLEAR","Cross-shore,Cross-shore,Cross-shore,Offshore,Offshore",5
5842041f4e65fad6a7708937,2024_02_17,34.02587527588963,-118.7554939066114,Latigo Point,2,0.232,0.536,15,15,"CLEAR,CLEAR,CLEAR,NIGHT_CLEAR,NIGHT_CLEAR","Cross-shore,Cross-shore,Cross-shore,Offshore,Offshore",5
5842041f4e65fad6a770893f,2024_02_17,34.043762,-118.93294,Leo Carrillo,2,0.5317000000000001,0.8318,15,15,"MOSTLY_CLEAR,CLEAR,CLEAR,NIGHT_CLEAR,NIGHT_CLEAR","Cross-shore,Cross-shore,Cross-shore,Cross-shore,Offshore",5
5842041f4e65fad6a7708941,2024_02_17,36.69388179265737,-121.81289,Marina State Beach,3,1.006,1.268,13,13,"CLEAR,CLEAR,CLEAR,NIGHT_MIST,NIGHT_MIST","Onshore,Onshore,Onshore,Offshore,Onshore",5
5842041f4e65fad6a7708944,2024_02_17,34.34145077331085,-119.416999352654,Stanley's,2,0.234,0.542,15,15,"BRIEF_SHOWERS,BRIEF_SHOWERS,MIST,NIGHT_MIST,NIGHT_MIST","Onshore,Onshore,Onshore,Onshore,Onshore",5
5842041f4e65fad6a7708945,2024_02_17,34.35113017313915,-119.426921498899,Oil Piers,2,0.246,0.55,15,15,"BRIEF_SHOWERS,BRIEF_SHOWERS,MIST,NIGHT_MIST,NIGHT_MIST","Cross-shore,Cross-shore,Cross-shore,Cross-shore,Cross-shore",5
5842041f4e65fad6a770894c,2024_02_17,34.17876333306018,-119.2399483564372,Oxnard,2,0.898,1.106,15,15,"CLEAR,CLEAR,MIST,NIGHT_MOSTLY_CLOUDY,NIGHT_OVERCAST","Onshore,Onshore,Onshore,Onshore,Onshore",5
5842041f4e65fad6a7708957,2024_02_17,34.31720331100517,-119.3882324751725,Pitas Point,2,0.266,0.572,15,15,"MIST,DRIZZLE,MOSTLY_CLEAR,NIGHT_MOSTLY_CLOUDY,NIGHT_MIST","Onshore,Onshore,Cross-shore,Cross-shore,Offshore",5
5842041f4e65fad6a7708959,2024_02_17,34.27851754384724,-119.316202617226,Emma Wood,2,0.256,0.562,15,15,"CLEAR,MIST,MIST,NIGHT_MOSTLY_CLOUDY,NIGHT_MIST","Onshore,Offshore,Onshore,Onshore,Onshore",5
5842041f4e65fad6a770895a,2024_02_17,34.35513640390276,-119.4400589884255,Mussel Shoals (aka Little Rincon),2,0.274,0.582,15,15,"BRIEF_SHOWERS,MOSTLY_CLOUDY,MOSTLY_CLEAR,NIGHT_MIST,NIGHT_MIST","Cross-shore,Cross-shore,Cross-shore,Cross-shore,Cross-shore",5
5842041f4e65fad6a770895e,2024_02_17,34.28991757054902,-119.3366646794652,Summer Beach,2,0.214,0.52,15,15,"CLEAR,MIST,MIST,NIGHT_MOSTLY_CLOUDY,NIGHT_MIST","Cross-shore,Offshore,Onshore,Onshore,Onshore",5
5842041f4e65fad6a770895f,2024_02_17,34.30897456105926,-119.3582501170116,Solimar,2,0.192,0.5,15,15,"MIST,DRIZZLE,MOSTLY_CLEAR,NIGHT_MOSTLY_CLOUDY,NIGHT_MIST","Onshore,Onshore,Cross-shore,Cross-shore,Offshore",5
5842041f4e65fad6a7708960,2024_02_17,34.39836265281686,-119.70213,Leadbetter Point,1,0,0.256,14,14,"MOSTLY_CLEAR,MOSTLY_CLEAR,MOSTLY_CLEAR,NIGHT_MOSTLY_CLOUDY,NIGHT_MOSTLY_CLOUDY","Cross-shore,Cross-shore,Cross-shore,Cross-shore,Offshore",5
5842041f4e65fad6a7708961,2024_02_17,34.46052293893899,-120.07328,Refugio,2,0.022,0.328,14,14,"MOSTLY_CLOUDY,MOSTLY_CLEAR,CLEAR,NIGHT_CLEAR,NIGHT_CLEAR","Offshore,Offshore,Offshore,Offshore,Offshore",5
5842041f4e65fad6a7708962,2024_02_17,34.40754276777778,-119.87639,Devereux,1.4,0.258,0.562,14,14,"MIST,MOSTLY_CLEAR,MOSTLY_CLOUDY,NIGHT_CLEAR,NIGHT_CLEAR","Cross-shore,Cross-shore,Cross-shore,Cross-shore,Cross-shore",5
5842041f4e65fad6a7708963,2024_02_17,34.27479983305182,-119.3133222656776,Ventura Overhead,2,0.28600000000000003,0.588,15,15,"CLEAR,CLOUDY,MOSTLY_CLOUDY,NIGHT_MOSTLY_CLOUDY,NIGHT_MIST","Cross-shore,Offshore,Onshore,Onshore,Onshore",5
5842041f4e65fad6a7708964,2024_02_17,34.41023236011655,-119.88261,Sands,2,0.28800000000000003,0.592,14,14,"MIST,MOSTLY_CLEAR,MOSTLY_CLOUDY,NIGHT_CLEAR,NIGHT_CLEAR","Onshore,Onshore,Onshore,Onshore,Onshore",5
5842041f4e65fad6a7708966,2024_02_17,34.40450193869233,-119.68752,Sandspit,1,0,0.18,14,14,"MOSTLY_CLEAR,MOSTLY_CLOUDY,MOSTLY_CLEAR,NIGHT_MIST,NIGHT_MIST","Cross-shore,Cross-shore,Cross-shore,Cross-shore,Offshore",5
5842041f4e65fad6a7708967,2024_02_17,34.41549098334453,-119.6375149840203,Hammond's,1.4,0,0.262,14,14,"MOSTLY_CLEAR,MOSTLY_CLOUDY,MOSTLY_CLEAR,NIGHT_MOSTLY_CLOUDY,NIGHT_MOSTLY_CLOUDY","Onshore,Cross-shore,Cross-shore,Cross-shore,Cross-shore",5
5842041f4e65fad6a7708968,2024_02_17,34.45759322742309,-120.0220251867315,El Capitan,2,0.078,0.38,14,14,"MOSTLY_CLOUDY,MOSTLY_CLEAR,MOSTLY_CLOUDY,NIGHT_CLEAR,NIGHT_CLEAR","Cross-shore,Cross-shore,Cross-shore,Offshore,Offshore",5
5842041f4e65fad6a770896c,2024_02_17,34.405117655616,-119.84317,Campus Point,2,0.04,0.342,14,14,"CLEAR,MOSTLY_CLEAR,MOSTLY_CLOUDY,NIGHT_MOSTLY_CLEAR,NIGHT_MOSTLY_CLOUDY","Cross-shore,Cross-shore,Cross-shore,Cross-shore,Cross-shore",5
5842041f4e65fad6a770896e,2024_02_17,34.38935162233354,-119.51955,Carpinteria State Beach,2,0.062,0.364,15,15,"MIST,MOSTLY_CLOUDY,MOSTLY_CLEAR,NIGHT_MOSTLY_CLOUDY,NIGHT_MOSTLY_CLEAR","Onshore,Onshore,Onshore,Onshore,Offshore",5
5842041f4e65fad6a770896f,2024_02_17,37.48296565175612,-122.4549300127824,Half Moon Bay,2.8,0.722,1.03,13,13,"MIST,MIST,MIST,NIGHT_MIST,NIGHT_CLEAR","Onshore,Onshore,Onshore,Offshore,Onshore",5
5842041f4e65fad6a7708970,2024_02_17,37.499,-122.471,Princeton Jetty,2.8,0.54,0.846,13,13,"CLEAR,CLEAR,CLEAR,NIGHT_CLEAR,NIGHT_MIST","Onshore,Onshore,Onshore,Offshore,Onshore",5
5842041f4e65fad6a7708972,2024_02_17,37.35699547365155,-122.4069534707252,Tunitas Creek,3,1.21,1.434,13,13,"CLEAR,CLEAR,CLEAR,NIGHT_CLEAR,NIGHT_CLEAR","Onshore,Onshore,Cross-shore,Cross-shore,Cross-shore",5
5842041f4e65fad6a7708974,2024_02_17,37.54735589428842,-122.5161090212687,Montara,3,0.972,1.19,13,13,"CLEAR,CLEAR,CLEAR,NIGHT_CLEAR,NIGHT_CLEAR","Cross-shore,Offshore,Offshore,Offshore,Offshore",5
5842041f4e65fad6a7708975,2024_02_17,34.3869373724559,-119.5142334209018,Tarpits,2,0.07,0.372,15,15,"CLEAR,CLEAR,MOSTLY_CLEAR,NIGHT_MOSTLY_CLOUDY,NIGHT_MIST","Onshore,Cross-shore,Cross-shore,Cross-shore,Offshore",5
5842041f4e65fad6a7708976,2024_02_17,37.59881852720143,-122.50463,Pacifica / Linda Mar,2.368,0.22586666666666666,0.5360666666666667,14,14,"CLEAR,CLEAR,CLEAR,NIGHT_CLEAR,NIGHT_CLEAR","Onshore,Cross-shore,Offshore,Offshore,Cross-shore",5
5842041f4e65fad6a7708978,2024_02_17,37.59883098461164,-122.5143843582282,Pedro Point,3,0.934,1.088,13,13,"CLEAR,CLEAR,CLEAR,NIGHT_CLEAR,NIGHT_CLEAR","Cross-shore,Offshore,Offshore,Offshore,Offshore",5
5842041f4e65fad6a7708979,2024_02_17,37.61081996647663,-122.4973287570634,Rockaway,3,0.898,1.114,13,13,"CLEAR,CLEAR,CLEAR,NIGHT_CLEAR,NIGHT_CLEAR","Onshore,Cross-shore,Offshore,Offshore,Cross-shore",5
5842041f4e65fad6a770897a,2024_02_17,37.809987384424446,-122.4751353263855,Fort Point,2.6,0.486,0.79,13,13,"CLEAR,CLEAR,CLOUDY,NIGHT_CLEAR,NIGHT_CLEAR","Offshore,Cross-shore,Cross-shore,Offshore,Onshore",5
5842041f4e65fad6a770897c,2024_02_17,37.63422542967464,-122.4951,Sharp Park,3,0.914,1.22,13,13,"CLEAR,CLEAR,CLEAR,NIGHT_CLEAR,NIGHT_CLEAR","Onshore,Onshore,Cross-shore,Offshore,Onshore",5
5842041f4e65fad6a770897d,2024_02_17,37.27313605072472,-122.4127387912554,Pescadero,3,1,1.274,13,13,"CLEAR,CLEAR,CLEAR,NIGHT_CLEAR,NIGHT_CLEAR","Cross-shore,Cross-shore,Cross-shore,Cross-shore,Offshore",5
5842041f4e65fad6a770897e,2024_02_17,37.18140279972666,-122.3926685899327,Pigeon Point,3,1.076,1.346,13,13,"CLEAR,CLEAR,CLEAR,NIGHT_CLEAR,NIGHT_CLEAR","Onshore,Onshore,Onshore,Onshore,Onshore",5
5842041f4e65fad6a770897f,2024_02_17,37.11578956919415,-122.314699271291,Ano Nuevo,2.2,0.902,1.114,13,13,"CLEAR,CLEAR,CLEAR,NIGHT_CLEAR,NIGHT_CLEAR","Onshore,Onshore,Onshore,Onshore,Onshore",5
5842041f4e65fad6a7708980,2024_02_17,37.09520872681598,-122.2805474707768,Waddell Creek,3,0.966,1.188,13,13,"CLEAR,CLEAR,CLEAR,NIGHT_CLEAR,NIGHT_CLEAR","Onshore,Onshore,Cross-shore,Cross-shore,Cross-shore",5
5842041f4e65fad6a7708981,2024_02_17,36.96512852130351,-122.1252825495626,Four Mile,3,0.82,1.068,13,13,"CLEAR,CLEAR,CLEAR,NIGHT_CLEAR,NIGHT_CLEAR","Onshore,Onshore,Onshore,Cross-shore,Offshore",5
5842041f4e65fad6a7708982,2024_02_17,37.04122807048655,-122.2333684729756,Scott Creek,3,1.002,1.22,13,13,"CLEAR,CLEAR,CLEAR,NIGHT_CLEAR,NIGHT_CLEAR","Onshore,Onshore,Cross-shore,Cross-shore,Offshore",5
5842041f4e65fad6a7708983,2024_02_17,37.02350229387179,-122.21908,Davenport,3,1.038,1.302,13,13,"CLEAR,CLEAR,CLEAR,NIGHT_CLEAR,NIGHT_CLEAR","Onshore,Onshore,Cross-shore,Cross-shore,Offshore",5
5842041f4e65fad6a7708986,2024_02_17,36.94905295955728,-122.0611823912244,Natural Bridges,3,0.962,1.15,13,13,"CLEAR,CLEAR,CLEAR,NIGHT_CLEAR,NIGHT_CLEAR","Onshore,Onshore,Onshore,Cross-shore,Cross-shore",5
5842041f4e65fad6a7708987,2024_02_17,36.95154854910425,-122.0420693940968,Mitchell's Cove,3,0.5640000000000001,0.868,13,13,"CLEAR,CLEAR,CLEAR,NIGHT_MIST,NIGHT_CLEAR","Onshore,Cross-shore,Onshore,Onshore,Onshore",5
5842041f4e65fad6a770898a,2024_02_17,36.9572312370203,-121.98177,26th Ave,3,0.958,1.146,13,13,"CLEAR,CLEAR,CLEAR,NIGHT_MIST,NIGHT_MOSTLY_CLOUDY","Onshore,Onshore,Cross-shore,Offshore,Cross-shore",5
5842041f4e65fad6a770898e,2024_02_17,36.91899972819882,-121.85536,Manresa,3,1.008,1.248,13,13,"CLEAR,CLEAR,CLEAR,NIGHT_CLEAR,NIGHT_CLEAR","Onshore,Onshore,Onshore,Offshore,Onshore",5
5842041f4e65fad6a7708990,2024_02_17,34.45747731928454,-120.34242,The Ranch,3,0.394,0.7,14,14,"OVERCAST,CLEAR,CLEAR,NIGHT_CLEAR,NIGHT_CLEAR","Cross-shore,Cross-shore,Offshore,Offshore,Offshore",5
5842041f4e65fad6a7708991,2024_02_17,34.50875036590315,-120.50348,Jalama,3,0.974,1.164,14,14,"CLEAR,CLEAR,CLEAR,NIGHT_CLEAR,NIGHT_CLEAR","Onshore,Onshore,Cross-shore,Cross-shore,Cross-shore",5
5842041f4e65fad6a7708996,2024_02_17,34.68700870220497,-120.6111611019887,Surf Beach,3,1.542,1.808,14,14,"MIST,MIST,MIST,NIGHT_MIST,NIGHT_MIST","Onshore,Onshore,Onshore,Onshore,Onshore",5
5842041f4e65fad6a770899c,2024_02_17,35.5730538161116,-121.1143362345574,Moonstone,3,1.048,1.298,14,14,"CLEAR,CLEAR,CLEAR,NIGHT_CLEAR,NIGHT_MIST","Onshore,Onshore,Onshore,Onshore,Onshore",5
5842041f4e65fad6a770899d,2024_02_17,35.61533716776573,-121.1502053073914,Pico Creek,3,0.956,1.142,14,14,"CLEAR,CLEAR,CLEAR,NIGHT_CLEAR,NIGHT_MIST","Onshore,Onshore,Onshore,Onshore,Onshore",5
5842041f4e65fad6a770899e,2024_02_17,35.56829031927379,-121.1120653023953,Santa Rosa Creek,3,1.048,1.298,14,14,"CLEAR,CLEAR,CLEAR,NIGHT_CLEAR,NIGHT_MIST","Onshore,Cross-shore,Cross-shore,Cross-shore,Onshore",5
5842041f4e65fad6a77089a2,2024_02_17,35.44820114936284,-120.90715,"Cayucos Pier, Southside ",2,0.36,0.67,14,14,"CLEAR,CLEAR,CLEAR,NIGHT_CLEAR,NIGHT_MIST","Cross-shore,Cross-shore,Cross-shore,Onshore,Onshore",5
5842041f4e65fad6a77089a4,2024_02_17,35.30143372628852,-120.877819239902,Cable Landing,3,1.474,1.702,14,14,"BRIEF_SHOWERS_POSSIBLE,BRIEF_SHOWERS_POSSIBLE,MIST,NIGHT_CLEAR,NIGHT_MIST","Onshore,Onshore,Onshore,Onshore,Onshore",5
5842041f4e65fad6a77089a9,2024_02_17,35.61269103500222,-121.1480725356606,San Simeon,2.6,0.6888,0.8246,14,14,"CLEAR,CLEAR,CLEAR,NIGHT_CLEAR,NIGHT_MIST","Onshore,Cross-shore,Cross-shore,Cross-shore,Cross-shore",5
5842041f4e65fad6a77089ab,2024_02_17,35.1775325966252,-120.7341125142258,Avila Beach,2,0.032,0.336,14,14,"CLEAR,CLEAR,CLEAR,NIGHT_CLEAR,NIGHT_CLEAR","Onshore,Onshore,Offshore,Offshore,Offshore",5
5842041f4e65fad6a77089ac,2024_02_17,35.13877877884115,-120.64535,Pismo Beach Pier,3,0.9169,1.3133333333333332,14,14,"CLEAR,CLEAR,CLEAR,NIGHT_CLEAR,NIGHT_CLEAR","Cross-shore,Cross-shore,Cross-shore,Onshore,Cross-shore",5
5842041f4e65fad6a77089ad,2024_02_17,46.8907710233147,-124.12964,Westport/Olympic Peninsula,1.4,0.6859999999999999,0.968,10,10,"CLEAR,CLEAR,CLOUDY,NIGHT_CLEAR,NIGHT_CLEAR","Offshore,Offshore,Offshore,Offshore,Offshore",5
5842041f4e65fad6a77089ae,2024_02_17,46.35185177248545,-124.06747,Long Beach Peninsula,2,0.96,1.224,10,10,"CLEAR,CLEAR,CLEAR,NIGHT_CLEAR,NIGHT_CLEAR","Offshore,Offshore,Offshore,Offshore,Offshore",5
5842041f4e65fad6a77089af,2024_02_17,47.90649175554033,-124.6370864743483,La Push,3,0.734,1.014,9,9,"CLEAR,CLEAR,CLEAR,NIGHT_CLEAR,NIGHT_CLEAR","Offshore,Offshore,Offshore,Offshore,Offshore",5
5842041f4e65fad6a77089b0,2024_02_17,42.04368239985442,-124.26828,Brookings Jetty,3,1.32721,2.073766,11,11,"CLOUDY,CLOUDY,CLOUDY,NIGHT_CLEAR,NIGHT_CLEAR","Onshore,Cross-shore,Cross-shore,Cross-shore,Cross-shore",5
5842041f4e65fad6a77089b1,2024_02_17,42.74071837900346,-124.4983727491047,Port Orford,2,2.148,2.468,12,12,"CLEAR,CLEAR,CLOUDY,NIGHT_CLEAR,NIGHT_CLEAR","Onshore,Onshore,Onshore,Onshore,Onshore",5
5842041f4e65fad6a77089b2,2024_02_17,44.01532689312291,-124.13865,Florence South Jetty,4,1.644,1.982,11,11,"CLEAR,CLEAR,CLEAR,NIGHT_CLEAR,NIGHT_CLEAR","Offshore,Offshore,Offshore,Offshore,Offshore",5
5842041f4e65fad6a77089b3,2024_02_17,42.41812540774362,-124.42945,Gold Beach South Jetty,2,2.43,2.784,12,12,"CLEAR,CLEAR,CLEAR,NIGHT_CLEAR,NIGHT_CLEAR","Onshore,Onshore,Onshore,Onshore,Onshore",5
5842041f4e65fad6a77089b4,2024_02_17,44.95857310226525,-124.0219017690976,Lincoln City,3.4,1.086,1.37,11,11,"CLEAR,CLEAR,CLEAR,NIGHT_CLEAR,NIGHT_CLEAR","Offshore,Offshore,Offshore,Offshore,Offshore",5
5842041f4e65fad6a77089b5,2024_02_17,44.63792761362982,-124.0657,Newport,3,1.522,1.848,11,11,"CLEAR,CLEAR,CLEAR,NIGHT_CLEAR,NIGHT_CLOUDY","Offshore,Offshore,Offshore,Offshore,Offshore",5
5842041f4e65fad6a77089b6,2024_02_17,45.61468496266301,-123.94643,Rockaway Beach,2.2,1.084,1.3719999999999999,11,11,"CLEAR,CLEAR,CLEAR,NIGHT_CLEAR,NIGHT_CLEAR","Offshore,Offshore,Offshore,Offshore,Offshore",5
5842041f4e65fad6a77089b7,2024_02_17,45.20252914186085,-123.96975,Pacific City,3,1.158,1.414,11,11,"CLEAR,CLEAR,CLOUDY,NIGHT_CLEAR,NIGHT_CLEAR","Offshore,Offshore,Offshore,Offshore,Offshore",5
5842041f4e65fad6a77089b8,2024_02_17,45.88179930310263,-123.96681,Cannon Beach,1.6,1.024,1.266,10,10,"CLEAR,CLEAR,CLOUDY,NIGHT_CLEAR,NIGHT_CLEAR","Offshore,Offshore,Offshore,Offshore,Offshore",5
5842041f4e65fad6a77089ba,2024_02_17,40.02528754746774,-124.06372,Shelter Cove,2,0.696692,1.088584,12,12,"CLEAR,CLEAR,CLEAR,NIGHT_CLEAR,NIGHT_CLOUDY","Onshore,Onshore,Onshore,Onshore,Onshore",5
5842041f4e65fad6a77089bb,2024_02_17,40.76816197136951,-124.24248,Humboldt Harbor Entrance,2.4,1.638,1.942,12,12,"CLEAR,CLEAR,OVERCAST,NIGHT_CLOUDY,NIGHT_OVERCAST","Onshore,Cross-shore,Cross-shore,Cross-shore,Cross-shore",5
5842041f4e65fad6a77089bc,2024_02_17,40.76684246920174,-124.23107,North Jetty,3,1.214,1.502,12,12,"CLEAR,CLEAR,CLEAR,NIGHT_CLOUDY,NIGHT_CLEAR","Cross-shore,Cross-shore,Cross-shore,Cross-shore,Cross-shore",5
5842041f4e65fad6a77089bd,2024_02_17,41.02731183893966,-124.1149972888982,Westhaven,3,1.91,2.228,12,12,"CLOUDY,CLEAR,CLEAR,NIGHT_CLEAR,NIGHT_CLEAR","Onshore,Cross-shore,Cross-shore,Offshore,Offshore",5
5842041f4e65fad6a77089be,2024_02_17,41.13016238153297,-124.16466,Sue-meg,3,1.732,2.038,12,12,"CLEAR,CLEAR,CLEAR,NIGHT_CLEAR,NIGHT_CLEAR","Cross-shore,Cross-shore,Cross-shore,Offshore,Cross-shore",5
5842041f4e65fad6a77089bf,2024_02_17,37.8289474958188,-122.5376795097543,Fort Cronkite/Rodeo Beach,3,0.918,1.222,13,13,"CLEAR,CLEAR,CLEAR,NIGHT_CLEAR,NIGHT_CLEAR","Cross-shore,Onshore,Onshore,Offshore,Onshore",5
5842041f4e65fad6a77089c0,2024_02_17,41.74415759876137,-124.17717,South Beach CA,3,2.102,2.412,12,12,"CLEAR,CLEAR,CLEAR,NIGHT_CLEAR,NIGHT_CLEAR","Onshore,Onshore,Onshore,Offshore,Onshore",5
5842041f4e65fad6a77089c1,2024_02_17,37.89801283969752,-122.64519,Stinson Beach,3,0.384,0.69,13,13,"CLEAR,CLEAR,CLEAR,NIGHT_CLEAR,NIGHT_MIST","Onshore,Onshore,Onshore,Onshore,Onshore",5
5842041f4e65fad6a77089c2,2024_02_17,37.90514516176495,-122.68151,Bolinas,3,0.42843000000000003,0.669422,13,13,"CLEAR,CLEAR,CLEAR,NIGHT_CLEAR,NIGHT_CLEAR","Cross-shore,Onshore,Cross-shore,Onshore,Offshore",5
5842041f4e65fad6a77089c3,2024_02_17,38.04892513158693,-122.9892494965416,Point Reyes (north),4,1.212,1.416,13,13,"CLEAR,CLEAR,CLEAR,NIGHT_MOSTLY_CLOUDY,NIGHT_CLEAR","Offshore,Offshore,Offshore,Offshore,Offshore",5
5842041f4e65fad6a77089c6,2024_02_17,38.31088736605785,-123.0496777333731,Doran Beach,1,0.094,0.398,13,13,"CLEAR,CLEAR,CLEAR,NIGHT_CLEAR,NIGHT_CLEAR","Onshore,Onshore,Onshore,Onshore,Onshore",5
5842041f4e65fad6a77089c7,2024_02_17,38.45077228660809,-123.13008,Russian Rivermouth,3,0.9380000000000001,1.216,13,13,"CLEAR,CLEAR,CLEAR,NIGHT_CLEAR,NIGHT_CLEAR","Cross-shore,Cross-shore,Cross-shore,Offshore,Cross-shore",5
5842041f4e65fad6a77089c8,2024_02_17,38.35329968518107,-123.06906,Salmon Creek,3,1.03,1.286,13,13,"CLEAR,CLEAR,CLEAR,NIGHT_CLEAR,NIGHT_CLOUDY","Cross-shore,Offshore,Offshore,Offshore,Offshore",5
5842041f4e65fad6a77089c9,2024_02_17,38.6845180197959,-123.4322714291198,Black Point Beach,3,0.888,1.12,12,12,"CLEAR,CLEAR,CLEAR,NIGHT_CLEAR,NIGHT_CLEAR","Offshore,Offshore,Offshore,Offshore,Offshore",5
5842041f4e65fad6a77089ca,2024_02_17,43.251076,-70.59144,Ogunquit,0.966,0,0.2225,4,3,"NIGHT_CLEAR,NIGHT_CLEAR,NIGHT_CLEAR,NIGHT_CLEAR,NIGHT_CLEAR","Offshore,Offshore,Offshore,Offshore,Offshore",5
5842041f4e65fad6a77089cb,2024_02_17,41.362631366305415,-71.48006772942608,Point Judith,1,0,0.26333333333333336,5,4,"NIGHT_CLEAR,NIGHT_CLEAR,NIGHT_CLEAR,NIGHT_CLEAR,NIGHT_CLEAR","Offshore,Offshore,Offshore,Offshore,Offshore",5
5842041f4e65fad6a77089cd,2024_02_17,41.422678090954726,-71.45413,Monahan's - Narragansett,0,0.02277,0.03558,5,5,"NIGHT_CLEAR,NIGHT_CLEAR,NIGHT_CLEAR,NIGHT_CLEAR,NIGHT_CLEAR","Offshore,Offshore,Offshore,Offshore,Offshore",5
5842041f4e65fad6a77089ce,2024_02_17,41.469,-71.293,Ruggles - Newport,1,0.352066,0.550104,5,5,"NIGHT_CLEAR,NIGHT_CLEAR,NIGHT_CLEAR,NIGHT_CLEAR,NIGHT_CLEAR","Cross-shore,Cross-shore,Offshore,Offshore,Offshore",5
5842041f4e65fad6a77089cf,2024_02_17,43.175394,-70.606351,Short Sands Beach,0,0,0.138,4,4,"NIGHT_CLEAR,NIGHT_CLEAR,NIGHT_CLEAR,NIGHT_CLEAR,NIGHT_CLEAR","Offshore,Offshore,Offshore,Offshore,Offshore",5
5842041f4e65fad6a77089d0,2024_02_17,41.487408,-71.29017,First Beach,1,0,0.218,5,5,"NIGHT_CLEAR,NIGHT_CLEAR,NIGHT_CLEAR,NIGHT_CLEAR,NIGHT_CLEAR","Offshore,Offshore,Offshore,Offshore,Offshore",5
5842041f4e65fad6a77089d1,2024_02_17,42.27916830233153,-70.86498,Nantasket Beach,0.966,0,0.22416666666666668,4,3,"NIGHT_CLEAR,NIGHT_CLEAR,NIGHT_CLEAR,NIGHT_CLEAR,NIGHT_CLEAR","Cross-shore,Cross-shore,Cross-shore,Cross-shore,Cross-shore",5
5842041f4e65fad6a77089d2,2024_02_17,41.817,-69.935,Cape Cod,2,0.55,0.858,4,4,"NIGHT_CLEAR,NIGHT_CLEAR,NIGHT_CLEAR,NIGHT_CLEAR,NIGHT_CLEAR","Offshore,Offshore,Offshore,Offshore,Offshore",5
5842041f4e65fad6a77089d3,2024_02_17,42.22055448975661,-70.70634873403819,Egypt Beach,1,0.054,0.36,4,4,"NIGHT_CLEAR,NIGHT_CLEAR,NIGHT_CLEAR,NIGHT_CLEAR,NIGHT_CLEAR","Offshore,Offshore,Offshore,Offshore,Offshore",5
5842041f4e65fad6a77089d4,2024_02_17,41.48739647744607,-71.25723,Second Beach,0.966,0.09646933333333334,0.27773383333333335,5,4,"NIGHT_CLEAR,NIGHT_CLEAR,NIGHT_CLEAR,NIGHT_CLEAR,NIGHT_CLEAR","Cross-shore,Cross-shore,Cross-shore,Cross-shore,Cross-shore",5
5842041f4e65fad6a77089d5,2024_02_17,42.964,-70.769,Fox Hill,0.966,0,0.193,4,3,"NIGHT_CLEAR,NIGHT_CLEAR,NIGHT_CLEAR,NIGHT_CLEAR,NIGHT_CLEAR","Offshore,Offshore,Offshore,Offshore,Offshore",5
5842041f4e65fad6a77089d6,2024_02_17,42.991359,-70.75149,Straws Point,0.966,-0.004666666666666667,0.18916666666666668,4,3,"NIGHT_CLEAR,NIGHT_CLEAR,NIGHT_CLEAR,NIGHT_CLEAR,NIGHT_CLEAR","Offshore,Offshore,Offshore,Offshore,Offshore",5
5842041f4e65fad6a77089d7,2024_02_17,42.946,-70.786,Plaice Cove,0.966,0,0.193,4,3,"NIGHT_CLEAR,NIGHT_CLEAR,NIGHT_CLEAR,NIGHT_CLEAR,NIGHT_CLEAR","Offshore,Offshore,Offshore,Offshore,Offshore",5
5842041f4e65fad6a77089d9,2024_02_17,42.911574,-70.80831,The Main Beach,0.3,0.019982000000000003,0.15822633333333333,4,3,"NIGHT_CLEAR,NIGHT_CLEAR,NIGHT_CLEAR,NIGHT_CLEAR,NIGHT_CLEAR","Offshore,Offshore,Offshore,Offshore,Offshore",5
5842041f4e65fad6a77089da,2024_02_17,42.97583846220203,-70.764,Sawyer's Beach,0.766,0,0.17133333333333334,4,3,"NIGHT_CLEAR,NIGHT_CLEAR,NIGHT_CLEAR,NIGHT_CLEAR,NIGHT_CLEAR","Offshore,Offshore,Offshore,Offshore,Offshore",5
5842041f4e65fad6a77089db,2024_02_17,42.97,-70.77,Rye on the Rocks / 5-0's,0.3,0.028066666666666667,0.16102333333333335,4,3,"NIGHT_CLEAR,NIGHT_CLEAR,NIGHT_CLEAR,NIGHT_CLEAR,NIGHT_CLEAR","Offshore,Offshore,Offshore,Offshore,Offshore",5
5842041f4e65fad6a77089dc,2024_02_17,43.55902946610303,-70.27795,Higgins Beach,1,0,0.2783333333333333,4,3,"NIGHT_CLEAR,NIGHT_CLEAR,NIGHT_CLEAR,NIGHT_CLEAR,NIGHT_CLEAR","Offshore,Offshore,Offshore,Offshore,Offshore",5
5842041f4e65fad6a77089dd,2024_02_17,43.302676,-70.5652,Wells Beach,0.6,0,0.18816666666666665,4,3,"NIGHT_CLEAR,NIGHT_CLEAR,NIGHT_CLEAR,NIGHT_CLEAR,NIGHT_CLEAR","Offshore,Offshore,Offshore,Offshore,Offshore",5
5842041f4e65fad6a77089de,2024_02_17,43.545359,-70.30479,Scarborough Beach State Park,0.966,0.06324733333333332,0.2258235,4,3,"NIGHT_CLEAR,NIGHT_CLEAR,NIGHT_CLEAR,NIGHT_CLEAR,NIGHT_CLEAR","Offshore,Offshore,Offshore,Offshore,Offshore",5
5842041f4e65fad6a77089df,2024_02_17,43.514481,-70.372146,Old Orchard Beach,0.7,0,0.12733333333333335,4,3,"NIGHT_CLEAR,NIGHT_CLEAR,NIGHT_CLEAR,NIGHT_CLEAR,NIGHT_CLEAR","Offshore,Offshore,Offshore,Offshore,Offshore",5
5842041f4e65fad6a77089e0,2024_02_17,43.34711,-70.48165,Gooch's Beach,0.766,0,0.18533333333333335,4,3,"NIGHT_CLEAR,NIGHT_CLEAR,NIGHT_CLEAR,NIGHT_CLEAR,NIGHT_CLEAR","Offshore,Cross-shore,Cross-shore,Offshore,Cross-shore",5
5842041f4e65fad6a77089e2,2024_02_17,40.58433,-73.62953,Lido Beach,0.3,-0.010333333333333333,0.2956666666666667,5,4,"NIGHT_CLEAR,NIGHT_CLEAR,NIGHT_CLEAR,NIGHT_CLEAR,NIGHT_CLEAR","Onshore,Cross-shore,Offshore,Offshore,Cross-shore",5
5842041f4e65fad6a77089e3,2024_02_17,43.163135,-70.61689,Long Sands Beach,0.366,0.015226666666666657,0.150795,4,3,"NIGHT_CLEAR,NIGHT_CLEAR,NIGHT_CLEAR,NIGHT_CLEAR,NIGHT_CLEAR","Offshore,Offshore,Offshore,Offshore,Offshore",5
5842041f4e65fad6a77089e4,2024_02_17,40.61695351251805,-73.39376,Gilgo Beach,0.966,0.047,0.35300000000000004,5,4,"NIGHT_CLEAR,NIGHT_CLEAR,NIGHT_CLEAR,NIGHT_CLEAR,NIGHT_CLEAR","Offshore,Offshore,Offshore,Offshore,Offshore",5
5842041f4e65fad6a77089e5,2024_02_17,40.62530081928036,-73.23827,Robert Moses,1,0.076,0.38,5,5,"NIGHT_CLEAR,NIGHT_CLEAR,NIGHT_CLEAR,NIGHT_CLEAR,NIGHT_CLEAR","Offshore,Offshore,Offshore,Offshore,Offshore",5
5842041f4e65fad6a77089e6,2024_02_17,40.64313317632791,-73.15727,Fire Island,1,0.1,0.404,5,5,"NIGHT_CLEAR,NIGHT_CLEAR,NIGHT_CLEAR,NIGHT_CLEAR,NIGHT_CLEAR","Offshore,Offshore,Offshore,Offshore,Offshore",5
5842041f4e65fad6a77089e8,2024_02_17,40.76653118828782,-72.74579619372713,Cupsogue,2,0.298,0.602,5,5,"NIGHT_CLEAR,NIGHT_CLEAR,NIGHT_CLEAR,NIGHT_CLEAR,NIGHT_CLEAR","Offshore,Offshore,Offshore,Offshore,Offshore",5
5842041f4e65fad6a77089e9,2024_02_17,42.9376373334092,-70.79141,The Wall ,0.3,0.023266333333333326,0.16335566666666668,4,3,"NIGHT_CLEAR,NIGHT_CLEAR,NIGHT_CLEAR,NIGHT_CLEAR,NIGHT_CLEAR","Offshore,Offshore,Offshore,Offshore,Offshore",5
5842041f4e65fad6a77089ea,2024_02_17,40.887088,-72.33856,Flys,1.2,0.25,0.558,5,5,"NIGHT_CLEAR,NIGHT_CLEAR,NIGHT_CLEAR,NIGHT_CLEAR,NIGHT_CLEAR","Cross-shore,Offshore,Offshore,Offshore,Offshore",5
5842041f4e65fad6a77089eb,2024_02_17,41.0389266436591,-71.91068529316958,Trailer Park,0.5660000000000001,0.43013266666666666,0.6472923333333334,5,4,"NIGHT_CLEAR,NIGHT_CLEAR,NIGHT_CLEAR,NIGHT_CLEAR,NIGHT_CLEAR","Offshore,Offshore,Offshore,Offshore,Offshore",5
5842041f4e65fad6a77089ec,2024_02_17,41.039505402729105,-71.9142,Ditch Plains,1,0.270492,0.422646,5,5,"NIGHT_CLEAR,NIGHT_CLEAR,NIGHT_CLEAR,NIGHT_CLEAR,NIGHT_CLEAR","Offshore,Offshore,Offshore,Offshore,Offshore",5
5842041f4e65fad6a77089ee,2024_02_17,40.57633275206492,-73.56895305108567,"West End, Jones Beach",0.966,0.048666666666666664,0.3546666666666667,5,4,"NIGHT_CLEAR,NIGHT_CLEAR,NIGHT_CLEAR,NIGHT_CLEAR,NIGHT_CLEAR","Cross-shore,Offshore,Offshore,Offshore,Offshore",5
5842041f4e65fad6a77089f1,2024_02_17,41.038286691230795,-71.91991567611694,Poles,0.3,0.42044,0.5496206666666666,5,4,"NIGHT_CLEAR,NIGHT_CLEAR,NIGHT_CLEAR,NIGHT_CLEAR,NIGHT_CLEAR","Offshore,Offshore,Offshore,Offshore,Offshore",5
5842041f4e65fad6a77089f3,2024_02_17,40.84077769766295,-72.47989493724765,The Bowl,1.2,0.28400000000000003,0.59,5,5,"NIGHT_CLEAR,NIGHT_CLEAR,NIGHT_CLEAR,NIGHT_CLEAR,NIGHT_CLEAR","Cross-shore,Offshore,Offshore,Offshore,Offshore",5
5842041f4e65fad6a77089f4,2024_02_17,40.94235535243154,-72.19286,Main Beach,1.2,0.27608,0.5779933333333334,13,12,"NIGHT_CLEAR,NIGHT_CLEAR,NIGHT_CLEAR,NIGHT_CLEAR,NIGHT_CLEAR","Cross-shore,Cross-shore,Cross-shore,Cross-shore,Offshore",5
5842041f4e65fad6a77089f5,2024_02_17,40.58270702399518,-73.67251552079799,Laurelton Blvd.,1.134,0.051498333333333333,0.3310983333333334,5,4,"NIGHT_CLEAR,NIGHT_CLEAR,NIGHT_CLEAR,NIGHT_CLEAR,NIGHT_CLEAR","Onshore,Onshore,Offshore,Offshore,Offshore",5
5842041f4e65fad6a77089f6,2024_02_17,41.033752854071416,-71.93695522488403,Terrace,0.3,0.23074666666666666,0.53866,5,4,"NIGHT_CLEAR,NIGHT_CLEAR,NIGHT_CLEAR,NIGHT_CLEAR,NIGHT_CLEAR","Offshore,Offshore,Offshore,Offshore,Offshore",5
5842041f4e65fad6a77089f7,2024_02_17,40.83372943645748,-72.50426173210144,K Road,2,0.354,0.662,5,5,"NIGHT_CLEAR,NIGHT_CLEAR,NIGHT_CLEAR,NIGHT_CLEAR,NIGHT_CLEAR","Offshore,Offshore,Offshore,Offshore,Offshore",5
5842041f4e65fad6a77089f8,2024_02_17,40.58456099581507,-73.80730032920837,84th Street,0.3,-0.01933333333333334,0.2886666666666667,5,4,"NIGHT_CLEAR,NIGHT_CLEAR,NIGHT_CLEAR,NIGHT_CLEAR,NIGHT_CLEAR","Offshore,Offshore,Offshore,Offshore,Offshore",5
5842041f4e65fad6a77089fa,2024_02_17,40.1319,-74.02788,Sea Girt,0.966,-0.008333333333333333,0.2015,6,5,"NIGHT_CLEAR,NIGHT_CLEAR,NIGHT_CLEAR,NIGHT_CLEAR,NIGHT_CLEAR","Offshore,Offshore,Offshore,Offshore,Offshore",5
5842041f4e65fad6a77089fb,2024_02_17,40.54698301868125,-73.9268,Breezy Point,1,0.004,0.29,5,5,"NIGHT_CLEAR,NIGHT_CLEAR,NIGHT_CLEAR,NIGHT_CLEAR,NIGHT_CLEAR","Cross-shore,Offshore,Offshore,Offshore,Offshore",5
5842041f4e65fad6a77089fc,2024_02_17,40.152504,-74.021383,Spring Lake,0.966,-0.008333333333333333,0.2015,6,5,"NIGHT_CLEAR,NIGHT_CLEAR,NIGHT_CLEAR,NIGHT_CLEAR,NIGHT_CLEAR","Offshore,Offshore,Offshore,Offshore,Offshore",5
5842041f4e65fad6a77089fd,2024_02_17,40.591277,-73.770792,30th - 39th Streets,0.966,-0.018833333333333337,0.26316666666666666,5,4,"NIGHT_CLEAR,NIGHT_CLEAR,NIGHT_CLEAR,NIGHT_CLEAR,NIGHT_CLEAR","Offshore,Offshore,Offshore,Offshore,Offshore",5
5842041f4e65fad6a77089fe,2024_02_17,40.18834955871439,-74.00860982500222,Avon,0.966,0,0.202,6,5,"NIGHT_CLEAR,NIGHT_CLEAR,NIGHT_CLEAR,NIGHT_CLEAR,NIGHT_CLEAR","Offshore,Offshore,Offshore,Offshore,Offshore",5
5842041f4e65fad6a77089ff,2024_02_17,40.1974229100932,-74.00650533798255,Bradley Beach,0.966,-0.0125,0.2195,6,5,"NIGHT_CLEAR,NIGHT_CLEAR,NIGHT_CLEAR,NIGHT_CLEAR,NIGHT_CLEAR","Offshore,Offshore,Offshore,Offshore,Offshore",5
5842041f4e65fad6a7708a01,2024_02_17,40.17202,-74.01503,"16th Ave., Belmar",1,0,0.26966666666666667,6,5,"NIGHT_CLEAR,NIGHT_CLEAR,NIGHT_CLEAR,NIGHT_CLEAR,NIGHT_CLEAR","Offshore,Offshore,Offshore,Offshore,Offshore",5
5842041f4e65fad6a7708a02,2024_02_17,40.217443,-73.99982,Asbury Park,0.966,-0.016666666666666666,0.21516666666666667,6,5,"NIGHT_CLEAR,NIGHT_CLEAR,NIGHT_CLEAR,NIGHT_CLEAR,NIGHT_CLEAR","Offshore,Offshore,Offshore,Offshore,Offshore",5
5842041f4e65fad6a7708a03,2024_02_17,40.229841,-73.996782,Loch Arbour and Deal,0.966,-0.016666666666666666,0.21733333333333332,6,5,"NIGHT_CLEAR,NIGHT_CLEAR,NIGHT_CLEAR,NIGHT_CLEAR,NIGHT_CLEAR","Offshore,Offshore,Offshore,Offshore,Offshore",5
5842041f4e65fad6a7708a05,2024_02_17,40.41754,-73.97935,Sandy Hook,0.4,0,0.15,5,5,"NIGHT_CLEAR,NIGHT_CLEAR,NIGHT_CLEAR,NIGHT_CLEAR,NIGHT_CLEAR","Offshore,Offshore,Offshore,Offshore,Onshore",5
5842041f4e65fad6a7708a06,2024_02_17,39.36353,-74.40873,Crystals,1,0.13976283333333334,0.3453793333333333,6,5,"NIGHT_CLEAR,NIGHT_CLEAR,NIGHT_CLEAR,NIGHT_CLEAR,NIGHT_CLEAR","Offshore,Offshore,Offshore,Offshore,Cross-shore",5
5842041f4e65fad6a7708a07,2024_02_17,39.31443,-74.51863,32nd Street,0.3,0.019449666666666664,0.28439800000000004,6,5,"NIGHT_CLEAR,NIGHT_CLEAR,NIGHT_CLEAR,NIGHT_CLEAR,NIGHT_CLEAR","Offshore,Offshore,Offshore,Offshore,Cross-shore",5
5842041f4e65fad6a7708a08,2024_02_17,39.327688,-74.49524,Margate Pier Northside,0.2,0.019449666666666664,0.28439800000000004,6,5,"NIGHT_CLEAR,NIGHT_CLEAR,NIGHT_CLEAR,NIGHT_CLEAR,NIGHT_CLEAR","Offshore,Offshore,Offshore,Offshore,Cross-shore",5
5842041f4e65fad6a7708a09,2024_02_17,39.336276,-74.47782,Ventnor Pier,1,0.13378816666666665,0.33604816666666665,6,5,"NIGHT_CLEAR,NIGHT_CLEAR,NIGHT_CLEAR,NIGHT_CLEAR,NIGHT_CLEAR","Offshore,Offshore,Offshore,Offshore,Cross-shore",5
5842041f4e65fad6a7708a0a,2024_02_17,39.35929751441085,-74.41683,States Avenue,1.966,0.13976283333333334,0.3453793333333333,6,5,"NIGHT_CLEAR,NIGHT_CLEAR,NIGHT_CLEAR,NIGHT_CLEAR,NIGHT_CLEAR","Offshore,Offshore,Offshore,Offshore,Cross-shore",5
5842041f4e65fad6a7708a0b,2024_02_17,39.37274173278517,-74.40454,Brigantine Jetty,1,0.16288833333333336,0.3815113333333333,6,5,"NIGHT_CLEAR,NIGHT_CLEAR,NIGHT_CLEAR,NIGHT_CLEAR,NIGHT_CLEAR","Offshore,Offshore,Offshore,Offshore,Offshore",5
5842041f4e65fad6a7708a0c,2024_02_17,39.356505,-74.42263,South Carolina Avenue,1.2,0.16288833333333336,0.3815113333333333,6,5,"NIGHT_CLEAR,NIGHT_CLEAR,NIGHT_CLEAR,NIGHT_CLEAR,NIGHT_CLEAR","Offshore,Offshore,Offshore,Offshore,Cross-shore",5
5842041f4e65fad6a7708a0d,2024_02_17,39.413485,-74.35476,14th Street North,1,0,0.20233333333333334,6,5,"NIGHT_CLEAR,NIGHT_CLEAR,NIGHT_CLEAR,NIGHT_CLEAR,NIGHT_CLEAR","Offshore,Offshore,Offshore,Offshore,Cross-shore",5
5842041f4e65fad6a7708a0e,2024_02_17,39.531319,-74.263252,The Wooden Jetty,1,0.046799999999999994,0.31414366666666665,6,5,"NIGHT_CLEAR,NIGHT_CLEAR,NIGHT_CLEAR,NIGHT_CLEAR,NIGHT_CLEAR","Offshore,Offshore,Offshore,Offshore,Offshore",5
5842041f4e65fad6a7708a0f,2024_02_17,39.552472,-74.24344,Holyoke,1,0.020051000000000003,0.285335,6,5,"NIGHT_CLEAR,NIGHT_CLEAR,NIGHT_CLEAR,NIGHT_CLEAR,NIGHT_CLEAR","Offshore,Offshore,Offshore,Offshore,Offshore",5
5842041f4e65fad6a7708a10,2024_02_17,39.692364,-74.14068,Hudson Ave.,1,0,0.27033333333333337,6,5,"NIGHT_CLEAR,NIGHT_CLEAR,NIGHT_CLEAR,NIGHT_CLEAR,NIGHT_CLEAR","Offshore,Offshore,Offshore,Offshore,Onshore",5
5842041f4e65fad6a7708a11,2024_02_17,39.79614,-74.09248,Island Beach State Park,0.966,-0.03333333333333333,0.1985,6,5,"NIGHT_CLEAR,NIGHT_CLEAR,NIGHT_CLEAR,NIGHT_CLEAR,NIGHT_CLEAR","Offshore,Offshore,Offshore,Offshore,Offshore",5
5842041f4e65fad6a7708a12,2024_02_17,39.91813588078152,-74.07527,Seaside Park,0.966,0,0.18816666666666668,6,5,"NIGHT_CLEAR,NIGHT_CLEAR,NIGHT_CLEAR,NIGHT_CLEAR,NIGHT_CLEAR","Offshore,Offshore,Offshore,Offshore,Offshore",5
5842041f4e65fad6a7708a14,2024_02_17,39.946638,-74.06884,Seaside Heights,0.966,0,0.198,6,5,"NIGHT_CLEAR,NIGHT_CLEAR,NIGHT_CLEAR,NIGHT_CLEAR,NIGHT_CLEAR","Offshore,Offshore,Offshore,Offshore,Offshore",5
5842041f4e65fad6a7708a15,2024_02_17,39.95745637606704,-74.06736,Ortley Beach,0.966,0,0.19033333333333333,6,5,"NIGHT_CLEAR,NIGHT_CLEAR,NIGHT_CLEAR,NIGHT_CLEAR,NIGHT_CLEAR","Offshore,Offshore,Offshore,Offshore,Offshore",5
5842041f4e65fad6a7708a16,2024_02_17,39.98313468342945,-74.06265685577506,Lavallette,0.966,0,0.20400000000000001,6,5,"NIGHT_CLEAR,NIGHT_CLEAR,NIGHT_CLEAR,NIGHT_CLEAR,NIGHT_CLEAR","Offshore,Offshore,Offshore,Offshore,Offshore",5
5842041f4e65fad6a7708a17,2024_02_17,40.0699319967757,-74.04144910856634,Bay Head,0.966,-0.008333333333333333,0.2015,6,5,"NIGHT_CLEAR,NIGHT_CLEAR,NIGHT_CLEAR,NIGHT_CLEAR,NIGHT_CLEAR","Offshore,Offshore,Offshore,Offshore,Offshore",5
5842041f4e65fad6a7708a18,2024_02_17,40.094041,-74.034859,Jenkinson's,0.966,-0.0125,0.2095,6,5,"NIGHT_CLEAR,NIGHT_CLEAR,NIGHT_CLEAR,NIGHT_CLEAR,NIGHT_CLEAR","Offshore,Offshore,Offshore,Offshore,Offshore",5
5842041f4e65fad6a7708a1a,2024_02_17,38.148058,-75.17704,Assateague,1,0.06916666666666667,0.373,6,5,"NIGHT_CLEAR,NIGHT_CLEAR,NIGHT_CLEAR,NIGHT_CLEAR,NIGHT_CLEAR","Offshore,Offshore,Cross-shore,Onshore,Onshore",5
5842041f4e65fad6a7708a1b,2024_02_17,38.33889038664497,-75.08017670566352,North End to Ocean City Inlet,1,0.0485,0.3483333333333334,6,5,"NIGHT_CLEAR,NIGHT_CLEAR,NIGHT_CLEAR,NIGHT_CLEAR,NIGHT_CLEAR","Cross-shore,Offshore,Onshore,Onshore,Onshore",5
5842041f4e65fad6a7708a1c,2024_02_17,38.603993,-75.06271,Indian River Inlet,1,0.17083466666666666,0.3224943333333333,6,5,"NIGHT_CLEAR,NIGHT_CLEAR,NIGHT_CLEAR,NIGHT_CLEAR,NIGHT_CLEAR","Offshore,Offshore,Offshore,Cross-shore,Onshore",5
5842041f4e65fad6a7708a1d,2024_02_17,38.460477,-75.052069,Fenwick Island,1,0.12283333333333334,0.37483333333333335,6,5,"NIGHT_CLEAR,NIGHT_CLEAR,NIGHT_CLEAR,NIGHT_CLEAR,NIGHT_CLEAR","Cross-shore,Offshore,Onshore,Onshore,Onshore",5
5842041f4e65fad6a7708a1e,2024_02_17,38.538767,-75.05619,Bethany Beach,1,0.17917016666666669,0.3355141666666666,6,5,"NIGHT_CLEAR,NIGHT_CLEAR,NIGHT_CLEAR,NIGHT_CLEAR,NIGHT_CLEAR","Offshore,Offshore,Offshore,Cross-shore,Onshore",5
5842041f4e65fad6a7708a1f,2024_02_17,38.697657,-75.075951,Dewey Beach,1,0.127,0.3516666666666667,6,5,"NIGHT_CLEAR,NIGHT_CLEAR,NIGHT_CLEAR,NIGHT_CLEAR,NIGHT_CLEAR","Offshore,Offshore,Cross-shore,Onshore,Onshore",5
5842041f4e65fad6a7708a20,2024_02_17,38.75034741676525,-75.08194,Gordons Pond,1,0.16690233333333332,0.316343,6,5,"NIGHT_CLEAR,NIGHT_CLEAR,NIGHT_CLEAR,NIGHT_CLEAR,NIGHT_CLEAR","Offshore,Offshore,Offshore,Cross-shore,Onshore",5
5842041f4e65fad6a7708a21,2024_02_17,38.767837,-75.082841,Naval Jetties,1.6,0.127,0.3215,6,5,"NIGHT_CLEAR,NIGHT_CLEAR,NIGHT_CLEAR,NIGHT_CLEAR,NIGHT_CLEAR","Cross-shore,Cross-shore,Cross-shore,Onshore,Onshore",5
5842041f4e65fad6a7708a22,2024_02_17,36.81735875786576,-75.96624,Camp Pendleton,1,-0.015333333333333336,0.2922666666666667,7,6,"NIGHT_CLEAR,NIGHT_CLEAR,NIGHT_CLEAR,NIGHT_CLEAR,NIGHT_OVERCAST","Onshore,Onshore,Onshore,Onshore,Onshore",5
5842041f4e65fad6a7708a23,2024_02_17,36.9102212316428,-75.98732471466064,North End,0,-0.01,0.261,7,6,"NIGHT_CLEAR,NIGHT_CLEAR,NIGHT_CLEAR,NIGHT_CLEAR,NIGHT_MOSTLY_CLOUDY","Onshore,Onshore,Onshore,Onshore,Onshore",5
5842041f4e65fad6a7708a24,2024_02_17,36.737117517621314,-75.93923719853362,Sandbridge Beach,1,-0.008000000000000004,0.3016,7,6,"NIGHT_CLEAR,NIGHT_CLEAR,NIGHT_CLEAR,NIGHT_CLEAR,NIGHT_CLEAR","Onshore,Onshore,Onshore,Onshore,Onshore",5
5842041f4e65fad6a7708a26,2024_02_17,36.818257440557794,-75.96666,Croatan to Pendleton,0.2,-0.02599999999999998,0.2816,7,6,"NIGHT_CLEAR,NIGHT_CLEAR,NIGHT_CLEAR,NIGHT_CLEAR,NIGHT_CLEAR","Onshore,Onshore,Onshore,Onshore,Onshore",5
5842041f4e65fad6a7708a27,2024_02_17,36.84318777204769,-75.9719,South End,0,-0.040666666666666684,0.2536,7,6,"NIGHT_CLEAR,NIGHT_CLEAR,NIGHT_CLEAR,NIGHT_CLEAR,NIGHT_MOSTLY_CLOUDY","Onshore,Onshore,Onshore,Onshore,Onshore",5
5842041f4e65fad6a7708a28,2024_02_17,37.08612627584661,-75.976121638199,Fishermans Island,0,0,0.048,7,7,"NIGHT_CLEAR,NIGHT_CLEAR,NIGHT_CLEAR,NIGHT_CLOUDY,NIGHT_CLEAR","Cross-shore,Onshore,Onshore,Onshore,Onshore",5
5842041f4e65fad6a7708a38,2024_02_17,35.254619418229026,-75.52074,Cape Hatteras Lighthouse,1,0.4046245,0.6877888333333333,11,9,"NIGHT_CLEAR,NIGHT_CLEAR,NIGHT_CLEAR,NIGHT_CLEAR,NIGHT_CLEAR","Onshore,Onshore,Onshore,Onshore,Onshore",5
5842041f4e65fad6a7708a3a,2024_02_17,35.54572934093336,-75.46477,Waves and Salvo,1,0.4485,0.7545,9,8,"NIGHT_CLEAR,NIGHT_CLEAR,NIGHT_CLOUDY,NIGHT_CLEAR,NIGHT_CLEAR","Onshore,Onshore,Onshore,Onshore,Onshore",5
5842041f4e65fad6a7708a3b,2024_02_17,35.22565892751075,-75.63606,Frisco,1,0.32053333333333334,0.5906,12,11,"NIGHT_CLEAR,NIGHT_CLEAR,NIGHT_CLEAR,NIGHT_CLEAR,NIGHT_CLEAR","Cross-shore,Cross-shore,Cross-shore,Cross-shore,Onshore",5
5842041f4e65fad6a7708a3c,2024_02_17,35.13086,-75.90591,Ocracoke,1,0.234408,0.366264,10,10,"NIGHT_CLEAR,NIGHT_CLEAR,NIGHT_CLEAR,NIGHT_CLEAR,NIGHT_CLEAR","Cross-shore,Cross-shore,Cross-shore,Onshore,Onshore",5
5842041f4e65fad6a7708a3d,2024_02_17,35.34721340158342,-75.50084,Avon Pier,1,0.5991333333333334,0.8966000000000001,9,8,"NIGHT_CLEAR,NIGHT_CLEAR,NIGHT_CLEAR,NIGHT_CLEAR,NIGHT_CLEAR","Onshore,Onshore,Onshore,Onshore,Onshore",5
5842041f4e65fad6a7708a3f,2024_02_17,35.71680821253768,-75.49243,Pea Island,1,0.452,0.754,8,8,"NIGHT_CLEAR,NIGHT_CLEAR,NIGHT_CLEAR,NIGHT_CLOUDY,NIGHT_CLEAR","Onshore,Onshore,Onshore,Onshore,Onshore",5
5842041f4e65fad6a7708a40,2024_02_17,35.97427620657821,-75.62984,Nags Head Pier,1,0.08833333333333335,0.388,8,6,"NIGHT_CLEAR,NIGHT_CLEAR,NIGHT_CLEAR,NIGHT_CLEAR,NIGHT_CLOUDY","Onshore,Onshore,Onshore,Onshore,Onshore",5
5842041f4e65fad6a7708a41,2024_02_17,36.0439998039079,-75.67288,Avalon Pier,1,0.33416666666666667,0.6421666666666668,7,6,"NIGHT_CLEAR,NIGHT_OVERCAST,NIGHT_CLEAR,NIGHT_CLEAR,NIGHT_CLEAR","Onshore,Onshore,Onshore,Onshore,Cross-shore",5
5842041f4e65fad6a7708a42,2024_02_17,36.03043116489792,-75.66413,First Street,1,0.06133333333333331,0.36633333333333334,7,6,"NIGHT_CLEAR,NIGHT_OVERCAST,NIGHT_CLEAR,NIGHT_CLEAR,NIGHT_CLEAR","Onshore,Onshore,Onshore,Onshore,Cross-shore",5
5842041f4e65fad6a7708a43,2024_02_17,36.06829910590498,-75.6899,Old Station/Laundromats,1,0.3645,0.6699999999999999,7,6,"NIGHT_CLEAR,NIGHT_OVERCAST,NIGHT_CLEAR,NIGHT_CLEAR,NIGHT_CLEAR","Onshore,Onshore,Onshore,Onshore,Onshore",5
5842041f4e65fad6a7708a44,2024_02_17,36.10126676607491,-75.71107462163894,Kitty Hawk Pier,1,0.06266666666666663,0.36633333333333334,7,6,"NIGHT_CLEAR,NIGHT_OVERCAST,NIGHT_CLEAR,NIGHT_CLOUDY,NIGHT_OVERCAST","Onshore,Onshore,Onshore,Onshore,Onshore",5
5842041f4e65fad6a7708a45,2024_02_17,36.18220630068973,-75.75013580649097,Duck Pier,0.966,0.11883333333333333,0.42883333333333334,7,6,"NIGHT_CLEAR,NIGHT_CLOUDY,NIGHT_CLEAR,NIGHT_CLOUDY,NIGHT_MOSTLY_CLOUDY","Onshore,Onshore,Onshore,Onshore,Onshore",5
5842041f4e65fad6a7708a46,2024_02_17,36.37660668125033,-75.82409701687456,Corolla,0.966,0.11083333333333334,0.4126666666666666,7,6,"NIGHT_CLEAR,NIGHT_CLEAR,NIGHT_CLEAR,NIGHT_CLEAR,NIGHT_CLEAR","Onshore,Onshore,Onshore,Onshore,Onshore",5
5842041f4e65fad6a7708a47,2024_02_17,33.90373404124834,-78.08241431707907,Oak Island,1,0.052,0.356,12,12,"NIGHT_CLEAR,NIGHT_CLEAR,NIGHT_CLEAR,NIGHT_CLEAR,NIGHT_CLEAR","Cross-shore,Cross-shore,Cross-shore,Cross-shore,Cross-shore",5
5842041f4e65fad6a7708a48,2024_02_17,33.91108837766468,-78.29653,South Brunswick Beaches,1,0.266336,0.416148,12,12,"NIGHT_CLEAR,NIGHT_CLEAR,NIGHT_CLEAR,NIGHT_CLEAR,NIGHT_MIST","Cross-shore,Cross-shore,Cross-shore,Cross-shore,Cross-shore",5
5842041f4e65fad6a7708a49,2024_02_17,34.05683595651973,-77.88128,Carolina Beach Pier,0,0,0.2285,12,11,"NIGHT_CLEAR,NIGHT_CLEAR,NIGHT_CLEAR,NIGHT_CLEAR,NIGHT_MIST","Onshore,Onshore,Onshore,Onshore,Onshore",5
5842041f4e65fad6a7708a4a,2024_02_17,33.96841191816696,-77.9180242565498,Fort Fisher,0.966,-0.020000000000000004,0.28783333333333333,12,11,"NIGHT_CLEAR,NIGHT_CLEAR,NIGHT_CLEAR,NIGHT_CLEAR,NIGHT_MIST","Onshore,Onshore,Onshore,Onshore,Onshore",5
5842041f4e65fad6a7708a4b,2024_02_17,34.46776662988774,-77.47083191635772,Topsail Beach,0.966,0.14866666666666667,0.4505,12,11,"NIGHT_CLEAR,NIGHT_CLEAR,NIGHT_CLEAR,NIGHT_CLEAR,NIGHT_CLEAR","Cross-shore,Cross-shore,Cross-shore,Cross-shore,Onshore",5
5842041f4e65fad6a7708a4c,2024_02_17,34.69270354752445,-76.82854854446575,Iron Steamer,1,0.2822666666666667,0.5829000000000001,12,11,"NIGHT_CLEAR,NIGHT_CLEAR,NIGHT_CLEAR,NIGHT_CLEAR,NIGHT_CLEAR","Cross-shore,Cross-shore,Cross-shore,Cross-shore,Cross-shore",5
5842041f4e65fad6a7708a4f,2024_02_17,30.85132684893727,-81.42283496231143,Cumberland Island,1.8,0.03,0.33,14,14,"CLOUDY,NIGHT_CLEAR,NIGHT_CLEAR,NIGHT_CLOUDY,NIGHT_CLEAR","Cross-shore,Onshore,Onshore,Cross-shore,Cross-shore",5
5842041f4e65fad6a7708a50,2024_02_17,34.686741128540874,-76.47516712138378,Cape Lookout National Seashore,1,0.228,0.532,10,10,"NIGHT_CLEAR,NIGHT_CLEAR,NIGHT_CLEAR,NIGHT_CLOUDY,NIGHT_CLEAR","Onshore,Onshore,Onshore,Onshore,Onshore",5
5842041f4e65fad6a7708a51,2024_02_17,31.10585419260024,-81.40422767604812,Jekyll Island,1,0,0.182,14,14,"CLOUDY,NIGHT_CLOUDY,NIGHT_CLEAR,NIGHT_CLOUDY,NIGHT_CLEAR","Cross-shore,Cross-shore,Cross-shore,Offshore,Cross-shore",5
5842041f4e65fad6a7708a52,2024_02_17,31.16212806376699,-81.32512426500224,Harbor Marker Buoys,1,0,0.256,14,14,"CLOUDY,NIGHT_OVERCAST,NIGHT_CLEAR,NIGHT_CLOUDY,NIGHT_CLEAR","Cross-shore,Cross-shore,Cross-shore,Cross-shore,Cross-shore",5
5842041f4e65fad6a7708a53,2024_02_17,31.20076299997009,-81.32629,Sea Island,0.8,0,0.276,14,14,"CLEAR,NIGHT_OVERCAST,NIGHT_CLOUDY,NIGHT_CLEAR,NIGHT_CLEAR","Onshore,Cross-shore,Onshore,Cross-shore,Cross-shore",5
5842041f4e65fad6a7708a54,2024_02_17,31.13553222995767,-81.38457634790909,St. Simons Island,1,0.012,0.32,14,14,"CLEAR,NIGHT_CLOUDY,NIGHT_CLEAR,NIGHT_CLOUDY,NIGHT_CLEAR","Onshore,Onshore,Onshore,Cross-shore,Onshore",5
5842041f4e65fad6a7708a55,2024_02_17,31.33550077186516,-81.28383377408417,Wolf Island,0.8,0,0.276,13,13,"CLEAR,NIGHT_CLOUDY,NIGHT_CLOUDY,NIGHT_CLEAR,NIGHT_CLEAR","Cross-shore,Cross-shore,Cross-shore,Offshore,Cross-shore",5
5842041f4e65fad6a7708a56,2024_02_17,31.2704493877174,-81.27324039152315,Little St. Simons Island,0,0,0.272,13,13,"CLOUDY,NIGHT_CLEAR,NIGHT_CLOUDY,NIGHT_CLOUDY,NIGHT_CLEAR","Cross-shore,Cross-shore,Cross-shore,Offshore,Cross-shore",5
5842041f4e65fad6a7708a57,2024_02_17,31.39261761368919,-81.26190520231917,Sapelo Island,0.8,0,0.266,13,13,"OVERCAST,NIGHT_OVERCAST,NIGHT_CLEAR,NIGHT_CLEAR,NIGHT_CLEAR","Onshore,Cross-shore,Cross-shore,Cross-shore,Cross-shore",5
5842041f4e65fad6a7708a58,2024_02_17,34.42458783809001,-77.54492,Surf City Pier,0.966,0.14466666666666667,0.45266666666666666,12,11,"NIGHT_CLEAR,NIGHT_CLEAR,NIGHT_CLEAR,NIGHT_CLEAR,NIGHT_CLEAR","Onshore,Onshore,Onshore,Onshore,Onshore",5
5842041f4e65fad6a7708a59,2024_02_17,31.4231993614213,-81.24725340591522,Cabretta Island,0.8,0,0.262,13,13,"OVERCAST,NIGHT_CLOUDY,NIGHT_CLEAR,NIGHT_CLEAR,NIGHT_CLEAR","Onshore,Cross-shore,Cross-shore,Cross-shore,Cross-shore",5
5842041f4e65fad6a7708a5a,2024_02_17,31.46684389030369,-81.2100056410468,Blackbeard Island,0.8,0,0.266,13,13,"OVERCAST,NIGHT_OVERCAST,NIGHT_CLEAR,NIGHT_CLEAR,NIGHT_CLEAR","Onshore,Cross-shore,Cross-shore,Cross-shore,Cross-shore",5
5842041f4e65fad6a7708a5b,2024_02_17,31.85953587631629,-80.99031310336719,Wassaw Island/South End,0.6,0,0.206,13,13,"OVERCAST,NIGHT_CLEAR,NIGHT_CLEAR,NIGHT_CLEAR,NIGHT_CLEAR","Onshore,Cross-shore,Cross-shore,Onshore,Cross-shore",5
5842041f4e65fad6a7708a5c,2024_02_17,31.62535662342983,-81.13328352167974,St. Catherines Island,0.2,0,0.288,13,13,"OVERCAST,NIGHT_CLOUDY,NIGHT_CLOUDY,NIGHT_CLEAR,NIGHT_OVERCAST","Cross-shore,Cross-shore,Cross-shore,Cross-shore,Cross-shore",5
5842041f4e65fad6a7708a5d,2024_02_17,31.76502169596568,-81.07655443806622,Ossabaw Island,0,0,0.286,13,13,"OVERCAST,NIGHT_CLEAR,NIGHT_CLEAR,NIGHT_CLEAR,NIGHT_CLEAR","Cross-shore,Cross-shore,Cross-shore,Cross-shore,Cross-shore",5
5842041f4e65fad6a7708a5e,2024_02_17,31.90593619092352,-80.93589231700857,Wassaw Island/North End,0.2,0.002,0.296,13,13,"OVERCAST,NIGHT_CLEAR,NIGHT_CLEAR,NIGHT_CLOUDY,NIGHT_CLEAR","Onshore,Cross-shore,Onshore,Onshore,Cross-shore",5
5842041f4e65fad6a7708a5f,2024_02_17,31.96738675414547,-80.86977980706155,Little Tybee Island,0.4,0.02,0.314,13,13,"OVERCAST,NIGHT_CLOUDY,NIGHT_CLEAR,NIGHT_CLOUDY,NIGHT_CLEAR","Onshore,Cross-shore,Cross-shore,Onshore,Cross-shore",5
5842041f4e65fad6a7708a60,2024_02_17,31.9812255780179,-80.84773973467009,South Tybee Sandbars,0.4,0.022,0.324,13,13,"OVERCAST,NIGHT_CLOUDY,NIGHT_CLEAR,NIGHT_CLOUDY,NIGHT_CLEAR","Cross-shore,Cross-shore,Cross-shore,Cross-shore,Cross-shore",5
5842041f4e65fad6a7708a61,2024_02_17,32.01226,-80.83983,Sugar Shack,1,0.01,0.312,13,13,"OVERCAST,NIGHT_CLEAR,NIGHT_CLEAR,NIGHT_CLEAR,NIGHT_CLEAR","Offshore,Offshore,Offshore,Offshore,Offshore",5
5842041f4e65fad6a7708a62,2024_02_17,31.98722842396969,-80.84773,18th St. Jetty,0,0.131212,0.20502,13,13,"OVERCAST,NIGHT_CLEAR,NIGHT_CLEAR,NIGHT_OVERCAST,NIGHT_CLEAR","Cross-shore,Cross-shore,Cross-shore,Cross-shore,Cross-shore",5
5842041f4e65fad6a7708a64,2024_02_17,34.013473721006676,-77.8991,"Alabama Ave., Kure Beach",1,0,0.248,11,11,"NIGHT_CLEAR,NIGHT_CLEAR,NIGHT_CLEAR,NIGHT_CLEAR,NIGHT_MIST","Onshore,Onshore,Cross-shore,Onshore,Cross-shore",5
5842041f4e65fad6a7708a65,2024_02_17,34.20859853336924,-77.79293,"C Street, Wrightsville Beach",1,0,0.23783333333333334,12,11,"NIGHT_CLEAR,NIGHT_CLEAR,NIGHT_CLEAR,NIGHT_CLEAR,NIGHT_MIST","Onshore,Onshore,Onshore,Onshore,Onshore",5
5842041f4e65fad6a7708a66,2024_02_17,32.831,-79.71,Dewees Island,0.2,0.01,0.272,12,12,"CLEAR,NIGHT_CLEAR,NIGHT_CLEAR,NIGHT_CLEAR,NIGHT_CLEAR","Cross-shore,Cross-shore,Cross-shore,Cross-shore,Cross-shore",5
5842041f4e65fad6a7708a67,2024_02_17,33.82924423172106,-78.62813,Cherry Grove Pier,0.6,0,0.252,11,11,"NIGHT_CLEAR,NIGHT_CLEAR,NIGHT_CLEAR,NIGHT_CLEAR,NIGHT_MIST","Onshore,Onshore,Onshore,Onshore,Onshore",5
5842041f4e65fad6a7708a69,2024_02_17,34.27197439666496,-77.74050223196774,Figure Eight and Shell Islands,1,-0.02149999999999999,0.2823333333333333,12,11,"NIGHT_CLEAR,NIGHT_CLEAR,NIGHT_CLEAR,NIGHT_CLEAR,NIGHT_CLEAR","Onshore,Onshore,Onshore,Onshore,Onshore",5
5842041f4e65fad6a7708a6b,2024_02_17,33.49041958261793,-79.07666070599386,North End,1,0.006,0.29000000000000004,12,12,"NIGHT_CLEAR,NIGHT_CLEAR,NIGHT_CLEAR,NIGHT_CLEAR,NIGHT_CLEAR","Onshore,Onshore,Onshore,Onshore,Onshore",5
5842041f4e65fad6a7708a6c,2024_02_17,33.39537062495087,-79.13835037835189,The South End,1,0,0.23800000000000002,12,12,"CLEAR,NIGHT_CLEAR,NIGHT_CLEAR,NIGHT_CLEAR,NIGHT_CLEAR","Onshore,Onshore,Onshore,Onshore,Onshore",5
5842041f4e65fad6a7708a6d,2024_02_17,33.29001727666697,-79.17190003352977,North Island,1,0.004,0.278,12,12,"CLEAR,NIGHT_CLEAR,NIGHT_CLEAR,NIGHT_CLEAR,NIGHT_CLEAR","Onshore,Cross-shore,Cross-shore,Cross-shore,Cross-shore",5
5842041f4e65fad6a7708a6e,2024_02_17,32.90929771158952,-79.57810400297359,Bull Island,0.4,0.036000000000000004,0.32,12,12,"CLEAR,NIGHT_CLEAR,NIGHT_CLEAR,NIGHT_CLEAR,NIGHT_CLEAR","Cross-shore,Cross-shore,Cross-shore,Cross-shore,Cross-shore",5
5842041f4e65fad6a7708a6f,2024_02_17,31.99153112815895,-80.84543050470074,Tybee Island Pier,0,0,0.17,13,13,"OVERCAST,NIGHT_CLEAR,NIGHT_CLEAR,NIGHT_CLOUDY,NIGHT_CLEAR","Cross-shore,Cross-shore,Cross-shore,Cross-shore,Cross-shore",5
5842041f4e65fad6a7708a70,2024_02_17,33.03478144356316,-79.35021028265125,Cape Romain,1,0.062,0.366,12,12,"CLEAR,NIGHT_CLEAR,NIGHT_CLEAR,NIGHT_CLEAR,NIGHT_CLEAR","Cross-shore,Cross-shore,Cross-shore,Cross-shore,Cross-shore",5
5842041f4e65fad6a7708a71,2024_02_17,33.43231073271028,-79.11789,The Pier,0,0.132548,0.207106,12,12,"CLEAR,NIGHT_CLOUDY,NIGHT_CLEAR,NIGHT_CLEAR,NIGHT_CLEAR","Onshore,Onshore,Onshore,Onshore,Onshore",5
5842041f4e65fad6a7708a72,2024_02_17,33.45423621397969,-79.10497798178424,South Litchfield,1,0,0.20600000000000002,12,12,"CLEAR,NIGHT_CLEAR,NIGHT_CLEAR,NIGHT_CLEAR,NIGHT_CLEAR","Onshore,Onshore,Onshore,Onshore,Onshore",5
5842041f4e65fad6a7708a73,2024_02_17,34.19316590251396,-77.8045,Crystal Pier,0.966,0,0.22866666666666666,12,11,"NIGHT_CLEAR,NIGHT_CLEAR,NIGHT_CLEAR,NIGHT_CLEAR,NIGHT_MIST","Onshore,Onshore,Onshore,Onshore,Onshore",5
5842041f4e65fad6a7708a74,2024_02_17,33.68628680045124,-78.883460274301,Myrtle Beach,1,0.004,0.298,11,11,"NIGHT_CLOUDY,NIGHT_CLEAR,NIGHT_CLEAR,NIGHT_CLEAR,NIGHT_CLEAR","Onshore,Onshore,Onshore,Onshore,Onshore",5
5842041f4e65fad6a7708a75,2024_02_17,32.66166297145973,-79.91951806398808,10th Street,1,0.108,0.40800000000000003,13,13,"CLEAR,NIGHT_CLEAR,NIGHT_CLEAR,NIGHT_CLEAR,NIGHT_CLEAR","Cross-shore,Cross-shore,Cross-shore,Cross-shore,Cross-shore",5
5842041f4e65fad6a7708a76,2024_02_17,33.16729555197199,-79.19829236867845,South Island,1,0.16,0.464,12,12,"CLEAR,NIGHT_CLEAR,NIGHT_CLEAR,NIGHT_CLEAR,NIGHT_CLEAR","Cross-shore,Cross-shore,Cross-shore,Cross-shore,Cross-shore",5
5842041f4e65fad6a7708a77,2024_02_17,32.595,-80.088,Kiawah Island/Seabrook Island,1,0.044,0.348,13,13,"CLEAR,NIGHT_CLEAR,NIGHT_CLEAR,NIGHT_CLEAR,NIGHT_CLEAR","Onshore,Onshore,Onshore,Onshore,Onshore",5
5842041f4e65fad6a7708a78,2024_02_17,32.51356930575787,-80.28223,Edisto Beach,0.2,0.185174,0.289336,13,13,"OVERCAST,NIGHT_CLEAR,NIGHT_CLEAR,NIGHT_CLEAR,NIGHT_CLEAR","Onshore,Onshore,Onshore,Onshore,Onshore",5
5842041f4e65fad6a7708a79,2024_02_17,32.366270751262,-80.43911,Hunting Island,0,0.133284,0.208256,13,13,"CLEAR,NIGHT_CLEAR,NIGHT_CLEAR,NIGHT_CLEAR,NIGHT_CLEAR","Cross-shore,Cross-shore,Cross-shore,Cross-shore,Cross-shore",5
5842041f4e65fad6a7708a7a,2024_02_17,32.65337734408365,-79.93983,Folly Beach Pier,0.234,0.024,0.3005,13,12,"CLEAR,NIGHT_CLEAR,NIGHT_CLEAR,NIGHT_CLEAR,NIGHT_CLEAR","Onshore,Onshore,Onshore,Onshore,Onshore",5
5842041f4e65fad6a7708a7b,2024_02_17,33.41209545530049,-79.13026341393126,South Jetty,1,0,0.23800000000000002,12,12,"CLEAR,NIGHT_CLEAR,NIGHT_CLEAR,NIGHT_CLEAR,NIGHT_CLEAR","Onshore,Onshore,Onshore,Onshore,Onshore",5
5842041f4e65fad6a7708a7c,2024_02_17,32.31115640606869,-80.48564,Fripp Island,0.2,0.169192,0.264364,13,13,"CLOUDY,NIGHT_CLEAR,NIGHT_CLEAR,NIGHT_CLEAR,NIGHT_CLEAR","Onshore,Onshore,Onshore,Onshore,Onshore",5
5842041f4e65fad6a7708a7d,2024_02_17,32.14365226036034,-80.74402,Hilton Head Island,0,0,0.108,13,13,"CLOUDY,NIGHT_CLEAR,NIGHT_CLEAR,NIGHT_OVERCAST,NIGHT_CLEAR","Onshore,Cross-shore,Onshore,Onshore,Cross-shore",5
5842041f4e65fad6a7708a7e,2024_02_17,29.70405364733744,-81.22426004725459,Matanzas Inlet,1,0,0.254,16,16,"OVERCAST,NIGHT_OVERCAST,NIGHT_CLOUDY,NIGHT_MOSTLY_CLOUDY,NIGHT_CLEAR","Onshore,Cross-shore,Cross-shore,Offshore,Offshore",5
5842041f4e65fad6a7708a81,2024_02_17,29.76878537149042,-81.25109,Crescent Beach,1,0,0.266,16,16,"OVERCAST,NIGHT_OVERCAST,NIGHT_OVERCAST,NIGHT_MOSTLY_CLOUDY,NIGHT_CLEAR","Onshore,Cross-shore,Cross-shore,Offshore,Offshore",5
5842041f4e65fad6a7708a82,2024_02_17,32.80251718689188,-79.73221919500764,Wild Dunes,1,0.094,0.4,12,12,"CLEAR,NIGHT_CLEAR,NIGHT_CLEAR,NIGHT_CLEAR,NIGHT_CLEAR","Onshore,Onshore,Onshore,Onshore,Onshore",5
5842041f4e65fad6a7708a84,2024_02_17,32.75733539419244,-79.83258856064796,Bert's Bar,0,0,0.228,12,12,"CLEAR,NIGHT_CLEAR,NIGHT_CLEAR,NIGHT_CLEAR,NIGHT_CLEAR","Onshore,Onshore,Onshore,Onshore,Onshore",5
5842041f4e65fad6a7708a85,2024_02_17,32.66829212943039,-79.90735,Washout,0.234,0.024,0.2945,13,12,"CLEAR,NIGHT_CLEAR,NIGHT_CLEAR,NIGHT_CLEAR,NIGHT_CLEAR","Cross-shore,Cross-shore,Cross-shore,Onshore,Onshore",5
5842041f4e65fad6a7708a86,2024_02_17,32.78452968219067,-79.78540233488354,The Pier/Windjammer,1,0.088,0.392,12,12,"CLEAR,NIGHT_CLEAR,NIGHT_CLEAR,NIGHT_CLEAR,NIGHT_CLEAR","Onshore,Onshore,Onshore,Onshore,Onshore",5
5842041f4e65fad6a7708a87,2024_02_17,29.86618162637438,-81.2662150259608,Anastasia Park (The Entrance),1,0,0.266,16,16,"MIST,NIGHT_OVERCAST,NIGHT_CLEAR,NIGHT_CLEAR,NIGHT_CLEAR","Onshore,Cross-shore,Cross-shore,Offshore,Offshore",5
5842041f4e65fad6a7708a89,2024_02_17,29.89149785916623,-81.2723223244215,Blowholes,1.1,0.1524,0.48400000000000004,22,20,"MIST,NIGHT_MIST,NIGHT_MIST,NIGHT_MOSTLY_CLEAR,NIGHT_CLEAR","Onshore,Cross-shore,Cross-shore,Offshore,Offshore",5
5842041f4e65fad6a7708a8a,2024_02_17,30.16227112983666,-81.35502907491218,Crossroads,1.9,0.1524,0.526,22,20,"OVERCAST,NIGHT_OVERCAST,NIGHT_CLEAR,NIGHT_CLEAR,NIGHT_MIST","Cross-shore,Cross-shore,Cross-shore,Cross-shore,Cross-shore",5
5842041f4e65fad6a7708a8b,2024_02_17,30.19308537587637,-81.36314247820911,Sawgrass,1.9,0.1524,0.526,22,20,"CLOUDY,NIGHT_OVERCAST,NIGHT_CLEAR,NIGHT_CLEAR,NIGHT_LIGHT_RAIN","Cross-shore,Cross-shore,Cross-shore,Cross-shore,Offshore",5
5842041f4e65fad6a7708a8c,2024_02_17,30.34696027700899,-81.39451,18th Street,1,0.168362,0.263066,15,15,"CLEAR,NIGHT_CLOUDY,NIGHT_CLOUDY,NIGHT_DRIZZLE,NIGHT_CLOUDY","Onshore,Onshore,Offshore,Offshore,Cross-shore",5
5842041f4e65fad6a7708a8d,2024_02_17,30.381793,-81.39686,Mayport Poles,1,0.014,0.318,14,14,"DRIZZLE,NIGHT_CLEAR,NIGHT_OVERCAST,NIGHT_OVERCAST,NIGHT_DRIZZLE","Onshore,Onshore,Onshore,Offshore,Cross-shore",5
5842041f4e65fad6a7708a8e,2024_02_17,30.390516,-81.395591,Blue Roofs,2,0.060000000000000005,0.36,14,14,"DRIZZLE,NIGHT_CLEAR,NIGHT_OVERCAST,NIGHT_OVERCAST,NIGHT_CLEAR","Onshore,Onshore,Onshore,Offshore,Cross-shore",5
5842041f4e65fad6a7708a8f,2024_02_17,30.40517712722211,-81.40074116169004,Huguenot Park (North Jetty),1,0,0.28200000000000003,14,14,"DRIZZLE,NIGHT_CLEAR,NIGHT_OVERCAST,NIGHT_OVERCAST,NIGHT_CLEAR","Cross-shore,Onshore,Onshore,Cross-shore,Cross-shore",5
5842041f4e65fad6a7708a90,2024_02_17,30.47788918872762,-81.41055821335078,Talbot Island,2,0.5702463333333334,0.8485173333333332,15,14,"OVERCAST,NIGHT_CLEAR,NIGHT_CLEAR,NIGHT_RAIN,NIGHT_CLEAR","Onshore,Onshore,Onshore,Cross-shore,Cross-shore",5
5842041f4e65fad6a7708a91,2024_02_17,30.66753984549761,-81.42983,Main Beach,1,0,0.286,14,14,"OVERCAST,NIGHT_MIST,NIGHT_MIST,NIGHT_CLOUDY,NIGHT_BRIEF_SHOWERS_POSSIBLE","Onshore,Onshore,Onshore,Offshore,Cross-shore",5
5842041f4e65fad6a7708a92,2024_02_17,30.69983581209126,-81.42483,Ft. Clinch State Park,1,0.002,0.3,14,14,"CLEAR,NIGHT_CLOUDY,NIGHT_CLOUDY,NIGHT_OVERCAST,NIGHT_CLEAR","Onshore,Onshore,Onshore,Offshore,Offshore",5
5842041f4e65fad6a7708a93,2024_02_17,30.62059700777582,-81.437252942757425,Amelia Pier,1,0.018,0.32,14,14,"OVERCAST,NIGHT_OVERCAST,NIGHT_OVERCAST,NIGHT_CLOUDY,NIGHT_CLEAR","Onshore,Onshore,Onshore,Offshore,Cross-shore",5
5842041f4e65fad6a7708a95,2024_02_17,28.95125170929067,-80.83837,Bethune Beach,1.2,0.07,0.378,16,16,"OVERCAST,NIGHT_OVERCAST,NIGHT_CLOUDY,NIGHT_CLEAR,NIGHT_CLEAR","Offshore,Offshore,Offshore,Offshore,Offshore",5
5842041f4e65fad6a7708a96,2024_02_17,29.03874288905362,-80.8933424949646,Flagler Ave.,2,0.2978,0.6824,22,21,"OVERCAST,NIGHT_OVERCAST,NIGHT_CLOUDY,NIGHT_CLEAR,NIGHT_CLEAR","Offshore,Offshore,Offshore,Offshore,Offshore",5
5842041f4e65fad6a7708a98,2024_02_17,30.332297686992757,-81.39319,Atlantic Beach,1,0.152082,0.237628,15,15,"CLEAR,NIGHT_CLOUDY,NIGHT_CLOUDY,NIGHT_DRIZZLE,NIGHT_CLOUDY","Onshore,Onshore,Offshore,Offshore,Cross-shore",5
5842041f4e65fad6a7708a99,2024_02_17,29.87530059952514,-81.26757958498874,Middles,1.1,0.1524,0.49000000000000005,22,20,"MIST,NIGHT_MIST,NIGHT_MIST,NIGHT_MOSTLY_CLEAR,NIGHT_CLEAR","Onshore,Cross-shore,Cross-shore,Offshore,Offshore",5
5842041f4e65fad6a7708a9a,2024_02_17,29.146475528378218,-80.96347,Sunglow Pier,1,0.02,0.324,16,16,"MOSTLY_CLOUDY,NIGHT_OVERCAST,NIGHT_CLOUDY,NIGHT_CLEAR,NIGHT_CLEAR","Offshore,Offshore,Offshore,Offshore,Offshore",5
5842041f4e65fad6a7708a9b,2024_02_17,30.02251238001095,-81.32183077344881,Gate Station,1.1,0.1524,0.486,22,20,"CLOUDY,NIGHT_CLOUDY,NIGHT_CLEAR,NIGHT_CLEAR,NIGHT_MOSTLY_CLOUDY","Cross-shore,Cross-shore,Onshore,Cross-shore,Offshore",5
5842041f4e65fad6a7708a9c,2024_02_17,29.33976495417899,-81.0606,Bicentennial Park,1,0.028,0.332,16,16,"MOSTLY_CLOUDY,NIGHT_OVERCAST,NIGHT_CLOUDY,NIGHT_CLEAR,NIGHT_CLEAR","Cross-shore,Offshore,Offshore,Offshore,Offshore",5
5842041f4e65fad6a7708a9d,2024_02_17,29.08257353385602,-80.92136998257725,Ponce Inlet,2.5,0.505,0.9400000000000001,17,16,"MOSTLY_CLOUDY,NIGHT_OVERCAST,NIGHT_CLOUDY,NIGHT_CLEAR,NIGHT_MOSTLY_CLEAR","Offshore,Offshore,Offshore,Offshore,Offshore",5
5842041f4e65fad6a7708a9f,2024_02_17,27.862962005874696,-80.44668,Sebastian Inlet,2.432,0.674413,0.9312130000000001,21,19,"CLEAR,NIGHT_CLEAR,NIGHT_CLEAR,NIGHT_CLEAR,NIGHT_CLEAR","Onshore,Onshore,Cross-shore,Offshore,Cross-shore",5
5842041f4e65fad6a7708aa0,2024_02_17,30.292626880836885,-81.38579,Jacksonville Beach Pier,2,0.5013333333333333,0.797,15,14,"CLOUDY,NIGHT_OVERCAST,NIGHT_OVERCAST,NIGHT_DRIZZLE,NIGHT_OVERCAST","Cross-shore,Cross-shore,Cross-shore,Offshore,Onshore",5
5842041f4e65fad6a7708aa1,2024_02_17,29.22878213864532,-81.00551,Main Street North,1,0.343244,0.51335,16,16,"MOSTLY_CLOUDY,NIGHT_OVERCAST,NIGHT_CLOUDY,NIGHT_CLEAR,NIGHT_CLEAR","Cross-shore,Cross-shore,Cross-shore,Cross-shore,Offshore",5
5842041f4e65fad6a7708aa2,2024_02_17,29.21860397328164,-81.0019,Daytona Beach,1.8,0.024,0.33,16,16,"MOSTLY_CLOUDY,NIGHT_OVERCAST,NIGHT_CLOUDY,NIGHT_CLEAR,NIGHT_CLEAR","Cross-shore,Cross-shore,Cross-shore,Cross-shore,Offshore",5
5842041f4e65fad6a7708aa3,2024_02_17,27.47531255634912,-80.28914,Ft. Pierce Inlet,1.934,0.5123333333333333,0.941,21,19,"CLEAR,NIGHT_OVERCAST,NIGHT_CLEAR,NIGHT_OVERCAST,NIGHT_CLEAR","Cross-shore,Cross-shore,Cross-shore,Offshore,Offshore",5
5842041f4e65fad6a7708aa4,2024_02_17,29.29239875585548,-81.0386,Ormond Beach,1.2,0.028,0.33,16,16,"MOSTLY_CLOUDY,NIGHT_OVERCAST,NIGHT_CLOUDY,NIGHT_CLEAR,NIGHT_CLEAR","Offshore,Offshore,Offshore,Offshore,Offshore",5
5842041f4e65fad6a7708aa5,2024_02_17,29.91629441498523,-81.28801,Vilano,1,0,0.25,15,15,"OVERCAST,NIGHT_OVERCAST,NIGHT_CLEAR,NIGHT_MOSTLY_CLEAR,NIGHT_CLEAR","Onshore,Cross-shore,Cross-shore,Offshore,Offshore",5
5842041f4e65fad6a7708aa6,2024_02_17,27.876230736320828,-80.4551,Spanish House,2.1,0.5422,0.8506,20,19,"CLEAR,NIGHT_CLEAR,NIGHT_MOSTLY_CLOUDY,NIGHT_CLEAR,NIGHT_CLEAR","Onshore,Onshore,Cross-shore,Offshore,Cross-shore",5
5842041f4e65fad6a7708aa7,2024_02_17,28.64397251741012,-80.62328519781694,Playalinda,1.2,0.138,0.442,17,17,"MOSTLY_CLOUDY,NIGHT_MOSTLY_CLOUDY,NIGHT_MOSTLY_CLOUDY,NIGHT_CLEAR,NIGHT_CLEAR","Cross-shore,Cross-shore,Cross-shore,Cross-shore,Offshore",5
5842041f4e65fad6a7708aa8,2024_02_17,28.406142,-80.588858,Jetty Park,1.6,0.066,0.376,17,17,"CLEAR,NIGHT_CLEAR,NIGHT_CLEAR,NIGHT_CLEAR,NIGHT_CLEAR","Cross-shore,Cross-shore,Onshore,Onshore,Cross-shore",5
5842041f4e65fad6a7708aa9,2024_02_17,28.49083243010974,-80.58001715986319,Kennedy Space Center,1,0.152,0.45799999999999996,17,17,"CLOUDY,NIGHT_CLEAR,NIGHT_MOSTLY_CLOUDY,NIGHT_CLEAR,NIGHT_CLEAR","Cross-shore,Cross-shore,Offshore,Offshore,Offshore",5
5842041f4e65fad6a7708aab,2024_02_17,28.336757013024314,-80.60568,Lori Wilson Park,1,0.1784,0.4868,18,17,"CLEAR,NIGHT_CLEAR,NIGHT_CLEAR,NIGHT_CLEAR,NIGHT_CLEAR","Onshore,Onshore,Cross-shore,Cross-shore,Cross-shore",5
5842041f4e65fad6a7708aad,2024_02_17,27.76388821683801,-80.3962958234027,Wabasso,1.2,0.196,0.502,21,21,"CLEAR,NIGHT_CLEAR,NIGHT_CLEAR,NIGHT_CLEAR,NIGHT_CLEAR","Cross-shore,Cross-shore,Cross-shore,Offshore,Cross-shore",5
5842041f4e65fad6a7708aae,2024_02_17,27.521583322459,-80.30987620353699,P.V. Martin's,2.1,0.6172,0.9296,21,19,"CLEAR,NIGHT_CLEAR,NIGHT_CLOUDY,NIGHT_OVERCAST,NIGHT_CLEAR","Cross-shore,Cross-shore,Cross-shore,Offshore,Offshore",5
5842041f4e65fad6a7708aaf,2024_02_17,27.644996047720046,-80.35242676734924,Riomar,1.4,0.5972,0.9076000000000001,21,19,"CLEAR,NIGHT_CLEAR,NIGHT_CLEAR,NIGHT_CLEAR,NIGHT_CLEAR","Cross-shore,Cross-shore,Cross-shore,Offshore,Offshore",5
5842041f4e65fad6a7708ab1,2024_02_17,27.670121806659253,-80.36026954650879,Vero Pier,2.866,0.5902,0.9006,21,19,"CLEAR,NIGHT_CLEAR,NIGHT_MOSTLY_CLOUDY,NIGHT_CLOUDY,NIGHT_CLEAR","Cross-shore,Onshore,Offshore,Offshore,Offshore",5
5842041f4e65fad6a7708ab2,2024_02_17,28.047705032021486,-80.54680109024048,Spessard Holland,1.3,0.5389846666666667,0.8374366666666666,20,19,"CLEAR,NIGHT_CLEAR,NIGHT_CLEAR,NIGHT_CLEAR,NIGHT_CLEAR","Cross-shore,Cross-shore,Cross-shore,Cross-shore,Offshore",5
5842041f4e65fad6a7708ab7,2024_02_17,28.135426226217064,-80.57895541191101,The Radisson,1.9,0.3588,0.6692,19,18,"CLEAR,NIGHT_CLEAR,NIGHT_CLOUDY,NIGHT_CLEAR,NIGHT_CLEAR","Onshore,Onshore,Onshore,Cross-shore,Offshore",5
5842041f4e65fad6a7708ab8,2024_02_17,28.26664623907351,-80.60448467731476,Picnic Tables,2,0.214,0.52,17,17,"CLEAR,NIGHT_CLEAR,NIGHT_CLEAR,NIGHT_CLEAR,NIGHT_CLEAR","Onshore,Cross-shore,Cross-shore,Cross-shore,Cross-shore",5
5842041f4e65fad6a7708ab9,2024_02_17,28.200840983180232,-80.59493,Perkins,2,0.34880000000000005,0.7313999999999999,19,18,"CLEAR,NIGHT_CLEAR,NIGHT_CLEAR,NIGHT_CLEAR,NIGHT_CLEAR","Onshore,Cross-shore,Cross-shore,Cross-shore,Offshore",5
5842041f4e65fad6a7708aba,2024_02_17,28.185652556759443,-80.59154,RC's,1.166,0.52,0.953,19,18,"CLEAR,NIGHT_MOSTLY_CLEAR,NIGHT_CLEAR,NIGHT_CLEAR,NIGHT_CLEAR","Onshore,Onshore,Onshore,Onshore,Offshore",5
5842041f4e65fad6a7708abc,2024_02_17,28.252541991968208,-80.60269,2nd Light,2,0.224,0.526,17,17,"CLEAR,NIGHT_CLEAR,NIGHT_CLEAR,NIGHT_CLEAR,NIGHT_CLEAR","Onshore,Cross-shore,Cross-shore,Cross-shore,Cross-shore",5
5842041f4e65fad6a7708abd,2024_02_17,27.901611308716447,-80.4697,Bonsteel Park,2.666,0.5502,0.8526,20,19,"CLEAR,NIGHT_CLEAR,NIGHT_MOSTLY_CLOUDY,NIGHT_CLEAR,NIGHT_CLEAR","Onshore,Onshore,Cross-shore,Cross-shore,Cross-shore",5
5842041f4e65fad6a7708abe,2024_02_17,28.2423394657007,-80.60104,Hangar's Beach,2,0.3688,0.7424000000000001,19,18,"CLEAR,NIGHT_CLEAR,NIGHT_CLEAR,NIGHT_CLEAR,NIGHT_CLEAR","Onshore,Cross-shore,Cross-shore,Cross-shore,Offshore",5
5842041f4e65fad6a7708abf,2024_02_17,27.34018197146798,-80.23278,Walton Rocks,1.266,0.4088,0.7864,22,20,"CLEAR,NIGHT_CLEAR,NIGHT_CLEAR,NIGHT_CLEAR,NIGHT_CLEAR","Cross-shore,Cross-shore,Cross-shore,Cross-shore,Offshore",5
5842041f4e65fad6a7708ac0,2024_02_17,25.80407401902198,-80.1222227290161,30th Street,1,0.018,0.324,23,23,"CLEAR,NIGHT_MOSTLY_CLOUDY,NIGHT_CLEAR,NIGHT_CLEAR,NIGHT_CLEAR","Cross-shore,Cross-shore,Cross-shore,Cross-shore,Cross-shore",5
5842041f4e65fad6a7708ac1,2024_02_17,25.76570280215999,-80.12983304957051,South Beach,0,0,0.15073333333333333,24,23,"CLEAR,NIGHT_MOSTLY_CLOUDY,NIGHT_CLEAR,NIGHT_CLEAR,NIGHT_CLEAR","Cross-shore,Cross-shore,Cross-shore,Cross-shore,Cross-shore",5
5842041f4e65fad6a7708ac2,2024_02_17,26.058022412197,-80.10873562327671,Dania Pier,1,0.096,0.402,23,23,"CLEAR,NIGHT_CLEAR,NIGHT_CLEAR,NIGHT_CLEAR,NIGHT_CLEAR","Cross-shore,Cross-shore,Cross-shore,Cross-shore,Cross-shore",5
5842041f4e65fad6a7708ac3,2024_02_17,26.04825428257198,-80.11153150137932,Franklin Street,1.4,0.128,0.436,23,23,"CLEAR,NIGHT_CLEAR,NIGHT_CLEAR,NIGHT_CLEAR,NIGHT_CLEAR","Cross-shore,Cross-shore,Cross-shore,Cross-shore,Cross-shore",5
5842041f4e65fad6a7708ac4,2024_02_17,26.09086461141498,-80.10728410144065,John Lloyd State Park,1,0.116,0.42,23,23,"CLEAR,NIGHT_CLEAR,NIGHT_CLEAR,NIGHT_CLEAR,NIGHT_CLOUDY","Cross-shore,Cross-shore,Cross-shore,Cross-shore,Cross-shore",5
5842041f4e65fad6a7708ac5,2024_02_17,26.0971397396683,-80.10298876028907,Spoils,0.4,0.094,0.396,23,23,"CLEAR,NIGHT_CLEAR,NIGHT_CLEAR,NIGHT_CLEAR,NIGHT_CLEAR","Cross-shore,Cross-shore,Cross-shore,Cross-shore,Cross-shore",5
5842041f4e65fad6a7708ac6,2024_02_17,26.18920557475824,-80.09224470008016,Commercial Pier,1,0.13,0.434,23,23,"CLEAR,NIGHT_CLEAR,NIGHT_CLEAR,NIGHT_CLEAR,NIGHT_CLEAR","Cross-shore,Cross-shore,Cross-shore,Cross-shore,Cross-shore",5
5842041f4e65fad6a7708ac7,2024_02_17,28.289851576629342,-80.6063,16th St. South,0.866,0.1804,0.4858,18,17,"CLEAR,NIGHT_CLEAR,NIGHT_CLEAR,NIGHT_CLEAR,NIGHT_CLEAR","Onshore,Cross-shore,Cross-shore,Cross-shore,Cross-shore",5
5842041f4e65fad6a7708ac8,2024_02_17,26.23467460139735,-80.08739675534814,Pompano Pier,0.866,0,0.1802,24,23,"CLEAR,NIGHT_CLEAR,NIGHT_CLEAR,NIGHT_CLEAR,NIGHT_CLEAR","Onshore,Cross-shore,Cross-shore,Cross-shore,Cross-shore",5
5842041f4e65fad6a7708acb,2024_02_17,26.44179551370651,-80.05928855229453,Atlantic Dunes Park,0.866,0.10127799999999999,0.266618,23,22,"CLEAR,NIGHT_CLEAR,NIGHT_CLEAR,NIGHT_CLEAR,NIGHT_CLEAR","Onshore,Onshore,Onshore,Onshore,Onshore",5
5842041f4e65fad6a7708acd,2024_02_17,26.62215707439298,-80.03599398392342,Hilton Hotel Backyard,1,0.2954,0.5998000000000001,23,22,"CLEAR,NIGHT_CLEAR,NIGHT_CLEAR,NIGHT_CLEAR,NIGHT_CLEAR","Onshore,Onshore,Cross-shore,Cross-shore,Cross-shore",5
5842041f4e65fad6a7708ace,2024_02_17,26.96418190555367,-80.07769168113562,Coral Cove Park,1.334,0.5448,0.8552,22,21,"CLEAR,NIGHT_CLEAR,NIGHT_CLEAR,NIGHT_CLEAR,NIGHT_CLEAR","Cross-shore,Cross-shore,Cross-shore,Cross-shore,Cross-shore",5
5842041f4e65fad6a7708acf,2024_02_17,26.7029496416037,-80.0318372872607,Palm Beach,1.5,0.32839999999999997,0.6348,23,22,"CLEAR,NIGHT_CLEAR,NIGHT_CLEAR,NIGHT_CLEAR,NIGHT_CLEAR","Cross-shore,Onshore,Cross-shore,Cross-shore,Cross-shore",5
5842041f4e65fad6a7708ad0,2024_02_17,26.97679878167375,-80.08141631388132,Blowing Rocks,1.334,0.5038,0.8122,22,21,"CLEAR,NIGHT_CLEAR,NIGHT_CLEAR,NIGHT_OVERCAST,NIGHT_CLEAR","Cross-shore,Cross-shore,Cross-shore,Cross-shore,Cross-shore",5
5842041f4e65fad6a7708ad2,2024_02_17,26.45661880078336,-80.05699952321751,Delray Beach,0.866,0.04299999999999999,0.2712,23,22,"CLEAR,NIGHT_CLEAR,NIGHT_CLEAR,NIGHT_CLEAR,NIGHT_CLEAR","Onshore,Onshore,Cross-shore,Onshore,Cross-shore",5
5842041f4e65fad6a7708ad3,2024_02_17,27.205685534312778,-80.16826629638672,Fletcher's,1.6,0.4318,0.7402000000000001,22,21,"CLEAR,NIGHT_CLEAR,NIGHT_CLEAR,NIGHT_CLEAR,NIGHT_CLEAR","Cross-shore,Cross-shore,Cross-shore,Offshore,Offshore",5
5842041f4e65fad6a7708ad5,2024_02_17,26.5848450388814,-80.03649735753257,Lantana Public Beach,0.866,0.3234,0.6298,23,22,"CLEAR,NIGHT_CLEAR,NIGHT_CLEAR,NIGHT_CLEAR,NIGHT_MOSTLY_CLOUDY","Cross-shore,Cross-shore,Cross-shore,Cross-shore,Cross-shore",5
5842041f4e65fad6a7708ad6,2024_02_17,25.77468432731322,-80.12884045797499,5th Street,1,0.026,0.334,23,23,"CLOUDY,NIGHT_MOSTLY_CLOUDY,NIGHT_CLEAR,NIGHT_CLEAR,NIGHT_CLEAR","Cross-shore,Cross-shore,Cross-shore,Cross-shore,Cross-shore",5
5842041f4e65fad6a7708ad7,2024_02_17,25.795157990715975,-80.12527585029602,21st Street,1.4,0.032,0.338,23,23,"CLOUDY,NIGHT_MOSTLY_CLOUDY,NIGHT_CLEAR,NIGHT_CLEAR,NIGHT_CLEAR","Cross-shore,Cross-shore,Cross-shore,Cross-shore,Cross-shore",5
5842041f4e65fad6a7708ad8,2024_02_17,25.897806453088073,-80.1211827993393,Haulover Inlet (South Jetty),1,0.16,0.46599999999999997,23,23,"CLEAR,NIGHT_CLEAR,NIGHT_CLEAR,NIGHT_CLEAR,NIGHT_CLEAR","Cross-shore,Cross-shore,Cross-shore,Cross-shore,Cross-shore",5
5842041f4e65fad6a7708ad9,2024_02_17,25.90147392328634,-80.12110769748688,Haulover Inlet (North Jetty),1,0.124,0.428,23,23,"CLEAR,NIGHT_CLEAR,NIGHT_CLEAR,NIGHT_CLEAR,NIGHT_CLEAR","Cross-shore,Cross-shore,Cross-shore,Cross-shore,Cross-shore",5
5842041f4e65fad6a7708ada,2024_02_17,25.87049374242476,-80.11828560342356,85th Street,1.4,0.07,0.376,23,23,"CLEAR,NIGHT_MOSTLY_CLOUDY,NIGHT_CLEAR,NIGHT_CLEAR,NIGHT_CLEAR","Cross-shore,Cross-shore,Cross-shore,Cross-shore,Offshore",5
5842041f4e65fad6a7708adb,2024_02_17,26.25486382031396,-80.0805,Hillsboro Inlet,0.866,0.15697,0.39767,27,26,"CLEAR,NIGHT_CLEAR,NIGHT_CLEAR,NIGHT_CLEAR,NIGHT_CLEAR","Onshore,Onshore,Onshore,Cross-shore,Cross-shore",5
5842041f4e65fad6a7708add,2024_02_17,26.29705672965111,-80.07612393274484,Hillsboro Beach,1.066,0.027,0.33540000000000003,27,26,"CLEAR,NIGHT_CLEAR,NIGHT_CLEAR,NIGHT_CLEAR,NIGHT_CLEAR","Onshore,Onshore,Cross-shore,Cross-shore,Cross-shore",5
5842041f4e65fad6a7708ade,2024_02_17,26.36569956413266,-80.06717936869391,Red Reef Park,0.866,0.09599999999999999,0.4024000000000001,24,22,"CLEAR,NIGHT_CLEAR,NIGHT_CLEAR,NIGHT_CLEAR,NIGHT_CLEAR","Onshore,Onshore,Cross-shore,Cross-shore,Cross-shore",5
5842041f4e65fad6a7708adf,2024_02_17,26.54593873498907,-80.04104359585143,Boynton Beach Inlet (Northside),0.866,0.22240000000000001,0.5307999999999999,23,22,"CLEAR,NIGHT_CLEAR,NIGHT_CLEAR,NIGHT_CLEAR,NIGHT_MOSTLY_CLOUDY","Cross-shore,Cross-shore,Cross-shore,Cross-shore,Cross-shore",5
5842041f4e65fad6a7708ae0,2024_02_17,26.92746505629809,-80.06721138954163,Corners,1.2,0.605229,0.847084,23,22,"CLEAR,NIGHT_CLEAR,NIGHT_CLEAR,NIGHT_CLOUDY,NIGHT_CLEAR","Cross-shore,Cross-shore,Cross-shore,Cross-shore,Cross-shore",5
5842041f4e65fad6a7708ae1,2024_02_17,26.76983179886943,-80.03413481937037,The Cove,1.2,0.33140000000000003,0.6378,23,22,"CLEAR,NIGHT_CLEAR,NIGHT_CLEAR,NIGHT_CLEAR,NIGHT_CLEAR","Cross-shore,Cross-shore,Cross-shore,Cross-shore,Cross-shore",5
5842041f4e65fad6a7708ae3,2024_02_17,26.39224485175123,-80.0650461233983,Japanese Rock,1.066,0.087,0.3974000000000001,24,22,"CLEAR,NIGHT_CLEAR,NIGHT_CLEAR,NIGHT_CLEAR,NIGHT_CLEAR","Onshore,Cross-shore,Cross-shore,Cross-shore,Cross-shore",5
5842041f4e65fad6a7708ae4,2024_02_17,29.94810928551321,-85.42545434612366,Mexico Beach,0,0,0.06,16,16,"CLEAR,NIGHT_CLOUDY,NIGHT_CLEAR,NIGHT_DRIZZLE,NIGHT_DRIZZLE","Onshore,Cross-shore,Cross-shore,Cross-shore,Cross-shore",5
5842041f4e65fad6a7708ae5,2024_02_17,30.11752500931267,-85.7306039427457,Shell Island,0,0,0.078,16,16,"CLEAR,NIGHT_CLEAR,NIGHT_CLEAR,NIGHT_DRIZZLE,NIGHT_CLEAR","Cross-shore,Cross-shore,Offshore,Offshore,Onshore",5
5842041f4e65fad6a7708ae7,2024_02_17,29.94901514702268,-85.43042978529013,D.J.'s,0,0,0.06,16,16,"CLEAR,NIGHT_CLOUDY,NIGHT_CLEAR,NIGHT_DRIZZLE,NIGHT_DRIZZLE","Cross-shore,Cross-shore,Cross-shore,Offshore,Onshore",5
5842041f4e65fad6a7708ae8,2024_02_17,30.12396111446713,-85.73636797034509,St. Andrew's Park,0,0,0.08162,16,15,"CLEAR,NIGHT_CLEAR,NIGHT_CLEAR,NIGHT_DRIZZLE,NIGHT_CLEAR","Onshore,Cross-shore,Cross-shore,Offshore,Cross-shore",5
5842041f4e65fad6a7708ae9,2024_02_17,30.16781531760227,-85.79604918824084,Spinnaker,0,0,0.07162,16,15,"CLEAR,NIGHT_CLEAR,NIGHT_BRIEF_SHOWERS_POSSIBLE,NIGHT_BRIEF_SHOWERS_POSSIBLE,NIGHT_CLEAR","Cross-shore,Offshore,Offshore,Offshore,Onshore",5
5842041f4e65fad6a7708aea,2024_02_17,30.18877050526983,-85.83243530466363,Wood Pier,0,0,0.08124,16,15,"CLEAR,NIGHT_CLEAR,NIGHT_LIGHT_RAIN,NIGHT_BRIEF_SHOWERS_POSSIBLE,NIGHT_CLOUDY","Cross-shore,Cross-shore,Cross-shore,Offshore,Onshore",5
5842041f4e65fad6a7708aeb,2024_02_17,30.2676205895555,-85.9938578144113,Inlet Beach Pier,0,0,0.09524,16,15,"OVERCAST,NIGHT_CLEAR,NIGHT_BRIEF_SHOWERS_POSSIBLE,NIGHT_BRIEF_SHOWERS_POSSIBLE,NIGHT_DRIZZLE","Cross-shore,Offshore,Offshore,Cross-shore,Onshore",5
5842041f4e65fad6a7708aec,2024_02_17,30.31815542759119,-86.1383771867044,Bud and Alley's,0,0,0.10324,16,15,"CLOUDY,NIGHT_DRIZZLE,NIGHT_DRIZZLE,NIGHT_CLOUDY,NIGHT_CLEAR","Offshore,Cross-shore,Cross-shore,Onshore,Onshore",5
5842041f4e65fad6a7708aed,2024_02_17,30.32686082481946,-86.16650590275447,Grayton Beach,0,0,0.11474000000000001,16,15,"OVERCAST,NIGHT_DRIZZLE,NIGHT_DRIZZLE,NIGHT_OVERCAST,NIGHT_CLEAR","Cross-shore,Cross-shore,Onshore,Onshore,Onshore",5
5842041f4e65fad6a7708aee,2024_02_17,30.33661488976303,-86.20094370184573,Blue Mountain Beach,0,0,0.10724,16,15,"CLOUDY,NIGHT_BRIEF_SHOWERS_POSSIBLE,NIGHT_DRIZZLE,NIGHT_OVERCAST,NIGHT_OVERCAST","Offshore,Cross-shore,Cross-shore,Onshore,Onshore",5
5842041f4e65fad6a7708aef,2024_02_17,30.37677202831587,-86.38513326644897,Pompano Joe's,0,0,0.12124000000000001,16,15,"BRIEF_SHOWERS_POSSIBLE,NIGHT_DRIZZLE,NIGHT_DRIZZLE,NIGHT_DRIZZLE,NIGHT_DRIZZLE","Cross-shore,Onshore,Onshore,Onshore,Onshore",5
5842041f4e65fad6a7708af0,2024_02_17,30.37429731725911,-86.36686966905461,Seascape,0,0,0.11874,16,15,"BRIEF_SHOWERS_POSSIBLE,NIGHT_DRIZZLE,NIGHT_DRIZZLE,NIGHT_DRIZZLE,NIGHT_CLEAR","Cross-shore,Onshore,Onshore,Onshore,Onshore",5
5842041f4e65fad6a7708af1,2024_02_17,30.382815988547186,-86.45838975906372,The Back Porch,0,0,0.12274,16,15,"CLEAR,NIGHT_DRIZZLE,NIGHT_DRIZZLE,NIGHT_CLOUDY,NIGHT_CLEAR","Cross-shore,Onshore,Onshore,Onshore,Onshore",5
5842041f4e65fad6a7708af2,2024_02_17,30.21207176798612,-85.87989730830542,Panama City Pier,0,0,0.08324000000000001,16,15,"CLOUDY,NIGHT_CLEAR,NIGHT_DRIZZLE,NIGHT_DRIZZLE,NIGHT_CLOUDY","Onshore,Cross-shore,Cross-shore,Cross-shore,Onshore",5
5842041f4e65fad6a7708af3,2024_02_17,30.37521499110326,-86.37169944119874,Whale's Tail,0,0,0.11124,16,15,"BRIEF_SHOWERS_POSSIBLE,NIGHT_DRIZZLE,NIGHT_DRIZZLE,NIGHT_DRIZZLE,NIGHT_OVERCAST","Cross-shore,Onshore,Onshore,Onshore,Onshore",5
5842041f4e65fad6a7708af4,2024_02_17,30.38120596658251,-86.43045768307817,Old Crystal Pier,0,0,0.10924,16,15,"CLEAR,NIGHT_DRIZZLE,NIGHT_DRIZZLE,NIGHT_DRIZZLE,NIGHT_CLEAR","Cross-shore,Onshore,Onshore,Onshore,Onshore",5
5842041f4e65fad6a7708af5,2024_02_17,30.38090573159031,-86.50654862060082,Jetty East,0,0,0.11874,16,15,"CLEAR,NIGHT_DRIZZLE,NIGHT_DRIZZLE,NIGHT_OVERCAST,NIGHT_CLEAR","Cross-shore,Onshore,Onshore,Onshore,Onshore",5
5842041f4e65fad6a7708af6,2024_02_17,30.37584509640838,-86.50563273884252,HMO's,0,0,0.11874,16,15,"CLEAR,NIGHT_DRIZZLE,NIGHT_DRIZZLE,NIGHT_OVERCAST,NIGHT_CLEAR","Cross-shore,Onshore,Onshore,Onshore,Onshore",5
5842041f4e65fad6a7708af7,2024_02_17,30.38124006131522,-86.50052254675529,Two By Fours,0,0,0.12074,16,15,"CLEAR,NIGHT_DRIZZLE,NIGHT_DRIZZLE,NIGHT_CLOUDY,NIGHT_OVERCAST","Cross-shore,Onshore,Onshore,Onshore,Onshore",5
5842041f4e65fad6a7708af8,2024_02_17,30.38250751017554,-86.45775957227345,The Pumphouse,0,0,0.12074,16,15,"CLEAR,NIGHT_DRIZZLE,NIGHT_DRIZZLE,NIGHT_CLOUDY,NIGHT_CLEAR","Cross-shore,Onshore,Onshore,Onshore,Onshore",5
5842041f4e65fad6a7708af9,2024_02_17,30.38655981578935,-86.52475380603576,NCO Club,0,0,0.11874,16,15,"CLEAR,NIGHT_DRIZZLE,NIGHT_DRIZZLE,NIGHT_OVERCAST,NIGHT_CLEAR","Cross-shore,Onshore,Onshore,Onshore,Onshore",5
5842041f4e65fad6a7708afa,2024_02_17,30.39024516541047,-86.59341,Okaloosa Pier,0,0,0.11874,16,15,"DRIZZLE,NIGHT_DRIZZLE,NIGHT_DRIZZLE,NIGHT_OVERCAST,NIGHT_CLEAR","Cross-shore,Onshore,Onshore,Onshore,Onshore",5
