_id,date,lat,lon,name,daily_mean_swell_rating,daily_mean_wave_height_min,daily_mean_wave_height_max,daily_mean_water_temperature_max,daily_mean_water_temperature_min,weather_per_timestamp,wind_per_timestamp,n_samples_per_day
5842041f4e65fad6a77087f9,2024_12_21,37.741668,-122.51038,South Ocean Beach,3,2.13984,2.60394,12,12,NIGHT_MIST,Cross-shore,1
5842041f4e65fad6a7708801,2024_12_21,37.49142,-122.50428,Maverick's,NA,2.04,2.44,12,12,NIGHT_MOSTLY_CLOUDY,Onshore,1
5842041f4e65fad6a7708804,2024_12_21,44.997,-124.018,Roads End,3,2.44,2.8,11,11,NIGHT_CLEAR,Cross-shore,1
5842041f4e65fad6a7708805,2024_12_21,36.95188851423011,-122.02522,Steamer Lane,3,1.15142,1.53787,12,12,NIGHT_MIST,Offshore,1
5842041f4e65fad6a7708806,2024_12_21,36.95918781542251,-122.02489,Cowells,2,0.15,0.46,12,12,NIGHT_MIST,Offshore,1
5842041f4e65fad6a7708807,2024_12_21,36.95468082526536,-121.97234,Pleasure Point,3,0.98147,1.2572,12,12,NIGHT_MIST,Offshore,1
5842041f4e65fad6a770880a,2024_12_21,35.37815414378748,-120.86589,Morro Bay,4,0.98,1.28,12,12,NIGHT_MIST,Offshore,1
5842041f4e65fad6a770880b,2024_12_21,36.95782765000708,-121.96729,Jack's,3,0.5932,0.90147,12,12,NIGHT_MIST,Offshore,1
5842041f4e65fad6a770880d,2024_12_21,34.29982939936656,-119.3489016603669,Gold Coast Beachbreaks,2,0.12,0.42,14,14,NIGHT_CLEAR,Onshore,1
5842041f4e65fad6a7708811,2024_12_21,34.245076,-119.26799,Ventura Harbor,3,1.02487,1.21567,13,13,NIGHT_CLEAR,Onshore,1
5842041f4e65fad6a7708813,2024_12_21,34.051,-118.964,County Line,3,0.36413,0.66493,14,14,NIGHT_CLEAR,Onshore,1
5842041f4e65fad6a7708814,2024_12_21,34.37256264378892,-119.47797,Rincon,2,0.28,0.58,14,14,NIGHT_CLEAR,Cross-shore,1
5842041f4e65fad6a7708817,2024_12_21,34.03096101876324,-118.68109,Malibu Third Point,3,0.34168,0.65002,15,15,NIGHT_OVERCAST,Offshore,1
5842041f4e65fad6a7708819,2024_12_21,33.984079047970035,-118.47382,Venice Beach,3,0.41,0.72,14,14,NIGHT_OVERCAST,Onshore,1
5842041f4e65fad6a770881e,2024_12_21,34.037508438646746,-118.5834,Topanga Beach,2,0.1758,0.47493,14,14,NIGHT_CLOUDY,Offshore,1
5842041f4e65fad6a7708820,2024_12_21,33.73954373690184,-118.11414,Seal Beach Jetty,3,0.32,0.63,14,14,NIGHT_MOSTLY_CLOUDY,Cross-shore,1
5842041f4e65fad6a7708822,2024_12_21,33.72309983348433,-118.08078,Anderson Street,1,-0.01552,0.2167,14,14,NIGHT_CLOUDY,Offshore,1
5842041f4e65fad6a7708827,2024_12_21,33.65574085629463,-118.00397,Huntington Beach Pier Northside,3,0.68195,0.98255,14,14,NIGHT_CLOUDY,Onshore,1
5842041f4e65fad6a7708828,2024_12_21,34.272041739333,-119.29976,C St.,3,0.5526,0.86691,13,13,NIGHT_CLEAR,Offshore,1
5842041f4e65fad6a770882a,2024_12_21,33.61555743705257,-117.93676,Newport Lower Jetties,3,0.35308,0.67941,14,14,NIGHT_CLOUDY,Offshore,1
5842041f4e65fad6a770882b,2024_12_21,33.5930302087,-117.88199,The Wedge,2,0.45,0.75,14,14,NIGHT_OVERCAST,Offshore,1
5842041f4e65fad6a770882e,2024_12_21,33.475793399792984,-117.72291,Salt Creek,3,0.55923,0.87557,14,14,NIGHT_MIST,Cross-shore,1
5842041f4e65fad6a7708830,2024_12_21,33.41800974113613,-117.61952,T-Street,3,0.38174,0.73298,14,14,NIGHT_MIST,Offshore,1
5842041f4e65fad6a7708832,2024_12_21,33.202391008646,-117.39475,Oceanside Harbor,3,0.54267,0.85909,14,14,NIGHT_MIST,Cross-shore,1
5842041f4e65fad6a7708835,2024_12_21,33.19477795952803,-117.38667,Oceanside Pier,3,0.29513,0.64531,14,14,NIGHT_MOSTLY_CLOUDY,Cross-shore,1
5842041f4e65fad6a7708837,2024_12_21,33.14948100706,-117.35029,Tamarack,2,0.25987,0.56813,16,16,NIGHT_MOSTLY_CLOUDY,Offshore,1
5842041f4e65fad6a7708839,2024_12_21,32.865777159358856,-117.25614,Scripps,3,0.60553,0.8878,14,14,NIGHT_MIST,Onshore,1
5842041f4e65fad6a770883a,2024_12_21,32.813094,-117.27381,Birdrock,3,0.64,0.95,16,16,NIGHT_MIST,Offshore,1
5842041f4e65fad6a770883b,2024_12_21,32.88338,-117.25571,Blacks,3,0.76993,1.1149,14,14,NIGHT_MIST,Onshore,1
5842041f4e65fad6a770883c,2024_12_21,32.82978974229765,-117.28162,Windansea,3,0.7116,1.032,14,14,NIGHT_MIST,Onshore,1
5842041f4e65fad6a770883d,2024_12_21,32.838278,-117.28396,Horseshoe,3,0.69,1,16,16,NIGHT_MIST,Onshore,1
5842041f4e65fad6a770883f,2024_12_21,32.75034717673179,-117.25337,Ocean Beach,3,0.94881,1.09022,14,14,NIGHT_MIST,Onshore,1
5842041f4e65fad6a7708840,2024_12_21,32.73693,-117.25718,Sunset Cliffs,3,0.69,1,16,16,NIGHT_MIST,Onshore,1
5842041f4e65fad6a7708841,2024_12_21,32.796582258728826,-117.25779,Pacific Beach,3,0.73391,1.0499,14,14,NIGHT_MIST,Offshore,1
5842041f4e65fad6a7708842,2024_12_21,32.776636,-117.25514,Mission Beach,3,0.7041,1.02367,14,14,NIGHT_MIST,Offshore,1
5842041f4e65fad6a7708844,2024_12_21,32.577195519016,-117.13475,Imperial Beach Pier,3,0.92,1.09,16,16,NIGHT_MOSTLY_CLOUDY,Cross-shore,1
5842041f4e65fad6a770884a,2024_12_21,42.88678181061,-70.80843,Seabrook,2,0.739,1.09658,7,6,NIGHT_CLEAR,Offshore,1
5842041f4e65fad6a770884e,2024_12_21,41.434181432898335,-71.45312,Narragansett,2,0.61,0.91,7,6,NIGHT_CLEAR,Offshore,1
5842041f4e65fad6a7708850,2024_12_21,40.582703230722,-73.65247,Lincoln Blvd,3,0.72539,1.03367,7,6,NIGHT_LIGHT_SNOW,Offshore,1
5842041f4e65fad6a7708852,2024_12_21,40.58342841721757,-73.81182,Rockaways,2.6666666666666665,0.67147,1.11147,7,6,NIGHT_CLEAR,Offshore,1
5842041f4e65fad6a7708853,2024_12_21,40.330474,-73.9734,Monmouth Beach,3,1.01,1.31,6,6,NIGHT_LIGHT_SNOW,Offshore,1
5842041f4e65fad6a7708856,2024_12_21,40.113,-74.028,Manasquan Inlet,3,0.95,1.25,6,6,NIGHT_SNOW,Offshore,1
5842041f4e65fad6a7708857,2024_12_21,39.941519877445664,-74.06829,Casino Pier,3,1.04,1.23,6,6,NIGHT_LIGHT_SNOW,Offshore,1
5842041f4e65fad6a7708858,2024_12_21,39.28223089949212,-74.55766,North End OC,3,0.98,1.29,7,6,NIGHT_MOSTLY_CLOUDY,Offshore,1
5842041f4e65fad6a770885b,2024_12_21,39.65080599934257,-74.17146,Ship Bottom,3,1.03,1.33,9,9,NIGHT_CLOUDY,Offshore,1
5842041f4e65fad6a7708863,2024_12_21,36.034151543144,-75.66791,Third Street,2,0.83,1.13,12,11,NIGHT_CLEAR,Cross-shore,1
5842041f4e65fad6a7708867,2024_12_21,35.605833221351425,-75.46303,S-Turns,1,0.67,0.97,13,13,NIGHT_CLEAR,Offshore,1
5842041f4e65fad6a770886d,2024_12_21,38.338461,-75.08117,Ocean City Boardwalk,3,0.86788,1.18234,9,8,NIGHT_CLOUDY,Offshore,1
5842041f4e65fad6a770886f,2024_12_21,29.844757212379562,-81.26136,A St.,2,0.43,0.74,18,18,NIGHT_CLEAR,Cross-shore,1
5842041f4e65fad6a7708871,2024_12_21,29.069417851135093,-80.90824,New Smyrna Beach,2,0.77,1.07,20,19,NIGHT_CLEAR,Cross-shore,1
5842041f4e65fad6a7708872,2024_12_21,28.367707417566,-80.60171,Cocoa Beach Pier,2,0.36,0.66,19,19,NIGHT_CLEAR,Offshore,1
5842041f4e65fad6a7708873,2024_12_21,28.091782738658846,-80.56479,Indialantic,2,0.57,0.87,21,19,NIGHT_CLEAR,Cross-shore,1
5842041f4e65fad6a7708876,2024_12_21,27.25392904143517,-80.19455,Jensen Beach,2,0.55,0.86,24,23,NIGHT_CLEAR,Cross-shore,1
5842041f4e65fad6a7708879,2024_12_21,26.76346795333825,-80.03607,Reef Road,2,0.58,0.89,25,23,NIGHT_CLEAR,Offshore,1
5842041f4e65fad6a770887c,2024_12_21,26.336499228484,-80.06956100463,Boca Raton Inlet,1,0.11,0.41,25,24,NIGHT_CLEAR,Offshore,1
5842041f4e65fad6a770887d,2024_12_21,26.31719311695038,-80.07453,Deerfield Beach Pier,2,0.20658,0.33855,26,24,NIGHT_CLEAR,Offshore,1
5842041f4e65fad6a7708881,2024_12_21,30.20276320866628,-85.85626528676136,"Spyglass Dr., Panama City",1,0,0.2,19,18,NIGHT_CLEAR,Offshore,1
5842041f4e65fad6a7708884,2024_12_21,33.39000832738053,-117.59852,Cottons,3,0.53,0.84,14,14,NIGHT_CLEAR,Offshore,1
5842041f4e65fad6a7708885,2024_12_21,33.359416282661,-117.54168,Trails,3,0.37,0.67,16,16,NIGHT_MOSTLY_CLOUDY,Cross-shore,1
5842041f4e65fad6a7708886,2024_12_21,33.38042605929805,-117.58332,Middles,3,0.47,0.78,16,16,NIGHT_CLEAR,Offshore,1
5842041f4e65fad6a7708887,2024_12_21,33.38445596302903,-117.59445,Upper Trestles,3,0.52,0.83,14,14,NIGHT_CLEAR,Offshore,1
5842041f4e65fad6a7708889,2024_12_21,28.944414,-95.28883,Surfside,1,0.16364,0.52599,20,20,NIGHT_CLEAR,Cross-shore,1
5842041f4e65fad6a770888a,2024_12_21,33.38143999849023,-117.58843,Lower Trestles,3,0.52577,0.89514,14,14,NIGHT_CLEAR,Offshore,1
5842041f4e65fad6a770888b,2024_12_21,33.379622288757,-117.57894,Church,3,0.51,0.81,14,14,NIGHT_CLEAR,Offshore,1
5842041f4e65fad6a770888d,2024_12_21,21.679,-158.042,Sunset Beach,3,5.27,6.3,26,25,NIGHT_MOSTLY_CLOUDY,Onshore,1
5842041f4e65fad6a770888e,2024_12_21,21.670550036401,-158.0482,Rocky Point,3,4.572,5.4864,26,25,NIGHT_CLEAR,Onshore,1
5842041f4e65fad6a770888f,2024_12_21,21.668,-158.05,Chambers,2,4.572,5.4864,26,26,NIGHT_CLEAR,Onshore,1
5842041f4e65fad6a7708890,2024_12_21,21.66522,-158.0526,Pipeline,3,4.92,5.88,26,25,NIGHT_CLEAR,Onshore,1
5842041f4e65fad6a7708891,2024_12_21,21.665,-158.054,Backdoor,3,4.92,5.88,26,25,NIGHT_CLEAR,Onshore,1
5842041f4e65fad6a7708892,2024_12_21,21.662,-158.057,Rockpile,2,5.21,6.23,26,26,NIGHT_CLEAR,Onshore,1
5842041f4e65fad6a7708893,2024_12_21,21.65870453806827,-158.06058,Log Cabins,3,4.13,4.94,26,26,NIGHT_CLEAR,Onshore,1
5842041f4e65fad6a7708894,2024_12_21,21.66203493640557,-158.05495,Off The Wall,2,4.572,6.096,26,26,NIGHT_CLEAR,Onshore,1
5842041f4e65fad6a7708895,2024_12_21,21.643,-158.067,Waimea Bay,NA,6.25,7.47,26,25,NIGHT_CLEAR,Onshore,1
5842041f4e65fad6a7708896,2024_12_21,21.622,-158.087,Hultin's,2,7.15,8.55,26,25,NIGHT_MOSTLY_CLOUDY,Cross-shore,1
5842041f4e65fad6a7708897,2024_12_21,21.623,-158.085,Jocko's,3,4.43,5.3,26,26,NIGHT_MOSTLY_CLOUDY,Offshore,1
5842041f4e65fad6a7708898,2024_12_21,21.62,-158.088,Laniakea,3,4.53,5.41,26,25,NIGHT_MOSTLY_CLOUDY,Offshore,1
5842041f4e65fad6a7708899,2024_12_21,21.625,-158.083,Chun's,2,2.4384,3.048,26,26,NIGHT_MOSTLY_CLOUDY,Cross-shore,1
5842041f4e65fad6a770889c,2024_12_21,21.286357895152136,-157.8515,Ala Moana Beach Park,2,0.11,0.41,26,26,NIGHT_MOSTLY_CLOUDY,Cross-shore,1
5842041f4e65fad6a770889d,2024_12_21,19.606,-155.978,Banyans,3,0.95,1.14,26,25,NIGHT_MIST,Cross-shore,1
5842041f4e65fad6a770889e,2024_12_21,20.029,-155.831,Kawaihae,3,0.49568,0.8931,26,26,NIGHT_MOSTLY_CLOUDY,Onshore,1
5842041f4e65fad6a770889f,2024_12_21,33.07541383424675,-117.3105,Grandview,3,0.42822,0.76911,16,16,NIGHT_MIST,Onshore,1
5842041f4e65fad6a77088a0,2024_12_21,33.065267421296596,-117.30577,Beacons,3,0.63169,0.93322,16,16,NIGHT_MIST,Onshore,1
5842041f4e65fad6a77088a2,2024_12_21,21.252,-157.805,Diamond Head,2,0.38204,0.6968,26,25,NIGHT_BRIEF_SHOWERS,Offshore,1
5842041f4e65fad6a77088a3,2024_12_21,33.04694255008896,-117.29966,Moonlight State Beach,3,0.37,0.68,16,16,NIGHT_MIST,Offshore,1
5842041f4e65fad6a77088a5,2024_12_21,33.08685865930869,-117.31532,Ponto,3,0.53,0.84,16,16,NIGHT_MIST,Onshore,1
5842041f4e65fad6a77088a6,2024_12_21,33.130343587871906,-117.33668,Terra Mar Point,2,0.2271,0.49875,14,14,NIGHT_MOSTLY_CLOUDY,Offshore,1
5842041f4e65fad6a77088af,2024_12_21,32.95916304183685,-117.26963,Del Mar,3,0.54,0.85,16,16,NIGHT_MIST,Cross-shore,1
5842041f4e65fad6a77088b0,2024_12_21,32.97527261243354,-117.2721061331305,Del Mar Rivermouth,3,0.63,0.93,16,16,NIGHT_MIST,Cross-shore,1
5842041f4e65fad6a77088b1,2024_12_21,33.01352178146273,-117.28219,Cardiff Reef,3,0.52117,0.77196,14,14,NIGHT_BRIEF_SHOWERS,Offshore,1
5842041f4e65fad6a77088b3,2024_12_21,33.00211185876003,-117.2811,Seaside Reef,3,0.6491,0.9495,14,14,NIGHT_MOSTLY_CLOUDY,Offshore,1
5842041f4e65fad6a77088b4,2024_12_21,33.0341859796287,-117.29552,Swami's,3,0.57107,0.85059,14,14,NIGHT_BRIEF_SHOWERS,Offshore,1
5842041f4e65fad6a77088b7,2024_12_21,33.04569760260221,-117.2994,D Street,3,0.58918,0.90072,16,16,NIGHT_MIST,Offshore,1
5842041f4e65fad6a77088b8,2024_12_21,33.02090944350196,-117.28535,San Elijo State Beach,3,0.27798,0.59214,14,14,NIGHT_BRIEF_SHOWERS,Offshore,1
5842041f4e65fad6a77088c2,2024_12_21,32.80662846492798,-117.26888,PB Point,3,0.57,0.88,16,16,NIGHT_MIST,Offshore,1
5842041f4e65fad6a77088c4,2024_12_21,32.8060476681448,-117.26479,Old Man's at Tourmaline,3,0.45459,0.75293,16,16,NIGHT_MIST,Cross-shore,1
5842041f4e65fad6a77088cb,2024_12_21,32.557056711256,-117.1327445020322,Tijuana Slough,3,0.34,0.64,16,16,NIGHT_CLEAR,Offshore,1
5842041f4e65fad6a77088cc,2024_12_21,32.863,-117.257,La Jolla Shores,3,0.45,0.75,16,16,NIGHT_MIST,Onshore,1
5842041f4e65fad6a77088ce,2024_12_21,32.67443657790586,-117.17421,Coronado Beach,2,0.15,0.45,16,16,NIGHT_MOSTLY_CLOUDY,Cross-shore,1
5842041f4e65fad6a77088cf,2024_12_21,33.40484417640326,-117.60749,San Clemente State Beach,3,0.36,0.67,16,16,NIGHT_CLEAR,Offshore,1
5842041f4e65fad6a77088d5,2024_12_21,33.4663042002114,-117.7168352817103,Strands,3,0.48,0.78,14,14,NIGHT_MIST,Cross-shore,1
5842041f4e65fad6a77088d7,2024_12_21,33.4609858001748,-117.68535,Doheny State Beach,2,0.06614,0.36669,14,14,NIGHT_CLEAR,Offshore,1
5842041f4e65fad6a77088dc,2024_12_21,33.50894790083017,-117.75243,Aliso Creek,2,0.26,0.56,16,16,NIGHT_MIST,Cross-shore,1
5842041f4e65fad6a77088dd,2024_12_21,33.5326591767067,-117.77764,Brooks Street,2,0.16,0.47,16,16,NIGHT_MIST,Cross-shore,1
5842041f4e65fad6a77088de,2024_12_21,33.53561225884637,-117.7799,Thalia Street,2,0.16,0.46,16,16,NIGHT_MIST,Cross-shore,1
5842041f4e65fad6a77088e3,2024_12_21,33.54268310353641,-117.7916,Rockpile,2,0.16,0.47,16,16,NIGHT_MIST,Offshore,1
5842041f4e65fad6a77088e4,2024_12_21,33.7368459504689,-118.10342,"Seal Beach Pier, Southside",2,0.24,0.54,15,15,NIGHT_CLEAR,Offshore,1
5842041f4e65fad6a77088e5,2024_12_21,33.73933701820233,-118.117,Ray Bay,3,0.36,0.67,15,15,NIGHT_MOSTLY_CLOUDY,Cross-shore,1
5842041f4e65fad6a77088e7,2024_12_21,33.728733,-118.08982,Surfside,1,0,0.25,15,15,NIGHT_CLOUDY,Offshore,1
5842041f4e65fad6a77088e8,2024_12_21,33.68760321488161,-118.04236,Bolsa Chica State Beach,3,0.46977,0.77009,14,14,NIGHT_CLOUDY,Onshore,1
5842041f4e65fad6a77088ea,2024_12_21,33.66704400178788,-118.0192,North HB Streets,3,0.75962,1.00947,14,14,NIGHT_CLOUDY,Onshore,1
5842041f4e65fad6a77088ed,2024_12_21,33.65475101379567,-118.00291,Huntington Beach Pier Southside,3,0.68,0.99,14,14,NIGHT_CLOUDY,Onshore,1
5842041f4e65fad6a77088ee,2024_12_21,33.62778647706099,-117.95939,River Jetties,3,0.5,0.8,14,14,NIGHT_CLOUDY,Offshore,1
5842041f4e65fad6a77088f2,2024_12_21,33.605165797643664,-117.925,Newport Point,2,0.29,0.6,16,16,NIGHT_CLEAR,Cross-shore,1
5842041f4e65fad6a77088f3,2024_12_21,33.58982984726977,-117.87713,Corona del Mar,2,0.26,0.57,16,16,NIGHT_CLEAR,Offshore,1
5842041f4e65fad6a77088f7,2024_12_21,34.00750300824362,-118.49718,Santa Monica Pier,1,0,0.29,15,15,NIGHT_CLEAR,Onshore,1
5842041f4e65fad6a77088ff,2024_12_21,33.94070283102945,-118.44321,Dockweiler Beach,3,0.55,0.86,14,14,NIGHT_MIST,Onshore,1
5842041f4e65fad6a7708900,2024_12_21,33.9231846937237,-118.4341465777908,Shitpipe,3,0.71,1.01,14,14,NIGHT_MIST,Onshore,1
5842041f4e65fad6a7708902,2024_12_21,33.9108528052242,-118.4279133138721,Hammerland,3,0.71,1.01,14,14,NIGHT_MIST,Onshore,1
5842041f4e65fad6a7708904,2024_12_21,33.87201368173932,-118.40752,Hermosa Beach,3,0.4332,0.74154,14,14,NIGHT_MIST,Onshore,1
5842041f4e65fad6a7708906,2024_12_21,33.90129336911256,-118.42184,El Porto,3,0.80043,1.11197,14,14,NIGHT_MIST,Onshore,1
5842041f4e65fad6a7708907,2024_12_21,33.87963506431794,-118.41102,Manhattan Beach Pier,3,0.54,0.84,14,14,NIGHT_MIST,Onshore,1
5842041f4e65fad6a7708914,2024_12_21,34.038053387863464,-118.5532,Sunset Point,2,0.05,0.36,15,15,NIGHT_CLEAR,Cross-shore,1
5842041f4e65fad6a7708920,2024_12_21,33.80282,-118.39989,Haggerty's,2,0.104,0.352,15,15,NIGHT_MIST,Onshore,1
5842041f4e65fad6a7708921,2024_12_21,33.85044519861206,-118.40048,Redondo Breakwater,3,0.48334,0.84037,15,15,NIGHT_MIST,Onshore,1
5842041f4e65fad6a7708927,2024_12_21,33.70877301002487,-118.2840112858389,Cabrillo Beach,2,0.11,0.42,16,16,NIGHT_CLEAR,Offshore,1
5842041f4e65fad6a770892c,2024_12_21,33.77209986806257,-118.4268428476672,Lunada Bay,1,0.28,0.58,15,15,NIGHT_MIST,Cross-shore,1
5842041f4e65fad6a770892d,2024_12_21,33.79294656286144,-118.40703,PV Cove,2,0.13,0.44,15,15,NIGHT_MIST,Onshore,1
5842041f4e65fad6a7708930,2024_12_21,34.03944902292561,-118.57539,Chart House,0,0,0.08,15,15,NIGHT_OVERCAST,Cross-shore,1
5842041f4e65fad6a7708936,2024_12_21,34.0016731994772,-118.80456,Point Dume,2,0.16413,0.46493,14,14,NIGHT_CLEAR,Offshore,1
5842041f4e65fad6a7708937,2024_12_21,34.02587527588963,-118.7554939066114,Latigo Point,2,0.15,0.46,15,15,NIGHT_CLEAR,Cross-shore,1
5842041f4e65fad6a770893f,2024_12_21,34.043762,-118.93294,Leo Carrillo,3,0.3808,0.68993,14,14,NIGHT_CLEAR,Offshore,1
5842041f4e65fad6a7708941,2024_12_21,36.69388179265737,-121.81289,Marina State Beach,3,1.49,1.78,13,13,NIGHT_MIST,Cross-shore,1
5842041f4e65fad6a7708944,2024_12_21,34.34145077331085,-119.416999352654,Stanley's,2,0.22,0.52,14,14,NIGHT_CLEAR,Offshore,1
5842041f4e65fad6a7708945,2024_12_21,34.35113017313915,-119.426921498899,Oil Piers,2,0.22,0.52,14,14,NIGHT_CLEAR,Cross-shore,1
5842041f4e65fad6a770894c,2024_12_21,34.17876333306018,-119.23995,Oxnard,3,0.43,0.74,14,14,NIGHT_CLOUDY,Cross-shore,1
5842041f4e65fad6a7708957,2024_12_21,34.31720331100517,-119.3882324751725,Pitas Point,2,0.22,0.53,14,14,NIGHT_CLEAR,Onshore,1
5842041f4e65fad6a7708959,2024_12_21,34.27851754384724,-119.3162,Emma Wood,2,0.38,0.69,14,14,NIGHT_CLEAR,Cross-shore,1
5842041f4e65fad6a770895a,2024_12_21,34.35513640390276,-119.4400589884255,Mussel Shoals (aka Little Rincon),2,0.25,0.55,14,14,NIGHT_CLEAR,Onshore,1
5842041f4e65fad6a770895e,2024_12_21,34.28991757054902,-119.3366646794652,Summer Beach,2,0.12,0.42,14,14,NIGHT_CLEAR,Cross-shore,1
5842041f4e65fad6a770895f,2024_12_21,34.30897456105926,-119.3582501170116,Solimar,2,0.12,0.42,14,14,NIGHT_CLEAR,Onshore,1
5842041f4e65fad6a7708960,2024_12_21,34.39836265281686,-119.70213,Leadbetter Point,1,0,0.14,14,14,NIGHT_CLEAR,Offshore,1
5842041f4e65fad6a7708961,2024_12_21,34.46052293893899,-120.07328,Refugio,1,0,0.22,14,14,NIGHT_BRIEF_SHOWERS,Cross-shore,1
5842041f4e65fad6a7708962,2024_12_21,34.40754276777778,-119.87639,Devereux,1,0,0.29,14,14,NIGHT_MIST,Cross-shore,1
5842041f4e65fad6a7708963,2024_12_21,34.27479983305182,-119.3133222656776,Ventura Overhead,2,0.38,0.69,14,14,NIGHT_CLEAR,Onshore,1
5842041f4e65fad6a7708964,2024_12_21,34.41023236011655,-119.88261,Sands,1,0,0.28,14,14,NIGHT_MIST,Onshore,1
5842041f4e65fad6a7708966,2024_12_21,34.40450193869233,-119.68752,Sandspit,1,0,0.14,14,14,NIGHT_CLEAR,Offshore,1
5842041f4e65fad6a7708967,2024_12_21,34.41549098334453,-119.6375149840203,Hammond's,1,0,0.28,14,14,NIGHT_CLEAR,Onshore,1
5842041f4e65fad6a7708968,2024_12_21,34.45759322742309,-120.02203,El Capitan,1,0,0.22,14,14,NIGHT_MOSTLY_CLOUDY,Cross-shore,1
5842041f4e65fad6a770896c,2024_12_21,34.405117655616,-119.84317,Campus Point,1,0,0.28,14,14,NIGHT_MIST,Cross-shore,1
5842041f4e65fad6a770896e,2024_12_21,34.38935162233354,-119.51955,Carpinteria State Beach,2,0.06,0.36,14,14,NIGHT_CLEAR,Offshore,1
5842041f4e65fad6a770896f,2024_12_21,37.48296565175612,-122.45493,Half Moon Bay,2,1.36,1.67,13,13,NIGHT_MOSTLY_CLOUDY,Onshore,1
5842041f4e65fad6a7708970,2024_12_21,37.499,-122.471,Princeton Jetty,2,1.19,1.43,13,13,NIGHT_BRIEF_SHOWERS,Onshore,1
5842041f4e65fad6a7708972,2024_12_21,37.35699547365155,-122.4069534707252,Tunitas Creek,2,1.91,2.28,13,13,NIGHT_CLEAR,Cross-shore,1
5842041f4e65fad6a7708974,2024_12_21,37.54735589428842,-122.51611,Montara,3,1.58,1.89,13,13,NIGHT_MOSTLY_CLOUDY,Offshore,1
5842041f4e65fad6a7708975,2024_12_21,34.3869373724559,-119.5142334209018,Tarpits,2,0.07,0.38,14,14,NIGHT_CLEAR,Offshore,1
5842041f4e65fad6a7708976,2024_12_21,37.59881852720143,-122.50463,Linda Mar,3,0.51626,0.8527,12,12,NIGHT_MOSTLY_CLOUDY,Offshore,1
5842041f4e65fad6a7708978,2024_12_21,37.59883098461164,-122.5143843582282,Pedro Point,3,1.48,1.77,12,12,NIGHT_MOSTLY_CLOUDY,Offshore,1
5842041f4e65fad6a7708979,2024_12_21,37.61081996647663,-122.49733,Rockaway,3,1.53,1.83,12,12,NIGHT_MOSTLY_CLOUDY,Offshore,1
5842041f4e65fad6a770897a,2024_12_21,37.809987384424446,-122.47514,Fort Point,3,0.99,1.19,12,12,NIGHT_MOSTLY_CLEAR,Offshore,1
5842041f4e65fad6a770897c,2024_12_21,37.63422542967464,-122.4951,Sharp Park,3,1.68,2.01,12,12,NIGHT_CLEAR,Offshore,1
5842041f4e65fad6a770897d,2024_12_21,37.27313605072472,-122.4127387912554,Pescadero,2,1.74,2.08,13,13,NIGHT_MIST,Cross-shore,1
5842041f4e65fad6a770897e,2024_12_21,37.18140279972666,-122.3926685899327,Pigeon Point,1,1.83,2.19,13,13,NIGHT_MIST,Onshore,1
5842041f4e65fad6a770897f,2024_12_21,37.11578956919415,-122.314699271291,Ano Nuevo,1,1.15,1.38,13,13,NIGHT_MIST,Onshore,1
5842041f4e65fad6a7708980,2024_12_21,37.09520872681598,-122.2805474707768,Waddell Creek,2,1.49,1.78,13,13,NIGHT_BRIEF_SHOWERS,Cross-shore,1
5842041f4e65fad6a7708981,2024_12_21,36.96512852130351,-122.1252825495626,Four Mile,3,1.66,1.98,13,13,NIGHT_MIST,Offshore,1
5842041f4e65fad6a7708982,2024_12_21,37.04122807048655,-122.23337,Scott Creek,3,1.41,1.68,13,13,NIGHT_MIST,Offshore,1
5842041f4e65fad6a7708983,2024_12_21,37.02350229387179,-122.21908,Davenport,3,1.55,1.85,13,13,NIGHT_MIST,Offshore,1
5842041f4e65fad6a7708986,2024_12_21,36.94905295955728,-122.06118,Natural Bridges,3,1.07,1.28,13,13,NIGHT_MOSTLY_CLOUDY,Cross-shore,1
5842041f4e65fad6a7708987,2024_12_21,36.95154854910425,-122.04207,Mitchell's Cove,3,0.69,0.99,13,13,NIGHT_MIST,Onshore,1
5842041f4e65fad6a770898a,2024_12_21,36.9572312370203,-121.98177,26th Ave,3,1.05,1.36,13,13,NIGHT_MIST,Cross-shore,1
5842041f4e65fad6a770898e,2024_12_21,36.91899972819882,-121.85536,Manresa,3,1.36,1.62,13,13,NIGHT_MOSTLY_CLOUDY,Cross-shore,1
5842041f4e65fad6a7708990,2024_12_21,34.45747731928454,-120.34242,The Ranch,3,0.3,0.61,14,14,NIGHT_BRIEF_SHOWERS,Offshore,1
5842041f4e65fad6a7708991,2024_12_21,34.50875036590315,-120.50348,Jalama,3,0.96,1.15,14,14,NIGHT_MOSTLY_CLOUDY,Cross-shore,1
5842041f4e65fad6a7708996,2024_12_21,34.68700870220497,-120.6111611019887,Surf Beach,4,1.92,2.29,14,14,NIGHT_CLEAR,Offshore,1
5842041f4e65fad6a770899c,2024_12_21,35.5730538161116,-121.1143362345574,Moonstone,3,1.47,1.76,14,14,NIGHT_MOSTLY_CLOUDY,Offshore,1
5842041f4e65fad6a770899d,2024_12_21,35.61533716776573,-121.1502053073914,Pico Creek,4,1.04,1.25,14,14,NIGHT_MOSTLY_CLOUDY,Offshore,1
5842041f4e65fad6a770899e,2024_12_21,35.56829031927379,-121.11207,Santa Rosa Creek,3,1.47,1.76,14,14,NIGHT_BRIEF_SHOWERS,Cross-shore,1
5842041f4e65fad6a77089a2,2024_12_21,35.44820114936284,-120.90715,"Cayucos Pier, Southside",3,0.46182,0.82203,14,14,NIGHT_BRIEF_SHOWERS,Offshore,1
5842041f4e65fad6a77089a4,2024_12_21,35.30143372628852,-120.877819239902,Cable Landing,4,1.96,2.34,14,14,NIGHT_MIST,Offshore,1
5842041f4e65fad6a77089a9,2024_12_21,35.61269103500222,-121.14807,San Simeon,2,0.693,0.91,14,14,NIGHT_MOSTLY_CLOUDY,Cross-shore,1
5842041f4e65fad6a77089ab,2024_12_21,35.1775325966252,-120.73411,Avila Beach,2,0.07,0.37,14,14,NIGHT_MIST,Cross-shore,1
5842041f4e65fad6a77089ac,2024_12_21,35.13877877884115,-120.64535,Pismo Beach Pier,3,0.91,1.09,12,12,NIGHT_MOSTLY_CLOUDY,Cross-shore,1
5842041f4e65fad6a77089ad,2024_12_21,46.8907710233147,-124.12964,Westport/Olympic Peninsula,3,2.41,2.78,10,10,NIGHT_CLEAR,Offshore,1
5842041f4e65fad6a77089ae,2024_12_21,46.35185177248545,-124.06747,Long Beach Peninsula,3,2.74,3.28,10,10,NIGHT_MOSTLY_CLOUDY,Offshore,1
5842041f4e65fad6a77089af,2024_12_21,47.90649175554033,-124.63709,La Push,3,2.66,3.18,11,11,NIGHT_CLEAR,Offshore,1
5842041f4e65fad6a77089b0,2024_12_21,42.04368239985442,-124.26828,Brookings Jetty,2,1.7095,2.04977,11,11,NIGHT_MOSTLY_CLOUDY,Onshore,1
5842041f4e65fad6a77089b1,2024_12_21,42.74071837900346,-124.4983727491047,Port Orford,1,2.73,3,11,11,NIGHT_CLEAR,Onshore,1
5842041f4e65fad6a77089b2,2024_12_21,44.01532689312291,-124.13865,Florence South Jetty,3,2.62,3.14,11,11,NIGHT_CLOUDY,Offshore,1
5842041f4e65fad6a77089b3,2024_12_21,42.41812540774362,-124.42945,Gold Beach South Jetty,0,3.2,3.83,11,11,NIGHT_CLEAR,Onshore,1
5842041f4e65fad6a77089b4,2024_12_21,44.95857310226525,-124.0219,Lincoln City,3,2.47,2.95,11,11,NIGHT_CLEAR,Offshore,1
5842041f4e65fad6a77089b5,2024_12_21,44.63792761362982,-124.0657,Newport,4,2.84,3.39,11,11,NIGHT_CLOUDY,Offshore,1
5842041f4e65fad6a77089b6,2024_12_21,45.61468496266301,-123.94643,Rockaway Beach,4,2.63,3.14,11,11,NIGHT_OVERCAST,Offshore,1
5842041f4e65fad6a77089b7,2024_12_21,45.20252914186085,-123.96975,Pacific City,3,2.54,3.04,11,11,NIGHT_OVERCAST,Offshore,1
5842041f4e65fad6a77089b8,2024_12_21,45.88179930310263,-123.96681,Cannon Beach,3,2.63,3.15,11,11,NIGHT_CLEAR,Offshore,1
5842041f4e65fad6a77089ba,2024_12_21,40.02528754746774,-124.06372,Shelter Cove,1,0.98303,1.17849,12,12,NIGHT_CLEAR,Onshore,1
5842041f4e65fad6a77089bb,2024_12_21,40.76816197136951,-124.24248,Humboldt Harbor Entrance,2,2.45,2.92,12,12,NIGHT_MOSTLY_CLEAR,Cross-shore,1
5842041f4e65fad6a77089bc,2024_12_21,40.76684246920174,-124.23107,North Jetty,3,2.46,2.94,12,12,NIGHT_MOSTLY_CLEAR,Offshore,1
5842041f4e65fad6a77089be,2024_12_21,41.13016238153297,-124.16466,Sue-meg,2,2.54,3.03,12,12,NIGHT_CLEAR,Offshore,1
5842041f4e65fad6a77089bf,2024_12_21,37.8289474958188,-122.53768,Fort Cronkite/Rodeo Beach,3,2.1,2.51,12,12,NIGHT_CLEAR,Onshore,1
5842041f4e65fad6a77089c0,2024_12_21,41.74415759876137,-124.17717,South Beach CA,1,2.64,2.95,11,11,NIGHT_MOSTLY_CLEAR,Onshore,1
5842041f4e65fad6a77089c1,2024_12_21,37.89801283969752,-122.64519,Stinson Beach,2,0.66,0.97,12,12,NIGHT_SHOWERS,Onshore,1
5842041f4e65fad6a77089c2,2024_12_21,37.90514516176495,-122.68151,Bolinas,2,0.55428,0.85121,12,12,NIGHT_BRIEF_SHOWERS,Onshore,1
5842041f4e65fad6a77089c3,2024_12_21,38.04892513158693,-122.98925,Point Reyes (north),3,2.26,2.7,12,12,NIGHT_MIST,Offshore,1
5842041f4e65fad6a77089c6,2024_12_21,38.31088736605785,-123.0496777333731,Doran Beach,1,0.38,0.68,12,12,NIGHT_BRIEF_SHOWERS,Onshore,1
5842041f4e65fad6a77089c7,2024_12_21,38.45077228660809,-123.13008,Russian Rivermouth,3,1.95,2.33,12,12,NIGHT_MOSTLY_CLOUDY,Offshore,1
5842041f4e65fad6a77089c8,2024_12_21,38.35329968518107,-123.06906,Salmon Creek,4,1.72,2.06,12,12,NIGHT_BRIEF_SHOWERS,Offshore,1
5842041f4e65fad6a77089c9,2024_12_21,38.6845180197959,-123.4322714291198,Black Point Beach,3,1.75,2.09,13,13,NIGHT_MOSTLY_CLOUDY,Offshore,1
5842041f4e65fad6a77089ca,2024_12_21,43.251076,-70.59144,Ogunquit,2,0.95,1.25,7,6,NIGHT_CLEAR,Offshore,1
5842041f4e65fad6a77089cb,2024_12_21,41.362631366305415,-71.48007,Point Judith,1.3333333333333335,0.694,0.99005,7,6,NIGHT_CLEAR,Cross-shore,1
5842041f4e65fad6a77089cd,2024_12_21,41.422678090954726,-71.45413,Monahan's - Narragansett,1,0.36238,0.6562,9,9,NIGHT_CLEAR,Offshore,1
5842041f4e65fad6a77089ce,2024_12_21,41.469,-71.293,Ruggles - Newport,2,0.43496,0.77835,9,9,NIGHT_MOSTLY_CLOUDY,Offshore,1
5842041f4e65fad6a77089cf,2024_12_21,43.175394,-70.606351,Short Sands Beach,1,0.7,1,7,7,NIGHT_CLEAR,Cross-shore,1
5842041f4e65fad6a77089d0,2024_12_21,41.487408,-71.29017,First Beach,2,0.39,0.7,9,9,NIGHT_MOSTLY_CLOUDY,Offshore,1
5842041f4e65fad6a77089d1,2024_12_21,42.27916830233153,-70.86498,Nantasket Beach,0,0.64,0.95,7,6,NIGHT_CLEAR,Onshore,1
5842041f4e65fad6a77089d2,2024_12_21,41.817,-69.935,Cape Cod,0,1.86,1.99,8,8,NIGHT_LIGHT_SNOW,Cross-shore,1
5842041f4e65fad6a77089d3,2024_12_21,42.22055448975661,-70.70634873403819,Egypt Beach,0,1.25,1.45,8,8,NIGHT_CLOUDY,Cross-shore,1
5842041f4e65fad6a77089d4,2024_12_21,41.48739647744607,-71.25723,Second Beach,1,0.26095,0.48241,7,6,NIGHT_CLEAR,Offshore,1
5842041f4e65fad6a77089d5,2024_12_21,42.964,-70.769,Fox Hill,2,0.42,0.72,7,6,NIGHT_CLEAR,Offshore,1
5842041f4e65fad6a77089d6,2024_12_21,42.991359,-70.75149,Straws Point,3,0.68,0.99,7,6,NIGHT_CLEAR,Offshore,1
5842041f4e65fad6a77089d7,2024_12_21,42.946,-70.786,Plaice Cove,2,0.42,0.72,7,6,NIGHT_CLEAR,Offshore,1
5842041f4e65fad6a77089d9,2024_12_21,42.911574,-70.80831,The Main Beach,2,0.89928,1.3371,7,6,NIGHT_CLEAR,Offshore,1
5842041f4e65fad6a77089da,2024_12_21,42.97583846220203,-70.764,Sawyer's Beach,2,0.61,0.92,7,6,NIGHT_CLEAR,Offshore,1
5842041f4e65fad6a77089db,2024_12_21,42.97,-70.77,Rye on the Rocks / 5-0's,2,0.85136,1.29749,7,6,NIGHT_CLEAR,Offshore,1
5842041f4e65fad6a77089dc,2024_12_21,43.55902946610303,-70.27795,Higgins Beach,2.6666666666666665,0.56215,0.86695,7,6,NIGHT_BRIEF_SNOW_SHOWERS,Offshore,1
5842041f4e65fad6a77089dd,2024_12_21,43.302676,-70.5652,Wells Beach,1,0.58,0.89,7,6,NIGHT_CLEAR,Offshore,1
5842041f4e65fad6a77089de,2024_12_21,43.545359,-70.30479,Scarborough Beach State Park,2,0.59869000000000006,0.9579,7,6,NIGHT_BRIEF_SNOW_FLURRIES,Offshore,1
5842041f4e65fad6a77089df,2024_12_21,43.514481,-70.37215,Old Orchard Beach,2.6666666666666665,0.84195,1.15675,7,6,NIGHT_BRIEF_SNOW_FLURRIES,Offshore,1
5842041f4e65fad6a77089e0,2024_12_21,43.34711,-70.48165,Gooch's Beach,2,0.49,0.79,7,6,NIGHT_CLEAR,Offshore,1
5842041f4e65fad6a77089e2,2024_12_21,40.58433,-73.62953,Lido Beach,2.6666666666666665,0.92,1.23,7,6,NIGHT_LIGHT_SNOW,Offshore,1
5842041f4e65fad6a77089e3,2024_12_21,43.163135,-70.61689,Long Sands Beach,2.6666666666666665,0.88175,1.18761,7,6,NIGHT_CLEAR,Offshore,1
5842041f4e65fad6a77089e4,2024_12_21,40.61695351251805,-73.39376,Gilgo Beach,3,0.51,0.81,7,6,NIGHT_CLOUDY,Offshore,1
5842041f4e65fad6a77089e5,2024_12_21,40.62530081928036,-73.23827,Robert Moses,3,0.64,0.94,9,9,NIGHT_CLOUDY,Offshore,1
5842041f4e65fad6a77089e6,2024_12_21,40.64313317632791,-73.15727,Fire Island,3,0.62,0.92,10,10,NIGHT_CLOUDY,Offshore,1
5842041f4e65fad6a77089e8,2024_12_21,40.76653118828782,-72.7458,Cupsogue,3,1.04,1.35,10,10,NIGHT_CLEAR,Offshore,1
5842041f4e65fad6a77089e9,2024_12_21,42.9376373334092,-70.79141,The Wall,1.6666666666666667,0.93357,1.37238,7,6,NIGHT_CLEAR,Cross-shore,1
5842041f4e65fad6a77089ea,2024_12_21,40.887088,-72.33856,Flys,3,0.9,1.21,10,10,NIGHT_MOSTLY_CLOUDY,Offshore,1
5842041f4e65fad6a77089eb,2024_12_21,41.0389266436591,-71.91068529316958,Trailer Park,2.6666666666666665,0.62938,1.06958,7,6,NIGHT_CLEAR,Offshore,1
5842041f4e65fad6a77089ec,2024_12_21,41.039505402729105,-71.9142,Ditch Plains,3,0.88621,1.22275,10,10,NIGHT_CLEAR,Offshore,1
5842041f4e65fad6a77089ee,2024_12_21,40.57633275206492,-73.56895305108567,"West End, Jones Beach",3,0.74,1.05,7,6,NIGHT_CLOUDY,Offshore,1
5842041f4e65fad6a77089f1,2024_12_21,41.038286691230795,-71.91991567611694,Poles,2.6666666666666665,0.65041,1.08968,7,6,NIGHT_CLEAR,Offshore,1
5842041f4e65fad6a77089f3,2024_12_21,40.84077769766295,-72.47989493724765,The Bowl,3,1.04,1.21,10,10,NIGHT_MOSTLY_CLOUDY,Offshore,1
5842041f4e65fad6a77089f4,2024_12_21,40.94235535243154,-72.19286,Main Beach,3,0.99,1.29,14,13,NIGHT_CLEAR,Offshore,1
5842041f4e65fad6a77089f5,2024_12_21,40.58270702399518,-73.67251552079799,Laurelton Blvd.,2,0.56544,0.87024,7,6,NIGHT_LIGHT_SNOW,Offshore,1
5842041f4e65fad6a77089f6,2024_12_21,41.033752854071416,-71.93696,Terrace,2.6666666666666665,0.50925,1.13581,7,6,NIGHT_CLEAR,Offshore,1
5842041f4e65fad6a77089f7,2024_12_21,40.83372943645748,-72.50426173210144,K Road,4,1.13,1.43,10,10,NIGHT_CLEAR,Offshore,1
5842041f4e65fad6a77089f8,2024_12_21,40.58456099581507,-73.80730032920837,84th Street,2.6666666666666665,0.71293,1.15307,7,6,NIGHT_CLEAR,Offshore,1
5842041f4e65fad6a77089fa,2024_12_21,40.1319,-74.02788,Sea Girt,3,1.05,1.36,6,6,NIGHT_FOG,Offshore,1
5842041f4e65fad6a77089fb,2024_12_21,40.54698301868125,-73.9268,Breezy Point,3,0.72,1.02,9,9,NIGHT_SNOW,Offshore,1
5842041f4e65fad6a77089fc,2024_12_21,40.152504,-74.02138,Spring Lake,3,1.16,1.47,6,6,NIGHT_SNOW,Offshore,1
5842041f4e65fad6a77089fd,2024_12_21,40.591277,-73.770792,30th - 39th Streets,3,0.64,0.95,7,6,NIGHT_LIGHT_SNOW,Offshore,1
5842041f4e65fad6a77089fe,2024_12_21,40.18834955871439,-74.00860982500222,Avon,3,1.21,1.51,6,6,NIGHT_SNOW,Offshore,1
5842041f4e65fad6a77089ff,2024_12_21,40.1974229100932,-74.00650533798255,Bradley Beach,3,1.11,1.41,6,6,NIGHT_SNOW,Offshore,1
5842041f4e65fad6a7708a01,2024_12_21,40.17202,-74.01503,"16th Ave., Belmar",3,0.87,1.18,6,6,NIGHT_SNOW,Offshore,1
5842041f4e65fad6a7708a02,2024_12_21,40.217443,-73.99982,Asbury Park,3,1.14,1.44,6,6,NIGHT_FOG,Offshore,1
5842041f4e65fad6a7708a03,2024_12_21,40.229841,-73.99678,Loch Arbour and Deal,3,1.15,1.45,6,6,NIGHT_LIGHT_SNOW,Offshore,1
5842041f4e65fad6a7708a05,2024_12_21,40.41754,-73.97935,Sandy Hook,2,0.45,0.75,9,9,NIGHT_LIGHT_SNOW,Offshore,1
5842041f4e65fad6a7708a06,2024_12_21,39.36353,-74.40873,Crystals,3,0.88558,1.22619,13,12,NIGHT_CLEAR,Offshore,1
5842041f4e65fad6a7708a07,2024_12_21,39.31443,-74.51863,32nd Street,3,0.8424,1.21021,7,6,NIGHT_CLEAR,Offshore,1
5842041f4e65fad6a7708a08,2024_12_21,39.327688,-74.49524,Margate Pier Northside,3,0.8424,1.21021,7,6,NIGHT_CLEAR,Offshore,1
5842041f4e65fad6a7708a09,2024_12_21,39.336276,-74.47782,Ventnor Pier,3,0.84632,1.21314,13,12,NIGHT_CLEAR,Offshore,1
5842041f4e65fad6a7708a0a,2024_12_21,39.35929751441085,-74.41683,States Avenue,3,0.88558,1.22619,13,12,NIGHT_CLEAR,Offshore,1
5842041f4e65fad6a7708a0b,2024_12_21,39.37274173278517,-74.40454,Brigantine Jetty,3,0.73133,1.08012,13,12,NIGHT_CLEAR,Offshore,1
5842041f4e65fad6a7708a0c,2024_12_21,39.356505,-74.42263,South Carolina Avenue,3,0.73133,1.08012,13,12,NIGHT_CLEAR,Offshore,1
5842041f4e65fad6a7708a0d,2024_12_21,39.413485,-74.35476,14th Street North,3,0.86,1.16,13,12,NIGHT_CLEAR,Offshore,1
5842041f4e65fad6a7708a0e,2024_12_21,39.531319,-74.263252,The Wooden Jetty,3,1.05216,1.27775,9,9,NIGHT_MOSTLY_CLOUDY,Offshore,1
5842041f4e65fad6a7708a0f,2024_12_21,39.552472,-74.24344,Holyoke,3,0.98589,1.33718,9,9,NIGHT_MOSTLY_CLOUDY,Offshore,1
5842041f4e65fad6a7708a10,2024_12_21,39.692364,-74.14068,Hudson Ave.,3,1.19,1.49,7,6,NIGHT_CLOUDY,Offshore,1
5842041f4e65fad6a7708a11,2024_12_21,39.79614,-74.09248,Island Beach State Park,3,1.3,1.61,12,12,NIGHT_CLOUDY,Offshore,1
5842041f4e65fad6a7708a12,2024_12_21,39.91813588078152,-74.07527,Seaside Park,3,1.14,1.44,12,12,NIGHT_LIGHT_SNOW,Offshore,1
5842041f4e65fad6a7708a15,2024_12_21,39.95745637606704,-74.06736,Ortley Beach,3,1.07,1.37,6,6,NIGHT_LIGHT_SNOW,Offshore,1
5842041f4e65fad6a7708a16,2024_12_21,39.98313468342945,-74.06265685577506,Lavallette,3,1.17,1.48,6,6,NIGHT_SNOW,Offshore,1
5842041f4e65fad6a7708a17,2024_12_21,40.0699319967757,-74.04145,Bay Head,3,1.15,1.45,6,6,NIGHT_SNOW,Offshore,1
5842041f4e65fad6a7708a18,2024_12_21,40.094041,-74.034859,Jenkinson's,4,1.2,1.51,6,6,NIGHT_SNOW,Offshore,1
5842041f4e65fad6a7708a1a,2024_12_21,38.148058,-75.17704,Assateague,3,1.11,1.42,8,7,NIGHT_OVERCAST,Offshore,1
5842041f4e65fad6a7708a1b,2024_12_21,38.33889038664497,-75.08017670566352,North End to Ocean City Inlet,2,1.06,1.27,8,7,NIGHT_CLOUDY,Offshore,1
5842041f4e65fad6a7708a1c,2024_12_21,38.603993,-75.06271,Indian River Inlet,3,0.93578,1.29114,9,9,NIGHT_MOSTLY_CLOUDY,Offshore,1
5842041f4e65fad6a7708a1d,2024_12_21,38.460477,-75.05207,Fenwick Island,1,0.7,1.01,9,9,NIGHT_CLOUDY,Offshore,1
5842041f4e65fad6a7708a1e,2024_12_21,38.538767,-75.05619,Bethany Beach,3,0.92906,1.28186,9,9,NIGHT_MOSTLY_CLOUDY,Offshore,1
5842041f4e65fad6a7708a1f,2024_12_21,38.697657,-75.07595,Dewey Beach,3,0.98,1.18,8,8,NIGHT_MOSTLY_CLOUDY,Offshore,1
5842041f4e65fad6a7708a20,2024_12_21,38.75034741676525,-75.08194,Gordons Pond,2,0.54389,0.93239,8,8,NIGHT_MOSTLY_CLOUDY,Offshore,1
5842041f4e65fad6a7708a21,2024_12_21,38.767837,-75.08284,Naval Jetties,1,0.69,0.99,8,8,NIGHT_MOSTLY_CLOUDY,Offshore,1
5842041f4e65fad6a7708a22,2024_12_21,36.81735875786576,-75.96624,Camp Pendleton,2,0.65,0.95,11,11,NIGHT_CLEAR,Offshore,1
5842041f4e65fad6a7708a23,2024_12_21,36.9102212316428,-75.98732471466064,North End,1,0.49,0.8,11,11,NIGHT_CLEAR,Offshore,1
5842041f4e65fad6a7708a24,2024_12_21,36.737117517621314,-75.93924,Sandbridge Beach,2,0.64,0.94,11,11,NIGHT_CLEAR,Offshore,1
5842041f4e65fad6a7708a26,2024_12_21,36.818257440557794,-75.96666,Croatan to Pendleton,2,0.56846,0.86891,11,11,NIGHT_CLEAR,Offshore,1
5842041f4e65fad6a7708a27,2024_12_21,36.84318777204769,-75.9719,South End,2,0.53,0.84,11,11,NIGHT_CLEAR,Offshore,1
5842041f4e65fad6a7708a28,2024_12_21,37.08612627584661,-75.976121638199,Fishermans Island,1,0.112,0.236,11,11,NIGHT_MOSTLY_CLOUDY,Offshore,1
5842041f4e65fad6a7708a38,2024_12_21,35.254619418229026,-75.52074,Cape Hatteras Lighthouse,1,0.58136,0.92795,15,13,NIGHT_CLEAR,Offshore,1
5842041f4e65fad6a7708a3a,2024_12_21,35.54572934093336,-75.46477,Waves and Salvo,2,0.73,1.03,14,13,NIGHT_CLEAR,Offshore,1
5842041f4e65fad6a7708a3b,2024_12_21,35.22565892751075,-75.63606,Frisco,2,0.392,0.64,16,14,NIGHT_CLEAR,Offshore,1
5842041f4e65fad6a7708a3c,2024_12_21,35.13086,-75.90591,Ocracoke,2,0.29468,0.66008,19,19,NIGHT_CLEAR,Offshore,1
5842041f4e65fad6a7708a3d,2024_12_21,35.34721340158342,-75.50084,Avon Pier,2,1.17,1.47,15,13,NIGHT_CLEAR,Offshore,1
5842041f4e65fad6a7708a3f,2024_12_21,35.71680821253768,-75.49243,Pea Island,1,0.69,0.99,14,14,NIGHT_CLEAR,Cross-shore,1
5842041f4e65fad6a7708a40,2024_12_21,35.97427620657821,-75.62984,Nags Head Pier,2,0.87,1.18,12,11,NIGHT_CLEAR,Cross-shore,1
5842041f4e65fad6a7708a41,2024_12_21,36.0439998039079,-75.67288,Avalon Pier,1,0.9,1.08,12,11,NIGHT_CLEAR,Cross-shore,1
5842041f4e65fad6a7708a42,2024_12_21,36.03043116489792,-75.66413,First Street,1,0.75,1.06,12,11,NIGHT_CLEAR,Offshore,1
5842041f4e65fad6a7708a43,2024_12_21,36.06829910590498,-75.6899,Old Station/Laundromats,1,0.73,1.04,12,11,NIGHT_CLEAR,Offshore,1
5842041f4e65fad6a7708a44,2024_12_21,36.10126676607491,-75.71107,Kitty Hawk Pier,1,0.73,1.03,12,11,NIGHT_CLEAR,Offshore,1
5842041f4e65fad6a7708a45,2024_12_21,36.18220630068973,-75.75014,Duck Pier,1,0.53,0.83,13,13,NIGHT_CLEAR,Offshore,1
5842041f4e65fad6a7708a46,2024_12_21,36.37660668125033,-75.8241,Corolla,1,0.68,0.98,12,12,NIGHT_CLEAR,Offshore,1
5842041f4e65fad6a7708a47,2024_12_21,33.90373404124834,-78.08241431707907,Oak Island,2,0.11,0.42,15,15,NIGHT_CLEAR,Offshore,1
5842041f4e65fad6a7708a48,2024_12_21,33.91108837766468,-78.29653,South Brunswick Beaches,1,0,0.39663,15,15,NIGHT_CLEAR,Offshore,1
5842041f4e65fad6a7708a49,2024_12_21,34.05683595651973,-77.88128,Carolina Beach Pier,1,0.27,0.58,13,13,NIGHT_CLEAR,Offshore,1
5842041f4e65fad6a7708a4a,2024_12_21,33.96841191816696,-77.9180242565498,Fort Fisher,2,0.33,0.64,13,13,NIGHT_MOSTLY_CLEAR,Offshore,1
5842041f4e65fad6a7708a4b,2024_12_21,34.46776662988774,-77.47083,Topsail Beach,2,0.3,0.61,13,12,NIGHT_CLEAR,Offshore,1
5842041f4e65fad6a7708a4c,2024_12_21,34.69270354752445,-76.82854854446575,Iron Steamer,1,0.2,0.5,13,12,NIGHT_CLEAR,Offshore,1
5842041f4e65fad6a7708a4f,2024_12_21,30.85132684893727,-81.42283496231143,Cumberland Island,2,0.37,0.68,16,16,NIGHT_CLEAR,Offshore,1
5842041f4e65fad6a7708a50,2024_12_21,34.686741128540874,-76.47516712138378,Cape Lookout National Seashore,2,0.46,0.76,18,18,NIGHT_CLEAR,Offshore,1
5842041f4e65fad6a7708a51,2024_12_21,31.10585419260024,-81.40422767604812,Jekyll Island,1,0.11,0.41,16,16,NIGHT_CLEAR,Offshore,1
5842041f4e65fad6a7708a52,2024_12_21,31.16212806376699,-81.32512426500224,Harbor Marker Buoys,1,0.24,0.54,16,16,NIGHT_CLEAR,Offshore,1
5842041f4e65fad6a7708a53,2024_12_21,31.20076299997009,-81.32629,Sea Island,1,0.28,0.59,16,16,NIGHT_CLEAR,Offshore,1
5842041f4e65fad6a7708a54,2024_12_21,31.13553222995767,-81.38457634790909,St. Simons Island,1,0.24,0.55,16,16,NIGHT_CLEAR,Offshore,1
5842041f4e65fad6a7708a55,2024_12_21,31.33550077186516,-81.28383377408417,Wolf Island,1,0.13,0.43,16,16,NIGHT_CLEAR,Offshore,1
5842041f4e65fad6a7708a56,2024_12_21,31.2704493877174,-81.27324039152315,Little St. Simons Island,1,0.19,0.49,16,16,NIGHT_CLEAR,Offshore,1
5842041f4e65fad6a7708a57,2024_12_21,31.39261761368919,-81.26190520231917,Sapelo Island,1,0.19,0.49,16,16,NIGHT_CLEAR,Offshore,1
5842041f4e65fad6a7708a58,2024_12_21,34.42458783809001,-77.54492,Surf City Pier,3,0.3,0.61,13,12,NIGHT_CLEAR,Offshore,1
5842041f4e65fad6a7708a59,2024_12_21,31.4231993614213,-81.24725340591522,Cabretta Island,1,0.18,0.48,16,16,NIGHT_CLEAR,Offshore,1
5842041f4e65fad6a7708a5a,2024_12_21,31.46684389030369,-81.2100056410468,Blackbeard Island,1,0.19,0.49,16,16,NIGHT_CLEAR,Offshore,1
5842041f4e65fad6a7708a5b,2024_12_21,31.85953587631629,-80.99031310336719,Wassaw Island/South End,1,0,0.28,15,15,NIGHT_CLEAR,Offshore,1
5842041f4e65fad6a7708a5c,2024_12_21,31.62535662342983,-81.13328352167974,St. Catherines Island,1,0.21,0.52,15,15,NIGHT_CLEAR,Offshore,1
5842041f4e65fad6a7708a5d,2024_12_21,31.76502169596568,-81.07655443806622,Ossabaw Island,1,0.15,0.45,15,15,NIGHT_CLEAR,Offshore,1
5842041f4e65fad6a7708a5e,2024_12_21,31.90593619092352,-80.93589231700857,Wassaw Island/North End,1,0.25,0.55,15,15,NIGHT_CLEAR,Offshore,1
5842041f4e65fad6a7708a5f,2024_12_21,31.96738675414547,-80.86977980706155,Little Tybee Island,1,0.19,0.5,16,16,NIGHT_CLEAR,Offshore,1
5842041f4e65fad6a7708a60,2024_12_21,31.9812255780179,-80.84773973467009,South Tybee Sandbars,1,0.15,0.46,16,16,NIGHT_CLEAR,Offshore,1
5842041f4e65fad6a7708a61,2024_12_21,32.01226,-80.83983,Sugar Shack,1,0.1,0.41,15,15,NIGHT_CLEAR,Cross-shore,1
5842041f4e65fad6a7708a62,2024_12_21,31.98722842396969,-80.84773,18th St. Jetty,1,0.06263,0.43838,16,16,NIGHT_CLEAR,Offshore,1
5842041f4e65fad6a7708a64,2024_12_21,34.013473721006676,-77.8991,"Alabama Ave., Kure Beach",2,0.27,0.57,16,16,NIGHT_CLEAR,Offshore,1
5842041f4e65fad6a7708a65,2024_12_21,34.20859853336924,-77.79293,"C Street, Wrightsville Beach",2,0.26,0.56,13,13,NIGHT_CLEAR,Offshore,1
5842041f4e65fad6a7708a66,2024_12_21,32.831,-79.71,Dewees Island,1,0.11,0.41,15,15,NIGHT_CLEAR,Offshore,1
5842041f4e65fad6a7708a67,2024_12_21,33.82924423172106,-78.62813,Cherry Grove Pier,1,0.09373,0.3933,14,14,NIGHT_CLEAR,Offshore,1
5842041f4e65fad6a7708a69,2024_12_21,34.27197439666496,-77.74050223196774,Figure Eight and Shell Islands,3,0.4,0.71,13,13,NIGHT_CLEAR,Offshore,1
5842041f4e65fad6a7708a6b,2024_12_21,33.49041958261793,-79.07666070599386,North End,1,0.13,0.43,15,15,NIGHT_CLEAR,Offshore,1
5842041f4e65fad6a7708a6c,2024_12_21,33.39537062495087,-79.13835037835189,The South End,1,0.09,0.4,14,14,NIGHT_CLEAR,Offshore,1
5842041f4e65fad6a7708a6d,2024_12_21,33.29001727666697,-79.17190003352977,North Island,1,0.24,0.55,15,15,NIGHT_CLEAR,Offshore,1
5842041f4e65fad6a7708a6e,2024_12_21,32.90929771158952,-79.57810400297359,Bull Island,1,0.14,0.44,15,15,NIGHT_CLEAR,Offshore,1
5842041f4e65fad6a7708a6f,2024_12_21,31.99153112815895,-80.84543050470074,Tybee Island Pier,1,0,0.25,16,16,NIGHT_CLEAR,Offshore,1
5842041f4e65fad6a7708a70,2024_12_21,33.03478144356316,-79.35021028265125,Cape Romain,1,0.21,0.52,15,15,NIGHT_CLEAR,Offshore,1
5842041f4e65fad6a7708a71,2024_12_21,33.43231073271028,-79.11789,The Pier,1,0.01241,0.3846,15,15,NIGHT_CLEAR,Offshore,1
5842041f4e65fad6a7708a72,2024_12_21,33.45423621397969,-79.10497798178424,South Litchfield,1,0.13,0.43,15,15,NIGHT_CLEAR,Offshore,1
5842041f4e65fad6a7708a73,2024_12_21,34.19316590251396,-77.8045,Crystal Pier,1,0.10186,0.4113,13,13,NIGHT_CLEAR,Offshore,1
5842041f4e65fad6a7708a74,2024_12_21,33.68628680045124,-78.88346,Myrtle Beach,1,0.12,0.43,14,14,NIGHT_CLEAR,Offshore,1
5842041f4e65fad6a7708a75,2024_12_21,32.66166297145973,-79.91951806398808,10th Street,1,0.13,0.43,15,15,NIGHT_CLEAR,Offshore,1
5842041f4e65fad6a7708a76,2024_12_21,33.16729555197199,-79.19829236867845,South Island,1,0.27,0.57,15,15,NIGHT_CLEAR,Offshore,1
5842041f4e65fad6a7708a77,2024_12_21,32.595,-80.088,Kiawah Island/Seabrook Island,1,0.06,0.36,15,15,NIGHT_CLEAR,Offshore,1
5842041f4e65fad6a7708a78,2024_12_21,32.51356930575787,-80.28223,Edisto Beach,1,0,0.34493,15,15,NIGHT_CLEAR,Offshore,1
5842041f4e65fad6a7708a79,2024_12_21,32.366270751262,-80.43911,Hunting Island,1,0.04953,0.42102,15,15,NIGHT_CLEAR,Offshore,1
5842041f4e65fad6a7708a7a,2024_12_21,32.65337734408365,-79.93983,Folly Beach Pier,1,0.15,0.46,15,15,NIGHT_CLEAR,Offshore,1
5842041f4e65fad6a7708a7b,2024_12_21,33.41209545530049,-79.13026341393126,South Jetty,1,0.09,0.4,14,14,NIGHT_CLEAR,Offshore,1
5842041f4e65fad6a7708a7c,2024_12_21,32.31115640606869,-80.48564,Fripp Island,1,0,0.39004,15,15,NIGHT_CLEAR,Offshore,1
5842041f4e65fad6a7708a7d,2024_12_21,32.14365226036034,-80.74402,Hilton Head Island,0,0,0.14,15,15,NIGHT_CLEAR,Offshore,1
5842041f4e65fad6a7708a7e,2024_12_21,29.70405364733744,-81.22426,Matanzas Inlet,1,0.38352,0.67237,19,19,NIGHT_CLEAR,Cross-shore,1
5842041f4e65fad6a7708a81,2024_12_21,29.76878537149042,-81.25109,Crescent Beach,1,0.34,0.64,18,18,NIGHT_CLEAR,Cross-shore,1
5842041f4e65fad6a7708a82,2024_12_21,32.80251718689188,-79.73221919500764,Wild Dunes,1,0.18,0.49,15,15,NIGHT_CLEAR,Offshore,1
5842041f4e65fad6a7708a84,2024_12_21,32.75733539419244,-79.83258856064796,Bert's Bar,1,0.01,0.31,15,15,NIGHT_CLEAR,Offshore,1
5842041f4e65fad6a7708a85,2024_12_21,32.66829212943039,-79.90735,Washout,1,0.17,0.47,13,12,NIGHT_CLEAR,Offshore,1
5842041f4e65fad6a7708a86,2024_12_21,32.78452968219067,-79.7854,The Pier/Windjammer,1,0.21,0.51,15,15,NIGHT_CLEAR,Offshore,1
5842041f4e65fad6a7708a87,2024_12_21,29.86618162637438,-81.2662150259608,Anastasia Park (The Entrance),1,0.35,0.65,18,18,NIGHT_CLEAR,Cross-shore,1
5842041f4e65fad6a7708a89,2024_12_21,29.89149785916623,-81.2723223244215,Blowholes,1,0.44,0.74,24,23,NIGHT_CLEAR,Cross-shore,1
5842041f4e65fad6a7708a8a,2024_12_21,30.16227112983666,-81.35502907491218,Crossroads,1,0.35,0.66,24,23,NIGHT_CLEAR,Cross-shore,1
5842041f4e65fad6a7708a8b,2024_12_21,30.19308537587637,-81.36314247820911,Sawgrass,1,0.34,0.64,24,23,NIGHT_CLEAR,Cross-shore,1
5842041f4e65fad6a7708a8c,2024_12_21,30.34696027700899,-81.39451,18th Street,2,0.2472,0.6314,17,17,NIGHT_CLEAR,Offshore,1
5842041f4e65fad6a7708a8d,2024_12_21,30.381793,-81.39686,Mayport Poles,2,0.47,0.78,17,17,NIGHT_CLEAR,Offshore,1
5842041f4e65fad6a7708a8e,2024_12_21,30.390516,-81.395591,Blue Roofs,2,0.41,0.71,17,17,NIGHT_CLEAR,Offshore,1
5842041f4e65fad6a7708a8f,2024_12_21,30.40517712722211,-81.40074116169004,Huguenot Park (North Jetty),1,0.32,0.63,17,17,NIGHT_CLEAR,Cross-shore,1
5842041f4e65fad6a7708a90,2024_12_21,30.47788918872762,-81.41055821335078,Talbot Island,1,0.60412,0.76885,19,19,NIGHT_CLEAR,Offshore,1
5842041f4e65fad6a7708a91,2024_12_21,30.66753984549761,-81.42983,Main Beach,1,0.28,0.59,17,17,NIGHT_CLEAR,Offshore,1
5842041f4e65fad6a7708a92,2024_12_21,30.69983581209126,-81.42483,Ft. Clinch State Park,1,0.42,0.73,16,16,NIGHT_CLEAR,Offshore,1
5842041f4e65fad6a7708a93,2024_12_21,30.62059700777582,-81.437252942757425,Amelia Pier,1,0.3,0.6,17,17,NIGHT_CLEAR,Offshore,1
5842041f4e65fad6a7708a95,2024_12_21,28.95125170929067,-80.83837,Bethune Beach,1,0.55,0.85,19,19,NIGHT_CLEAR,Cross-shore,1
5842041f4e65fad6a7708a96,2024_12_21,29.03874288905362,-80.8933424949646,Flagler Ave.,1,0.45,0.76,24,23,NIGHT_CLEAR,Cross-shore,1
5842041f4e65fad6a7708a98,2024_12_21,30.332297686992757,-81.39319,Atlantic Beach,2,0.2205,0.60961,17,17,NIGHT_CLEAR,Offshore,1
5842041f4e65fad6a7708a99,2024_12_21,29.87530059952514,-81.26757958498874,Middles,1,0.4,0.7,24,23,NIGHT_CLEAR,Cross-shore,1
5842041f4e65fad6a7708a9a,2024_12_21,29.146475528378218,-80.96347,Sunglow Pier,1,0.49,0.79,19,19,NIGHT_CLEAR,Cross-shore,1
5842041f4e65fad6a7708a9b,2024_12_21,30.02251238001095,-81.32183077344881,Gate Station,1,0.37,0.67,24,23,NIGHT_CLEAR,Cross-shore,1
5842041f4e65fad6a7708a9c,2024_12_21,29.33976495417899,-81.0606,Bicentennial Park,1,0.44,0.75,19,19,NIGHT_CLEAR,Cross-shore,1
5842041f4e65fad6a7708a9d,2024_12_21,29.08257353385602,-80.92137,Ponce Inlet,1,0.7,1,20,19,NIGHT_CLEAR,Cross-shore,1
5842041f4e65fad6a7708a9f,2024_12_21,27.862962005874696,-80.44668,Sebastian Inlet,1,0.75788,0.914,22,21,NIGHT_CLEAR,Cross-shore,1
5842041f4e65fad6a7708aa0,2024_12_21,30.292626880836885,-81.38579,Jacksonville Beach Pier,2,0.4,0.7,19,19,NIGHT_CLEAR,Cross-shore,1
5842041f4e65fad6a7708aa2,2024_12_21,29.21860397328164,-81.0019,Daytona Beach,1,0.47,0.77,19,19,NIGHT_CLEAR,Cross-shore,1
5842041f4e65fad6a7708aa3,2024_12_21,27.47531255634912,-80.28914,Ft. Pierce Inlet,2,0.56,0.87,23,23,NIGHT_CLEAR,Offshore,1
5842041f4e65fad6a7708aa4,2024_12_21,29.29239875585548,-81.0386,Ormond Beach,1,0.51,0.81,19,19,NIGHT_CLEAR,Cross-shore,1
5842041f4e65fad6a7708aa5,2024_12_21,29.91629441498523,-81.28801,Vilano,1,0.38,0.68,18,18,NIGHT_CLEAR,Cross-shore,1
5842041f4e65fad6a7708aa6,2024_12_21,27.876230736320828,-80.4551,Spanish House,2,0.93,1.09,22,21,NIGHT_CLEAR,Cross-shore,1
5842041f4e65fad6a7708aa7,2024_12_21,28.64397251741012,-80.62329,Playalinda,1,0.67,0.98,20,20,NIGHT_CLEAR,Offshore,1
5842041f4e65fad6a7708aa8,2024_12_21,28.406142,-80.58886,Jetty Park,1,0.2,0.5,21,21,NIGHT_CLEAR,Offshore,1
5842041f4e65fad6a7708aa9,2024_12_21,28.49083243010974,-80.58001715986319,Kennedy Space Center,2,0.65,0.95,20,20,NIGHT_CLEAR,Cross-shore,1
5842041f4e65fad6a7708aab,2024_12_21,28.336757013024314,-80.60568,Lori Wilson Park,2,0.47,0.77,19,19,NIGHT_CLEAR,Offshore,1
5842041f4e65fad6a7708aad,2024_12_21,27.76388821683801,-80.3962958234027,Wabasso,1,0.66,0.96,23,23,NIGHT_CLEAR,Cross-shore,1
5842041f4e65fad6a7708aae,2024_12_21,27.521583322459,-80.30987620353699,P.V. Martin's,2,0.64,0.94,23,22,NIGHT_CLEAR,Offshore,1
5842041f4e65fad6a7708aaf,2024_12_21,27.644996047720046,-80.35242676734924,Riomar,1,0.67,0.97,23,22,NIGHT_CLEAR,Cross-shore,1
5842041f4e65fad6a7708ab1,2024_12_21,27.670121806659253,-80.36026954650879,Vero Pier,3,0.96,1.27,23,22,NIGHT_CLEAR,Offshore,1
5842041f4e65fad6a7708ab2,2024_12_21,28.047705032021486,-80.54680109024048,Spessard Holland,2,0.7704,1.01736,21,21,NIGHT_CLEAR,Offshore,1
5842041f4e65fad6a7708ab7,2024_12_21,28.135426226217064,-80.57895541191101,The Radisson,1,0.67,0.98,21,19,NIGHT_CLEAR,Cross-shore,1
5842041f4e65fad6a7708ab8,2024_12_21,28.26664623907351,-80.60448,Picnic Tables,2,0.58,0.89,21,21,NIGHT_CLEAR,Offshore,1
5842041f4e65fad6a7708ab9,2024_12_21,28.200840983180232,-80.59493,Perkins,2,0.73,1.04,21,21,NIGHT_CLEAR,Offshore,1
5842041f4e65fad6a7708aba,2024_12_21,28.185652556759443,-80.59154,RC's,2,0.72,1.03,21,21,NIGHT_CLEAR,Offshore,1
5842041f4e65fad6a7708abc,2024_12_21,28.252541991968208,-80.60269,2nd Light,2,0.57,0.87,21,21,NIGHT_CLEAR,Offshore,1
5842041f4e65fad6a7708abd,2024_12_21,27.901611308716447,-80.4697,Bonsteel Park,1,0.65,0.96,22,21,NIGHT_CLEAR,Cross-shore,1
5842041f4e65fad6a7708abe,2024_12_21,28.2423394657007,-80.60104,Hangar's Beach,2,0.65,0.96,21,21,NIGHT_CLEAR,Offshore,1
5842041f4e65fad6a7708abf,2024_12_21,27.34018197146798,-80.23278,Walton Rocks,1,0.69,0.99,24,23,NIGHT_CLEAR,Cross-shore,1
5842041f4e65fad6a7708ac0,2024_12_21,25.80407401902198,-80.1222227290161,30th Street,1,0,0.3,25,25,NIGHT_CLEAR,Offshore,1
5842041f4e65fad6a7708ac1,2024_12_21,25.76570280215999,-80.12983,South Beach,0,0,0.2,26,24,NIGHT_CLEAR,Offshore,1
5842041f4e65fad6a7708ac2,2024_12_21,26.058022412197,-80.10873562327671,Dania Pier,1,0.08,0.38,26,26,NIGHT_CLEAR,Offshore,1
5842041f4e65fad6a7708ac3,2024_12_21,26.04825428257198,-80.11153150137932,Franklin Street,1,0.22,0.52,26,26,NIGHT_CLEAR,Offshore,1
5842041f4e65fad6a7708ac4,2024_12_21,26.09086461141498,-80.10728410144065,John Lloyd State Park,1,0.22,0.52,26,26,NIGHT_CLEAR,Offshore,1
5842041f4e65fad6a7708ac5,2024_12_21,26.0971397396683,-80.10298876028907,Spoils,1,0.09,0.39,26,26,NIGHT_CLEAR,Offshore,1
5842041f4e65fad6a7708ac6,2024_12_21,26.18920557475824,-80.09224,Commercial Pier,1,0.16,0.47,26,26,NIGHT_CLEAR,Offshore,1
5842041f4e65fad6a7708ac7,2024_12_21,28.289851576629342,-80.6063,16th St. South,2,0.46,0.77,23,23,NIGHT_CLEAR,Offshore,1
5842041f4e65fad6a7708ac8,2024_12_21,26.23467460139735,-80.0874,Pompano Pier,1,0,0.2,25,25,NIGHT_CLEAR,Offshore,1
5842041f4e65fad6a7708acb,2024_12_21,26.44179551370651,-80.05928855229453,Atlantic Dunes Park,2,0.23112,0.40826,25,23,NIGHT_CLEAR,Offshore,1
5842041f4e65fad6a7708acd,2024_12_21,26.62215707439298,-80.03599398392342,Hilton Hotel Backyard,2,0.44,0.74,25,23,NIGHT_CLEAR,Offshore,1
5842041f4e65fad6a7708ace,2024_12_21,26.96418190555367,-80.07769168113562,Coral Cove Park,2,0.61,0.92,24,23,NIGHT_CLEAR,Offshore,1
5842041f4e65fad6a7708acf,2024_12_21,26.7029496416037,-80.03184,Palm Beach,2,0.53,0.84,25,23,NIGHT_CLEAR,Offshore,1
5842041f4e65fad6a7708ad0,2024_12_21,26.97679878167375,-80.08141631388132,Blowing Rocks,2,0.7,1.01,24,23,NIGHT_CLEAR,Offshore,1
5842041f4e65fad6a7708ad2,2024_12_21,26.45661880078336,-80.057,Delray Beach,2,0.04,0.35,25,23,NIGHT_CLEAR,Offshore,1
5842041f4e65fad6a7708ad3,2024_12_21,27.205685534312778,-80.16826629638672,Fletcher's,2,0.61,0.92,24,23,NIGHT_CLEAR,Cross-shore,1
5842041f4e65fad6a7708ad5,2024_12_21,26.5848450388814,-80.03649735753257,Lantana Public Beach,2,0.58,0.89,25,23,NIGHT_CLEAR,Offshore,1
5842041f4e65fad6a7708ad6,2024_12_21,25.77468432731322,-80.12884045797499,5th Street,1,0.09,0.4,25,25,NIGHT_CLEAR,Offshore,1
5842041f4e65fad6a7708ad7,2024_12_21,25.795157990715975,-80.12527585029602,21st Street,1,0,0.3,25,25,NIGHT_CLEAR,Offshore,1
5842041f4e65fad6a7708ad8,2024_12_21,25.897806453088073,-80.1211827993393,Haulover Inlet (South Jetty),1,0.09,0.4,26,26,NIGHT_CLEAR,Offshore,1
5842041f4e65fad6a7708ad9,2024_12_21,25.90147392328634,-80.12110769748688,Haulover Inlet (North Jetty),1,0.19,0.49,26,26,NIGHT_CLEAR,Offshore,1
5842041f4e65fad6a7708ada,2024_12_21,25.87049374242476,-80.11828560342356,85th Street,1,0.11,0.42,26,26,NIGHT_CLEAR,Offshore,1
5842041f4e65fad6a7708adb,2024_12_21,26.25486382031396,-80.0805,Hillsboro Inlet,1,0.13601,0.44988,25,25,NIGHT_CLEAR,Offshore,1
5842041f4e65fad6a7708add,2024_12_21,26.29705672965111,-80.07612,Hillsboro Beach,1,0.15,0.45,25,25,NIGHT_CLEAR,Offshore,1
5842041f4e65fad6a7708ade,2024_12_21,26.36569956413266,-80.06717936869391,Red Reef Park,1,0.25,0.55,25,24,NIGHT_CLEAR,Offshore,1
5842041f4e65fad6a7708adf,2024_12_21,26.54593873498907,-80.04104359585143,Boynton Beach Inlet (Northside),1,0.19,0.49,25,23,NIGHT_CLEAR,Offshore,1
5842041f4e65fad6a7708ae0,2024_12_21,26.92746505629809,-80.06721138954163,Corners,2,0.77137,0.95749,25,23,NIGHT_CLEAR,Offshore,1
5842041f4e65fad6a7708ae1,2024_12_21,26.76983179886943,-80.03413481937037,The Cove,2,0.59,0.89,25,23,NIGHT_CLEAR,Offshore,1
5842041f4e65fad6a7708ae3,2024_12_21,26.39224485175123,-80.0650461233983,Japanese Rock,1,0.18,0.48,25,24,NIGHT_CLEAR,Offshore,1
5842041f4e65fad6a7708ae4,2024_12_21,29.94810928551321,-85.42545434612366,Mexico Beach,1,0,0.24,19,19,NIGHT_CLEAR,Offshore,1
5842041f4e65fad6a7708ae5,2024_12_21,30.11752500931267,-85.7306,Shell Island,0,0,0.2,19,19,NIGHT_CLEAR,Offshore,1
5842041f4e65fad6a7708ae7,2024_12_21,29.94901514702268,-85.43042978529013,D.J.'s,1,0,0.23,19,19,NIGHT_CLEAR,Offshore,1
5842041f4e65fad6a7708ae8,2024_12_21,30.12396111446713,-85.73637,St. Andrew's Park,0,0,0.19,19,18,NIGHT_CLEAR,Offshore,1
5842041f4e65fad6a7708ae9,2024_12_21,30.16781531760227,-85.79604918824084,Spinnaker,0,0,0.13,19,18,NIGHT_CLEAR,Offshore,1
5842041f4e65fad6a7708aea,2024_12_21,30.18877050526983,-85.83243530466363,Wood Pier,0,0,0.12,19,18,NIGHT_CLEAR,Offshore,1
5842041f4e65fad6a7708aeb,2024_12_21,30.2676205895555,-85.9938578144113,Inlet Beach Pier,0,0,0.12,19,18,NIGHT_CLEAR,Offshore,1
5842041f4e65fad6a7708aec,2024_12_21,30.31815542759119,-86.1383771867044,Bud and Alley's,0,0,0.1,19,18,NIGHT_CLEAR,Offshore,1
5842041f4e65fad6a7708aed,2024_12_21,30.32686082481946,-86.16650590275447,Grayton Beach,0,0,0.07,19,18,NIGHT_CLEAR,Offshore,1
5842041f4e65fad6a7708aee,2024_12_21,30.33661488976303,-86.20094,Blue Mountain Beach,0,0,0.09,19,18,NIGHT_CLEAR,Offshore,1
5842041f4e65fad6a7708aef,2024_12_21,30.37677202831587,-86.38513,Pompano Joe's,0,0,0.05,19,18,NIGHT_CLEAR,Offshore,1
5842041f4e65fad6a7708af0,2024_12_21,30.37429731725911,-86.36687,Seascape,0,0,0.07,19,18,NIGHT_CLEAR,Offshore,1
5842041f4e65fad6a7708af1,2024_12_21,30.382815988547186,-86.45839,The Back Porch,0,0,0.05,19,18,NIGHT_CLEAR,Offshore,1
5842041f4e65fad6a7708af2,2024_12_21,30.21207176798612,-85.87989730830542,Panama City Pier,0,0,0.12,19,18,NIGHT_CLEAR,Offshore,1
5842041f4e65fad6a7708af3,2024_12_21,30.37521499110326,-86.3717,Whale's Tail,0,0,0.06,19,18,NIGHT_CLEAR,Offshore,1
5842041f4e65fad6a7708af4,2024_12_21,30.38120596658251,-86.43046,Old Crystal Pier,0,0,0.05,19,18,NIGHT_CLEAR,Offshore,1
5842041f4e65fad6a7708af5,2024_12_21,30.38090573159031,-86.50655,Jetty East,0,0,0.05,19,18,NIGHT_CLEAR,Offshore,1
5842041f4e65fad6a7708af6,2024_12_21,30.37584509640838,-86.50563,HMO's,0,0,0.06,19,18,NIGHT_CLEAR,Offshore,1
5842041f4e65fad6a7708af7,2024_12_21,30.38124006131522,-86.50052,Two By Fours,0,0,0.06,19,18,NIGHT_CLEAR,Offshore,1
5842041f4e65fad6a7708af8,2024_12_21,30.38250751017554,-86.45776,The Pumphouse,0,0,0.06,19,18,NIGHT_CLEAR,Offshore,1
5842041f4e65fad6a7708af9,2024_12_21,30.38655981578935,-86.52475,NCO Club,0,0,0.06,19,18,NIGHT_CLEAR,Offshore,1
5842041f4e65fad6a7708afa,2024_12_21,30.39024516541047,-86.59341,Okaloosa Pier,0,0,0.05,19,18,NIGHT_CLEAR,Offshore,1
5842041f4e65fad6a7708afb,2024_12_21,30.39281125722673,-86.59766,Dead Man's,0,0,0.05,19,18,NIGHT_CLEAR,Offshore,1
5842041f4e65fad6a7708afc,2024_12_21,30.32703176167034,-87.14196,Pensacola Pier,0,0,0.04,21,21,NIGHT_CLEAR,Offshore,1
5842041f4e65fad6a7708afd,2024_12_21,30.37920054094992,-86.85583,Navarre Beach,0,0,0.04,19,18,NIGHT_CLEAR,Offshore,1
5842041f4e65fad6a7708afe,2024_12_21,30.39491626029151,-86.61248,Blue Horizon Motel,0,0,0.05,19,18,NIGHT_CLEAR,Offshore,1
5842041f4e65fad6a7708aff,2024_12_21,30.29345899260828,-87.43547,First Parking Lot,0,0,0.04,21,21,NIGHT_CLEAR,Offshore,1
5842041f4e65fad6a7708b00,2024_12_21,30.29767401311303,-87.41362,Johnsons Beach,0,0,0.05,21,21,NIGHT_CLEAR,Offshore,1
5842041f4e65fad6a7708b01,2024_12_21,30.29513397370759,-87.42642,Sandy Key,0,0,0.04,21,21,NIGHT_CLEAR,Offshore,1
5842041f4e65fad6a7708b03,2024_12_21,30.377504907388026,-86.86444,Navarre Pier,0,0,0.05,19,18,NIGHT_CLEAR,Offshore,1
5842041f4e65fad6a7708b04,2024_12_21,30.31482647791307,-87.26164,Pickens Point Dunes,0,0,0.05,21,21,NIGHT_CLEAR,Offshore,1
5842041f4e65fad6a7708b05,2024_12_21,30.32632110836516,-87.16019503253068,Slabs,0,0,0.04,21,21,NIGHT_CLEAR,Offshore,1
5842041f4e65fad6a7708b06,2024_12_21,30.32739721382043,-87.30406515493348,Pickens Point,0,0,0.05,21,21,NIGHT_CLEAR,Offshore,1
5842041f4e65fad6a7708b07,2024_12_21,30.27406893266753,-87.54367,Bungalows,0,0,0.05,21,21,NIGHT_CLEAR,Offshore,1
5842041f4e65fad6a7708b08,2024_12_21,27.99627311846992,-82.82942,880,1,0.52862,0.85901,19,19,NIGHT_CLEAR,Cross-shore,1
5842041f4e65fad6a7708b09,2024_12_21,27.97779860371595,-82.83246509090527,Pier 60,1,0.56,0.86,19,19,NIGHT_CLEAR,Cross-shore,1
5842041f4e65fad6a7708b0a,2024_12_21,27.96296387618043,-82.8332635965418,Sand Key,1,0.56,0.86,19,19,NIGHT_CLEAR,Cross-shore,1
5842041f4e65fad6a7708b0b,2024_12_21,27.92492619212885,-82.8449122845279,Belleair,1,0.57,0.87,19,19,NIGHT_CLEAR,Cross-shore,1
5842041f4e65fad6a7708b0c,2024_12_21,27.882,-82.854,Indian Rocks Beach,1,0.62,0.92,19,19,NIGHT_CLEAR,Cross-shore,1
5842041f4e65fad6a7708b0d,2024_12_21,27.83106104966094,-82.83550218771384,Redington Breakwater,2,0.57,0.87,19,19,NIGHT_CLEAR,Cross-shore,1
5842041f4e65fad6a7708b0e,2024_12_21,27.74369029906206,-82.76053473435867,Middle Jetty,2,0.52,0.83,19,19,NIGHT_CLEAR,Cross-shore,1
5842041f4e65fad6a7708b0f,2024_12_21,27.82174178852146,-82.83148664631841,Redington Pier,2,0.54,0.85,19,19,NIGHT_CLEAR,Cross-shore,1
5842041f4e65fad6a7708b10,2024_12_21,27.31496308261514,-82.5830466912004,Lido Beach,2,0.42,0.73,19,19,NIGHT_CLEAR,Cross-shore,1
5842041f4e65fad6a7708b11,2024_12_21,27.31122010159892,-82.57833234007632,Coolidge,1,0.42,0.73,19,19,NIGHT_CLEAR,Cross-shore,1
5842041f4e65fad6a7708b12,2024_12_21,27.26471672017615,-82.55464835167173,Siesta Key,1,0.15,0.45,24,22,NIGHT_CLEAR,Offshore,1
5842041f4e65fad6a7708b13,2024_12_21,27.24638693488133,-82.53809115716797,Stickney Point,2,0.39,0.69,19,19,NIGHT_CLEAR,Offshore,1
5842041f4e65fad6a7708b14,2024_12_21,27.21907878229092,-82.51813937562073,Turtles,2,0.37,0.68,19,19,NIGHT_CLEAR,Offshore,1
5842041f4e65fad6a7708b15,2024_12_21,27.11375765852028,-82.47039,Venice Jetties North,1,0.26,0.56,24,22,NIGHT_CLEAR,Cross-shore,1
5842041f4e65fad6a7708b16,2024_12_21,27.111485758834025,-82.46757,Venice Jetties South,1,0.24,0.55,24,22,NIGHT_CLEAR,Offshore,1
5842041f4e65fad6a7708b17,2024_12_21,27.07249378831575,-82.4530285256104,Venice Pier,2,0.42,0.73,24,22,NIGHT_CLEAR,Offshore,1
5842041f4e65fad6a7708b19,2024_12_21,27.49680446426314,-82.7140145455959,Holmes Beach Pier,1,0.4,0.71,19,19,NIGHT_CLEAR,Cross-shore,1
5842041f4e65fad6a7708b1a,2024_12_21,27.7390348493064,-82.75763,Sunset Beach,2,0.52,0.82,19,19,NIGHT_CLEAR,Offshore,1
5842041f4e65fad6a7708b1b,2024_12_21,26.80347307599041,-82.28564775623539,Gasparilla Point,2,0.36,0.66,20,20,NIGHT_CLEAR,Cross-shore,1
5842041f4e65fad6a7708b1c,2024_12_21,27.45365831548911,-82.69609,Coquina Jetties,1,0.39,0.69,19,19,NIGHT_CLEAR,Cross-shore,1
5842041f4e65fad6a7708b1d,2024_12_21,27.46077315206043,-82.69924,Twin Piers,1,0.2,0.51,24,22,NIGHT_CLEAR,Cross-shore,1
5842041f4e65fad6a7708b1e,2024_12_21,26.91007316019612,-82.35352,Englewood,2,0.16,0.46,19,19,NIGHT_CLEAR,Offshore,1
5842041f4e65fad6a7708b1f,2024_12_21,26.88221101560038,-82.3359828282636,Knight's Point,2,0.34,0.64,19,19,NIGHT_CLEAR,Offshore,1
5842041f4e65fad6a7708b20,2024_12_21,26.51219285784982,-82.1928203289264,Tween Waters,1,0.38,0.69,20,20,NIGHT_CLEAR,Cross-shore,1
5842041f4e65fad6a7708b21,2024_12_21,26.55130241615096,-82.20222762415648,Redfish Pass,1,0.38,0.69,20,20,NIGHT_CLEAR,Cross-shore,1
5842041f4e65fad6a7708b22,2024_12_21,26.71713432926596,-82.26287777058234,Boca Grande,1,0.35,0.66,20,20,NIGHT_CLEAR,Cross-shore,1
5842041f4e65fad6a7708b23,2024_12_21,26.47856785808584,-82.181288592828,Blind Pass,1,0.39,0.69,20,20,NIGHT_CLEAR,Cross-shore,1
5842041f4e65fad6a7708b24,2024_12_21,26.25358330618783,-81.82429246081317,The Wall,1,0.18,0.48,21,21,NIGHT_CLEAR,Cross-shore,1
5842041f4e65fad6a7708b25,2024_12_21,26.17456407516186,-81.81588575623482,Doctor's Pass,1,0.18,0.48,20,20,NIGHT_CLEAR,Cross-shore,1
5842041f4e65fad6a7708b26,2024_12_21,27.427134501874612,-82.68110766159296,Whitney Beach,1,0.49,0.79,19,19,NIGHT_CLEAR,Cross-shore,1
5842041f4e65fad6a7708b27,2024_12_21,26.17300183052463,-81.81515842430267,Doctor's Pass (South Jetty),1,0.18,0.48,20,20,NIGHT_CLEAR,Cross-shore,1
5842041f4e65fad6a7708b28,2024_12_21,27.73496421495629,-82.75268962468695,Upham Beach Park,2,0.52,0.82,20,20,NIGHT_CLEAR,Cross-shore,1
5842041f4e65fad6a7708b29,2024_12_21,26.13144856766723,-81.8090395116521,Naples Pier,1,0.14,0.44,20,20,NIGHT_CLEAR,Cross-shore,1
5842041f4e65fad6a7708b2a,2024_12_21,20.63474,-156.45211,Little Beach,1,0,0.26,26,26,NIGHT_CLEAR,Offshore,1
5842041f4e65fad6a7708b2b,2024_12_21,20.613,-156.438,Dumps,1,0,0.27,26,26,NIGHT_MOSTLY_CLEAR,Offshore,1
5842041f4e65fad6a7708b2c,2024_12_21,22.216,-159.502,Hanalei Bay,3,6.06,7.24,25,25,NIGHT_CLEAR,Onshore,1
5842041f4e65fad6a7708b2d,2024_12_21,22.225,-159.567,Ha'Ena Bay (Cannons/Tunnels),3,6.16,7.36,25,25,NIGHT_CLEAR,Cross-shore,1
5842041f4e65fad6a7708b2f,2024_12_21,22.148,-159.301,Anahola Bay,4,1.48,1.77,25,25,NIGHT_MOSTLY_CLOUDY,Offshore,1
5842041f4e65fad6a7708b30,2024_12_21,21.872,-159.462,Poipu Outer Reef,2,0.25,0.56,25,25,NIGHT_FOG,Onshore,1
5842041f4e65fad6a7708b31,2024_12_21,21.936,-159.652,Pakala,2,0.21,0.52,25,25,NIGHT_BRIEF_SHOWERS,Cross-shore,1
5842041f4e65fad6a7708b32,2024_12_21,21.272,-157.832,Populars,2,0.04,0.35,26,25,NIGHT_MOSTLY_CLOUDY,Offshore,1
5842041f4e65fad6a7708b33,2024_12_21,21.26841992117695,-157.82329,Publics,2,0.07,0.38,26,25,NIGHT_CLEAR,Cross-shore,1
5842041f4e65fad6a7708b34,2024_12_21,21.25460513357954,-157.79432,Black Point,2,0.36446,0.68573,26,26,NIGHT_MOSTLY_CLOUDY,Cross-shore,1
5842041f4e65fad6a7708b35,2024_12_21,21.27394674233747,-157.82777,Canoes,2,0.07,0.38,26,25,NIGHT_CLEAR,Cross-shore,1
5842041f4e65fad6a7708b36,2024_12_21,21.273658410008455,-157.8263,Queen's,1,0,0.27,26,25,NIGHT_CLEAR,Cross-shore,1
5842041f4e65fad6a7708b37,2024_12_21,20.869,-156.679,Lahaina Harbor - Breakwall,2,0.12,0.42,26,26,NIGHT_BRIEF_SHOWERS_POSSIBLE,Cross-shore,1
5842041f4e65fad6a7708b38,2024_12_21,21.277,-157.841,Kaiser's,2,0.06,0.36,26,25,NIGHT_MOSTLY_CLOUDY,Offshore,1
5842041f4e65fad6a7708b39,2024_12_21,21.280537020769913,-157.84107,Rockpiles,2,0.30853,0.60572,26,25,NIGHT_MOSTLY_CLOUDY,Offshore,1
5842041f4e65fad6a7708b3a,2024_12_21,21.2745,-157.8395,Four's,2,0.11,0.42,26,26,NIGHT_MOSTLY_CLOUDY,Offshore,1
5842041f4e65fad6a7708b3b,2024_12_21,21.576,-158.282,Kaena Point,3,4.72,5.64,26,26,NIGHT_MOSTLY_CLOUDY,Offshore,1
5842041f4e65fad6a7708b3c,2024_12_21,21.31110306220024,-157.6590697786346,Makapu'u,4,0.9,1.08,25,25,NIGHT_CLEAR,Offshore,1
5842041f4e65fad6a7708b3d,2024_12_21,21.276618032562773,-157.83386,Three's,2,0.31327,0.58087,26,25,NIGHT_MOSTLY_CLOUDY,Offshore,1
5842041f4e65fad6a7708b3f,2024_12_21,39.63537452931482,-123.7858735430881,Westport,2,1.97,2.35,12,12,NIGHT_CLEAR,Cross-shore,1
5842041f4e65fad6a7708b40,2024_12_21,39.47339314374171,-123.8053109861082,MacKerricher,2,2.56,3.05,12,12,NIGHT_CLEAR,Cross-shore,1
5842041f4e65fad6a7708b41,2024_12_21,39.30271935445495,-123.79757,Mendocino Township,2,2.1,2.5,12,12,NIGHT_MOSTLY_CLOUDY,Cross-shore,1
5842041f4e65fad6a7708b42,2024_12_21,21.281416779283845,-157.8457,Ala Moana Bowls,2,0.36533,0.678,26,25,NIGHT_MOSTLY_CLOUDY,Offshore,1
5842041f4e65fad6a7708b43,2024_12_21,15.846,-97.06,Puerto Escondido,3,0.92,1.1,30,30,NIGHT_CLEAR,Offshore,1
5842041f4e65fad6a7708b44,2024_12_21,11.44175,-86.08519,Santana,2,0.41,0.71,26,26,NIGHT_OVERCAST,Offshore,1
5842041f4e65fad6a7708b46,2024_12_21,38.91444690804076,-123.7104245288878,Point Arena,1,3.48,4.15,13,13,NIGHT_MOSTLY_CLOUDY,Cross-shore,1
5842041f4e65fad6a7708b47,2024_12_21,18.46,-66.07383728027,San Juan,3,1.04,1.24,27,26,NIGHT_CLEAR,Cross-shore,1
5842041f4e65fad6a7708b48,2024_12_21,13.21526058417982,-59.52183,Soup Bowl,2,1.31,1.61,28,28,NIGHT_CLOUDY,Onshore,1
5842041f4e65fad6a7708b49,2024_12_21,18.371581,-67.25941,Puntas,2,0.16,0.46,28,27,NIGHT_CLEAR,Cross-shore,1
5842041f4e65fad6a7708b4b,2024_12_21,-8.814,115.089,Uluwatu,2,1.5798,1.9797,28,28,LIGHT_SHOWERS,Onshore,1
5842041f4e65fad6a7708b4c,2024_12_21,-8.950192825865,115.12573242187,Kuta,2,2.15,2.57,29,29,CLOUDY,Cross-shore,1
5842041f4e65fad6a7708b4d,2024_12_21,9.94,-85.668,Guiones,2,0.45,0.76,28,28,NIGHT_CLEAR,Offshore,1
5842041f4e65fad6a7708b4e,2024_12_21,9.56516,-84.59148,Playa Hermosa South,3,0.48833,0.82903,29,29,NIGHT_BRIEF_SHOWERS_POSSIBLE,Offshore,1
5842041f4e65fad6a7708b4f,2024_12_21,9.526305556,-84.48822,Playa Esterillos,3,0.74,1.04,29,29,NIGHT_BRIEF_SHOWERS_POSSIBLE,Offshore,1
5842041f4e65fad6a7708b50,2024_12_21,9.576,-84.608,Playa Hermosa North,3,0.71,1.02,29,29,NIGHT_BRIEF_SHOWERS_POSSIBLE,Offshore,1
5842041f4e65fad6a7708b53,2024_12_21,-12.337,-76.839,Pico Alto,3,1.009,1.20641,18,18,NIGHT_OVERCAST,Onshore,1
5842041f4e65fad6a7708b55,2024_12_21,-12.17155,-77.08515,Peruazul,3,0.98,1.07,18,18,NIGHT_CLEAR,Cross-shore,1
5842041f4e65fad6a7708b56,2024_12_21,-12.133164,-77.03916,Makaha,3,1.006,1.20282,18,18,NIGHT_CLEAR,Cross-shore,1
5842041f4e65fad6a7708b57,2024_12_21,43.29,-2.1708,Zarautz,3,1.13813,1.47957,14,14,CLOUDY,Offshore,1
5842041f4e65fad6a7708b58,2024_12_21,54.27129984804951,-8.60171,Strandhill,0,2.84985,4.4529,10,10,BRIEF_SHOWERS_POSSIBLE,Onshore,1
5842041f4e65fad6a7708b5b,2024_12_21,39.276101,-74.56709,7th Street,3,0.70981,1.07655,7,6,NIGHT_MOSTLY_CLOUDY,Offshore,1
5842041f4e65fad6a7708b5d,2024_12_21,39.321896,-74.506191,Sumner Avenue,2,0.58,0.89,13,12,NIGHT_MOSTLY_CLOUDY,Offshore,1
5842041f4e65fad6a7708b5e,2024_12_21,39.093673,-74.71653,26th to 30th Street Pier,2,0.61,0.91,7,6,NIGHT_CLOUDY,Offshore,1
5842041f4e65fad6a7708b5f,2024_12_21,39.039903,-74.76417,Nun's Beach,3,0.68357,1.07598,8,7,NIGHT_CLOUDY,Offshore,1
5842041f4e65fad6a7708b60,2024_12_21,38.96768,-74.82565,Rambler Road,3,0.62,0.92,8,7,NIGHT_CLOUDY,Offshore,1
5842041f4e65fad6a7708b61,2024_12_21,38.99931,-74.78814,2nd St. to 10th St.,3,0.64,0.94,8,7,NIGHT_CLOUDY,Offshore,1
5842041f4e65fad6a7708b62,2024_12_21,38.929886,-74.91718,Stockton Avenue,2,0.39095,0.79539,8,7,NIGHT_CLOUDY,Offshore,1
5842041f4e65fad6a7708b63,2024_12_21,38.942988,-74.862452,The Rocks,2,0.31,0.62,8,7,NIGHT_MOSTLY_CLOUDY,Offshore,1
5842041f4e65fad6a7708b64,2024_12_21,38.93036,-74.91257,Queen Street,2,0.48,0.78,8,7,NIGHT_MOSTLY_CLOUDY,Offshore,1
5842041f4e65fad6a7708b65,2024_12_21,38.942757,-74.880791,Poverty Beach,1,0.36,0.67,8,7,NIGHT_MOSTLY_CLOUDY,Cross-shore,1
5842041f4e65fad6a7708b66,2024_12_21,38.929441,-74.93129,Broadway Beach,2,0.48,0.79,8,7,NIGHT_CLOUDY,Offshore,1
5842041f4e65fad6a7708b67,2024_12_21,38.92870117926206,-74.92116,Grant Street Beach,2,0.48,0.78,8,7,NIGHT_CLOUDY,Offshore,1
5842041f4e65fad6a7708b68,2024_12_21,38.928934874358276,-74.93582,The Cove,1,0.22,0.53,8,8,NIGHT_CLOUDY,Offshore,1
5842041f4e65fad6a7708b69,2024_12_21,26.775154329102108,-80.03124833106995,Pumphouse,2,0.6,0.9,26,26,NIGHT_CLEAR,Offshore,1
5842041f4e65fad6a7708b6a,2024_12_21,26.72114353296791,-80.03310374527736,Sunrise,2,0.47,0.78,25,23,NIGHT_CLEAR,Offshore,1
5842041f4e65fad6a7708b6b,2024_12_21,26.71306786153966,-80.03222170715443,Breakers,2,0.52,0.82,25,23,NIGHT_CLEAR,Offshore,1
5842041f4e65fad6a7708b6c,2024_12_21,26.699075556703683,-80.03263235092163,Charlie's Crab,2,0.54,0.84,25,23,NIGHT_CLEAR,Offshore,1
5842041f4e65fad6a7708b6d,2024_12_21,26.79441490392914,-80.0306161110009,Ocean Reef Park,2,0.47,0.77,25,23,NIGHT_CLEAR,Offshore,1
5842041f4e65fad6a7708b6f,2024_12_21,26.93134670517399,-80.06760115579169,Civic Center,2,0.77365,0.95782,25,23,NIGHT_CLEAR,Offshore,1
5842041f4e65fad6a7708b70,2024_12_21,26.90524197396177,-80.0593609780092,Kite Beach,2,0.4589,0.66554,25,23,NIGHT_CLEAR,Offshore,1
5842041f4e65fad6a7708b71,2024_12_21,26.54279208054373,-80.04292130470276,Boynton Beach Inlet (Southside),1,0.19,0.49,25,23,NIGHT_CLEAR,Offshore,1
5842041f4e65fad6a7708b72,2024_12_21,26.613511029817357,-80.03534,Lake Worth Pier,1,0.05,0.35,25,23,NIGHT_CLEAR,Offshore,1
5842041f4e65fad6a7708b73,2024_12_21,27.06670219261476,-80.11447191238403,Hobe Sound Public Beach,1,0.73,1.04,24,23,NIGHT_CLEAR,Cross-shore,1
5842041f4e65fad6a7708b75,2024_12_21,27.21467611230439,-80.17308,Stuart Public Beach,1,0.69,0.99,24,23,NIGHT_CLEAR,Cross-shore,1
5842041f4e65fad6a7708b76,2024_12_21,27.36627923374593,-80.24622,Blind Creek Park,3,0.98,1.13,24,23,NIGHT_CLEAR,Cross-shore,1
5842041f4e65fad6a7708b77,2024_12_21,26.94256932088346,-80.07057,Jupiter Inlet,2,0.64,0.95,24,23,NIGHT_CLEAR,Offshore,1
5842041f4e65fad6a7708b78,2024_12_21,26.89365359499372,-80.056,Juno Pier,1,0.12,0.43,25,23,NIGHT_CLEAR,Offshore,1
5842041f4e65fad6a7708b7a,2024_12_21,29.67671206577928,-85.3689474172784,Cape San Blas,2,0,0.31,20,20,NIGHT_CLEAR,Cross-shore,1
5842041f4e65fad6a7708b7b,2024_12_21,26.706551543472415,-80.03280401229858,Flagpole,2,0.53,0.83,25,23,NIGHT_CLEAR,Offshore,1
5842041f4e65fad6a7708b7c,2024_12_21,29.94036477533054,-85.40953557392244,El Governor,1,0,0.24,19,19,NIGHT_CLEAR,Offshore,1
5842041f4e65fad6a7708b7d,2024_12_21,29.68231979841189,-85.30627194238092,Toilet Bowls,1,0,0.31,20,20,NIGHT_CLEAR,Offshore,1
5842041f4e65fad6a7708b7e,2024_12_21,29.6607153445246,-84.86361191991014,St. George Island,1,0,0.18,19,19,NIGHT_CLEAR,Offshore,1
5842041f4e65fad6a7708b7f,2024_12_21,29.77441172865639,-84.65942657000329,Dog Island,0,0,0.11,18,18,NIGHT_CLEAR,Offshore,1
5842041f4e65fad6a7708b80,2024_12_21,28.59674155718017,-95.97559,Matagorda,2,0.19,0.49,20,20,NIGHT_CLEAR,Offshore,1
5842041f4e65fad6a7708b81,2024_12_21,27.84601633294622,-97.04372701603208,St. Joe's Island,1,0.25,0.56,20,20,NIGHT_CLEAR,Cross-shore,1
5842041f4e65fad6a7708b82,2024_12_21,27.64327897922308,-97.18612,J.P. Luby Surf Park,1,0.18019,0.54056,19,19,NIGHT_CLEAR,Cross-shore,1
5842041f4e65fad6a7708b83,2024_12_21,27.82704888028459,-97.05277,Horace Caldwell Pier,1,0.14502,0.50757,20,20,NIGHT_CLEAR,Cross-shore,1
5842041f4e65fad6a7708b84,2024_12_21,27.67634780977739,-97.16473,Fish Pass,1,0.18019,0.54056,19,19,NIGHT_CLEAR,Cross-shore,1
5842041f4e65fad6a7708b85,2024_12_21,27.58118015227788,-97.2191,Bob Hall Pier,1,0.12263,0.4905,19,19,NIGHT_CLEAR,Cross-shore,1
5842041f4e65fad6a7708b86,2024_12_21,28.93236038480434,-95.30205,Quintana,1,0.16311,0.52428,20,20,NIGHT_CLEAR,Cross-shore,1
5842041f4e65fad6a7708b87,2024_12_21,28.94367955201253,-95.28969,Octagon,1,0.16311,0.52428,20,20,NIGHT_CLEAR,Cross-shore,1
5842041f4e65fad6a7708b88,2024_12_21,29.02647703020454,-95.18702498902157,Boilers,1,0,0.25,20,20,NIGHT_CLEAR,Cross-shore,1
5842041f4e65fad6a7708b89,2024_12_21,28.9653363517684,-95.26739753922841,Assholes,1,0.16,0.47,20,20,NIGHT_CLEAR,Cross-shore,1
5842041f4e65fad6a7708b8a,2024_12_21,29.27159138874912,-94.81532732168617,51st Street,1,0.1,0.41,19,19,NIGHT_CLEAR,Cross-shore,1
5842041f4e65fad6a7708b8b,2024_12_21,29.13902635892794,-95.04070493829546,West Galveston,1,0.12,0.42,19,19,NIGHT_CLEAR,Cross-shore,1
5842041f4e65fad6a7708b8c,2024_12_21,29.26596874354759,-94.82556,61st Street,1,0,0.33712,19,19,NIGHT_CLEAR,Offshore,1
5842041f4e65fad6a7708b8d,2024_12_21,29.279815639798642,-94.80146,37th Street,1,0.01199,0.38381,19,19,NIGHT_CLEAR,Cross-shore,1
5842041f4e65fad6a7708b8e,2024_12_21,29.28680654948785,-94.79106,Flagship,1,0.09473,0.44997,19,19,NIGHT_CLEAR,Cross-shore,1
5842041f4e65fad6a7708b8f,2024_12_21,29.4702751255731,-94.59146640261427,A-Frames,1,0.04,0.35,18,18,NIGHT_CLEAR,Offshore,1
5842041f4e65fad6a7708b90,2024_12_21,29.52172627288487,-94.45911,Meacom's Pier,1,0,0.31602,18,18,NIGHT_CLEAR,Offshore,1
5842041f4e65fad6a7708b91,2024_12_21,29.4510876813709,-94.63230467945758,Crystal Beach,0,0,0.3,18,18,NIGHT_CLEAR,Offshore,1
5842041f4e65fad6a7708b92,2024_12_21,26.06123118244004,-97.14769,Boca Chica,1,0.35491,0.70982,23,23,NIGHT_CLEAR,Onshore,1
5842041f4e65fad6a7708b93,2024_12_21,26.06961904983808,-97.15243,Isla Blanca State Park,2,0.38737,0.71939,23,23,NIGHT_CLEAR,Onshore,1
5842041f4e65fad6a7708b96,2024_12_21,26.56132001354785,-97.26967,Port Mansfield,1,0.21532,0.5742,20,20,NIGHT_CLEAR,Cross-shore,1
5842041f4e65fad6a7708b98,2024_12_21,10.85099440725964,-85.79981,Ollie's Point,1,0.28,0.59,27,27,NIGHT_OVERCAST,Offshore,1
5842041f4e65fad6a7708b99,2024_12_21,10.79489213393012,-85.68066,Witches Rock,1,0.25,0.55,28,28,NIGHT_OVERCAST,Offshore,1
5842041f4e65fad6a7708b9a,2024_12_21,9.570222044864844,-85.14184,Mal Pais,3,0.75,1.06,28,28,NIGHT_BRIEF_SHOWERS,Offshore,1
5842041f4e65fad6a7708b9b,2024_12_21,10.29970304257365,-85.84398,Tamarindo,1,0.19,0.5,28,28,NIGHT_CLEAR,Offshore,1
5842041f4e65fad6a7708b9c,2024_12_21,9.250593929300813,-83.86522,Dominical,3,0.63,0.94,29,29,NIGHT_CLEAR,Offshore,1
5842041f4e65fad6a7708b9d,2024_12_21,9.48278011021258,-84.28883991550364,Bejuco,3,0.66,0.97,29,29,NIGHT_CLEAR,Offshore,1
5842041f4e65fad6a7708ba1,2024_12_21,9.616940559391795,-84.63541,Playa Jaco,3,0.58494,0.92241,29,29,NIGHT_BRIEF_SHOWERS_POSSIBLE,Offshore,1
5842041f4e65fad6a7708ba3,2024_12_21,9.661646156842439,-84.67316883195207,Playa Escondida,2,0.63,0.94,29,29,NIGHT_CLEAR,Cross-shore,1
5842041f4e65fad6a7708ba4,2024_12_21,9.635059578319176,-84.66159522794959,Herradura,3,0.61,0.92,29,29,NIGHT_CLEAR,Offshore,1
5842041f4e65fad6a7708ba5,2024_12_21,9.958235741436532,-84.74122,Boca Barranca,3,0.57846,0.93262,28,28,NIGHT_CLEAR,Offshore,1
5842041f4e65fad6a7708ba6,2024_12_21,9.922484732656224,-84.7158981889118,Caldera Jetty,3,0.57,0.88,28,28,NIGHT_CLEAR,Offshore,1
5842041f4e65fad6a7708ba7,2024_12_21,9.661180947362254,-82.75273,Salsa Brava,3,0.73333,1.07707,28,28,NIGHT_CLEAR,Cross-shore,1
5842041f4e65fad6a7708ba8,2024_12_21,8.38230022212565,-83.28332,Matapalo,3,0.91,1.09,28,28,NIGHT_CLEAR,Offshore,1
5842041f4e65fad6a7708ba9,2024_12_21,8.394937,-83.13952,Pavones,3,0.66,0.97,28,28,NIGHT_CLEAR,Offshore,1
5842041f4e65fad6a7708baa,2024_12_21,13.47971255664387,-89.28610104791234,Playa San Diego,3,0.51,0.81,28,28,NIGHT_CLEAR,Offshore,1
5842041f4e65fad6a7708bab,2024_12_21,13.4834740494465,-89.32376,La Paz,2,0.22217,0.51196,28,28,NIGHT_CLEAR,Offshore,1
5842041f4e65fad6a7708bac,2024_12_21,13.48587874937462,-89.31998852531258,El Muelle (Pier),3,0.69,0.99,28,28,NIGHT_CLEAR,Offshore,1
5842041f4e65fad6a7708bad,2024_12_21,13.47973883183636,-89.32655,Punta Roca,2,0.7,1,28,28,NIGHT_CLEAR,Offshore,1
5842041f4e65fad6a7708bae,2024_12_21,13.491596878346689,-89.38104,La Bocana,3,0.44943,0.77828,28,28,NIGHT_CLEAR,Offshore,1
5842041f4e65fad6a7708baf,2024_12_21,13.48324995683858,-89.33946,Playa Conchalio,3,0.40325,0.7393,28,28,NIGHT_CLEAR,Offshore,1
5842041f4e65fad6a7708bb0,2024_12_21,13.49167561061991,-89.39,Sunzal,2,0.288,0.536,28,28,NIGHT_CLEAR,Offshore,1
5842041f4e65fad6a7708bb1,2024_12_21,35.92499624829542,-121.46957,Sand Dollar Beach,3,2.24,2.68,14,14,NIGHT_CLEAR,Cross-shore,1
5842041f4e65fad6a7708bb3,2024_12_21,36.55448900657569,-121.93114,Carmel Beach,3,1.04,1.34,14,14,NIGHT_CLEAR,Cross-shore,1
5842041f4e65fad6a7708bb4,2024_12_21,36.27968576518622,-121.85962,Big Sur Rivermouth,2,1.59,1.9,13,13,NIGHT_BRIEF_SHOWERS,Onshore,1
5842041f4e65fad6a7708bb5,2024_12_21,36.60883280895963,-121.9603486684287,Mole Point,3,1.85,2.21,14,14,NIGHT_CLEAR,Offshore,1
5842041f4e65fad6a7708bb6,2024_12_21,36.63788026219399,-121.9311174079908,Boneyard,4,1.62,1.94,14,14,NIGHT_MIST,Cross-shore,1
5842041f4e65fad6a7708bb7,2024_12_21,36.61880091818895,-121.9422482210244,Asilomar,3,1.89,2.26,14,14,NIGHT_CLEAR,Offshore,1
5842041f4e65fad6a7708bb8,2024_12_21,36.56037685095311,-121.9516152313922,Ghost Tree,2,1.47,1.76,14,14,NIGHT_CLEAR,Onshore,1
5842041f4e65fad6a7708bbb,2024_12_21,35.89412279173619,-121.462380148047,Willow Creek,3,1.58,1.89,14,14,NIGHT_BRIEF_SHOWERS,Cross-shore,1
5842041f4e65fad6a7708bbc,2024_12_21,36.6260658643635,-121.91548,Lovers Point,4,1.3,1.55,14,14,NIGHT_MIST,Cross-shore,1
5842041f4e65fad6a7708bbd,2024_12_21,38.945,-9.42,Foz de Lizandro,2,1.00268,1.30051,16,16,CLEAR,Offshore,1
5842041f4e65fad6a7708bbf,2024_12_21,36.80821791915616,-121.79055,Moss Landing,4,2.15,2.56,13,13,NIGHT_MIST,Cross-shore,1
5842041f4e65fad6a7708bc0,2024_12_21,38.67869246746279,-9.33685,Carcavelos,2,0.02048,0.32772,16,16,CLEAR,Offshore,1
5842041f4e65fad6a7708bc1,2024_12_21,38.983,-9.425,Reef,1,0.97,1.28,16,16,CLEAR,Offshore,1
5842041f4e65fad6a7708bc2,2024_12_21,38.988,-9.424,Ribeira D'Ilhas,3,0.7,1,16,16,CLEAR,Offshore,1
5842041f4e65fad6a7708bc3,2024_12_21,39.34167968424256,-9.36331,Supertubos,1,0.12,0.42,16,16,CLEAR,Offshore,1
5842041f4e65fad6a7708bc4,2024_12_21,39.001,-9.4284,Coxos,2,1.21809,1.54361,16,16,CLEAR,Offshore,1
5842041f4e65fad6a7708bc5,2024_12_21,40.13063921100635,-8.87044,Cabedelo,0,0.96026,1.13393,16,16,CLEAR,Cross-shore,1
5842041f4e65fad6a7708bc6,2024_12_21,39.37397686060677,-9.33235,Baleal,2,0.73,1.04,16,16,CLEAR,Onshore,1
5842041f4e65fad6a7708bc7,2024_12_21,31.80902927937703,-116.8081979700041,Todos Santos / Killers,NA,3.54,4.23,15,15,NIGHT_MIST,Onshore,1
5842041f4e65fad6a7708bc8,2024_12_21,43.68220203786759,-1.44167,Les Culs Nus,0,1.72104,2.05871,14,14,LIGHT_SHOWERS,Onshore,1
5842041f4e65fad6a7708bc9,2024_12_21,31.90016519474307,-116.73117,San Miguel,3,0.49,0.79,15,15,NIGHT_CLEAR,Onshore,1
5842041f4e65fad6a7708bca,2024_12_21,43.48469485823068,-1.56023,Biarritz,1,1.67331,1.69347,14,14,OVERCAST,Onshore,1
5842041f4e65fad6a7708bcb,2024_12_21,39.0132,-9.424,Sao Lourenco,2,1.02797,1.3333,16,16,CLEAR,Cross-shore,1
5842041f4e65fad6a7708bcd,2024_12_21,43.64760422014503,-1.44721,Le Santocha,0,0.90178,1.14072,14,14,LIGHT_SHOWERS,Onshore,1
5842041f4e65fad6a7708bce,2024_12_21,43.51401611768647,-1.53382,Anglet,2,1.83,2.14,14,14,OVERCAST,Onshore,1
5842041f4e65fad6a7708bcf,2024_12_21,43.479,-1.569,La Cote des Basques,1,1.71635,1.73702,14,14,OVERCAST,Onshore,1
5842041f4e65fad6a7708bd0,2024_12_21,32.3489432986615,-117.0668043482785,Rosarito Beach,2,0.5,0.81,16,16,NIGHT_CLEAR,Offshore,1
5842041f4e65fad6a7708bd1,2024_12_21,23.44473573026049,-110.2452466338192,Todos Santos,3,0.45,0.75,23,23,NIGHT_CLEAR,Offshore,1
5842041f4e65fad6a7708bd2,2024_12_21,31.97636522717259,-116.7913888957552,Salsipuedes,3,0.34,0.64,15,15,NIGHT_CLEAR,Cross-shore,1
5842041f4e65fad6a7708bd3,2024_12_21,23.39151658553801,-110.2143952234506,Las Palmas,3,0.45,0.75,23,23,NIGHT_CLEAR,Offshore,1
5842041f4e65fad6a7708bd4,2024_12_21,23.02358192684975,-109.7147,Old Man's,2,0.17,0.48,24,24,NIGHT_CLEAR,Cross-shore,1
5842041f4e65fad6a7708bd5,2024_12_21,23.32877869857464,-110.17715,Cerritos,2,0.51,0.81,23,23,NIGHT_CLEAR,Cross-shore,1
5842041f4e65fad6a7708bd6,2024_12_21,23.36729303816202,-110.20268,San Pedrito,2,0.29,0.6,23,23,NIGHT_CLEAR,Cross-shore,1
5842041f4e65fad6a7708bd7,2024_12_21,23.02506324659338,-109.71456,The Rock,2,0.17,0.48,24,24,NIGHT_CLEAR,Offshore,1
5842041f4e65fad6a7708bd8,2024_12_21,22.896,-109.869,Monuments,3,0.33,0.63,23,23,NIGHT_CLEAR,Offshore,1
5842041f4e65fad6a7708bd9,2024_12_21,23.04871261564847,-109.6800082320905,The Estuary,2,0.24,0.55,24,24,NIGHT_CLEAR,Offshore,1
5842041f4e65fad6a7708bda,2024_12_21,23.029,-109.714,Zippers,2,0.17,0.48,24,24,NIGHT_CLEAR,Offshore,1
5842041f4e65fad6a7708bdb,2024_12_21,23.12,-109.527,Shipwreck,2,0.24,0.55,23,23,NIGHT_CLEAR,Cross-shore,1
5842041f4e65fad6a7708bdc,2024_12_21,23.174,-109.476,Nine Palms,3,0.31,0.62,23,23,NIGHT_CLEAR,Offshore,1
5842041f4e65fad6a7708bdd,2024_12_21,4.307463458457968,73.57742,Jailbreaks,3,1.05,1.14,29,29,LIGHT_SHOWERS,Offshore,1
5842041f4e65fad6a7708bde,2024_12_21,4.31216545719424,73.58368,Honky's,1,0.6231,0.94539,29,29,LIGHT_SHOWERS,Cross-shore,1
5842041f4e65fad6a7708bdf,2024_12_21,4.313574269102099,73.58541879522511,Sultans,2,0.62511,0.94845,29,29,LIGHT_SHOWERS,Offshore,1
5842041f4e65fad6a7708be0,2024_12_21,4.343204315364438,73.6136,Ninja's,1,0.62426,0.94715,29,29,OVERCAST,Offshore,1
5842041f4e65fad6a7708be1,2024_12_21,4.348032688767217,73.621,Lohi's,2,0.78443,1.10679,29,29,LIGHT_SHOWERS,Cross-shore,1
5842041f4e65fad6a7708be2,2024_12_21,4.31537277405848,73.59171,Pasta Point,1,0.36262,0.69325,29,29,LIGHT_SHOWERS,Cross-shore,1
5842041f4e65fad6a7708be3,2024_12_21,-28.3344521240417,153.57739,Cabarita,3,1.0146,1.357,25,25,NIGHT_CLEAR,Onshore,1
5842041f4e65fad6a7708be4,2024_12_21,4.372896005883011,73.66323,Chickens,1,0.62297,0.94519,29,29,OVERCAST,Offshore,1
5842041f4e65fad6a7708be5,2024_12_21,-28.16143481052803,153.55066,Snapper Rocks,2,0.6972,1.217,25,25,NIGHT_CLEAR,Onshore,1
5842041f4e65fad6a7708be6,2024_12_21,4.370274672691539,73.65602,Colas,2,0.74913,1.08089,29,29,OVERCAST,Offshore,1
5842041f4e65fad6a7708be8,2024_12_21,-28.08967141602908,153.45956,Burleigh Heads,2,0.7022,1.0596,25,25,NIGHT_CLEAR,Onshore,1
5842041f4e65fad6a7708be9,2024_12_21,-28.16436510036895,153.53589,Kirra,1,0.3648,0.7534,25,25,NIGHT_CLEAR,Onshore,1
5842041f4e65fad6a7708bea,2024_12_21,-26.809,153.136,Caloundra Bar,2,0.4098,0.7934,25,25,NIGHT_CLEAR,Offshore,1
5842041f4e65fad6a7708beb,2024_12_21,-27.4488954777054,153.5383894760102,North Stradbroke Island,3,1.62,1.85,26,26,NIGHT_CLEAR,Cross-shore,1
5842041f4e65fad6a7708bec,2024_12_21,-26.68680536290502,153.13793,Mooloolaba,1,0.3998,0.7072,25,25,NIGHT_CLEAR,Onshore,1
5842041f4e65fad6a7708bed,2024_12_21,40.028403115215,-74.04837,Mantoloking,3,1.12,1.42,6,6,NIGHT_SNOW,Offshore,1
5842041f4e65fad6a7708bee,2024_12_21,-26.38257,153.09668,Noosa Heads,2,0.005,0.2312,25,25,NIGHT_CLEAR,Onshore,1
5842041f4e65fad6a7708bef,2024_12_21,-28.63764444,153.62803,"The Pass, Byron Bay",1,0.6272,0.9296,25,25,NIGHT_CLEAR,Onshore,1
5842041f4e65fad6a7708bf0,2024_12_21,-32.171,152.512,Tuncurry Breakwall,1,0.26,0.57,22,22,NIGHT_CLEAR,Onshore,1
5842041f4e65fad6a7708bf1,2024_12_21,-28.87513611,153.59244,Ballina North Wall,3,1.59,1.69,25,25,NIGHT_CLEAR,Offshore,1
5842041f4e65fad6a7708bf2,2024_12_21,-28.80011944,153.59755,Lennox Head,2,1.262,1.7718,25,25,NIGHT_CLEAR,Onshore,1
5842041f4e65fad6a7708bf3,2024_12_21,-28.70581667,153.61983,Broken Head,3,1.28,1.42,26,26,NIGHT_CLEAR,Cross-shore,1
5842041f4e65fad6a7708bf4,2024_12_21,-29.44056667,153.3695194,Pippies/Yamba,3,0.96,1.27,25,25,NIGHT_CLEAR,Cross-shore,1
5842041f4e65fad6a7708bf5,2024_12_21,-33.94857222,151.25722,Maroubra,1,0.8522,1.302,23,23,CLOUDY,Onshore,1
5842041f4e65fad6a7708bf6,2024_12_21,-34.05162704152385,151.15646,Cronulla,2,1.0846,1.397,23,23,CLOUDY,Onshore,1
5842041f4e65fad6a7708bf8,2024_12_21,-33.892155707636114,151.27793,Bondi Beach,2,1.3196,1.357,23,23,CLOUDY,Onshore,1
5842041f4e65fad6a7708bf9,2024_12_21,-29.48278333,153.36727,Angourie,3,1.03,1.34,25,25,NIGHT_CLEAR,Onshore,1
5842041f4e65fad6a7708bfa,2024_12_21,-33.75169106295242,151.29855,Dee Why,3,0.8522,1.2358,23,23,MOSTLY_CLOUDY,Onshore,1
5842041f4e65fad6a7708bfb,2024_12_21,-33.77330556,151.29331,Curl Curl,2,1.1246,1.5794,23,23,MOSTLY_CLOUDY,Onshore,1
5842041f4e65fad6a7708bfc,2024_12_21,-33.70960382813077,151.30361,Narrabeen,2,1.1096,1.3744,23,23,MOSTLY_CLOUDY,Onshore,1
5842041f4e65fad6a7708bfd,2024_12_21,-33.63539722,151.33297,Avalon,2,1.0546,1.5194,23,23,MOSTLY_CLOUDY,Onshore,1
5842041f4e65fad6a7708bfe,2024_12_21,-33.65150556,151.32512,Newport,2,0.9896,1.4494,23,23,MOSTLY_CLOUDY,Onshore,1
5842041f4e65fad6a7708bff,2024_12_21,-36.94544444,149.9151111,Pambula Rivermouth,2,0.47,0.77,20,20,CLEAR,Offshore,1
5842041f4e65fad6a7708c00,2024_12_21,-33.60841111,151.33339,Whale Beach,2,0.8446,1.157,23,23,CLEAR,Onshore,1
5842041f4e65fad6a7708c01,2024_12_21,-36.89662778,149.92144,Merimbula Bar,1,0.64,0.95,20,20,CLEAR,Onshore,1
5842041f4e65fad6a7708c02,2024_12_21,-35.90458333,150.15191,Moruya,2,0.86,1.17,21,21,CLEAR,Cross-shore,1
5842041f4e65fad6a7708c03,2024_12_21,-35.36742222,150.48575,Ulladulla Bommie,1,1.63,1.93,21,21,OVERCAST,Onshore,1
5842041f4e65fad6a7708c04,2024_12_21,-35.34604167,150.4773361,Golf Course Reef,2,0.88,1.18,21,21,OVERCAST,Onshore,1
5842041f4e65fad6a7708c05,2024_12_21,-35.27280833,150.51393,Green Island,2,1.16,1.47,21,21,OVERCAST,Onshore,1
5842041f4e65fad6a7708c06,2024_12_21,-35.17533333,150.6881667,Black Rock,1,0.93,1.23,21,21,MOSTLY_CLOUDY,Onshore,1
5842041f4e65fad6a7708c07,2024_12_21,-34.74260833,150.8332833,Werri Beach,2,0.7,1,21,21,OVERCAST,Cross-shore,1
5842041f4e65fad6a7708c08,2024_12_21,-34.54684722,150.8784167,Windang Island,1,0.73,1.04,22,22,CLOUDY,Cross-shore,1
5842041f4e65fad6a7708c09,2024_12_21,-28.64288889,153.63596,Tallows,3,1.29,1.59,26,26,NIGHT_CLEAR,Offshore,1
5842041f4e65fad6a7708c0a,2024_12_21,-34.32977,150.92931,Sandon Point,2,0.92,1.23,22,22,LIGHT_SHOWERS,Cross-shore,1
5842041f4e65fad6a7708c0b,2024_12_21,-38.347207621284134,144.31065,Jan Juc,0,0.694,0.99183,19,18,CLEAR,Onshore,1
5842041f4e65fad6a7708c0c,2024_12_21,-38.2873,144.4652,13th Beach,1,0.629,1.0045,19,18,CLEAR,Onshore,1
5842041f4e65fad6a7708c0d,2024_12_21,-38.76017222,143.37283,Johanna,2,1.86957,2.23513,18,18,CLEAR,Onshore,1
5842041f4e65fad6a7708c0e,2024_12_21,-38.44902778,144.85891,Gunnamatta,2,1.52232,1.87189,19,19,CLEAR,Onshore,1
5842041f4e65fad6a7708c0f,2024_12_21,-38.42897222,145.07755,Point Leo,1,0,0.2745,19,18,CLEAR,Onshore,1
5842041f4e65fad6a7708c10,2024_12_21,-38.55457222,145.33169,Woolamai,1,1.54,1.84,19,19,CLEAR,Onshore,1
5842041f4e65fad6a7708c11,2024_12_21,-28.16708333,153.55169,Duranbah,3,1.287,1.6968,25,25,NIGHT_CLEAR,Cross-shore,1
5842041f4e65fad6a7708c12,2024_12_21,-38.368504,144.2871,Winkipop,0,0.919,1.10683,19,18,CLEAR,Onshore,1
5842041f4e65fad6a7708c13,2024_12_21,-38.50596111,145.14044,Cat Bay,1,0.37664,0.5273,19,19,CLEAR,Cross-shore,1
5842041f4e65fad6a7708c14,2024_12_21,-28.87768889,153.58828,South Wall Ballina,3,1.29,1.59,25,25,NIGHT_CLEAR,Offshore,1
5842041f4e65fad6a7708c15,2024_12_21,-38.48777,144.97036,Mornington Peninsula,1,1.36,1.67,19,19,CLEAR,Onshore,1
5842041f4e65fad6a7708c17,2024_12_21,-28.93778889,113.9235722,Abrolhos Islands,0,2.65,3.17,23,23,CLEAR,Cross-shore,1
5842041f4e65fad6a7708c19,2024_12_21,-24.031,113.441,The Bluff,3,1.31,1.48,26,26,MOSTLY_CLEAR,Offshore,1
5842041f4e65fad6a7708c1a,2024_12_21,-23.882,113.482,Tombstones,3,1.3,1.61,26,26,MOSTLY_CLEAR,Cross-shore,1
5842041f4e65fad6a7708c1b,2024_12_21,-23.64909722,113.6129972,Warroora Station,2,1.94,2.24,26,26,MOSTLY_CLOUDY,Cross-shore,1
5842041f4e65fad6a7708c1c,2024_12_21,-38.62743889,142.9796,Two Mile/Easter Reef,2,2.36,2.75,18,18,CLEAR,Onshore,1
5842041f4e65fad6a7708c1e,2024_12_21,-31.89140556,115.75388,Scarborough,2,1.05,1.26,23,23,CLEAR,Onshore,1
5842041f4e65fad6a7708c1f,2024_12_21,-32.007275,115.75131,Cottesloe,1,0.24441,0.67572,22,22,CLEAR,Cross-shore,1
5842041f4e65fad6a7708c20,2024_12_21,-32.01661667,115.7511583,Cables,1,0.25529,0.68077,22,22,CLEAR,Cross-shore,1
5842041f4e65fad6a7708c21,2024_12_21,-33.65305556,115.018,Supertubes,2,1.37,1.64,21,21,CLEAR,Offshore,1
5842041f4e65fad6a7708c22,2024_12_21,-33.63875278,115.02247,Yallingup,1,0.93,1.24,21,21,CLEAR,Cross-shore,1
5842041f4e65fad6a7708c23,2024_12_21,-32.01881111,115.48693,Strickland Bay/Rottnest Island,0,1.78,2.13,22,22,CLEAR,Onshore,1
5842041f4e65fad6a7708c24,2024_12_21,-33.69852222,114.98713,Injidup Carpark,3,0.98,1.12,21,21,CLEAR,Offshore,1
5842041f4e65fad6a7708c25,2024_12_21,-33.858925,114.98469,North Point,0,1.31,1.56,21,21,CLEAR,Cross-shore,1
5842041f4e65fad6a7708c26,2024_12_21,-33.65705556,115.01457,Smiths Beach,3,0.94,1.12,21,21,CLEAR,Offshore,1
5842041f4e65fad6a7708c27,2024_12_21,-33.86301667,114.9767861,South Point,3,2.1,2.48,21,21,CLEAR,Offshore,1
5842041f4e65fad6a7708c28,2024_12_21,-33.97649722,114.98311,Margaret River,1,2.035,2.442,21,21,CLEAR,Cross-shore,1
5842041f4e65fad6a7708c29,2024_12_21,-33.978325,114.9863667,Gas Bay,0,2.1,2.47,21,21,CLEAR,Onshore,1
5842041f4e65fad6a7708c2a,2024_12_21,-33.88036667,114.9803222,Lefthanders (Lefties),1,1.35,1.55,21,21,CLEAR,Cross-shore,1
5842041f4e65fad6a7708c2b,2024_12_21,-35.29171667,136.875225,Chinamans,2,1.8288,2.4384,20,20,CLEAR,Onshore,1
5842041f4e65fad6a7708c2c,2024_12_21,-32.08626,132.97959,Cactus,0,2.01,2.41,20,20,CLEAR,Onshore,1
5842041f4e65fad6a7708c2d,2024_12_21,-35.86224722,137.74371,Pennington Bay,1,1.37314,1.63678,20,20,CLEAR,Onshore,1
5842041f4e65fad6a7708c2e,2024_12_21,-28.12496389,153.48648,Currumbin Alley,2,0.7022,1.0596,25,25,NIGHT_CLEAR,Onshore,1
5842041f4e65fad6a7708c2f,2024_12_21,-35.63450833,138.49829,Waitpinga,0,1.38661,1.65688,21,21,CLEAR,Onshore,1
5842041f4e65fad6a7708c30,2024_12_21,-35.52,138.71,Middleton,2,1.50226,1.80271,21,21,CLEAR,Onshore,1
5842041f4e65fad6a7708c33,2024_12_21,9.746222222,-82.85211111,Cahuita,3,1.06,1.36,28,28,NIGHT_CLEAR,Offshore,1
5842041f4e65fad6a7708c35,2024_12_21,10.22975,-85.84058,Avellanas,2,0.54,0.85,28,28,NIGHT_CLEAR,Offshore,1
5842041f4e65fad6a7708c36,2024_12_21,10.33328,-85.85069,Playa Grande,1,0.61,0.91,28,28,NIGHT_CLEAR,Offshore,1
5842041f4e65fad6a7708c37,2024_12_21,9.389333333,-84.15386111,Manuel Antonio,3,0.9,1.08,29,29,NIGHT_CLEAR,Offshore,1
5842041f4e65fad6a7708c38,2024_12_21,10.28630556,-85.85228,Playa Langosta,3,0.67,0.98,28,28,NIGHT_CLEAR,Offshore,1
5842041f4e65fad6a7708c39,2024_12_21,54.55819760353214,-8.21518,Rossnowlagh,0,2.14994,3.35928,10,10,LIGHT_SHOWERS,Onshore,1
5842041f4e65fad6a7708c3a,2024_12_21,54.4924,-8.2709,Tullan Strand,0,2.47918,3.87372,10,10,LIGHT_SHOWERS,Onshore,1
5842041f4e65fad6a7708c3b,2024_12_21,54.47958088962024,-8.29256,Bundoran,0,2.42338,3.78653,10,10,LIGHT_SHOWERS,Onshore,1
5842041f4e65fad6a7708c3c,2024_12_21,54.45887147557389,-8.434952849016696,Mullaghmore Strand,0,1.79249,2.80077,10,10,LIGHT_SHOWERS,Onshore,1
5842041f4e65fad6a7708c3d,2024_12_21,54.29465584522581,-8.965232737720527,Easkey,0,4.05123,4.50575,10,10,BRIEF_SHOWERS_POSSIBLE,Onshore,1
5842041f4e65fad6a7708c3e,2024_12_21,54.28521527547639,-9.223662106008305,Kilcummin Harbour,2,0.76232,1.19113,11,11,BRIEF_SHOWERS_POSSIBLE,Offshore,1
5842041f4e65fad6a7708c3f,2024_12_21,54.4123841889832,-8.535520783992467,Streedagh Strand,0,2.13992,3.34363,10,10,LIGHT_SHOWERS,Cross-shore,1
5842041f4e65fad6a7708c44,2024_12_21,54.266,-8.729,Dunmoran,0,0,0,10,10,BRIEF_SHOWERS_POSSIBLE,Offshore,1
5842041f4e65fad6a7708c46,2024_12_21,20.934,-105.401,Costa Azul,1,0.23,0.53,27,27,NIGHT_MOSTLY_CLOUDY,Cross-shore,1
5842041f4e65fad6a7708c47,2024_12_21,18.51369499135283,-67.03911,Middles,3,1.27,1.58,28,28,NIGHT_CLEAR,Cross-shore,1
5842041f4e65fad6a7708c48,2024_12_21,18.515,-67.077,Jobos,3,0.81,1.11,28,27,NIGHT_CLEAR,Cross-shore,1
5842041f4e65fad6a7708c49,2024_12_21,18.50659587388844,-67.14095,Surfer's Beach,3,0.72,1.03,28,28,NIGHT_CLEAR,Offshore,1
5842041f4e65fad6a7708c4a,2024_12_21,18.4724771991133,-67.16964903636637,Wishing Well,1,0,0.25,29,29,NIGHT_CLEAR,Offshore,1
5842041f4e65fad6a7708c4b,2024_12_21,18.48507943247522,-67.16805,Wilderness,3,0.71,1.02,29,29,NIGHT_CLEAR,Offshore,1
5842041f4e65fad6a7708c4c,2024_12_21,18.46090012303478,-67.16701,Chambers,0,0,0.08,29,29,NIGHT_CLEAR,Offshore,1
5842041f4e65fad6a7708c4d,2024_12_21,18.45734083137307,-67.16435,Crash Boat,0,0,0.13,29,29,NIGHT_CLEAR,Offshore,1
5842041f4e65fad6a7708c4f,2024_12_21,18.36085983178037,-67.27182288542944,Indicators,2,0.12,0.42,29,29,NIGHT_CLEAR,Offshore,1
5842041f4e65fad6a7708c50,2024_12_21,18.42530999756879,-67.15604263628627,Bridges,1,0,0.11,29,29,NIGHT_CLEAR,Offshore,1
5842041f4e65fad6a7708c51,2024_12_21,18.50806588732911,-67.1388404959542,Table Top,3,0.72,1.03,28,28,NIGHT_CLEAR,Offshore,1
5842041f4e65fad6a7708c53,2024_12_21,18.37335029722464,-67.25282708189441,Antonio's,2,0.18,0.48,29,29,NIGHT_CLEAR,Cross-shore,1
5842041f4e65fad6a7708c54,2024_12_21,18.3717999427746,-67.2592,Sandy Beach,2,0.13,0.44,28,27,NIGHT_CLEAR,Onshore,1
5842041f4e65fad6a7708c55,2024_12_21,18.36591901691329,-67.27131,Domes,2,0.16,0.46,29,29,NIGHT_CLEAR,Offshore,1
5842041f4e65fad6a7708c56,2024_12_21,18.37093775805671,-67.26124188960489,Pools,2,0.3551,0.67843,28,27,NIGHT_CLEAR,Cross-shore,1
5842041f4e65fad6a7708c58,2024_12_21,18.359052,-67.271765,The Point,2,0.25649,0.50288,29,29,NIGHT_CLEAR,Offshore,1
5842041f4e65fad6a7708c59,2024_12_21,18.343578,-67.26082,Little Malibu,2,0.30001,0.47648,29,29,NIGHT_CLEAR,Offshore,1
5842041f4e65fad6a7708c5a,2024_12_21,18.35046796998277,-67.26958496140767,Tres Palmas,0,0,0.28,29,29,NIGHT_CLEAR,Offshore,1
5842041f4e65fad6a7708c5c,2024_12_21,18.358457148373724,-67.27163,Maria's,1,0,0.28,28,27,NIGHT_CLEAR,Offshore,1
5842041f4e65fad6a7708c5d,2024_12_21,18.36436193914082,-65.67175850608821,La Selva,2,0.67,0.97,28,28,NIGHT_CLEAR,Offshore,1
5842041f4e65fad6a7708c5e,2024_12_21,18.377237,-65.714583,La Pared,2,0.97,1.27,28,28,NIGHT_MOSTLY_CLOUDY,Cross-shore,1
5842041f4e65fad6a7708c5f,2024_12_21,18.47587365739435,-66.73093579970327,Margara,3,0.67,0.97,28,28,NIGHT_CLEAR,Offshore,1
5842041f4e65fad6a7708c60,2024_12_21,18.49042886903135,-66.9558167601821,Guajataca,3,1.15,1.45,28,28,NIGHT_CLEAR,Offshore,1
5842041f4e65fad6a7708c61,2024_12_21,18.47273941014759,-66.44904622785756,Los Tubos,3,0.55,0.85,28,28,NIGHT_MOSTLY_CLOUDY,Offshore,1
5842041f4e65fad6a7708c62,2024_12_21,18.467168313149315,-66.09311,La Ocho,3,0.91,1.21,27,26,NIGHT_CLEAR,Cross-shore,1
5842041f4e65fad6a7708c63,2024_12_21,18.45529355651344,-65.96670584112921,Chatarra,4,1.24,1.54,28,28,NIGHT_CLEAR,Cross-shore,1
5842041f4e65fad6a7708c64,2024_12_21,18.452,-65.957871,Aviones,3,1.22,1.52,28,28,NIGHT_CLEAR,Cross-shore,1
5842041f4e65fad6a7708c65,2024_12_21,18.451764,-65.956416,Tocones,3,1.22,1.52,28,28,NIGHT_CLEAR,Cross-shore,1
5842041f4e65fad6a7708c66,2024_12_21,23.09289784805277,-82.49361057903533,Old Man's,2,0.61,0.92,27,27,NIGHT_CLEAR,Onshore,1
5842041f4e65fad6a7708c67,2024_12_21,17.97138086645092,-65.96246,Inches,2,0.45,0.76,28,28,NIGHT_FOG,Cross-shore,1
5842041f4e65fad6a7708c68,2024_12_21,21.18269590184542,-76.17425732522923,Gibara Coast,1,0.69,0.99,26,26,NIGHT_CLOUDY,Onshore,1
5842041f4e65fad6a7708c69,2024_12_21,20.29935933410474,-74.38513580703325,Baracoa Coast,1,0.41,0.72,27,27,NIGHT_MOSTLY_CLOUDY,Onshore,1
5842041f4e65fad6a7708c6a,2024_12_21,17.90850736737134,-76.18979571186617,Ranch,2,0.4,0.71,28,28,NIGHT_CLEAR,Offshore,1
5842041f4e65fad6a7708c6b,2024_12_21,20.062663,-74.4972,Cajo Babo,1,0,0.14,28,28,NIGHT_CLEAR,Onshore,1
5842041f4e65fad6a7708c6c,2024_12_21,17.869517,-76.582916,Makka,1,0,0.2,28,28,NIGHT_CLEAR,Offshore,1
5842041f4e65fad6a7708c6d,2024_12_21,17.927946,-76.77929,Lighthouse,2,0.14,0.45,29,29,NIGHT_OVERCAST,Cross-shore,1
5842041f4e65fad6a7708c6e,2024_12_21,17.945043,-76.717493,Zoo,2,0.07,0.38,28,28,NIGHT_OVERCAST,Offshore,1
5842041f4e65fad6a7708c6f,2024_12_21,17.94222896363424,-76.69415558555534,Copa,2,0.03,0.34,28,28,NIGHT_OVERCAST,Offshore,1
5842041f4e65fad6a7708c70,2024_12_21,18.1586,-76.3553,Boston Bay,0,0,0.29,28,28,NIGHT_BRIEF_SHOWERS_POSSIBLE,Onshore,1
5842041f4e65fad6a7708c71,2024_12_21,19.760009,-70.51905,Sosua,0,0,0.24,27,27,NIGHT_CLEAR,Onshore,1
5842041f4e65fad6a7708c72,2024_12_21,19.783,-70.45,Encuentro,3,1.11032,1.46887,27,27,NIGHT_CLEAR,Onshore,1
5842041f4e65fad6a7708c73,2024_12_21,18.229,-70.189,Patho Beach,2,0.5666,0.97131,28,28,NIGHT_MOSTLY_CLOUDY,Onshore,1
5842041f4e65fad6a7708c74,2024_12_21,18.433,-69.631,La Boya,3,0.57373,0.97401,29,29,NIGHT_CLEAR,Onshore,1
5842041f4e65fad6a7708c75,2024_12_21,18.420275,-70.01139,El Chinchorro,3,0.63195,1.03532,29,29,NIGHT_CLEAR,Cross-shore,1
5842041f4e65fad6a7708c76,2024_12_21,18.4469967022155,-64.59065,Josiah's Bay,3,0.77972,1.07582,28,28,NIGHT_MOSTLY_CLOUDY,Offshore,1
5842041f4e65fad6a7708c77,2024_12_21,17.988754,-71.16075,Bahoruco,3,0.61995,1.00741,29,29,NIGHT_CLEAR,Offshore,1
5842041f4e65fad6a7708c78,2024_12_21,18.40133856648012,-64.68076,Apple Bay,2,0.32,0.62,28,28,NIGHT_CLEAR,Offshore,1
5842041f4e65fad6a7708c79,2024_12_21,11.15033417501753,-60.84783,Airports,1,0.8195,1.25082,29,29,NIGHT_BRIEF_SHOWERS_POSSIBLE,Cross-shore,1
5842041f4e65fad6a7708c7b,2024_12_21,10.83550342228099,-60.920248032489326,Salybia Bay,2,0.67,0.98,28,28,NIGHT_CLEAR,Cross-shore,1
5842041f4e65fad6a7708c7c,2024_12_21,10.717707,-60.98962,Balandra Bay,2,0.37,0.67,29,29,NIGHT_CLEAR,Onshore,1
5842041f4e65fad6a7708c7d,2024_12_21,10.839254,-61.00207,Sans Souci Bay,3,0.84,1.16149,28,28,NIGHT_CLEAR,Cross-shore,1
5842041f4e65fad6a7708c7e,2024_12_21,13.21452297223763,-59.51781,Parlour,2,1.48597,1.77646,28,28,NIGHT_CLOUDY,Onshore,1
5842041f4e65fad6a7708c7f,2024_12_21,13.220009,-59.52954,Cattle Wash,2,1.3,1.61,28,28,NIGHT_CLOUDY,Onshore,1
5842041f4e65fad6a7708c80,2024_12_21,13.316799,-59.64713,Duppies,3,0.95,1.26,28,28,NIGHT_HEAVY_THUNDER_STORMS,Offshore,1
5842041f4e65fad6a7708c81,2024_12_21,13.07622829845154,-59.60844,Brandon's,2,1.04631,1.4113,28,28,NIGHT_HEAVY_THUNDER_STORMS,Offshore,1
5842041f4e65fad6a7708c82,2024_12_21,43.64083333,-8.113611111,Playa de Rodo,2,1.95,2.26,15,15,LIGHT_SHOWERS,Cross-shore,1
5842041f4e65fad6a7708c83,2024_12_21,43.53583333,-5.38583,Rodiles,1,0.45841,0.74843,14,14,CLEAR,Offshore,1
5842041f4e65fad6a7708c84,2024_12_21,43.44166667,-4.022777778,Playa de los Caballos,3,2.1,2.41,14,14,CLOUDY,Offshore,1
5842041f4e65fad6a7708c85,2024_12_21,43.46972222,-3.731388889,Isla de Santa Marina,3,1.63,1.94,14,14,CLOUDY,Cross-shore,1
5842041f4e65fad6a7708c86,2024_12_21,43.397,-2.98667,Menakoz,1,0.80873,1.1457,14,14,DRIZZLE,Onshore,1
5842041f4e65fad6a7708c87,2024_12_21,43.43388889,-2.80194,Bakio,1,1.48232,1.82525,14,14,DRIZZLE,Cross-shore,1
5842041f4e65fad6a7708c88,2024_12_21,43.40861111,-2.69472,Mundaka,3,0.92346,1.2456,14,14,DRIZZLE,Offshore,1
5842041f4e65fad6a7708c89,2024_12_21,43.30777778,-2.239444444,Roca Puta,3,1.48,1.78,14,14,CLOUDY,Cross-shore,1
5842041f4e65fad6a7708c8b,2024_12_21,47.84083333,-4.35083,La Torche,1,1.48845,1.81922,12,12,OVERCAST,Onshore,1
5842041f4e65fad6a7708c8c,2024_12_21,43.41611111,-1.62833,Lafitenia,0,1.43181,1.76739,14,14,OVERCAST,Onshore,1
5842041f4e65fad6a7708c8d,2024_12_21,45.00222222,-1.2025,Lacanau,1,1.66779,1.9948,13,13,BRIEF_SHOWERS,Onshore,1
5842041f4e65fad6a7708c8e,2024_12_21,43.66388889,-1.44389,La Graviere,0,2.13648,2.5722,14,14,LIGHT_SHOWERS,Onshore,1
5842041f4e65fad6a7708c8f,2024_12_21,43.5225,-1.52583,Les Cavaliers,0,1.60251,1.94045,14,14,LIGHT_RAIN,Onshore,1
5842041f4e65fad6a7708c90,2024_12_21,53.01055556,-9.400277778,Doolin Point,0,2.59584,4.05601,11,11,CLEAR,Onshore,1
5842041f4e65fad6a7708c91,2024_12_21,53.01583333,-9.413055556,Crab Island,0,2.69134,4.20521,11,11,CLEAR,Onshore,1
5842041f4e65fad6a7708c92,2024_12_21,52.1425,-9.993055556,Inch Reef,0,3.87635,4.29515,11,11,CLEAR,Cross-shore,1
5842041f4e65fad6a7708c93,2024_12_21,50.32127176553899,-5.20277738571167,Trevaunance Cove,0,1.42896,1.7891,12,12,OVERCAST,Cross-shore,1
5842041f4e65fad6a7708c94,2024_12_21,50.34833333,-5.15889,Perranporth,0,1.2192,1.9812,11,11,OVERCAST,Onshore,1
5842041f4e65fad6a7708c95,2024_12_21,50.224940120492306,-5.39939,Gwithian,0,1.2192,1.8288,11,11,OVERCAST,Onshore,1
5842041f4e65fad6a7708c96,2024_12_21,50.2166643894,-5.48326,Porthmeor,1,1.13923,1.38793,12,12,OVERCAST,Offshore,1
5842041f4e65fad6a7708c97,2024_12_21,50.082260215669976,-5.69518,Sennen,0.8333333333333334,1.2192,1.8288,11,11,CLOUDY,Onshore,1
5842041f4e65fad6a7708c98,2024_12_21,50.288859416902646,-5.24643,Porthtowan,0,1.524,2.1336,11,11,OVERCAST,Onshore,1
5842041f4e65fad6a7708c99,2024_12_21,54.58611111,-0.96667,Saltburn,2,1.31264,1.5021,9,9,OVERCAST,Offshore,1
5842041f4e65fad6a7708c9a,2024_12_21,50.10222222,-5.38833,Praa Sands,1.6666666666666667,0.9144,1.2192,11,11,OVERCAST,Cross-shore,1
5842041f4e65fad6a7708c9b,2024_12_21,50.08194444,-5.32111,Porthleven,0,1.35093,1.78208,11,11,OVERCAST,Onshore,1
5842041f4e65fad6a7708c9c,2024_12_21,54.49861111,-0.65583,Sandsend,2,1.03806,1.24567,9,9,OVERCAST,Offshore,1
5842041f4e65fad6a7708c9d,2024_12_21,54.24472222,-0.35806,Cayton Bay,2,0.74689,1.10829,9,9,DRIZZLE,Offshore,1
5842041f4e65fad6a7708c9e,2024_12_21,55.3879,-1.60495,Alnmouth,1,0.4,0.71,9,9,LIGHT_SHOWERS,Offshore,1
5842041f4e65fad6a7708c9f,2024_12_21,55.61055556,-1.698333333,Bamburgh,1,1.03919,1.48456,9,9,LIGHT_SHOWERS,Offshore,1
