_id,date,lat,lon,name,daily_mean_swell_rating,daily_mean_wave_height_min,daily_mean_wave_height_max,daily_mean_water_temperature_max,daily_mean_water_temperature_min,weather_per_timestamp,wind_per_timestamp,n_samples_per_day
5842041f4e65fad6a77087f9,2024_07_20,37.741668,-122.51038,South Ocean Beach,1.75,1.066125,1.3428475,13,13,"NIGHT_MOSTLY_CLOUDY,NIGHT_MOSTLY_CLOUDY,NIGHT_CLEAR,MIST","Onshore,Cross-shore,Cross-shore,Onshore",4
5842041f4e65fad6a7708801,2024_07_20,37.49142,-122.50428,Maverick's,NA,1.6725,1.9975,16.75,16.75,"NIGHT_BRIEF_SHOWERS,NIGHT_MIST,NIGHT_BRIEF_SHOWERS,MIST","Offshore,Cross-shore,Cross-shore,Cross-shore",4
5842041f4e65fad6a7708804,2024_07_20,44.997,-124.018,Roads End,1.5,0.66,0.965,12.5,12.5,"NIGHT_MIST,NIGHT_MIST,NIGHT_MIST,BRIEF_SHOWERS","Cross-shore,Onshore,Cross-shore,Cross-shore",4
5842041f4e65fad6a7708805,2024_07_20,36.95188851423011,-122.02522,Steamer Lane,3,0.9497925,1.2556574999999999,14,14,"NIGHT_CLEAR,NIGHT_CLEAR,NIGHT_MOSTLY_CLEAR,CLEAR","Onshore,Onshore,Onshore,Cross-shore",4
5842041f4e65fad6a7708806,2024_07_20,36.95918781542251,-122.02489,Cowells,1.8333333333333333,0.11013250000000001,0.41246,14,14,"NIGHT_CLEAR,NIGHT_CLEAR,NIGHT_MOSTLY_CLEAR,CLEAR","Onshore,Onshore,Onshore,Offshore",4
5842041f4e65fad6a7708807,2024_07_20,36.95468082526536,-121.97234,Pleasure Point,3,1.06715,1.315025,14,14,"NIGHT_MOSTLY_CLEAR,NIGHT_MOSTLY_CLEAR,NIGHT_MIST,CLEAR","Onshore,Onshore,Onshore,Onshore",4
5842041f4e65fad6a770880a,2024_07_20,35.37815414378748,-120.86589,Morro Bay,3,0.77532,1.0309650000000001,13,13,"NIGHT_MOSTLY_CLEAR,NIGHT_MOSTLY_CLEAR,NIGHT_MOSTLY_CLOUDY,CLEAR","Onshore,Offshore,Offshore,Onshore",4
5842041f4e65fad6a770880b,2024_07_20,36.95782765000708,-121.96729,Jack's,2.75,0.436565,0.766535,14,14,"NIGHT_MOSTLY_CLEAR,NIGHT_MOSTLY_CLEAR,NIGHT_MIST,CLEAR","Onshore,Onshore,Onshore,Onshore",4
5842041f4e65fad6a770880d,2024_07_20,34.29982939936656,-119.3489016603669,Gold Coast Beachbreaks,2,0.2325,0.5375000000000001,19,19,"NIGHT_CLEAR,NIGHT_CLEAR,NIGHT_CLEAR,CLEAR","Onshore,Offshore,Offshore,Onshore",4
5842041f4e65fad6a7708811,2024_07_20,34.245076,-119.26799,Ventura Harbor,2.75,0.6304325,1.0082575,18,18,"NIGHT_CLEAR,NIGHT_CLEAR,NIGHT_CLEAR,CLEAR","Onshore,Onshore,Onshore,Onshore",4
5842041f4e65fad6a7708813,2024_07_20,34.051,-118.964,County Line,2.75,0.66,0.998625,18,18,"NIGHT_CLEAR,NIGHT_CLEAR,NIGHT_CLEAR,CLEAR","Offshore,Offshore,Offshore,Onshore",4
5842041f4e65fad6a7708814,2024_07_20,34.37256264378892,-119.47797,Rincon,2,0.11750000000000001,0.425,19,19,"NIGHT_CLEAR,NIGHT_CLEAR,NIGHT_CLEAR,MIST","Onshore,Onshore,Onshore,Cross-shore",4
5842041f4e65fad6a7708817,2024_07_20,34.03096101876324,-118.68109,Malibu Third Point,3,0.82829,1.124635,20,20,"NIGHT_MIST,NIGHT_MIST,NIGHT_MOSTLY_CLEAR,CLEAR","Onshore,Onshore,Onshore,Cross-shore",4
5842041f4e65fad6a7708819,2024_07_20,33.984079047970035,-118.47382,Venice Beach,2.5,0.5366175,0.9258500000000001,21,21,"NIGHT_MIST,NIGHT_MIST,NIGHT_MIST,MIST","Onshore,Cross-shore,Cross-shore,Onshore",4
5842041f4e65fad6a770881e,2024_07_20,34.037508438646746,-118.5834,Topanga Beach,2.833333333333333,0.75922,1.17211,19,19,"NIGHT_MIST,NIGHT_CLEAR,NIGHT_CLEAR,CLEAR","Cross-shore,Cross-shore,Cross-shore,Onshore",4
5842041f4e65fad6a7708820,2024_07_20,33.73954373690184,-118.11414,Seal Beach Jetty,2,0.29,0.59,20.75,20.75,"NIGHT_CLEAR,NIGHT_CLEAR,NIGHT_CLEAR,CLEAR","Onshore,Cross-shore,Onshore,Onshore",4
5842041f4e65fad6a7708822,2024_07_20,33.72309983348433,-118.08078,Anderson Street,2.125,0.336375,0.6273025,18,18,"NIGHT_CLEAR,NIGHT_CLEAR,NIGHT_CLEAR,CLEAR","Onshore,Cross-shore,Onshore,Onshore",4
5842041f4e65fad6a7708827,2024_07_20,33.65574085629463,-118.00397,Huntington Beach Pier Northside,2.125,0.844625,1.112735,18,18,"NIGHT_CLEAR,NIGHT_CLEAR,NIGHT_BRIEF_SHOWERS_POSSIBLE,CLEAR","Cross-shore,Cross-shore,Cross-shore,Onshore",4
5842041f4e65fad6a7708828,2024_07_20,34.272041739333,-119.29976,C St.,2.75,0.51725,0.823415,18,18,"NIGHT_MIST,NIGHT_CLEAR,NIGHT_CLEAR,MIST","Onshore,Onshore,Onshore,Offshore",4
5842041f4e65fad6a770882a,2024_07_20,33.61555743705257,-117.93676,Newport Lower Jetties,2.125,0.4841425,0.78813,18,18,"NIGHT_CLEAR,NIGHT_MOSTLY_CLEAR,NIGHT_MOSTLY_CLEAR,CLEAR","Cross-shore,Cross-shore,Cross-shore,Onshore",4
5842041f4e65fad6a770882b,2024_07_20,33.5930302087,-117.88199,The Wedge,2.875,1.42475,1.7513325,18,18,"NIGHT_MOSTLY_CLEAR,NIGHT_MOSTLY_CLEAR,NIGHT_MOSTLY_CLEAR,MOSTLY_CLEAR","Cross-shore,Cross-shore,Cross-shore,Onshore",4
5842041f4e65fad6a770882e,2024_07_20,33.475793399792984,-117.72291,Salt Creek,2.75,0.8622825000000001,1.16773,19,19,"NIGHT_MIST,NIGHT_MIST,NIGHT_MIST,MIST","Onshore,Onshore,Onshore,Onshore",4
5842041f4e65fad6a7708830,2024_07_20,33.41800974113613,-117.61952,T-Street,2.75,0.8186925,1.15346,19,19,"NIGHT_MIST,NIGHT_MIST,NIGHT_MOSTLY_CLOUDY,BRIEF_SHOWERS","Cross-shore,Cross-shore,Onshore,Onshore",4
5842041f4e65fad6a7708832,2024_07_20,33.202391008646,-117.39475,Oceanside Harbor,2.75,1.0277924999999999,1.452685,21,21,"NIGHT_CLEAR,NIGHT_MIST,NIGHT_MIST,BRIEF_SHOWERS","Cross-shore,Cross-shore,Cross-shore,Onshore",4
5842041f4e65fad6a7708835,2024_07_20,33.19477795952803,-117.38667,Oceanside Pier,2.75,0.6725625,1.0564875,21,21,"NIGHT_MOSTLY_CLOUDY,NIGHT_MOSTLY_CLOUDY,NIGHT_MOSTLY_CLOUDY,CLEAR","Cross-shore,Cross-shore,Cross-shore,Onshore",4
5842041f4e65fad6a7708837,2024_07_20,33.14948100706,-117.35029,Tamarack,3,0.8651525,1.196235,22,22,"NIGHT_MOSTLY_CLOUDY,NIGHT_MIST,NIGHT_MIST,BRIEF_SHOWERS","Cross-shore,Cross-shore,Cross-shore,Onshore",4
5842041f4e65fad6a7708839,2024_07_20,32.865777159358856,-117.25614,Scripps,2,0.429715,0.7316125,20,20,"NIGHT_BRIEF_SHOWERS,NIGHT_MIST,NIGHT_BRIEF_SHOWERS,MIST","Onshore,Onshore,Onshore,Onshore",4
5842041f4e65fad6a770883a,2024_07_20,32.813094,-117.27381,Birdrock,3,0.6225,0.925,21.75,21.75,"NIGHT_MOSTLY_CLOUDY,NIGHT_MOSTLY_CLOUDY,NIGHT_MOSTLY_CLOUDY,CLEAR","Offshore,Cross-shore,Offshore,Cross-shore",4
5842041f4e65fad6a770883b,2024_07_20,32.877231,-117.25303,Blacks,3,0.70015,1.0182674999999999,20,20,"NIGHT_BRIEF_SHOWERS,NIGHT_MIST,NIGHT_BRIEF_SHOWERS,MIST","Onshore,Onshore,Onshore,Onshore",4
5842041f4e65fad6a770883c,2024_07_20,32.82978974229765,-117.28162,Windansea,2.25,0.7155675,1.0307675,20,20,"NIGHT_MIST,NIGHT_MIST,NIGHT_MIST,BRIEF_SHOWERS","Cross-shore,Cross-shore,Cross-shore,Onshore",4
5842041f4e65fad6a770883d,2024_07_20,32.838278,-117.28396,Horseshoe,2,0.64,0.945,21.75,21.75,"NIGHT_MIST,NIGHT_MIST,NIGHT_MIST,BRIEF_SHOWERS","Cross-shore,Cross-shore,Cross-shore,Onshore",4
5842041f4e65fad6a770883f,2024_07_20,32.75034717673179,-117.25337,Ocean Beach,2.875,0.61886,0.9021825,20,20,"NIGHT_MIST,NIGHT_MIST,NIGHT_MIST,MIST","Onshore,Onshore,Onshore,Onshore",4
5842041f4e65fad6a7708840,2024_07_20,32.73693,-117.25718,Sunset Cliffs,2,0.47585,0.7794,21,21,"NIGHT_MIST,NIGHT_MIST,NIGHT_MIST,BRIEF_SHOWERS","Onshore,Onshore,Onshore,Onshore",4
5842041f4e65fad6a7708841,2024_07_20,32.796582258728826,-117.25779,Pacific Beach,2.875,0.7689675,1.0422099999999999,20,20,"NIGHT_MIST,NIGHT_MIST,NIGHT_MIST,CLEAR","Offshore,Cross-shore,Offshore,Cross-shore",4
5842041f4e65fad6a7708842,2024_07_20,32.776636,-117.25514,Mission Beach,2.875,0.6186425,0.9612175,20,20,"NIGHT_MIST,NIGHT_MIST,NIGHT_MIST,CLEAR","Cross-shore,Cross-shore,Cross-shore,Onshore",4
5842041f4e65fad6a7708844,2024_07_20,32.577195519016,-117.13475,Imperial Beach Pier,2.75,0.6125,0.9175,21,21,"NIGHT_MIST,NIGHT_MIST,NIGHT_MIST,MIST","Onshore,Onshore,Onshore,Onshore",4
5842041f4e65fad6a770884a,2024_07_20,42.88678181061,-70.80843,Seabrook,1.7083333333333333,0.2611525,0.4302775,17,13,"NIGHT_CLEAR,NIGHT_CLEAR,NIGHT_CLEAR,CLEAR","Offshore,Offshore,Offshore,Offshore",4
5842041f4e65fad6a770884e,2024_07_20,41.434181432898335,-71.45312,Narragansett,1.75,0.2295225,0.5317775,24,21,"NIGHT_CLEAR,NIGHT_CLEAR,NIGHT_CLEAR,CLEAR","Cross-shore,Cross-shore,Cross-shore,Cross-shore",4
5842041f4e65fad6a7708850,2024_07_20,40.582703230722,-73.65247,Lincoln Blvd,1.25,0.338485,0.6860925,23,21,"NIGHT_CLEAR,NIGHT_CLEAR,NIGHT_CLEAR,MIST","Onshore,Onshore,Onshore,Onshore",4
5842041f4e65fad6a7708852,2024_07_20,40.58342841721757,-73.81182,Rockaways,1.7916666666666667,0.3253975,0.6185575,23,21,"NIGHT_CLEAR,NIGHT_CLEAR,NIGHT_CLEAR,CLEAR","Onshore,Onshore,Onshore,Onshore",4
5842041f4e65fad6a7708853,2024_07_20,40.330474,-73.9734,Monmouth Beach,1.75,0.24250000000000002,0.5491325,22,20,"NIGHT_CLEAR,NIGHT_CLEAR,NIGHT_CLEAR,CLEAR","Offshore,Offshore,Cross-shore,Cross-shore",4
5842041f4e65fad6a7708856,2024_07_20,40.113,-74.028,Manasquan Inlet,0.7916666666666667,0.02551,0.32625,21,19,"NIGHT_CLEAR,NIGHT_CLEAR,NIGHT_MIST,CLEAR","Offshore,Offshore,Offshore,Cross-shore",4
5842041f4e65fad6a7708857,2024_07_20,39.941519877445664,-74.06829,Casino Pier,1.75,0.2191325,0.5224325,17,17,"NIGHT_CLEAR,NIGHT_CLEAR,NIGHT_MIST,CLEAR","Cross-shore,Cross-shore,Cross-shore,Cross-shore",4
5842041f4e65fad6a7708858,2024_07_20,39.28223089949212,-74.55766,North End OC,2,0.2474675,0.5507675000000001,14,13,"NIGHT_CLEAR,NIGHT_CLEAR,NIGHT_CLEAR,MIST","Onshore,Onshore,Cross-shore,Onshore",4
5842041f4e65fad6a770885b,2024_07_20,39.65080599934257,-74.17146,Ship Bottom,1.7916666666666667,0.16935,0.4748,14,13,"NIGHT_MIST,NIGHT_MIST,NIGHT_MIST,MIST","Offshore,Cross-shore,Cross-shore,Offshore",4
5842041f4e65fad6a7708863,2024_07_20,36.034151543144,-75.66791,Third Street,2,0.1774675,0.4791,18.75,18,"NIGHT_MIST,NIGHT_MIST,NIGHT_CLEAR,CLEAR","Cross-shore,Offshore,Offshore,Offshore",4
5842041f4e65fad6a7708867,2024_07_20,35.605833221351425,-75.46303,S-Turns,1,0.3909925,0.696785,25,23,"NIGHT_CLEAR,NIGHT_CLEAR,NIGHT_FOG,BRIEF_SHOWERS_POSSIBLE","Offshore,Offshore,Offshore,Offshore",4
5842041f4e65fad6a770886d,2024_07_20,38.338461,-75.08117,Ocean City Boardwalk,2,0.2536675,0.5578925,21,21,"NIGHT_CLEAR,NIGHT_MIST,NIGHT_MIST,MIST","Onshore,Onshore,Onshore,Onshore",4
5842041f4e65fad6a770886f,2024_07_20,29.844757212379562,-81.26136,A St.,1.75,0.235,0.5425,28,28,"NIGHT_CLEAR,NIGHT_CLEAR,NIGHT_CLEAR,CLEAR","Cross-shore,Cross-shore,Cross-shore,Onshore",4
5842041f4e65fad6a7708871,2024_07_20,29.069417851135093,-80.90824,New Smyrna Beach,1.75,0.4557675,0.7665675,28,27,"NIGHT_CLEAR,NIGHT_CLEAR,NIGHT_CLEAR,CLEAR","Cross-shore,Cross-shore,Cross-shore,Onshore",4
5842041f4e65fad6a7708872,2024_07_20,28.367707417566,-80.60171,Cocoa Beach Pier,1,0.15349,0.45453,29,28,"NIGHT_CLEAR,NIGHT_CLEAR,NIGHT_CLEAR,CLEAR","Onshore,Onshore,Cross-shore,Onshore",4
5842041f4e65fad6a7708873,2024_07_20,28.091782738658846,-80.56479,Indialantic,1,0.14375000000000002,0.44965,29,28,"NIGHT_CLEAR,NIGHT_CLEAR,NIGHT_CLEAR,CLEAR","Cross-shore,Cross-shore,Cross-shore,Onshore",4
5842041f4e65fad6a7708876,2024_07_20,27.25392904143517,-80.19455,Jensen Beach,0,-0.0015,0.3058,30,29,"NIGHT_CLEAR,NIGHT_CLEAR,NIGHT_CLEAR,CLEAR","Cross-shore,Cross-shore,Onshore,Cross-shore",4
5842041f4e65fad6a7708879,2024_07_20,26.76346795333825,-80.03607,Reef Road,0.16666666666666666,0.065,0.3487,31,29,"NIGHT_CLEAR,NIGHT_CLEAR,NIGHT_CLEAR,CLEAR","Onshore,Onshore,Onshore,Onshore",4
5842041f4e65fad6a770887c,2024_07_20,26.336499228484,-80.06956100463,Boca Raton Inlet,0.16666666666666666,0.003125,0.28652500000000003,31,29,"NIGHT_CLEAR,NIGHT_CLEAR,NIGHT_CLEAR,CLEAR","Onshore,Onshore,Onshore,Onshore",4
5842041f4e65fad6a770887d,2024_07_20,26.31719311695038,-80.07453,Deerfield Beach Pier,0,0.07466249999999999,0.24434,31,29,"NIGHT_CLEAR,NIGHT_CLEAR,NIGHT_CLEAR,CLEAR","Onshore,Onshore,Onshore,Onshore",4
5842041f4e65fad6a7708881,2024_07_20,30.20276320866628,-85.85626528676136,"Spyglass Dr., Panama City",0,0,0.21645,31,29,"NIGHT_CLEAR,NIGHT_CLEAR,NIGHT_CLEAR,CLEAR","Onshore,Onshore,Onshore,Onshore",4
5842041f4e65fad6a7708884,2024_07_20,33.39000832738053,-117.59852,Cottons,3.5,1.0813175,1.407375,19,19,"NIGHT_MIST,NIGHT_MIST,NIGHT_MOSTLY_CLOUDY,MOSTLY_CLEAR","Cross-shore,Cross-shore,Cross-shore,Onshore",4
5842041f4e65fad6a7708885,2024_07_20,33.359416282661,-117.54168,Trails,2.75,0.6775,0.9824999999999999,22,22,"NIGHT_MIST,NIGHT_MIST,NIGHT_MOSTLY_CLOUDY,CLEAR","Offshore,Offshore,Offshore,Cross-shore",4
5842041f4e65fad6a7708886,2024_07_20,33.38042605929805,-117.58332,Middles,3.625,1.0175,1.2975,19,19,"NIGHT_MIST,NIGHT_MIST,NIGHT_MOSTLY_CLOUDY,MOSTLY_CLEAR","Offshore,Cross-shore,Offshore,Onshore",4
5842041f4e65fad6a7708887,2024_07_20,33.38445596302903,-117.59445,Upper Trestles,2.875,0.9844425,1.264665,19,19,"NIGHT_MIST,NIGHT_MIST,NIGHT_MOSTLY_CLOUDY,MOSTLY_CLEAR","Offshore,Cross-shore,Cross-shore,Onshore",4
5842041f4e65fad6a7708889,2024_07_20,28.944414,-95.28883,Surfside,1,0.17158,0.26809,30,30,"NIGHT_FOG,NIGHT_FOG,NIGHT_HEAVY_RAIN,CLEAR","Offshore,Offshore,Offshore,Onshore",4
5842041f4e65fad6a770888a,2024_07_20,33.38143999849023,-117.58843,Lower Trestles,3.625,1.3555774999999999,1.9290025000000002,19,19,"NIGHT_MIST,NIGHT_MIST,NIGHT_MOSTLY_CLOUDY,MOSTLY_CLEAR","Offshore,Cross-shore,Cross-shore,Onshore",4
5842041f4e65fad6a770888b,2024_07_20,33.379622288757,-117.57894,Church,3.625,1.0433575,1.353415,20,20,"NIGHT_MIST,NIGHT_MIST,NIGHT_MOSTLY_CLOUDY,MOSTLY_CLEAR","Offshore,Cross-shore,Cross-shore,Onshore",4
5842041f4e65fad6a770888d,2024_07_20,21.679,-158.042,Sunset Beach,1.9583333333333333,0.2001325,0.50335,26,25,"NIGHT_CLEAR,NIGHT_CLEAR,NIGHT_CLEAR,LIGHT_SHOWERS_POSSIBLE","Cross-shore,Offshore,Offshore,Cross-shore",4
5842041f4e65fad6a770888e,2024_07_20,21.670550036401,-158.0482,Rocky Point,2.6666666666666665,0.55376,0.8520274999999999,26,25,"NIGHT_CLEAR,NIGHT_CLEAR,NIGHT_CLEAR,MOSTLY_CLEAR","Cross-shore,Cross-shore,Offshore,Cross-shore",4
5842041f4e65fad6a770888f,2024_07_20,21.668,-158.05,Chambers,2,0.4740075,0.7797675,26,26,"NIGHT_CLEAR,NIGHT_CLEAR,NIGHT_CLEAR,MOSTLY_CLEAR","Cross-shore,Offshore,Cross-shore,Cross-shore",4
5842041f4e65fad6a7708890,2024_07_20,21.66522,-158.0526,Pipeline,1,0.05257,0.33404,26,25,"NIGHT_CLEAR,NIGHT_CLEAR,NIGHT_CLEAR,MOSTLY_CLEAR","Cross-shore,Cross-shore,Offshore,Cross-shore",4
5842041f4e65fad6a7708891,2024_07_20,21.665,-158.054,Backdoor,1.75,0.05257,0.33404,26,25,"NIGHT_CLEAR,NIGHT_CLEAR,NIGHT_CLEAR,MOSTLY_CLEAR","Cross-shore,Cross-shore,Offshore,Cross-shore",4
5842041f4e65fad6a7708892,2024_07_20,21.662,-158.057,Rockpile,2,0.3025,0.6025,26,26,"NIGHT_CLEAR,NIGHT_CLEAR,NIGHT_CLEAR,MOSTLY_CLEAR","Onshore,Cross-shore,Offshore,Cross-shore",4
5842041f4e65fad6a7708893,2024_07_20,21.65870453806827,-158.06058,Log Cabins,1.25,0.2158525,0.5511175,26,26,"NIGHT_CLEAR,NIGHT_CLEAR,NIGHT_CLEAR,MOSTLY_CLEAR","Cross-shore,Cross-shore,Offshore,Cross-shore",4
5842041f4e65fad6a7708894,2024_07_20,21.66203493640557,-158.05495,Off-The-Wall,2,0.1525,0.46,26,26,"NIGHT_CLEAR,NIGHT_CLEAR,NIGHT_CLEAR,MOSTLY_CLEAR","Cross-shore,Cross-shore,Offshore,Cross-shore",4
5842041f4e65fad6a7708895,2024_07_20,21.643,-158.067,Waimea Bay,NA,0.1383325,0.4187325,26,25,"NIGHT_CLEAR,NIGHT_CLEAR,NIGHT_CLEAR,MOSTLY_CLEAR","Cross-shore,Offshore,Offshore,Offshore",4
5842041f4e65fad6a7708896,2024_07_20,21.622,-158.087,Hultin's,1.4583333333333333,0.1708,0.4724325,26,25,"NIGHT_CLEAR,NIGHT_CLEAR,NIGHT_CLEAR,CLEAR","Offshore,Offshore,Offshore,Offshore",4
5842041f4e65fad6a7708897,2024_07_20,21.623,-158.085,Jocko's,2,0.12,0.4225,26,26,"NIGHT_CLEAR,NIGHT_CLEAR,NIGHT_CLEAR,CLEAR","Onshore,Onshore,Cross-shore,Onshore",4
5842041f4e65fad6a7708898,2024_07_20,21.62,-158.088,Laniakea,1.9583333333333333,0.407625,0.7104475,26,25,"NIGHT_CLEAR,NIGHT_CLEAR,NIGHT_CLEAR,CLEAR","Cross-shore,Cross-shore,Offshore,Cross-shore",4
5842041f4e65fad6a7708899,2024_07_20,21.625,-158.083,Chun's,1,0.175,0.47750000000000004,26,26,"NIGHT_CLEAR,NIGHT_CLEAR,NIGHT_CLEAR,CLEAR","Offshore,Offshore,Offshore,Offshore",4
5842041f4e65fad6a770889c,2024_07_20,21.286357895152136,-157.8515,South Shore - Ala Moana Park,2.75,0.615,0.9175,26,26,"NIGHT_CLEAR,NIGHT_CLEAR,NIGHT_CLEAR,CLEAR","Offshore,Offshore,Offshore,Offshore",4
5842041f4e65fad6a770889d,2024_07_20,19.606,-155.978,Banyans,2.75,0.4532675,0.7590675,26,25,"NIGHT_MOSTLY_CLOUDY,NIGHT_MOSTLY_CLOUDY,NIGHT_MOSTLY_CLOUDY,CLEAR","Cross-shore,Cross-shore,Cross-shore,Onshore",4
5842041f4e65fad6a770889e,2024_07_20,20.029,-155.831,Kawaihae,2,0.4444,0.49568,26,26,"NIGHT_MOSTLY_CLEAR,NIGHT_MOSTLY_CLOUDY,NIGHT_MOSTLY_CLEAR,CLEAR","Offshore,Offshore,Onshore,Onshore",4
5842041f4e65fad6a770889f,2024_07_20,33.07541383424675,-117.3105,Grandview,2.75,0.8230000000000001,1.1721675,22,22,"NIGHT_MIST,NIGHT_MIST,NIGHT_MIST,BRIEF_SHOWERS","Cross-shore,Cross-shore,Cross-shore,Onshore",4
5842041f4e65fad6a77088a0,2024_07_20,33.065267421296596,-117.30577,Beacons,3,0.5817,0.903725,21.75,21.75,"NIGHT_MIST,NIGHT_MIST,NIGHT_MIST,BRIEF_SHOWERS","Cross-shore,Cross-shore,Cross-shore,Onshore",4
5842041f4e65fad6a77088a2,2024_07_20,21.252,-157.805,Diamond Head,3,0.7539575000000001,1.09508,26,25,"NIGHT_CLEAR,NIGHT_MOSTLY_CLEAR,NIGHT_MOSTLY_CLOUDY,CLEAR","Cross-shore,Offshore,Offshore,Cross-shore",4
5842041f4e65fad6a77088a3,2024_07_20,33.04694255008896,-117.29966,Moonlight State Beach,2.75,0.515,0.8175,21.75,21.75,"NIGHT_MIST,NIGHT_MIST,NIGHT_MIST,BRIEF_SHOWERS","Onshore,Onshore,Onshore,Onshore",4
5842041f4e65fad6a77088a5,2024_07_20,33.08685865930869,-117.31532,Ponto,2.75,0.5839675,0.957,22,22,"NIGHT_MIST,NIGHT_MIST,NIGHT_MIST,BRIEF_SHOWERS","Onshore,Onshore,Onshore,Onshore",4
5842041f4e65fad6a77088a6,2024_07_20,33.130343587871906,-117.33668,Terra Mar Point,3,0.469945,0.8113625,21,21,"NIGHT_CLEAR,NIGHT_CLEAR,NIGHT_CLEAR,CLEAR","Cross-shore,Cross-shore,Cross-shore,Onshore",4
5842041f4e65fad6a77088af,2024_07_20,32.95916304183685,-117.26963,Del Mar,2.75,0.65167,0.9575425,21.75,21.75,"NIGHT_MIST,NIGHT_MIST,NIGHT_MIST,BRIEF_SHOWERS","Cross-shore,Cross-shore,Cross-shore,Onshore",4
5842041f4e65fad6a77088b0,2024_07_20,32.97527261243354,-117.2721061331305,Del Mar Rivermouth,2,0.52,0.825,21.75,21.75,"NIGHT_MIST,NIGHT_MIST,NIGHT_MIST,MIST","Cross-shore,Cross-shore,Cross-shore,Onshore",4
5842041f4e65fad6a77088b1,2024_07_20,33.01352178146273,-117.28219,Cardiff Reef,2.125,0.4811775,0.82358,20,20,"NIGHT_MOSTLY_CLOUDY,NIGHT_MOSTLY_CLOUDY,NIGHT_MIST,BRIEF_SHOWERS","Offshore,Cross-shore,Cross-shore,Onshore",4
5842041f4e65fad6a77088b3,2024_07_20,33.00211185876003,-117.2811,Seaside Reef,2,0.5225,0.83,21.75,21.75,"NIGHT_MIST,NIGHT_MIST,NIGHT_MIST,BRIEF_SHOWERS","Cross-shore,Cross-shore,Cross-shore,Onshore",4
5842041f4e65fad6a77088b4,2024_07_20,33.0341859796287,-117.29552,Swami's,3,0.56641,0.8811875,20,20,"NIGHT_MOSTLY_CLOUDY,NIGHT_MOSTLY_CLOUDY,NIGHT_MIST,BRIEF_SHOWERS","Onshore,Onshore,Onshore,Onshore",4
5842041f4e65fad6a77088b7,2024_07_20,33.04569760260221,-117.2994,D Street,3,0.706275,1.0095075,21.75,21.75,"NIGHT_MIST,NIGHT_MIST,NIGHT_MIST,BRIEF_SHOWERS","Onshore,Onshore,Onshore,Onshore",4
5842041f4e65fad6a77088b8,2024_07_20,33.02090944350196,-117.28535,San Elijo State Beach,2.125,0.36228499999999997,0.6520075,20,20,"NIGHT_MOSTLY_CLOUDY,NIGHT_MOSTLY_CLOUDY,NIGHT_MIST,BRIEF_SHOWERS","Offshore,Cross-shore,Cross-shore,Cross-shore",4
5842041f4e65fad6a77088c2,2024_07_20,32.80662846492798,-117.26888,PB Point,2.75,0.5425,0.8474999999999999,21,21,"NIGHT_MOSTLY_CLOUDY,NIGHT_MOSTLY_CLOUDY,NIGHT_MOSTLY_CLOUDY,CLEAR","Offshore,Offshore,Offshore,Cross-shore",4
5842041f4e65fad6a77088c4,2024_07_20,32.8060476681448,-117.26479,Old Man's at Tourmaline,2.75,0.4743275,0.7736149999999999,21,21,"NIGHT_MOSTLY_CLOUDY,NIGHT_MOSTLY_CLOUDY,NIGHT_MOSTLY_CLOUDY,CLEAR","Offshore,Offshore,Offshore,Cross-shore",4
5842041f4e65fad6a77088cb,2024_07_20,32.557056711256,-117.1327445020322,Tijuana Slough,2,0.47250000000000003,0.78,21,21,"NIGHT_MIST,NIGHT_MIST,NIGHT_BRIEF_SHOWERS,MIST","Cross-shore,Cross-shore,Cross-shore,Onshore",4
5842041f4e65fad6a77088cc,2024_07_20,32.863,-117.257,La Jolla Shores,2,0.3975,0.6975,21.75,21.75,"NIGHT_BRIEF_SHOWERS,NIGHT_MIST,NIGHT_BRIEF_SHOWERS,MIST","Onshore,Onshore,Onshore,Onshore",4
5842041f4e65fad6a77088ce,2024_07_20,32.67443657790586,-117.17421,Coronado Beach,2.75,0.52,0.8300000000000001,20.75,20.75,"NIGHT_MOSTLY_CLOUDY,NIGHT_CLEAR,NIGHT_CLEAR,CLEAR","Cross-shore,Offshore,Cross-shore,Cross-shore",4
5842041f4e65fad6a77088cf,2024_07_20,33.40484417640326,-117.60749,San Clemente State Beach,2.75,0.54,0.8425,22,22,"NIGHT_MOSTLY_CLEAR,NIGHT_MOSTLY_CLEAR,NIGHT_MOSTLY_CLEAR,CLEAR","Onshore,Cross-shore,Cross-shore,Onshore",4
5842041f4e65fad6a77088d5,2024_07_20,33.4663042002114,-117.7168352817103,Strands,3,0.7103825,1.0575,19,19,"NIGHT_MIST,NIGHT_MIST,NIGHT_MIST,MIST","Onshore,Cross-shore,Cross-shore,Onshore",4
5842041f4e65fad6a77088d7,2024_07_20,33.4609858001748,-117.68535,Doheny State Beach,3,0.60521,0.9855,19,19,"NIGHT_CLEAR,NIGHT_CLEAR,NIGHT_CLEAR,CLEAR","Onshore,Cross-shore,Onshore,Onshore",4
5842041f4e65fad6a77088dc,2024_07_20,33.50894790083017,-117.75243,Aliso Creek,2.5,0.765,1.0375,22,22,"NIGHT_BRIEF_SHOWERS,NIGHT_MIST,NIGHT_BRIEF_SHOWERS,BRIEF_SHOWERS","Cross-shore,Cross-shore,Cross-shore,Onshore",4
5842041f4e65fad6a77088dd,2024_07_20,33.5326591767067,-117.77764,Brooks Street,1.75,0.4075,0.7124999999999999,22,22,"NIGHT_MIST,NIGHT_MIST,NIGHT_MIST,BRIEF_SHOWERS","Cross-shore,Offshore,Cross-shore,Onshore",4
5842041f4e65fad6a77088de,2024_07_20,33.53561225884637,-117.7799,Thalia Street,1.75,0.345,0.6525000000000001,22,22,"NIGHT_MIST,NIGHT_MIST,NIGHT_MIST,BRIEF_SHOWERS","Cross-shore,Offshore,Cross-shore,Onshore",4
5842041f4e65fad6a77088e3,2024_07_20,33.54268310353641,-117.7916,Rockpile,2.5,0.4075,0.7124999999999999,22,22,"NIGHT_MIST,NIGHT_MIST,NIGHT_MIST,BRIEF_SHOWERS","Cross-shore,Offshore,Offshore,Cross-shore",4
5842041f4e65fad6a77088e4,2024_07_20,33.7368459504689,-118.10342,"Seal Beach Pier, Southside",1.75,0.0375,0.34,20.75,20.75,"NIGHT_CLEAR,NIGHT_MIST,NIGHT_MIST,MIST","Cross-shore,Cross-shore,Cross-shore,Onshore",4
5842041f4e65fad6a77088e5,2024_07_20,33.73933701820233,-118.117,Ray Bay,2.75,0.33,0.6375,20.75,20.75,"NIGHT_CLEAR,NIGHT_CLEAR,NIGHT_CLEAR,CLEAR","Onshore,Cross-shore,Cross-shore,Onshore",4
5842041f4e65fad6a77088e7,2024_07_20,33.728733,-118.08982,Surfside,1.5,0,0.3075,20.75,20.75,"NIGHT_CLEAR,NIGHT_CLEAR,NIGHT_CLEAR,CLEAR","Cross-shore,Cross-shore,Cross-shore,Onshore",4
5842041f4e65fad6a77088e8,2024_07_20,33.68760321488161,-118.04236,Bolsa Chica State Beach,2.875,0.461485,0.7420875,18,18,"NIGHT_CLEAR,NIGHT_CLEAR,NIGHT_CLEAR,CLEAR","Offshore,Offshore,Offshore,Onshore",4
5842041f4e65fad6a77088ea,2024_07_20,33.66704400178788,-118.0192,North HB Streets,2,0.9525325,1.2435049999999999,18,18,"NIGHT_CLEAR,NIGHT_CLEAR,NIGHT_BRIEF_SHOWERS_POSSIBLE,CLEAR","Cross-shore,Cross-shore,Cross-shore,Onshore",4
5842041f4e65fad6a77088ed,2024_07_20,33.65475101379567,-118.00291,Huntington Beach Pier Southside,2,1.0146575,1.2439,18,18,"NIGHT_CLEAR,NIGHT_CLEAR,NIGHT_BRIEF_SHOWERS_POSSIBLE,CLEAR","Cross-shore,Onshore,Onshore,Onshore",4
5842041f4e65fad6a77088ee,2024_07_20,33.62778647706099,-117.95939,River Jetties,2.5,0.9821675,1.1999175,18,18,"NIGHT_CLEAR,NIGHT_MOSTLY_CLEAR,NIGHT_MOSTLY_CLEAR,CLEAR","Onshore,Onshore,Onshore,Onshore",4
5842041f4e65fad6a77088f2,2024_07_20,33.605165797643664,-117.925,Newport Point,2,0.38,0.6875,21,21,"NIGHT_MIST,NIGHT_MIST,NIGHT_MIST,MIST","Onshore,Cross-shore,Cross-shore,Onshore",4
5842041f4e65fad6a77088f3,2024_07_20,33.58982984726977,-117.87713,Corona del Mar,3,0.54,0.8475,21.25,21.25,"NIGHT_MIST,NIGHT_MIST,NIGHT_MIST,BRIEF_SHOWERS","Onshore,Cross-shore,Cross-shore,Onshore",4
5842041f4e65fad6a77088f7,2024_07_20,34.00750300824362,-118.4971783496269,Santa Monica Pier,2.75,0.49,0.7925,20,20,"NIGHT_MOSTLY_CLEAR,NIGHT_MOSTLY_CLEAR,NIGHT_MOSTLY_CLEAR,CLEAR","Cross-shore,Cross-shore,Cross-shore,Onshore",4
5842041f4e65fad6a77088ff,2024_07_20,33.94070283102945,-118.44321,Dockweiler Beach,2,0.5787175,0.8909100000000001,21,21,"NIGHT_MIST,NIGHT_MIST,NIGHT_MIST,BRIEF_SHOWERS","Onshore,Onshore,Onshore,Onshore",4
5842041f4e65fad6a7708900,2024_07_20,33.9231846937237,-118.4341465777908,Shitpipe,2,0.6555925,0.960285,21,21,"NIGHT_MIST,NIGHT_MIST,NIGHT_MIST,BRIEF_SHOWERS","Onshore,Onshore,Onshore,Onshore",4
5842041f4e65fad6a7708902,2024_07_20,33.9108528052242,-118.4279133138721,Hammerland,2,0.6555925,0.960285,21,21,"NIGHT_MIST,NIGHT_MIST,NIGHT_MIST,BRIEF_SHOWERS","Onshore,Onshore,Onshore,Onshore",4
5842041f4e65fad6a7708904,2024_07_20,33.87201368173932,-118.40752,Hermosa Beach,1.75,0.4624025,0.7719674999999999,21,21,"NIGHT_MIST,NIGHT_MIST,NIGHT_MIST,MIST","Onshore,Onshore,Onshore,Onshore",4
5842041f4e65fad6a7708906,2024_07_20,33.90129336911256,-118.42184,El Porto,2,0.6998075,1.0153325,21,21,"NIGHT_MIST,NIGHT_MIST,NIGHT_MIST,BRIEF_SHOWERS","Onshore,Onshore,Onshore,Onshore",4
5842041f4e65fad6a7708907,2024_07_20,33.87963506431794,-118.41102,Manhattan Beach Pier,1.875,0.7259725,1.133845,21,21,"NIGHT_MIST,NIGHT_MIST,NIGHT_MIST,BRIEF_SHOWERS","Onshore,Onshore,Onshore,Onshore",4
5842041f4e65fad6a7708914,2024_07_20,34.038053387863464,-118.5532,Sunset Point,2,0.2975,0.6,20,20,"NIGHT_MIST,NIGHT_MIST,NIGHT_MIST,CLEAR","Cross-shore,Cross-shore,Onshore,Onshore",4
5842041f4e65fad6a7708920,2024_07_20,33.80282,-118.39989,Haggerty's,1.75,0.212,0.456,20.75,20.75,"NIGHT_BRIEF_SHOWERS,NIGHT_MIST,NIGHT_BRIEF_SHOWERS,BRIEF_SHOWERS","Onshore,Onshore,Onshore,Onshore",4
5842041f4e65fad6a7708921,2024_07_20,33.85044519861206,-118.40048,Redondo Breakwater,1.75,0.419555,0.7271375,20.75,20.75,"NIGHT_MIST,NIGHT_MIST,NIGHT_MIST,MIST","Onshore,Onshore,Onshore,Onshore",4
5842041f4e65fad6a7708927,2024_07_20,33.70877301002487,-118.2840112858389,Cabrillo Beach,2,0.1825,0.4875,20.75,20.75,"NIGHT_CLEAR,NIGHT_CLEAR,NIGHT_CLEAR,CLEAR","Offshore,Cross-shore,Offshore,Cross-shore",4
5842041f4e65fad6a770892c,2024_07_20,33.77209986806257,-118.4268428476672,Lunada Bay,1,0.4,0.7075,21,21,"NIGHT_MIST,NIGHT_MIST,NIGHT_BRIEF_SHOWERS,BRIEF_SHOWERS","Onshore,Onshore,Onshore,Onshore",4
5842041f4e65fad6a770892d,2024_07_20,33.79294656286144,-118.40703,PV Cove,1.25,0.265,0.57,21,21,"NIGHT_BRIEF_SHOWERS,NIGHT_MIST,NIGHT_BRIEF_SHOWERS,BRIEF_SHOWERS","Onshore,Onshore,Onshore,Onshore",4
5842041f4e65fad6a7708930,2024_07_20,34.03944902292561,-118.57539,Chart House,0.75,0,0.1675,20,20,"NIGHT_CLEAR,NIGHT_CLEAR,NIGHT_CLEAR,CLEAR","Onshore,Onshore,Onshore,Cross-shore",4
5842041f4e65fad6a7708936,2024_07_20,34.0016731994772,-118.80456,Point Dume,2.6666666666666665,0.41750000000000004,0.72141,19,19,"NIGHT_CLEAR,NIGHT_CLEAR,NIGHT_CLEAR,CLEAR","Onshore,Cross-shore,Cross-shore,Cross-shore",4
5842041f4e65fad6a7708937,2024_07_20,34.02587527588963,-118.7554939066114,Latigo Point,2.75,0.6725,0.9825,20,20,"NIGHT_CLEAR,NIGHT_CLEAR,NIGHT_CLEAR,CLEAR","Cross-shore,Cross-shore,Cross-shore,Onshore",4
5842041f4e65fad6a770893f,2024_07_20,34.043762,-118.93294,Leo Carrillo,1.9166666666666667,0.7627075,1.0659175,18,18,"NIGHT_CLEAR,NIGHT_CLEAR,NIGHT_CLEAR,CLEAR","Cross-shore,Cross-shore,Cross-shore,Cross-shore",4
5842041f4e65fad6a7708941,2024_07_20,36.69388179265737,-121.81289,Marina State Beach,2,1.2275,1.5325,15,15,"NIGHT_BRIEF_SHOWERS,NIGHT_MOSTLY_CLOUDY,NIGHT_MOSTLY_CLOUDY,MOSTLY_CLOUDY","Onshore,Onshore,Onshore,Onshore",4
5842041f4e65fad6a7708944,2024_07_20,34.34145077331085,-119.416999352654,Stanley's,2,0.07250000000000001,0.3825,19,19,"NIGHT_CLEAR,NIGHT_CLEAR,NIGHT_CLEAR,CLEAR","Offshore,Offshore,Offshore,Onshore",4
5842041f4e65fad6a7708945,2024_07_20,34.35113017313915,-119.426921498899,Oil Piers,2,0.07250000000000001,0.3825,19,19,"NIGHT_CLEAR,NIGHT_CLEAR,NIGHT_CLEAR,CLEAR","Cross-shore,Offshore,Offshore,Onshore",4
5842041f4e65fad6a770894c,2024_07_20,34.17876333306018,-119.23995,Oxnard,1.75,0.7075,1.01,20,20,"NIGHT_MOSTLY_CLEAR,NIGHT_MOSTLY_CLEAR,NIGHT_MOSTLY_CLEAR,CLEAR","Onshore,Onshore,Onshore,Onshore",4
5842041f4e65fad6a7708957,2024_07_20,34.31720331100517,-119.3882324751725,Pitas Point,2,0.25,0.55,19,19,"NIGHT_CLEAR,NIGHT_CLEAR,NIGHT_MIST,MIST","Cross-shore,Offshore,Offshore,Onshore",4
5842041f4e65fad6a7708959,2024_07_20,34.27851754384724,-119.3162,Emma Wood,2,0.3325,0.635,19.75,19.75,"NIGHT_MIST,NIGHT_MIST,NIGHT_MIST,MIST","Onshore,Onshore,Onshore,Cross-shore",4
5842041f4e65fad6a770895a,2024_07_20,34.35513640390276,-119.4400589884255,Mussel Shoals (aka Little Rincon),2,0.095,0.40249999999999997,19,19,"NIGHT_CLEAR,NIGHT_CLEAR,NIGHT_CLEAR,MIST","Cross-shore,Cross-shore,Offshore,Onshore",4
5842041f4e65fad6a770895e,2024_07_20,34.28991757054902,-119.3366646794652,Summer Beach,1.5,0.2325,0.5375000000000001,19,19,"NIGHT_MIST,NIGHT_MIST,NIGHT_MIST,MIST","Onshore,Onshore,Onshore,Cross-shore",4
5842041f4e65fad6a770895f,2024_07_20,34.30897456105926,-119.3582501170116,Solimar,2,0.2325,0.5375000000000001,19,19,"NIGHT_CLEAR,NIGHT_CLEAR,NIGHT_MIST,MIST","Cross-shore,Onshore,Offshore,Onshore",4
5842041f4e65fad6a7708960,2024_07_20,34.39836265281686,-119.70213,Leadbetter Point,0.75,0,0.1475,18,18,"NIGHT_CLEAR,NIGHT_MIST,NIGHT_MIST,CLEAR","Cross-shore,Cross-shore,Onshore,Cross-shore",4
5842041f4e65fad6a7708961,2024_07_20,34.46052293893899,-120.07328,Refugio,2,0.11,0.4125,17,17,"NIGHT_CLEAR,NIGHT_CLEAR,NIGHT_CLEAR,CLEAR","Onshore,Onshore,Cross-shore,Cross-shore",4
5842041f4e65fad6a7708962,2024_07_20,34.40754276777778,-119.87639,Devereux,2,0.0675,0.3725,17,17,"NIGHT_MIST,NIGHT_MIST,NIGHT_MIST,MIST","Onshore,Onshore,Onshore,Onshore",4
5842041f4e65fad6a7708963,2024_07_20,34.27479983305182,-119.3133222656776,Ventura Overhead,2,0.3325,0.635,19.75,19.75,"NIGHT_MIST,NIGHT_CLEAR,NIGHT_CLEAR,MIST","Onshore,Onshore,Onshore,Onshore",4
5842041f4e65fad6a7708964,2024_07_20,34.41023236011655,-119.88261,Sands,2,0.045,0.3525,17,17,"NIGHT_MIST,NIGHT_MIST,NIGHT_MIST,MIST","Cross-shore,Cross-shore,Cross-shore,Onshore",4
5842041f4e65fad6a7708966,2024_07_20,34.40450193869233,-119.68752,Sandspit,0,0,0.1475,18,18,"NIGHT_CLEAR,NIGHT_CLEAR,NIGHT_CLEAR,CLEAR","Onshore,Onshore,Onshore,Cross-shore",4
5842041f4e65fad6a7708967,2024_07_20,34.41549098334453,-119.6375149840203,Hammond's,1,0,0.29,18,18,"NIGHT_MOSTLY_CLEAR,NIGHT_MOSTLY_CLEAR,NIGHT_MOSTLY_CLEAR,CLEAR","Onshore,Onshore,Onshore,Cross-shore",4
5842041f4e65fad6a7708968,2024_07_20,34.45759322742309,-120.02203,El Capitan,2,0.11,0.4125,17,17,"NIGHT_CLEAR,NIGHT_CLEAR,NIGHT_CLEAR,CLEAR","Onshore,Onshore,Cross-shore,Cross-shore",4
5842041f4e65fad6a770896c,2024_07_20,34.405117655616,-119.84317,Campus Point,2,0.045,0.3525,17.75,17.75,"NIGHT_CLEAR,NIGHT_CLEAR,NIGHT_CLEAR,CLEAR","Onshore,Onshore,Onshore,Onshore",4
5842041f4e65fad6a770896e,2024_07_20,34.38935162233354,-119.51955,Carpinteria State Beach,2,0.105,0.4075,18.75,18.75,"NIGHT_MOSTLY_CLEAR,NIGHT_MOSTLY_CLEAR,NIGHT_MOSTLY_CLEAR,MIST","Onshore,Onshore,Onshore,Onshore",4
5842041f4e65fad6a770896f,2024_07_20,37.48296565175612,-122.45493,Half Moon Bay,2,1.2875,1.4925,16.75,16.75,"NIGHT_BRIEF_SHOWERS,NIGHT_MIST,NIGHT_MIST,BRIEF_SHOWERS","Onshore,Onshore,Onshore,Onshore",4
5842041f4e65fad6a7708970,2024_07_20,37.499,-122.471,Princeton Jetty,2.75,0.9624999999999999,1.18,16.75,16.75,"NIGHT_BRIEF_SHOWERS,NIGHT_MIST,NIGHT_BRIEF_SHOWERS,BRIEF_SHOWERS","Onshore,Onshore,Onshore,Onshore",4
5842041f4e65fad6a7708972,2024_07_20,37.35699547365155,-122.4069534707252,Tunitas Creek,3,1.865,2.1725,16.75,16.75,"NIGHT_BRIEF_SHOWERS,NIGHT_MOSTLY_CLOUDY,NIGHT_BRIEF_SHOWERS,MIST","Cross-shore,Offshore,Offshore,Onshore",4
5842041f4e65fad6a7708974,2024_07_20,37.54735589428842,-122.51611,Montara,2,1.8475000000000001,2.1575,16.75,16.75,"NIGHT_BRIEF_SHOWERS,NIGHT_MIST,NIGHT_BRIEF_SHOWERS,MIST","Onshore,Onshore,Onshore,Onshore",4
5842041f4e65fad6a7708975,2024_07_20,34.3869373724559,-119.5142334209018,Tarpits,2,0.11750000000000001,0.4225,18.75,18.75,"NIGHT_MOSTLY_CLEAR,NIGHT_CLEAR,NIGHT_MOSTLY_CLEAR,CLEAR","Onshore,Onshore,Onshore,Onshore",4
5842041f4e65fad6a7708976,2024_07_20,37.59881852720143,-122.50463,Linda Mar,1.8333333333333335,0.6422025,1.01813,12,12,"NIGHT_SHOWERS,NIGHT_SHOWERS,NIGHT_SHOWERS,BRIEF_SHOWERS","Onshore,Onshore,Onshore,Cross-shore",4
5842041f4e65fad6a7708978,2024_07_20,37.59883098461164,-122.5143843582282,Pedro Point,2,1.875,2.1799999999999997,16.75,16.75,"NIGHT_BRIEF_SHOWERS,NIGHT_MIST,NIGHT_MIST,MIST","Cross-shore,Onshore,Onshore,Cross-shore",4
5842041f4e65fad6a7708979,2024_07_20,37.61081996647663,-122.49733,Rockaway,3,1.7974999999999999,2.1025,17,17,"NIGHT_SHOWERS,NIGHT_SHOWERS,NIGHT_SHOWERS,BRIEF_SHOWERS","Cross-shore,Cross-shore,Cross-shore,Cross-shore",4
5842041f4e65fad6a770897a,2024_07_20,37.809987384424446,-122.47514,Fort Point,2.25,0.9824999999999999,1.285,17.75,17.75,"NIGHT_MIST,NIGHT_MIST,NIGHT_MIST,MIST","Onshore,Onshore,Onshore,Onshore",4
5842041f4e65fad6a770897c,2024_07_20,37.63422542967464,-122.4951,Sharp Park,2.75,1.855,2.1625,17,17,"NIGHT_MIST,NIGHT_MIST,NIGHT_BRIEF_SHOWERS,BRIEF_SHOWERS","Cross-shore,Cross-shore,Cross-shore,Onshore",4
5842041f4e65fad6a770897d,2024_07_20,37.27313605072472,-122.4127387912554,Pescadero,2.25,1.7825,2.09,16,16,"NIGHT_BRIEF_SHOWERS,NIGHT_MIST,NIGHT_MIST,MIST","Cross-shore,Cross-shore,Cross-shore,Onshore",4
5842041f4e65fad6a770897e,2024_07_20,37.18140279972666,-122.3926685899327,Pigeon Point,4,1.8425,2.05,16,16,"NIGHT_BRIEF_SHOWERS,NIGHT_MIST,NIGHT_BRIEF_SHOWERS,BRIEF_SHOWERS","Offshore,Offshore,Offshore,Offshore",4
5842041f4e65fad6a770897f,2024_07_20,37.11578956919415,-122.314699271291,Ano Nuevo,3,1.0474999999999999,1.25,16,16,"NIGHT_CLEAR,NIGHT_CLEAR,NIGHT_MOSTLY_CLOUDY,BRIEF_SHOWERS","Offshore,Offshore,Offshore,Offshore",4
5842041f4e65fad6a7708980,2024_07_20,37.09520872681598,-122.2805474707768,Waddell Creek,3,1.49,1.7475,16,16,"NIGHT_CLEAR,NIGHT_CLEAR,NIGHT_CLEAR,CLEAR","Offshore,Offshore,Offshore,Cross-shore",4
5842041f4e65fad6a7708981,2024_07_20,36.96512852130351,-122.1252825495626,Four Mile,2.75,0.9125000000000001,1.1225,16,16,"NIGHT_CLEAR,NIGHT_CLEAR,NIGHT_CLEAR,CLEAR","Offshore,Offshore,Offshore,Cross-shore",4
5842041f4e65fad6a7708982,2024_07_20,37.04122807048655,-122.23337,Scott Creek,2.75,1.5825,1.805,16,16,"NIGHT_CLEAR,NIGHT_CLEAR,NIGHT_CLEAR,CLEAR","Cross-shore,Cross-shore,Cross-shore,Cross-shore",4
5842041f4e65fad6a7708983,2024_07_20,37.02350229387179,-122.21908,Davenport,2.75,1.55,1.85,16,16,"NIGHT_CLEAR,NIGHT_CLEAR,NIGHT_CLEAR,MIST","Onshore,Cross-shore,Onshore,Cross-shore",4
5842041f4e65fad6a7708986,2024_07_20,36.94905295955728,-122.06118,Natural Bridges,3,1.53,1.8075,16,16,"NIGHT_CLEAR,NIGHT_CLEAR,NIGHT_CLEAR,CLEAR","Onshore,Onshore,Onshore,Cross-shore",4
5842041f4e65fad6a7708987,2024_07_20,36.95154854910425,-122.04207,Mitchell's Cove,3,0.992,1.2881274999999999,16,16,"NIGHT_CLEAR,NIGHT_CLEAR,NIGHT_MOSTLY_CLEAR,CLEAR","Onshore,Onshore,Onshore,Onshore",4
5842041f4e65fad6a770898a,2024_07_20,36.9572312370203,-121.98177,26th Ave,3,1.2,1.435,16,16,"NIGHT_MOSTLY_CLEAR,NIGHT_MOSTLY_CLEAR,NIGHT_BRIEF_SHOWERS,CLEAR","Offshore,Cross-shore,Cross-shore,Cross-shore",4
5842041f4e65fad6a770898e,2024_07_20,36.91899972819882,-121.85536,Manresa,3,1.0275,1.255,16,16,"NIGHT_BRIEF_SHOWERS,NIGHT_MIST,NIGHT_BRIEF_SHOWERS,MIST","Cross-shore,Cross-shore,Cross-shore,Onshore",4
5842041f4e65fad6a7708990,2024_07_20,34.45747731928454,-120.34242,The Ranch,2.75,0.445,0.7525,16,16,"NIGHT_CLEAR,NIGHT_CLEAR,NIGHT_CLEAR,CLEAR","Offshore,Offshore,Offshore,Cross-shore",4
5842041f4e65fad6a7708991,2024_07_20,34.50875036590315,-120.50348,Jalama,3,0.9175,1.0975000000000001,15.75,15.75,"NIGHT_CLEAR,NIGHT_CLEAR,NIGHT_CLEAR,CLEAR","Offshore,Offshore,Offshore,Cross-shore",4
5842041f4e65fad6a7708996,2024_07_20,34.68700870220497,-120.6111611019887,Surf Beach,2.75,1.195,1.5,15.75,15.75,"NIGHT_BRIEF_SHOWERS,NIGHT_MIST,NIGHT_BRIEF_SHOWERS,MIST","Onshore,Onshore,Cross-shore,Onshore",4
5842041f4e65fad6a770899c,2024_07_20,35.5730538161116,-121.1143362345574,Moonstone,2.75,0.9924999999999999,1.3025,15.75,15.75,"NIGHT_MOSTLY_CLOUDY,NIGHT_MOSTLY_CLOUDY,NIGHT_MOSTLY_CLOUDY,CLEAR","Onshore,Onshore,Onshore,Onshore",4
5842041f4e65fad6a770899d,2024_07_20,35.61533716776573,-121.1502053073914,Pico Creek,2.75,1.3275000000000001,1.5475,15.75,15.75,"NIGHT_MIST,NIGHT_MIST,NIGHT_CLEAR,CLEAR","Offshore,Offshore,Onshore,Onshore",4
5842041f4e65fad6a770899e,2024_07_20,35.56829031927379,-121.11207,Santa Rosa Creek,2.75,0.9924999999999999,1.3025,15.75,15.75,"NIGHT_MOSTLY_CLOUDY,NIGHT_MOSTLY_CLOUDY,NIGHT_MOSTLY_CLOUDY,MIST","Cross-shore,Cross-shore,Onshore,Onshore",4
5842041f4e65fad6a77089a2,2024_07_20,35.44820114936284,-120.90715,"Cayucos Pier, Southside ",2.75,0.5206675000000001,0.8214725,15.75,15.75,"NIGHT_MOSTLY_CLOUDY,NIGHT_MOSTLY_CLOUDY,NIGHT_MOSTLY_CLOUDY,CLEAR","Onshore,Onshore,Onshore,Onshore",4
5842041f4e65fad6a77089a4,2024_07_20,35.30143372628852,-120.877819239902,Cable Landing,2,1.9375,2.245,15.75,15.75,"NIGHT_BRIEF_SHOWERS,NIGHT_MOSTLY_CLOUDY,NIGHT_MOSTLY_CLOUDY,MIST","Onshore,Onshore,Onshore,Onshore",4
5842041f4e65fad6a77089a9,2024_07_20,35.61269103500222,-121.14807,San Simeon,2.75,0.8925000000000001,1.0535,15.75,15.75,"NIGHT_MIST,NIGHT_MIST,NIGHT_MOSTLY_CLOUDY,CLEAR","Cross-shore,Cross-shore,Onshore,Onshore",4
5842041f4e65fad6a77089ab,2024_07_20,35.1775325966252,-120.73411,Avila Beach,1.75,0.1175,0.4225,15.75,15.75,"NIGHT_CLEAR,NIGHT_CLEAR,NIGHT_CLEAR,CLEAR","Onshore,Onshore,Cross-shore,Onshore",4
5842041f4e65fad6a77089ac,2024_07_20,35.13877877884115,-120.64535,Pismo Beach Pier,2.916666666666667,0.6448825,0.9508675,13,13,"NIGHT_CLEAR,NIGHT_CLEAR,NIGHT_CLEAR,CLEAR","Onshore,Offshore,Offshore,Onshore",4
5842041f4e65fad6a77089ad,2024_07_20,46.8907710233147,-124.12964,Westport/Olympic Peninsula,2.5,0.8500000000000001,1.0625,14,14,"NIGHT_MIST,NIGHT_MIST,NIGHT_MIST,CLEAR","Cross-shore,Cross-shore,Cross-shore,Cross-shore",4
5842041f4e65fad6a77089ae,2024_07_20,46.35185177248545,-124.06747,Long Beach Peninsula,2.5,0.86,1.0725,14,14,"NIGHT_MIST,NIGHT_MIST,NIGHT_MIST,MIST","Cross-shore,Cross-shore,Cross-shore,Cross-shore",4
5842041f4e65fad6a77089af,2024_07_20,47.90649175554033,-124.63709,La Push,2.5,0.75,1.0250000000000001,14,14,"NIGHT_MIST,NIGHT_MIST,NIGHT_MIST,BRIEF_SHOWERS","Cross-shore,Offshore,Cross-shore,Cross-shore",4
5842041f4e65fad6a77089b0,2024_07_20,42.04368239985442,-124.26828,Brookings Jetty,2.75,0.5695025,0.8898475,13,13,"NIGHT_CLEAR,NIGHT_CLEAR,NIGHT_CLEAR,CLEAR","Onshore,Onshore,Onshore,Cross-shore",4
5842041f4e65fad6a77089b1,2024_07_20,42.74071837900346,-124.4983727491047,Port Orford,2.75,0.62,0.925,13,13,"NIGHT_CLEAR,NIGHT_CLEAR,NIGHT_CLEAR,CLEAR","Offshore,Offshore,Offshore,Offshore",4
5842041f4e65fad6a77089b2,2024_07_20,44.01532689312291,-124.13865,Florence South Jetty,1.75,0.6849999999999999,0.985,12.25,12.25,"NIGHT_MIST,NIGHT_MIST,NIGHT_MIST,BRIEF_SHOWERS_POSSIBLE","Cross-shore,Cross-shore,Cross-shore,Cross-shore",4
5842041f4e65fad6a77089b3,2024_07_20,42.41812540774362,-124.42945,Gold Beach South Jetty,3,0.9675,1.16,13,13,"NIGHT_MIST,NIGHT_MIST,NIGHT_MIST,MIST","Offshore,Offshore,Offshore,Offshore",4
5842041f4e65fad6a77089b4,2024_07_20,44.95857310226525,-124.0219,Lincoln City,1.75,0.5975,0.9075,12.5,12.5,"NIGHT_BRIEF_SHOWERS,NIGHT_MIST,NIGHT_MIST,MOSTLY_CLOUDY","Cross-shore,Cross-shore,Cross-shore,Cross-shore",4
5842041f4e65fad6a77089b5,2024_07_20,44.63792761362982,-124.0657,Newport,2.75,0.8300000000000001,1.04,11.5,11.5,"NIGHT_MIST,NIGHT_MIST,NIGHT_DRIZZLE,MIST","Cross-shore,Cross-shore,Cross-shore,Cross-shore",4
5842041f4e65fad6a77089b6,2024_07_20,45.61468496266301,-123.94643,Rockaway Beach,1.75,0.645,0.9525,13.5,13.5,"NIGHT_MIST,NIGHT_MIST,NIGHT_MIST,MIST","Cross-shore,Cross-shore,Cross-shore,Onshore",4
5842041f4e65fad6a77089b7,2024_07_20,45.20252914186085,-123.96975,Pacific City,1.75,0.5325,0.8375,12.5,12.5,"NIGHT_CLEAR,NIGHT_CLEAR,NIGHT_CLEAR,CLEAR","Cross-shore,Cross-shore,Cross-shore,Cross-shore",4
5842041f4e65fad6a77089b8,2024_07_20,45.88179930310263,-123.96681,Cannon Beach,2.75,0.7875,1.03,14,14,"NIGHT_MIST,NIGHT_MIST,NIGHT_MIST,MOSTLY_CLOUDY","Offshore,Offshore,Offshore,Cross-shore",4
5842041f4e65fad6a77089ba,2024_07_20,40.02528754746774,-124.06372,Shelter Cove,2.75,0.47999000000000003,0.7499875,13.75,13.75,"NIGHT_CLEAR,NIGHT_CLEAR,NIGHT_CLEAR,CLEAR","Offshore,Offshore,Offshore,Offshore",4
5842041f4e65fad6a77089bb,2024_07_20,40.76816197136951,-124.24248,Humboldt Harbor Entrance,2.5,0.76,1.065,14.75,14.75,"NIGHT_MIST,NIGHT_MIST,NIGHT_LIGHT_RAIN,MIST","Cross-shore,Cross-shore,Onshore,Onshore",4
5842041f4e65fad6a77089bc,2024_07_20,40.76684246920174,-124.23107,North Jetty,2.75,1.025,1.225,14.75,14.75,"NIGHT_DRIZZLE,NIGHT_MIST,NIGHT_MIST,MIST","Cross-shore,Cross-shore,Onshore,Onshore",4
5842041f4e65fad6a77089be,2024_07_20,41.13016238153297,-124.16466,Sue-meg,2.75,0.685,0.9875,14.75,14.75,"NIGHT_BRIEF_SHOWERS,NIGHT_MIST,NIGHT_MIST,MIST","Onshore,Onshore,Onshore,Onshore",4
5842041f4e65fad6a77089bf,2024_07_20,37.8289474958188,-122.53768,Fort Cronkite/Rodeo Beach,2,1.2325,1.4725,17,17,"NIGHT_CLEAR,NIGHT_CLEAR,NIGHT_CLEAR,MIST","Cross-shore,Onshore,Onshore,Cross-shore",4
5842041f4e65fad6a77089c0,2024_07_20,41.74415759876137,-124.17717,South Beach CA,2.75,0.71,1.0150000000000001,13,13,"NIGHT_CLEAR,NIGHT_MOSTLY_CLOUDY,NIGHT_CLEAR,CLEAR","Onshore,Onshore,Onshore,Cross-shore",4
5842041f4e65fad6a77089c1,2024_07_20,37.89801283969752,-122.64519,Stinson Beach,3,0.59,0.8925000000000001,17,17,"NIGHT_CLEAR,NIGHT_CLEAR,NIGHT_CLEAR,CLEAR","Onshore,Offshore,Offshore,Offshore",4
5842041f4e65fad6a77089c2,2024_07_20,37.90514516176495,-122.68151,Bolinas,3.5,0.729975,1.1405875,16.75,16.75,"NIGHT_CLEAR,NIGHT_CLEAR,NIGHT_CLEAR,CLEAR","Cross-shore,Offshore,Offshore,Offshore",4
5842041f4e65fad6a77089c3,2024_07_20,38.04892513158693,-122.98925,Point Reyes (north),1,2.5825,2.8825,16,16,"NIGHT_MIST,NIGHT_MIST,NIGHT_MIST,MIST","Onshore,Onshore,Onshore,Onshore",4
5842041f4e65fad6a77089c6,2024_07_20,38.31088736605785,-123.0496777333731,Doran Beach,1,0.20500000000000002,0.51,16,16,"NIGHT_MOSTLY_CLEAR,NIGHT_MOSTLY_CLEAR,NIGHT_MOSTLY_CLEAR,CLEAR","Offshore,Offshore,Offshore,Offshore",4
5842041f4e65fad6a77089c7,2024_07_20,38.45077228660809,-123.13008,Russian Rivermouth,2.5,1.635,1.945,15,15,"NIGHT_CLEAR,NIGHT_CLEAR,NIGHT_CLEAR,CLEAR","Cross-shore,Cross-shore,Cross-shore,Onshore",4
5842041f4e65fad6a77089c8,2024_07_20,38.35329968518107,-123.06906,Salmon Creek,1.5,2.2175,2.5225,15,15,"NIGHT_CLEAR,NIGHT_CLEAR,NIGHT_CLEAR,MIST","Onshore,Onshore,Onshore,Onshore",4
5842041f4e65fad6a77089c9,2024_07_20,38.6845180197959,-123.4322714291198,Black Point Beach,2.75,0.9775,1.1675,15,15,"NIGHT_CLEAR,NIGHT_CLEAR,NIGHT_CLEAR,CLEAR","Onshore,Onshore,Onshore,Onshore",4
5842041f4e65fad6a77089ca,2024_07_20,43.251076,-70.59144,Ogunquit,1.9583333333333333,0.2741325,0.5824325,17,13,"NIGHT_CLEAR,NIGHT_CLEAR,NIGHT_CLEAR,CLEAR","Offshore,Offshore,Offshore,Cross-shore",4
5842041f4e65fad6a77089cb,2024_07_20,41.362631366305415,-71.48007,Point Judith,2.25,0.27825,0.58465,24,21,"NIGHT_CLEAR,NIGHT_CLEAR,NIGHT_MOSTLY_CLEAR,CLEAR","Offshore,Offshore,Offshore,Offshore",4
5842041f4e65fad6a77089cd,2024_07_20,41.422678090954726,-71.45413,Monahan's - Narragansett,1.75,0.27228,0.4254375,23.25,23.25,"NIGHT_CLEAR,NIGHT_CLEAR,NIGHT_CLEAR,CLEAR","Offshore,Offshore,Offshore,Offshore",4
5842041f4e65fad6a77089ce,2024_07_20,41.469,-71.293,Ruggles - Newport,1.5,0.5267075,0.82298,23.25,23.25,"NIGHT_CLEAR,NIGHT_MOSTLY_CLEAR,NIGHT_CLEAR,CLEAR","Cross-shore,Cross-shore,Cross-shore,Onshore",4
5842041f4e65fad6a77089cf,2024_07_20,43.175394,-70.606351,Short Sands Beach,2,0.2525,0.5575,18,18,"NIGHT_CLEAR,NIGHT_CLEAR,NIGHT_CLEAR,CLEAR","Offshore,Offshore,Offshore,Cross-shore",4
5842041f4e65fad6a77089d0,2024_07_20,41.487408,-71.29017,First Beach,1.25,0.2,0.505,23.25,23.25,"NIGHT_CLEAR,NIGHT_CLEAR,NIGHT_CLEAR,CLEAR","Cross-shore,Cross-shore,Cross-shore,Onshore",4
5842041f4e65fad6a77089d1,2024_07_20,42.27916830233153,-70.86498,Nantasket Beach,0,0,0.1037325,17,16,"NIGHT_CLEAR,NIGHT_CLEAR,NIGHT_CLEAR,CLEAR","Offshore,Offshore,Offshore,Offshore",4
5842041f4e65fad6a77089d2,2024_07_20,41.817,-69.935,Cape Cod,1.75,0.035,0.3375,20.5,20.5,"NIGHT_CLEAR,NIGHT_CLEAR,NIGHT_CLEAR,CLEAR","Offshore,Offshore,Offshore,Cross-shore",4
5842041f4e65fad6a77089d3,2024_07_20,42.22055448975661,-70.70634873403819,Egypt Beach,0,0,0.1,19.25,19.25,"NIGHT_CLEAR,NIGHT_CLEAR,NIGHT_CLEAR,CLEAR","Offshore,Offshore,Offshore,Offshore",4
5842041f4e65fad6a77089d4,2024_07_20,41.48739647744607,-71.25723,Second Beach,1.7083333333333333,0.46148500000000003,0.7035675,24,21,"NIGHT_CLEAR,NIGHT_CLEAR,NIGHT_CLEAR,CLEAR","Onshore,Onshore,Onshore,Onshore",4
5842041f4e65fad6a77089d5,2024_07_20,42.964,-70.769,Fox Hill,1.9583333333333333,0.1274675,0.43410000000000004,17,13,"NIGHT_CLEAR,NIGHT_CLEAR,NIGHT_CLEAR,CLEAR","Offshore,Offshore,Offshore,Cross-shore",4
5842041f4e65fad6a77089d6,2024_07_20,42.991359,-70.75149,Straws Point,1.9583333333333333,0.1549675,0.4557675,17,13,"NIGHT_CLEAR,NIGHT_CLEAR,NIGHT_CLEAR,CLEAR","Offshore,Offshore,Offshore,Cross-shore",4
5842041f4e65fad6a77089d7,2024_07_20,42.946,-70.786,Plaice Cove,1.9583333333333333,0.1274675,0.43410000000000004,17,13,"NIGHT_CLEAR,NIGHT_CLEAR,NIGHT_CLEAR,CLEAR","Offshore,Offshore,Offshore,Offshore",4
5842041f4e65fad6a77089d9,2024_07_20,42.911574,-70.80831,The Main Beach,0.9583333333333333,-0.00737,0.2932825,17,13,"NIGHT_CLEAR,NIGHT_CLEAR,NIGHT_CLEAR,CLEAR","Offshore,Offshore,Offshore,Onshore",4
5842041f4e65fad6a77089da,2024_07_20,42.97583846220203,-70.764,Sawyer's Beach,1.9583333333333333,0.19080000000000003,0.4899325,17,13,"NIGHT_CLEAR,NIGHT_CLEAR,NIGHT_CLEAR,CLEAR","Offshore,Offshore,Offshore,Cross-shore",4
5842041f4e65fad6a77089db,2024_07_20,42.97,-70.77,Rye on the Rocks / 5-0's,0.9583333333333333,-0.0025225,0.30188750000000003,17,13,"NIGHT_CLEAR,NIGHT_CLEAR,NIGHT_CLEAR,CLEAR","Offshore,Offshore,Offshore,Cross-shore",4
5842041f4e65fad6a77089dc,2024_07_20,43.55902946610303,-70.27795,Higgins Beach,1.75,0.122575,0.433125,17,14,"NIGHT_CLEAR,NIGHT_CLEAR,NIGHT_CLEAR,CLEAR","Offshore,Offshore,Offshore,Onshore",4
5842041f4e65fad6a77089dd,2024_07_20,43.302676,-70.5652,Wells Beach,1.9583333333333333,0.24080000000000001,0.5424325,17,13,"NIGHT_CLEAR,NIGHT_CLEAR,NIGHT_CLEAR,CLEAR","Offshore,Offshore,Offshore,Cross-shore",4
5842041f4e65fad6a77089de,2024_07_20,43.545359,-70.30479,Scarborough Beach State Park,1.75,0.385645,0.624795,17,13,"NIGHT_CLEAR,NIGHT_CLEAR,NIGHT_CLEAR,MIST","Offshore,Offshore,Offshore,Onshore",4
5842041f4e65fad6a77089df,2024_07_20,43.514481,-70.37215,Old Orchard Beach,1.0416666666666667,0.035695,0.34060250000000003,17,14,"NIGHT_CLEAR,NIGHT_CLEAR,NIGHT_CLEAR,CLEAR","Offshore,Offshore,Offshore,Onshore",4
5842041f4e65fad6a77089e0,2024_07_20,43.34711,-70.48165,Gooch's Beach,1.75,0.2033325,0.5074675,17,14,"NIGHT_CLEAR,NIGHT_CLEAR,NIGHT_CLEAR,CLEAR","Cross-shore,Cross-shore,Cross-shore,Onshore",4
5842041f4e65fad6a77089e2,2024_07_20,40.58433,-73.62953,Lido Beach,1.5416666666666665,0.2937,0.5949,23,21,"NIGHT_CLEAR,NIGHT_CLEAR,NIGHT_CLEAR,CLEAR","Onshore,Onshore,Onshore,Onshore",4
5842041f4e65fad6a77089e3,2024_07_20,43.163135,-70.61689,Long Sands Beach,1.0416666666666667,0.1030975,0.4271625,17,14,"NIGHT_CLEAR,NIGHT_CLEAR,NIGHT_CLEAR,CLEAR","Cross-shore,Offshore,Offshore,Onshore",4
5842041f4e65fad6a77089e4,2024_07_20,40.61695351251805,-73.39376,Gilgo Beach,1.75,0.3308,0.6299325,23,21,"NIGHT_CLEAR,NIGHT_CLEAR,NIGHT_CLEAR,CLEAR","Onshore,Onshore,Onshore,Onshore",4
5842041f4e65fad6a77089e5,2024_07_20,40.62530081928036,-73.23827,Robert Moses,1,0.20500000000000002,0.51,22.5,22.5,"NIGHT_CLEAR,NIGHT_CLEAR,NIGHT_CLEAR,CLEAR","Onshore,Onshore,Onshore,Onshore",4
5842041f4e65fad6a77089e6,2024_07_20,40.64313317632791,-73.15727,Fire Island,1,0.2175,0.52,22.25,22.25,"NIGHT_CLEAR,NIGHT_CLEAR,NIGHT_CLEAR,MIST","Onshore,Onshore,Onshore,Onshore",4
5842041f4e65fad6a77089e8,2024_07_20,40.76653118828782,-72.7458,Cupsogue,2,0.5275000000000001,0.8275,23.25,23.25,"NIGHT_CLEAR,NIGHT_CLEAR,NIGHT_CLEAR,CLEAR","Cross-shore,Cross-shore,Onshore,Onshore",4
5842041f4e65fad6a77089e9,2024_07_20,42.9376373334092,-70.79141,The Wall ,0.9166666666666666,0.1759425,0.47850750000000003,17,13,"NIGHT_CLEAR,NIGHT_CLEAR,NIGHT_CLEAR,CLEAR","Offshore,Offshore,Offshore,Offshore",4
5842041f4e65fad6a77089ea,2024_07_20,40.887088,-72.33856,Flys,1.75,0.445,0.75,23.25,23.25,"NIGHT_CLEAR,NIGHT_CLEAR,NIGHT_CLEAR,CLEAR","Cross-shore,Cross-shore,Onshore,Onshore",4
5842041f4e65fad6a77089eb,2024_07_20,41.0389266436591,-71.91068529316958,Trailer Park,2,0.570485,0.856835,23,21,"NIGHT_CLEAR,NIGHT_CLEAR,NIGHT_CLEAR,CLEAR","Cross-shore,Cross-shore,Cross-shore,Onshore",4
5842041f4e65fad6a77089ec,2024_07_20,41.039505402729105,-71.9142,Ditch Plains,1.5,0.41375249999999997,0.64649,23,23,"NIGHT_CLEAR,NIGHT_CLEAR,NIGHT_CLEAR,CLEAR","Cross-shore,Cross-shore,Cross-shore,Cross-shore",4
5842041f4e65fad6a77089ee,2024_07_20,40.57633275206492,-73.56895305108567,"West End, Jones Beach",1.75,0.3566325,0.6557675000000001,23,21,"NIGHT_CLEAR,NIGHT_CLEAR,NIGHT_CLEAR,CLEAR","Onshore,Onshore,Onshore,Onshore",4
5842041f4e65fad6a77089f1,2024_07_20,41.038286691230795,-71.91991567611694,Poles,2,0.49007500000000004,0.8171475,23,21,"NIGHT_CLEAR,NIGHT_CLEAR,NIGHT_CLEAR,CLEAR","Cross-shore,Cross-shore,Cross-shore,Onshore",4
5842041f4e65fad6a77089f3,2024_07_20,40.84077769766295,-72.47989493724765,The Bowl,1.75,0.46499999999999997,0.77,23.25,23.25,"NIGHT_CLEAR,NIGHT_CLEAR,NIGHT_CLEAR,CLEAR","Cross-shore,Cross-shore,Onshore,Onshore",4
5842041f4e65fad6a77089f4,2024_07_20,40.94235535243154,-72.19286,Main Beach,1.75,0.4849325,0.7907325000000001,22,21,"NIGHT_CLEAR,NIGHT_MIST,NIGHT_MIST,CLEAR","Onshore,Onshore,Onshore,Onshore",4
5842041f4e65fad6a77089f5,2024_07_20,40.58270702399518,-73.67251552079799,Laurelton Blvd.,1.25,0.4103675,0.6129125,23,21,"NIGHT_CLEAR,NIGHT_CLEAR,NIGHT_CLEAR,MIST","Onshore,Onshore,Onshore,Onshore",4
5842041f4e65fad6a77089f6,2024_07_20,41.033752854071416,-71.93696,Terrace,1.9583333333333333,0.4985925,0.7897375,23,21,"NIGHT_CLEAR,NIGHT_CLEAR,NIGHT_CLEAR,CLEAR","Cross-shore,Cross-shore,Cross-shore,Onshore",4
5842041f4e65fad6a77089f7,2024_07_20,40.83372943645748,-72.50426173210144,K Road,1.75,0.5425,0.8475,23.25,23.25,"NIGHT_CLEAR,NIGHT_CLEAR,NIGHT_CLEAR,MIST","Cross-shore,Cross-shore,Onshore,Onshore",4
5842041f4e65fad6a77089f8,2024_07_20,40.58456099581507,-73.80730032920837,84th Street,1.7916666666666667,0.24273999999999998,0.55094,23,21,"NIGHT_CLEAR,NIGHT_CLEAR,NIGHT_CLEAR,CLEAR","Onshore,Onshore,Onshore,Onshore",4
5842041f4e65fad6a77089fa,2024_07_20,40.1319,-74.02788,Sea Girt,1.75,0.19833250000000002,0.5066325,21,19,"NIGHT_CLEAR,NIGHT_CLEAR,NIGHT_MIST,CLEAR","Offshore,Offshore,Offshore,Cross-shore",4
5842041f4e65fad6a77089fb,2024_07_20,40.54698301868125,-73.9268,Breezy Point,1,0.1325,0.4375,23.25,23.25,"NIGHT_CLEAR,NIGHT_CLEAR,NIGHT_CLEAR,CLEAR","Onshore,Onshore,Onshore,Onshore",4
5842041f4e65fad6a77089fc,2024_07_20,40.152504,-74.02138,Spring Lake,1.75,0.1833325,0.4824675,21,19,"NIGHT_CLEAR,NIGHT_CLEAR,NIGHT_MIST,CLEAR","Offshore,Offshore,Offshore,Cross-shore",4
5842041f4e65fad6a77089fd,2024_07_20,40.591277,-73.770792,30th - 39th Streets,1.0416666666666667,0.2258,0.5316000000000001,23,21,"NIGHT_CLEAR,NIGHT_CLEAR,NIGHT_CLEAR,CLEAR","Onshore,Onshore,Onshore,Onshore",4
5842041f4e65fad6a77089fe,2024_07_20,40.18834955871439,-74.00860982500222,Avon,1.75,0.1675,0.4741325,21,19,"NIGHT_CLEAR,NIGHT_CLEAR,NIGHT_MIST,CLEAR","Offshore,Offshore,Offshore,Cross-shore",4
5842041f4e65fad6a77089ff,2024_07_20,40.1974229100932,-74.00650533798255,Bradley Beach,1.75,0.17,0.4741325,21,19,"NIGHT_CLEAR,NIGHT_CLEAR,NIGHT_MIST,CLEAR","Offshore,Offshore,Offshore,Cross-shore",4
5842041f4e65fad6a7708a01,2024_07_20,40.17202,-74.01503,"16th Ave., Belmar",1,0.01851,0.32281000000000004,22,20,"NIGHT_CLEAR,NIGHT_CLEAR,NIGHT_MIST,CLEAR","Offshore,Offshore,Offshore,Cross-shore",4
5842041f4e65fad6a7708a02,2024_07_20,40.217443,-73.99982,Asbury Park,1.75,0.1975,0.49913250000000003,21,19,"NIGHT_CLEAR,NIGHT_CLEAR,NIGHT_CLEAR,CLEAR","Offshore,Offshore,Offshore,Cross-shore",4
5842041f4e65fad6a7708a03,2024_07_20,40.229841,-73.99678,Loch Arbour and Deal,1.75,0.1975,0.49913250000000003,21,19,"NIGHT_CLEAR,NIGHT_CLEAR,NIGHT_CLEAR,CLEAR","Offshore,Cross-shore,Cross-shore,Cross-shore",4
5842041f4e65fad6a7708a05,2024_07_20,40.41754,-73.97935,Sandy Hook,1.5,0.05500000000000001,0.3625,23.25,23.25,"NIGHT_CLEAR,NIGHT_CLEAR,NIGHT_CLEAR,CLEAR","Offshore,Offshore,Offshore,Cross-shore",4
5842041f4e65fad6a7708a06,2024_07_20,39.36353,-74.40873,Crystals,2,0.375715,0.60928,14,13,"NIGHT_CLEAR,NIGHT_CLEAR,NIGHT_CLEAR,MIST","Cross-shore,Onshore,Onshore,Onshore",4
5842041f4e65fad6a7708a07,2024_07_20,39.31443,-74.51863,32nd Street,2,0.37266,0.6045075,14,13,"NIGHT_CLEAR,NIGHT_CLEAR,NIGHT_CLEAR,MIST","Onshore,Onshore,Onshore,Onshore",4
5842041f4e65fad6a7708a08,2024_07_20,39.327688,-74.49524,Margate Pier Northside,2,0.37266,0.6045075,14,13,"NIGHT_CLEAR,NIGHT_CLEAR,NIGHT_CLEAR,MIST","Onshore,Onshore,Onshore,Onshore",4
5842041f4e65fad6a7708a09,2024_07_20,39.336276,-74.47782,Ventnor Pier,2.5,0.3557125,0.6076225,14,13,"NIGHT_CLEAR,NIGHT_CLEAR,NIGHT_CLEAR,MIST","Onshore,Cross-shore,Onshore,Onshore",4
5842041f4e65fad6a7708a0a,2024_07_20,39.35929751441085,-74.41683,States Avenue,2,0.375715,0.60928,14,13,"NIGHT_CLEAR,NIGHT_CLEAR,NIGHT_CLEAR,MIST","Cross-shore,Onshore,Onshore,Onshore",4
5842041f4e65fad6a7708a0b,2024_07_20,39.37274173278517,-74.40454,Brigantine Jetty,2,0.3726275,0.604455,14,13,"NIGHT_CLEAR,NIGHT_CLEAR,NIGHT_CLEAR,MIST","Onshore,Onshore,Onshore,Onshore",4
5842041f4e65fad6a7708a0c,2024_07_20,39.356505,-74.42263,South Carolina Avenue,2,0.3726275,0.604455,14,13,"NIGHT_CLEAR,NIGHT_CLEAR,NIGHT_CLEAR,MIST","Onshore,Onshore,Onshore,Onshore",4
5842041f4e65fad6a7708a0d,2024_07_20,39.413485,-74.35476,14th Street North,2,0.30579999999999996,0.6074325,14,13,"NIGHT_CLEAR,NIGHT_CLEAR,NIGHT_CLEAR,MOSTLY_CLOUDY","Offshore,Onshore,Cross-shore,Onshore",4
5842041f4e65fad6a7708a0e,2024_07_20,39.531319,-74.263252,The Wooden Jetty,2.2916666666666665,0.3236,0.5754225,14,13,"NIGHT_CLEAR,NIGHT_CLEAR,NIGHT_CLEAR,MOSTLY_CLOUDY","Cross-shore,Onshore,Onshore,Onshore",4
5842041f4e65fad6a7708a0f,2024_07_20,39.552472,-74.24344,Holyoke,1.7916666666666667,0.27454,0.5154825,14,13,"NIGHT_CLEAR,NIGHT_CLEAR,NIGHT_CLEAR,MOSTLY_CLOUDY","Cross-shore,Onshore,Onshore,Onshore",4
5842041f4e65fad6a7708a10,2024_07_20,39.692364,-74.14068,Hudson Ave.,1.7916666666666667,0.2688,0.57385,14,13,"NIGHT_MIST,NIGHT_MIST,NIGHT_MIST,MIST","Offshore,Onshore,Onshore,Cross-shore",4
5842041f4e65fad6a7708a11,2024_07_20,39.79614,-74.09248,Island Beach State Park,1.7083333333333333,0.22913250000000002,0.5332675,16,15,"NIGHT_CLEAR,NIGHT_CLEAR,NIGHT_CLEAR,MOSTLY_CLOUDY","Cross-shore,Cross-shore,Cross-shore,Cross-shore",4
5842041f4e65fad6a7708a12,2024_07_20,39.91813588078152,-74.07527,Seaside Park,1.7083333333333333,0.3717275,0.6738475,16,15,"NIGHT_CLEAR,NIGHT_CLEAR,NIGHT_CLEAR,CLEAR","Offshore,Cross-shore,Cross-shore,Offshore",4
5842041f4e65fad6a7708a15,2024_07_20,39.95745637606704,-74.06736,Ortley Beach,1.75,0.235485,0.53834,19,18,"NIGHT_CLEAR,NIGHT_CLEAR,NIGHT_MIST,CLEAR","Cross-shore,Cross-shore,Cross-shore,Cross-shore",4
5842041f4e65fad6a7708a16,2024_07_20,39.98313468342945,-74.06265685577506,Lavallette,1.75,0.2324675,0.5382675,19,18,"NIGHT_CLEAR,NIGHT_CLEAR,NIGHT_MIST,CLEAR","Offshore,Cross-shore,Cross-shore,Cross-shore",4
5842041f4e65fad6a7708a17,2024_07_20,40.0699319967757,-74.04145,Bay Head,1.25,0.2158,0.5266,19,18,"NIGHT_CLEAR,NIGHT_CLEAR,NIGHT_CLEAR,MIST","Offshore,Cross-shore,Cross-shore,Cross-shore",4
5842041f4e65fad6a7708a18,2024_07_20,40.094041,-74.034859,Jenkinson's,1.75,0.2341325,0.5332675,19,18,"NIGHT_CLEAR,NIGHT_CLEAR,NIGHT_MIST,CLEAR","Offshore,Offshore,Offshore,Cross-shore",4
5842041f4e65fad6a7708a1a,2024_07_20,38.148058,-75.17704,Assateague,2,0.35746750000000005,0.6641,17,17,"NIGHT_MIST,NIGHT_MIST,NIGHT_MIST,CLOUDY","Onshore,Onshore,Onshore,Onshore",4
5842041f4e65fad6a7708a1b,2024_07_20,38.33889038664497,-75.08017670566352,North End to Ocean City Inlet,2,0.3324675,0.6391,17,17,"NIGHT_CLEAR,NIGHT_MIST,NIGHT_MIST,MIST","Cross-shore,Onshore,Onshore,Onshore",4
5842041f4e65fad6a7708a1c,2024_07_20,38.603993,-75.06271,Indian River Inlet,2,0.31932,0.4989325,23,23,"NIGHT_MIST,NIGHT_MIST,NIGHT_MIST,MOSTLY_CLOUDY","Onshore,Onshore,Onshore,Onshore",4
5842041f4e65fad6a7708a1d,2024_07_20,38.460477,-75.05207,Fenwick Island,1.75,0.135,0.44,22,22,"NIGHT_CLEAR,NIGHT_CLEAR,NIGHT_CLEAR,CLEAR","Cross-shore,Onshore,Onshore,Cross-shore",4
5842041f4e65fad6a7708a1e,2024_07_20,38.538767,-75.05619,Bethany Beach,1.75,0.3028725,0.47324,22,22,"NIGHT_CLEAR,NIGHT_MIST,NIGHT_MIST,MIST","Onshore,Onshore,Onshore,Onshore",4
5842041f4e65fad6a7708a1f,2024_07_20,38.697657,-75.07595,Dewey Beach,2,0.2975,0.605,23,23,"NIGHT_CLEAR,NIGHT_MIST,NIGHT_MIST,MOSTLY_CLOUDY","Cross-shore,Onshore,Onshore,Cross-shore",4
5842041f4e65fad6a7708a20,2024_07_20,38.75034741676525,-75.08194,Gordons Pond,1,0.23321750000000002,0.364405,23,23,"NIGHT_MIST,NIGHT_MIST,NIGHT_MIST,MOSTLY_CLOUDY","Onshore,Onshore,Onshore,Onshore",4
5842041f4e65fad6a7708a21,2024_07_20,38.767837,-75.08284,Naval Jetties,2,0.21250000000000002,0.515,23.25,23.25,"NIGHT_MIST,NIGHT_MIST,NIGHT_MIST,MOSTLY_CLOUDY","Cross-shore,Onshore,Onshore,Cross-shore",4
5842041f4e65fad6a7708a22,2024_07_20,36.81735875786576,-75.96624,Camp Pendleton,1.25,0.1128,0.41385,21,19,"NIGHT_MIST,NIGHT_MIST,NIGHT_CLEAR,MIST","Onshore,Onshore,Onshore,Onshore",4
5842041f4e65fad6a7708a23,2024_07_20,36.9102212316428,-75.98732471466064,North End,0.25,0.0346,0.34265,21,19,"NIGHT_CLEAR,NIGHT_CLEAR,NIGHT_CLEAR,MOSTLY_CLOUDY","Onshore,Onshore,Onshore,Cross-shore",4
5842041f4e65fad6a7708a24,2024_07_20,36.737117517621314,-75.93924,Sandbridge Beach,1,0.21000000000000002,0.5191325,21,19,"NIGHT_FOG,NIGHT_MIST,NIGHT_CLEAR,MIST","Onshore,Onshore,Onshore,Onshore",4
5842041f4e65fad6a7708a26,2024_07_20,36.818257440557794,-75.96666,Croatan to Pendleton,1.25,0.11888750000000001,0.41651,21,19,"NIGHT_MIST,NIGHT_MIST,NIGHT_CLEAR,MIST","Onshore,Onshore,Onshore,Onshore",4
5842041f4e65fad6a7708a27,2024_07_20,36.84318777204769,-75.9719,South End,1,0.1466675,0.45496749999999997,21,19,"NIGHT_MIST,NIGHT_MIST,NIGHT_CLEAR,CLEAR","Onshore,Onshore,Onshore,Onshore",4
5842041f4e65fad6a7708a28,2024_07_20,37.08612627584661,-75.976121638199,Fishermans Island,1,0.122,0.245,27,27,"NIGHT_CLEAR,NIGHT_CLEAR,NIGHT_CLEAR,MIST","Onshore,Onshore,Onshore,Onshore",4
5842041f4e65fad6a7708a38,2024_07_20,35.254619418229026,-75.52074,Cape Hatteras Lighthouse,1.7916666666666667,0.2331175,0.48648749999999996,28,26,"NIGHT_FOG,NIGHT_CLEAR,NIGHT_CLEAR,CLEAR","Cross-shore,Cross-shore,Cross-shore,Cross-shore",4
5842041f4e65fad6a7708a3a,2024_07_20,35.54572934093336,-75.46477,Waves and Salvo,1.5,0.44996749999999996,0.7516,26,24,"NIGHT_CLEAR,NIGHT_CLEAR,NIGHT_HEAVY_SHOWERS,BRIEF_SHOWERS_POSSIBLE","Offshore,Offshore,Cross-shore,Cross-shore",4
5842041f4e65fad6a7708a3b,2024_07_20,35.22565892751075,-75.63606,Frisco,1.0416666666666667,0.4628,0.7176,28,27,"NIGHT_BRIEF_SHOWERS,NIGHT_CLEAR,NIGHT_MOSTLY_CLOUDY,CLEAR","Onshore,Onshore,Onshore,Onshore",4
5842041f4e65fad6a7708a3c,2024_07_20,35.13086,-75.90591,Ocracoke,1,0.52182,0.815345,29,29,"NIGHT_MOSTLY_CLOUDY,NIGHT_CLEAR,NIGHT_CLEAR,CLEAR","Onshore,Onshore,Onshore,Onshore",4
5842041f4e65fad6a7708a3d,2024_07_20,35.34721340158342,-75.50084,Avon Pier,1.7916666666666667,0.40145,0.7066825,27,26,"NIGHT_FOG,NIGHT_FOG,NIGHT_CLEAR,CLEAR","Offshore,Cross-shore,Cross-shore,Cross-shore",4
5842041f4e65fad6a7708a3f,2024_07_20,35.71680821253768,-75.49243,Pea Island,1.75,0.255,0.56,27,27,"NIGHT_CLEAR,NIGHT_CLEAR,NIGHT_LIGHT_RAIN_AND_FOG,LIGHT_SHOWERS_POSSIBLE","Offshore,Offshore,Offshore,Offshore",4
5842041f4e65fad6a7708a40,2024_07_20,35.97427620657821,-75.62984,Nags Head Pier,0.9166666666666666,0.07973000000000001,0.3823925,18.75,18,"NIGHT_FOG,NIGHT_CLEAR,NIGHT_CLEAR,CLEAR","Cross-shore,Offshore,Offshore,Offshore",4
5842041f4e65fad6a7708a41,2024_07_20,36.0439998039079,-75.67288,Avalon Pier,2,0.1799675,0.48160000000000003,18.75,18,"NIGHT_MIST,NIGHT_MIST,NIGHT_CLEAR,CLEAR","Cross-shore,Offshore,Offshore,Offshore",4
5842041f4e65fad6a7708a42,2024_07_20,36.03043116489792,-75.66413,First Street,1.0416666666666667,0.08220000000000001,0.3875,18.75,18,"NIGHT_MIST,NIGHT_MIST,NIGHT_CLEAR,CLEAR","Cross-shore,Offshore,Offshore,Offshore",4
5842041f4e65fad6a7708a43,2024_07_20,36.06829910590498,-75.6899,Old Station/Laundromats,1.7916666666666667,0.2383,0.5441,18.75,18,"NIGHT_CLEAR,NIGHT_CLEAR,NIGHT_CLEAR,CLEAR","Onshore,Onshore,Offshore,Offshore",4
5842041f4e65fad6a7708a44,2024_07_20,36.10126676607491,-75.71107,Kitty Hawk Pier,1.2083333333333333,0.07913250000000001,0.3810325,18.75,18,"NIGHT_FOG,NIGHT_MIST,NIGHT_CLEAR,CLEAR","Onshore,Onshore,Cross-shore,Offshore",4
5842041f4e65fad6a7708a45,2024_07_20,36.18220630068973,-75.75013580649097,Duck Pier,1.7916666666666667,0.16663250000000002,0.4699325,19.5,18.25,"NIGHT_MIST,NIGHT_MIST,NIGHT_MIST,MIST","Onshore,Cross-shore,Cross-shore,Cross-shore",4
5842041f4e65fad6a7708a46,2024_07_20,36.37660668125033,-75.82409701687456,Corolla,1.0416666666666667,0.1991325,0.5049325,19.5,18.25,"NIGHT_MIST,NIGHT_MIST,NIGHT_MIST,MIST","Onshore,Onshore,Onshore,Cross-shore",4
5842041f4e65fad6a7708a47,2024_07_20,33.90373404124834,-78.08241431707907,Oak Island,1,0.3325,0.6375,29,29,"NIGHT_BRIEF_SHOWERS,NIGHT_CLEAR,NIGHT_CLEAR,CLEAR","Onshore,Onshore,Onshore,Onshore",4
5842041f4e65fad6a7708a48,2024_07_20,33.91108837766468,-78.29653,South Brunswick Beaches,1,0.401745,0.62773,29.75,29.75,"NIGHT_CLEAR,NIGHT_CLEAR,NIGHT_MOSTLY_CLOUDY,CLEAR","Onshore,Onshore,Onshore,Onshore",4
5842041f4e65fad6a7708a49,2024_07_20,34.05683595651973,-77.88128,Carolina Beach Pier,1,0.26717,0.57697,28,27,"NIGHT_MOSTLY_CLOUDY,NIGHT_CLEAR,NIGHT_MOSTLY_CLOUDY,MOSTLY_CLOUDY","Cross-shore,Cross-shore,Cross-shore,Onshore",4
5842041f4e65fad6a7708a4a,2024_07_20,33.96841191816696,-77.9180242565498,Fort Fisher,1,0.282795,0.58916,28,27,"NIGHT_BRIEF_SHOWERS,NIGHT_MOSTLY_CLOUDY,NIGHT_CLEAR,CLEAR","Cross-shore,Cross-shore,Offshore,Cross-shore",4
5842041f4e65fad6a7708a4b,2024_07_20,34.46776662988774,-77.47083,Topsail Beach,1.2083333333333333,0.5083,0.8124325,28,27,"NIGHT_MIST,NIGHT_HEAVY_SHOWERS,NIGHT_CLEAR,CLEAR","Onshore,Onshore,Cross-shore,Onshore",4
5842041f4e65fad6a7708a4c,2024_07_20,34.69270354752445,-76.82854854446575,Iron Steamer,1,0.41579,0.71559,28,27,"NIGHT_CLEAR,NIGHT_CLEAR,NIGHT_SHOWERS,CLEAR","Onshore,Onshore,Onshore,Onshore",4
5842041f4e65fad6a7708a4f,2024_07_20,30.85132684893727,-81.42283496231143,Cumberland Island,1.75,0.3075,0.6125,30,30,"NIGHT_CLEAR,NIGHT_CLEAR,NIGHT_CLEAR,MOSTLY_CLEAR","Cross-shore,Cross-shore,Onshore,Onshore",4
5842041f4e65fad6a7708a50,2024_07_20,34.686741128540874,-76.47516712138378,Cape Lookout National Seashore,1,0.58,0.8825000000000001,29,29,"NIGHT_MOSTLY_CLOUDY,NIGHT_CLEAR,NIGHT_CLEAR,BRIEF_SHOWERS_POSSIBLE","Cross-shore,Cross-shore,Cross-shore,Cross-shore",4
5842041f4e65fad6a7708a51,2024_07_20,31.10585419260024,-81.40422767604812,Jekyll Island,1.75,0.065,0.37,30,30,"NIGHT_CLEAR,NIGHT_CLEAR,NIGHT_CLEAR,CLEAR","Cross-shore,Cross-shore,Cross-shore,Onshore",4
5842041f4e65fad6a7708a52,2024_07_20,31.16212806376699,-81.32512426500224,Harbor Marker Buoys,1,0.2525,0.555,30,30,"NIGHT_CLEAR,NIGHT_CLEAR,NIGHT_CLEAR,CLEAR","Cross-shore,Cross-shore,Cross-shore,Onshore",4
5842041f4e65fad6a7708a53,2024_07_20,31.20076299997009,-81.32629,Sea Island,1.75,0.24,0.5425,30,30,"NIGHT_CLEAR,NIGHT_CLEAR,NIGHT_CLEAR,CLEAR","Cross-shore,Cross-shore,Cross-shore,Onshore",4
5842041f4e65fad6a7708a54,2024_07_20,31.13553222995767,-81.38457634790909,St. Simons Island,1.75,0.265,0.5700000000000001,30,30,"NIGHT_CLEAR,NIGHT_CLEAR,NIGHT_CLEAR,MIST","Onshore,Onshore,Onshore,Onshore",4
5842041f4e65fad6a7708a55,2024_07_20,31.33550077186516,-81.28383377408417,Wolf Island,1,0.225,0.53,30,30,"NIGHT_CLEAR,NIGHT_CLEAR,NIGHT_CLEAR,MOSTLY_CLEAR","Cross-shore,Cross-shore,Cross-shore,Onshore",4
5842041f4e65fad6a7708a56,2024_07_20,31.2704493877174,-81.27324039152315,Little St. Simons Island,1,0.265,0.5650000000000001,30,30,"NIGHT_CLEAR,NIGHT_CLEAR,NIGHT_CLEAR,CLEAR","Cross-shore,Cross-shore,Cross-shore,Cross-shore",4
5842041f4e65fad6a7708a57,2024_07_20,31.39261761368919,-81.26190520231917,Sapelo Island,1.75,0.22,0.525,30,30,"NIGHT_CLEAR,NIGHT_CLEAR,NIGHT_CLEAR,CLEAR","Cross-shore,Cross-shore,Cross-shore,Onshore",4
5842041f4e65fad6a7708a58,2024_07_20,34.42458783809001,-77.54492,Surf City Pier,1.2083333333333333,0.4908,0.7974325,28,27,"NIGHT_CLEAR,NIGHT_HEAVY_SHOWERS,NIGHT_CLEAR,CLEAR","Onshore,Onshore,Cross-shore,Onshore",4
5842041f4e65fad6a7708a59,2024_07_20,31.4231993614213,-81.24725340591522,Cabretta Island,1.75,0.2625,0.5675,30,30,"NIGHT_CLEAR,NIGHT_CLEAR,NIGHT_CLEAR,CLEAR","Onshore,Cross-shore,Onshore,Onshore",4
5842041f4e65fad6a7708a5a,2024_07_20,31.46684389030369,-81.2100056410468,Blackbeard Island,1.75,0.22,0.525,30,30,"NIGHT_CLEAR,NIGHT_CLEAR,NIGHT_CLEAR,CLEAR","Onshore,Onshore,Onshore,Onshore",4
5842041f4e65fad6a7708a5b,2024_07_20,31.85953587631629,-80.99031310336719,Wassaw Island/South End,1,0.0525,0.35750000000000004,30.75,30.75,"NIGHT_MOSTLY_CLOUDY,NIGHT_MOSTLY_CLOUDY,NIGHT_CLEAR,CLEAR","Onshore,Onshore,Onshore,Onshore",4
5842041f4e65fad6a7708a5c,2024_07_20,31.62535662342983,-81.13328352167974,St. Catherines Island,1.75,0.2925,0.6,31,31,"NIGHT_CLEAR,NIGHT_CLEAR,NIGHT_CLEAR,CLEAR","Cross-shore,Cross-shore,Cross-shore,Onshore",4
5842041f4e65fad6a7708a5d,2024_07_20,31.76502169596568,-81.07655443806622,Ossabaw Island,1,0.195,0.5025,31,31,"NIGHT_MOSTLY_CLOUDY,NIGHT_MOSTLY_CLOUDY,NIGHT_MOSTLY_CLEAR,CLEAR","Onshore,Cross-shore,Cross-shore,Onshore",4
5842041f4e65fad6a7708a5e,2024_07_20,31.90593619092352,-80.93589231700857,Wassaw Island/North End,1.25,0.3125,0.6174999999999999,30.75,30.75,"NIGHT_MOSTLY_CLOUDY,NIGHT_MOSTLY_CLOUDY,NIGHT_CLEAR,CLEAR","Onshore,Onshore,Onshore,Onshore",4
5842041f4e65fad6a7708a5f,2024_07_20,31.96738675414547,-80.86977980706155,Little Tybee Island,1.5,0.32,0.625,30,30,"NIGHT_CLEAR,NIGHT_CLEAR,NIGHT_CLEAR,CLEAR","Onshore,Onshore,Onshore,Onshore",4
5842041f4e65fad6a7708a60,2024_07_20,31.9812255780179,-80.84773973467009,South Tybee Sandbars,1.25,0.3125,0.62,30,30,"NIGHT_CLEAR,NIGHT_CLEAR,NIGHT_CLEAR,CLEAR","Onshore,Cross-shore,Cross-shore,Cross-shore",4
5842041f4e65fad6a7708a61,2024_07_20,32.01226,-80.83983,Sugar Shack,1,0.23,0.5325,30,30,"NIGHT_CLEAR,NIGHT_MOSTLY_CLOUDY,NIGHT_MOSTLY_CLOUDY,CLEAR","Cross-shore,Offshore,Offshore,Offshore",4
5842041f4e65fad6a7708a62,2024_07_20,31.98722842396969,-80.84773,18th St. Jetty,1,0.27632,0.4317525,30,30,"NIGHT_CLEAR,NIGHT_MOSTLY_CLOUDY,NIGHT_CLEAR,CLEAR","Onshore,Cross-shore,Cross-shore,Cross-shore",4
5842041f4e65fad6a7708a64,2024_07_20,34.013473721006676,-77.8991,"Alabama Ave., Kure Beach",2,0.2775,0.58,28.25,28.25,"NIGHT_CLEAR,NIGHT_CLEAR,NIGHT_BRIEF_SHOWERS,MOSTLY_CLOUDY","Offshore,Offshore,Offshore,Offshore",4
5842041f4e65fad6a7708a65,2024_07_20,34.20859853336924,-77.79293,"C Street, Wrightsville Beach",1.75,0.57551,0.8823099999999999,28,27,"NIGHT_MOSTLY_CLOUDY,NIGHT_CLEAR,NIGHT_MOSTLY_CLOUDY,CLEAR","Onshore,Offshore,Cross-shore,Onshore",4
5842041f4e65fad6a7708a66,2024_07_20,32.831,-79.71,Dewees Island,1.75,0.225,0.5325,30,30,"NIGHT_CLEAR,NIGHT_CLEAR,NIGHT_CLEAR,CLEAR","Onshore,Onshore,Onshore,Cross-shore",4
5842041f4e65fad6a7708a67,2024_07_20,33.82924423172106,-78.62813,Cherry Grove Pier,1.75,0.237675,0.544675,30,30,"NIGHT_CLEAR,NIGHT_CLEAR,NIGHT_MOSTLY_CLOUDY,CLEAR","Onshore,Onshore,Onshore,Onshore",4
5842041f4e65fad6a7708a69,2024_07_20,34.27197439666496,-77.74050223196774,Figure Eight and Shell Islands,1.7916666666666667,0.58151,0.89006,28,27,"NIGHT_HEAVY_SHOWERS,NIGHT_MOSTLY_CLOUDY,NIGHT_CLEAR,CLEAR","Onshore,Cross-shore,Onshore,Onshore",4
5842041f4e65fad6a7708a6b,2024_07_20,33.49041958261793,-79.07666070599386,North End,1,0.3125,0.6174999999999999,30,30,"NIGHT_CLEAR,NIGHT_CLEAR,NIGHT_CLEAR,SHOWERS","Cross-shore,Cross-shore,Cross-shore,Onshore",4
5842041f4e65fad6a7708a6c,2024_07_20,33.39537062495087,-79.13835037835189,The South End,1,0.23750000000000002,0.54,30,30,"NIGHT_MOSTLY_CLOUDY,NIGHT_MOSTLY_CLOUDY,NIGHT_CLOUDY,BRIEF_SHOWERS_POSSIBLE","Cross-shore,Cross-shore,Cross-shore,Cross-shore",4
5842041f4e65fad6a7708a6d,2024_07_20,33.29001727666697,-79.17190003352977,North Island,1,0.305,0.6125,30,30,"NIGHT_CLEAR,NIGHT_CLEAR,NIGHT_CLEAR,CLEAR","Cross-shore,Cross-shore,Offshore,Cross-shore",4
5842041f4e65fad6a7708a6e,2024_07_20,32.90929771158952,-79.57810400297359,Bull Island,1,0.24,0.545,30,30,"NIGHT_CLEAR,NIGHT_CLEAR,NIGHT_CLEAR,CLEAR","Cross-shore,Cross-shore,Cross-shore,Cross-shore",4
5842041f4e65fad6a7708a6f,2024_07_20,31.99153112815895,-80.84543050470074,Tybee Island Pier,1,0.02,0.325,30,30,"NIGHT_CLEAR,NIGHT_CLEAR,NIGHT_CLEAR,CLEAR","Onshore,Cross-shore,Cross-shore,Cross-shore",4
5842041f4e65fad6a7708a70,2024_07_20,33.03478144356316,-79.35021028265125,Cape Romain,1,0.415,0.72,30,30,"NIGHT_MOSTLY_CLOUDY,NIGHT_MOSTLY_CLOUDY,NIGHT_MOSTLY_CLOUDY,CLEAR","Cross-shore,Cross-shore,Cross-shore,Cross-shore",4
5842041f4e65fad6a7708a71,2024_07_20,33.43231073271028,-79.11789,The Pier,1,0.30891,0.482675,30,30,"NIGHT_CLEAR,NIGHT_CLEAR,NIGHT_CLEAR,HEAVY_SHOWERS_POSSIBLE","Cross-shore,Cross-shore,Cross-shore,Cross-shore",4
5842041f4e65fad6a7708a72,2024_07_20,33.45423621397969,-79.10497798178424,South Litchfield,1,0.245,0.5525,30,30,"NIGHT_CLEAR,NIGHT_CLEAR,NIGHT_CLEAR,LIGHT_SHOWERS_POSSIBLE","Cross-shore,Cross-shore,Cross-shore,Onshore",4
5842041f4e65fad6a7708a73,2024_07_20,34.19316590251396,-77.8045,Crystal Pier,1.75,0.318,0.6253,28,27,"NIGHT_MOSTLY_CLOUDY,NIGHT_CLEAR,NIGHT_MOSTLY_CLOUDY,CLEAR","Cross-shore,Offshore,Cross-shore,Onshore",4
5842041f4e65fad6a7708a74,2024_07_20,33.68628680045124,-78.88346,Myrtle Beach,1.5,0.32,0.625,30,30,"NIGHT_CLEAR,NIGHT_CLEAR,NIGHT_CLEAR,CLEAR","Offshore,Onshore,Offshore,Onshore",4
5842041f4e65fad6a7708a75,2024_07_20,32.66166297145973,-79.91951806398808,10th Street,1,0.39,0.6925,30,30,"NIGHT_CLEAR,NIGHT_CLEAR,NIGHT_CLEAR,CLEAR","Cross-shore,Cross-shore,Cross-shore,Onshore",4
5842041f4e65fad6a7708a76,2024_07_20,33.16729555197199,-79.19829236867845,South Island,1,0.42,0.7275,30,30,"NIGHT_CLEAR,NIGHT_MOSTLY_CLOUDY,NIGHT_MOSTLY_CLOUDY,CLEAR","Cross-shore,Cross-shore,Cross-shore,Cross-shore",4
5842041f4e65fad6a7708a77,2024_07_20,32.595,-80.088,Kiawah Island/Seabrook Island,1,0.34,0.645,30,30,"NIGHT_CLEAR,NIGHT_CLEAR,NIGHT_MOSTLY_CLOUDY,CLEAR","Onshore,Onshore,Onshore,Onshore",4
5842041f4e65fad6a7708a78,2024_07_20,32.51356930575787,-80.28223,Edisto Beach,1,0.3634975,0.5679675,30.25,30.25,"NIGHT_CLEAR,NIGHT_CLEAR,NIGHT_BRIEF_SHOWERS,CLEAR","Onshore,Onshore,Onshore,Onshore",4
5842041f4e65fad6a7708a79,2024_07_20,32.366270751262,-80.43911,Hunting Island,1,0.2620325,0.4094225,30,30,"NIGHT_CLEAR,NIGHT_CLEAR,NIGHT_CLEAR,CLEAR","Cross-shore,Cross-shore,Cross-shore,Cross-shore",4
5842041f4e65fad6a7708a7a,2024_07_20,32.65337734408365,-79.93983,Folly Beach Pier,1.7916666666666667,0.2396275,0.5464100000000001,30,29,"NIGHT_CLEAR,NIGHT_CLEAR,NIGHT_CLEAR,CLEAR","Onshore,Onshore,Onshore,Onshore",4
5842041f4e65fad6a7708a7b,2024_07_20,33.41209545530049,-79.13026341393126,South Jetty,1,0.23750000000000002,0.54,30,30,"NIGHT_CLEAR,NIGHT_CLEAR,NIGHT_CLEAR,CLEAR","Cross-shore,Cross-shore,Cross-shore,Onshore",4
5842041f4e65fad6a7708a7c,2024_07_20,32.31115640606869,-80.48564,Fripp Island,1,0.35588000000000003,0.5560625,30,30,"NIGHT_CLEAR,NIGHT_CLEAR,NIGHT_CLEAR,CLEAR","Onshore,Onshore,Onshore,Onshore",4
5842041f4e65fad6a7708a7d,2024_07_20,32.14365226036034,-80.74402,Hilton Head Island,1,0.1068925,0.33118,30,30,"NIGHT_CLEAR,NIGHT_CLEAR,NIGHT_CLEAR,CLEAR","Onshore,Onshore,Onshore,Onshore",4
5842041f4e65fad6a7708a7e,2024_07_20,29.70405364733744,-81.22426,Matanzas Inlet,1.7083333333333333,0.2012675,0.5008025,27,26,"NIGHT_CLEAR,NIGHT_CLEAR,NIGHT_CLEAR,MOSTLY_CLEAR","Cross-shore,Cross-shore,Cross-shore,Onshore",4
5842041f4e65fad6a7708a81,2024_07_20,29.76878537149042,-81.25109,Crescent Beach,1.75,0.16,0.4625,28,28,"NIGHT_CLEAR,NIGHT_CLEAR,NIGHT_CLEAR,MOSTLY_CLEAR","Cross-shore,Cross-shore,Cross-shore,Onshore",4
5842041f4e65fad6a7708a82,2024_07_20,32.80251718689188,-79.73221919500764,Wild Dunes,1,0.3925,0.695,30,30,"NIGHT_CLEAR,NIGHT_CLEAR,NIGHT_CLEAR,CLEAR","Onshore,Onshore,Onshore,Onshore",4
5842041f4e65fad6a7708a84,2024_07_20,32.75733539419244,-79.83258856064796,Bert's Bar,1,0.1,0.405,30,30,"NIGHT_CLEAR,NIGHT_CLEAR,NIGHT_CLEAR,CLEAR","Onshore,Onshore,Onshore,Onshore",4
5842041f4e65fad6a7708a85,2024_07_20,32.66829212943039,-79.90735,Washout,1.7916666666666667,0.584095,0.881395,30,29,"NIGHT_CLEAR,NIGHT_CLEAR,NIGHT_CLEAR,CLEAR","Cross-shore,Cross-shore,Onshore,Onshore",4
5842041f4e65fad6a7708a86,2024_07_20,32.78452968219067,-79.7854,The Pier/Windjammer,1,0.38,0.6875,30,30,"NIGHT_CLEAR,NIGHT_CLEAR,NIGHT_CLEAR,CLEAR","Onshore,Onshore,Onshore,Onshore",4
5842041f4e65fad6a7708a87,2024_07_20,29.86618162637438,-81.2662150259608,Anastasia Park (The Entrance),1.25,0.155,0.46,28,28,"NIGHT_CLEAR,NIGHT_CLEAR,NIGHT_CLEAR,CLEAR","Cross-shore,Cross-shore,Cross-shore,Onshore",4
5842041f4e65fad6a7708a89,2024_07_20,29.89149785916623,-81.2723223244215,Blowholes,0.9583333333333333,0.1741325,0.4799325,28,26,"NIGHT_CLEAR,NIGHT_CLEAR,NIGHT_CLEAR,MIST","Cross-shore,Cross-shore,Cross-shore,Onshore",4
5842041f4e65fad6a7708a8a,2024_07_20,30.16227112983666,-81.35502907491218,Crossroads,1.6666666666666665,0.3274675,0.6332675,28,26,"NIGHT_CLEAR,NIGHT_CLEAR,NIGHT_CLEAR,MOSTLY_CLEAR","Cross-shore,Cross-shore,Cross-shore,Onshore",4
5842041f4e65fad6a7708a8b,2024_07_20,30.19308537587637,-81.36314247820911,Sawgrass,1.6666666666666665,0.32996749999999997,0.6332675,28,26,"NIGHT_CLEAR,NIGHT_CLEAR,NIGHT_CLEAR,MOSTLY_CLEAR","Cross-shore,Cross-shore,Cross-shore,Onshore",4
5842041f4e65fad6a7708a8c,2024_07_20,30.34696027700899,-81.39451,18th Street,1.75,0.47363,0.7612099999999999,29,29,"NIGHT_CLEAR,NIGHT_CLEAR,NIGHT_CLEAR,MIST","Cross-shore,Cross-shore,Cross-shore,Onshore",4
5842041f4e65fad6a7708a8d,2024_07_20,30.381793,-81.39686,Mayport Poles,1.75,0.2975,0.6025,29,29,"NIGHT_CLEAR,NIGHT_CLEAR,NIGHT_CLEAR,CLEAR","Cross-shore,Cross-shore,Cross-shore,Onshore",4
5842041f4e65fad6a7708a8e,2024_07_20,30.390516,-81.395591,Blue Roofs,2,0.33,0.6375,29,29,"NIGHT_CLEAR,NIGHT_CLEAR,NIGHT_CLEAR,CLEAR","Cross-shore,Onshore,Cross-shore,Onshore",4
5842041f4e65fad6a7708a8f,2024_07_20,30.40517712722211,-81.40074116169004,Huguenot Park (North Jetty),1.75,0.2125,0.515,29,29,"NIGHT_CLEAR,NIGHT_CLEAR,NIGHT_CLEAR,CLEAR","Cross-shore,Cross-shore,Cross-shore,Onshore",4
5842041f4e65fad6a7708a90,2024_07_20,30.47788918872762,-81.41055821335078,Talbot Island,1.7083333333333333,0.29749499999999995,0.6049525,27,26,"NIGHT_CLEAR,NIGHT_CLEAR,NIGHT_CLEAR,CLEAR","Cross-shore,Cross-shore,Cross-shore,Onshore",4
5842041f4e65fad6a7708a91,2024_07_20,30.66753984549761,-81.42983,Main Beach,1.75,0.28500000000000003,0.59,29,29,"NIGHT_CLEAR,NIGHT_CLEAR,NIGHT_CLEAR,MIST","Cross-shore,Cross-shore,Onshore,Onshore",4
5842041f4e65fad6a7708a92,2024_07_20,30.69983581209126,-81.42483,Ft. Clinch State Park,1.75,0.31,0.6125,29,29,"NIGHT_CLEAR,NIGHT_CLEAR,NIGHT_CLEAR,MIST","Cross-shore,Cross-shore,Cross-shore,Onshore",4
5842041f4e65fad6a7708a93,2024_07_20,30.62059700777582,-81.437252942757425,Amelia Pier,1.25,0.3,0.605,29,29,"NIGHT_CLEAR,NIGHT_CLEAR,NIGHT_CLEAR,CLEAR","Cross-shore,Cross-shore,Cross-shore,Onshore",4
5842041f4e65fad6a7708a95,2024_07_20,28.95125170929067,-80.83837,Bethune Beach,1.75,0.1625,0.47000000000000003,28,28,"NIGHT_CLEAR,NIGHT_CLEAR,NIGHT_CLEAR,CLEAR","Cross-shore,Cross-shore,Cross-shore,Onshore",4
5842041f4e65fad6a7708a96,2024_07_20,29.03874288905362,-80.8933424949646,Flagler Ave.,1,0.2116,0.5182325,28,27,"NIGHT_MOSTLY_CLOUDY,NIGHT_CLEAR,NIGHT_CLEAR,CLEAR","Cross-shore,Cross-shore,Cross-shore,Onshore",4
5842041f4e65fad6a7708a98,2024_07_20,30.332297686992757,-81.39319,Atlantic Beach,1.75,0.44479250000000004,0.6949875,29,29,"NIGHT_CLEAR,NIGHT_CLEAR,NIGHT_CLEAR,MIST","Cross-shore,Cross-shore,Cross-shore,Onshore",4
5842041f4e65fad6a7708a99,2024_07_20,29.87530059952514,-81.26757958498874,Middles,0.9583333333333333,0.1708,0.47409999999999997,28,26,"NIGHT_CLEAR,NIGHT_CLEAR,NIGHT_CLEAR,MIST","Cross-shore,Cross-shore,Cross-shore,Onshore",4
5842041f4e65fad6a7708a9a,2024_07_20,29.146475528378218,-80.96347,Sunglow Pier,1,0.1475,0.455,28,28,"NIGHT_CLEAR,NIGHT_CLEAR,NIGHT_CLEAR,HEAVY_SHOWERS","Cross-shore,Cross-shore,Cross-shore,Onshore",4
5842041f4e65fad6a7708a9b,2024_07_20,30.02251238001095,-81.32183077344881,Gate Station,1.6666666666666665,0.1966325,0.49826750000000003,28,26,"NIGHT_CLEAR,NIGHT_CLEAR,NIGHT_CLEAR,CLEAR","Cross-shore,Cross-shore,Cross-shore,Onshore",4
5842041f4e65fad6a7708a9c,2024_07_20,29.33976495417899,-81.0606,Bicentennial Park,1.5,0.16,0.4625,28,28,"NIGHT_CLEAR,NIGHT_MOSTLY_CLEAR,NIGHT_CLEAR,MOSTLY_CLEAR","Cross-shore,Cross-shore,Cross-shore,Onshore",4
5842041f4e65fad6a7708a9d,2024_07_20,29.08257353385602,-80.92137,Ponce Inlet,1.9583333333333333,0.29655,0.60135,28,27,"NIGHT_CLEAR,NIGHT_CLEAR,NIGHT_CLEAR,CLEAR","Offshore,Cross-shore,Cross-shore,Onshore",4
5842041f4e65fad6a7708a9f,2024_07_20,27.862962005874696,-80.44668,Sebastian Inlet,0.95,9.75e-4,0.305775,29,28,"NIGHT_CLEAR,NIGHT_CLEAR,NIGHT_CLEAR,CLEAR","Cross-shore,Cross-shore,Cross-shore,Onshore",4
5842041f4e65fad6a7708aa0,2024_07_20,30.292626880836885,-81.38579,Jacksonville Beach Pier,1.7083333333333333,0.365075,0.6681,27,26,"NIGHT_CLEAR,NIGHT_MIST,NIGHT_MIST,CLEAR","Cross-shore,Cross-shore,Cross-shore,Cross-shore",4
5842041f4e65fad6a7708aa2,2024_07_20,29.21860397328164,-81.0019,Daytona Beach,1.75,0.2939125,0.6038475,28,28,"NIGHT_CLEAR,NIGHT_CLEAR,NIGHT_CLEAR,MOSTLY_CLEAR","Cross-shore,Onshore,Onshore,Onshore",4
5842041f4e65fad6a7708aa3,2024_07_20,27.47531255634912,-80.28914,Ft. Pierce Inlet,0.95,-0.0012499999999999998,0.30667500000000003,29,28,"NIGHT_CLEAR,NIGHT_CLEAR,NIGHT_CLEAR,CLEAR","Cross-shore,Cross-shore,Cross-shore,Cross-shore",4
5842041f4e65fad6a7708aa4,2024_07_20,29.29239875585548,-81.0386,Ormond Beach,1.75,0.1725,0.48250000000000004,28,28,"NIGHT_CLEAR,NIGHT_CLEAR,NIGHT_CLEAR,CLEAR","Cross-shore,Cross-shore,Cross-shore,Onshore",4
5842041f4e65fad6a7708aa5,2024_07_20,29.91629441498523,-81.28801,Vilano,1,0.1325,0.4375,28,28,"NIGHT_CLEAR,NIGHT_CLEAR,NIGHT_CLEAR,MIST","Cross-shore,Cross-shore,Cross-shore,Onshore",4
5842041f4e65fad6a7708aa6,2024_07_20,27.876230736320828,-80.4551,Spanish House,0.9166666666666666,0.213125,0.521525,29,28,"NIGHT_CLEAR,NIGHT_CLEAR,NIGHT_CLEAR,CLEAR","Cross-shore,Cross-shore,Cross-shore,Cross-shore",4
5842041f4e65fad6a7708aa7,2024_07_20,28.64397251741012,-80.62329,Playalinda,1.25,0.315,0.615,28,28,"NIGHT_CLEAR,NIGHT_MOSTLY_CLEAR,NIGHT_CLEAR,CLEAR","Cross-shore,Cross-shore,Cross-shore,Onshore",4
5842041f4e65fad6a7708aa8,2024_07_20,28.406142,-80.58886,Jetty Park,1.25,0.2125,0.52,28,28,"NIGHT_CLEAR,NIGHT_MOSTLY_CLEAR,NIGHT_CLEAR,CLEAR","Onshore,Onshore,Cross-shore,Onshore",4
5842041f4e65fad6a7708aa9,2024_07_20,28.49083243010974,-80.58001715986319,Kennedy Space Center,1,0.20750000000000002,0.5125,28,28,"NIGHT_CLEAR,NIGHT_CLEAR,NIGHT_MOSTLY_CLEAR,CLEAR","Cross-shore,Cross-shore,Cross-shore,Cross-shore",4
5842041f4e65fad6a7708aab,2024_07_20,28.336757013024314,-80.60568,Lori Wilson Park,1,0.28437500000000004,0.5884,29,28,"NIGHT_CLEAR,NIGHT_CLEAR,NIGHT_CLEAR,CLEAR","Onshore,Onshore,Onshore,Onshore",4
5842041f4e65fad6a7708aad,2024_07_20,27.76388821683801,-80.3962958234027,Wabasso,1,0.21500000000000002,0.525,28,28,"NIGHT_CLEAR,NIGHT_CLEAR,NIGHT_CLEAR,CLEAR","Cross-shore,Cross-shore,Cross-shore,Onshore",4
5842041f4e65fad6a7708aae,2024_07_20,27.521583322459,-80.30987620353699,P.V. Martin's,0.9166666666666666,0.105,0.40902499999999997,29,28,"NIGHT_CLEAR,NIGHT_CLEAR,NIGHT_CLEAR,CLEAR","Onshore,Cross-shore,Cross-shore,Onshore",4
5842041f4e65fad6a7708aaf,2024_07_20,27.644996047720046,-80.35242676734924,Riomar,0,0.091875,0.3959,29,28,"NIGHT_CLEAR,NIGHT_CLEAR,NIGHT_CLEAR,CLEAR","Onshore,Cross-shore,Cross-shore,Onshore",4
5842041f4e65fad6a7708ab1,2024_07_20,27.670121806659253,-80.36026954650879,Vero Pier,0.9166666666666666,0.16,0.46152499999999996,29,28,"NIGHT_CLEAR,NIGHT_CLEAR,NIGHT_CLEAR,CLEAR","Onshore,Cross-shore,Cross-shore,Onshore",4
5842041f4e65fad6a7708ab2,2024_07_20,28.047705032021486,-80.54680109024048,Spessard Holland,0.04999999999999999,0.0025724999999999997,0.308915,29,28,"NIGHT_CLEAR,NIGHT_CLEAR,NIGHT_CLEAR,CLEAR","Cross-shore,Cross-shore,Cross-shore,Cross-shore",4
5842041f4e65fad6a7708ab7,2024_07_20,28.135426226217064,-80.57895541191101,The Radisson,1,0.24625,0.55215,29,28,"NIGHT_MOSTLY_CLEAR,NIGHT_CLEAR,NIGHT_CLEAR,CLEAR","Cross-shore,Cross-shore,Cross-shore,Onshore",4
5842041f4e65fad6a7708ab8,2024_07_20,28.26664623907351,-80.60448467731476,Picnic Tables,1,0.3875,0.6900000000000001,28,28,"NIGHT_CLEAR,NIGHT_CLEAR,NIGHT_CLEAR,CLEAR","Cross-shore,Cross-shore,Cross-shore,Onshore",4
5842041f4e65fad6a7708ab9,2024_07_20,28.200840983180232,-80.59493,Perkins,1,0.29562499999999997,0.59965,29,28,"NIGHT_CLEAR,NIGHT_MOSTLY_CLEAR,NIGHT_MOSTLY_CLEAR,CLEAR","Cross-shore,Cross-shore,Cross-shore,Onshore",4
5842041f4e65fad6a7708aba,2024_07_20,28.185652556759443,-80.59154,RC's,1,0.285125,0.586175,29,28,"NIGHT_CLEAR,NIGHT_CLEAR,NIGHT_CLEAR,CLEAR","Cross-shore,Cross-shore,Cross-shore,Onshore",4
5842041f4e65fad6a7708abc,2024_07_20,28.252541991968208,-80.60269,2nd Light,1,0.3775,0.685,28,28,"NIGHT_CLEAR,NIGHT_CLEAR,NIGHT_CLEAR,CLEAR","Cross-shore,Cross-shore,Cross-shore,Onshore",4
5842041f4e65fad6a7708abd,2024_07_20,27.901611308716447,-80.4697,Bonsteel Park,1.6666666666666667,0.255,0.561525,29,28,"NIGHT_CLEAR,NIGHT_CLEAR,NIGHT_CLEAR,CLEAR","Cross-shore,Cross-shore,Cross-shore,Cross-shore",4
5842041f4e65fad6a7708abe,2024_07_20,28.2423394657007,-80.60104,Hangar's Beach,1.75,0.254375,0.557775,29,28,"NIGHT_CLEAR,NIGHT_MOSTLY_CLEAR,NIGHT_CLEAR,CLEAR","Cross-shore,Cross-shore,Cross-shore,Onshore",4
5842041f4e65fad6a7708abf,2024_07_20,27.34018197146798,-80.23278,Walton Rocks,0,-0.00475,0.3008,30,29,"NIGHT_CLEAR,NIGHT_CLEAR,NIGHT_CLEAR,CLEAR","Cross-shore,Cross-shore,Cross-shore,Onshore",4
5842041f4e65fad6a7708ac0,2024_07_20,25.80407401902198,-80.1222227290161,30th Street,0.25,0.0125,0.2475,30,30,"NIGHT_CLEAR,NIGHT_CLEAR,NIGHT_CLEAR,CLEAR","Onshore,Onshore,Onshore,Onshore",4
5842041f4e65fad6a7708ac1,2024_07_20,25.76570280215999,-80.12983,South Beach,0,-0.008125,0.1817,31,29,"NIGHT_CLEAR,NIGHT_CLEAR,NIGHT_CLEAR,CLEAR","Onshore,Onshore,Onshore,Onshore",4
5842041f4e65fad6a7708ac2,2024_07_20,26.058022412197,-80.10873562327671,Dania Pier,0.25,0,0.25,30,30,"NIGHT_CLEAR,NIGHT_CLEAR,NIGHT_CLEAR,CLEAR","Onshore,Onshore,Onshore,Onshore",4
5842041f4e65fad6a7708ac3,2024_07_20,26.04825428257198,-80.11153150137932,Franklin Street,1,0.0225,0.3125,30,30,"NIGHT_CLEAR,NIGHT_CLEAR,NIGHT_CLEAR,CLEAR","Onshore,Onshore,Onshore,Onshore",4
5842041f4e65fad6a7708ac4,2024_07_20,26.09086461141498,-80.10728410144065,John Lloyd State Park,0.25,0.0225,0.315,30,30,"NIGHT_CLEAR,NIGHT_CLEAR,NIGHT_CLEAR,CLEAR","Onshore,Onshore,Onshore,Onshore",4
5842041f4e65fad6a7708ac5,2024_07_20,26.0971397396683,-80.10298876028907,Spoils,0,0.0025,0.25,30,30,"NIGHT_CLEAR,NIGHT_CLEAR,NIGHT_CLEAR,CLEAR","Onshore,Onshore,Onshore,Onshore",4
5842041f4e65fad6a7708ac6,2024_07_20,26.18920557475824,-80.09224470008016,Commercial Pier,0,0,0.27,30,30,"NIGHT_CLEAR,NIGHT_CLEAR,NIGHT_CLEAR,CLEAR","Onshore,Onshore,Onshore,Onshore",4
5842041f4e65fad6a7708ac7,2024_07_20,28.289851576629342,-80.6063,16th St. South,1,0.1825,0.4909,29,28,"NIGHT_CLEAR,NIGHT_MOSTLY_CLEAR,NIGHT_CLEAR,CLEAR","Onshore,Cross-shore,Cross-shore,Onshore",4
5842041f4e65fad6a7708ac8,2024_07_20,26.23467460139735,-80.0874,Pompano Pier,0.16666666666666666,0.0025,0.25592,31,29,"NIGHT_CLEAR,NIGHT_CLEAR,NIGHT_CLEAR,CLEAR","Onshore,Onshore,Onshore,Onshore",4
5842041f4e65fad6a7708acb,2024_07_20,26.44179551370651,-80.05928855229453,Atlantic Dunes Park,0.16666666666666666,0.071045,0.27188,31,29,"NIGHT_CLEAR,NIGHT_CLEAR,NIGHT_CLEAR,CLEAR","Onshore,Onshore,Onshore,Onshore",4
5842041f4e65fad6a7708acd,2024_07_20,26.62215707439298,-80.03599398392342,Hilton Hotel Backyard,0.9166666666666666,0.051875,0.360275,31,29,"NIGHT_CLEAR,NIGHT_CLEAR,NIGHT_CLEAR,CLEAR","Onshore,Onshore,Onshore,Onshore",4
5842041f4e65fad6a7708ace,2024_07_20,26.96418190555367,-80.07769168113562,Coral Cove Park,0.9166666666666666,0.0175,0.319025,29,28,"NIGHT_CLEAR,NIGHT_CLEAR,NIGHT_CLEAR,CLEAR","Onshore,Onshore,Onshore,Onshore",4
5842041f4e65fad6a7708acf,2024_07_20,26.7029496416037,-80.03184,Palm Beach,0.9166666666666666,0.0625,0.3684,31,29,"NIGHT_CLEAR,NIGHT_CLEAR,NIGHT_CLEAR,CLEAR","Onshore,Onshore,Onshore,Onshore",4
5842041f4e65fad6a7708ad0,2024_07_20,26.97679878167375,-80.08141631388132,Blowing Rocks,0.9166666666666666,0.08,0.3834,29,28,"NIGHT_CLEAR,NIGHT_CLEAR,NIGHT_CLEAR,CLEAR","Onshore,Onshore,Cross-shore,Onshore",4
5842041f4e65fad6a7708ad2,2024_07_20,26.45661880078336,-80.057,Delray Beach,0.16666666666666666,0,0.25745,31,29,"NIGHT_CLEAR,NIGHT_CLEAR,NIGHT_CLEAR,CLEAR","Onshore,Onshore,Cross-shore,Onshore",4
5842041f4e65fad6a7708ad3,2024_07_20,27.205685534312778,-80.16826629638672,Fletcher's,0.9166666666666666,0.079375,0.38277500000000003,29,28,"NIGHT_CLEAR,NIGHT_CLEAR,NIGHT_CLEAR,CLEAR","Cross-shore,Cross-shore,Cross-shore,Cross-shore",4
5842041f4e65fad6a7708ad5,2024_07_20,26.5848450388814,-80.03649735753257,Lantana Public Beach,0.9166666666666666,0.065,0.371525,31,29,"NIGHT_CLEAR,NIGHT_CLEAR,NIGHT_CLEAR,MOSTLY_CLEAR","Onshore,Onshore,Onshore,Onshore",4
5842041f4e65fad6a7708ad6,2024_07_20,25.77468432731322,-80.12884045797499,5th Street,0.25,0.0175,0.26,30,30,"NIGHT_CLEAR,NIGHT_CLEAR,NIGHT_CLEAR,CLEAR","Onshore,Onshore,Onshore,Onshore",4
5842041f4e65fad6a7708ad7,2024_07_20,25.795157990715975,-80.12527585029602,21st Street,0.25,0.0025,0.215,30,30,"NIGHT_CLEAR,NIGHT_CLEAR,NIGHT_CLEAR,CLEAR","Onshore,Onshore,Onshore,Onshore",4
5842041f4e65fad6a7708ad8,2024_07_20,25.897806453088073,-80.1211827993393,Haulover Inlet (South Jetty),0,0,0.195,30,30,"NIGHT_CLEAR,NIGHT_CLEAR,NIGHT_CLEAR,MOSTLY_CLEAR","Onshore,Onshore,Onshore,Onshore",4
5842041f4e65fad6a7708ad9,2024_07_20,25.90147392328634,-80.12110769748688,Haulover Inlet (North Jetty),0.25,0.0125,0.2825,30,30,"NIGHT_CLEAR,NIGHT_CLEAR,NIGHT_CLEAR,MOSTLY_CLEAR","Onshore,Onshore,Onshore,Onshore",4
5842041f4e65fad6a7708ada,2024_07_20,25.87049374242476,-80.11828560342356,85th Street,0,0,0.185,30,30,"NIGHT_CLEAR,NIGHT_CLEAR,NIGHT_CLEAR,CLEAR","Onshore,Onshore,Onshore,Onshore",4
5842041f4e65fad6a7708adb,2024_07_20,26.25486382031396,-80.0805,Hillsboro Inlet,0.9166666666666666,0.2446475,0.439415,31,29,"NIGHT_CLEAR,NIGHT_CLEAR,NIGHT_CLEAR,CLEAR","Onshore,Onshore,Onshore,Onshore",4
5842041f4e65fad6a7708add,2024_07_20,26.29705672965111,-80.07612393274484,Hillsboro Beach,0.6666666666666666,0,0.25715,31,29,"NIGHT_CLEAR,NIGHT_CLEAR,NIGHT_CLEAR,CLEAR","Onshore,Onshore,Onshore,Onshore",4
5842041f4e65fad6a7708ade,2024_07_20,26.36569956413266,-80.06717936869391,Red Reef Park,0.16666666666666666,0.004375,0.2959,31,29,"NIGHT_CLEAR,NIGHT_CLEAR,NIGHT_CLEAR,CLEAR","Onshore,Onshore,Onshore,Onshore",4
5842041f4e65fad6a7708adf,2024_07_20,26.54593873498907,-80.04104359585143,Boynton Beach Inlet (Northside),0.16666666666666666,0.00375,0.30465,31,29,"NIGHT_CLEAR,NIGHT_CLEAR,NIGHT_CLEAR,LIGHT_SHOWERS_POSSIBLE","Onshore,Onshore,Onshore,Onshore",4
5842041f4e65fad6a7708ae0,2024_07_20,26.92746505629809,-80.06721138954163,Corners,0.16666666666666666,0.0795,0.294895,31,29,"NIGHT_CLEAR,NIGHT_CLEAR,NIGHT_CLEAR,CLEAR","Onshore,Onshore,Onshore,Onshore",4
5842041f4e65fad6a7708ae1,2024_07_20,26.76983179886943,-80.03413481937037,The Cove,0.9166666666666666,0.065,0.371525,31,29,"NIGHT_CLEAR,NIGHT_CLEAR,NIGHT_CLEAR,CLEAR","Onshore,Onshore,Onshore,Onshore",4
5842041f4e65fad6a7708ae3,2024_07_20,26.39224485175123,-80.0650461233983,Japanese Rock,0.6666666666666666,0,0.2884,31,29,"NIGHT_CLEAR,NIGHT_CLEAR,NIGHT_CLEAR,CLEAR","Onshore,Onshore,Onshore,Onshore",4
5842041f4e65fad6a7708ae4,2024_07_20,29.94810928551321,-85.42545434612366,Mexico Beach,1,0,0.2225,30,30,"NIGHT_CLEAR,NIGHT_CLEAR,NIGHT_CLEAR,CLEAR","Cross-shore,Cross-shore,Cross-shore,Onshore",4
5842041f4e65fad6a7708ae5,2024_07_20,30.11752500931267,-85.7306,Shell Island,0.25,0,0.26,30,30,"NIGHT_CLEAR,NIGHT_CLEAR,NIGHT_MOSTLY_CLOUDY,CLEAR","Onshore,Onshore,Onshore,Onshore",4
5842041f4e65fad6a7708ae7,2024_07_20,29.94901514702268,-85.43042978529013,D.J.'s,0.5,0,0.2225,30,30,"NIGHT_CLEAR,NIGHT_CLEAR,NIGHT_CLEAR,CLEAR","Onshore,Onshore,Onshore,Onshore",4
5842041f4e65fad6a7708ae8,2024_07_20,30.12396111446713,-85.73637,St. Andrew's Park,0.16666666666666666,0,0.25936750000000003,31,29,"NIGHT_CLEAR,NIGHT_CLEAR,NIGHT_MOSTLY_CLOUDY,CLEAR","Cross-shore,Onshore,Onshore,Cross-shore",4
5842041f4e65fad6a7708ae9,2024_07_20,30.16781531760227,-85.79604918824084,Spinnaker,-0.2916666666666667,0.005,0.2956175,31,29,"NIGHT_CLEAR,NIGHT_CLEAR,NIGHT_CLEAR,CLEAR","Onshore,Onshore,Onshore,Onshore",4
5842041f4e65fad6a7708aea,2024_07_20,30.18877050526983,-85.83243530466363,Wood Pier,0.5,0.01,0.3002,31,29,"NIGHT_CLEAR,NIGHT_CLEAR,NIGHT_CLEAR,CLEAR","Onshore,Onshore,Onshore,Onshore",4
5842041f4e65fad6a7708aeb,2024_07_20,30.2676205895555,-85.9938578144113,Inlet Beach Pier,1,0.0170825,0.3193675,31,29,"NIGHT_CLEAR,NIGHT_FOG,NIGHT_CLEAR,CLEAR","Onshore,Onshore,Onshore,Onshore",4
5842041f4e65fad6a7708aec,2024_07_20,30.31815542759119,-86.1383771867044,Bud and Alley's,0.75,0.0191675,0.3218675,31,29,"NIGHT_MOSTLY_CLOUDY,NIGHT_CLEAR,NIGHT_CLEAR,CLEAR","Onshore,Onshore,Onshore,Onshore",4
5842041f4e65fad6a7708aed,2024_07_20,30.32686082481946,-86.16650590275447,Grayton Beach,0.75,0.0216675,0.3268675,31,29,"NIGHT_CLEAR,NIGHT_CLEAR,NIGHT_CLEAR,CLEAR","Onshore,Onshore,Onshore,Onshore",4
5842041f4e65fad6a7708aee,2024_07_20,30.33661488976303,-86.20094,Blue Mountain Beach,0.75,0.0216675,0.3268675,31,29,"NIGHT_MOSTLY_CLOUDY,NIGHT_CLEAR,NIGHT_MOSTLY_CLOUDY,CLEAR","Onshore,Onshore,Onshore,Onshore",4
5842041f4e65fad6a7708aef,2024_07_20,30.37677202831587,-86.38513,Pompano Joe's,1,0.04,0.3497825,31,29,"NIGHT_SHOWERS,NIGHT_CLEAR,NIGHT_CLEAR,CLEAR","Onshore,Onshore,Onshore,Onshore",4
5842041f4e65fad6a7708af0,2024_07_20,30.37429731725911,-86.36687,Seascape,1,0.024167499999999998,0.32895,31,29,"NIGHT_BRIEF_SHOWERS,NIGHT_MOSTLY_CLEAR,NIGHT_MOSTLY_CLOUDY,CLEAR","Onshore,Onshore,Onshore,Onshore",4
5842041f4e65fad6a7708af1,2024_07_20,30.382815988547186,-86.45839,The Back Porch,0.75,0.0420825,0.3497825,31,29,"NIGHT_HEAVY_SHOWERS,NIGHT_MOSTLY_CLOUDY,NIGHT_CLEAR,CLEAR","Onshore,Onshore,Onshore,Onshore",4
5842041f4e65fad6a7708af2,2024_07_20,30.21207176798612,-85.87989730830542,Panama City Pier,0.75,0.01,0.31020000000000003,31,29,"NIGHT_MOSTLY_CLOUDY,NIGHT_CLEAR,NIGHT_CLEAR,CLEAR","Onshore,Onshore,Onshore,Cross-shore",4
5842041f4e65fad6a7708af3,2024_07_20,30.37521499110326,-86.3717,Whale's Tail,1,0.04,0.3447825,31,29,"NIGHT_BRIEF_SHOWERS,NIGHT_MOSTLY_CLEAR,NIGHT_MOSTLY_CLOUDY,CLEAR","Onshore,Onshore,Onshore,Onshore",4
5842041f4e65fad6a7708af4,2024_07_20,30.38120596658251,-86.43046,Old Crystal Pier,0.75,0.0329175,0.3402,31,29,"NIGHT_HEAVY_SHOWERS,NIGHT_CLEAR,NIGHT_MOSTLY_CLOUDY,CLEAR","Onshore,Onshore,Onshore,Onshore",4
5842041f4e65fad6a7708af5,2024_07_20,30.38090573159031,-86.50655,Jetty East,0.75,0.0420825,0.3497825,31,29,"NIGHT_MOSTLY_CLOUDY,NIGHT_MOSTLY_CLOUDY,NIGHT_CLEAR,CLEAR","Onshore,Onshore,Onshore,Onshore",4
5842041f4e65fad6a7708af6,2024_07_20,30.37584509640838,-86.50563,HMO's,0,0.044582500000000004,0.3497825,31,29,"NIGHT_MOSTLY_CLOUDY,NIGHT_MOSTLY_CLOUDY,NIGHT_CLEAR,CLEAR","Onshore,Onshore,Onshore,Onshore",4
5842041f4e65fad6a7708af7,2024_07_20,30.38124006131522,-86.50052,Two By Fours,0,0.0495825,0.3497825,31,29,"NIGHT_MOSTLY_CLOUDY,NIGHT_MOSTLY_CLOUDY,NIGHT_MOSTLY_CLOUDY,CLEAR","Onshore,Onshore,Onshore,Onshore",4
5842041f4e65fad6a7708af8,2024_07_20,30.38250751017554,-86.45776,The Pumphouse,1,0.0495825,0.3593675,31,29,"NIGHT_HEAVY_SHOWERS,NIGHT_MOSTLY_CLOUDY,NIGHT_CLEAR,CLEAR","Onshore,Onshore,Onshore,Onshore",4
5842041f4e65fad6a7708af9,2024_07_20,30.38655981578935,-86.52475,NCO Club,0.75,0.0495825,0.3497825,31,29,"NIGHT_MOSTLY_CLOUDY,NIGHT_MOSTLY_CLOUDY,NIGHT_CLEAR,CLEAR","Onshore,Onshore,Onshore,Onshore",4
5842041f4e65fad6a7708afa,2024_07_20,30.39024516541047,-86.59341,Okaloosa Pier,0.75,0.04,0.3497825,31,29,"NIGHT_MOSTLY_CLOUDY,NIGHT_MOSTLY_CLOUDY,NIGHT_MOSTLY_CLOUDY,CLEAR","Onshore,Onshore,Onshore,Onshore",4
5842041f4e65fad6a7708afb,2024_07_20,30.39281125722673,-86.59766,Dead Man's,0.75,0.0470825,0.3497825,31,29,"NIGHT_MOSTLY_CLOUDY,NIGHT_MOSTLY_CLOUDY,NIGHT_MOSTLY_CLOUDY,CLEAR","Onshore,Onshore,Onshore,Onshore",4
5842041f4e65fad6a7708afc,2024_07_20,30.32703176167034,-87.14196,Pensacola Pier,1,0.0575,0.365,32,32,"NIGHT_CLOUDY,NIGHT_CLEAR,NIGHT_CLEAR,CLEAR","Onshore,Onshore,Onshore,Onshore",4
5842041f4e65fad6a7708afd,2024_07_20,30.37920054094992,-86.85583,Navarre Beach,1,0.2387775,0.3857925,31,29,"NIGHT_CLOUDY,NIGHT_CLEAR,NIGHT_MOSTLY_CLOUDY,CLEAR","Onshore,Cross-shore,Cross-shore,Onshore",4
5842041f4e65fad6a7708afe,2024_07_20,30.39491626029151,-86.61248,Blue Horizon Motel,1,0.0425,0.3472825,31,29,"NIGHT_MOSTLY_CLOUDY,NIGHT_MOSTLY_CLOUDY,NIGHT_MOSTLY_CLOUDY,CLEAR","Onshore,Onshore,Onshore,Onshore",4
5842041f4e65fad6a7708aff,2024_07_20,30.29345899260828,-87.43547,First Parking Lot,0,0.03,0.3375,31.25,31.25,"NIGHT_CLOUDY,NIGHT_MOSTLY_CLOUDY,NIGHT_MOSTLY_CLOUDY,CLEAR","Onshore,Onshore,Onshore,Onshore",4
5842041f4e65fad6a7708b00,2024_07_20,30.29767401311303,-87.41362,Johnsons Beach,1,0.04,0.33999999999999997,31.25,31.25,"NIGHT_OVERCAST,NIGHT_CLEAR,NIGHT_CLEAR,CLEAR","Onshore,Onshore,Onshore,Onshore",4
5842041f4e65fad6a7708b01,2024_07_20,30.29513397370759,-87.42642,Sandy Key,1,0.03,0.33999999999999997,31.25,31.25,"NIGHT_CLOUDY,NIGHT_MOSTLY_CLOUDY,NIGHT_MOSTLY_CLOUDY,CLEAR","Onshore,Onshore,Onshore,Onshore",4
5842041f4e65fad6a7708b03,2024_07_20,30.377504907388026,-86.86444,Navarre Pier,0.75,0.0025,0.2927,31,29,"NIGHT_CLOUDY,NIGHT_CLEAR,NIGHT_MOSTLY_CLOUDY,CLEAR","Onshore,Onshore,Onshore,Onshore",4
5842041f4e65fad6a7708b04,2024_07_20,30.31482647791307,-87.26164,Pickens Point Dunes,1,0.065,0.37,31.25,31.25,"NIGHT_OVERCAST,NIGHT_MOSTLY_CLOUDY,NIGHT_CLEAR,CLEAR","Onshore,Onshore,Onshore,Onshore",4
5842041f4e65fad6a7708b05,2024_07_20,30.32632110836516,-87.16019503253068,Slabs,1,0.0725,0.375,32,32,"NIGHT_CLOUDY,NIGHT_CLEAR,NIGHT_CLEAR,CLEAR","Onshore,Onshore,Onshore,Onshore",4
5842041f4e65fad6a7708b06,2024_07_20,30.32739721382043,-87.30406515493348,Pickens Point,1,0.0625,0.365,31.25,31.25,"NIGHT_OVERCAST,NIGHT_MOSTLY_CLOUDY,NIGHT_MOSTLY_CLEAR,CLEAR","Onshore,Onshore,Onshore,Cross-shore",4
5842041f4e65fad6a7708b07,2024_07_20,30.27406893266753,-87.54367,Bungalows,1,0.04,0.3475,31.25,31.25,"NIGHT_CLEAR,NIGHT_CLEAR,NIGHT_CLEAR,CLEAR","Onshore,Onshore,Onshore,Onshore",4
5842041f4e65fad6a7708b08,2024_07_20,27.99627311846992,-82.82942,880,0,0.0398125,0.062205,31,31,"NIGHT_CLEAR,NIGHT_CLEAR,NIGHT_CLEAR,CLEAR","Offshore,Offshore,Offshore,Onshore",4
5842041f4e65fad6a7708b09,2024_07_20,27.97779860371595,-82.83246509090527,Pier 60,0,0,0.065,31,31,"NIGHT_CLEAR,NIGHT_CLEAR,NIGHT_CLEAR,CLEAR","Offshore,Offshore,Offshore,Onshore",4
5842041f4e65fad6a7708b0a,2024_07_20,27.96296387618043,-82.8332635965418,Sand Key,0,0,0.0625,31,31,"NIGHT_CLEAR,NIGHT_CLEAR,NIGHT_CLEAR,CLEAR","Offshore,Offshore,Offshore,Onshore",4
5842041f4e65fad6a7708b0b,2024_07_20,27.92492619212885,-82.8449122845279,Belleair,0,0,0.0625,31,31,"NIGHT_CLEAR,NIGHT_CLEAR,NIGHT_CLEAR,CLEAR","Offshore,Offshore,Offshore,Onshore",4
5842041f4e65fad6a7708b0c,2024_07_20,27.882,-82.854,Indian Rocks Beach,0,0,0.07,31,31,"NIGHT_CLEAR,NIGHT_CLEAR,NIGHT_CLEAR,CLEAR","Offshore,Offshore,Offshore,Onshore",4
5842041f4e65fad6a7708b0d,2024_07_20,27.83106104966094,-82.83550218771384,Redington Breakwater,0,0,0.0625,31,31,"NIGHT_CLEAR,NIGHT_CLEAR,NIGHT_CLEAR,CLEAR","Offshore,Offshore,Offshore,Onshore",4
5842041f4e65fad6a7708b0e,2024_07_20,27.74369029906206,-82.76053473435867,Middle Jetty,0,0,0.0625,31,31,"NIGHT_CLEAR,NIGHT_CLEAR,NIGHT_CLEAR,CLEAR","Offshore,Offshore,Offshore,Onshore",4
5842041f4e65fad6a7708b0f,2024_07_20,27.82174178852146,-82.83148664631841,Redington Pier,0,0,0.0625,31,31,"NIGHT_CLEAR,NIGHT_CLEAR,NIGHT_CLEAR,CLEAR","Offshore,Offshore,Offshore,Onshore",4
5842041f4e65fad6a7708b10,2024_07_20,27.31496308261514,-82.5830466912004,Lido Beach,0,0,0.0675,31,31,"NIGHT_CLEAR,NIGHT_CLEAR,NIGHT_CLEAR,CLEAR","Offshore,Offshore,Offshore,Onshore",4
5842041f4e65fad6a7708b11,2024_07_20,27.31122010159892,-82.57833234007632,Coolidge,0,0,0.06,31,31,"NIGHT_CLEAR,NIGHT_CLEAR,NIGHT_CLEAR,CLEAR","Offshore,Offshore,Offshore,Onshore",4
5842041f4e65fad6a7708b12,2024_07_20,27.26471672017615,-82.55464835167173,Siesta Key,0,0,0.0251,32,31,"NIGHT_MIST,NIGHT_CLEAR,NIGHT_CLEAR,CLEAR","Offshore,Offshore,Offshore,Onshore",4
5842041f4e65fad6a7708b13,2024_07_20,27.24638693488133,-82.53809115716797,Stickney Point,0,0,0.06,31,31,"NIGHT_CLEAR,NIGHT_CLEAR,NIGHT_CLEAR,CLEAR","Offshore,Offshore,Cross-shore,Onshore",4
5842041f4e65fad6a7708b14,2024_07_20,27.21907878229092,-82.51813937562073,Turtles,0,0,0.055,31,31,"NIGHT_CLEAR,NIGHT_CLEAR,NIGHT_CLEAR,CLEAR","Offshore,Offshore,Offshore,Onshore",4
5842041f4e65fad6a7708b15,2024_07_20,27.11375765852028,-82.47039,Venice Jetties North,0,0,0.0321825,32,31,"NIGHT_CLEAR,NIGHT_CLEAR,NIGHT_CLEAR,CLEAR","Offshore,Offshore,Offshore,Onshore",4
5842041f4e65fad6a7708b16,2024_07_20,27.111485758834025,-82.46757,Venice Jetties South,0,0,0.0321825,32,31,"NIGHT_CLEAR,NIGHT_CLEAR,NIGHT_CLEAR,CLEAR","Offshore,Offshore,Offshore,Onshore",4
5842041f4e65fad6a7708b17,2024_07_20,27.07249378831575,-82.4530285256104,Venice Pier,0,0,0.0580175,32,31,"NIGHT_CLEAR,NIGHT_CLEAR,NIGHT_CLEAR,CLEAR","Offshore,Offshore,Offshore,Onshore",4
5842041f4e65fad6a7708b19,2024_07_20,27.49680446426314,-82.7140145455959,Holmes Beach Pier,0,0,0.07250000000000001,31.75,31.75,"NIGHT_CLEAR,NIGHT_CLEAR,NIGHT_MOSTLY_CLEAR,CLEAR","Offshore,Offshore,Offshore,Onshore",4
5842041f4e65fad6a7708b1a,2024_07_20,27.7390348493064,-82.75763,Sunset Beach,0,0,0.0625,31,31,"NIGHT_CLEAR,NIGHT_CLEAR,NIGHT_CLEAR,CLEAR","Offshore,Cross-shore,Cross-shore,Onshore",4
5842041f4e65fad6a7708b1b,2024_07_20,26.80347307599041,-82.28564775623539,Gasparilla Point,0,0,0.055,31,31,"NIGHT_CLEAR,NIGHT_CLEAR,NIGHT_CLEAR,CLEAR","Offshore,Offshore,Offshore,Onshore",4
5842041f4e65fad6a7708b1c,2024_07_20,27.45365831548911,-82.69609,Coquina Jetties,0,0,0.07250000000000001,31.75,31.75,"NIGHT_CLEAR,NIGHT_CLEAR,NIGHT_CLEAR,CLEAR","Offshore,Offshore,Offshore,Onshore",4
5842041f4e65fad6a7708b1d,2024_07_20,27.46077315206043,-82.69924,Twin Piers,0,0,0.0405175,32,31,"NIGHT_CLEAR,NIGHT_CLEAR,NIGHT_CLEAR,CLEAR","Offshore,Offshore,Offshore,Onshore",4
5842041f4e65fad6a7708b1e,2024_07_20,26.91007316019612,-82.35352,Englewood,0,0,0.01,31,31,"NIGHT_CLEAR,NIGHT_CLEAR,NIGHT_CLEAR,CLEAR","Offshore,Offshore,Offshore,Onshore",4
5842041f4e65fad6a7708b1f,2024_07_20,26.88221101560038,-82.3359828282636,Knight's Point,0,0,0.055,31,31,"NIGHT_CLEAR,NIGHT_CLEAR,NIGHT_CLEAR,CLEAR","Offshore,Offshore,Offshore,Onshore",4
5842041f4e65fad6a7708b20,2024_07_20,26.51219285784982,-82.1928203289264,Tween Waters,0,0,0.055,31,31,"NIGHT_CLEAR,NIGHT_CLEAR,NIGHT_CLEAR,CLEAR","Offshore,Offshore,Offshore,Cross-shore",4
5842041f4e65fad6a7708b21,2024_07_20,26.55130241615096,-82.20222762415648,Redfish Pass,0,0,0.055,31,31,"NIGHT_CLEAR,NIGHT_CLEAR,NIGHT_CLEAR,CLEAR","Offshore,Offshore,Offshore,Onshore",4
5842041f4e65fad6a7708b22,2024_07_20,26.71713432926596,-82.26287777058234,Boca Grande,0,0,0.055,31,31,"NIGHT_CLEAR,NIGHT_CLEAR,NIGHT_CLEAR,CLEAR","Offshore,Offshore,Offshore,Onshore",4
5842041f4e65fad6a7708b23,2024_07_20,26.47856785808584,-82.181288592828,Blind Pass,0,0,0.0575,31,31,"NIGHT_CLEAR,NIGHT_CLEAR,NIGHT_CLEAR,CLEAR","Offshore,Offshore,Offshore,Cross-shore",4
5842041f4e65fad6a7708b24,2024_07_20,26.25358330618783,-81.82429246081317,The Wall,0,0,0.045,31,31,"NIGHT_CLEAR,NIGHT_CLEAR,NIGHT_CLEAR,CLEAR","Offshore,Offshore,Offshore,Offshore",4
5842041f4e65fad6a7708b25,2024_07_20,26.17456407516186,-81.81588575623482,Doctor's Pass,0,0,0.045,31,31,"NIGHT_CLEAR,NIGHT_CLEAR,NIGHT_CLEAR,CLEAR","Offshore,Offshore,Offshore,Offshore",4
5842041f4e65fad6a7708b26,2024_07_20,27.427134501874612,-82.68110766159296,Whitney Beach,0,0,0.07,31,31,"NIGHT_CLEAR,NIGHT_CLEAR,NIGHT_CLEAR,CLEAR","Offshore,Offshore,Offshore,Onshore",4
5842041f4e65fad6a7708b27,2024_07_20,26.17300183052463,-81.81515842430267,Doctor's Pass (South Jetty),0,0,0.05,31,31,"NIGHT_CLEAR,NIGHT_CLEAR,NIGHT_CLEAR,CLEAR","Offshore,Offshore,Offshore,Offshore",4
5842041f4e65fad6a7708b28,2024_07_20,27.73496421495629,-82.75268962468695,Upham Beach Park,0,0,0.0625,31,31,"NIGHT_CLEAR,NIGHT_CLEAR,NIGHT_CLEAR,CLEAR","Offshore,Offshore,Offshore,Onshore",4
5842041f4e65fad6a7708b29,2024_07_20,26.13144856766723,-81.8090395116521,Naples Pier,0,0,0.0475,31,31,"NIGHT_MIST,NIGHT_MIST,NIGHT_MIST,CLEAR","Offshore,Offshore,Offshore,Offshore",4
