_id,date,lat,lon,name,daily_mean_swell_rating,daily_mean_wave_height_min,daily_mean_wave_height_max,daily_mean_water_temperature_max,daily_mean_water_temperature_min,weather_per_timestamp,wind_per_timestamp,n_samples_per_day
5842041f4e65fad6a77087f9,2024_04_16,37.741668,-122.51038,South Ocean Beach,2.3636363636363638,1.1674212121212122,1.5195787878787879,14,14,"NIGHT_BRIEF_SHOWERS_POSSIBLE,NIGHT_BRIEF_SHOWERS_POSSIBLE,NIGHT_MIST,NIGHT_MIST,NIGHT_MIST,NIGHT_MIST,NIGHT_CLEAR,CLEAR,MIST,MIST,CLEAR","Onshore,Onshore,Onshore,Onshore,Offshore,Offshore,Cross-shore,Cross-shore,Cross-shore,Onshore,Onshore",11
5842041f4e65fad6a7708801,2024_04_16,37.49142,-122.50428,Maverick's,NA,1.0420454545454545,1.2977121212121212,13,13,"NIGHT_BRIEF_SHOWERS,NIGHT_BRIEF_SHOWERS,NIGHT_MIST,NIGHT_MIST,NIGHT_MIST,NIGHT_MIST,NIGHT_CLEAR,CLEAR,MOSTLY_CLOUDY,MOSTLY_CLOUDY,MOSTLY_CLOUDY","Offshore,Cross-shore,Offshore,Offshore,Offshore,Cross-shore,Cross-shore,Cross-shore,Cross-shore,Offshore,Cross-shore",11
5842041f4e65fad6a7708804,2024_04_16,44.997,-124.018,Roads End,2.6363636363636362,1.4454545454545455,1.7263636363636363,11,11,"NIGHT_MOSTLY_CLOUDY,NIGHT_MOSTLY_CLOUDY,NIGHT_MOSTLY_CLOUDY,NIGHT_CLEAR,NIGHT_MOSTLY_CLOUDY,NIGHT_MOSTLY_CLOUDY,NIGHT_LIGHT_SHOWERS,CLOUDY,MOSTLY_CLEAR,MOSTLY_CLEAR,BRIEF_SHOWERS","Cross-shore,Cross-shore,Onshore,Cross-shore,Cross-shore,Cross-shore,Cross-shore,Cross-shore,Cross-shore,Cross-shore,Cross-shore",11
5842041f4e65fad6a7708805,2024_04_16,36.95188851423011,-122.02522,Steamer Lane,3,0.937030303030303,1.2217787878787878,14,14,"NIGHT_MIST,NIGHT_MIST,NIGHT_MOSTLY_CLEAR,NIGHT_MOSTLY_CLEAR,NIGHT_MOSTLY_CLEAR,NIGHT_MIST,NIGHT_CLEAR,CLEAR,MOSTLY_CLOUDY,CLEAR,CLEAR","Onshore,Cross-shore,Cross-shore,Cross-shore,Offshore,Offshore,Offshore,Offshore,Offshore,Onshore,Onshore",11
5842041f4e65fad6a7708806,2024_04_16,36.95918781542251,-122.02489,Cowells,1.3636363636363635,9.090909090909091e-4,0.2505,14,14,"NIGHT_MIST,NIGHT_MIST,NIGHT_MOSTLY_CLEAR,NIGHT_MOSTLY_CLEAR,NIGHT_MOSTLY_CLEAR,NIGHT_MIST,NIGHT_CLEAR,CLEAR,MOSTLY_CLOUDY,CLEAR,CLEAR","Onshore,Onshore,Cross-shore,Cross-shore,Offshore,Offshore,Cross-shore,Cross-shore,Offshore,Onshore,Offshore",11
5842041f4e65fad6a7708807,2024_04_16,36.95468082526536,-121.97234,Pleasure Point,3,0.9549515151515151,1.2434666666666667,14,14,"NIGHT_CLEAR,NIGHT_CLEAR,NIGHT_CLEAR,NIGHT_MOSTLY_CLEAR,NIGHT_MOSTLY_CLEAR,NIGHT_CLEAR,NIGHT_CLEAR,CLEAR,MOSTLY_CLOUDY,CLEAR,CLEAR","Offshore,Onshore,Cross-shore,Offshore,Cross-shore,Onshore,Cross-shore,Cross-shore,Offshore,Cross-shore,Onshore",11
5842041f4e65fad6a770880a,2024_04_16,35.37815414378748,-120.86589,Morro Bay,3,0.7113363636363637,1.0441909090909092,12,12,"NIGHT_CLEAR,NIGHT_MIST,NIGHT_MIST,NIGHT_MIST,NIGHT_CLEAR,NIGHT_CLEAR,NIGHT_CLEAR,CLEAR,CLEAR,CLEAR,CLEAR","Offshore,Offshore,Offshore,Cross-shore,Cross-shore,Onshore,Offshore,Cross-shore,Cross-shore,Cross-shore,Offshore",11
5842041f4e65fad6a770880b,2024_04_16,36.95782765000708,-121.96729,Jack's,2.6363636363636362,0.38565151515151513,0.691,14,14,"NIGHT_CLEAR,NIGHT_CLEAR,NIGHT_CLEAR,NIGHT_MOSTLY_CLEAR,NIGHT_MOSTLY_CLEAR,NIGHT_CLEAR,NIGHT_CLEAR,CLEAR,MOSTLY_CLOUDY,CLEAR,CLEAR","Onshore,Onshore,Onshore,Offshore,Offshore,Onshore,Cross-shore,Cross-shore,Onshore,Cross-shore,Cross-shore",11
5842041f4e65fad6a770880d,2024_04_16,34.29982939936656,-119.3489016603669,Gold Coast Beachbreaks,3,0.4318181818181818,0.7381818181818182,13,13,"NIGHT_CLEAR,NIGHT_CLEAR,NIGHT_CLEAR,NIGHT_CLEAR,NIGHT_CLEAR,NIGHT_CLEAR,NIGHT_CLEAR,CLEAR,CLEAR,CLEAR,CLEAR","Onshore,Cross-shore,Cross-shore,Cross-shore,Cross-shore,Cross-shore,Cross-shore,Cross-shore,Cross-shore,Onshore,Onshore",11
5842041f4e65fad6a7708811,2024_04_16,34.245076,-119.26799,Ventura Harbor,3,0.9562348484848485,1.238423484848485,13,13,"NIGHT_MOSTLY_CLEAR,NIGHT_MIST,NIGHT_CLEAR,NIGHT_CLEAR,NIGHT_CLEAR,NIGHT_CLEAR,NIGHT_CLEAR,CLEAR,CLEAR,CLEAR,CLEAR","Cross-shore,Cross-shore,Offshore,Offshore,Offshore,Onshore,Cross-shore,Cross-shore,Offshore,Offshore,Offshore",11
5842041f4e65fad6a7708813,2024_04_16,34.051,-118.964,County Line,2.727272727272727,0.6965969696969697,1.0218666666666667,14,14,"NIGHT_CLEAR,NIGHT_MIST,NIGHT_MIST,NIGHT_CLEAR,NIGHT_CLEAR,NIGHT_CLEAR,NIGHT_CLEAR,CLEAR,CLEAR,CLEAR,CLEAR","Onshore,Offshore,Offshore,Offshore,Offshore,Offshore,Offshore,Offshore,Cross-shore,Onshore,Onshore",11
5842041f4e65fad6a7708814,2024_04_16,34.37256264378892,-119.47797,Rincon,2.3636363636363638,0.27545454545454545,0.58,13,13,"NIGHT_MIST,NIGHT_CLEAR,NIGHT_CLEAR,NIGHT_CLEAR,NIGHT_CLEAR,NIGHT_CLEAR,NIGHT_CLEAR,CLEAR,CLEAR,CLEAR,CLEAR","Onshore,Cross-shore,Cross-shore,Cross-shore,Cross-shore,Offshore,Cross-shore,Offshore,Offshore,Onshore,Onshore",11
5842041f4e65fad6a7708817,2024_04_16,34.03096101876324,-118.68109,Malibu Third Point,3,0.9554545454545454,1.1554545454545455,13.545454545454545,13.545454545454545,"NIGHT_CLEAR,NIGHT_CLEAR,NIGHT_MIST,NIGHT_CLEAR,NIGHT_MIST,NIGHT_MIST,NIGHT_CLEAR,CLEAR,CLEAR,CLEAR,MOSTLY_CLEAR","Onshore,Cross-shore,Cross-shore,Cross-shore,Cross-shore,Cross-shore,Offshore,Offshore,Offshore,Cross-shore,Onshore",11
5842041f4e65fad6a7708819,2024_04_16,33.984079047970035,-118.47382,Venice Beach,3,0.8018787878787879,1.1580454545454546,14,14,"NIGHT_MOSTLY_CLOUDY,NIGHT_MOSTLY_CLOUDY,NIGHT_MOSTLY_CLOUDY,NIGHT_MIST,NIGHT_MIST,NIGHT_MIST,NIGHT_CLEAR,CLEAR,CLEAR,CLEAR,CLEAR","Cross-shore,Offshore,Offshore,Cross-shore,Cross-shore,Cross-shore,Cross-shore,Cross-shore,Cross-shore,Cross-shore,Cross-shore",11
5842041f4e65fad6a770881e,2024_04_16,34.037508438646746,-118.5834,Topanga Beach,3,0.5484151515151515,0.8552363636363636,14,14,"NIGHT_MOSTLY_CLEAR,NIGHT_MOSTLY_CLOUDY,NIGHT_MIST,NIGHT_CLEAR,NIGHT_CLEAR,NIGHT_CLEAR,NIGHT_CLEAR,CLEAR,CLEAR,CLEAR,CLEAR","Offshore,Cross-shore,Offshore,Offshore,Offshore,Offshore,Offshore,Offshore,Onshore,Onshore,Cross-shore",11
5842041f4e65fad6a7708820,2024_04_16,33.73954373690184,-118.11414,Seal Beach Jetty,3,0.35363636363636364,0.66,14,14,"NIGHT_CLEAR,NIGHT_CLEAR,NIGHT_CLEAR,NIGHT_CLEAR,NIGHT_CLOUDY,NIGHT_CLOUDY,NIGHT_CLEAR,CLEAR,CLEAR,CLEAR,CLEAR","Offshore,Cross-shore,Cross-shore,Onshore,Cross-shore,Offshore,Cross-shore,Offshore,Offshore,Cross-shore,Offshore",11
5842041f4e65fad6a7708822,2024_04_16,33.72309983348433,-118.08078,Anderson Street,2,0.3532727272727273,0.6606454545454545,14,14,"NIGHT_CLEAR,NIGHT_CLEAR,NIGHT_CLEAR,NIGHT_CLEAR,NIGHT_CLEAR,NIGHT_CLOUDY,NIGHT_CLEAR,CLEAR,CLEAR,CLEAR,CLEAR","Offshore,Offshore,Offshore,Cross-shore,Cross-shore,Offshore,Cross-shore,Offshore,Offshore,Cross-shore,Offshore",11
5842041f4e65fad6a7708827,2024_04_16,33.65574085629463,-118.00397,Huntington Beach Pier Northside,3,0.978469696969697,1.2549333333333335,14,14,"NIGHT_MIST,NIGHT_MIST,NIGHT_CLEAR,NIGHT_CLEAR,NIGHT_CLOUDY,NIGHT_CLOUDY,NIGHT_CLEAR,CLEAR,CLEAR,CLEAR,CLEAR","Onshore,Offshore,Onshore,Cross-shore,Cross-shore,Offshore,Cross-shore,Cross-shore,Offshore,Onshore,Onshore",11
5842041f4e65fad6a7708828,2024_04_16,34.272041739333,-119.29976,C St.,2.9245454545454543,0.5794,0.8837969696969697,13,13,"NIGHT_MIST,NIGHT_CLEAR,NIGHT_CLEAR,NIGHT_CLEAR,NIGHT_CLEAR,NIGHT_CLEAR,NIGHT_CLEAR,CLEAR,CLEAR,CLEAR,CLEAR","Cross-shore,Offshore,Offshore,Offshore,Offshore,Offshore,Offshore,Offshore,Offshore,Offshore,Onshore",11
5842041f4e65fad6a770882a,2024_04_16,33.61555743705257,-117.93676,Newport Lower Jetties,2.6363636363636362,0.4515181818181818,0.7533818181818182,15,15,"NIGHT_MIST,NIGHT_CLEAR,NIGHT_CLEAR,NIGHT_CLEAR,NIGHT_CLOUDY,NIGHT_OVERCAST,NIGHT_CLEAR,CLEAR,MOSTLY_CLOUDY,CLEAR,CLEAR","Cross-shore,Cross-shore,Cross-shore,Cross-shore,Offshore,Offshore,Offshore,Offshore,Offshore,Cross-shore,Onshore",11
5842041f4e65fad6a770882b,2024_04_16,33.5930302087,-117.88199,The Wedge,2.8181818181818183,1.4091779545454546,1.8639490909090908,15,15,"NIGHT_MIST,NIGHT_MOSTLY_CLOUDY,NIGHT_MOSTLY_CLOUDY,NIGHT_MOSTLY_CLOUDY,NIGHT_OVERCAST,NIGHT_OVERCAST,NIGHT_CLEAR,CLEAR,MOSTLY_CLOUDY,MOSTLY_CLOUDY,CLEAR","Offshore,Offshore,Offshore,Offshore,Offshore,Offshore,Offshore,Offshore,Offshore,Offshore,Offshore",11
5842041f4e65fad6a770882c,2024_04_16,33.60577342582,-117.9315376281,Newport Beach Pier,2.272727272727273,0.39742727272727274,0.7027,15,15,"NIGHT_MOSTLY_CLOUDY,NIGHT_MIST,NIGHT_MOSTLY_CLOUDY,NIGHT_OVERCAST,NIGHT_OVERCAST,NIGHT_OVERCAST,NIGHT_CLEAR,CLEAR,MIST,MIST,MIST","Cross-shore,Cross-shore,Cross-shore,Offshore,Offshore,Offshore,Onshore,Offshore,Onshore,Onshore,Onshore",11
5842041f4e65fad6a770882e,2024_04_16,33.475793399792984,-117.72291,Salt Creek,3.272727272727273,0.8765,1.183369696969697,14,14,"NIGHT_CLEAR,NIGHT_CLEAR,NIGHT_CLEAR,NIGHT_CLEAR,NIGHT_MOSTLY_CLOUDY,NIGHT_MOSTLY_CLOUDY,NIGHT_CLEAR,CLEAR,MOSTLY_CLOUDY,MIST,BRIEF_SHOWERS_POSSIBLE","Cross-shore,Cross-shore,Cross-shore,Offshore,Offshore,Offshore,Onshore,Cross-shore,Offshore,Onshore,Onshore",11
5842041f4e65fad6a7708830,2024_04_16,33.41800974113613,-117.61952,T-Street,3,0.672060606060606,1.0279242424242425,16,16,"NIGHT_CLEAR,NIGHT_CLEAR,NIGHT_CLEAR,NIGHT_MOSTLY_CLOUDY,NIGHT_MOSTLY_CLOUDY,NIGHT_MOSTLY_CLOUDY,NIGHT_CLEAR,CLEAR,CLEAR,MIST,BRIEF_SHOWERS","Cross-shore,Offshore,Cross-shore,Offshore,Cross-shore,Cross-shore,Offshore,Offshore,Onshore,Onshore,Onshore",11
5842041f4e65fad6a7708832,2024_04_16,33.202391008646,-117.39475,Oceanside Harbor,3,0.808021212121212,1.1645696969696968,14,14,"NIGHT_MOSTLY_CLOUDY,NIGHT_MOSTLY_CLOUDY,NIGHT_MIST,NIGHT_BRIEF_SHOWERS,NIGHT_BRIEF_SHOWERS,NIGHT_MOSTLY_CLOUDY,NIGHT_CLEAR,CLEAR,MIST,CLEAR,BRIEF_SHOWERS","Cross-shore,Offshore,Offshore,Offshore,Offshore,Offshore,Onshore,Offshore,Onshore,Onshore,Onshore",11
5842041f4e65fad6a7708835,2024_04_16,33.19477795952803,-117.38667,Oceanside Pier,2.94,0.7280212121212121,1.0321848484848486,14,14,"NIGHT_MOSTLY_CLOUDY,NIGHT_MOSTLY_CLOUDY,NIGHT_BRIEF_SHOWERS,NIGHT_MIST,NIGHT_MIST,NIGHT_MOSTLY_CLOUDY,NIGHT_CLEAR,CLEAR,MOSTLY_CLEAR,CLEAR,CLEAR","Onshore,Cross-shore,Cross-shore,Offshore,Offshore,Offshore,Onshore,Offshore,Onshore,Onshore,Onshore",11
5842041f4e65fad6a7708837,2024_04_16,33.14948100706,-117.35029,Tamarack,3,1.06,1.2754545454545454,15,15,"NIGHT_MIST,NIGHT_MOSTLY_CLOUDY,NIGHT_OVERCAST,NIGHT_MIST,NIGHT_MIST,NIGHT_OVERCAST,NIGHT_CLEAR,CLEAR,MOSTLY_CLOUDY,CLEAR,CLEAR","Cross-shore,Offshore,Offshore,Offshore,Offshore,Offshore,Offshore,Offshore,Offshore,Onshore,Onshore",11
5842041f4e65fad6a7708839,2024_04_16,32.865777159358856,-117.25614,Scripps,2.8336363636363635,0.7311151515151515,1.0492484848484849,16,16,"NIGHT_MIST,NIGHT_OVERCAST,NIGHT_OVERCAST,NIGHT_MOSTLY_CLOUDY,NIGHT_MOSTLY_CLOUDY,NIGHT_MOSTLY_CLOUDY,NIGHT_CLEAR,CLEAR,MOSTLY_CLOUDY,CLEAR,MIST","Onshore,Onshore,Cross-shore,Cross-shore,Onshore,Cross-shore,Onshore,Onshore,Cross-shore,Onshore,Onshore",11
5842041f4e65fad6a770883a,2024_04_16,32.813094,-117.27381,Birdrock,3,0.6745454545454546,0.9790909090909091,15,15,"NIGHT_OVERCAST,NIGHT_OVERCAST,NIGHT_OVERCAST,NIGHT_MOSTLY_CLOUDY,NIGHT_MOSTLY_CLOUDY,NIGHT_MOSTLY_CLOUDY,NIGHT_CLEAR,CLEAR,MOSTLY_CLOUDY,CLEAR,CLEAR","Offshore,Offshore,Offshore,Offshore,Offshore,Offshore,Offshore,Offshore,Cross-shore,Onshore,Cross-shore",11
5842041f4e65fad6a770883b,2024_04_16,32.877231,-117.25303,Blacks,2.909090909090909,0.9981727272727273,1.3090696969696969,16,16,"NIGHT_MIST,NIGHT_OVERCAST,NIGHT_OVERCAST,NIGHT_MOSTLY_CLOUDY,NIGHT_MOSTLY_CLOUDY,NIGHT_MOSTLY_CLOUDY,NIGHT_CLEAR,CLEAR,MOSTLY_CLOUDY,CLEAR,MIST","Onshore,Onshore,Onshore,Onshore,Cross-shore,Offshore,Cross-shore,Offshore,Onshore,Onshore,Onshore",11
5842041f4e65fad6a770883c,2024_04_16,32.82978974229765,-117.28162,Windansea,2.909090909090909,0.9390818181818182,1.2825545454545455,15,15,"NIGHT_OVERCAST,NIGHT_OVERCAST,NIGHT_MIST,NIGHT_MIST,NIGHT_MOSTLY_CLOUDY,NIGHT_MOSTLY_CLOUDY,NIGHT_CLEAR,CLEAR,MOSTLY_CLOUDY,CLEAR,CLEAR","Cross-shore,Cross-shore,Cross-shore,Cross-shore,Cross-shore,Cross-shore,Cross-shore,Cross-shore,Cross-shore,Onshore,Onshore",11
5842041f4e65fad6a770883d,2024_04_16,32.838278,-117.28396,Horseshoe,3,0.8654545454545455,1.1354545454545455,15,15,"NIGHT_OVERCAST,NIGHT_OVERCAST,NIGHT_MIST,NIGHT_MIST,NIGHT_MOSTLY_CLOUDY,NIGHT_MOSTLY_CLOUDY,NIGHT_CLEAR,CLEAR,MOSTLY_CLOUDY,CLEAR,CLEAR","Cross-shore,Cross-shore,Offshore,Cross-shore,Cross-shore,Cross-shore,Cross-shore,Cross-shore,Cross-shore,Onshore,Onshore",11
5842041f4e65fad6a770883f,2024_04_16,32.75034717673179,-117.25337,Ocean Beach,2.6363636363636362,0.8865818181818181,1.1789121212121212,15,15,"NIGHT_MIST,NIGHT_MIST,NIGHT_MIST,NIGHT_MIST,NIGHT_MOSTLY_CLOUDY,NIGHT_CLOUDY,NIGHT_CLEAR,CLEAR,MOSTLY_CLOUDY,CLEAR,MIST","Onshore,Cross-shore,Onshore,Cross-shore,Cross-shore,Offshore,Offshore,Offshore,Cross-shore,Onshore,Onshore",11
5842041f4e65fad6a7708840,2024_04_16,32.73693,-117.25718,Sunset Cliffs,2.090909090909091,0.7545454545454545,1.0245454545454546,15,15,"NIGHT_MIST,NIGHT_MIST,NIGHT_MIST,NIGHT_MIST,NIGHT_MIST,NIGHT_OVERCAST,NIGHT_CLEAR,CLEAR,MOSTLY_CLOUDY,CLEAR,CLEAR","Onshore,Cross-shore,Onshore,Cross-shore,Cross-shore,Offshore,Cross-shore,Offshore,Cross-shore,Onshore,Onshore",11
5842041f4e65fad6a7708841,2024_04_16,32.796582258728826,-117.25779,Pacific Beach,2.9245454545454543,0.7424787878787878,1.1075878787878788,15,15,"NIGHT_MIST,NIGHT_MIST,NIGHT_MIST,NIGHT_MIST,NIGHT_MIST,NIGHT_MOSTLY_CLOUDY,NIGHT_CLEAR,CLEAR,MOSTLY_CLOUDY,CLEAR,MOSTLY_CLEAR","Offshore,Offshore,Offshore,Offshore,Offshore,Offshore,Offshore,Offshore,Offshore,Cross-shore,Cross-shore",11
5842041f4e65fad6a7708842,2024_04_16,32.776636,-117.25514,Mission Beach,2.9245454545454543,0.8116454545454546,1.143269696969697,15,15,"NIGHT_MIST,NIGHT_MIST,NIGHT_MIST,NIGHT_MIST,NIGHT_MIST,NIGHT_MOSTLY_CLOUDY,NIGHT_CLEAR,CLEAR,MOSTLY_CLOUDY,CLEAR,MOSTLY_CLEAR","Cross-shore,Offshore,Offshore,Offshore,Offshore,Offshore,Offshore,Offshore,Offshore,Cross-shore,Onshore",11
5842041f4e65fad6a7708844,2024_04_16,32.577195519016,-117.13475,Imperial Beach Pier,2.909090909090909,0.8190909090909091,1.0781818181818181,15,15,"NIGHT_MIST,NIGHT_MIST,NIGHT_MIST,NIGHT_MOSTLY_CLOUDY,NIGHT_MOSTLY_CLOUDY,NIGHT_MOSTLY_CLOUDY,NIGHT_CLEAR,CLEAR,CLEAR,CLEAR,CLEAR","Onshore,Cross-shore,Cross-shore,Cross-shore,Onshore,Onshore,Cross-shore,Cross-shore,Onshore,Onshore,Onshore",11
5842041f4e65fad6a770884a,2024_04_16,42.88678181061,-70.80843,Seabrook,2.53,0.5976549242424243,0.9168067424242424,6,4,"NIGHT_CLEAR,NIGHT_CLEAR,NIGHT_CLEAR,NIGHT_CLEAR,CLEAR,CLEAR,CLEAR,CLEAR,CLEAR,CLEAR,CLEAR","Offshore,Offshore,Offshore,Offshore,Offshore,Offshore,Offshore,Offshore,Offshore,Offshore,Offshore",11
5842041f4e65fad6a770884e,2024_04_16,41.434181432898335,-71.45312,Narragansett,2.8636363636363638,0.5555787878787879,0.8617393939393939,9,8,"NIGHT_CLEAR,NIGHT_CLEAR,NIGHT_CLEAR,NIGHT_CLEAR,NIGHT_CLEAR,CLEAR,CLEAR,CLEAR,CLEAR,CLEAR,CLEAR","Offshore,Offshore,Offshore,Offshore,Offshore,Offshore,Offshore,Offshore,Offshore,Offshore,Offshore",11
5842041f4e65fad6a7708850,2024_04_16,40.582703230722,-73.65247,Lincoln Blvd,1.94,0.6024909090909091,0.9068424242424242,9,7,"NIGHT_CLEAR,NIGHT_CLEAR,NIGHT_CLEAR,NIGHT_CLEAR,NIGHT_CLEAR,CLEAR,CLEAR,CLEAR,CLEAR,CLEAR,CLEAR","Cross-shore,Offshore,Offshore,Offshore,Offshore,Offshore,Offshore,Offshore,Cross-shore,Offshore,Offshore",11
5842041f4e65fad6a7708852,2024_04_16,40.58342841721757,-73.81182,Rockaways,2.788181818181818,0.5914303030303031,0.9578818181818182,9,7,"NIGHT_CLEAR,NIGHT_CLEAR,NIGHT_CLEAR,NIGHT_CLEAR,NIGHT_CLEAR,CLEAR,CLEAR,CLEAR,CLEAR,CLEAR,CLEAR","Offshore,Offshore,Offshore,Offshore,Offshore,Offshore,Offshore,Offshore,Offshore,Offshore,Offshore",11
5842041f4e65fad6a7708853,2024_04_16,40.330474,-73.9734,Monmouth Beach,2.2427272727272727,0.43776060606060607,0.7402181818181818,10,8,"NIGHT_CLEAR,NIGHT_CLEAR,NIGHT_CLEAR,NIGHT_CLEAR,NIGHT_CLEAR,CLEAR,CLEAR,CLEAR,CLEAR,CLEAR,CLEAR","Offshore,Offshore,Offshore,Offshore,Offshore,Offshore,Cross-shore,Cross-shore,Offshore,Offshore,Offshore",11
5842041f4e65fad6a7708856,2024_04_16,40.113,-74.028,Manasquan Inlet,2.7181818181818183,0.6015393939393939,0.9041272727272727,10,8,"NIGHT_MOSTLY_CLEAR,NIGHT_CLEAR,NIGHT_CLEAR,NIGHT_CLEAR,NIGHT_CLEAR,CLEAR,CLEAR,CLEAR,CLEAR,CLEAR,CLEAR","Cross-shore,Cross-shore,Offshore,Offshore,Offshore,Offshore,Offshore,Cross-shore,Offshore,Cross-shore,Onshore",11
5842041f4e65fad6a7708857,2024_04_16,39.941519877445664,-74.06829,Casino Pier,2.8327272727272725,0.5768545454545455,0.9543060606060606,10,8,"NIGHT_MOSTLY_CLEAR,NIGHT_MOSTLY_CLEAR,NIGHT_CLEAR,NIGHT_CLEAR,NIGHT_CLEAR,CLEAR,CLEAR,CLEAR,CLEAR,CLEAR,CLEAR","Cross-shore,Cross-shore,Offshore,Offshore,Offshore,Offshore,Cross-shore,Cross-shore,Cross-shore,Offshore,Offshore",11
5842041f4e65fad6a7708858,2024_04_16,39.28223089949212,-74.55766,North End OC,2.439090909090909,0.5518090909090909,0.8534333333333334,10,8,"NIGHT_MOSTLY_CLOUDY,NIGHT_MOSTLY_CLEAR,NIGHT_CLEAR,NIGHT_CLEAR,NIGHT_CLEAR,CLEAR,CLEAR,CLEAR,CLEAR,CLEAR,CLEAR","Offshore,Cross-shore,Offshore,Offshore,Offshore,Offshore,Offshore,Offshore,Offshore,Cross-shore,Cross-shore",11
5842041f4e65fad6a770885b,2024_04_16,39.65080599934257,-74.17146,Ship Bottom,2.727272727272727,0.5851878787878788,0.9647606060606061,10,8,"NIGHT_CLEAR,NIGHT_CLEAR,NIGHT_CLEAR,NIGHT_CLEAR,NIGHT_CLEAR,CLEAR,CLEAR,CLEAR,CLEAR,CLEAR,CLEAR","Cross-shore,Offshore,Onshore,Cross-shore,Offshore,Offshore,Offshore,Cross-shore,Offshore,Offshore,Onshore",11
5842041f4e65fad6a7708863,2024_04_16,36.034151543144,-75.66791,Third Street,1.2727272727272727,0.1823878787878788,0.48770606060606064,12.272727272727273,9.636363636363637,"NIGHT_CLEAR,NIGHT_CLEAR,NIGHT_CLEAR,NIGHT_CLEAR,NIGHT_CLEAR,CLEAR,CLEAR,CLEAR,CLEAR,CLEAR,CLEAR","Offshore,Offshore,Cross-shore,Cross-shore,Onshore,Onshore,Onshore,Onshore,Onshore,Onshore,Onshore",11
5842041f4e65fad6a7708867,2024_04_16,35.605833221351425,-75.46303,S-Turns,1.6790909090909092,0.5484515151515151,0.8521848484848485,16,13.272727272727273,"NIGHT_CLEAR,NIGHT_CLEAR,NIGHT_CLEAR,NIGHT_CLEAR,NIGHT_CLEAR,CLEAR,CLEAR,CLEAR,CLEAR,CLEAR,CLEAR","Offshore,Offshore,Offshore,Offshore,Offshore,Offshore,Cross-shore,Onshore,Cross-shore,Onshore,Onshore",11
5842041f4e65fad6a770886d,2024_04_16,38.338461,-75.08117,Ocean City Boardwalk,1.7272727272727273,0.5384,0.8399484848484848,12,10,"NIGHT_CLEAR,NIGHT_MIST,NIGHT_CLEAR,NIGHT_CLEAR,NIGHT_CLEAR,MOSTLY_CLEAR,CLEAR,CLEAR,MIST,CLEAR,CLEAR","Cross-shore,Onshore,Onshore,Onshore,Onshore,Onshore,Onshore,Onshore,Onshore,Onshore,Onshore",11
5842041f4e65fad6a770886f,2024_04_16,29.844757212379562,-81.26136,A St.,1.6363636363636365,0.2781818181818182,0.5854545454545454,20,20,"NIGHT_CLEAR,NIGHT_CLEAR,NIGHT_CLEAR,NIGHT_CLEAR,NIGHT_CLEAR,CLEAR,CLEAR,CLEAR,CLEAR,CLEAR,CLEAR","Cross-shore,Offshore,Offshore,Cross-shore,Cross-shore,Cross-shore,Cross-shore,Onshore,Onshore,Onshore,Onshore",11
5842041f4e65fad6a7708871,2024_04_16,29.069417851135093,-80.90824,New Smyrna Beach,1.9336363636363636,0.5688636363636363,0.8726515151515152,22,20,"NIGHT_CLEAR,NIGHT_CLEAR,NIGHT_CLEAR,NIGHT_CLEAR,NIGHT_CLEAR,CLEAR,CLEAR,CLEAR,CLEAR,CLEAR,CLEAR","Cross-shore,Cross-shore,Cross-shore,Offshore,Cross-shore,Cross-shore,Offshore,Onshore,Onshore,Onshore,Onshore",11
5842041f4e65fad6a7708872,2024_04_16,28.367707417566,-80.60171,Cocoa Beach Pier,1.4545454545454546,0.3066787878787879,0.6069333333333333,24,23,"NIGHT_CLEAR,NIGHT_CLEAR,NIGHT_CLEAR,NIGHT_CLEAR,NIGHT_CLEAR,CLEAR,CLEAR,CLEAR,CLEAR,CLEAR,CLEAR","Onshore,Onshore,Onshore,Onshore,Onshore,Onshore,Onshore,Onshore,Onshore,Onshore,Onshore",11
5842041f4e65fad6a7708873,2024_04_16,28.091782738658846,-80.56479,Indialantic,1,0.27486363636363637,0.5777575757575758,24,23,"NIGHT_CLEAR,NIGHT_CLEAR,NIGHT_CLEAR,NIGHT_MOSTLY_CLEAR,NIGHT_MOSTLY_CLEAR,CLEAR,CLEAR,CLEAR,CLEAR,CLEAR,CLEAR","Onshore,Onshore,Onshore,Onshore,Onshore,Onshore,Onshore,Onshore,Onshore,Onshore,Onshore",11
5842041f4e65fad6a7708876,2024_04_16,27.25392904143517,-80.19455,Jensen Beach,0.7636363636363637,0.23657090909090914,0.5451587878787879,24,23,"NIGHT_MOSTLY_CLOUDY,NIGHT_MOSTLY_CLOUDY,NIGHT_CLEAR,NIGHT_MOSTLY_CLOUDY,NIGHT_MOSTLY_CLOUDY,MOSTLY_CLOUDY,CLEAR,CLEAR,MOSTLY_CLOUDY,CLEAR,CLEAR","Onshore,Onshore,Onshore,Onshore,Onshore,Onshore,Onshore,Onshore,Onshore,Onshore,Onshore",11
5842041f4e65fad6a7708879,2024_04_16,26.76346795333825,-80.0360655784607,Reef Road,0.2727272727272727,0.00683030303030303,0.3109636363636364,26,24,"NIGHT_MOSTLY_CLOUDY,NIGHT_OVERCAST,NIGHT_OVERCAST,NIGHT_OVERCAST,NIGHT_OVERCAST,BRIEF_SHOWERS,CLEAR,CLEAR,MOSTLY_CLOUDY,CLEAR,MOSTLY_CLEAR","Onshore,Onshore,Onshore,Onshore,Onshore,Onshore,Onshore,Onshore,Onshore,Onshore,Onshore",11
5842041f4e65fad6a770887c,2024_04_16,26.336499228484,-80.06956100463,Boca Raton Inlet,0.16636363636363635,0,0.28215454545454544,26,24,"NIGHT_MOSTLY_CLOUDY,NIGHT_MOSTLY_CLOUDY,NIGHT_CLOUDY,NIGHT_MOSTLY_CLOUDY,NIGHT_CLEAR,BRIEF_SHOWERS,CLEAR,CLEAR,MOSTLY_CLOUDY,CLEAR,CLEAR","Onshore,Onshore,Onshore,Onshore,Onshore,Onshore,Onshore,Onshore,Onshore,Onshore,Onshore",11
5842041f4e65fad6a770887d,2024_04_16,26.31719311695038,-80.07453,Deerfield Beach Pier,0.3090909090909091,0.004672969696969701,0.3081387272727273,26,24,"NIGHT_MOSTLY_CLOUDY,NIGHT_MOSTLY_CLOUDY,NIGHT_OVERCAST,NIGHT_MOSTLY_CLOUDY,NIGHT_MOSTLY_CLOUDY,MOSTLY_CLOUDY,CLEAR,CLEAR,MOSTLY_CLOUDY,CLEAR,MOSTLY_CLEAR","Onshore,Onshore,Onshore,Onshore,Onshore,Onshore,Onshore,Onshore,Onshore,Onshore,Onshore",11
5842041f4e65fad6a7708881,2024_04_16,30.20276320866628,-85.85626528676136,"Spyglass Dr., Panama City",0,0,0.18955636363636363,19,18,"NIGHT_MIST,NIGHT_CLEAR,NIGHT_CLEAR,NIGHT_CLEAR,NIGHT_OVERCAST,NIGHT_MIST,CLEAR,CLEAR,CLEAR,CLEAR,CLEAR","Onshore,Onshore,Onshore,Onshore,Cross-shore,Offshore,Cross-shore,Onshore,Cross-shore,Onshore,Onshore",11
5842041f4e65fad6a7708884,2024_04_16,33.39000832738053,-117.59852,Cottons,3.272727272727273,0.8918787878787878,1.2113787878787878,16,16,"NIGHT_CLEAR,NIGHT_MOSTLY_CLOUDY,NIGHT_MOSTLY_CLOUDY,NIGHT_MOSTLY_CLOUDY,NIGHT_MOSTLY_CLOUDY,NIGHT_MOSTLY_CLOUDY,NIGHT_CLEAR,CLEAR,MOSTLY_CLOUDY,CLEAR,CLEAR","Cross-shore,Offshore,Offshore,Cross-shore,Offshore,Offshore,Cross-shore,Cross-shore,Cross-shore,Cross-shore,Onshore",11
5842041f4e65fad6a7708885,2024_04_16,33.359416282661,-117.54167901405711,Trails,3,0.6127272727272728,0.9163636363636364,14.545454545454545,14.545454545454545,"NIGHT_MOSTLY_CLEAR,NIGHT_MOSTLY_CLOUDY,NIGHT_MIST,NIGHT_MIST,NIGHT_MOSTLY_CLOUDY,NIGHT_MOSTLY_CLOUDY,NIGHT_CLEAR,CLEAR,CLEAR,CLEAR,CLEAR","Offshore,Offshore,Offshore,Offshore,Cross-shore,Offshore,Offshore,Offshore,Onshore,Onshore,Onshore",11
5842041f4e65fad6a7708886,2024_04_16,33.38042605929805,-117.58332,Middles,3.272727272727273,1.044530303030303,1.3323030303030303,16,16,"NIGHT_CLEAR,NIGHT_MOSTLY_CLOUDY,NIGHT_MOSTLY_CLOUDY,NIGHT_MOSTLY_CLOUDY,NIGHT_MOSTLY_CLOUDY,NIGHT_MOSTLY_CLOUDY,NIGHT_CLEAR,CLEAR,MOSTLY_CLOUDY,CLEAR,CLEAR","Offshore,Offshore,Offshore,Offshore,Offshore,Offshore,Offshore,Offshore,Offshore,Cross-shore,Onshore",11
5842041f4e65fad6a7708887,2024_04_16,33.38445596302903,-117.59445,Upper Trestles,3.1663636363636365,0.8602878787878787,1.1885757575757576,16,16,"NIGHT_CLEAR,NIGHT_MOSTLY_CLOUDY,NIGHT_MOSTLY_CLOUDY,NIGHT_MOSTLY_CLOUDY,NIGHT_MOSTLY_CLOUDY,NIGHT_MOSTLY_CLOUDY,NIGHT_CLEAR,CLEAR,MOSTLY_CLOUDY,CLEAR,CLEAR","Offshore,Offshore,Offshore,Offshore,Offshore,Offshore,Offshore,Offshore,Offshore,Onshore,Onshore",11
5842041f4e65fad6a7708889,2024_04_16,28.944414,-95.28883,Surfside,1.0909090909090908,0.9458681818181818,1.4779172727272727,22,22,"NIGHT_MIST,NIGHT_DRIZZLE,NIGHT_MIST,NIGHT_MIST,NIGHT_DRIZZLE,NIGHT_DRIZZLE,CLOUDY,CLEAR,DRIZZLE,MIST,MIST","Onshore,Onshore,Onshore,Onshore,Onshore,Onshore,Onshore,Onshore,Onshore,Onshore,Onshore",11
5842041f4e65fad6a770888a,2024_04_16,33.38143999849023,-117.58843,Lower Trestles,3.2418181818181817,1.0834060606060607,1.3940151515151515,16,16,"NIGHT_CLEAR,NIGHT_MOSTLY_CLOUDY,NIGHT_MOSTLY_CLOUDY,NIGHT_MOSTLY_CLOUDY,NIGHT_MOSTLY_CLOUDY,NIGHT_MOSTLY_CLOUDY,NIGHT_CLEAR,CLEAR,MOSTLY_CLOUDY,CLEAR,CLEAR","Offshore,Offshore,Offshore,Offshore,Offshore,Offshore,Offshore,Offshore,Offshore,Onshore,Onshore",11
5842041f4e65fad6a770888b,2024_04_16,33.379622288757,-117.57894,Church,3.6963636363636363,1.1624848484848485,1.4270757575757576,16,16,"NIGHT_CLEAR,NIGHT_MOSTLY_CLOUDY,NIGHT_MOSTLY_CLOUDY,NIGHT_MOSTLY_CLOUDY,NIGHT_MOSTLY_CLOUDY,NIGHT_MOSTLY_CLOUDY,NIGHT_CLEAR,CLEAR,MOSTLY_CLOUDY,CLEAR,CLEAR","Cross-shore,Offshore,Offshore,Offshore,Offshore,Offshore,Offshore,Cross-shore,Cross-shore,Cross-shore,Onshore",11
5842041f4e65fad6a770888d,2024_04_16,21.679,-158.042,Sunset Beach,1.8181818181818181,2.980518181818182,3.4378,26,25,"NIGHT_CLEAR,NIGHT_CLEAR,NIGHT_CLEAR,NIGHT_MOSTLY_CLOUDY,NIGHT_SHOWERS,NIGHT_MOSTLY_CLEAR,NIGHT_BRIEF_SHOWERS,NIGHT_CLEAR,NIGHT_SHOWERS,NIGHT_MOSTLY_CLOUDY,MOSTLY_CLOUDY","Onshore,Onshore,Onshore,Onshore,Onshore,Onshore,Onshore,Onshore,Onshore,Onshore,Onshore",11
5842041f4e65fad6a770888e,2024_04_16,21.670550036401,-158.0482,Rocky Point,1.8181818181818181,2.806690909090909,3.288027272727273,26,25,"NIGHT_CLEAR,NIGHT_CLEAR,NIGHT_CLEAR,NIGHT_MOSTLY_CLEAR,NIGHT_MOSTLY_CLEAR,NIGHT_MOSTLY_CLEAR,NIGHT_BRIEF_SHOWERS,NIGHT_CLEAR,NIGHT_MOSTLY_CLEAR,NIGHT_MOSTLY_CLOUDY,SHOWERS","Onshore,Onshore,Onshore,Onshore,Onshore,Onshore,Onshore,Onshore,Onshore,Onshore,Onshore",11
5842041f4e65fad6a770888f,2024_04_16,21.668,-158.05,Chambers,1.9090909090909092,2.768181818181818,3.1563636363636363,25,25,"NIGHT_CLEAR,NIGHT_CLEAR,NIGHT_CLEAR,NIGHT_MOSTLY_CLEAR,NIGHT_MOSTLY_CLEAR,NIGHT_MOSTLY_CLEAR,NIGHT_BRIEF_SHOWERS,NIGHT_CLEAR,NIGHT_MOSTLY_CLEAR,NIGHT_MOSTLY_CLOUDY,SHOWERS","Onshore,Onshore,Onshore,Onshore,Onshore,Onshore,Onshore,Onshore,Onshore,Onshore,Onshore",11
5842041f4e65fad6a7708890,2024_04_16,21.66522,-158.0526,Pipeline,1.6363636363636365,2.5721454545454545,3.1119545454545454,26,25,"NIGHT_CLEAR,NIGHT_CLEAR,NIGHT_CLEAR,NIGHT_MOSTLY_CLEAR,NIGHT_MOSTLY_CLEAR,NIGHT_MOSTLY_CLEAR,NIGHT_BRIEF_SHOWERS,NIGHT_CLEAR,NIGHT_MOSTLY_CLEAR,NIGHT_MOSTLY_CLOUDY,SHOWERS","Onshore,Onshore,Onshore,Onshore,Onshore,Onshore,Onshore,Onshore,Onshore,Onshore,Onshore",11
5842041f4e65fad6a7708891,2024_04_16,21.665,-158.054,Backdoor,2,2.5721454545454545,3.1119545454545454,26,25,"NIGHT_CLEAR,NIGHT_CLEAR,NIGHT_CLEAR,NIGHT_MOSTLY_CLEAR,NIGHT_MOSTLY_CLEAR,NIGHT_MOSTLY_CLEAR,NIGHT_BRIEF_SHOWERS,NIGHT_CLEAR,NIGHT_MOSTLY_CLEAR,NIGHT_MOSTLY_CLOUDY,SHOWERS","Onshore,Onshore,Onshore,Onshore,Onshore,Onshore,Onshore,Onshore,Onshore,Onshore,Onshore",11
5842041f4e65fad6a7708892,2024_04_16,21.662,-158.057,Rockpile,1.4545454545454546,2.944545454545455,3.4363636363636365,25,25,"NIGHT_CLEAR,NIGHT_CLEAR,NIGHT_CLEAR,NIGHT_MOSTLY_CLEAR,NIGHT_MOSTLY_CLEAR,NIGHT_MOSTLY_CLEAR,NIGHT_BRIEF_SHOWERS,NIGHT_CLEAR,NIGHT_MOSTLY_CLEAR,NIGHT_MOSTLY_CLOUDY,SHOWERS","Onshore,Onshore,Onshore,Onshore,Onshore,Onshore,Onshore,Onshore,Onshore,Onshore,Onshore",11
5842041f4e65fad6a7708893,2024_04_16,21.65870453806827,-158.06058,Log Cabins,2,2.3863636363636362,2.6609090909090907,25,25,"NIGHT_CLEAR,NIGHT_CLEAR,NIGHT_CLEAR,NIGHT_MOSTLY_CLEAR,NIGHT_MOSTLY_CLEAR,NIGHT_MOSTLY_CLEAR,NIGHT_BRIEF_SHOWERS,NIGHT_CLEAR,NIGHT_MOSTLY_CLEAR,NIGHT_MOSTLY_CLOUDY,SHOWERS","Onshore,Onshore,Onshore,Onshore,Onshore,Onshore,Onshore,Onshore,Onshore,Onshore,Onshore",11
5842041f4e65fad6a7708894,2024_04_16,21.66203493640557,-158.05495,Off-The-Wall,1.7272727272727273,2.747272727272727,3.2818181818181817,25,25,"NIGHT_CLEAR,NIGHT_CLEAR,NIGHT_CLEAR,NIGHT_MOSTLY_CLEAR,NIGHT_MOSTLY_CLEAR,NIGHT_MOSTLY_CLEAR,NIGHT_BRIEF_SHOWERS,NIGHT_CLEAR,NIGHT_MOSTLY_CLEAR,NIGHT_MOSTLY_CLOUDY,SHOWERS","Onshore,Onshore,Onshore,Onshore,Onshore,Onshore,Onshore,Onshore,Onshore,Onshore,Onshore",11
5842041f4e65fad6a7708895,2024_04_16,21.643,-158.067,Waimea Bay,NA,3.2657454545454545,3.738027272727273,26,25,"NIGHT_CLEAR,NIGHT_CLEAR,NIGHT_CLEAR,NIGHT_MOSTLY_CLEAR,NIGHT_MOSTLY_CLEAR,NIGHT_MOSTLY_CLEAR,NIGHT_BRIEF_SHOWERS,NIGHT_CLEAR,NIGHT_MOSTLY_CLEAR,NIGHT_MOSTLY_CLOUDY,SHOWERS","Onshore,Onshore,Onshore,Onshore,Onshore,Onshore,Onshore,Onshore,Onshore,Onshore,Onshore",11
5842041f4e65fad6a7708896,2024_04_16,21.622,-158.087,Hultin's,2.3636363636363638,3.425781818181818,4.033481818181818,26,25,"NIGHT_MOSTLY_CLEAR,NIGHT_CLEAR,NIGHT_CLEAR,NIGHT_MOSTLY_CLEAR,NIGHT_MOSTLY_CLEAR,NIGHT_MOSTLY_CLEAR,NIGHT_BRIEF_SHOWERS,NIGHT_BRIEF_SHOWERS,NIGHT_MOSTLY_CLEAR,NIGHT_BRIEF_SHOWERS,BRIEF_SHOWERS","Onshore,Onshore,Onshore,Onshore,Onshore,Onshore,Onshore,Onshore,Onshore,Cross-shore,Cross-shore",11
5842041f4e65fad6a7708897,2024_04_16,21.623,-158.085,Jocko's,3,2.5754545454545457,2.9145454545454546,25,25,"NIGHT_MOSTLY_CLEAR,NIGHT_CLEAR,NIGHT_CLEAR,NIGHT_MOSTLY_CLEAR,NIGHT_MOSTLY_CLEAR,NIGHT_MOSTLY_CLEAR,NIGHT_BRIEF_SHOWERS,NIGHT_BRIEF_SHOWERS,NIGHT_MOSTLY_CLEAR,NIGHT_BRIEF_SHOWERS,BRIEF_SHOWERS","Offshore,Cross-shore,Cross-shore,Onshore,Cross-shore,Cross-shore,Onshore,Onshore,Onshore,Onshore,Onshore",11
5842041f4e65fad6a7708898,2024_04_16,21.62,-158.088,Laniakea,2.3636363636363638,2.5413545454545456,2.8824454545454543,26,25,"NIGHT_MOSTLY_CLEAR,NIGHT_CLEAR,NIGHT_CLEAR,NIGHT_MOSTLY_CLEAR,NIGHT_MOSTLY_CLEAR,NIGHT_MOSTLY_CLEAR,NIGHT_BRIEF_SHOWERS,NIGHT_CLEAR,NIGHT_MOSTLY_CLEAR,NIGHT_BRIEF_SHOWERS,BRIEF_SHOWERS","Cross-shore,Onshore,Onshore,Onshore,Onshore,Onshore,Onshore,Onshore,Onshore,Onshore,Onshore",11
5842041f4e65fad6a7708899,2024_04_16,21.625,-158.083,Chun's,2.272727272727273,2.640909090909091,3.0318181818181817,25,25,"NIGHT_MOSTLY_CLEAR,NIGHT_CLEAR,NIGHT_CLEAR,NIGHT_MOSTLY_CLEAR,NIGHT_MOSTLY_CLEAR,NIGHT_MOSTLY_CLEAR,NIGHT_BRIEF_SHOWERS,NIGHT_CLEAR,NIGHT_MOSTLY_CLEAR,NIGHT_BRIEF_SHOWERS,BRIEF_SHOWERS","Onshore,Onshore,Onshore,Onshore,Onshore,Onshore,Onshore,Onshore,Onshore,Onshore,Onshore",11
5842041f4e65fad6a770889c,2024_04_16,21.286357895152136,-157.8515,South Shore - Ala Moana Park,2.8181818181818183,0.7218181818181818,1.0036363636363637,24,24,"NIGHT_CLEAR,NIGHT_CLEAR,NIGHT_CLEAR,NIGHT_CLEAR,NIGHT_CLEAR,NIGHT_CLEAR,NIGHT_CLEAR,NIGHT_CLEAR,NIGHT_CLEAR,NIGHT_CLEAR,MOSTLY_CLEAR","Onshore,Cross-shore,Cross-shore,Cross-shore,Cross-shore,Cross-shore,Onshore,Onshore,Offshore,Offshore,Offshore",11
5842041f4e65fad6a770889d,2024_04_16,19.606,-155.978,Banyans,3.090909090909091,1.1181818181818182,1.3827272727272728,26,25,"NIGHT_CLEAR,NIGHT_MOSTLY_CLEAR,NIGHT_MOSTLY_CLEAR,NIGHT_CLEAR,NIGHT_CLEAR,NIGHT_CLEAR,NIGHT_CLEAR,NIGHT_CLEAR,NIGHT_CLEAR,NIGHT_LIGHT_SHOWERS_POSSIBLE,CLEAR","Cross-shore,Onshore,Cross-shore,Offshore,Offshore,Offshore,Cross-shore,Cross-shore,Offshore,Offshore,Offshore",11
5842041f4e65fad6a770889e,2024_04_16,20.029,-155.831,Kawaihae,3,0.7474181818181819,1.13668,24,24,"NIGHT_MIST,NIGHT_SHOWERS,NIGHT_SHOWERS,NIGHT_CLEAR,NIGHT_MOSTLY_CLOUDY,NIGHT_LIGHT_SHOWERS_POSSIBLE,NIGHT_MOSTLY_CLOUDY,NIGHT_MOSTLY_CLOUDY,NIGHT_CLEAR,NIGHT_CLEAR,CLEAR","Onshore,Cross-shore,Offshore,Offshore,Offshore,Offshore,Onshore,Onshore,Offshore,Offshore,Offshore",11
5842041f4e65fad6a770889f,2024_04_16,33.07541383424675,-117.3105,Grandview,2.909090909090909,0.7009090909090909,0.9972727272727273,15,15,"NIGHT_MIST,NIGHT_CLOUDY,NIGHT_OVERCAST,NIGHT_OVERCAST,NIGHT_BRIEF_SHOWERS,NIGHT_CLOUDY,NIGHT_CLEAR,CLEAR,CLEAR,CLEAR,CLEAR","Onshore,Onshore,Onshore,Cross-shore,Cross-shore,Cross-shore,Offshore,Offshore,Onshore,Onshore,Onshore",11
5842041f4e65fad6a77088a0,2024_04_16,33.065267421296596,-117.30577,Beacons,3,0.639090909090909,0.9445454545454546,15,15,"NIGHT_MIST,NIGHT_CLOUDY,NIGHT_OVERCAST,NIGHT_OVERCAST,NIGHT_BRIEF_SHOWERS,NIGHT_CLOUDY,NIGHT_CLEAR,CLEAR,CLEAR,CLEAR,CLEAR","Onshore,Onshore,Onshore,Cross-shore,Cross-shore,Cross-shore,Offshore,Offshore,Onshore,Onshore,Onshore",11
5842041f4e65fad6a77088a2,2024_04_16,21.252,-157.805,Diamond Head,3,0.962910909090909,1.2833936363636365,26,25,"NIGHT_CLEAR,NIGHT_CLEAR,NIGHT_CLEAR,NIGHT_CLEAR,NIGHT_CLEAR,NIGHT_CLEAR,NIGHT_CLEAR,NIGHT_CLEAR,NIGHT_CLEAR,NIGHT_CLEAR,CLEAR","Cross-shore,Cross-shore,Cross-shore,Cross-shore,Cross-shore,Offshore,Onshore,Cross-shore,Offshore,Offshore,Offshore",11
5842041f4e65fad6a77088a3,2024_04_16,33.04694255008896,-117.29966,Moonlight State Beach,2.8181818181818183,0.6590909090909091,0.9663636363636363,15,15,"NIGHT_MIST,NIGHT_CLOUDY,NIGHT_OVERCAST,NIGHT_OVERCAST,NIGHT_CLOUDY,NIGHT_CLOUDY,NIGHT_CLEAR,CLEAR,MOSTLY_CLOUDY,CLEAR,CLEAR","Onshore,Cross-shore,Offshore,Offshore,Offshore,Offshore,Offshore,Offshore,Offshore,Onshore,Onshore",11
5842041f4e65fad6a77088a5,2024_04_16,33.08685865930869,-117.31532,Ponto,2.909090909090909,0.7363636363636363,1.04,15,15,"NIGHT_MIST,NIGHT_CLOUDY,NIGHT_OVERCAST,NIGHT_OVERCAST,NIGHT_BRIEF_SHOWERS,NIGHT_CLOUDY,NIGHT_CLEAR,CLEAR,CLEAR,CLEAR,CLEAR","Onshore,Offshore,Offshore,Offshore,Offshore,Offshore,Offshore,Offshore,Offshore,Onshore,Onshore",11
5842041f4e65fad6a77088a6,2024_04_16,33.130343587871906,-117.33668,Terra Mar Point,2.6363636363636362,0.580509090909091,0.9497090909090908,14,14,"NIGHT_MIST,NIGHT_MOSTLY_CLOUDY,NIGHT_MOSTLY_CLOUDY,NIGHT_MIST,NIGHT_OVERCAST,NIGHT_OVERCAST,NIGHT_CLEAR,CLEAR,MOSTLY_CLOUDY,CLEAR,CLEAR","Onshore,Offshore,Offshore,Offshore,Offshore,Offshore,Offshore,Offshore,Offshore,Cross-shore,Onshore",11
5842041f4e65fad6a77088af,2024_04_16,32.95916304183685,-117.26963,Del Mar,3,0.6754545454545454,0.98,15,15,"NIGHT_MIST,NIGHT_OVERCAST,NIGHT_CLOUDY,NIGHT_CLOUDY,NIGHT_MOSTLY_CLOUDY,NIGHT_MOSTLY_CLOUDY,NIGHT_CLEAR,CLEAR,MIST,CLEAR,MIST","Onshore,Cross-shore,Cross-shore,Cross-shore,Cross-shore,Offshore,Offshore,Offshore,Offshore,Offshore,Onshore",11
5842041f4e65fad6a77088b0,2024_04_16,32.97527261243354,-117.2721061331305,Del Mar Rivermouth,3,0.7445454545454545,1.050909090909091,15,15,"NIGHT_MIST,NIGHT_CLOUDY,NIGHT_CLOUDY,NIGHT_CLOUDY,NIGHT_CLOUDY,NIGHT_MOSTLY_CLOUDY,NIGHT_CLEAR,CLEAR,MOSTLY_CLOUDY,CLEAR,CLEAR","Onshore,Cross-shore,Cross-shore,Cross-shore,Offshore,Offshore,Offshore,Offshore,Offshore,Cross-shore,Onshore",11
5842041f4e65fad6a77088b1,2024_04_16,33.01352178146273,-117.28219,Cardiff Reef,2.6363636363636362,0.8135515151515151,1.1285030303030303,14,14,"NIGHT_MIST,NIGHT_CLOUDY,NIGHT_OVERCAST,NIGHT_CLOUDY,NIGHT_CLOUDY,NIGHT_CLOUDY,NIGHT_CLEAR,CLEAR,MOSTLY_CLOUDY,CLEAR,CLEAR","Offshore,Offshore,Offshore,Offshore,Onshore,Offshore,Offshore,Offshore,Cross-shore,Cross-shore,Onshore",11
5842041f4e65fad6a77088b3,2024_04_16,33.00211185876003,-117.2811,Seaside Reef,2.727272727272727,0.7934,1.1064575757575759,14,14,"NIGHT_DRIZZLE,NIGHT_DRIZZLE,NIGHT_CLOUDY,NIGHT_CLOUDY,NIGHT_CLOUDY,NIGHT_CLOUDY,NIGHT_CLEAR,CLEAR,MOSTLY_CLOUDY,CLEAR,MIST","Onshore,Onshore,Cross-shore,Offshore,Offshore,Offshore,Offshore,Offshore,Onshore,Onshore,Onshore",11
5842041f4e65fad6a77088b4,2024_04_16,33.0341859796287,-117.29552,Swami's,2.6363636363636362,0.6730090909090909,1.0239969696969697,14,14,"NIGHT_MIST,NIGHT_CLOUDY,NIGHT_OVERCAST,NIGHT_CLOUDY,NIGHT_CLOUDY,NIGHT_CLOUDY,NIGHT_CLEAR,CLEAR,MOSTLY_CLOUDY,CLEAR,CLEAR","Onshore,Cross-shore,Cross-shore,Offshore,Offshore,Offshore,Offshore,Cross-shore,Offshore,Onshore,Onshore",11
5842041f4e65fad6a77088b7,2024_04_16,33.04569760260221,-117.2994,D Street,3,0.6681818181818182,0.9727272727272728,15,15,"NIGHT_MIST,NIGHT_CLOUDY,NIGHT_OVERCAST,NIGHT_OVERCAST,NIGHT_CLOUDY,NIGHT_CLOUDY,NIGHT_CLEAR,CLEAR,MOSTLY_CLOUDY,CLEAR,CLEAR","Onshore,Cross-shore,Offshore,Offshore,Offshore,Offshore,Offshore,Offshore,Offshore,Onshore,Onshore",11
5842041f4e65fad6a77088b8,2024_04_16,33.02090944350196,-117.28535,San Elijo State Beach,2.6363636363636362,0.5388424242424242,0.8545515151515152,14,14,"NIGHT_MIST,NIGHT_CLOUDY,NIGHT_OVERCAST,NIGHT_CLOUDY,NIGHT_CLOUDY,NIGHT_CLOUDY,NIGHT_CLEAR,CLEAR,MOSTLY_CLOUDY,CLEAR,CLEAR","Offshore,Offshore,Offshore,Offshore,Onshore,Offshore,Offshore,Offshore,Cross-shore,Onshore,Onshore",11
5842041f4e65fad6a77088c2,2024_04_16,32.80662846492798,-117.2688764333725,PB Point,3,0.6854545454545454,0.99,15,15,"NIGHT_OVERCAST,NIGHT_OVERCAST,NIGHT_OVERCAST,NIGHT_MOSTLY_CLOUDY,NIGHT_MOSTLY_CLOUDY,NIGHT_MOSTLY_CLOUDY,NIGHT_CLEAR,CLEAR,MOSTLY_CLOUDY,CLEAR,CLEAR","Offshore,Offshore,Cross-shore,Offshore,Offshore,Offshore,Offshore,Cross-shore,Cross-shore,Onshore,Cross-shore",11
5842041f4e65fad6a77088c4,2024_04_16,32.8060476681448,-117.26479,Old Man's at Tourmaline,3,0.6,0.9036363636363637,15,15,"NIGHT_OVERCAST,NIGHT_OVERCAST,NIGHT_OVERCAST,NIGHT_MOSTLY_CLOUDY,NIGHT_MOSTLY_CLOUDY,NIGHT_MOSTLY_CLOUDY,NIGHT_CLEAR,CLEAR,MOSTLY_CLOUDY,CLEAR,CLEAR","Offshore,Offshore,Offshore,Offshore,Cross-shore,Offshore,Offshore,Offshore,Cross-shore,Onshore,Cross-shore",11
5842041f4e65fad6a77088cb,2024_04_16,32.557056711256,-117.1327445020322,Tijuana Slough,2.727272727272727,0.6327272727272727,0.9354545454545454,15,15,"NIGHT_MIST,NIGHT_MIST,NIGHT_MIST,NIGHT_MOSTLY_CLOUDY,NIGHT_MOSTLY_CLOUDY,NIGHT_MOSTLY_CLOUDY,NIGHT_CLEAR,CLEAR,CLEAR,CLEAR,CLEAR","Cross-shore,Cross-shore,Cross-shore,Cross-shore,Cross-shore,Cross-shore,Cross-shore,Cross-shore,Onshore,Offshore,Onshore",11
5842041f4e65fad6a77088cc,2024_04_16,32.863,-117.257,La Jolla Shores,2.8181818181818183,0.6590909090909091,0.9627272727272727,15,15,"NIGHT_MIST,NIGHT_OVERCAST,NIGHT_OVERCAST,NIGHT_MOSTLY_CLOUDY,NIGHT_MOSTLY_CLOUDY,NIGHT_MOSTLY_CLOUDY,NIGHT_CLEAR,CLEAR,MOSTLY_CLOUDY,CLEAR,MIST","Onshore,Onshore,Cross-shore,Cross-shore,Onshore,Cross-shore,Onshore,Onshore,Cross-shore,Onshore,Onshore",11
5842041f4e65fad6a77088ce,2024_04_16,32.67443657790586,-117.17421316238693,Coronado Beach,3,1.0663636363636364,1.3436363636363637,15,15,"NIGHT_MIST,NIGHT_MOSTLY_CLOUDY,NIGHT_MIST,NIGHT_MIST,NIGHT_MOSTLY_CLOUDY,NIGHT_MOSTLY_CLOUDY,NIGHT_CLEAR,CLEAR,CLEAR,CLEAR,CLEAR","Offshore,Offshore,Offshore,Offshore,Offshore,Offshore,Offshore,Offshore,Onshore,Onshore,Cross-shore",11
5842041f4e65fad6a77088cf,2024_04_16,33.40484417640326,-117.60749,San Clemente State Beach,3,0.7163636363636364,0.9963636363636363,14.545454545454545,14.545454545454545,"NIGHT_CLEAR,NIGHT_MOSTLY_CLEAR,NIGHT_MOSTLY_CLOUDY,NIGHT_MOSTLY_CLOUDY,NIGHT_MOSTLY_CLOUDY,NIGHT_MOSTLY_CLOUDY,NIGHT_CLEAR,CLEAR,MOSTLY_CLOUDY,CLEAR,CLEAR","Cross-shore,Offshore,Onshore,Cross-shore,Cross-shore,Cross-shore,Offshore,Offshore,Onshore,Onshore,Onshore",11
5842041f4e65fad6a77088d5,2024_04_16,33.4663042002114,-117.7168352817103,Strands,3.272727272727273,0.8698333333333333,1.1988242424242423,14,14,"NIGHT_CLEAR,NIGHT_CLEAR,NIGHT_CLEAR,NIGHT_CLEAR,NIGHT_MOSTLY_CLOUDY,NIGHT_MOSTLY_CLOUDY,NIGHT_CLEAR,CLEAR,MOSTLY_CLOUDY,MIST,BRIEF_SHOWERS_POSSIBLE","Cross-shore,Cross-shore,Offshore,Offshore,Offshore,Offshore,Onshore,Cross-shore,Cross-shore,Onshore,Onshore",11
5842041f4e65fad6a77088d7,2024_04_16,33.4609858001748,-117.68535,Doheny State Beach,2.3636363636363638,0.2779242424242424,0.5839545454545455,16,16,"NIGHT_CLEAR,NIGHT_CLEAR,NIGHT_CLEAR,NIGHT_MOSTLY_CLOUDY,NIGHT_MOSTLY_CLOUDY,NIGHT_MOSTLY_CLOUDY,NIGHT_CLEAR,CLEAR,MOSTLY_CLOUDY,CLEAR,CLEAR","Cross-shore,Offshore,Offshore,Offshore,Offshore,Offshore,Onshore,Offshore,Cross-shore,Onshore,Onshore",11
5842041f4e65fad6a77088dc,2024_04_16,33.50894790083017,-117.75243,Aliso Creek,3,0.92,1.1418181818181818,14,14,"NIGHT_CLEAR,NIGHT_CLEAR,NIGHT_CLEAR,NIGHT_CLEAR,NIGHT_CLEAR,NIGHT_MIST,NIGHT_CLEAR,CLEAR,MIST,MIST,MIST","Cross-shore,Offshore,Offshore,Offshore,Offshore,Offshore,Onshore,Offshore,Cross-shore,Onshore,Onshore",11
5842041f4e65fad6a77088dd,2024_04_16,33.5326591767067,-117.77764,Brooks Street,2.4545454545454546,0.5218181818181818,0.8281818181818181,14,14,"NIGHT_MIST,NIGHT_MIST,NIGHT_MOSTLY_CLOUDY,NIGHT_MOSTLY_CLOUDY,NIGHT_MOSTLY_CLOUDY,NIGHT_CLOUDY,NIGHT_CLEAR,CLEAR,MIST,BRIEF_SHOWERS,BRIEF_SHOWERS","Offshore,Offshore,Offshore,Offshore,Offshore,Offshore,Onshore,Offshore,Onshore,Onshore,Cross-shore",11
5842041f4e65fad6a77088de,2024_04_16,33.53561225884637,-117.7799,Thalia Street,3,0.6318181818181818,0.9381818181818182,14,14,"NIGHT_MIST,NIGHT_MIST,NIGHT_MOSTLY_CLOUDY,NIGHT_MOSTLY_CLOUDY,NIGHT_MOSTLY_CLOUDY,NIGHT_CLOUDY,NIGHT_CLEAR,CLEAR,MIST,BRIEF_SHOWERS,BRIEF_SHOWERS","Offshore,Offshore,Offshore,Offshore,Offshore,Offshore,Onshore,Offshore,Onshore,Onshore,Cross-shore",11
5842041f4e65fad6a77088e3,2024_04_16,33.54268310353641,-117.7916,Rockpile,3,1.0227272727272727,1.2718181818181817,14,14,"NIGHT_MIST,NIGHT_MIST,NIGHT_MOSTLY_CLOUDY,NIGHT_MOSTLY_CLOUDY,NIGHT_MOSTLY_CLOUDY,NIGHT_CLOUDY,NIGHT_CLEAR,CLEAR,MIST,BRIEF_SHOWERS,BRIEF_SHOWERS","Offshore,Offshore,Offshore,Offshore,Offshore,Offshore,Onshore,Offshore,Onshore,Onshore,Cross-shore",11
5842041f4e65fad6a77088e4,2024_04_16,33.7368459504689,-118.10342,"Seal Beach Pier, Southside",2,0.12,0.42454545454545456,14,14,"NIGHT_CLEAR,NIGHT_CLEAR,NIGHT_CLEAR,NIGHT_CLEAR,NIGHT_CLEAR,NIGHT_CLOUDY,NIGHT_CLEAR,CLEAR,CLEAR,MIST,MIST","Offshore,Offshore,Offshore,Offshore,Cross-shore,Offshore,Cross-shore,Offshore,Offshore,Offshore,Offshore",11
5842041f4e65fad6a77088e5,2024_04_16,33.73933701820233,-118.117,Ray Bay,2,0.19363636363636363,0.5,14,14,"NIGHT_CLEAR,NIGHT_CLEAR,NIGHT_CLEAR,NIGHT_CLEAR,NIGHT_CLOUDY,NIGHT_CLOUDY,NIGHT_CLEAR,CLEAR,CLEAR,CLEAR,CLEAR","Offshore,Offshore,Offshore,Offshore,Cross-shore,Offshore,Cross-shore,Offshore,Offshore,Cross-shore,Offshore",11
5842041f4e65fad6a77088e7,2024_04_16,33.728733,-118.08982,Surfside,2,0.10545454545454545,0.4118181818181818,14,14,"NIGHT_CLEAR,NIGHT_CLEAR,NIGHT_CLEAR,NIGHT_CLEAR,NIGHT_CLEAR,NIGHT_CLOUDY,NIGHT_CLEAR,CLEAR,CLEAR,CLEAR,CLEAR","Offshore,Offshore,Offshore,Offshore,Cross-shore,Offshore,Cross-shore,Offshore,Offshore,Cross-shore,Offshore",11
5842041f4e65fad6a77088e8,2024_04_16,33.68760321488161,-118.04236,Bolsa Chica State Beach,2.6363636363636362,0.6443333333333334,0.9548878787878787,14,14,"NIGHT_CLEAR,NIGHT_MIST,NIGHT_CLEAR,NIGHT_CLEAR,NIGHT_CLOUDY,NIGHT_OVERCAST,NIGHT_CLEAR,CLEAR,CLEAR,CLEAR,CLEAR","Onshore,Onshore,Onshore,Onshore,Offshore,Offshore,Onshore,Offshore,Onshore,Onshore,Onshore",11
5842041f4e65fad6a77088ea,2024_04_16,33.66704400178788,-118.0192,North HB Streets,2.6363636363636362,0.7933818181818182,1.092730303030303,14,14,"NIGHT_MIST,NIGHT_MIST,NIGHT_CLEAR,NIGHT_CLEAR,NIGHT_CLEAR,NIGHT_CLOUDY,NIGHT_CLEAR,CLEAR,MIST,MIST,MIST","Onshore,Onshore,Onshore,Onshore,Offshore,Offshore,Onshore,Offshore,Onshore,Onshore,Onshore",11
5842041f4e65fad6a77088ed,2024_04_16,33.65475101379567,-118.00291,Huntington Beach Pier Southside,3,0.9796060606060606,1.3038787878787879,14,14,"NIGHT_MIST,NIGHT_MIST,NIGHT_CLEAR,NIGHT_CLEAR,NIGHT_CLOUDY,NIGHT_CLOUDY,NIGHT_CLEAR,CLEAR,CLEAR,CLEAR,CLEAR","Onshore,Offshore,Onshore,Cross-shore,Cross-shore,Offshore,Cross-shore,Cross-shore,Offshore,Onshore,Onshore",11
5842041f4e65fad6a77088ee,2024_04_16,33.62778647706099,-117.95939,River Jetties,3,0.8976363636363637,1.202969696969697,15,15,"NIGHT_MIST,NIGHT_CLEAR,NIGHT_CLEAR,NIGHT_CLEAR,NIGHT_CLOUDY,NIGHT_OVERCAST,NIGHT_CLEAR,CLEAR,MOSTLY_CLOUDY,CLEAR,CLEAR","Offshore,Onshore,Offshore,Offshore,Offshore,Offshore,Offshore,Offshore,Cross-shore,Onshore,Onshore",11
5842041f4e65fad6a77088f2,2024_04_16,33.605165797643664,-117.92500376701355,Newport Point,3,0.6427272727272727,0.9227272727272727,14,14,"NIGHT_MOSTLY_CLOUDY,NIGHT_MIST,NIGHT_MOSTLY_CLOUDY,NIGHT_OVERCAST,NIGHT_OVERCAST,NIGHT_OVERCAST,NIGHT_CLEAR,CLEAR,MIST,MIST,MIST","Cross-shore,Cross-shore,Cross-shore,Offshore,Offshore,Offshore,Onshore,Offshore,Onshore,Onshore,Onshore",11
5842041f4e65fad6a77088f3,2024_04_16,33.58982984726977,-117.87713,Corona del Mar,2,0.2743318181818182,0.4286418181818182,14,14,"NIGHT_MIST,NIGHT_MOSTLY_CLOUDY,NIGHT_MOSTLY_CLOUDY,NIGHT_MOSTLY_CLOUDY,NIGHT_OVERCAST,NIGHT_OVERCAST,NIGHT_CLEAR,CLEAR,MIST,MIST,MIST","Offshore,Offshore,Offshore,Offshore,Offshore,Offshore,Offshore,Cross-shore,Offshore,Offshore,Offshore",11
5842041f4e65fad6a77088f7,2024_04_16,34.00750300824362,-118.4971783496269,Santa Monica Pier,3,0.6,0.9045454545454545,13.545454545454545,13.545454545454545,"NIGHT_MOSTLY_CLOUDY,NIGHT_MOSTLY_CLOUDY,NIGHT_MIST,NIGHT_MIST,NIGHT_MIST,NIGHT_MOSTLY_CLOUDY,NIGHT_CLEAR,CLEAR,CLEAR,CLEAR,CLEAR","Onshore,Offshore,Offshore,Offshore,Offshore,Offshore,Offshore,Offshore,Onshore,Onshore,Onshore",11
5842041f4e65fad6a77088ff,2024_04_16,33.94070283102945,-118.44321,Dockweiler Beach,3,0.978259393939394,1.2051865909090909,14,14,"NIGHT_MOSTLY_CLOUDY,NIGHT_OVERCAST,NIGHT_OVERCAST,NIGHT_MIST,NIGHT_MIST,NIGHT_MIST,NIGHT_CLEAR,CLEAR,CLEAR,MIST,CLEAR","Onshore,Cross-shore,Offshore,Offshore,Offshore,Offshore,Offshore,Offshore,Onshore,Onshore,Onshore",11
5842041f4e65fad6a7708900,2024_04_16,33.9231846937237,-118.4341465777908,Shitpipe,2.9245454545454543,0.724909090909091,1.0336242424242426,14,14,"NIGHT_MIST,NIGHT_CLOUDY,NIGHT_CLOUDY,NIGHT_CLOUDY,NIGHT_DRIZZLE,NIGHT_MIST,NIGHT_CLEAR,CLEAR,CLEAR,MIST,CLEAR","Onshore,Cross-shore,Offshore,Offshore,Offshore,Offshore,Offshore,Offshore,Onshore,Onshore,Onshore",11
5842041f4e65fad6a7708902,2024_04_16,33.9108528052242,-118.4279133138721,Hammerland,3,0.8411969696969697,1.1143060606060606,14,14,"NIGHT_MIST,NIGHT_CLOUDY,NIGHT_CLOUDY,NIGHT_CLOUDY,NIGHT_DRIZZLE,NIGHT_MIST,NIGHT_CLEAR,CLEAR,CLEAR,MIST,CLEAR","Onshore,Cross-shore,Offshore,Offshore,Offshore,Offshore,Offshore,Offshore,Onshore,Onshore,Onshore",11
5842041f4e65fad6a7708904,2024_04_16,33.87201368173932,-118.40752,Hermosa Beach,2.8336363636363635,0.6563787878787879,0.9645848484848485,14,14,"NIGHT_MIST,NIGHT_CLEAR,NIGHT_CLEAR,NIGHT_CLEAR,NIGHT_MIST,NIGHT_MIST,NIGHT_CLEAR,CLEAR,CLEAR,MIST,CLEAR","Onshore,Onshore,Cross-shore,Offshore,Offshore,Offshore,Cross-shore,Offshore,Onshore,Onshore,Onshore",11
5842041f4e65fad6a7708906,2024_04_16,33.90129336911256,-118.42184,El Porto,3,0.7721060606060606,1.0850636363636363,14,14,"NIGHT_BRIEF_SHOWERS_POSSIBLE,NIGHT_CLEAR,NIGHT_CLEAR,NIGHT_CLEAR,NIGHT_MIST,NIGHT_MIST,NIGHT_CLEAR,CLEAR,CLEAR,MIST,CLEAR","Onshore,Cross-shore,Offshore,Offshore,Offshore,Offshore,Offshore,Offshore,Onshore,Onshore,Onshore",11
5842041f4e65fad6a7708907,2024_04_16,33.87963506431794,-118.41102,Manhattan Beach Pier,2.9245454545454543,0.7569545454545454,1.0658424242424243,14,14,"NIGHT_BRIEF_SHOWERS_POSSIBLE,NIGHT_CLEAR,NIGHT_CLEAR,NIGHT_CLEAR,NIGHT_MIST,NIGHT_MIST,NIGHT_CLEAR,CLEAR,CLEAR,MIST,CLEAR","Onshore,Cross-shore,Offshore,Offshore,Offshore,Offshore,Offshore,Cross-shore,Onshore,Onshore,Onshore",11
5842041f4e65fad6a7708914,2024_04_16,34.038053387863464,-118.5532,Sunset Point,3,0.36636363636363634,0.6736363636363637,13.545454545454545,13.545454545454545,"NIGHT_MOSTLY_CLOUDY,NIGHT_MOSTLY_CLOUDY,NIGHT_MOSTLY_CLOUDY,NIGHT_MOSTLY_CLOUDY,NIGHT_MIST,NIGHT_MIST,NIGHT_CLEAR,CLEAR,CLEAR,MOSTLY_CLEAR,CLEAR","Offshore,Offshore,Offshore,Offshore,Cross-shore,Offshore,Cross-shore,Cross-shore,Onshore,Onshore,Onshore",11
5842041f4e65fad6a7708920,2024_04_16,33.80930828074364,-118.3933198342649,Haggerty's,2,0.23672727272727273,0.42109090909090907,13.545454545454545,13.545454545454545,"NIGHT_MIST,NIGHT_MIST,NIGHT_MOSTLY_CLOUDY,NIGHT_CLEAR,NIGHT_MIST,NIGHT_MIST,NIGHT_CLEAR,CLEAR,MIST,MIST,CLEAR","Cross-shore,Cross-shore,Offshore,Offshore,Offshore,Cross-shore,Offshore,Offshore,Onshore,Onshore,Cross-shore",11
5842041f4e65fad6a7708921,2024_04_16,33.85044519861206,-118.40048,Redondo Breakwater,3,0.6454545454545455,0.9490909090909091,13.545454545454545,13.545454545454545,"NIGHT_MIST,NIGHT_CLEAR,NIGHT_CLEAR,NIGHT_CLEAR,NIGHT_MIST,NIGHT_MIST,NIGHT_CLEAR,CLEAR,CLEAR,MIST,CLEAR","Onshore,Onshore,Cross-shore,Offshore,Offshore,Offshore,Cross-shore,Offshore,Onshore,Onshore,Onshore",11
5842041f4e65fad6a7708927,2024_04_16,33.70877301002487,-118.2840112858389,Cabrillo Beach,1.9090909090909092,0.07636363636363637,0.3809090909090909,14,14,"NIGHT_CLEAR,NIGHT_CLEAR,NIGHT_CLEAR,NIGHT_MOSTLY_CLOUDY,NIGHT_MIST,NIGHT_MIST,NIGHT_CLEAR,CLEAR,CLEAR,CLEAR,CLEAR","Cross-shore,Offshore,Cross-shore,Cross-shore,Offshore,Cross-shore,Onshore,Offshore,Offshore,Offshore,Cross-shore",11
5842041f4e65fad6a770892c,2024_04_16,33.77209986806257,-118.4268428476672,Lunada Bay,2,0.7009090909090909,1.0072727272727273,13.545454545454545,13.545454545454545,"NIGHT_MIST,NIGHT_MIST,NIGHT_MIST,NIGHT_CLOUDY,NIGHT_CLOUDY,NIGHT_CLOUDY,NIGHT_CLEAR,CLEAR,MIST,MIST,CLEAR","Onshore,Onshore,Cross-shore,Cross-shore,Offshore,Offshore,Cross-shore,Offshore,Onshore,Cross-shore,Offshore",11
5842041f4e65fad6a770892d,2024_04_16,33.79294656286144,-118.4070316699825,PV Cove,2.909090909090909,0.6937009090909091,0.9462063636363637,13.545454545454545,13.545454545454545,"NIGHT_MIST,NIGHT_MIST,NIGHT_MOSTLY_CLOUDY,NIGHT_CLEAR,NIGHT_MIST,NIGHT_MIST,NIGHT_CLEAR,CLEAR,MIST,MIST,CLEAR","Cross-shore,Cross-shore,Offshore,Offshore,Offshore,Offshore,Offshore,Cross-shore,Onshore,Onshore,Onshore",11
5842041f4e65fad6a7708930,2024_04_16,34.03944902292561,-118.57539,Chart House,2,0.07727272727272727,0.38363636363636366,13.545454545454545,13.545454545454545,"NIGHT_MOSTLY_CLEAR,NIGHT_MOSTLY_CLOUDY,NIGHT_MOSTLY_CLOUDY,NIGHT_MOSTLY_CLOUDY,NIGHT_MIST,NIGHT_MIST,NIGHT_CLEAR,CLEAR,CLEAR,CLEAR,CLEAR","Offshore,Offshore,Offshore,Cross-shore,Cross-shore,Offshore,Offshore,Cross-shore,Onshore,Cross-shore,Cross-shore",11
5842041f4e65fad6a7708936,2024_04_16,34.0016731994772,-118.80456,Point Dume,2.7581818181818183,0.49114242424242427,0.7970545454545455,14,14,"NIGHT_CLEAR,NIGHT_MIST,NIGHT_MIST,NIGHT_MIST,NIGHT_MIST,NIGHT_MIST,NIGHT_CLEAR,CLEAR,CLEAR,CLEAR,BRIEF_SHOWERS_POSSIBLE","Onshore,Onshore,Cross-shore,Onshore,Cross-shore,Cross-shore,Offshore,Offshore,Onshore,Onshore,Onshore",11
5842041f4e65fad6a7708937,2024_04_16,34.02587527588963,-118.7554939066114,Latigo Point,3,0.8963636363636364,1.12,13.545454545454545,13.545454545454545,"NIGHT_CLEAR,NIGHT_CLEAR,NIGHT_MIST,NIGHT_MIST,NIGHT_MIST,NIGHT_MIST,NIGHT_CLEAR,CLEAR,CLEAR,CLEAR,BRIEF_SHOWERS_POSSIBLE","Offshore,Offshore,Offshore,Offshore,Offshore,Offshore,Offshore,Offshore,Offshore,Offshore,Onshore",11
5842041f4e65fad6a770893f,2024_04_16,34.043762,-118.93294,Leo Carrillo,3,0.768869696969697,1.1073212121212122,14,14,"NIGHT_CLEAR,NIGHT_MIST,NIGHT_MIST,NIGHT_CLEAR,NIGHT_CLEAR,NIGHT_CLEAR,NIGHT_CLEAR,CLEAR,CLEAR,CLEAR,MIST","Offshore,Offshore,Offshore,Offshore,Offshore,Offshore,Offshore,Offshore,Offshore,Onshore,Onshore",11
5842041f4e65fad6a7708941,2024_04_16,36.69388179265737,-121.81289,Marina State Beach,3.3636363636363638,1.1645454545454546,1.47,12.545454545454545,12.545454545454545,"NIGHT_MOSTLY_CLOUDY,NIGHT_MIST,NIGHT_MOSTLY_CLEAR,NIGHT_CLEAR,NIGHT_CLEAR,NIGHT_CLEAR,NIGHT_CLEAR,CLEAR,MOSTLY_CLOUDY,CLEAR,CLEAR","Onshore,Cross-shore,Onshore,Onshore,Onshore,Cross-shore,Offshore,Offshore,Offshore,Offshore,Offshore",11
5842041f4e65fad6a7708944,2024_04_16,34.34145077331085,-119.416999352654,Stanley's,2.727272727272727,0.37636363636363634,0.68,13,13,"NIGHT_CLEAR,NIGHT_CLEAR,NIGHT_CLEAR,NIGHT_CLEAR,NIGHT_CLEAR,NIGHT_CLEAR,NIGHT_CLEAR,CLEAR,CLEAR,CLEAR,CLEAR","Offshore,Offshore,Offshore,Offshore,Offshore,Offshore,Onshore,Cross-shore,Offshore,Offshore,Onshore",11
5842041f4e65fad6a7708945,2024_04_16,34.35113017313915,-119.426921498899,Oil Piers,3,0.37272727272727274,0.6772727272727272,13,13,"NIGHT_CLEAR,NIGHT_CLEAR,NIGHT_CLEAR,NIGHT_CLEAR,NIGHT_CLEAR,NIGHT_CLEAR,NIGHT_CLEAR,CLEAR,CLEAR,CLEAR,CLEAR","Offshore,Offshore,Offshore,Offshore,Offshore,Offshore,Offshore,Offshore,Offshore,Cross-shore,Cross-shore",11
5842041f4e65fad6a770894c,2024_04_16,34.17876333306018,-119.2399483564372,Oxnard,3.272727272727273,1.1118181818181818,1.3463636363636364,13,13,"NIGHT_MIST,NIGHT_MIST,NIGHT_MIST,NIGHT_MIST,NIGHT_MIST,NIGHT_MIST,NIGHT_CLEAR,CLEAR,CLEAR,CLEAR,CLEAR","Offshore,Offshore,Offshore,Offshore,Offshore,Offshore,Cross-shore,Offshore,Offshore,Offshore,Cross-shore",11
5842041f4e65fad6a7708957,2024_04_16,34.31720331100517,-119.3882324751725,Pitas Point,3,0.39545454545454545,0.7,13,13,"NIGHT_MIST,NIGHT_MIST,NIGHT_CLEAR,NIGHT_CLEAR,NIGHT_CLEAR,NIGHT_CLEAR,NIGHT_CLEAR,CLEAR,CLEAR,CLEAR,CLEAR","Onshore,Offshore,Offshore,Offshore,Offshore,Offshore,Offshore,Offshore,Cross-shore,Onshore,Onshore",11
5842041f4e65fad6a7708959,2024_04_16,34.27851754384724,-119.316202617226,Emma Wood,3,0.4027272727272727,0.7072727272727273,13,13,"NIGHT_MIST,NIGHT_MIST,NIGHT_MIST,NIGHT_CLEAR,NIGHT_CLEAR,NIGHT_CLEAR,NIGHT_CLEAR,CLEAR,CLEAR,CLEAR,CLEAR","Offshore,Offshore,Offshore,Offshore,Offshore,Cross-shore,Offshore,Offshore,Offshore,Cross-shore,Onshore",11
5842041f4e65fad6a770895a,2024_04_16,34.35513640390276,-119.4400589884255,Mussel Shoals (aka Little Rincon),2.272727272727273,0.27545454545454545,0.58,13,13,"NIGHT_CLEAR,NIGHT_CLEAR,NIGHT_CLEAR,NIGHT_CLEAR,NIGHT_CLEAR,NIGHT_CLEAR,NIGHT_CLEAR,CLEAR,CLEAR,CLEAR,CLEAR","Offshore,Offshore,Offshore,Offshore,Offshore,Offshore,Offshore,Offshore,Offshore,Onshore,Onshore",11
5842041f4e65fad6a770895e,2024_04_16,34.28991757054902,-119.3366646794652,Summer Beach,3,0.39545454545454545,0.7,13,13,"NIGHT_MIST,NIGHT_MIST,NIGHT_MIST,NIGHT_CLEAR,NIGHT_CLEAR,NIGHT_CLEAR,NIGHT_CLEAR,CLEAR,CLEAR,CLEAR,CLEAR","Offshore,Offshore,Offshore,Offshore,Offshore,Onshore,Offshore,Offshore,Offshore,Offshore,Onshore",11
5842041f4e65fad6a770895f,2024_04_16,34.30897456105926,-119.3582501170116,Solimar,3,0.35727272727272724,0.6636363636363637,13,13,"NIGHT_MIST,NIGHT_MIST,NIGHT_CLEAR,NIGHT_CLEAR,NIGHT_CLEAR,NIGHT_CLEAR,NIGHT_CLEAR,CLEAR,CLEAR,CLEAR,CLEAR","Onshore,Offshore,Offshore,Offshore,Offshore,Offshore,Offshore,Offshore,Cross-shore,Offshore,Onshore",11
5842041f4e65fad6a7708960,2024_04_16,34.39836265281686,-119.70213,Leadbetter Point,2,0.05818181818181818,0.36272727272727273,13,13,"NIGHT_CLEAR,NIGHT_CLEAR,NIGHT_CLEAR,NIGHT_CLEAR,NIGHT_CLEAR,NIGHT_CLEAR,NIGHT_CLEAR,CLEAR,CLEAR,CLEAR,CLEAR","Offshore,Offshore,Offshore,Offshore,Offshore,Offshore,Offshore,Offshore,Offshore,Onshore,Onshore",11
5842041f4e65fad6a7708961,2024_04_16,34.46052293893899,-120.07328,Refugio,2,0.18818181818181817,0.49363636363636365,13,13,"NIGHT_CLEAR,NIGHT_CLEAR,NIGHT_CLEAR,NIGHT_CLEAR,NIGHT_CLEAR,NIGHT_CLEAR,NIGHT_CLEAR,CLEAR,CLEAR,CLEAR,CLEAR","Cross-shore,Cross-shore,Cross-shore,Cross-shore,Onshore,Offshore,Onshore,Offshore,Offshore,Onshore,Onshore",11
5842041f4e65fad6a7708962,2024_04_16,34.40754276777778,-119.87639,Devereux,2.8181818181818183,0.32636363636363636,0.6336363636363637,13,13,"NIGHT_CLEAR,NIGHT_MIST,NIGHT_CLEAR,NIGHT_CLEAR,NIGHT_CLEAR,NIGHT_CLEAR,NIGHT_CLEAR,CLEAR,CLEAR,CLEAR,CLEAR","Cross-shore,Onshore,Cross-shore,Cross-shore,Cross-shore,Onshore,Offshore,Offshore,Cross-shore,Onshore,Onshore",11
5842041f4e65fad6a7708963,2024_04_16,34.27479983305182,-119.3133222656776,Ventura Overhead,3,0.41454545454545455,0.7209090909090908,13,13,"NIGHT_MIST,NIGHT_CLEAR,NIGHT_CLEAR,NIGHT_CLEAR,NIGHT_CLEAR,NIGHT_CLEAR,NIGHT_CLEAR,CLEAR,CLEAR,CLEAR,CLEAR","Offshore,Offshore,Offshore,Offshore,Offshore,Cross-shore,Offshore,Offshore,Offshore,Cross-shore,Onshore",11
5842041f4e65fad6a7708964,2024_04_16,34.41023236011655,-119.88261,Sands,2.8181818181818183,0.3563636363636364,0.6645454545454546,13,13,"NIGHT_CLEAR,NIGHT_MIST,NIGHT_CLEAR,NIGHT_CLEAR,NIGHT_CLEAR,NIGHT_CLEAR,NIGHT_CLEAR,CLEAR,CLEAR,CLEAR,CLEAR","Offshore,Offshore,Offshore,Offshore,Offshore,Cross-shore,Offshore,Offshore,Offshore,Cross-shore,Cross-shore",11
5842041f4e65fad6a7708966,2024_04_16,34.40450193869233,-119.68752,Sandspit,1,0,0.24363636363636362,13,13,"NIGHT_CLEAR,NIGHT_CLEAR,NIGHT_CLEAR,NIGHT_CLEAR,NIGHT_CLEAR,NIGHT_CLEAR,NIGHT_CLEAR,CLEAR,CLEAR,CLEAR,CLEAR","Offshore,Offshore,Offshore,Offshore,Offshore,Offshore,Offshore,Offshore,Offshore,Onshore,Onshore",11
5842041f4e65fad6a7708967,2024_04_16,34.41549098334453,-119.6375149840203,Hammond's,1,0,0.23272727272727273,13,13,"NIGHT_CLEAR,NIGHT_CLEAR,NIGHT_CLEAR,NIGHT_CLEAR,NIGHT_CLEAR,NIGHT_CLEAR,NIGHT_CLEAR,CLEAR,CLEAR,CLEAR,CLEAR","Cross-shore,Cross-shore,Offshore,Cross-shore,Offshore,Offshore,Offshore,Offshore,Cross-shore,Onshore,Onshore",11
5842041f4e65fad6a7708968,2024_04_16,34.45759322742309,-120.0220251867315,El Capitan,2,0.24,0.5481818181818182,13,13,"NIGHT_CLEAR,NIGHT_CLEAR,NIGHT_CLEAR,NIGHT_CLEAR,NIGHT_CLEAR,NIGHT_CLEAR,NIGHT_CLEAR,CLEAR,CLEAR,CLEAR,CLEAR","Onshore,Cross-shore,Cross-shore,Offshore,Cross-shore,Cross-shore,Cross-shore,Cross-shore,Cross-shore,Onshore,Onshore",11
5842041f4e65fad6a770896c,2024_04_16,34.405117655616,-119.84317,Campus Point,2,0.1290909090909091,0.43363636363636365,13,13,"NIGHT_CLEAR,NIGHT_MIST,NIGHT_CLEAR,NIGHT_CLEAR,NIGHT_CLEAR,NIGHT_CLEAR,NIGHT_CLEAR,CLEAR,CLEAR,CLEAR,CLEAR","Cross-shore,Cross-shore,Cross-shore,Cross-shore,Cross-shore,Onshore,Offshore,Offshore,Cross-shore,Onshore,Onshore",11
5842041f4e65fad6a770896e,2024_04_16,34.38935162233354,-119.51955,Carpinteria State Beach,2,0.2081818181818182,0.509090909090909,13,13,"NIGHT_MIST,NIGHT_CLEAR,NIGHT_CLEAR,NIGHT_CLEAR,NIGHT_CLEAR,NIGHT_CLEAR,NIGHT_CLEAR,CLEAR,CLEAR,CLEAR,CLEAR","Onshore,Onshore,Onshore,Onshore,Onshore,Onshore,Onshore,Onshore,Onshore,Onshore,Cross-shore",11
5842041f4e65fad6a770896f,2024_04_16,37.48296565175612,-122.4549300127824,Half Moon Bay,3,1.0763636363636364,1.3509090909090908,13.545454545454545,13.545454545454545,"NIGHT_MOSTLY_CLOUDY,NIGHT_MOSTLY_CLOUDY,NIGHT_MOSTLY_CLOUDY,NIGHT_MIST,NIGHT_MOSTLY_CLOUDY,NIGHT_MIST,NIGHT_CLEAR,CLEAR,MIST,CLEAR,CLEAR","Onshore,Onshore,Onshore,Onshore,Offshore,Offshore,Offshore,Offshore,Offshore,Offshore,Cross-shore",11
5842041f4e65fad6a7708970,2024_04_16,37.499,-122.471,Princeton Jetty,3,0.8690909090909091,1.1154545454545455,13.545454545454545,13.545454545454545,"NIGHT_MOSTLY_CLOUDY,NIGHT_MOSTLY_CLOUDY,NIGHT_MIST,NIGHT_MIST,NIGHT_MOSTLY_CLOUDY,NIGHT_MIST,NIGHT_CLEAR,CLEAR,MIST,MIST,MOSTLY_CLOUDY","Onshore,Onshore,Cross-shore,Cross-shore,Offshore,Offshore,Cross-shore,Offshore,Offshore,Offshore,Offshore",11
5842041f4e65fad6a7708972,2024_04_16,37.35699547365155,-122.4069534707252,Tunitas Creek,3.272727272727273,1.981818181818182,2.2236363636363636,14,14,"NIGHT_MOSTLY_CLOUDY,NIGHT_MOSTLY_CLOUDY,NIGHT_MIST,NIGHT_BRIEF_SHOWERS,NIGHT_MIST,NIGHT_MOSTLY_CLOUDY,NIGHT_CLEAR,CLEAR,MOSTLY_CLOUDY,MIST,MIST","Offshore,Offshore,Cross-shore,Cross-shore,Offshore,Offshore,Cross-shore,Offshore,Offshore,Onshore,Onshore",11
5842041f4e65fad6a7708974,2024_04_16,37.54735589428842,-122.5161090212687,Montara,2.909090909090909,1.7,1.9036363636363636,13,13,"NIGHT_BRIEF_SHOWERS,NIGHT_BRIEF_SHOWERS,NIGHT_BRIEF_SHOWERS,NIGHT_BRIEF_SHOWERS,NIGHT_MIST,NIGHT_MIST,NIGHT_CLEAR,CLEAR,CLEAR,MOSTLY_CLOUDY,CLEAR","Onshore,Onshore,Onshore,Onshore,Onshore,Offshore,Offshore,Offshore,Offshore,Onshore,Onshore",11
5842041f4e65fad6a7708975,2024_04_16,34.3869373724559,-119.5142334209018,Tarpits,2,0.19727272727272727,0.5018181818181818,13,13,"NIGHT_CLEAR,NIGHT_CLEAR,NIGHT_CLEAR,NIGHT_CLEAR,NIGHT_CLEAR,NIGHT_CLEAR,NIGHT_CLEAR,CLEAR,CLEAR,CLEAR,CLEAR","Onshore,Onshore,Onshore,Onshore,Onshore,Onshore,Onshore,Onshore,Onshore,Onshore,Cross-shore",11
5842041f4e65fad6a7708976,2024_04_16,37.59881852720143,-122.50463,Pacifica / Linda Mar,2.272727272727273,0.6127969696969697,0.9667121212121211,14,14,"NIGHT_BRIEF_SHOWERS,NIGHT_BRIEF_SHOWERS,NIGHT_BRIEF_SHOWERS,NIGHT_BRIEF_SHOWERS,NIGHT_BRIEF_SHOWERS,NIGHT_MIST,NIGHT_CLEAR,CLEAR,MIST,CLEAR,CLEAR","Onshore,Onshore,Onshore,Onshore,Onshore,Offshore,Offshore,Offshore,Offshore,Offshore,Offshore",11
5842041f4e65fad6a7708978,2024_04_16,37.59883098461164,-122.5143843582282,Pedro Point,2.8181818181818183,1.5245454545454546,1.83,13,13,"NIGHT_MIST,NIGHT_MIST,NIGHT_MIST,NIGHT_BRIEF_SHOWERS,NIGHT_MIST,NIGHT_MIST,NIGHT_CLEAR,CLEAR,MIST,MOSTLY_CLOUDY,MOSTLY_CLOUDY","Onshore,Onshore,Onshore,Onshore,Onshore,Offshore,Offshore,Offshore,Offshore,Cross-shore,Onshore",11
5842041f4e65fad6a7708979,2024_04_16,37.61081996647663,-122.4973287570634,Rockaway,3.090909090909091,1.5518181818181818,1.8018181818181818,13.545454545454545,13.545454545454545,"NIGHT_BRIEF_SHOWERS,NIGHT_BRIEF_SHOWERS,NIGHT_BRIEF_SHOWERS,NIGHT_BRIEF_SHOWERS,NIGHT_BRIEF_SHOWERS,NIGHT_MIST,NIGHT_CLEAR,CLEAR,MIST,CLEAR,CLEAR","Onshore,Onshore,Onshore,Onshore,Cross-shore,Offshore,Offshore,Offshore,Offshore,Offshore,Offshore",11
5842041f4e65fad6a770897a,2024_04_16,37.809987384424446,-122.4751353263855,Fort Point,2.909090909090909,0.8781818181818182,1.1490909090909092,13.545454545454545,13.545454545454545,"NIGHT_CLEAR,NIGHT_MIST,NIGHT_MIST,NIGHT_MIST,NIGHT_MIST,NIGHT_MIST,NIGHT_CLEAR,CLEAR,CLEAR,CLEAR,CLEAR","Onshore,Onshore,Onshore,Cross-shore,Onshore,Onshore,Onshore,Cross-shore,Onshore,Onshore,Cross-shore",11
5842041f4e65fad6a770897c,2024_04_16,37.63422542967464,-122.4951,Sharp Park,3,1.7381818181818183,1.998181818181818,13.545454545454545,13.545454545454545,"NIGHT_MIST,NIGHT_BRIEF_SHOWERS,NIGHT_BRIEF_SHOWERS,NIGHT_BRIEF_SHOWERS,NIGHT_MIST,NIGHT_MIST,NIGHT_CLEAR,CLEAR,MIST,MIST,CLEAR","Onshore,Onshore,Onshore,Onshore,Onshore,Offshore,Offshore,Offshore,Cross-shore,Cross-shore,Cross-shore",11
5842041f4e65fad6a770897d,2024_04_16,37.27313605072472,-122.4127387912554,Pescadero,2.8181818181818183,1.9945454545454546,2.2154545454545453,13,13,"NIGHT_MIST,NIGHT_MIST,NIGHT_BRIEF_SHOWERS,NIGHT_BRIEF_SHOWERS,NIGHT_BRIEF_SHOWERS,NIGHT_MIST,NIGHT_CLEAR,CLEAR,MIST,MIST,MIST","Cross-shore,Cross-shore,Cross-shore,Cross-shore,Cross-shore,Offshore,Onshore,Offshore,Offshore,Onshore,Onshore",11
5842041f4e65fad6a770897e,2024_04_16,37.18140279972666,-122.3926685899327,Pigeon Point,4,1.8145454545454545,2.1227272727272726,13,13,"NIGHT_MIST,NIGHT_MIST,NIGHT_MIST,NIGHT_MIST,NIGHT_BRIEF_SHOWERS,NIGHT_CLEAR,NIGHT_CLEAR,CLEAR,MIST,MIST,MIST","Offshore,Offshore,Offshore,Offshore,Offshore,Offshore,Cross-shore,Offshore,Offshore,Offshore,Offshore",11
5842041f4e65fad6a770897f,2024_04_16,37.11578956919415,-122.314699271291,Ano Nuevo,4,1.3236363636363637,1.5827272727272728,13,13,"NIGHT_CLEAR,NIGHT_CLEAR,NIGHT_CLEAR,NIGHT_CLEAR,NIGHT_CLEAR,NIGHT_CLEAR,NIGHT_CLEAR,CLEAR,CLEAR,MIST,MIST","Offshore,Offshore,Offshore,Offshore,Offshore,Offshore,Offshore,Offshore,Offshore,Offshore,Offshore",11
5842041f4e65fad6a7708980,2024_04_16,37.09520872681598,-122.2805474707768,Waddell Creek,3,1.49,1.7845454545454544,13,13,"NIGHT_CLEAR,NIGHT_CLEAR,NIGHT_CLEAR,NIGHT_CLEAR,NIGHT_CLEAR,NIGHT_CLEAR,NIGHT_CLEAR,CLEAR,CLEAR,MIST,MIST","Offshore,Offshore,Offshore,Onshore,Offshore,Cross-shore,Cross-shore,Offshore,Onshore,Onshore,Onshore",11
5842041f4e65fad6a7708981,2024_04_16,36.96512852130351,-122.1252825495626,Four Mile,3.272727272727273,1.1009090909090908,1.3154545454545454,13,13,"NIGHT_CLEAR,NIGHT_CLEAR,NIGHT_CLEAR,NIGHT_CLEAR,NIGHT_CLEAR,NIGHT_CLEAR,NIGHT_CLEAR,CLEAR,MOSTLY_CLOUDY,CLEAR,MIST","Offshore,Cross-shore,Onshore,Cross-shore,Offshore,Cross-shore,Offshore,Offshore,Onshore,Onshore,Onshore",11
5842041f4e65fad6a7708982,2024_04_16,37.04122807048655,-122.23337,Scott Creek,3,1.5663636363636364,1.8563636363636364,13,13,"NIGHT_CLEAR,NIGHT_CLEAR,NIGHT_CLEAR,NIGHT_CLEAR,NIGHT_CLEAR,NIGHT_CLEAR,NIGHT_CLEAR,CLEAR,CLEAR,MIST,MIST","Offshore,Offshore,Onshore,Offshore,Offshore,Cross-shore,Offshore,Offshore,Onshore,Onshore,Onshore",11
5842041f4e65fad6a7708983,2024_04_16,37.02350229387179,-122.21908,Davenport,3.909090909090909,1.61,1.9245454545454546,13,13,"NIGHT_CLEAR,NIGHT_CLEAR,NIGHT_CLEAR,NIGHT_CLEAR,NIGHT_CLEAR,NIGHT_CLEAR,NIGHT_CLEAR,CLEAR,CLEAR,MIST,MIST","Offshore,Offshore,Cross-shore,Offshore,Cross-shore,Cross-shore,Offshore,Offshore,Cross-shore,Cross-shore,Onshore",11
5842041f4e65fad6a7708986,2024_04_16,36.94905295955728,-122.06118,Natural Bridges,3.1818181818181817,1.3709090909090909,1.6409090909090909,13,13,"NIGHT_CLEAR,NIGHT_CLEAR,NIGHT_CLEAR,NIGHT_CLEAR,NIGHT_CLEAR,NIGHT_MIST,NIGHT_CLEAR,CLEAR,MOSTLY_CLOUDY,CLEAR,CLEAR","Offshore,Cross-shore,Offshore,Cross-shore,Cross-shore,Onshore,Offshore,Offshore,Cross-shore,Onshore,Onshore",11
5842041f4e65fad6a7708987,2024_04_16,36.95154854910425,-122.04207,Mitchell's Cove,3.090909090909091,1.0245454545454546,1.3054545454545454,13,13,"NIGHT_MIST,NIGHT_MIST,NIGHT_MOSTLY_CLEAR,NIGHT_MOSTLY_CLEAR,NIGHT_MOSTLY_CLEAR,NIGHT_MIST,NIGHT_CLEAR,CLEAR,MOSTLY_CLOUDY,CLEAR,CLEAR","Cross-shore,Onshore,Offshore,Cross-shore,Onshore,Onshore,Offshore,Offshore,Onshore,Onshore,Onshore",11
5842041f4e65fad6a770898a,2024_04_16,36.9572312370203,-121.98177,26th Ave,3.1818181818181817,1.3972727272727272,1.6781818181818182,13,13,"NIGHT_MIST,NIGHT_MIST,NIGHT_CLEAR,NIGHT_CLEAR,NIGHT_MOSTLY_CLEAR,NIGHT_MIST,NIGHT_CLEAR,CLEAR,MOSTLY_CLOUDY,CLEAR,CLEAR","Onshore,Offshore,Offshore,Cross-shore,Onshore,Onshore,Offshore,Offshore,Onshore,Onshore,Onshore",11
5842041f4e65fad6a770898e,2024_04_16,36.91899972819882,-121.85536,Manresa,3.090909090909091,0.8772727272727273,1.1309090909090909,13.545454545454545,13.545454545454545,"NIGHT_CLEAR,NIGHT_CLEAR,NIGHT_CLEAR,NIGHT_CLEAR,NIGHT_CLEAR,NIGHT_MIST,NIGHT_CLEAR,CLEAR,MOSTLY_CLOUDY,CLEAR,CLEAR","Offshore,Offshore,Cross-shore,Offshore,Cross-shore,Cross-shore,Offshore,Offshore,Offshore,Offshore,Onshore",11
5842041f4e65fad6a7708990,2024_04_16,34.45747731928454,-120.34242,The Ranch,2.6363636363636362,0.7772727272727272,1.039090909090909,13,13,"NIGHT_CLEAR,NIGHT_CLEAR,NIGHT_CLEAR,NIGHT_CLEAR,NIGHT_CLEAR,NIGHT_CLEAR,NIGHT_CLEAR,CLEAR,CLEAR,CLEAR,CLEAR","Offshore,Offshore,Offshore,Offshore,Offshore,Offshore,Cross-shore,Cross-shore,Onshore,Cross-shore,Onshore",11
5842041f4e65fad6a7708991,2024_04_16,34.50875036590315,-120.50348,Jalama,2.5454545454545454,1.060909090909091,1.310909090909091,13,13,"NIGHT_CLEAR,NIGHT_CLEAR,NIGHT_CLEAR,NIGHT_CLEAR,NIGHT_CLEAR,NIGHT_CLEAR,NIGHT_CLEAR,CLEAR,CLEAR,CLEAR,CLEAR","Offshore,Offshore,Offshore,Offshore,Offshore,Offshore,Cross-shore,Offshore,Offshore,Offshore,Offshore",11
5842041f4e65fad6a7708996,2024_04_16,34.68700870220497,-120.6111611019887,Surf Beach,2.1818181818181817,1.6590909090909092,1.97,12.545454545454545,12.545454545454545,"NIGHT_CLEAR,NIGHT_CLEAR,NIGHT_MOSTLY_CLEAR,NIGHT_CLEAR,NIGHT_CLEAR,NIGHT_CLEAR,NIGHT_CLEAR,CLEAR,CLEAR,CLEAR,CLEAR","Onshore,Onshore,Onshore,Onshore,Onshore,Onshore,Cross-shore,Offshore,Cross-shore,Onshore,Onshore",11
5842041f4e65fad6a770899c,2024_04_16,35.5730538161116,-121.1143362345574,Moonstone,3.3636363636363638,1.1581818181818182,1.4236363636363636,12.545454545454545,12.545454545454545,"NIGHT_CLEAR,NIGHT_CLEAR,NIGHT_CLEAR,NIGHT_CLEAR,NIGHT_CLEAR,NIGHT_CLEAR,NIGHT_CLEAR,CLEAR,CLEAR,CLEAR,CLEAR","Onshore,Offshore,Offshore,Offshore,Offshore,Cross-shore,Offshore,Offshore,Offshore,Offshore,Offshore",11
5842041f4e65fad6a770899d,2024_04_16,35.61533716776573,-121.1502053073914,Pico Creek,3.272727272727273,1.2745454545454546,1.5263636363636364,12.545454545454545,12.545454545454545,"NIGHT_CLEAR,NIGHT_CLEAR,NIGHT_CLEAR,NIGHT_CLEAR,NIGHT_CLEAR,NIGHT_CLEAR,NIGHT_CLEAR,CLEAR,CLEAR,CLEAR,CLEAR","Offshore,Offshore,Offshore,Offshore,Offshore,Offshore,Offshore,Offshore,Offshore,Offshore,Offshore",11
5842041f4e65fad6a770899e,2024_04_16,35.56829031927379,-121.11207,Santa Rosa Creek,3.4545454545454546,1.1581818181818182,1.4236363636363636,12.545454545454545,12.545454545454545,"NIGHT_MIST,NIGHT_MIST,NIGHT_MIST,NIGHT_CLEAR,NIGHT_CLEAR,NIGHT_CLEAR,NIGHT_CLEAR,CLEAR,CLEAR,CLEAR,CLEAR","Cross-shore,Cross-shore,Offshore,Offshore,Offshore,Cross-shore,Offshore,Offshore,Offshore,Cross-shore,Cross-shore",11
5842041f4e65fad6a77089a2,2024_04_16,35.44820114936284,-120.90715,"Cayucos Pier, Southside ",3,0.5172727272727273,0.8209090909090909,12.545454545454545,12.545454545454545,"NIGHT_CLEAR,NIGHT_CLEAR,NIGHT_CLEAR,NIGHT_CLEAR,NIGHT_CLEAR,NIGHT_CLEAR,NIGHT_CLEAR,CLEAR,CLEAR,CLEAR,CLEAR","Offshore,Offshore,Offshore,Offshore,Offshore,Offshore,Offshore,Offshore,Offshore,Offshore,Offshore",11
5842041f4e65fad6a77089a4,2024_04_16,35.30143372628852,-120.877819239902,Cable Landing,2.6363636363636362,1.8845454545454545,2.1645454545454546,12.545454545454545,12.545454545454545,"NIGHT_MIST,NIGHT_MIST,NIGHT_CLEAR,NIGHT_MIST,NIGHT_MIST,NIGHT_MIST,NIGHT_CLEAR,CLEAR,MIST,MIST,CLEAR","Onshore,Onshore,Offshore,Offshore,Cross-shore,Onshore,Cross-shore,Cross-shore,Cross-shore,Cross-shore,Offshore",11
5842041f4e65fad6a77089a9,2024_04_16,35.61269103500222,-121.14807,San Simeon,3,0.8998181818181819,1.0754545454545454,12.545454545454545,12.545454545454545,"NIGHT_CLEAR,NIGHT_CLEAR,NIGHT_CLEAR,NIGHT_CLEAR,NIGHT_CLEAR,NIGHT_CLEAR,NIGHT_CLEAR,CLEAR,CLEAR,CLEAR,CLEAR","Offshore,Offshore,Offshore,Offshore,Offshore,Offshore,Cross-shore,Offshore,Offshore,Offshore,Offshore",11
5842041f4e65fad6a77089ab,2024_04_16,35.1775325966252,-120.73411,Avila Beach,2,0.2190909090909091,0.5245454545454545,12.545454545454545,12.545454545454545,"NIGHT_CLEAR,NIGHT_CLEAR,NIGHT_CLEAR,NIGHT_CLEAR,NIGHT_CLEAR,NIGHT_CLEAR,NIGHT_CLEAR,CLEAR,CLEAR,CLEAR,CLEAR","Offshore,Offshore,Offshore,Offshore,Cross-shore,Offshore,Cross-shore,Offshore,Offshore,Offshore,Offshore",11
5842041f4e65fad6a77089ac,2024_04_16,35.13877877884115,-120.64535,Pismo Beach Pier,2.8636363636363638,0.7162272727272727,1.0260242424242425,12,12,"NIGHT_CLEAR,NIGHT_CLEAR,NIGHT_CLEAR,NIGHT_CLEAR,NIGHT_CLEAR,NIGHT_CLEAR,NIGHT_CLEAR,CLEAR,CLEAR,CLEAR,CLEAR","Offshore,Offshore,Offshore,Offshore,Offshore,Offshore,Cross-shore,Cross-shore,Onshore,Cross-shore,Offshore",11
5842041f4e65fad6a77089ad,2024_04_16,46.8907710233147,-124.12964,Westport/Olympic Peninsula,1.1818181818181819,0.9781818181818182,1.240909090909091,11,11,"NIGHT_MOSTLY_CLOUDY,NIGHT_CLEAR,NIGHT_LIGHT_RAIN,NIGHT_CLEAR,NIGHT_CLEAR,NIGHT_BRIEF_SHOWERS,NIGHT_CLEAR,CLEAR,CLEAR,CLEAR,MOSTLY_CLOUDY","Onshore,Cross-shore,Cross-shore,Cross-shore,Cross-shore,Cross-shore,Onshore,Onshore,Cross-shore,Cross-shore,Cross-shore",11
5842041f4e65fad6a77089ae,2024_04_16,46.35185177248545,-124.06747,Long Beach Peninsula,2,1.5754545454545454,1.7818181818181817,11,11,"NIGHT_CLEAR,NIGHT_CLEAR,NIGHT_CLEAR,NIGHT_CLEAR,NIGHT_CLEAR,NIGHT_MOSTLY_CLOUDY,NIGHT_CLEAR,LIGHT_SHOWERS,CLEAR,MOSTLY_CLEAR,MOSTLY_CLOUDY","Onshore,Onshore,Onshore,Cross-shore,Cross-shore,Cross-shore,Onshore,Onshore,Cross-shore,Cross-shore,Cross-shore",11
5842041f4e65fad6a77089af,2024_04_16,47.90649175554033,-124.6370864743483,La Push,1.5454545454545454,1.1781818181818182,1.4118181818181819,10.454545454545455,10.454545454545455,"NIGHT_CLEAR,NIGHT_CLEAR,NIGHT_CLEAR,NIGHT_MOSTLY_CLOUDY,NIGHT_MOSTLY_CLOUDY,NIGHT_CLEAR,NIGHT_CLEAR,CLEAR,MOSTLY_CLOUDY,CLEAR,MOSTLY_CLOUDY","Cross-shore,Cross-shore,Cross-shore,Cross-shore,Cross-shore,Cross-shore,Cross-shore,Onshore,Cross-shore,Cross-shore,Cross-shore",11
5842041f4e65fad6a77089b0,2024_04_16,42.04368239985442,-124.26828,Brookings Jetty,2.909090909090909,0.5013218181818182,0.7833163636363637,10.545454545454545,10.545454545454545,"NIGHT_CLEAR,NIGHT_CLEAR,NIGHT_CLEAR,NIGHT_CLEAR,NIGHT_CLEAR,NIGHT_CLEAR,NIGHT_CLEAR,CLEAR,CLEAR,CLEAR,CLEAR","Offshore,Offshore,Offshore,Offshore,Offshore,Offshore,Offshore,Offshore,Offshore,Offshore,Offshore",11
5842041f4e65fad6a77089b1,2024_04_16,42.74071837900346,-124.4983727491047,Port Orford,2.1818181818181817,0.6527272727272727,0.9572727272727273,10.454545454545455,10.454545454545455,"NIGHT_CLEAR,NIGHT_CLEAR,NIGHT_CLEAR,NIGHT_CLEAR,NIGHT_CLEAR,NIGHT_CLEAR,NIGHT_CLEAR,CLEAR,CLEAR,CLEAR,CLEAR","Offshore,Offshore,Offshore,Offshore,Offshore,Offshore,Offshore,Offshore,Offshore,Offshore,Offshore",11
5842041f4e65fad6a77089b2,2024_04_16,44.01532689312291,-124.13865,Florence South Jetty,3,1.5136363636363637,1.7572727272727273,11,11,"NIGHT_CLEAR,NIGHT_SHOWERS,NIGHT_MOSTLY_CLOUDY,NIGHT_CLEAR,NIGHT_CLEAR,NIGHT_CLEAR,NIGHT_MOSTLY_CLOUDY,CLEAR,CLEAR,CLEAR,CLEAR","Cross-shore,Cross-shore,Cross-shore,Cross-shore,Cross-shore,Cross-shore,Cross-shore,Cross-shore,Cross-shore,Cross-shore,Cross-shore",11
5842041f4e65fad6a77089b3,2024_04_16,42.41812540774362,-124.42945,Gold Beach South Jetty,3.6363636363636362,1.2236363636363636,1.4627272727272727,10,10,"NIGHT_CLEAR,NIGHT_CLEAR,NIGHT_CLEAR,NIGHT_CLEAR,NIGHT_CLEAR,NIGHT_CLEAR,NIGHT_CLEAR,CLEAR,CLEAR,CLEAR,CLEAR","Offshore,Offshore,Offshore,Offshore,Offshore,Offshore,Offshore,Offshore,Offshore,Offshore,Offshore",11
5842041f4e65fad6a77089b4,2024_04_16,44.95857310226525,-124.0219017690976,Lincoln City,3,1.4590909090909092,1.6836363636363636,11,11,"NIGHT_MOSTLY_CLOUDY,NIGHT_MOSTLY_CLOUDY,NIGHT_MOSTLY_CLOUDY,NIGHT_MOSTLY_CLOUDY,NIGHT_DRIZZLE,NIGHT_MOSTLY_CLOUDY,NIGHT_LIGHT_SHOWERS,CLOUDY,MOSTLY_CLEAR,MOSTLY_CLEAR,CLEAR","Cross-shore,Cross-shore,Cross-shore,Cross-shore,Cross-shore,Cross-shore,Cross-shore,Cross-shore,Cross-shore,Cross-shore,Cross-shore",11
5842041f4e65fad6a77089b5,2024_04_16,44.63792761362982,-124.0657,Newport,2.909090909090909,1.5336363636363637,1.7763636363636364,11,11,"NIGHT_CLEAR,NIGHT_MOSTLY_CLOUDY,NIGHT_MOSTLY_CLOUDY,NIGHT_MOSTLY_CLOUDY,NIGHT_MOSTLY_CLOUDY,NIGHT_CLEAR,NIGHT_LIGHT_SHOWERS,CLEAR,CLEAR,CLEAR,CLEAR","Offshore,Cross-shore,Cross-shore,Cross-shore,Cross-shore,Cross-shore,Cross-shore,Cross-shore,Offshore,Cross-shore,Cross-shore",11
5842041f4e65fad6a77089b6,2024_04_16,45.61468496266301,-123.94643,Rockaway Beach,2.909090909090909,1.5445454545454547,1.770909090909091,11,11,"NIGHT_CLEAR,NIGHT_MOSTLY_CLOUDY,NIGHT_MOSTLY_CLEAR,NIGHT_DRIZZLE,NIGHT_CLOUDY,NIGHT_LIGHT_RAIN,NIGHT_CLEAR,CLOUDY,CLEAR,MOSTLY_CLEAR,CLEAR","Onshore,Onshore,Onshore,Onshore,Onshore,Cross-shore,Onshore,Cross-shore,Cross-shore,Cross-shore,Cross-shore",11
5842041f4e65fad6a77089b7,2024_04_16,45.20252914186085,-123.96975,Pacific City,2.8181818181818183,1.1027272727272728,1.309090909090909,11,11,"NIGHT_CLEAR,NIGHT_MOSTLY_CLOUDY,NIGHT_CLEAR,NIGHT_CLOUDY,NIGHT_FOG,NIGHT_CLEAR,NIGHT_CLOUDY,CLEAR,CLEAR,CLEAR,CLEAR","Cross-shore,Cross-shore,Cross-shore,Cross-shore,Cross-shore,Cross-shore,Cross-shore,Cross-shore,Offshore,Cross-shore,Offshore",11
5842041f4e65fad6a77089b8,2024_04_16,45.88179930310263,-123.96681,Cannon Beach,2.8181818181818183,1.4118181818181819,1.6572727272727272,11,11,"NIGHT_LIGHT_RAIN_AND_FOG,NIGHT_CLOUDY,NIGHT_MOSTLY_CLOUDY,NIGHT_CLEAR,NIGHT_CLEAR,NIGHT_MOSTLY_CLOUDY,NIGHT_CLOUDY,CLEAR,MOSTLY_CLOUDY,CLEAR,CLEAR","Onshore,Onshore,Cross-shore,Cross-shore,Cross-shore,Cross-shore,Cross-shore,Cross-shore,Cross-shore,Cross-shore,Cross-shore",11
5842041f4e65fad6a77089ba,2024_04_16,40.02528754746774,-124.06372,Shelter Cove,2.8181818181818183,0.41922272727272725,0.6550354545454545,11,11,"NIGHT_CLEAR,NIGHT_CLEAR,NIGHT_CLEAR,NIGHT_CLEAR,NIGHT_CLEAR,NIGHT_CLEAR,NIGHT_CLEAR,CLEAR,CLEAR,CLEAR,CLEAR","Offshore,Offshore,Offshore,Offshore,Offshore,Offshore,Offshore,Offshore,Offshore,Offshore,Offshore",11
5842041f4e65fad6a77089bb,2024_04_16,40.76816197136951,-124.24248,Humboldt Harbor Entrance,2.8181818181818183,2.15,2.462727272727273,11,11,"NIGHT_CLOUDY,NIGHT_CLEAR,NIGHT_CLEAR,NIGHT_CLEAR,NIGHT_CLEAR,NIGHT_CLEAR,NIGHT_CLEAR,CLEAR,CLEAR,CLEAR,CLEAR","Cross-shore,Cross-shore,Cross-shore,Onshore,Onshore,Offshore,Cross-shore,Offshore,Offshore,Offshore,Cross-shore",11
5842041f4e65fad6a77089bc,2024_04_16,40.76684246920174,-124.23107,North Jetty,3.272727272727273,2.8236363636363637,3.21,11,11,"NIGHT_CLOUDY,NIGHT_CLEAR,NIGHT_MOSTLY_CLOUDY,NIGHT_CLEAR,NIGHT_CLEAR,NIGHT_CLEAR,NIGHT_CLEAR,CLEAR,CLEAR,CLEAR,CLEAR","Cross-shore,Cross-shore,Cross-shore,Onshore,Onshore,Offshore,Offshore,Offshore,Offshore,Offshore,Cross-shore",11
5842041f4e65fad6a77089bd,2024_04_16,41.02731183893966,-124.1149972888982,Westhaven,3.1818181818181817,2.382727272727273,2.690909090909091,11,11,"NIGHT_MOSTLY_CLOUDY,NIGHT_CLEAR,NIGHT_CLEAR,NIGHT_CLEAR,NIGHT_CLEAR,NIGHT_CLEAR,NIGHT_CLEAR,CLEAR,CLEAR,CLEAR,CLEAR","Offshore,Offshore,Offshore,Offshore,Cross-shore,Offshore,Offshore,Offshore,Offshore,Cross-shore,Cross-shore",11
5842041f4e65fad6a77089be,2024_04_16,41.13016238153297,-124.16466,Sue-meg,2,2.0145454545454546,2.387272727272727,11,11,"NIGHT_CLEAR,NIGHT_CLEAR,NIGHT_CLEAR,NIGHT_CLEAR,NIGHT_CLEAR,NIGHT_CLEAR,NIGHT_CLEAR,CLEAR,CLEAR,CLEAR,CLEAR","Cross-shore,Cross-shore,Cross-shore,Cross-shore,Cross-shore,Cross-shore,Cross-shore,Onshore,Cross-shore,Cross-shore,Cross-shore",11
5842041f4e65fad6a77089bf,2024_04_16,37.8289474958188,-122.5376795097543,Fort Cronkite/Rodeo Beach,3,1.1281818181818182,1.3572727272727272,13,13,"NIGHT_CLEAR,NIGHT_CLEAR,NIGHT_MIST,NIGHT_MIST,NIGHT_MIST,NIGHT_BRIEF_SHOWERS_POSSIBLE,NIGHT_CLEAR,CLEAR,MIST,MIST,CLEAR","Onshore,Onshore,Onshore,Cross-shore,Cross-shore,Cross-shore,Cross-shore,Offshore,Cross-shore,Onshore,Onshore",11
5842041f4e65fad6a77089c0,2024_04_16,41.74415759876137,-124.17717,South Beach CA,3,0.6536363636363637,0.9563636363636364,11,11,"NIGHT_CLEAR,NIGHT_CLEAR,NIGHT_CLEAR,NIGHT_CLEAR,NIGHT_CLEAR,NIGHT_CLEAR,NIGHT_CLEAR,CLEAR,CLEAR,CLEAR,CLEAR","Offshore,Offshore,Offshore,Offshore,Offshore,Offshore,Offshore,Offshore,Offshore,Offshore,Offshore",11
5842041f4e65fad6a77089c1,2024_04_16,37.89801283969752,-122.64519,Stinson Beach,3,0.5145454545454545,0.82,12.545454545454545,12.545454545454545,"NIGHT_CLEAR,NIGHT_CLEAR,NIGHT_CLEAR,NIGHT_CLEAR,NIGHT_CLEAR,NIGHT_CLEAR,NIGHT_CLEAR,CLEAR,CLEAR,CLEAR,CLEAR","Cross-shore,Offshore,Cross-shore,Cross-shore,Cross-shore,Cross-shore,Onshore,Onshore,Onshore,Cross-shore,Cross-shore",11
5842041f4e65fad6a77089c2,2024_04_16,37.90514516176495,-122.68151,Bolinas,3,0.6277936363636364,0.9809254545454545,12.545454545454545,12.545454545454545,"NIGHT_CLEAR,NIGHT_CLEAR,NIGHT_CLEAR,NIGHT_CLEAR,NIGHT_CLEAR,NIGHT_CLEAR,NIGHT_CLEAR,CLEAR,CLEAR,MOSTLY_CLEAR,MOSTLY_CLEAR","Cross-shore,Cross-shore,Cross-shore,Cross-shore,Onshore,Onshore,Onshore,Onshore,Onshore,Offshore,Cross-shore",11
5842041f4e65fad6a77089c3,2024_04_16,38.04892513158693,-122.9892494965416,Point Reyes (north),2.3636363636363638,2.368181818181818,2.674545454545455,11,11,"NIGHT_MIST,NIGHT_MIST,NIGHT_MIST,NIGHT_MIST,NIGHT_MIST,NIGHT_BRIEF_SHOWERS_POSSIBLE,NIGHT_CLEAR,CLEAR,CLEAR,CLEAR,MIST","Onshore,Onshore,Onshore,Onshore,Cross-shore,Onshore,Onshore,Onshore,Offshore,Onshore,Onshore",11
5842041f4e65fad6a77089c6,2024_04_16,38.31088736605785,-123.0496777333731,Doran Beach,2,0.1809090909090909,0.48727272727272725,11,11,"NIGHT_MIST,NIGHT_MIST,NIGHT_MIST,NIGHT_MIST,NIGHT_MIST,NIGHT_MIST,NIGHT_CLEAR,CLEAR,CLEAR,CLEAR,CLEAR","Offshore,Offshore,Offshore,Offshore,Cross-shore,Offshore,Offshore,Offshore,Onshore,Onshore,Cross-shore",11
5842041f4e65fad6a77089c7,2024_04_16,38.45077228660809,-123.13008,Russian Rivermouth,3.5454545454545454,1.5327272727272727,1.8072727272727274,11,11,"NIGHT_CLEAR,NIGHT_CLEAR,NIGHT_CLEAR,NIGHT_CLEAR,NIGHT_CLEAR,NIGHT_CLEAR,NIGHT_CLEAR,CLEAR,CLEAR,CLEAR,CLEAR","Offshore,Cross-shore,Cross-shore,Offshore,Offshore,Cross-shore,Offshore,Offshore,Cross-shore,Cross-shore,Onshore",11
5842041f4e65fad6a77089c8,2024_04_16,38.35329968518107,-123.06906,Salmon Creek,3.3636363636363638,2.137272727272727,2.346363636363636,11,11,"NIGHT_MIST,NIGHT_MIST,NIGHT_MIST,NIGHT_MIST,NIGHT_CLEAR,NIGHT_MIST,NIGHT_CLEAR,CLEAR,CLEAR,MIST,MIST","Offshore,Onshore,Onshore,Cross-shore,Offshore,Onshore,Offshore,Cross-shore,Offshore,Cross-shore,Onshore",11
5842041f4e65fad6a77089c9,2024_04_16,38.6845180197959,-123.4322714291198,Black Point Beach,3,0.8945454545454545,1.0972727272727274,10,10,"NIGHT_CLEAR,NIGHT_CLEAR,NIGHT_CLEAR,NIGHT_CLEAR,NIGHT_CLEAR,NIGHT_CLEAR,NIGHT_CLEAR,CLEAR,CLEAR,CLEAR,CLEAR","Onshore,Onshore,Onshore,Cross-shore,Onshore,Onshore,Onshore,Cross-shore,Onshore,Onshore,Onshore",11
5842041f4e65fad6a77089ca,2024_04_16,43.251076,-70.59144,Ogunquit,2.727272727272727,0.6336848484848485,0.9386333333333333,6,4,"NIGHT_CLEAR,NIGHT_CLEAR,NIGHT_CLEAR,NIGHT_CLEAR,CLEAR,CLEAR,CLEAR,CLEAR,CLEAR,CLEAR,CLEAR","Offshore,Offshore,Offshore,Offshore,Offshore,Offshore,Offshore,Offshore,Offshore,Offshore,Offshore",11
5842041f4e65fad6a77089cb,2024_04_16,41.362631366305415,-71.48007,Point Judith,2.4545454545454546,0.5958818181818182,0.9004515151515151,9,8,"NIGHT_CLEAR,NIGHT_CLEAR,NIGHT_CLEAR,NIGHT_CLEAR,NIGHT_CLEAR,CLEAR,CLEAR,CLEAR,CLEAR,CLEAR,CLEAR","Offshore,Offshore,Offshore,Offshore,Offshore,Offshore,Offshore,Offshore,Offshore,Cross-shore,Cross-shore",11
5842041f4e65fad6a77089cd,2024_04_16,41.422678090954726,-71.45413,Monahan's - Narragansett,2.727272727272727,0.41127545454545456,0.64262,7,7,"NIGHT_CLEAR,NIGHT_CLEAR,NIGHT_CLEAR,NIGHT_CLEAR,NIGHT_CLEAR,CLEAR,CLEAR,CLEAR,CLEAR,CLEAR,CLEAR","Offshore,Offshore,Offshore,Offshore,Offshore,Offshore,Offshore,Offshore,Offshore,Offshore,Offshore",11
5842041f4e65fad6a77089ce,2024_04_16,41.469,-71.293,Ruggles - Newport,3,0.7358245454545455,1.1497254545454545,7,7,"NIGHT_CLEAR,NIGHT_CLEAR,NIGHT_CLEAR,NIGHT_CLEAR,NIGHT_CLEAR,CLEAR,CLEAR,CLEAR,CLEAR,CLEAR,CLEAR","Offshore,Offshore,Offshore,Offshore,Offshore,Offshore,Offshore,Offshore,Offshore,Cross-shore,Cross-shore",11
5842041f4e65fad6a77089cf,2024_04_16,43.175394,-70.606351,Short Sands Beach,2.6363636363636362,0.5890909090909091,0.8936363636363637,6,6,"NIGHT_CLEAR,NIGHT_CLEAR,NIGHT_CLEAR,NIGHT_CLEAR,CLEAR,CLEAR,CLEAR,CLEAR,CLEAR,CLEAR,CLEAR","Offshore,Offshore,Offshore,Offshore,Offshore,Offshore,Offshore,Offshore,Offshore,Offshore,Offshore",11
5842041f4e65fad6a77089d0,2024_04_16,41.487408,-71.29017,First Beach,2.727272727272727,0.4636363636363636,0.77,7,7,"NIGHT_CLEAR,NIGHT_CLEAR,NIGHT_CLEAR,NIGHT_CLEAR,NIGHT_CLEAR,CLEAR,CLEAR,CLEAR,CLEAR,CLEAR,CLEAR","Offshore,Offshore,Offshore,Offshore,Offshore,Offshore,Offshore,Offshore,Offshore,Offshore,Offshore",11
5842041f4e65fad6a77089d1,2024_04_16,42.27916830233153,-70.86498,Nantasket Beach,1.3636363636363635,0.031345454545454544,0.3325818181818182,6,5,"NIGHT_CLEAR,NIGHT_CLEAR,NIGHT_CLEAR,NIGHT_CLEAR,CLEAR,CLEAR,CLEAR,CLEAR,CLEAR,CLEAR,CLEAR","Offshore,Offshore,Offshore,Offshore,Offshore,Offshore,Cross-shore,Cross-shore,Cross-shore,Cross-shore,Cross-shore",11
5842041f4e65fad6a77089d2,2024_04_16,41.817,-69.935,Cape Cod,1.9090909090909092,0.27090909090909093,0.5754545454545454,6,6,"NIGHT_CLEAR,NIGHT_MOSTLY_CLEAR,NIGHT_CLEAR,NIGHT_CLEAR,CLEAR,CLEAR,CLEAR,CLEAR,CLEAR,CLEAR,CLEAR","Offshore,Offshore,Offshore,Offshore,Offshore,Offshore,Offshore,Offshore,Offshore,Offshore,Onshore",11
5842041f4e65fad6a77089d3,2024_04_16,42.22055448975661,-70.70634873403819,Egypt Beach,1.0909090909090908,0.005454545454545455,0.31,6,6,"NIGHT_CLEAR,NIGHT_CLEAR,NIGHT_CLEAR,NIGHT_CLEAR,CLEAR,CLEAR,CLEAR,CLEAR,CLEAR,CLEAR,CLEAR","Offshore,Offshore,Offshore,Offshore,Offshore,Offshore,Offshore,Cross-shore,Offshore,Offshore,Offshore",11
5842041f4e65fad6a77089d4,2024_04_16,41.48739647744607,-71.25723,Second Beach,2.272727272727273,0.5259905303030303,0.8048311363636363,9,8,"NIGHT_CLEAR,NIGHT_CLEAR,NIGHT_CLEAR,NIGHT_CLEAR,NIGHT_CLEAR,CLEAR,CLEAR,CLEAR,CLEAR,CLEAR,CLEAR","Offshore,Offshore,Offshore,Cross-shore,Cross-shore,Cross-shore,Offshore,Offshore,Offshore,Cross-shore,Cross-shore",11
5842041f4e65fad6a77089d5,2024_04_16,42.964,-70.769,Fox Hill,2.5754545454545457,0.5194424242424243,0.8243909090909091,6,4,"NIGHT_CLEAR,NIGHT_CLEAR,NIGHT_CLEAR,NIGHT_CLEAR,CLEAR,CLEAR,CLEAR,CLEAR,CLEAR,CLEAR,CLEAR","Offshore,Offshore,Offshore,Offshore,Offshore,Offshore,Offshore,Offshore,Offshore,Offshore,Offshore",11
5842041f4e65fad6a77089d6,2024_04_16,42.991359,-70.75149,Straws Point,2.47,0.5111848484848485,0.8187848484848484,6,4,"NIGHT_CLEAR,NIGHT_CLEAR,NIGHT_CLEAR,NIGHT_CLEAR,CLEAR,CLEAR,CLEAR,CLEAR,CLEAR,CLEAR,CLEAR","Offshore,Offshore,Offshore,Offshore,Offshore,Offshore,Offshore,Offshore,Offshore,Offshore,Offshore",11
5842041f4e65fad6a77089d7,2024_04_16,42.946,-70.786,Plaice Cove,2.53,0.5194424242424243,0.8243909090909091,6,4,"NIGHT_CLEAR,NIGHT_CLEAR,NIGHT_CLEAR,NIGHT_CLEAR,CLEAR,CLEAR,CLEAR,CLEAR,CLEAR,CLEAR,CLEAR","Offshore,Offshore,Offshore,Offshore,Offshore,Offshore,Offshore,Offshore,Offshore,Offshore,Offshore",11
5842041f4e65fad6a77089d9,2024_04_16,42.911574,-70.80831,The Main Beach,2.2545454545454544,0.6039500757575758,0.9266456060606061,6,4,"NIGHT_CLEAR,NIGHT_CLEAR,NIGHT_CLEAR,NIGHT_CLEAR,CLEAR,CLEAR,CLEAR,CLEAR,CLEAR,CLEAR,CLEAR","Offshore,Offshore,Offshore,Offshore,Offshore,Offshore,Offshore,Offshore,Offshore,Offshore,Offshore",11
5842041f4e65fad6a77089da,2024_04_16,42.97583846220203,-70.764,Sawyer's Beach,2.56,0.5175484848484848,0.8197696969696969,6,4,"NIGHT_CLEAR,NIGHT_CLEAR,NIGHT_CLEAR,NIGHT_CLEAR,CLEAR,CLEAR,CLEAR,CLEAR,CLEAR,CLEAR,CLEAR","Offshore,Offshore,Offshore,Offshore,Offshore,Offshore,Offshore,Offshore,Offshore,Offshore,Offshore",11
5842041f4e65fad6a77089db,2024_04_16,42.97,-70.77,Rye on the Rocks / 5-0's,2.290909090909091,0.6562171969696969,0.9227849242424242,6,4,"NIGHT_CLEAR,NIGHT_CLEAR,NIGHT_CLEAR,NIGHT_CLEAR,CLEAR,CLEAR,CLEAR,CLEAR,CLEAR,CLEAR,CLEAR","Offshore,Offshore,Offshore,Offshore,Offshore,Offshore,Offshore,Offshore,Offshore,Offshore,Offshore",11
5842041f4e65fad6a77089dc,2024_04_16,43.55902946610303,-70.27795,Higgins Beach,2.909090909090909,0.5727757575757576,0.8785575757575758,6,5,"NIGHT_CLEAR,NIGHT_CLEAR,NIGHT_CLEAR,NIGHT_CLEAR,CLEAR,CLEAR,CLEAR,CLEAR,CLEAR,CLEAR,CLEAR","Cross-shore,Cross-shore,Cross-shore,Offshore,Offshore,Offshore,Offshore,Offshore,Offshore,Onshore,Onshore",11
5842041f4e65fad6a77089dd,2024_04_16,43.302676,-70.5652,Wells Beach,2.5454545454545454,0.6198969696969697,0.9256787878787879,6,4,"NIGHT_CLEAR,NIGHT_CLEAR,NIGHT_CLEAR,NIGHT_CLEAR,CLEAR,CLEAR,CLEAR,CLEAR,CLEAR,CLEAR,CLEAR","Offshore,Offshore,Offshore,Offshore,Offshore,Offshore,Offshore,Offshore,Offshore,Offshore,Offshore",11
5842041f4e65fad6a77089de,2024_04_16,43.545359,-70.30479,Scarborough Beach State Park,2.727272727272727,0.6055811363636364,0.9291934090909091,6,4,"NIGHT_CLEAR,NIGHT_CLEAR,NIGHT_CLEAR,NIGHT_CLEAR,CLEAR,CLEAR,CLEAR,CLEAR,CLEAR,CLEAR,CLEAR","Offshore,Offshore,Offshore,Offshore,Offshore,Offshore,Offshore,Offshore,Offshore,Onshore,Onshore",11
5842041f4e65fad6a77089df,2024_04_16,43.514481,-70.372146,Old Orchard Beach,2.8936363636363636,0.49550303030303033,0.8021939393939393,6,5,"NIGHT_CLEAR,NIGHT_CLEAR,NIGHT_CLEAR,NIGHT_CLEAR,CLEAR,CLEAR,CLEAR,CLEAR,CLEAR,CLEAR,CLEAR","Offshore,Offshore,Offshore,Offshore,Offshore,Offshore,Offshore,Offshore,Offshore,Onshore,Onshore",11
5842041f4e65fad6a77089e0,2024_04_16,43.34711,-70.48165,Gooch's Beach,2.0754545454545457,0.6051242424242425,0.9099969696969697,6,5,"NIGHT_CLEAR,NIGHT_CLEAR,NIGHT_CLEAR,NIGHT_CLEAR,CLEAR,CLEAR,CLEAR,CLEAR,CLEAR,CLEAR,CLEAR","Cross-shore,Cross-shore,Cross-shore,Cross-shore,Cross-shore,Offshore,Offshore,Offshore,Offshore,Onshore,Cross-shore",11
5842041f4e65fad6a77089e2,2024_04_16,40.58433,-73.62953,Lido Beach,2.418181818181818,0.6060969696969697,0.9835484848484848,9,7,"NIGHT_CLEAR,NIGHT_CLEAR,NIGHT_CLEAR,NIGHT_CLEAR,NIGHT_CLEAR,CLEAR,CLEAR,CLEAR,CLEAR,CLEAR,CLEAR","Cross-shore,Cross-shore,Offshore,Offshore,Offshore,Offshore,Offshore,Cross-shore,Cross-shore,Cross-shore,Offshore",11
5842041f4e65fad6a77089e3,2024_04_16,43.163135,-70.61689,Long Sands Beach,2.5454545454545454,0.5105114393939394,0.7806434090909091,6,5,"NIGHT_CLEAR,NIGHT_CLEAR,NIGHT_CLEAR,NIGHT_CLEAR,CLEAR,CLEAR,CLEAR,CLEAR,CLEAR,CLEAR,CLEAR","Offshore,Offshore,Offshore,Offshore,Offshore,Offshore,Offshore,Offshore,Offshore,Offshore,Offshore",11
5842041f4e65fad6a77089e4,2024_04_16,40.61695351251805,-73.39376,Gilgo Beach,2.272727272727273,0.5865818181818182,0.953260606060606,9,7,"NIGHT_CLEAR,NIGHT_CLEAR,NIGHT_CLEAR,NIGHT_CLEAR,NIGHT_CLEAR,CLEAR,CLEAR,CLEAR,CLEAR,CLEAR,CLEAR","Offshore,Offshore,Offshore,Offshore,Offshore,Offshore,Offshore,Offshore,Offshore,Offshore,Offshore",11
5842041f4e65fad6a77089e5,2024_04_16,40.62530081928036,-73.23827,Robert Moses,2.090909090909091,0.4690909090909091,0.7736363636363637,8,8,"NIGHT_CLEAR,NIGHT_CLEAR,NIGHT_CLEAR,NIGHT_CLEAR,NIGHT_CLEAR,CLEAR,CLEAR,CLEAR,CLEAR,CLEAR,CLEAR","Offshore,Offshore,Offshore,Offshore,Offshore,Offshore,Offshore,Offshore,Offshore,Offshore,Offshore",11
5842041f4e65fad6a77089e6,2024_04_16,40.64313317632791,-73.15727,Fire Island,2.3636363636363638,0.4672727272727273,0.7718181818181818,8,8,"NIGHT_MOSTLY_CLEAR,NIGHT_CLEAR,NIGHT_CLEAR,NIGHT_CLEAR,NIGHT_CLEAR,CLEAR,CLEAR,CLEAR,CLEAR,CLEAR,CLEAR","Offshore,Offshore,Offshore,Offshore,Offshore,Offshore,Offshore,Offshore,Offshore,Offshore,Offshore",11
5842041f4e65fad6a77089e8,2024_04_16,40.76653118828782,-72.74579619372713,Cupsogue,3.3636363636363638,1.0272727272727273,1.278181818181818,8,8,"NIGHT_CLEAR,NIGHT_CLEAR,NIGHT_CLEAR,NIGHT_CLEAR,NIGHT_CLEAR,CLEAR,CLEAR,CLEAR,CLEAR,CLEAR,CLEAR","Offshore,Offshore,Offshore,Offshore,Offshore,Offshore,Offshore,Offshore,Offshore,Offshore,Offshore",11
5842041f4e65fad6a77089e9,2024_04_16,42.9376373334092,-70.79141,The Wall ,2.2363636363636363,0.5574709090909091,0.8540195454545455,6,4,"NIGHT_CLEAR,NIGHT_CLEAR,NIGHT_CLEAR,NIGHT_CLEAR,CLEAR,CLEAR,CLEAR,CLEAR,CLEAR,CLEAR,CLEAR","Offshore,Offshore,Offshore,Offshore,Offshore,Offshore,Offshore,Offshore,Offshore,Offshore,Offshore",11
5842041f4e65fad6a77089ea,2024_04_16,40.887088,-72.33856,Flys,3,0.8327272727272728,1.1363636363636362,8,8,"NIGHT_CLEAR,NIGHT_CLEAR,NIGHT_CLEAR,NIGHT_CLEAR,NIGHT_CLEAR,CLEAR,CLEAR,CLEAR,CLEAR,CLEAR,CLEAR","Offshore,Offshore,Offshore,Offshore,Offshore,Offshore,Offshore,Offshore,Offshore,Offshore,Cross-shore",11
5842041f4e65fad6a77089eb,2024_04_16,41.0389266436591,-71.91068529316958,Trailer Park,2.5236363636363635,0.7772491666666667,1.1306453030303032,9,7,"NIGHT_CLEAR,NIGHT_CLEAR,NIGHT_CLEAR,NIGHT_CLEAR,NIGHT_CLEAR,CLEAR,CLEAR,CLEAR,CLEAR,CLEAR,CLEAR","Offshore,Offshore,Offshore,Offshore,Offshore,Offshore,Offshore,Offshore,Cross-shore,Cross-shore,Cross-shore",11
5842041f4e65fad6a77089ec,2024_04_16,41.039505402729105,-71.9142,Ditch Plains,3,0.7469509090909091,1.167110909090909,7,7,"NIGHT_CLEAR,NIGHT_CLEAR,NIGHT_CLEAR,NIGHT_CLEAR,NIGHT_CLEAR,CLEAR,CLEAR,CLEAR,CLEAR,CLEAR,CLEAR","Offshore,Offshore,Offshore,Offshore,Offshore,Offshore,Offshore,Offshore,Offshore,Offshore,Offshore",11
5842041f4e65fad6a77089ee,2024_04_16,40.57633275206492,-73.56895305108567,"West End, Jones Beach",2.4545454545454546,0.6275666666666667,0.9942454545454545,9,7,"NIGHT_CLEAR,NIGHT_CLEAR,NIGHT_CLEAR,NIGHT_CLEAR,NIGHT_CLEAR,CLEAR,CLEAR,CLEAR,CLEAR,CLEAR,CLEAR","Offshore,Offshore,Offshore,Offshore,Cross-shore,Cross-shore,Offshore,Offshore,Offshore,Cross-shore,Cross-shore",11
5842041f4e65fad6a77089f1,2024_04_16,41.038286691230795,-71.91991567611694,Poles,2.4481818181818182,0.7563701515151515,1.118574696969697,9,7,"NIGHT_CLEAR,NIGHT_CLEAR,NIGHT_CLEAR,NIGHT_CLEAR,NIGHT_CLEAR,CLEAR,CLEAR,CLEAR,CLEAR,CLEAR,CLEAR","Offshore,Offshore,Offshore,Offshore,Offshore,Offshore,Offshore,Offshore,Cross-shore,Cross-shore,Cross-shore",11
5842041f4e65fad6a77089f3,2024_04_16,40.84077769766295,-72.47989493724765,The Bowl,3,0.8818181818181818,1.1018181818181818,8,8,"NIGHT_CLEAR,NIGHT_CLEAR,NIGHT_CLEAR,NIGHT_CLEAR,NIGHT_CLEAR,CLEAR,CLEAR,CLEAR,CLEAR,CLEAR,CLEAR","Offshore,Offshore,Offshore,Offshore,Offshore,Offshore,Offshore,Offshore,Offshore,Offshore,Offshore",11
5842041f4e65fad6a77089f4,2024_04_16,40.94235535243154,-72.19286,Main Beach,2.4545454545454546,0.7042333333333334,1.0088878787878788,15,13,"NIGHT_CLEAR,NIGHT_CLEAR,NIGHT_CLEAR,NIGHT_CLEAR,NIGHT_CLEAR,CLEAR,CLEAR,CLEAR,CLEAR,CLEAR,CLEAR","Offshore,Offshore,Offshore,Cross-shore,Cross-shore,Cross-shore,Offshore,Offshore,Offshore,Cross-shore,Cross-shore",11
5842041f4e65fad6a77089f5,2024_04_16,40.58270702399518,-73.67251552079799,Laurelton Blvd.,1.9272727272727272,0.659844393939394,0.8818224242424242,9,7,"NIGHT_CLEAR,NIGHT_CLEAR,NIGHT_CLEAR,NIGHT_CLEAR,NIGHT_CLEAR,CLEAR,CLEAR,CLEAR,CLEAR,CLEAR,CLEAR","Cross-shore,Offshore,Offshore,Offshore,Offshore,Offshore,Offshore,Offshore,Cross-shore,Offshore,Offshore",11
5842041f4e65fad6a77089f6,2024_04_16,41.033752854071416,-71.93696,Terrace,2.4936363636363637,0.7550545454545454,1.117648484848485,9,7,"NIGHT_CLEAR,NIGHT_CLEAR,NIGHT_CLEAR,NIGHT_CLEAR,NIGHT_CLEAR,CLEAR,CLEAR,CLEAR,CLEAR,CLEAR,CLEAR","Offshore,Offshore,Offshore,Offshore,Offshore,Offshore,Offshore,Offshore,Cross-shore,Cross-shore,Cross-shore",11
5842041f4e65fad6a77089f7,2024_04_16,40.83372943645748,-72.50426173210144,K Road,3,1.0072727272727273,1.2218181818181817,8,8,"NIGHT_CLEAR,NIGHT_CLEAR,NIGHT_CLEAR,NIGHT_CLEAR,NIGHT_CLEAR,CLEAR,CLEAR,CLEAR,CLEAR,CLEAR,CLEAR","Offshore,Offshore,Offshore,Offshore,Offshore,Offshore,Offshore,Offshore,Offshore,Offshore,Offshore",11
5842041f4e65fad6a77089f8,2024_04_16,40.58456099581507,-73.80730032920837,84th Street,2.727272727272727,0.6177939393939395,0.9835636363636364,9,7,"NIGHT_CLEAR,NIGHT_CLEAR,NIGHT_CLEAR,NIGHT_CLEAR,NIGHT_CLEAR,CLEAR,CLEAR,CLEAR,CLEAR,CLEAR,CLEAR","Offshore,Offshore,Offshore,Offshore,Offshore,Offshore,Offshore,Offshore,Offshore,Offshore,Offshore",11
5842041f4e65fad6a77089fa,2024_04_16,40.1319,-74.02788,Sea Girt,2.0754545454545457,0.5583242424242425,0.8647212121212121,10,8,"NIGHT_CLEAR,NIGHT_CLEAR,NIGHT_CLEAR,NIGHT_CLEAR,NIGHT_CLEAR,CLEAR,CLEAR,CLEAR,CLEAR,CLEAR,CLEAR","Cross-shore,Cross-shore,Offshore,Offshore,Offshore,Offshore,Offshore,Offshore,Offshore,Offshore,Onshore",11
5842041f4e65fad6a77089fb,2024_04_16,40.54698301868125,-73.9268,Breezy Point,2.3636363636363638,0.3618181818181818,0.6690909090909091,9,9,"NIGHT_CLEAR,NIGHT_CLEAR,NIGHT_CLEAR,NIGHT_CLEAR,NIGHT_CLEAR,CLEAR,CLEAR,CLEAR,CLEAR,CLEAR,CLEAR","Offshore,Offshore,Offshore,Offshore,Offshore,Offshore,Offshore,Offshore,Offshore,Offshore,Offshore",11
5842041f4e65fad6a77089fc,2024_04_16,40.152504,-74.021383,Spring Lake,2.090909090909091,0.5490818181818182,0.8542666666666667,10,8,"NIGHT_MOSTLY_CLEAR,NIGHT_CLEAR,NIGHT_CLEAR,NIGHT_CLEAR,NIGHT_CLEAR,CLEAR,CLEAR,CLEAR,CLEAR,CLEAR,CLEAR","Cross-shore,Cross-shore,Offshore,Offshore,Offshore,Offshore,Offshore,Offshore,Cross-shore,Offshore,Onshore",11
5842041f4e65fad6a77089fd,2024_04_16,40.591277,-73.770792,30th - 39th Streets,1.9845454545454546,0.4971878787878788,0.8656848484848485,9,7,"NIGHT_CLEAR,NIGHT_CLEAR,NIGHT_CLEAR,NIGHT_CLEAR,NIGHT_CLEAR,CLEAR,CLEAR,CLEAR,CLEAR,CLEAR,CLEAR","Offshore,Offshore,Offshore,Offshore,Offshore,Offshore,Offshore,Offshore,Offshore,Offshore,Offshore",11
5842041f4e65fad6a77089fe,2024_04_16,40.18834955871439,-74.00860982500222,Avon,2.0754545454545457,0.5302181818181818,0.8335848484848485,10,8,"NIGHT_CLEAR,NIGHT_CLEAR,NIGHT_CLEAR,NIGHT_CLEAR,NIGHT_CLEAR,CLEAR,CLEAR,CLEAR,CLEAR,CLEAR,CLEAR","Cross-shore,Cross-shore,Offshore,Offshore,Offshore,Offshore,Offshore,Offshore,Cross-shore,Offshore,Onshore",11
5842041f4e65fad6a77089ff,2024_04_16,40.1974229100932,-74.00650533798255,Bradley Beach,2.06,0.5445363636363637,0.8491909090909091,10,8,"NIGHT_CLEAR,NIGHT_CLEAR,NIGHT_CLEAR,NIGHT_CLEAR,NIGHT_CLEAR,CLEAR,CLEAR,CLEAR,CLEAR,CLEAR,CLEAR","Cross-shore,Cross-shore,Offshore,Offshore,Offshore,Offshore,Offshore,Offshore,Offshore,Cross-shore,Onshore",11
5842041f4e65fad6a7708a01,2024_04_16,40.17202,-74.01503,"16th Ave., Belmar",2.8372727272727274,0.602569696969697,0.9140666666666667,10,8,"NIGHT_CLEAR,NIGHT_CLEAR,NIGHT_CLEAR,NIGHT_CLEAR,NIGHT_CLEAR,CLEAR,CLEAR,CLEAR,CLEAR,CLEAR,CLEAR","Cross-shore,Cross-shore,Offshore,Offshore,Offshore,Offshore,Offshore,Offshore,Cross-shore,Offshore,Onshore",11
5842041f4e65fad6a7708a02,2024_04_16,40.217443,-73.99982,Asbury Park,2.1363636363636362,0.5747636363636364,0.8782060606060605,10,8,"NIGHT_CLEAR,NIGHT_CLEAR,NIGHT_CLEAR,NIGHT_CLEAR,NIGHT_CLEAR,CLEAR,CLEAR,CLEAR,CLEAR,CLEAR,CLEAR","Cross-shore,Cross-shore,Offshore,Offshore,Offshore,Offshore,Offshore,Offshore,Cross-shore,Offshore,Onshore",11
5842041f4e65fad6a7708a03,2024_04_16,40.229841,-73.996782,Loch Arbour and Deal,2.1363636363636362,0.561960606060606,0.8656303030303031,10,8,"NIGHT_CLEAR,NIGHT_CLEAR,NIGHT_CLEAR,NIGHT_CLEAR,NIGHT_CLEAR,CLEAR,CLEAR,CLEAR,CLEAR,CLEAR,CLEAR","Offshore,Offshore,Offshore,Offshore,Offshore,Offshore,Offshore,Offshore,Offshore,Offshore,Offshore",11
5842041f4e65fad6a7708a05,2024_04_16,40.41754,-73.97935,Sandy Hook,1.7272727272727273,0.13272727272727272,0.4409090909090909,9,9,"NIGHT_CLEAR,NIGHT_CLEAR,NIGHT_CLEAR,NIGHT_CLEAR,NIGHT_CLEAR,CLEAR,CLEAR,CLEAR,CLEAR,CLEAR,CLEAR","Cross-shore,Offshore,Offshore,Offshore,Offshore,Offshore,Offshore,Offshore,Offshore,Offshore,Offshore",11
5842041f4e65fad6a7708a06,2024_04_16,39.36353,-74.40873,Crystals,2,0.6386697727272728,0.9826198484848485,10,8,"NIGHT_CLEAR,NIGHT_MOSTLY_CLEAR,NIGHT_CLEAR,NIGHT_CLEAR,NIGHT_CLEAR,CLEAR,CLEAR,CLEAR,CLEAR,CLEAR,CLEAR","Offshore,Offshore,Offshore,Offshore,Offshore,Offshore,Offshore,Offshore,Offshore,Onshore,Onshore",11
5842041f4e65fad6a7708a07,2024_04_16,39.31443,-74.51863,32nd Street,2.272727272727273,0.6215303030303031,0.9558473484848485,10,8,"NIGHT_CLEAR,NIGHT_CLEAR,NIGHT_CLEAR,NIGHT_CLEAR,NIGHT_CLEAR,CLEAR,CLEAR,CLEAR,CLEAR,CLEAR,CLEAR","Offshore,Offshore,Offshore,Offshore,Offshore,Offshore,Offshore,Offshore,Offshore,Onshore,Onshore",11
5842041f4e65fad6a7708a08,2024_04_16,39.327688,-74.49524,Margate Pier Northside,2.272727272727273,0.6215303030303031,0.9558473484848485,10,8,"NIGHT_CLEAR,NIGHT_CLEAR,NIGHT_CLEAR,NIGHT_CLEAR,NIGHT_CLEAR,CLEAR,CLEAR,CLEAR,CLEAR,CLEAR,CLEAR","Offshore,Offshore,Offshore,Offshore,Offshore,Offshore,Offshore,Offshore,Offshore,Onshore,Onshore",11
5842041f4e65fad6a7708a09,2024_04_16,39.336276,-74.47782,Ventnor Pier,2.272727272727273,0.6237787878787879,0.9593583333333333,10,8,"NIGHT_CLEAR,NIGHT_CLEAR,NIGHT_CLEAR,NIGHT_CLEAR,NIGHT_CLEAR,CLEAR,CLEAR,CLEAR,CLEAR,CLEAR,CLEAR","Offshore,Offshore,Offshore,Offshore,Offshore,Offshore,Offshore,Offshore,Offshore,Cross-shore,Onshore",11
5842041f4e65fad6a7708a0a,2024_04_16,39.35929751441085,-74.41683,States Avenue,2,0.6386697727272728,0.9826198484848485,10,8,"NIGHT_MOSTLY_CLOUDY,NIGHT_MOSTLY_CLOUDY,NIGHT_CLEAR,NIGHT_CLEAR,NIGHT_CLEAR,CLEAR,CLEAR,CLEAR,CLEAR,CLEAR,CLEAR","Offshore,Offshore,Offshore,Offshore,Offshore,Offshore,Offshore,Offshore,Offshore,Onshore,Onshore",11
5842041f4e65fad6a7708a0b,2024_04_16,39.37274173278517,-74.40454,Brigantine Jetty,2.227272727272727,0.6528830303030303,1.004830606060606,10,8,"NIGHT_CLEAR,NIGHT_MOSTLY_CLEAR,NIGHT_CLEAR,NIGHT_CLEAR,NIGHT_CLEAR,CLEAR,CLEAR,CLEAR,CLEAR,CLEAR,CLEAR","Offshore,Offshore,Offshore,Offshore,Offshore,Offshore,Offshore,Offshore,Offshore,Onshore,Onshore",11
5842041f4e65fad6a7708a0c,2024_04_16,39.356505,-74.42263,South Carolina Avenue,2.227272727272727,0.6528830303030303,1.004830606060606,10,8,"NIGHT_MOSTLY_CLOUDY,NIGHT_MOSTLY_CLOUDY,NIGHT_CLEAR,NIGHT_CLEAR,NIGHT_CLEAR,CLEAR,CLEAR,CLEAR,CLEAR,CLEAR,CLEAR","Offshore,Offshore,Offshore,Offshore,Offshore,Offshore,Offshore,Offshore,Offshore,Onshore,Onshore",11
5842041f4e65fad6a7708a0d,2024_04_16,39.413485,-74.35476,14th Street North,2.2572727272727273,0.5430212121212121,0.84941818181818185,10,8,"NIGHT_MOSTLY_CLOUDY,NIGHT_CLEAR,NIGHT_CLEAR,NIGHT_CLEAR,NIGHT_CLEAR,CLEAR,CLEAR,CLEAR,CLEAR,CLEAR,CLEAR","Cross-shore,Offshore,Cross-shore,Cross-shore,Offshore,Offshore,Offshore,Offshore,Offshore,Onshore,Cross-shore",11
5842041f4e65fad6a7708a0e,2024_04_16,39.531319,-74.263252,The Wooden Jetty,2.560909090909091,0.6367421212121213,0.9722647727272726,10,8,"NIGHT_CLEAR,NIGHT_CLEAR,NIGHT_CLEAR,NIGHT_CLEAR,NIGHT_CLEAR,CLEAR,CLEAR,CLEAR,CLEAR,CLEAR,CLEAR","Cross-shore,Offshore,Cross-shore,Offshore,Offshore,Offshore,Offshore,Offshore,Offshore,Cross-shore,Cross-shore",11
5842041f4e65fad6a7708a0f,2024_04_16,39.552472,-74.24344,Holyoke,2.53,0.5978609848484848,0.9887091666666666,10,8,"NIGHT_CLEAR,NIGHT_CLEAR,NIGHT_CLEAR,NIGHT_CLEAR,NIGHT_CLEAR,CLEAR,CLEAR,CLEAR,CLEAR,CLEAR,CLEAR","Cross-shore,Offshore,Cross-shore,Offshore,Offshore,Offshore,Offshore,Offshore,Offshore,Cross-shore,Cross-shore",11
5842041f4e65fad6a7708a10,2024_04_16,39.692364,-74.14068,Hudson Ave.,2.409090909090909,0.5932939393939394,0.9680181818181818,10,8,"NIGHT_CLEAR,NIGHT_CLEAR,NIGHT_CLEAR,NIGHT_CLEAR,NIGHT_CLEAR,CLEAR,CLEAR,CLEAR,CLEAR,CLEAR,CLEAR","Cross-shore,Offshore,Cross-shore,Cross-shore,Offshore,Offshore,Offshore,Offshore,Offshore,Offshore,Onshore",11
5842041f4e65fad6a7708a11,2024_04_16,39.79614,-74.09248,Island Beach State Park,1.9545454545454546,0.573930303030303,0.9384878787878788,10,8,"NIGHT_CLEAR,NIGHT_CLEAR,NIGHT_CLEAR,NIGHT_CLEAR,NIGHT_CLEAR,CLEAR,CLEAR,CLEAR,CLEAR,CLEAR,CLEAR","Cross-shore,Cross-shore,Cross-shore,Cross-shore,Offshore,Offshore,Offshore,Cross-shore,Cross-shore,Cross-shore,Onshore",11
5842041f4e65fad6a7708a12,2024_04_16,39.91813588078152,-74.07527,Seaside Park,2.2572727272727273,0.529309090909091,0.8929575757575757,10,8,"NIGHT_MOSTLY_CLEAR,NIGHT_CLEAR,NIGHT_CLEAR,NIGHT_CLEAR,NIGHT_CLEAR,CLEAR,CLEAR,CLEAR,CLEAR,CLEAR,CLEAR","Cross-shore,Cross-shore,Cross-shore,Cross-shore,Offshore,Offshore,Offshore,Cross-shore,Offshore,Offshore,Onshore",11
5842041f4e65fad6a7708a14,2024_04_16,39.946638,-74.06884,Seaside Heights,2.211818181818182,0.5592333333333334,0.9237909090909091,10,8,"NIGHT_MOSTLY_CLEAR,NIGHT_MOSTLY_CLEAR,NIGHT_CLEAR,NIGHT_CLEAR,NIGHT_CLEAR,CLEAR,CLEAR,CLEAR,CLEAR,CLEAR,CLEAR","Cross-shore,Cross-shore,Offshore,Offshore,Offshore,Offshore,Cross-shore,Cross-shore,Cross-shore,Offshore,Offshore",11
5842041f4e65fad6a7708a15,2024_04_16,39.95745637606704,-74.06736,Ortley Beach,2,0.505369696969697,0.8087363636363636,10,8,"NIGHT_MOSTLY_CLEAR,NIGHT_MOSTLY_CLEAR,NIGHT_CLEAR,NIGHT_CLEAR,NIGHT_CLEAR,CLEAR,CLEAR,CLEAR,CLEAR,CLEAR,CLEAR","Cross-shore,Cross-shore,Offshore,Offshore,Offshore,Offshore,Cross-shore,Cross-shore,Cross-shore,Offshore,Offshore",11
5842041f4e65fad6a7708a16,2024_04_16,39.98313468342945,-74.06265685577506,Lavallette,2.0454545454545454,0.5496121212121212,0.8551757575757576,10,8,"NIGHT_MOSTLY_CLEAR,NIGHT_CLEAR,NIGHT_CLEAR,NIGHT_CLEAR,NIGHT_CLEAR,CLEAR,CLEAR,CLEAR,CLEAR,CLEAR,CLEAR","Cross-shore,Cross-shore,Offshore,Offshore,Offshore,Offshore,Cross-shore,Cross-shore,Cross-shore,Offshore,Offshore",11
