_id,date,lat,lon,name,daily_mean_swell_rating,daily_mean_wave_height_min,daily_mean_wave_height_max,daily_mean_water_temperature_max,daily_mean_water_temperature_min,weather_per_timestamp,wind_per_timestamp,n_samples_per_day
5842041f4e65fad6a77087f9,2024_02_13,37.741668,-122.51038,South Ocean Beach,2.6671428571428573,1.8258619047619047,2.1871190476190474,14,14,"MIST,NIGHT_CLEAR,NIGHT_CLEAR,NIGHT_MIST,NIGHT_MIST,NIGHT_MIST,NIGHT_MIST","Onshore,Onshore,Onshore,Offshore,Offshore,Offshore,Offshore",7
5842041f4e65fad6a7708801,2024_02_13,37.49142,-122.50428,Maverick's,NA,1.823257142857143,2.1356,13,13,"CLEAR,NIGHT_MIST,NIGHT_MIST,NIGHT_CLEAR,NIGHT_CLEAR,NIGHT_CLEAR,NIGHT_CLEAR","Offshore,Offshore,Offshore,Offshore,Offshore,Offshore,Offshore",7
5842041f4e65fad6a7708804,2024_02_13,44.997,-124.018,Roads End,3.857142857142857,2.1157142857142857,2.3614285714285717,11,11,"MOSTLY_CLOUDY,NIGHT_CLEAR,NIGHT_CLEAR,NIGHT_CLEAR,NIGHT_CLEAR,NIGHT_CLEAR,NIGHT_CLEAR","Cross-shore,Offshore,Offshore,Offshore,Offshore,Offshore,Offshore",7
5842041f4e65fad6a7708805,2024_02_13,36.95188851423011,-122.02522,Steamer Lane,3.5,1.1579285714285714,1.4518142857142857,14,14,"CLEAR,NIGHT_MIST,NIGHT_FOG,NIGHT_MOSTLY_CLOUDY,NIGHT_MOSTLY_CLOUDY,NIGHT_MOSTLY_CLOUDY,NIGHT_MIST","Offshore,Offshore,Offshore,Offshore,Offshore,Offshore,Offshore",7
5842041f4e65fad6a7708806,2024_02_13,36.95918781542251,-122.02489,Cowells,1.4285714285714286,0.0014285714285714286,0.2881142857142857,14,14,"CLEAR,NIGHT_MIST,NIGHT_FOG,NIGHT_MOSTLY_CLOUDY,NIGHT_MOSTLY_CLOUDY,NIGHT_MOSTLY_CLOUDY,NIGHT_MIST","Offshore,Cross-shore,Cross-shore,Cross-shore,Offshore,Offshore,Cross-shore",7
5842041f4e65fad6a7708807,2024_02_13,36.95468082526536,-121.97234,Pleasure Point,3.5714285714285716,1.1274142857142857,1.4501285714285714,14,14,"CLEAR,NIGHT_FOG,NIGHT_FOG,NIGHT_MOSTLY_CLEAR,NIGHT_CLEAR,NIGHT_CLEAR,NIGHT_CLEAR","Cross-shore,Onshore,Onshore,Offshore,Offshore,Offshore,Offshore",7
5842041f4e65fad6a770880a,2024_02_13,35.37815414378748,-120.86589,Morro Bay,3.857142857142857,1.3576333333333335,1.646,14,14,"CLEAR,NIGHT_CLEAR,NIGHT_CLEAR,NIGHT_CLEAR,NIGHT_CLEAR,NIGHT_CLEAR,NIGHT_CLEAR","Onshore,Offshore,Offshore,Offshore,Offshore,Offshore,Offshore",7
5842041f4e65fad6a770880b,2024_02_13,36.95782765000708,-121.9672887511276,Jack's,2.7614285714285716,0.3875,0.6802571428571428,14,14,"CLEAR,NIGHT_FOG,NIGHT_FOG,NIGHT_MOSTLY_CLEAR,NIGHT_CLEAR,NIGHT_CLEAR,NIGHT_CLEAR","Cross-shore,Onshore,Onshore,Cross-shore,Offshore,Offshore,Offshore",7
5842041f4e65fad6a770880d,2024_02_13,34.29982939936656,-119.3489016603669,Gold Coast Beachbreaks,2,0.09428571428571429,0.39571428571428574,14.714285714285714,14.714285714285714,"CLEAR,NIGHT_CLEAR,NIGHT_CLEAR,NIGHT_CLEAR,NIGHT_CLEAR,NIGHT_CLEAR,NIGHT_CLEAR","Onshore,Offshore,Cross-shore,Cross-shore,Cross-shore,Cross-shore,Cross-shore",7
5842041f4e65fad6a7708811,2024_02_13,34.245076,-119.26799,Ventura Harbor,3,0.8463071428571428,1.1181375,14,14,"CLEAR,NIGHT_CLEAR,NIGHT_CLEAR,NIGHT_CLEAR,NIGHT_CLEAR,NIGHT_CLEAR,NIGHT_CLEAR","Onshore,Onshore,Cross-shore,Offshore,Cross-shore,Onshore,Cross-shore",7
5842041f4e65fad6a7708813,2024_02_13,34.051,-118.964,County Line,2.6671428571428573,0.4507809523809524,0.7527190476190476,15,15,"CLEAR,NIGHT_CLEAR,NIGHT_CLEAR,NIGHT_CLEAR,NIGHT_CLEAR,NIGHT_CLEAR,NIGHT_CLEAR","Onshore,Offshore,Offshore,Offshore,Offshore,Offshore,Offshore",7
5842041f4e65fad6a7708814,2024_02_13,34.37256264378892,-119.47797,Rincon,2,0.19571428571428573,0.5028571428571429,15,15,"CLEAR,NIGHT_CLEAR,NIGHT_CLEAR,NIGHT_CLEAR,NIGHT_CLEAR,NIGHT_CLEAR,NIGHT_CLEAR","Cross-shore,Cross-shore,Onshore,Cross-shore,Onshore,Cross-shore,Onshore",7
5842041f4e65fad6a7708817,2024_02_13,34.03096101876324,-118.68109,Malibu Third Point,2,0.2057142857142857,0.5128571428571429,15,15,"CLEAR,NIGHT_CLEAR,NIGHT_CLEAR,NIGHT_CLEAR,NIGHT_CLEAR,NIGHT_CLEAR,NIGHT_CLEAR","Cross-shore,Offshore,Offshore,Onshore,Cross-shore,Cross-shore,Cross-shore",7
5842041f4e65fad6a7708819,2024_02_13,33.984079047970035,-118.47381591796875,Venice Beach,2.857142857142857,0.44756666666666667,0.7525999999999999,14,14,"CLEAR,NIGHT_MIST,NIGHT_MIST,NIGHT_CLEAR,NIGHT_CLEAR,NIGHT_MIST,NIGHT_MIST","Onshore,Offshore,Offshore,Offshore,Offshore,Offshore,Offshore",7
5842041f4e65fad6a770881e,2024_02_13,34.037508438646746,-118.58339846155594,Topanga Beach,2,0.15300952380952382,0.4579238095238095,15,15,"CLEAR,NIGHT_CLEAR,NIGHT_CLEAR,NIGHT_CLEAR,NIGHT_CLEAR,NIGHT_CLEAR,NIGHT_CLEAR","Onshore,Offshore,Offshore,Offshore,Offshore,Offshore,Offshore",7
5842041f4e65fad6a7708820,2024_02_13,33.73954373690184,-118.11414,Seal Beach Jetty,1.8571428571428572,0.15428571428571428,0.4585714285714286,15,15,"CLEAR,NIGHT_CLEAR,NIGHT_MIST,NIGHT_MIST,NIGHT_CLEAR,NIGHT_CLEAR,NIGHT_CLEAR","Onshore,Offshore,Offshore,Offshore,Offshore,Offshore,Offshore",7
5842041f4e65fad6a7708822,2024_02_13,33.72309983348433,-118.08078,Anderson Street,1.8571428571428572,0.16571428571428573,0.46714285714285714,15,15,"CLEAR,NIGHT_CLEAR,NIGHT_MIST,NIGHT_MIST,NIGHT_CLEAR,NIGHT_CLEAR,NIGHT_MIST","Onshore,Offshore,Offshore,Offshore,Offshore,Offshore,Offshore",7
5842041f4e65fad6a7708827,2024_02_13,33.65574085629463,-118.00397,Huntington Beach Pier Northside,2.8814285714285712,0.6515666666666666,0.9816952380952381,14,14,"CLEAR,NIGHT_CLEAR,NIGHT_MIST,NIGHT_MIST,NIGHT_CLEAR,NIGHT_CLEAR,NIGHT_CLEAR","Onshore,Offshore,Offshore,Offshore,Offshore,Offshore,Onshore",7
5842041f4e65fad6a7708828,2024_02_13,34.272041739333,-119.2997646331,C St.,2.7614285714285716,0.5169428571428571,0.8221,14,14,"CLEAR,NIGHT_MOSTLY_CLEAR,NIGHT_MOSTLY_CLEAR,NIGHT_CLEAR,NIGHT_CLEAR,NIGHT_CLEAR,NIGHT_CLEAR","Onshore,Offshore,Offshore,Offshore,Offshore,Offshore,Offshore",7
5842041f4e65fad6a770882a,2024_02_13,33.61555743705257,-117.93676,Newport Lower Jetties,1.8814285714285715,0.3263619047619048,0.6271619047619047,15,15,"CLEAR,NIGHT_CLEAR,NIGHT_CLEAR,NIGHT_CLEAR,NIGHT_CLEAR,NIGHT_MOSTLY_CLEAR,NIGHT_CLEAR","Onshore,Offshore,Cross-shore,Offshore,Offshore,Cross-shore,Onshore",7
5842041f4e65fad6a770882b,2024_02_13,33.5930302087,-117.88199,The Wedge,1.8571428571428572,0.19871,0.6248,15,15,"CLEAR,NIGHT_CLEAR,NIGHT_MIST,NIGHT_CLEAR,NIGHT_CLEAR,NIGHT_MIST,NIGHT_CLEAR","Onshore,Offshore,Offshore,Offshore,Offshore,Cross-shore,Offshore",7
5842041f4e65fad6a770882c,2024_02_13,33.60577342582,-117.9315376281,Newport Beach Pier,1.8814285714285715,0.23484761904761906,0.542552380952381,15,15,"CLEAR,NIGHT_CLEAR,NIGHT_CLEAR,NIGHT_CLEAR,NIGHT_CLEAR,NIGHT_CLEAR,NIGHT_CLEAR","Cross-shore,Cross-shore,Offshore,Cross-shore,Onshore,Onshore,Onshore",7
5842041f4e65fad6a770882e,2024_02_13,33.475793399792984,-117.72291,Salt Creek,2.8814285714285712,0.6243047619047619,0.9562190476190476,15,15,"CLEAR,NIGHT_CLEAR,NIGHT_MIST,NIGHT_MIST,NIGHT_MIST,NIGHT_CLEAR,NIGHT_CLEAR","Onshore,Offshore,Offshore,Offshore,Offshore,Onshore,Onshore",7
5842041f4e65fad6a7708830,2024_02_13,33.41800974113613,-117.61952,T-Street,2.8814285714285712,0.5514476190476191,0.8579619047619048,16,16,"CLEAR,NIGHT_CLEAR,NIGHT_CLEAR,NIGHT_CLEAR,NIGHT_CLEAR,NIGHT_CLEAR,NIGHT_CLEAR","Cross-shore,Offshore,Offshore,Offshore,Offshore,Offshore,Offshore",7
5842041f4e65fad6a7708832,2024_02_13,33.202391008646,-117.39475,Oceanside Harbor,2.7614285714285716,0.6130761904761906,0.9194190476190476,15,15,"CLEAR,NIGHT_MIST,NIGHT_MIST,NIGHT_CLEAR,NIGHT_CLEAR,NIGHT_CLEAR,NIGHT_CLEAR","Onshore,Offshore,Offshore,Offshore,Offshore,Offshore,Offshore",7
5842041f4e65fad6a7708835,2024_02_13,33.19477795952803,-117.38667,Oceanside Pier,2.7614285714285716,0.4782809523809524,0.8017238095238095,15,15,"CLEAR,NIGHT_MIST,NIGHT_MIST,NIGHT_MIST,NIGHT_MIST,NIGHT_CLEAR,NIGHT_CLEAR","Onshore,Offshore,Offshore,Offshore,Offshore,Offshore,Offshore",7
5842041f4e65fad6a7708837,2024_02_13,33.14948100706,-117.35029,Tamarack,1.8571428571428572,0.19714285714285715,0.5,15,15,"CLEAR,NIGHT_MIST,NIGHT_MIST,NIGHT_MIST,NIGHT_MIST,NIGHT_MIST,NIGHT_CLEAR","Cross-shore,Offshore,Offshore,Offshore,Offshore,Offshore,Offshore",7
5842041f4e65fad6a7708839,2024_02_13,32.865777159358856,-117.25614295356122,Scripps,2.9757142857142855,0.7547809523809523,1.061295238095238,14,14,"MIST,NIGHT_MIST,NIGHT_DRIZZLE,NIGHT_CLEAR,NIGHT_MIST,NIGHT_MIST,NIGHT_MIST","Onshore,Onshore,Onshore,Offshore,Offshore,Offshore,Offshore",7
5842041f4e65fad6a770883a,2024_02_13,32.813094,-117.27381,Birdrock,3,1.0142857142857142,1.2457142857142858,15,15,"CLEAR,NIGHT_MIST,NIGHT_MIST,NIGHT_MIST,NIGHT_MIST,NIGHT_MIST,NIGHT_MIST","Cross-shore,Offshore,Offshore,Offshore,Offshore,Offshore,Offshore",7
5842041f4e65fad6a770883b,2024_02_13,32.877231,-117.25303,Blacks,3.7142857142857144,1.242247619047619,1.4959047619047618,14,14,"MIST,NIGHT_MIST,NIGHT_DRIZZLE,NIGHT_CLEAR,NIGHT_MIST,NIGHT_MIST,NIGHT_MIST","Onshore,Onshore,Onshore,Cross-shore,Offshore,Offshore,Offshore",7
5842041f4e65fad6a770883c,2024_02_13,32.82978974229765,-117.28161740727381,Windansea,3,1.0935904761904762,1.394195238095238,14,14,"CLEAR,NIGHT_MIST,NIGHT_MIST,NIGHT_MIST,NIGHT_MIST,NIGHT_MIST,NIGHT_MIST","Onshore,Onshore,Onshore,Offshore,Offshore,Offshore,Offshore",7
5842041f4e65fad6a770883d,2024_02_13,32.838278,-117.28396,Horseshoe,3.4285714285714284,1.1128571428571428,1.3885714285714286,15,15,"CLEAR,NIGHT_MIST,NIGHT_MIST,NIGHT_MIST,NIGHT_MIST,NIGHT_MIST,NIGHT_MIST","Onshore,Offshore,Offshore,Offshore,Offshore,Offshore,Offshore",7
5842041f4e65fad6a770883f,2024_02_13,32.75034717673179,-117.25337,Ocean Beach,3,1.1174,1.4319761904761905,14,14,"CLEAR,NIGHT_MIST,NIGHT_MIST,NIGHT_MIST,NIGHT_MIST,NIGHT_MIST,NIGHT_MIST","Onshore,Onshore,Onshore,Offshore,Offshore,Offshore,Offshore",7
5842041f4e65fad6a7708840,2024_02_13,32.73693,-117.25718,Sunset Cliffs,3,1.0085714285714287,1.2685714285714287,15,15,"CLEAR,NIGHT_MIST,NIGHT_MIST,NIGHT_MIST,NIGHT_MIST,NIGHT_MIST,NIGHT_MIST","Onshore,Onshore,Onshore,Offshore,Offshore,Offshore,Offshore",7
5842041f4e65fad6a7708841,2024_02_13,32.796582258728826,-117.25779,Pacific Beach,3,1.0075190476190476,1.3247904761904763,14,14,"CLEAR,NIGHT_MIST,NIGHT_MIST,NIGHT_MIST,NIGHT_MIST,NIGHT_MIST,NIGHT_CLEAR","Cross-shore,Offshore,Offshore,Offshore,Offshore,Offshore,Offshore",7
5842041f4e65fad6a7708842,2024_02_13,32.776636,-117.25514,Mission Beach,2.9757142857142855,1.0274,1.3305047619047619,14,14,"CLEAR,NIGHT_MIST,NIGHT_MIST,NIGHT_MIST,NIGHT_MIST,NIGHT_MIST,NIGHT_CLEAR","Onshore,Offshore,Offshore,Offshore,Offshore,Offshore,Offshore",7
5842041f4e65fad6a7708844,2024_02_13,32.577195519016,-117.13475,Imperial Beach Pier,3,1.147142857142857,1.4014285714285715,14.285714285714286,14.285714285714286,"CLEAR,NIGHT_MOSTLY_CLOUDY,NIGHT_DRIZZLE,NIGHT_MIST,NIGHT_MIST,NIGHT_CLEAR,NIGHT_CLEAR","Onshore,Cross-shore,Cross-shore,Offshore,Offshore,Offshore,Offshore",7
5842041f4e65fad6a770884a,2024_02_13,42.88678181061,-70.80843,Seabrook,0.9514285714285714,0.3256253571428572,0.5564142857142858,5,4,"NIGHT_CLEAR,NIGHT_MOSTLY_CLOUDY,NIGHT_MOSTLY_CLOUDY,NIGHT_MOSTLY_CLOUDY,NIGHT_OVERCAST,OVERCAST,OVERCAST","Cross-shore,Onshore,Onshore,Onshore,Onshore,Onshore,Onshore",7
5842041f4e65fad6a770884e,2024_02_13,41.434181432898335,-71.45312118111178,Narragansett,1.2614285714285713,0.1019047619047619,0.40564285714285714,7,6,"NIGHT_CLOUDY,NIGHT_CLEAR,NIGHT_CLOUDY,NIGHT_CLEAR,NIGHT_LIGHT_SNOW,SNOW,SNOW","Cross-shore,Offshore,Offshore,Offshore,Offshore,Offshore,Offshore",7
5842041f4e65fad6a7708850,2024_02_13,40.582703230722,-73.65247,Lincoln Blvd,0.8571428571428571,0.3087238095238095,0.619652380952381,7,6,"NIGHT_CLEAR,NIGHT_BRIEF_SHOWERS,NIGHT_LIGHT_RAIN,NIGHT_DRIZZLE,NIGHT_LIGHT_RAIN,ICE_PELLETS,HEAVY_SNOW","Onshore,Offshore,Offshore,Offshore,Offshore,Offshore,Offshore",7
5842041f4e65fad6a7708852,2024_02_13,40.58342841721757,-73.81182,Rockaways,0.8571428571428571,0.3378761904761905,0.6876857142857142,7,6,"NIGHT_CLEAR,NIGHT_BRIEF_SHOWERS_POSSIBLE,NIGHT_DRIZZLE,NIGHT_DRIZZLE,NIGHT_LIGHT_RAIN,HEAVY_SNOW,BRIEF_HEAVY_SNOW_SHOWERS","Onshore,Offshore,Offshore,Offshore,Offshore,Offshore,Offshore",7
5842041f4e65fad6a7708853,2024_02_13,40.330474,-73.9734,Monmouth Beach,0.5,0.45584761904761906,0.761752380952381,6,5,"NIGHT_OVERCAST,NIGHT_OVERCAST,NIGHT_DRIZZLE,NIGHT_DRIZZLE,NIGHT_DRIZZLE,ICE_PELLETS,HEAVY_SNOW","Onshore,Onshore,Onshore,Cross-shore,Onshore,Cross-shore,Cross-shore",7
5842041f4e65fad6a7708856,2024_02_13,40.113,-74.028,Manasquan Inlet,0.2857142857142857,0.9749047619047619,1.3105190476190476,6,5,"NIGHT_OVERCAST,NIGHT_OVERCAST,NIGHT_OVERCAST,NIGHT_LIGHT_RAIN,NIGHT_LIGHT_RAIN,RAIN,HEAVY_SNOW","Onshore,Onshore,Onshore,Onshore,Onshore,Cross-shore,Cross-shore",7
5842041f4e65fad6a7708857,2024_02_13,39.941519877445664,-74.06829,Casino Pier,0.5242857142857142,1.0183285714285715,1.3300285714285716,6,5,"NIGHT_OVERCAST,NIGHT_DRIZZLE,NIGHT_OVERCAST,NIGHT_LIGHT_RAIN,NIGHT_DRIZZLE,HEAVY_RAIN,ICE_PELLETS","Onshore,Onshore,Onshore,Cross-shore,Onshore,Cross-shore,Cross-shore",7
5842041f4e65fad6a7708858,2024_02_13,39.28223089949212,-74.55766,North End OC,1.0242857142857142,0.7463857142857142,1.2645,6,5,"NIGHT_OVERCAST,NIGHT_LIGHT_RAIN,NIGHT_LIGHT_RAIN,NIGHT_LIGHT_RAIN,NIGHT_RAIN,RAIN,RAIN","Onshore,Onshore,Cross-shore,Onshore,Cross-shore,Cross-shore,Cross-shore",7
5842041f4e65fad6a770885b,2024_02_13,39.65080599934257,-74.17146,Ship Bottom,1.2614285714285713,1.0177333333333334,1.3276476190476192,6,5,"NIGHT_OVERCAST,NIGHT_DRIZZLE,NIGHT_LIGHT_RAIN,NIGHT_RAIN,NIGHT_LIGHT_RAIN,RAIN,HEAVY_RAIN","Onshore,Cross-shore,Cross-shore,Cross-shore,Cross-shore,Cross-shore,Cross-shore",7
5842041f4e65fad6a7708863,2024_02_13,36.034151543144,-75.66791,Third Street,2.2614285714285716,0.5533095238095238,0.8792714285714286,8,6,"NIGHT_LIGHT_RAIN,NIGHT_LIGHT_RAIN,NIGHT_MOSTLY_CLEAR,NIGHT_MIST,NIGHT_MIST,MIST,OVERCAST","Cross-shore,Cross-shore,Offshore,Offshore,Offshore,Offshore,Offshore",7
5842041f4e65fad6a7708867,2024_02_13,35.605833221351425,-75.46303,S-Turns,1.69,0.6243142857142857,1.0920095238095238,9,8,"NIGHT_MIST,NIGHT_MIST,NIGHT_MIST,NIGHT_MIST,NIGHT_MIST,MIST,MIST","Cross-shore,Cross-shore,Offshore,Offshore,Offshore,Offshore,Offshore",7
5842041f4e65fad6a770886d,2024_02_13,38.338461,-75.08117,Ocean City Boardwalk,1.7142857142857142,0.7796809523809524,1.2204619047619047,7,5,"NIGHT_CLOUDY,NIGHT_DRIZZLE,NIGHT_HEAVY_SHOWERS_POSSIBLE,NIGHT_OVERCAST,NIGHT_RAIN,RAIN,CLOUDY","Onshore,Onshore,Onshore,Onshore,Onshore,Onshore,Onshore",7
5842041f4e65fad6a770886f,2024_02_13,29.844757212379562,-81.26136,A St.,2.5714285714285716,0.35428571428571426,0.66,15,15,"CLEAR,NIGHT_CLEAR,NIGHT_CLEAR,NIGHT_CLOUDY,NIGHT_MOSTLY_CLOUDY,NIGHT_CLEAR,CLEAR","Cross-shore,Offshore,Offshore,Offshore,Offshore,Offshore,Offshore",7
5842041f4e65fad6a7708871,2024_02_13,29.069417851135093,-80.90824,New Smyrna Beach,3,0.670747619047619,1.1650714285714285,17,16,"CLEAR,NIGHT_CLEAR,NIGHT_CLEAR,NIGHT_CLEAR,NIGHT_CLEAR,NIGHT_CLEAR,CLEAR","Offshore,Offshore,Offshore,Offshore,Offshore,Offshore,Offshore",7
5842041f4e65fad6a7708872,2024_02_13,28.367707417566,-80.60171,Cocoa Beach Pier,1.9757142857142858,0.32966666666666666,0.6319666666666667,18,17,"MOSTLY_CLEAR,NIGHT_CLEAR,NIGHT_CLEAR,NIGHT_CLEAR,NIGHT_CLEAR,NIGHT_CLEAR,CLEAR","Offshore,Offshore,Offshore,Offshore,Offshore,Offshore,Offshore",7
5842041f4e65fad6a7708873,2024_02_13,28.091782738658846,-80.56479,Indialantic,2.6185714285714288,0.4406285714285714,0.7489142857142858,19,18,"CLEAR,NIGHT_CLEAR,NIGHT_CLEAR,NIGHT_CLEAR,NIGHT_CLEAR,NIGHT_CLEAR,CLEAR","Offshore,Offshore,Offshore,Offshore,Offshore,Offshore,Offshore",7
5842041f4e65fad6a7708876,2024_02_13,27.25392904143517,-80.19455,Jensen Beach,2.69,0.5796190476190476,0.8826333333333334,22,20,"CLEAR,NIGHT_MOSTLY_CLOUDY,NIGHT_OVERCAST,NIGHT_CLEAR,NIGHT_BRIEF_SHOWERS,MOSTLY_CLOUDY,MOSTLY_CLEAR","Offshore,Offshore,Offshore,Offshore,Offshore,Offshore,Offshore",7
5842041f4e65fad6a7708879,2024_02_13,26.76346795333825,-80.0360655784607,Reef Road,1.0714285714285714,0.13265238095238094,0.414252380952381,24,22,"CLEAR,NIGHT_MOSTLY_CLOUDY,NIGHT_CLEAR,NIGHT_CLEAR,NIGHT_MOSTLY_CLEAR,MOSTLY_CLOUDY,CLEAR","Offshore,Cross-shore,Offshore,Offshore,Cross-shore,Offshore,Offshore",7
5842041f4e65fad6a770887c,2024_02_13,26.336499228484,-80.06956100463,Boca Raton Inlet,0.8571428571428571,0.19331428571428572,0.49588571428571426,24,22,"CLEAR,NIGHT_CLEAR,NIGHT_OVERCAST,NIGHT_CLEAR,NIGHT_CLEAR,MOSTLY_CLEAR,BRIEF_SHOWERS","Cross-shore,Cross-shore,Offshore,Cross-shore,Cross-shore,Cross-shore,Offshore",7
5842041f4e65fad6a770887d,2024_02_13,26.31719311695038,-80.07452525176168,Deerfield Beach Pier,0.14285714285714285,0.06358440476190476,0.34214630952380953,24,23,"CLEAR,NIGHT_CLEAR,NIGHT_LIGHT_RAIN,NIGHT_CLEAR,NIGHT_CLEAR,MOSTLY_CLEAR,BRIEF_SHOWERS","Cross-shore,Cross-shore,Offshore,Cross-shore,Cross-shore,Cross-shore,Offshore",7
5842041f4e65fad6a7708881,2024_02_13,30.20276320866628,-85.85626528676136,"Spyglass Dr., Panama City",1.7142857142857142,0.9759,1.2868857142857142,17,16,"MOSTLY_CLOUDY,NIGHT_CLEAR,NIGHT_MOSTLY_CLOUDY,NIGHT_CLEAR,NIGHT_CLEAR,NIGHT_CLEAR,CLEAR","Onshore,Cross-shore,Cross-shore,Offshore,Offshore,Offshore,Offshore",7
5842041f4e65fad6a7708884,2024_02_13,33.39000832738053,-117.59852,Cottons,2.7614285714285716,0.5027571428571428,0.8343142857142857,16,16,"CLEAR,NIGHT_CLEAR,NIGHT_CLEAR,NIGHT_CLEAR,NIGHT_CLEAR,NIGHT_CLEAR,NIGHT_CLEAR","Onshore,Cross-shore,Cross-shore,Offshore,Cross-shore,Cross-shore,Cross-shore",7
5842041f4e65fad6a7708885,2024_02_13,33.359416282661,-117.54167901405711,Trails,2.857142857142857,0.3385714285714286,0.6485714285714286,15,15,"CLEAR,NIGHT_CLEAR,NIGHT_CLEAR,NIGHT_CLEAR,NIGHT_CLEAR,NIGHT_CLEAR,NIGHT_CLEAR","Onshore,Offshore,Offshore,Offshore,Offshore,Offshore,Offshore",7
5842041f4e65fad6a7708886,2024_02_13,33.38042605929805,-117.58332,Middles,2.7385714285714284,0.42850476190476194,0.7333523809523809,16,16,"CLEAR,NIGHT_CLEAR,NIGHT_CLEAR,NIGHT_CLEAR,NIGHT_CLEAR,NIGHT_CLEAR,NIGHT_CLEAR","Onshore,Offshore,Offshore,Offshore,Offshore,Offshore,Cross-shore",7
5842041f4e65fad6a7708887,2024_02_13,33.38445596302903,-117.59445,Upper Trestles,2.7614285714285716,0.6212095238095238,0.9514571428571428,16,16,"CLEAR,NIGHT_CLEAR,NIGHT_CLEAR,NIGHT_CLEAR,NIGHT_CLEAR,NIGHT_CLEAR,NIGHT_CLEAR","Onshore,Offshore,Offshore,Offshore,Offshore,Offshore,Offshore",7
5842041f4e65fad6a7708889,2024_02_13,28.944414,-95.28883,Surfside,2,0.3243985714285714,0.5068757142857143,15.714285714285714,15.714285714285714,"CLEAR,NIGHT_CLEAR,NIGHT_CLEAR,NIGHT_CLEAR,NIGHT_CLEAR,NIGHT_CLEAR,NIGHT_CLEAR","Offshore,Offshore,Offshore,Offshore,Offshore,Offshore,Cross-shore",7
5842041f4e65fad6a770888a,2024_02_13,33.38143999849023,-117.58843,Lower Trestles,2.7614285714285716,0.6150190476190477,0.9201047619047619,16,16,"CLEAR,NIGHT_CLEAR,NIGHT_CLEAR,NIGHT_CLEAR,NIGHT_CLEAR,NIGHT_CLEAR,NIGHT_CLEAR","Onshore,Offshore,Offshore,Offshore,Offshore,Offshore,Offshore",7
5842041f4e65fad6a770888b,2024_02_13,33.379622288757,-117.57894,Church,2.7385714285714284,0.40326666666666666,0.7126380952380953,16,16,"CLEAR,NIGHT_CLEAR,NIGHT_CLEAR,NIGHT_CLEAR,NIGHT_CLEAR,NIGHT_CLEAR,NIGHT_CLEAR","Onshore,Cross-shore,Offshore,Offshore,Offshore,Offshore,Cross-shore",7
5842041f4e65fad6a770888d,2024_02_13,21.679,-158.042,Sunset Beach,2.8328571428571427,0.8488047619047618,1.2510238095238095,26,25,"CLEAR,NIGHT_CLEAR,NIGHT_MOSTLY_CLEAR,NIGHT_MOSTLY_CLOUDY,NIGHT_MOSTLY_CLOUDY,NIGHT_MOSTLY_CLOUDY,NIGHT_MOSTLY_CLOUDY","Onshore,Offshore,Offshore,Offshore,Offshore,Onshore,Offshore",7
5842041f4e65fad6a770888e,2024_02_13,21.670550036401,-158.0482,Rocky Point,2.8814285714285712,0.840352380952381,1.1758857142857144,26,25,"CLEAR,NIGHT_MOSTLY_CLEAR,NIGHT_MOSTLY_CLEAR,NIGHT_MOSTLY_CLOUDY,NIGHT_MOSTLY_CLOUDY,NIGHT_MOSTLY_CLOUDY,NIGHT_MOSTLY_CLOUDY","Onshore,Offshore,Offshore,Offshore,Offshore,Onshore,Offshore",7
5842041f4e65fad6a770888f,2024_02_13,21.668,-158.05,Chambers,2.857142857142857,0.7257142857142858,1.012857142857143,24,24,"CLEAR,NIGHT_MOSTLY_CLEAR,NIGHT_MOSTLY_CLEAR,NIGHT_MOSTLY_CLOUDY,NIGHT_MOSTLY_CLOUDY,NIGHT_MOSTLY_CLOUDY,NIGHT_MOSTLY_CLOUDY","Onshore,Offshore,Offshore,Offshore,Offshore,Cross-shore,Offshore",7
5842041f4e65fad6a7708890,2024_02_13,21.66522,-158.0526,Pipeline,1,0.7610666666666667,1.0678904761904762,26,25,"CLEAR,NIGHT_MOSTLY_CLEAR,NIGHT_MOSTLY_CLEAR,NIGHT_MOSTLY_CLOUDY,NIGHT_MOSTLY_CLOUDY,NIGHT_MOSTLY_CLOUDY,NIGHT_MOSTLY_CLOUDY","Onshore,Offshore,Offshore,Offshore,Offshore,Onshore,Offshore",7
5842041f4e65fad6a7708891,2024_02_13,21.665,-158.054,Backdoor,2.8085714285714287,0.7610666666666667,1.0678904761904762,26,25,"CLEAR,NIGHT_MOSTLY_CLEAR,NIGHT_MOSTLY_CLEAR,NIGHT_MOSTLY_CLOUDY,NIGHT_MOSTLY_CLOUDY,NIGHT_MOSTLY_CLOUDY,NIGHT_MOSTLY_CLOUDY","Onshore,Offshore,Offshore,Offshore,Offshore,Onshore,Offshore",7
5842041f4e65fad6a7708892,2024_02_13,21.662,-158.057,Rockpile,2.857142857142857,0.86,1.11,24,24,"CLEAR,NIGHT_MOSTLY_CLEAR,NIGHT_MOSTLY_CLEAR,NIGHT_MOSTLY_CLOUDY,NIGHT_MOSTLY_CLOUDY,NIGHT_MOSTLY_CLOUDY,NIGHT_MOSTLY_CLOUDY","Onshore,Offshore,Offshore,Offshore,Offshore,Cross-shore,Offshore",7
5842041f4e65fad6a7708893,2024_02_13,21.65870453806827,-158.06058,Log Cabins,2.5714285714285716,0.5985714285714285,0.9028571428571429,24,24,"CLEAR,NIGHT_MOSTLY_CLEAR,NIGHT_MOSTLY_CLEAR,NIGHT_MOSTLY_CLOUDY,NIGHT_MOSTLY_CLOUDY,NIGHT_MOSTLY_CLOUDY,NIGHT_MOSTLY_CLOUDY","Onshore,Offshore,Offshore,Offshore,Offshore,Onshore,Offshore",7
5842041f4e65fad6a7708894,2024_02_13,21.66203493640557,-158.05495,Off-The-Wall,2.857142857142857,0.7257142857142858,1.012857142857143,24,24,"CLEAR,NIGHT_MOSTLY_CLEAR,NIGHT_MOSTLY_CLEAR,NIGHT_MOSTLY_CLOUDY,NIGHT_MOSTLY_CLOUDY,NIGHT_MOSTLY_CLOUDY,NIGHT_MOSTLY_CLOUDY","Onshore,Offshore,Offshore,Offshore,Offshore,Cross-shore,Offshore",7
5842041f4e65fad6a7708895,2024_02_13,21.643,-158.067,Waimea Bay,NA,0.8586857142857143,1.2462619047619048,26,25,"CLEAR,NIGHT_MOSTLY_CLEAR,NIGHT_MOSTLY_CLEAR,NIGHT_MOSTLY_CLOUDY,NIGHT_MOSTLY_CLOUDY,NIGHT_MOSTLY_CLOUDY,NIGHT_MOSTLY_CLOUDY","Onshore,Offshore,Offshore,Offshore,Offshore,Onshore,Offshore",7
5842041f4e65fad6a7708896,2024_02_13,21.622,-158.087,Hultin's,2.857142857142857,0.7617809523809524,1.138742857142857,26,25,"CLEAR,NIGHT_MOSTLY_CLEAR,NIGHT_MOSTLY_CLEAR,NIGHT_MOSTLY_CLOUDY,NIGHT_MOSTLY_CLOUDY,NIGHT_MOSTLY_CLOUDY,NIGHT_MOSTLY_CLOUDY","Onshore,Onshore,Onshore,Cross-shore,Cross-shore,Cross-shore,Cross-shore",7
5842041f4e65fad6a7708897,2024_02_13,21.623,-158.085,Jocko's,3,0.6542857142857142,0.9614285714285714,24,24,"CLEAR,NIGHT_MOSTLY_CLEAR,NIGHT_MOSTLY_CLEAR,NIGHT_MOSTLY_CLOUDY,NIGHT_MOSTLY_CLOUDY,NIGHT_MOSTLY_CLOUDY,NIGHT_MOSTLY_CLOUDY","Cross-shore,Cross-shore,Offshore,Onshore,Onshore,Onshore,Onshore",7
5842041f4e65fad6a7708898,2024_02_13,21.62,-158.088,Laniakea,2.8814285714285712,0.8219,1.201242857142857,26,25,"CLEAR,NIGHT_MOSTLY_CLEAR,NIGHT_MOSTLY_CLEAR,NIGHT_MOSTLY_CLOUDY,NIGHT_MOSTLY_CLOUDY,NIGHT_MOSTLY_CLOUDY,NIGHT_MOSTLY_CLOUDY","Onshore,Onshore,Cross-shore,Onshore,Onshore,Onshore,Cross-shore",7
5842041f4e65fad6a7708899,2024_02_13,21.625,-158.083,Chun's,2.857142857142857,0.6614285714285715,0.9671428571428572,24,24,"CLEAR,NIGHT_MOSTLY_CLEAR,NIGHT_MOSTLY_CLEAR,NIGHT_MOSTLY_CLOUDY,NIGHT_MOSTLY_CLOUDY,NIGHT_MOSTLY_CLOUDY,NIGHT_MOSTLY_CLOUDY","Onshore,Onshore,Cross-shore,Onshore,Onshore,Cross-shore,Cross-shore",7
5842041f4e65fad6a770889c,2024_02_13,21.286357895152136,-157.8515,South Shore - Ala Moana Park,2,0.29,0.5942857142857143,25,25,"MOSTLY_CLEAR,NIGHT_CLEAR,NIGHT_CLEAR,NIGHT_MOSTLY_CLEAR,NIGHT_MOSTLY_CLEAR,NIGHT_CLEAR,NIGHT_CLEAR","Onshore,Offshore,Offshore,Offshore,Offshore,Offshore,Offshore",7
5842041f4e65fad6a770889d,2024_02_13,19.606,-155.978,Banyans,2.8814285714285712,0.6737,0.9783857142857143,26,25,"CLEAR,NIGHT_CLEAR,NIGHT_CLEAR,NIGHT_CLEAR,NIGHT_CLEAR,NIGHT_CLEAR,NIGHT_CLEAR","Onshore,Cross-shore,Cross-shore,Cross-shore,Cross-shore,Cross-shore,Cross-shore",7
5842041f4e65fad6a770889e,2024_02_13,20.029,-155.831,Kawaihae,2.857142857142857,0.6092285714285715,1.0029857142857144,25,25,"CLEAR,NIGHT_CLEAR,NIGHT_CLEAR,NIGHT_CLEAR,NIGHT_CLEAR,NIGHT_CLEAR,NIGHT_CLEAR","Onshore,Offshore,Offshore,Offshore,Offshore,Offshore,Offshore",7
5842041f4e65fad6a770889f,2024_02_13,33.07541383424675,-117.3105,Grandview,2.7142857142857144,0.4057142857142857,0.7128571428571429,15,15,"CLEAR,NIGHT_MOSTLY_CLOUDY,NIGHT_MOSTLY_CLOUDY,NIGHT_MIST,NIGHT_CLEAR,NIGHT_CLEAR,NIGHT_CLEAR","Onshore,Offshore,Offshore,Offshore,Offshore,Offshore,Offshore",7
5842041f4e65fad6a77088a0,2024_02_13,33.065267421296596,-117.30577,Beacons,2.5714285714285716,0.41428571428571426,0.7185714285714285,15,15,"CLEAR,NIGHT_MOSTLY_CLOUDY,NIGHT_MOSTLY_CLOUDY,NIGHT_MIST,NIGHT_CLEAR,NIGHT_CLEAR,NIGHT_CLEAR","Onshore,Offshore,Offshore,Offshore,Offshore,Offshore,Offshore",7
5842041f4e65fad6a77088a2,2024_02_13,21.252,-157.805,Diamond Head,2.1185714285714288,0.5628771428571429,0.8843000000000001,26,25,"CLEAR,NIGHT_CLEAR,NIGHT_CLEAR,NIGHT_MOSTLY_CLEAR,NIGHT_MOSTLY_CLEAR,NIGHT_CLEAR,NIGHT_CLEAR","Cross-shore,Offshore,Offshore,Offshore,Offshore,Offshore,Offshore",7
5842041f4e65fad6a77088a3,2024_02_13,33.04694255008896,-117.29966,Moonlight State Beach,2.857142857142857,0.44142857142857145,0.7457142857142857,15,15,"CLEAR,NIGHT_CLEAR,NIGHT_MOSTLY_CLOUDY,NIGHT_CLEAR,NIGHT_CLEAR,NIGHT_CLEAR,NIGHT_CLEAR","Onshore,Offshore,Offshore,Offshore,Offshore,Offshore,Offshore",7
5842041f4e65fad6a77088a5,2024_02_13,33.08685865930869,-117.31532,Ponto,2.7142857142857144,0.7514285714285714,1.0385714285714287,15,15,"CLEAR,NIGHT_MOSTLY_CLOUDY,NIGHT_MOSTLY_CLOUDY,NIGHT_MIST,NIGHT_CLEAR,NIGHT_CLEAR,NIGHT_CLEAR","Onshore,Offshore,Offshore,Offshore,Offshore,Offshore,Offshore",7
5842041f4e65fad6a77088a6,2024_02_13,33.130343587871906,-117.33667796442558,Terra Mar Point,2.047142857142857,0.33712380952380955,0.6378714285714286,15,15,"CLEAR,NIGHT_MIST,NIGHT_MIST,NIGHT_MIST,NIGHT_MIST,NIGHT_CLEAR,NIGHT_CLEAR","Cross-shore,Offshore,Offshore,Offshore,Offshore,Offshore,Offshore",7
5842041f4e65fad6a77088af,2024_02_13,32.95916304183685,-117.26963,Del Mar,3,0.8285714285714285,1.082857142857143,15,15,"CLEAR,NIGHT_MIST,NIGHT_MIST,NIGHT_MIST,NIGHT_MIST,NIGHT_MIST,NIGHT_MIST","Onshore,Offshore,Offshore,Offshore,Offshore,Offshore,Offshore",7
5842041f4e65fad6a77088b0,2024_02_13,32.97527261243354,-117.2721061331305,Del Mar Rivermouth,2.857142857142857,0.9571428571428571,1.1442857142857141,15,15,"CLEAR,NIGHT_MIST,NIGHT_MIST,NIGHT_MIST,NIGHT_MIST,NIGHT_MIST,NIGHT_MIST","Onshore,Offshore,Offshore,Offshore,Offshore,Offshore,Offshore",7
5842041f4e65fad6a77088b1,2024_02_13,33.01352178146273,-117.28219,Cardiff Reef,2.7614285714285716,0.9326,1.1490190476190476,15,15,"CLEAR,NIGHT_MOSTLY_CLOUDY,NIGHT_MOSTLY_CLOUDY,NIGHT_CLEAR,NIGHT_CLEAR,NIGHT_CLEAR,NIGHT_CLEAR","Cross-shore,Onshore,Onshore,Offshore,Offshore,Offshore,Offshore",7
5842041f4e65fad6a77088b3,2024_02_13,33.00211185876003,-117.2811,Seaside Reef,2.9042857142857144,0.9377190476190476,1.1797333333333333,15,15,"CLEAR,NIGHT_MIST,NIGHT_MIST,NIGHT_CLEAR,NIGHT_CLEAR,NIGHT_CLEAR,NIGHT_CLEAR","Cross-shore,Onshore,Onshore,Offshore,Offshore,Offshore,Offshore",7
5842041f4e65fad6a77088b4,2024_02_13,33.0341859796287,-117.29552,Swami's,2.9042857142857144,0.9378380952380952,1.1356095238095238,15,15,"CLEAR,NIGHT_MOSTLY_CLOUDY,NIGHT_MOSTLY_CLOUDY,NIGHT_CLEAR,NIGHT_CLEAR,NIGHT_CLEAR,NIGHT_CLEAR","Onshore,Offshore,Offshore,Offshore,Offshore,Offshore,Offshore",7
5842041f4e65fad6a77088b7,2024_02_13,33.04569760260221,-117.2994,D Street,2.857142857142857,0.6285714285714286,0.9328571428571428,15,15,"CLEAR,NIGHT_CLEAR,NIGHT_MOSTLY_CLOUDY,NIGHT_CLEAR,NIGHT_CLEAR,NIGHT_CLEAR,NIGHT_CLEAR","Onshore,Offshore,Offshore,Offshore,Offshore,Offshore,Offshore",7
5842041f4e65fad6a77088b8,2024_02_13,33.02090944350196,-117.28535,San Elijo State Beach,2.7614285714285716,0.4491476190476191,0.775447619047619,15,15,"CLEAR,NIGHT_MOSTLY_CLOUDY,NIGHT_MOSTLY_CLOUDY,NIGHT_CLEAR,NIGHT_CLEAR,NIGHT_CLEAR,NIGHT_CLEAR","Cross-shore,Onshore,Onshore,Offshore,Offshore,Offshore,Offshore",7
5842041f4e65fad6a77088c2,2024_02_13,32.80662846492798,-117.2688764333725,PB Point,3,0.9814285714285714,1.177142857142857,14.285714285714286,14.285714285714286,"CLEAR,NIGHT_MIST,NIGHT_MIST,NIGHT_MIST,NIGHT_MIST,NIGHT_MIST,NIGHT_MIST","Cross-shore,Cross-shore,Cross-shore,Offshore,Cross-shore,Offshore,Cross-shore",7
5842041f4e65fad6a77088c4,2024_02_13,32.8060476681448,-117.26479,Old Man's at Tourmaline,2.857142857142857,0.6314285714285715,0.9357142857142857,14.285714285714286,14.285714285714286,"CLEAR,NIGHT_MIST,NIGHT_MIST,NIGHT_MIST,NIGHT_MIST,NIGHT_MIST,NIGHT_MIST","Cross-shore,Offshore,Cross-shore,Offshore,Cross-shore,Offshore,Cross-shore",7
5842041f4e65fad6a77088cb,2024_02_13,32.557056711256,-117.1327445020322,Tijuana Slough,2.7142857142857144,0.39,0.6914285714285714,14.285714285714286,14.285714285714286,"CLEAR,NIGHT_MIST,NIGHT_MIST,NIGHT_MOSTLY_CLEAR,NIGHT_MOSTLY_CLEAR,NIGHT_CLEAR,NIGHT_CLEAR","Cross-shore,Offshore,Offshore,Offshore,Offshore,Offshore,Offshore",7
5842041f4e65fad6a77088cc,2024_02_13,32.863,-117.257,La Jolla Shores,2.857142857142857,0.6357142857142857,0.94,15,15,"MIST,NIGHT_MIST,NIGHT_DRIZZLE,NIGHT_CLEAR,NIGHT_MIST,NIGHT_MIST,NIGHT_MIST","Onshore,Onshore,Onshore,Offshore,Offshore,Offshore,Offshore",7
5842041f4e65fad6a77088ce,2024_02_13,32.67443657790586,-117.17421316238693,Coronado Beach,3,0.5528571428571428,0.8428571428571429,14.285714285714286,14.285714285714286,"CLEAR,NIGHT_BRIEF_SHOWERS,NIGHT_OVERCAST,NIGHT_MOSTLY_CLOUDY,NIGHT_BRIEF_SHOWERS,NIGHT_MIST,NIGHT_CLEAR","Offshore,Offshore,Offshore,Cross-shore,Cross-shore,Cross-shore,Onshore",7
5842041f4e65fad6a77088cf,2024_02_13,33.40484417640326,-117.60749,San Clemente State Beach,2.857142857142857,0.36857142857142855,0.6742857142857144,15,15,"CLEAR,NIGHT_CLEAR,NIGHT_CLEAR,NIGHT_CLEAR,NIGHT_CLEAR,NIGHT_CLEAR,NIGHT_CLEAR","Cross-shore,Offshore,Offshore,Offshore,Offshore,Offshore,Offshore",7
5842041f4e65fad6a77088d5,2024_02_13,33.4663042002114,-117.7168352817103,Strands,2.8814285714285712,0.5835904761904762,0.912647619047619,15,15,"CLEAR,NIGHT_CLEAR,NIGHT_MIST,NIGHT_MIST,NIGHT_MIST,NIGHT_CLEAR,NIGHT_CLEAR","Onshore,Offshore,Offshore,Offshore,Offshore,Onshore,Cross-shore",7
5842041f4e65fad6a77088d7,2024_02_13,33.4609858001748,-117.68535,Doheny State Beach,1.4285714285714286,0.05008571428571429,0.35064761904761904,16,16,"CLEAR,NIGHT_MIST,NIGHT_MIST,NIGHT_CLEAR,NIGHT_CLEAR,NIGHT_CLEAR,NIGHT_CLEAR","Onshore,Offshore,Offshore,Offshore,Offshore,Offshore,Cross-shore",7
5842041f4e65fad6a77088dc,2024_02_13,33.50894790083017,-117.75243,Aliso Creek,2,0.23,0.5357142857142857,15,15,"CLEAR,NIGHT_CLEAR,NIGHT_MOSTLY_CLEAR,NIGHT_CLEAR,NIGHT_CLEAR,NIGHT_CLEAR,NIGHT_CLEAR","Onshore,Offshore,Offshore,Offshore,Offshore,Offshore,Offshore",7
5842041f4e65fad6a77088dd,2024_02_13,33.5326591767067,-117.77764,Brooks Street,2,0.12285714285714286,0.42857142857142855,15,15,"CLEAR,NIGHT_CLEAR,NIGHT_MOSTLY_CLEAR,NIGHT_CLEAR,NIGHT_CLEAR,NIGHT_CLEAR,NIGHT_CLEAR","Cross-shore,Cross-shore,Offshore,Offshore,Offshore,Cross-shore,Onshore",7
5842041f4e65fad6a77088de,2024_02_13,33.53561225884637,-117.7799,Thalia Street,2,0.15285714285714286,0.4585714285714286,15,15,"CLEAR,NIGHT_CLEAR,NIGHT_MOSTLY_CLEAR,NIGHT_CLEAR,NIGHT_CLEAR,NIGHT_CLEAR,NIGHT_CLEAR","Cross-shore,Cross-shore,Offshore,Offshore,Offshore,Cross-shore,Onshore",7
5842041f4e65fad6a77088e3,2024_02_13,33.54268310353641,-117.7916,Rockpile,2.5714285714285716,0.31285714285714283,0.62,15,15,"CLEAR,NIGHT_CLEAR,NIGHT_MOSTLY_CLEAR,NIGHT_CLEAR,NIGHT_CLEAR,NIGHT_CLEAR,NIGHT_CLEAR","Cross-shore,Offshore,Offshore,Offshore,Cross-shore,Cross-shore,Onshore",7
5842041f4e65fad6a77088e4,2024_02_13,33.7368459504689,-118.10342,"Seal Beach Pier, Southside",1,0,0.2914285714285714,15,15,"CLEAR,NIGHT_CLEAR,NIGHT_MIST,NIGHT_MIST,NIGHT_CLEAR,NIGHT_CLEAR,NIGHT_CLEAR","Onshore,Offshore,Offshore,Offshore,Offshore,Offshore,Offshore",7
5842041f4e65fad6a77088e5,2024_02_13,33.73933701820233,-118.117,Ray Bay,1.8571428571428572,0.008571428571428572,0.31,15,15,"CLEAR,NIGHT_CLEAR,NIGHT_MIST,NIGHT_MIST,NIGHT_CLEAR,NIGHT_CLEAR,NIGHT_CLEAR","Onshore,Offshore,Offshore,Offshore,Offshore,Offshore,Offshore",7
5842041f4e65fad6a77088e7,2024_02_13,33.728733,-118.08982,Surfside,1.8571428571428572,0.2142857142857143,0.5171428571428571,15,15,"CLEAR,NIGHT_CLEAR,NIGHT_MIST,NIGHT_MIST,NIGHT_CLEAR,NIGHT_CLEAR,NIGHT_MIST","Onshore,Offshore,Offshore,Offshore,Offshore,Offshore,Offshore",7
5842041f4e65fad6a77088e8,2024_02_13,33.68760321488161,-118.04236,Bolsa Chica State Beach,2.7614285714285716,0.5535904761904762,0.8583190476190476,14,14,"CLEAR,NIGHT_CLEAR,NIGHT_MIST,NIGHT_MIST,NIGHT_CLEAR,NIGHT_CLEAR,NIGHT_MIST","Onshore,Offshore,Offshore,Offshore,Offshore,Offshore,Offshore",7
5842041f4e65fad6a77088ea,2024_02_13,33.66704400178788,-118.0192,North HB Streets,2.7614285714285716,0.5793047619047619,0.9081238095238096,14,14,"CLEAR,NIGHT_CLEAR,NIGHT_CLEAR,NIGHT_MIST,NIGHT_CLEAR,NIGHT_CLEAR,NIGHT_CLEAR","Onshore,Cross-shore,Offshore,Cross-shore,Onshore,Onshore,Cross-shore",7
5842041f4e65fad6a77088ed,2024_02_13,33.65475101379567,-118.00291,Huntington Beach Pier Southside,2.5957142857142856,0.5670428571428572,0.8971714285714286,14,14,"CLEAR,NIGHT_CLEAR,NIGHT_MIST,NIGHT_MIST,NIGHT_CLEAR,NIGHT_CLEAR,NIGHT_CLEAR","Onshore,Offshore,Offshore,Offshore,Offshore,Offshore,Onshore",7
5842041f4e65fad6a77088ee,2024_02_13,33.62778647706099,-117.95939,River Jetties,2.31,0.4227904761904762,0.7505380952380952,15,15,"CLEAR,NIGHT_CLEAR,NIGHT_CLEAR,NIGHT_CLEAR,NIGHT_CLEAR,NIGHT_MOSTLY_CLEAR,NIGHT_CLEAR","Onshore,Offshore,Cross-shore,Offshore,Offshore,Cross-shore,Cross-shore",7
5842041f4e65fad6a77088f2,2024_02_13,33.605165797643664,-117.92500376701355,Newport Point,2.857142857142857,0.38571428571428573,0.6914285714285714,15,15,"CLEAR,NIGHT_CLEAR,NIGHT_CLEAR,NIGHT_CLEAR,NIGHT_CLEAR,NIGHT_CLEAR,NIGHT_CLEAR","Cross-shore,Cross-shore,Offshore,Cross-shore,Onshore,Onshore,Onshore",7
5842041f4e65fad6a77088f3,2024_02_13,33.58982984726977,-117.87713,Corona del Mar,1,0.16940714285714287,0.26469714285714285,15,15,"CLEAR,NIGHT_CLEAR,NIGHT_CLEAR,NIGHT_CLEAR,NIGHT_CLEAR,NIGHT_CLEAR,NIGHT_MIST","Onshore,Offshore,Offshore,Offshore,Offshore,Cross-shore,Offshore",7
5842041f4e65fad6a77088f7,2024_02_13,34.00750300824362,-118.4971783496269,Santa Monica Pier,1.8571428571428572,0.07571428571428572,0.38,15,15,"CLEAR,NIGHT_MIST,NIGHT_CLEAR,NIGHT_CLEAR,NIGHT_CLEAR,NIGHT_CLEAR,NIGHT_CLEAR","Onshore,Offshore,Offshore,Offshore,Offshore,Offshore,Offshore",7
5842041f4e65fad6a77088ff,2024_02_13,33.94070283102945,-118.44321,Dockweiler Beach,2.7614285714285716,0.7099386904761905,0.936497380952381,14,14,"CLEAR,NIGHT_CLEAR,NIGHT_CLEAR,NIGHT_CLEAR,NIGHT_MIST,NIGHT_MIST,NIGHT_MIST","Onshore,Offshore,Offshore,Offshore,Offshore,Offshore,Offshore",7
5842041f4e65fad6a7708900,2024_02_13,33.9231846937237,-118.4341465777908,Shitpipe,1.9042857142857144,0.31363809523809527,0.6358904761904762,14,14,"CLEAR,NIGHT_CLEAR,NIGHT_CLEAR,NIGHT_CLEAR,NIGHT_MIST,NIGHT_MIST,NIGHT_MIST","Onshore,Onshore,Offshore,Offshore,Offshore,Offshore,Offshore",7
5842041f4e65fad6a7708902,2024_02_13,33.9108528052242,-118.4279133138721,Hammerland,2.81,0.40152857142857146,0.7252095238095239,14,14,"CLEAR,NIGHT_CLEAR,NIGHT_CLEAR,NIGHT_CLEAR,NIGHT_MIST,NIGHT_MIST,NIGHT_MIST","Onshore,Onshore,Offshore,Offshore,Offshore,Offshore,Offshore",7
5842041f4e65fad6a7708904,2024_02_13,33.87201368173932,-118.4075151286262,Hermosa Beach,2.19,0.3112238095238095,0.6145904761904762,14,14,"CLEAR,NIGHT_CLEAR,NIGHT_CLEAR,NIGHT_CLEAR,NIGHT_CLEAR,NIGHT_MIST,NIGHT_CLEAR","Onshore,Onshore,Onshore,Offshore,Offshore,Offshore,Offshore",7
5842041f4e65fad6a7708906,2024_02_13,33.90129336911256,-118.42184,El Porto,3,0.7501,1.0562809523809524,14,14,"MIST,NIGHT_CLEAR,NIGHT_CLEAR,NIGHT_CLEAR,NIGHT_MIST,NIGHT_MIST,NIGHT_MIST","Onshore,Onshore,Onshore,Offshore,Offshore,Offshore,Offshore",7
5842041f4e65fad6a7708907,2024_02_13,33.87963506431794,-118.41102,Manhattan Beach Pier,2.9042857142857144,0.7240285714285715,1.0145380952380951,14,14,"MIST,NIGHT_CLEAR,NIGHT_CLEAR,NIGHT_CLEAR,NIGHT_MIST,NIGHT_MIST,NIGHT_MIST","Onshore,Onshore,Onshore,Offshore,Offshore,Offshore,Offshore",7
5842041f4e65fad6a7708914,2024_02_13,34.038053387863464,-118.5532,Sunset Point,1.7142857142857142,0.008571428571428572,0.31285714285714283,15,15,"CLEAR,NIGHT_CLEAR,NIGHT_CLEAR,NIGHT_CLEAR,NIGHT_CLEAR,NIGHT_CLEAR,NIGHT_CLEAR","Onshore,Offshore,Offshore,Cross-shore,Offshore,Offshore,Offshore",7
5842041f4e65fad6a7708920,2024_02_13,33.80930828074364,-118.3933198342649,Haggerty's,1.4285714285714286,0.11571428571428571,0.3,15,15,"CLEAR,NIGHT_CLEAR,NIGHT_CLEAR,NIGHT_CLEAR,NIGHT_CLEAR,NIGHT_CLEAR,NIGHT_CLEAR","Onshore,Onshore,Onshore,Offshore,Offshore,Offshore,Offshore",7
5842041f4e65fad6a7708921,2024_02_13,33.85044519861206,-118.40048,Redondo Breakwater,2.857142857142857,0.5,0.8042857142857143,15,15,"CLEAR,NIGHT_CLEAR,NIGHT_CLEAR,NIGHT_CLEAR,NIGHT_CLEAR,NIGHT_MIST,NIGHT_CLEAR","Onshore,Onshore,Onshore,Offshore,Offshore,Offshore,Offshore",7
5842041f4e65fad6a7708927,2024_02_13,33.70877301002487,-118.2840112858389,Cabrillo Beach,1,0,0.26,15,15,"CLEAR,NIGHT_CLEAR,NIGHT_CLEAR,NIGHT_CLEAR,NIGHT_CLEAR,NIGHT_CLEAR,NIGHT_CLEAR","Offshore,Offshore,Offshore,Onshore,Offshore,Offshore,Offshore",7
5842041f4e65fad6a770892c,2024_02_13,33.77209986806257,-118.4268428476672,Lunada Bay,1.4285714285714286,0.35285714285714287,0.66,15,15,"CLEAR,NIGHT_CLEAR,NIGHT_CLEAR,NIGHT_CLEAR,NIGHT_CLEAR,NIGHT_CLEAR,NIGHT_CLEAR","Onshore,Onshore,Onshore,Onshore,Onshore,Onshore,Onshore",7
5842041f4e65fad6a770892d,2024_02_13,33.79294656286144,-118.4070316699825,PV Cove,2,0.4924985714285714,0.7467285714285714,15,15,"CLEAR,NIGHT_CLEAR,NIGHT_CLEAR,NIGHT_CLEAR,NIGHT_CLEAR,NIGHT_CLEAR,NIGHT_CLEAR","Onshore,Onshore,Onshore,Offshore,Offshore,Offshore,Offshore",7
5842041f4e65fad6a7708930,2024_02_13,34.03944902292561,-118.57539,Chart House,0.14285714285714285,0,0.1442857142857143,15,15,"CLEAR,NIGHT_CLEAR,NIGHT_CLEAR,NIGHT_CLEAR,NIGHT_CLEAR,NIGHT_CLEAR,NIGHT_CLEAR","Onshore,Offshore,Offshore,Offshore,Offshore,Offshore,Offshore",7
5842041f4e65fad6a7708936,2024_02_13,34.0016731994772,-118.80456,Point Dume,2.0957142857142856,0.17732857142857142,0.48105238095238095,15,15,"CLEAR,NIGHT_CLEAR,NIGHT_CLEAR,NIGHT_CLEAR,NIGHT_CLEAR,NIGHT_CLEAR,NIGHT_CLEAR","Cross-shore,Offshore,Offshore,Cross-shore,Cross-shore,Cross-shore,Cross-shore",7
5842041f4e65fad6a7708937,2024_02_13,34.02587527588963,-118.7554939066114,Latigo Point,2,0.18142857142857144,0.48714285714285716,15,15,"CLEAR,NIGHT_CLEAR,NIGHT_CLEAR,NIGHT_CLEAR,NIGHT_CLEAR,NIGHT_CLEAR,NIGHT_CLEAR","Cross-shore,Offshore,Offshore,Offshore,Cross-shore,Cross-shore,Offshore",7
5842041f4e65fad6a770893f,2024_02_13,34.043762,-118.93294,Leo Carrillo,2.4285714285714284,0.3859,0.6879571428571429,15,15,"CLEAR,NIGHT_CLEAR,NIGHT_CLEAR,NIGHT_CLEAR,NIGHT_CLEAR,NIGHT_CLEAR,NIGHT_CLEAR","Cross-shore,Offshore,Offshore,Offshore,Offshore,Offshore,Offshore",7
5842041f4e65fad6a7708941,2024_02_13,36.69388179265737,-121.81289,Marina State Beach,3.2857142857142856,1.6042857142857143,1.8957142857142857,13,13,"CLEAR,NIGHT_MIST,NIGHT_MOSTLY_CLOUDY,NIGHT_CLEAR,NIGHT_MOSTLY_CLEAR,NIGHT_CLEAR,NIGHT_MIST","Onshore,Cross-shore,Cross-shore,Offshore,Offshore,Offshore,Offshore",7
5842041f4e65fad6a7708944,2024_02_13,34.34145077331085,-119.416999352654,Stanley's,2,0.09714285714285714,0.4014285714285714,14.714285714285714,14.714285714285714,"CLEAR,NIGHT_CLEAR,NIGHT_CLEAR,NIGHT_CLEAR,NIGHT_CLEAR,NIGHT_CLEAR,NIGHT_CLEAR","Onshore,Offshore,Offshore,Offshore,Offshore,Offshore,Offshore",7
5842041f4e65fad6a7708945,2024_02_13,34.35113017313915,-119.426921498899,Oil Piers,2,0.11714285714285715,0.42,14.714285714285714,14.714285714285714,"CLEAR,NIGHT_CLEAR,NIGHT_CLEAR,NIGHT_CLEAR,NIGHT_CLEAR,NIGHT_CLEAR,NIGHT_CLEAR","Onshore,Offshore,Offshore,Offshore,Offshore,Offshore,Offshore",7
5842041f4e65fad6a770894c,2024_02_13,34.17876333306018,-119.2399483564372,Oxnard,2.857142857142857,0.44571428571428573,0.7514285714285714,14.714285714285714,14.714285714285714,"CLEAR,NIGHT_MOSTLY_CLOUDY,NIGHT_MIST,NIGHT_MIST,NIGHT_CLEAR,NIGHT_MIST,NIGHT_CLEAR","Onshore,Offshore,Offshore,Offshore,Offshore,Offshore,Offshore",7
5842041f4e65fad6a7708957,2024_02_13,34.31720331100517,-119.3882324751725,Pitas Point,2,0.13142857142857142,0.4342857142857143,14.714285714285714,14.714285714285714,"CLEAR,NIGHT_MOSTLY_CLEAR,NIGHT_CLEAR,NIGHT_CLEAR,NIGHT_CLEAR,NIGHT_CLEAR,NIGHT_CLEAR","Cross-shore,Offshore,Offshore,Offshore,Offshore,Offshore,Offshore",7
5842041f4e65fad6a7708959,2024_02_13,34.27851754384724,-119.316202617226,Emma Wood,1.8571428571428572,0.12142857142857143,0.43142857142857144,14.714285714285714,14.714285714285714,"CLEAR,NIGHT_MOSTLY_CLEAR,NIGHT_MOSTLY_CLEAR,NIGHT_CLEAR,NIGHT_CLEAR,NIGHT_CLEAR,NIGHT_CLEAR","Onshore,Offshore,Offshore,Offshore,Offshore,Offshore,Offshore",7
5842041f4e65fad6a770895a,2024_02_13,34.35513640390276,-119.4400589884255,Mussel Shoals (aka Little Rincon),2,0.18285714285714286,0.48714285714285716,14.714285714285714,14.714285714285714,"CLEAR,NIGHT_CLEAR,NIGHT_CLEAR,NIGHT_CLEAR,NIGHT_CLEAR,NIGHT_CLEAR,NIGHT_CLEAR","Cross-shore,Cross-shore,Cross-shore,Cross-shore,Cross-shore,Offshore,Offshore",7
5842041f4e65fad6a770895e,2024_02_13,34.28991757054902,-119.3366646794652,Summer Beach,1.8571428571428572,0.08571428571428572,0.3914285714285714,15,15,"CLEAR,NIGHT_MOSTLY_CLEAR,NIGHT_MOSTLY_CLEAR,NIGHT_CLEAR,NIGHT_CLEAR,NIGHT_CLEAR,NIGHT_CLEAR","Onshore,Offshore,Offshore,Offshore,Offshore,Offshore,Offshore",7
5842041f4e65fad6a770895f,2024_02_13,34.30897456105926,-119.3582501170116,Solimar,2,0.07714285714285714,0.38,14.714285714285714,14.714285714285714,"CLEAR,NIGHT_MOSTLY_CLEAR,NIGHT_CLEAR,NIGHT_CLEAR,NIGHT_CLEAR,NIGHT_CLEAR,NIGHT_CLEAR","Cross-shore,Offshore,Offshore,Offshore,Offshore,Offshore,Offshore",7
5842041f4e65fad6a7708960,2024_02_13,34.39836265281686,-119.70213,Leadbetter Point,1,0,0.20714285714285716,14.714285714285714,14.714285714285714,"CLEAR,NIGHT_CLEAR,NIGHT_CLEAR,NIGHT_CLEAR,NIGHT_CLEAR,NIGHT_CLEAR,NIGHT_CLEAR","Cross-shore,Offshore,Offshore,Cross-shore,Offshore,Offshore,Offshore",7
5842041f4e65fad6a7708961,2024_02_13,34.46052293893899,-120.07328,Refugio,1.1428571428571428,0.002857142857142857,0.2785714285714286,14,14,"CLEAR,NIGHT_CLEAR,NIGHT_CLEAR,NIGHT_CLEAR,NIGHT_CLEAR,NIGHT_CLEAR,NIGHT_CLEAR","Cross-shore,Offshore,Offshore,Offshore,Offshore,Offshore,Cross-shore",7
5842041f4e65fad6a7708962,2024_02_13,34.40754276777778,-119.87639,Devereux,2,0.16857142857142857,0.4742857142857143,14,14,"CLEAR,NIGHT_CLEAR,NIGHT_CLEAR,NIGHT_CLEAR,NIGHT_CLEAR,NIGHT_CLEAR,NIGHT_CLEAR","Cross-shore,Offshore,Offshore,Offshore,Offshore,Offshore,Offshore",7
5842041f4e65fad6a7708963,2024_02_13,34.27479983305182,-119.3133222656776,Ventura Overhead,1.8571428571428572,0.15142857142857144,0.45285714285714285,14.714285714285714,14.714285714285714,"CLEAR,NIGHT_MOSTLY_CLEAR,NIGHT_MOSTLY_CLEAR,NIGHT_CLEAR,NIGHT_CLEAR,NIGHT_CLEAR,NIGHT_CLEAR","Onshore,Cross-shore,Offshore,Offshore,Offshore,Offshore,Offshore",7
5842041f4e65fad6a7708964,2024_02_13,34.41023236011655,-119.88261,Sands,2,0.1742857142857143,0.48,14,14,"CLEAR,NIGHT_CLEAR,NIGHT_CLEAR,NIGHT_CLEAR,NIGHT_CLEAR,NIGHT_CLEAR,NIGHT_CLEAR","Onshore,Offshore,Offshore,Offshore,Offshore,Offshore,Offshore",7
5842041f4e65fad6a7708966,2024_02_13,34.40450193869233,-119.68752,Sandspit,0.8571428571428571,0,0.14,14.714285714285714,14.714285714285714,"CLEAR,NIGHT_CLEAR,NIGHT_CLEAR,NIGHT_CLEAR,NIGHT_CLEAR,NIGHT_CLEAR,NIGHT_CLEAR","Cross-shore,Offshore,Offshore,Offshore,Offshore,Offshore,Offshore",7
5842041f4e65fad6a7708967,2024_02_13,34.41549098334453,-119.6375149840203,Hammond's,1,0,0.15857142857142859,14,14,"CLEAR,NIGHT_CLEAR,NIGHT_CLEAR,NIGHT_CLEAR,NIGHT_CLEAR,NIGHT_CLEAR,NIGHT_CLEAR","Cross-shore,Offshore,Offshore,Cross-shore,Offshore,Cross-shore,Offshore",7
5842041f4e65fad6a7708968,2024_02_13,34.45759322742309,-120.0220251867315,El Capitan,1.5714285714285714,0.012857142857142857,0.3142857142857143,14,14,"CLEAR,NIGHT_CLEAR,NIGHT_CLEAR,NIGHT_CLEAR,NIGHT_CLEAR,NIGHT_CLEAR,NIGHT_CLEAR","Cross-shore,Offshore,Offshore,Offshore,Offshore,Offshore,Offshore",7
5842041f4e65fad6a770896c,2024_02_13,34.405117655616,-119.84317,Campus Point,1,0,0.2528571428571429,14,14,"CLEAR,NIGHT_CLEAR,NIGHT_CLEAR,NIGHT_CLEAR,NIGHT_CLEAR,NIGHT_CLEAR,NIGHT_CLEAR","Cross-shore,Offshore,Offshore,Offshore,Offshore,Offshore,Offshore",7
5842041f4e65fad6a770896e,2024_02_13,34.38935162233354,-119.51955,Carpinteria State Beach,2,0.05714285714285715,0.36142857142857143,15,15,"CLEAR,NIGHT_CLEAR,NIGHT_CLEAR,NIGHT_CLEAR,NIGHT_CLEAR,NIGHT_CLEAR,NIGHT_CLEAR","Onshore,Offshore,Offshore,Offshore,Offshore,Offshore,Offshore",7
5842041f4e65fad6a770896f,2024_02_13,37.48296565175612,-122.4549300127824,Half Moon Bay,3,0.9914285714285714,1.1871428571428573,13,13,"CLEAR,NIGHT_CLEAR,NIGHT_CLEAR,NIGHT_CLEAR,NIGHT_CLEAR,NIGHT_CLEAR,NIGHT_CLEAR","Onshore,Offshore,Offshore,Offshore,Offshore,Offshore,Cross-shore",7
5842041f4e65fad6a7708970,2024_02_13,37.499,-122.471,Princeton Jetty,3.142857142857143,1.1114285714285714,1.3242857142857143,13,13,"CLEAR,NIGHT_CLEAR,NIGHT_CLEAR,NIGHT_CLEAR,NIGHT_CLEAR,NIGHT_CLEAR,NIGHT_CLEAR","Cross-shore,Offshore,Offshore,Offshore,Offshore,Offshore,Offshore",7
5842041f4e65fad6a7708972,2024_02_13,37.35699547365155,-122.4069534707252,Tunitas Creek,3,1.917142857142857,2.227142857142857,13,13,"CLEAR,NIGHT_CLEAR,NIGHT_CLEAR,NIGHT_CLEAR,NIGHT_CLEAR,NIGHT_CLOUDY,NIGHT_MOSTLY_CLOUDY","Cross-shore,Offshore,Offshore,Cross-shore,Cross-shore,Cross-shore,Cross-shore",7
5842041f4e65fad6a7708974,2024_02_13,37.54735589428842,-122.5161090212687,Montara,3,1.45,1.73,13,13,"MIST,NIGHT_MIST,NIGHT_CLEAR,NIGHT_BRIEF_SHOWERS,NIGHT_MOSTLY_CLOUDY,NIGHT_OVERCAST,NIGHT_CLOUDY","Onshore,Cross-shore,Cross-shore,Onshore,Cross-shore,Cross-shore,Onshore",7
5842041f4e65fad6a7708975,2024_02_13,34.3869373724559,-119.5142334209018,Tarpits,2,0.041428571428571426,0.3485714285714286,15,15,"CLEAR,NIGHT_CLEAR,NIGHT_CLEAR,NIGHT_CLEAR,NIGHT_CLEAR,NIGHT_CLEAR,NIGHT_CLEAR","Cross-shore,Offshore,Offshore,Offshore,Offshore,Offshore,Offshore",7
5842041f4e65fad6a7708976,2024_02_13,37.59881852720143,-122.50463,Pacifica / Linda Mar,2.952857142857143,0.5005428571428572,0.8225571428571429,14,14,"MIST,NIGHT_CLEAR,NIGHT_CLEAR,NIGHT_MOSTLY_CLOUDY,NIGHT_MOSTLY_CLOUDY,NIGHT_OVERCAST,NIGHT_OVERCAST","Onshore,Cross-shore,Offshore,Onshore,Onshore,Onshore,Onshore",7
5842041f4e65fad6a7708978,2024_02_13,37.59883098461164,-122.5143843582282,Pedro Point,3.2857142857142856,1.4128571428571428,1.667142857142857,12.714285714285714,12.714285714285714,"MOSTLY_CLOUDY,NIGHT_CLEAR,NIGHT_CLEAR,NIGHT_MOSTLY_CLOUDY,NIGHT_MOSTLY_CLOUDY,NIGHT_OVERCAST,NIGHT_OVERCAST","Onshore,Cross-shore,Cross-shore,Onshore,Onshore,Onshore,Onshore",7
5842041f4e65fad6a7708979,2024_02_13,37.61081996647663,-122.4973287570634,Rockaway,3,1.4271428571428573,1.67,12.714285714285714,12.714285714285714,"MIST,NIGHT_CLEAR,NIGHT_CLEAR,NIGHT_MOSTLY_CLOUDY,NIGHT_MOSTLY_CLOUDY,NIGHT_OVERCAST,NIGHT_OVERCAST","Onshore,Offshore,Offshore,Onshore,Onshore,Onshore,Onshore",7
5842041f4e65fad6a770897a,2024_02_13,37.809987384424446,-122.4751353263855,Fort Point,3,0.8385714285714285,1.11,12.714285714285714,12.714285714285714,"MIST,NIGHT_CLEAR,NIGHT_CLEAR,NIGHT_CLEAR,NIGHT_MIST,NIGHT_MIST,NIGHT_MIST","Cross-shore,Onshore,Cross-shore,Onshore,Onshore,Onshore,Onshore",7
5842041f4e65fad6a770897c,2024_02_13,37.63422542967464,-122.4951,Sharp Park,3,1.5171428571428571,1.8257142857142856,12.714285714285714,12.714285714285714,"MIST,NIGHT_CLEAR,NIGHT_CLEAR,NIGHT_MIST,NIGHT_MOSTLY_CLOUDY,NIGHT_OVERCAST,NIGHT_OVERCAST","Onshore,Offshore,Cross-shore,Onshore,Onshore,Onshore,Onshore",7
5842041f4e65fad6a770897d,2024_02_13,37.27313605072472,-122.4127387912554,Pescadero,3,1.8357142857142856,2.1414285714285715,13,13,"CLEAR,NIGHT_MIST,NIGHT_CLEAR,NIGHT_CLEAR,NIGHT_CLEAR,NIGHT_MIST,NIGHT_BRIEF_SHOWERS","Onshore,Cross-shore,Cross-shore,Offshore,Offshore,Offshore,Cross-shore",7
5842041f4e65fad6a770897e,2024_02_13,37.18140279972666,-122.3926685899327,Pigeon Point,4,1.7714285714285714,2.077142857142857,13,13,"CLEAR,NIGHT_CLEAR,NIGHT_CLEAR,NIGHT_CLEAR,NIGHT_CLEAR,NIGHT_CLEAR,NIGHT_CLEAR","Offshore,Offshore,Offshore,Offshore,Offshore,Offshore,Offshore",7
5842041f4e65fad6a770897f,2024_02_13,37.11578956919415,-122.314699271291,Ano Nuevo,4,1.4157142857142857,1.6914285714285715,13,13,"MOSTLY_CLOUDY,NIGHT_CLEAR,NIGHT_CLEAR,NIGHT_CLEAR,NIGHT_CLEAR,NIGHT_CLEAR,NIGHT_CLEAR","Offshore,Offshore,Offshore,Cross-shore,Offshore,Offshore,Offshore",7
5842041f4e65fad6a7708980,2024_02_13,37.09520872681598,-122.2805474707768,Waddell Creek,3.857142857142857,1.4357142857142857,1.7142857142857144,13,13,"MOSTLY_CLEAR,NIGHT_CLEAR,NIGHT_CLEAR,NIGHT_CLEAR,NIGHT_CLEAR,NIGHT_CLEAR,NIGHT_CLEAR","Cross-shore,Offshore,Offshore,Offshore,Offshore,Offshore,Offshore",7
5842041f4e65fad6a7708981,2024_02_13,36.96512852130351,-122.1252825495626,Four Mile,4,1.5014285714285716,1.802857142857143,13,13,"MIST,NIGHT_CLEAR,NIGHT_CLEAR,NIGHT_CLEAR,NIGHT_CLEAR,NIGHT_CLEAR,NIGHT_MOSTLY_CLOUDY","Offshore,Cross-shore,Offshore,Cross-shore,Offshore,Cross-shore,Cross-shore",7
5842041f4e65fad6a7708982,2024_02_13,37.04122807048655,-122.2333684729756,Scott Creek,3.2857142857142856,1.4757142857142858,1.7685714285714287,13,13,"MIST,NIGHT_CLEAR,NIGHT_CLEAR,NIGHT_CLEAR,NIGHT_CLEAR,NIGHT_CLOUDY,NIGHT_MOSTLY_CLOUDY","Cross-shore,Offshore,Offshore,Offshore,Onshore,Onshore,Offshore",7
5842041f4e65fad6a7708983,2024_02_13,37.02350229387179,-122.21908,Davenport,4,1.5457142857142858,1.8485714285714285,13,13,"MIST,NIGHT_CLEAR,NIGHT_CLEAR,NIGHT_CLEAR,NIGHT_CLEAR,NIGHT_CLOUDY,NIGHT_MOSTLY_CLOUDY","Cross-shore,Offshore,Offshore,Cross-shore,Onshore,Onshore,Cross-shore",7
5842041f4e65fad6a7708986,2024_02_13,36.94905295955728,-122.0611823912244,Natural Bridges,3.142857142857143,1.2114285714285715,1.48,13,13,"CLEAR,NIGHT_MIST,NIGHT_FOG,NIGHT_MIST,NIGHT_MOSTLY_CLOUDY,NIGHT_MOSTLY_CLOUDY,NIGHT_CLOUDY","Cross-shore,Offshore,Offshore,Offshore,Offshore,Offshore,Cross-shore",7
5842041f4e65fad6a7708987,2024_02_13,36.95154854910425,-122.0420693940968,Mitchell's Cove,3.142857142857143,0.9,1.1457142857142857,13,13,"CLEAR,NIGHT_MIST,NIGHT_FOG,NIGHT_MOSTLY_CLOUDY,NIGHT_MOSTLY_CLOUDY,NIGHT_MOSTLY_CLOUDY,NIGHT_MIST","Cross-shore,Cross-shore,Cross-shore,Cross-shore,Offshore,Offshore,Offshore",7
5842041f4e65fad6a770898a,2024_02_13,36.9572312370203,-121.98177,26th Ave,3.857142857142857,1.2671428571428571,1.5142857142857142,13,13,"CLEAR,NIGHT_MIST,NIGHT_FOG,NIGHT_MOSTLY_CLEAR,NIGHT_MOSTLY_CLEAR,NIGHT_MOSTLY_CLOUDY,NIGHT_CLEAR","Onshore,Offshore,Cross-shore,Offshore,Cross-shore,Cross-shore,Cross-shore",7
5842041f4e65fad6a770898e,2024_02_13,36.91899972819882,-121.85536,Manresa,3.7142857142857144,1.33,1.5785714285714285,13,13,"MIST,NIGHT_MIST,NIGHT_MOSTLY_CLOUDY,NIGHT_MIST,NIGHT_MIST,NIGHT_MOSTLY_CLEAR,NIGHT_CLOUDY","Onshore,Cross-shore,Cross-shore,Offshore,Offshore,Offshore,Offshore",7
5842041f4e65fad6a7708990,2024_02_13,34.45747731928454,-120.34242,The Ranch,1.4285714285714286,0.27,0.5771428571428572,14,14,"CLEAR,NIGHT_CLEAR,NIGHT_CLEAR,NIGHT_CLEAR,NIGHT_CLEAR,NIGHT_CLEAR,NIGHT_CLEAR","Cross-shore,Offshore,Offshore,Offshore,Offshore,Offshore,Offshore",7
5842041f4e65fad6a7708991,2024_02_13,34.50875036590315,-120.50348,Jalama,3,1.032857142857143,1.2328571428571429,14,14,"CLEAR,NIGHT_CLEAR,NIGHT_CLEAR,NIGHT_CLEAR,NIGHT_CLEAR,NIGHT_CLEAR,NIGHT_CLEAR","Onshore,Offshore,Offshore,Offshore,Offshore,Offshore,Offshore",7
5842041f4e65fad6a7708996,2024_02_13,34.68700870220497,-120.6111611019887,Surf Beach,2.857142857142857,2.222857142857143,2.642857142857143,14,14,"MIST,NIGHT_MIST,NIGHT_MIST,NIGHT_MIST,NIGHT_DRIZZLE,NIGHT_MIST,NIGHT_MIST","Onshore,Onshore,Cross-shore,Onshore,Cross-shore,Onshore,Onshore",7
5842041f4e65fad6a770899c,2024_02_13,35.5730538161116,-121.1143362345574,Moonstone,3.857142857142857,1.5957142857142856,1.9085714285714286,14,14,"CLEAR,NIGHT_CLEAR,NIGHT_CLEAR,NIGHT_CLEAR,NIGHT_CLEAR,NIGHT_CLEAR,NIGHT_CLEAR","Onshore,Offshore,Offshore,Offshore,Offshore,Offshore,Offshore",7
5842041f4e65fad6a770899d,2024_02_13,35.61533716776573,-121.1502053073914,Pico Creek,3,1.2185714285714286,1.4857142857142858,14,14,"CLEAR,NIGHT_CLEAR,NIGHT_CLEAR,NIGHT_CLEAR,NIGHT_CLEAR,NIGHT_CLEAR,NIGHT_CLEAR","Onshore,Offshore,Offshore,Offshore,Offshore,Offshore,Cross-shore",7
5842041f4e65fad6a770899e,2024_02_13,35.56829031927379,-121.1120653023953,Santa Rosa Creek,3.7142857142857144,1.5957142857142856,1.9085714285714286,14,14,"MIST,NIGHT_CLEAR,NIGHT_CLEAR,NIGHT_CLEAR,NIGHT_CLEAR,NIGHT_CLEAR,NIGHT_CLEAR","Onshore,Offshore,Offshore,Offshore,Offshore,Offshore,Offshore",7
5842041f4e65fad6a77089a2,2024_02_13,35.44820114936284,-120.90715,"Cayucos Pier, Southside ",2.7142857142857144,0.6828571428571428,0.9857142857142858,14,14,"CLEAR,NIGHT_CLEAR,NIGHT_CLEAR,NIGHT_CLEAR,NIGHT_CLEAR,NIGHT_CLEAR,NIGHT_CLEAR","Onshore,Offshore,Offshore,Offshore,Offshore,Offshore,Offshore",7
5842041f4e65fad6a77089a4,2024_02_13,35.30143372628852,-120.877819239902,Cable Landing,3.2857142857142856,2.2657142857142856,2.7,14,14,"BRIEF_SHOWERS,NIGHT_MOSTLY_CLOUDY,NIGHT_CLEAR,NIGHT_CLEAR,NIGHT_CLEAR,NIGHT_CLEAR,NIGHT_CLEAR","Onshore,Offshore,Offshore,Offshore,Offshore,Offshore,Offshore",7
5842041f4e65fad6a77089a9,2024_02_13,35.61269103500222,-121.1480725356606,San Simeon,3,0.8059999999999999,1.004,14,14,"CLEAR,NIGHT_CLEAR,NIGHT_CLEAR,NIGHT_CLEAR,NIGHT_CLEAR,NIGHT_CLEAR,NIGHT_CLEAR","Onshore,Offshore,Offshore,Offshore,Offshore,Offshore,Offshore",7
5842041f4e65fad6a77089ab,2024_02_13,35.1775325966252,-120.7341125142258,Avila Beach,2,0.060000000000000005,0.3657142857142857,14,14,"CLEAR,NIGHT_CLEAR,NIGHT_CLEAR,NIGHT_CLEAR,NIGHT_CLEAR,NIGHT_CLEAR,NIGHT_CLEAR","Onshore,Offshore,Offshore,Offshore,Offshore,Offshore,Offshore",7
5842041f4e65fad6a77089ac,2024_02_13,35.13877877884115,-120.64535,Pismo Beach Pier,3,1.1953380952380952,1.481595238095238,14,14,"CLEAR,NIGHT_MIST,NIGHT_MIST,NIGHT_CLEAR,NIGHT_CLEAR,NIGHT_CLEAR,NIGHT_CLEAR","Cross-shore,Cross-shore,Cross-shore,Cross-shore,Cross-shore,Cross-shore,Cross-shore",7
5842041f4e65fad6a77089ad,2024_02_13,46.8907710233147,-124.12964,Westport/Olympic Peninsula,3.857142857142857,1.4728571428571429,1.7414285714285713,10.714285714285714,10.714285714285714,"MOSTLY_CLOUDY,NIGHT_MOSTLY_CLOUDY,NIGHT_MOSTLY_CLOUDY,NIGHT_MOSTLY_CLEAR,NIGHT_CLEAR,NIGHT_CLEAR,NIGHT_MOSTLY_CLOUDY","Cross-shore,Offshore,Offshore,Offshore,Offshore,Offshore,Offshore",7
5842041f4e65fad6a77089ae,2024_02_13,46.35185177248545,-124.06747,Long Beach Peninsula,3.7142857142857144,2.1728571428571426,2.4414285714285713,10,10,"CLEAR,NIGHT_CLEAR,NIGHT_CLEAR,NIGHT_CLEAR,NIGHT_CLEAR,NIGHT_CLEAR,NIGHT_CLEAR","Onshore,Offshore,Offshore,Offshore,Offshore,Offshore,Offshore",7
5842041f4e65fad6a77089af,2024_02_13,47.90649175554033,-124.6370864743483,La Push,3.7142857142857144,1.7542857142857144,1.9685714285714286,10,10,"MOSTLY_CLOUDY,NIGHT_FOG,NIGHT_MOSTLY_CLOUDY,NIGHT_MOSTLY_CLEAR,NIGHT_MOSTLY_CLEAR,NIGHT_MOSTLY_CLEAR,NIGHT_CLEAR","Onshore,Cross-shore,Cross-shore,Offshore,Offshore,Offshore,Offshore",7
5842041f4e65fad6a77089b0,2024_02_13,42.04368239985442,-124.26828,Brookings Jetty,3,0.8889542857142857,1.3889928571428571,12,12,"CLEAR,NIGHT_CLEAR,NIGHT_CLEAR,NIGHT_CLEAR,NIGHT_MOSTLY_CLEAR,NIGHT_MOSTLY_CLOUDY,NIGHT_MIST","Onshore,Offshore,Offshore,Cross-shore,Onshore,Onshore,Onshore",7
5842041f4e65fad6a77089b1,2024_02_13,42.74071837900346,-124.4983727491047,Port Orford,3.142857142857143,1.0971428571428572,1.3242857142857143,11.285714285714286,11.285714285714286,"CLEAR,NIGHT_MOSTLY_CLOUDY,NIGHT_MOSTLY_CLOUDY,NIGHT_FOG,NIGHT_FOG,NIGHT_MOSTLY_CLEAR,NIGHT_FOG","Offshore,Onshore,Onshore,Onshore,Onshore,Onshore,Onshore",7
5842041f4e65fad6a77089b2,2024_02_13,44.01532689312291,-124.13865,Florence South Jetty,3.2857142857142856,2.14,2.3971428571428572,11,11,"CLEAR,NIGHT_CLEAR,NIGHT_CLEAR,NIGHT_CLEAR,NIGHT_CLEAR,NIGHT_CLEAR,NIGHT_CLEAR","Cross-shore,Offshore,Offshore,Offshore,Offshore,Offshore,Offshore",7
5842041f4e65fad6a77089b3,2024_02_13,42.41812540774362,-124.42945,Gold Beach South Jetty,3,1.53,1.802857142857143,11.285714285714286,11.285714285714286,"CLEAR,NIGHT_CLEAR,NIGHT_MOSTLY_CLEAR,NIGHT_MOSTLY_CLOUDY,NIGHT_MOSTLY_CLOUDY,NIGHT_MOSTLY_CLOUDY,NIGHT_MIST","Offshore,Onshore,Onshore,Onshore,Onshore,Onshore,Onshore",7
5842041f4e65fad6a77089b4,2024_02_13,44.95857310226525,-124.0219017690976,Lincoln City,3.857142857142857,2.162857142857143,2.42,11,11,"MOSTLY_CLOUDY,NIGHT_MOSTLY_CLEAR,NIGHT_CLEAR,NIGHT_CLEAR,NIGHT_CLEAR,NIGHT_CLEAR,NIGHT_CLEAR","Cross-shore,Offshore,Offshore,Offshore,Offshore,Offshore,Offshore",7
5842041f4e65fad6a77089b5,2024_02_13,44.63792761362982,-124.0657,Newport,3.857142857142857,2.224285714285714,2.505714285714286,11,11,"MOSTLY_CLOUDY,NIGHT_CLEAR,NIGHT_CLEAR,NIGHT_CLEAR,NIGHT_CLEAR,NIGHT_CLEAR,NIGHT_CLEAR","Cross-shore,Offshore,Offshore,Offshore,Offshore,Offshore,Offshore",7
5842041f4e65fad6a77089b6,2024_02_13,45.61468496266301,-123.94643,Rockaway Beach,3.857142857142857,2.2085714285714286,2.497142857142857,11,11,"MIST,NIGHT_CLEAR,NIGHT_CLEAR,NIGHT_CLEAR,NIGHT_CLEAR,NIGHT_CLEAR,NIGHT_CLEAR","Onshore,Offshore,Offshore,Offshore,Offshore,Offshore,Offshore",7
5842041f4e65fad6a77089b7,2024_02_13,45.20252914186085,-123.96975,Pacific City,3.857142857142857,1.8185714285714285,2.08,11,11,"MOSTLY_CLOUDY,NIGHT_CLEAR,NIGHT_CLEAR,NIGHT_CLEAR,NIGHT_CLEAR,NIGHT_CLEAR,NIGHT_CLEAR","Onshore,Offshore,Offshore,Offshore,Offshore,Offshore,Offshore",7
5842041f4e65fad6a77089b8,2024_02_13,45.88179930310263,-123.96681,Cannon Beach,3.7142857142857144,2.142857142857143,2.39,10,10,"MOSTLY_CLOUDY,NIGHT_CLEAR,NIGHT_CLEAR,NIGHT_CLEAR,NIGHT_CLEAR,NIGHT_CLEAR,NIGHT_CLEAR","Onshore,Offshore,Offshore,Offshore,Offshore,Offshore,Offshore",7
5842041f4e65fad6a77089ba,2024_02_13,40.02528754746774,-124.06372,Shelter Cove,2.857142857142857,0.5119271428571428,0.7998885714285715,12,12,"BRIEF_SHOWERS,NIGHT_MOSTLY_CLEAR,NIGHT_MOSTLY_CLEAR,NIGHT_CLEAR,NIGHT_CLEAR,NIGHT_CLEAR,NIGHT_CLEAR","Onshore,Onshore,Onshore,Onshore,Cross-shore,Offshore,Cross-shore",7
5842041f4e65fad6a77089bb,2024_02_13,40.76816197136951,-124.24248,Humboldt Harbor Entrance,3,1.9857142857142858,2.3257142857142856,12,12,"MIST,NIGHT_FOG,NIGHT_MOSTLY_CLOUDY,NIGHT_CLEAR,NIGHT_MIST,NIGHT_MIST,NIGHT_CLEAR","Onshore,Onshore,Onshore,Cross-shore,Onshore,Cross-shore,Cross-shore",7
5842041f4e65fad6a77089bc,2024_02_13,40.76684246920174,-124.23107,North Jetty,3,2.4085714285714284,2.7114285714285713,12,12,"MOSTLY_CLOUDY,NIGHT_FOG,NIGHT_FOG,NIGHT_CLEAR,NIGHT_CLEAR,NIGHT_MOSTLY_CLEAR,NIGHT_CLEAR","Onshore,Onshore,Onshore,Cross-shore,Cross-shore,Cross-shore,Offshore",7
5842041f4e65fad6a77089bd,2024_02_13,41.02731183893966,-124.1149972888982,Westhaven,2.857142857142857,2.7485714285714287,3.0914285714285716,12,12,"MOSTLY_CLOUDY,NIGHT_MIST,NIGHT_BRIEF_SHOWERS,NIGHT_MOSTLY_CLEAR,NIGHT_CLEAR,NIGHT_CLEAR,NIGHT_CLEAR","Onshore,Offshore,Offshore,Cross-shore,Onshore,Cross-shore,Cross-shore",7
5842041f4e65fad6a77089be,2024_02_13,41.13016238153297,-124.16466,Sue-meg,3.7142857142857144,1.8771428571428572,2.187142857142857,12,12,"CLEAR,NIGHT_CLEAR,NIGHT_CLEAR,NIGHT_CLEAR,NIGHT_CLEAR,NIGHT_CLEAR,NIGHT_CLEAR","Onshore,Offshore,Cross-shore,Cross-shore,Cross-shore,Cross-shore,Cross-shore",7
5842041f4e65fad6a77089bf,2024_02_13,37.8289474958188,-122.5376795097543,Fort Cronkite/Rodeo Beach,3,1.5585714285714285,1.8585714285714285,13,13,"MIST,NIGHT_CLEAR,NIGHT_CLEAR,NIGHT_CLEAR,NIGHT_CLEAR,NIGHT_CLEAR,NIGHT_CLEAR","Cross-shore,Cross-shore,Onshore,Cross-shore,Onshore,Cross-shore,Cross-shore",7
5842041f4e65fad6a77089c0,2024_02_13,41.74415759876137,-124.1771718063073,South Beach CA,3,0.9814285714285714,1.1914285714285715,12,12,"OVERCAST,NIGHT_CLEAR,NIGHT_CLEAR,NIGHT_MOSTLY_CLEAR,NIGHT_MOSTLY_CLOUDY,NIGHT_MOSTLY_CLOUDY,NIGHT_MOSTLY_CLOUDY","Cross-shore,Onshore,Onshore,Offshore,Offshore,Offshore,Offshore",7
5842041f4e65fad6a77089c1,2024_02_13,37.89801283969752,-122.64519,Stinson Beach,3,0.4257142857142857,0.73,13,13,"MOSTLY_CLEAR,NIGHT_CLEAR,NIGHT_CLEAR,NIGHT_CLEAR,NIGHT_CLEAR,NIGHT_MIST,NIGHT_MIST","Offshore,Cross-shore,Offshore,Offshore,Cross-shore,Cross-shore,Cross-shore",7
5842041f4e65fad6a77089c2,2024_02_13,37.90514516176495,-122.68151,Bolinas,3,0.4122857142857143,0.6441971428571428,13,13,"MOSTLY_CLEAR,NIGHT_CLEAR,NIGHT_CLEAR,NIGHT_CLEAR,NIGHT_CLEAR,NIGHT_CLEAR,NIGHT_CLEAR","Offshore,Onshore,Cross-shore,Cross-shore,Cross-shore,Onshore,Cross-shore",7
5842041f4e65fad6a77089c3,2024_02_13,38.04892513158693,-122.9892494965416,Point Reyes (north),3,2.1914285714285713,2.517142857142857,13,13,"CLEAR,NIGHT_MIST,NIGHT_CLOUDY,NIGHT_MIST,NIGHT_MIST,NIGHT_MIST,NIGHT_MIST","Onshore,Cross-shore,Onshore,Onshore,Onshore,Onshore,Onshore",7
5842041f4e65fad6a77089c6,2024_02_13,38.31088736605785,-123.0496777333731,Doran Beach,2.142857142857143,0.19,0.49714285714285716,13,13,"MOSTLY_CLOUDY,NIGHT_MIST,NIGHT_CLEAR,NIGHT_CLEAR,NIGHT_MIST,NIGHT_MIST,NIGHT_MIST","Offshore,Offshore,Offshore,Offshore,Offshore,Offshore,Offshore",7
5842041f4e65fad6a77089c7,2024_02_13,38.45077228660809,-123.13008,Russian Rivermouth,3.4285714285714284,1.5885714285714285,1.8914285714285715,12,12,"MOSTLY_CLOUDY,NIGHT_CLEAR,NIGHT_CLEAR,NIGHT_MOSTLY_CLOUDY,NIGHT_OVERCAST,NIGHT_CLEAR,NIGHT_CLEAR","Onshore,Cross-shore,Cross-shore,Cross-shore,Cross-shore,Offshore,Onshore",7
5842041f4e65fad6a77089c8,2024_02_13,38.35329968518107,-123.06906,Salmon Creek,3,1.73,2.0042857142857144,13,13,"CLEAR,NIGHT_MIST,NIGHT_MIST,NIGHT_CLEAR,NIGHT_CLEAR,NIGHT_CLEAR,NIGHT_CLOUDY","Onshore,Cross-shore,Cross-shore,Onshore,Onshore,Onshore,Onshore",7
5842041f4e65fad6a77089c9,2024_02_13,38.6845180197959,-123.4322714291198,Black Point Beach,3.5714285714285716,0.9742857142857143,1.2428571428571429,12.714285714285714,12.714285714285714,"MIST,NIGHT_CLEAR,NIGHT_CLEAR,NIGHT_CLEAR,NIGHT_CLEAR,NIGHT_CLEAR,NIGHT_CLOUDY","Cross-shore,Cross-shore,Cross-shore,Offshore,Offshore,Offshore,Cross-shore",7
5842041f4e65fad6a77089ca,2024_02_13,43.251076,-70.59144,Ogunquit,1.2614285714285713,0.19576190476190478,0.5003333333333333,5,4,"NIGHT_CLEAR,NIGHT_CLOUDY,NIGHT_OVERCAST,NIGHT_MOSTLY_CLOUDY,NIGHT_CLOUDY,CLOUDY,CLOUDY","Cross-shore,Cross-shore,Onshore,Cross-shore,Cross-shore,Cross-shore,Cross-shore",7
5842041f4e65fad6a77089cb,2024_02_13,41.362631366305415,-71.48006772942608,Point Judith,1.13,0.22696363636363637,0.5294601731601731,7,6,"NIGHT_CLOUDY,NIGHT_CLEAR,NIGHT_CLEAR,NIGHT_CLEAR,NIGHT_SNOW,LIGHT_SNOW,LIGHT_SNOW","Cross-shore,Onshore,Onshore,Onshore,Onshore,Onshore,Onshore",7
5842041f4e65fad6a77089cd,2024_02_13,41.422678090954726,-71.45413,Monahan's - Narragansett,1.1428571428571428,0.18165857142857142,0.28383857142857144,5,5,"NIGHT_OVERCAST,NIGHT_CLEAR,NIGHT_CLEAR,NIGHT_CLEAR,NIGHT_SNOW,LIGHT_SNOW,DRIZZLE","Offshore,Cross-shore,Cross-shore,Cross-shore,Cross-shore,Cross-shore,Cross-shore",7
5842041f4e65fad6a77089ce,2024_02_13,41.469,-71.293,Ruggles - Newport,2,0.44326714285714286,0.6926057142857143,5,5,"NIGHT_CLOUDY,NIGHT_MOSTLY_CLOUDY,NIGHT_CLEAR,NIGHT_BRIEF_SHOWERS_POSSIBLE,NIGHT_DRIZZLE,DRIZZLE,LIGHT_RAIN","Onshore,Offshore,Offshore,Offshore,Offshore,Offshore,Offshore",7
5842041f4e65fad6a77089cf,2024_02_13,43.175394,-70.606351,Short Sands Beach,0.8571428571428571,0.15714285714285714,0.45999999999999996,4,4,"NIGHT_CLEAR,NIGHT_MOSTLY_CLOUDY,NIGHT_OVERCAST,NIGHT_MOSTLY_CLOUDY,NIGHT_OVERCAST,OVERCAST,OVERCAST","Cross-shore,Onshore,Onshore,Onshore,Onshore,Onshore,Onshore",7
5842041f4e65fad6a77089d0,2024_02_13,41.487408,-71.29017,First Beach,1.7142857142857142,0.06285714285714286,0.3657142857142857,5,5,"NIGHT_CLEAR,NIGHT_MOSTLY_CLOUDY,NIGHT_CLEAR,NIGHT_CLEAR,NIGHT_DRIZZLE,DRIZZLE,SNOW","Onshore,Offshore,Offshore,Offshore,Offshore,Offshore,Offshore",7
5842041f4e65fad6a77089d1,2024_02_13,42.27916830233153,-70.86498,Nantasket Beach,1.1185714285714285,0.20814285714285716,0.5148571428571429,5,4,"NIGHT_CLEAR,NIGHT_CLOUDY,NIGHT_CLEAR,NIGHT_CLOUDY,NIGHT_CLOUDY,OVERCAST,DRIZZLE","Cross-shore,Onshore,Onshore,Onshore,Onshore,Onshore,Onshore",7
5842041f4e65fad6a77089d2,2024_02_13,41.817,-69.935,Cape Cod,0.8571428571428571,0.09285714285714286,0.3942857142857143,4,4,"NIGHT_CLEAR,NIGHT_MOSTLY_CLEAR,NIGHT_MOSTLY_CLOUDY,NIGHT_CLOUDY,NIGHT_CLOUDY,LIGHT_SHOWERS_POSSIBLE,LIGHT_RAIN","Cross-shore,Onshore,Onshore,Onshore,Onshore,Onshore,Onshore",7
5842041f4e65fad6a77089d3,2024_02_13,42.22055448975661,-70.70634873403819,Egypt Beach,1.1428571428571428,0.20142857142857143,0.5085714285714286,4,4,"NIGHT_CLEAR,NIGHT_CLOUDY,NIGHT_CLEAR,NIGHT_CLOUDY,NIGHT_OVERCAST,OVERCAST,DRIZZLE","Cross-shore,Onshore,Onshore,Onshore,Onshore,Onshore,Onshore",7
5842041f4e65fad6a77089d4,2024_02_13,41.48739647744607,-71.25723,Second Beach,1.31,0.18973738095238094,0.40531833333333334,7,6,"NIGHT_CLEAR,NIGHT_MOSTLY_CLOUDY,NIGHT_CLEAR,NIGHT_DRIZZLE,NIGHT_DRIZZLE,OVERCAST,SNOW","Onshore,Offshore,Offshore,Offshore,Offshore,Offshore,Offshore",7
5842041f4e65fad6a77089d5,2024_02_13,42.964,-70.769,Fox Hill,1.2614285714285713,0.13611904761904764,0.4399761904761905,5,4,"NIGHT_CLEAR,NIGHT_MOSTLY_CLOUDY,NIGHT_MOSTLY_CLOUDY,NIGHT_OVERCAST,NIGHT_LIGHT_SNOW,OVERCAST,LIGHT_SNOW","Onshore,Cross-shore,Cross-shore,Cross-shore,Cross-shore,Cross-shore,Cross-shore",7
5842041f4e65fad6a77089d6,2024_02_13,42.991359,-70.75149,Straws Point,1.1185714285714285,0.13302380952380954,0.40330952380952384,5,4,"NIGHT_CLEAR,NIGHT_CLEAR,NIGHT_MOSTLY_CLOUDY,NIGHT_MOSTLY_CLOUDY,NIGHT_OVERCAST,OVERCAST,LIGHT_SNOW","Onshore,Cross-shore,Cross-shore,Cross-shore,Cross-shore,Cross-shore,Cross-shore",7
5842041f4e65fad6a77089d7,2024_02_13,42.946,-70.786,Plaice Cove,1.237142857142857,0.13611904761904764,0.4399761904761905,5,4,"NIGHT_CLEAR,NIGHT_CLEAR,NIGHT_MOSTLY_CLOUDY,NIGHT_OVERCAST,NIGHT_LIGHT_SNOW,OVERCAST,OVERCAST","Cross-shore,Onshore,Onshore,Onshore,Onshore,Onshore,Cross-shore",7
5842041f4e65fad6a77089d9,2024_02_13,42.911574,-70.80831,The Main Beach,0.9285714285714286,0.3144754285714286,0.6149212857142857,6,4,"NIGHT_CLEAR,NIGHT_CLEAR,NIGHT_MOSTLY_CLOUDY,NIGHT_MOSTLY_CLOUDY,NIGHT_OVERCAST,OVERCAST,OVERCAST","Onshore,Cross-shore,Cross-shore,Cross-shore,Cross-shore,Cross-shore,Cross-shore",7
5842041f4e65fad6a77089da,2024_02_13,42.97583846220203,-70.764,Sawyer's Beach,1.0942857142857143,0.12326190476190477,0.3683095238095238,5,4,"NIGHT_CLEAR,NIGHT_MOSTLY_CLOUDY,NIGHT_MOSTLY_CLOUDY,NIGHT_OVERCAST,NIGHT_LIGHT_SNOW,OVERCAST,LIGHT_SNOW","Onshore,Onshore,Cross-shore,Cross-shore,Cross-shore,Cross-shore,Cross-shore",7
5842041f4e65fad6a77089db,2024_02_13,42.97,-70.77,Rye on the Rocks / 5-0's,0.8328571428571429,0.3193502142857143,0.610337380952381,6,4,"NIGHT_CLEAR,NIGHT_MOSTLY_CLOUDY,NIGHT_MOSTLY_CLOUDY,NIGHT_OVERCAST,NIGHT_LIGHT_SNOW,OVERCAST,LIGHT_SNOW","Onshore,Cross-shore,Cross-shore,Cross-shore,Cross-shore,Cross-shore,Cross-shore",7
5842041f4e65fad6a77089dc,2024_02_13,43.55902946610303,-70.27795,Higgins Beach,1.272857142857143,0.0870857142857143,0.36851168831168835,5,4,"NIGHT_CLEAR,NIGHT_CLOUDY,NIGHT_CLOUDY,NIGHT_CLOUDY,NIGHT_CLOUDY,CLOUDY,CLOUDY","Onshore,Cross-shore,Offshore,Offshore,Offshore,Offshore,Offshore",7
5842041f4e65fad6a77089dd,2024_02_13,43.302676,-70.5652,Wells Beach,1.1185714285714285,0.12445238095238095,0.41485714285714287,5,4,"NIGHT_CLEAR,NIGHT_CLOUDY,NIGHT_OVERCAST,NIGHT_CLOUDY,NIGHT_CLEAR,CLOUDY,CLOUDY","Cross-shore,Onshore,Onshore,Cross-shore,Cross-shore,Cross-shore,Onshore",7
5842041f4e65fad6a77089de,2024_02_13,43.545359,-70.30479,Scarborough Beach State Park,1,0.24301738095238096,0.4273377380952381,5,4,"NIGHT_CLEAR,NIGHT_CLOUDY,NIGHT_CLOUDY,NIGHT_OVERCAST,NIGHT_CLOUDY,OVERCAST,MOSTLY_CLOUDY","Onshore,Cross-shore,Cross-shore,Cross-shore,Cross-shore,Cross-shore,Cross-shore",7
5842041f4e65fad6a77089df,2024_02_13,43.514481,-70.372146,Old Orchard Beach,0.8571428571428571,0.3066514285714286,0.6176152380952381,5,4,"NIGHT_CLEAR,NIGHT_CLOUDY,NIGHT_CLOUDY,NIGHT_CLOUDY,NIGHT_CLOUDY,OVERCAST,CLEAR","Onshore,Cross-shore,Cross-shore,Cross-shore,Cross-shore,Cross-shore,Cross-shore",7
5842041f4e65fad6a77089e0,2024_02_13,43.34711,-70.48165,Gooch's Beach,1.1428571428571428,0.03575714285714286,0.3175904761904762,5,4,"NIGHT_CLEAR,NIGHT_OVERCAST,NIGHT_OVERCAST,NIGHT_CLOUDY,NIGHT_OVERCAST,CLOUDY,CLOUDY","Onshore,Offshore,Offshore,Offshore,Offshore,Offshore,Offshore",7
5842041f4e65fad6a77089e2,2024_02_13,40.58433,-73.62953,Lido Beach,1.8814285714285715,0.3332333333333334,0.6837571428571428,7,6,"NIGHT_CLEAR,NIGHT_MOSTLY_CLOUDY,NIGHT_DRIZZLE,NIGHT_DRIZZLE,NIGHT_LIGHT_RAIN,RAIN,HEAVY_SNOW","Onshore,Offshore,Offshore,Offshore,Offshore,Offshore,Offshore",7
5842041f4e65fad6a77089e3,2024_02_13,43.163135,-70.61689,Long Sands Beach,0.81,0.3105322142857143,0.6180150000000001,5,4,"NIGHT_CLEAR,NIGHT_MOSTLY_CLOUDY,NIGHT_CLOUDY,NIGHT_MOSTLY_CLOUDY,NIGHT_OVERCAST,OVERCAST,CLEAR","Onshore,Cross-shore,Cross-shore,Cross-shore,Cross-shore,Cross-shore,Cross-shore",7
5842041f4e65fad6a77089e4,2024_02_13,40.61695351251805,-73.39376,Gilgo Beach,1.0957142857142856,0.1697142857142857,0.4737142857142857,8,6,"NIGHT_CLEAR,NIGHT_CLOUDY,NIGHT_LIGHT_RAIN,NIGHT_LIGHT_RAIN,NIGHT_LIGHT_RAIN,LIGHT_RAIN,HEAVY_SNOW","Onshore,Offshore,Offshore,Offshore,Offshore,Offshore,Offshore",7
5842041f4e65fad6a77089e5,2024_02_13,40.62530081928036,-73.23827,Robert Moses,1.1428571428571428,0.1,0.4057142857142857,5,5,"NIGHT_CLEAR,NIGHT_CLEAR,NIGHT_LIGHT_RAIN,NIGHT_LIGHT_RAIN,NIGHT_DRIZZLE,LIGHT_RAIN,HEAVY_SNOW","Onshore,Offshore,Offshore,Offshore,Offshore,Offshore,Offshore",7
5842041f4e65fad6a77089e6,2024_02_13,40.64313317632791,-73.15727,Fire Island,1.1428571428571428,0.11857142857142858,0.4257142857142857,5,5,"NIGHT_CLEAR,NIGHT_DRIZZLE,NIGHT_LIGHT_RAIN,NIGHT_LIGHT_RAIN,NIGHT_LIGHT_RAIN,DRIZZLE,HEAVY_SNOW","Onshore,Offshore,Offshore,Offshore,Offshore,Offshore,Offshore",7
5842041f4e65fad6a77089e8,2024_02_13,40.76653118828782,-72.74579619372713,Cupsogue,2,0.33285714285714285,0.6371428571428571,5,5,"NIGHT_OVERCAST,NIGHT_LIGHT_RAIN,NIGHT_OVERCAST,NIGHT_LIGHT_RAIN,NIGHT_OVERCAST,LIGHT_RAIN,SNOW","Cross-shore,Offshore,Offshore,Offshore,Offshore,Offshore,Offshore",7
5842041f4e65fad6a77089e9,2024_02_13,42.9376373334092,-70.79141,The Wall ,0.9285714285714286,0.3200732857142857,0.6236697142857144,6,4,"NIGHT_CLEAR,NIGHT_CLEAR,NIGHT_MOSTLY_CLOUDY,NIGHT_MOSTLY_CLOUDY,NIGHT_OVERCAST,OVERCAST,OVERCAST","Cross-shore,Onshore,Onshore,Onshore,Onshore,Onshore,Onshore",7
5842041f4e65fad6a77089ea,2024_02_13,40.887088,-72.33856,Flys,2,0.30428571428571427,0.6085714285714285,5,5,"NIGHT_CLOUDY,NIGHT_CLEAR,NIGHT_OVERCAST,NIGHT_LIGHT_RAIN,NIGHT_LIGHT_RAIN,LIGHT_RAIN,SNOW","Onshore,Offshore,Offshore,Offshore,Offshore,Offshore,Offshore",7
5842041f4e65fad6a77089eb,2024_02_13,41.0389266436591,-71.91068529316958,Trailer Park,0.31,0.5363409523809525,0.8442965476190476,8,6,"NIGHT_CLEAR,NIGHT_CLOUDY,NIGHT_BRIEF_SHOWERS_POSSIBLE,NIGHT_DRIZZLE,NIGHT_DRIZZLE,LIGHT_RAIN,SNOW","Cross-shore,Offshore,Offshore,Offshore,Offshore,Offshore,Offshore",7
5842041f4e65fad6a77089ec,2024_02_13,41.039505402729105,-71.9142,Ditch Plains,0.5714285714285714,0.3658942857142857,0.5717128571428571,5.285714285714286,5.285714285714286,"NIGHT_CLOUDY,NIGHT_CLOUDY,NIGHT_DRIZZLE,NIGHT_DRIZZLE,NIGHT_DRIZZLE,LIGHT_RAIN,DRIZZLE","Offshore,Offshore,Cross-shore,Cross-shore,Cross-shore,Cross-shore,Cross-shore",7
5842041f4e65fad6a77089ee,2024_02_13,40.57633275206492,-73.56895305108567,"West End, Jones Beach",1.1428571428571428,0.19352380952380954,0.49752380952380953,7,6,"NIGHT_CLEAR,NIGHT_OVERCAST,NIGHT_DRIZZLE,NIGHT_DRIZZLE,NIGHT_LIGHT_RAIN,LIGHT_RAIN,HEAVY_SNOW","Onshore,Offshore,Offshore,Offshore,Offshore,Offshore,Offshore",7
5842041f4e65fad6a77089f1,2024_02_13,41.038286691230795,-71.91991567611694,Poles,0.31,0.5423609523809524,0.8386430952380952,8,6,"NIGHT_CLEAR,NIGHT_CLOUDY,NIGHT_BRIEF_SHOWERS_POSSIBLE,NIGHT_DRIZZLE,NIGHT_DRIZZLE,LIGHT_RAIN,SNOW","Cross-shore,Offshore,Offshore,Offshore,Offshore,Offshore,Offshore",7
5842041f4e65fad6a77089f3,2024_02_13,40.84077769766295,-72.47989493724765,The Bowl,1.4285714285714286,0.28714285714285714,0.5942857142857143,5,5,"NIGHT_CLOUDY,NIGHT_BRIEF_SHOWERS_POSSIBLE,NIGHT_CLEAR,NIGHT_LIGHT_RAIN,NIGHT_LIGHT_RAIN,LIGHT_RAIN,SNOW","Cross-shore,Offshore,Offshore,Offshore,Offshore,Offshore,Offshore",7
5842041f4e65fad6a77089f4,2024_02_13,40.94235535243154,-72.19286,Main Beach,1.4757142857142858,0.3423047619047619,0.6482095238095238,14,13,"NIGHT_CLOUDY,NIGHT_CLEAR,NIGHT_DRIZZLE,NIGHT_LIGHT_RAIN,NIGHT_SNOW,OVERCAST,LIGHT_RAIN","Onshore,Offshore,Offshore,Offshore,Offshore,Offshore,Offshore",7
5842041f4e65fad6a77089f5,2024_02_13,40.58270702399518,-73.67251552079799,Laurelton Blvd.,0.8814285714285715,0.3092697619047619,0.6187345238095239,7,6,"NIGHT_CLEAR,NIGHT_BRIEF_SHOWERS,NIGHT_LIGHT_RAIN,NIGHT_DRIZZLE,NIGHT_LIGHT_RAIN,ICE_PELLETS,HEAVY_SNOW","Onshore,Offshore,Offshore,Offshore,Offshore,Offshore,Offshore",7
5842041f4e65fad6a77089f6,2024_02_13,41.033752854071416,-71.93695522488403,Terrace,0.2857142857142857,0.5364285714285715,0.843547619047619,8,6,"NIGHT_CLEAR,NIGHT_CLOUDY,NIGHT_CLOUDY,NIGHT_DRIZZLE,NIGHT_LIGHT_SNOW,LIGHT_RAIN,SNOW","Cross-shore,Offshore,Offshore,Offshore,Offshore,Offshore,Offshore",7
5842041f4e65fad6a77089f7,2024_02_13,40.83372943645748,-72.50426173210144,K Road,2,0.3342857142857143,0.6414285714285715,5,5,"NIGHT_CLEAR,NIGHT_DRIZZLE,NIGHT_CLOUDY,NIGHT_LIGHT_RAIN,NIGHT_LIGHT_RAIN,LIGHT_RAIN,SNOW","Cross-shore,Offshore,Offshore,Offshore,Offshore,Offshore,Offshore",7
5842041f4e65fad6a77089f8,2024_02_13,40.58456099581507,-73.80730032920837,84th Street,0.8814285714285715,0.3253761904761905,0.6753047619047619,7,6,"NIGHT_CLEAR,NIGHT_BRIEF_SHOWERS_POSSIBLE,NIGHT_DRIZZLE,NIGHT_DRIZZLE,NIGHT_LIGHT_RAIN,HEAVY_SNOW,BRIEF_HEAVY_SNOW_SHOWERS","Onshore,Offshore,Offshore,Offshore,Offshore,Offshore,Offshore",7
5842041f4e65fad6a77089fa,2024_02_13,40.1319,-74.02788,Sea Girt,0.42857142857142855,0.4887047619047619,0.8187619047619047,6,5,"NIGHT_OVERCAST,NIGHT_LIGHT_RAIN,NIGHT_OVERCAST,NIGHT_DRIZZLE,NIGHT_LIGHT_RAIN,RAIN,HEAVY_SNOW","Onshore,Onshore,Onshore,Onshore,Onshore,Onshore,Onshore",7
5842041f4e65fad6a77089fb,2024_02_13,40.54698301868125,-73.9268,Breezy Point,1.1428571428571428,0.11,0.41285714285714287,5.714285714285714,5.714285714285714,"NIGHT_CLEAR,NIGHT_CLEAR,NIGHT_DRIZZLE,NIGHT_LIGHT_RAIN,NIGHT_LIGHT_RAIN,SNOW,HEAVY_SNOW","Onshore,Offshore,Offshore,Offshore,Offshore,Offshore,Offshore",7
5842041f4e65fad6a77089fc,2024_02_13,40.152504,-74.021383,Spring Lake,0.42857142857142855,0.5039428571428571,0.8325714285714285,6,5,"NIGHT_OVERCAST,NIGHT_OVERCAST,NIGHT_OVERCAST,NIGHT_DRIZZLE,NIGHT_LIGHT_RAIN,RAIN,HEAVY_SNOW","Onshore,Onshore,Onshore,Onshore,Onshore,Onshore,Onshore",7
5842041f4e65fad6a77089fd,2024_02_13,40.591277,-73.770792,30th - 39th Streets,1.1428571428571428,0.08876190476190476,0.39276190476190476,7,6,"NIGHT_CLEAR,NIGHT_BRIEF_SHOWERS_POSSIBLE,NIGHT_LIGHT_RAIN,NIGHT_OVERCAST,NIGHT_ICE_PELLETS,HEAVY_SNOW,BRIEF_HEAVY_SNOW_SHOWERS","Onshore,Offshore,Offshore,Offshore,Offshore,Offshore,Offshore",7
5842041f4e65fad6a77089fe,2024_02_13,40.18834955871439,-74.00860982500222,Avon,0.42857142857142855,0.5091809523809524,0.8354285714285714,6,5,"NIGHT_OVERCAST,NIGHT_OVERCAST,NIGHT_OVERCAST,NIGHT_DRIZZLE,NIGHT_LIGHT_RAIN,RAIN,HEAVY_SNOW","Onshore,Onshore,Onshore,Onshore,Onshore,Onshore,Onshore",7
5842041f4e65fad6a77089ff,2024_02_13,40.1974229100932,-74.00650533798255,Bradley Beach,0.42857142857142855,0.5120380952380953,0.8368571428571429,6,5,"NIGHT_OVERCAST,NIGHT_OVERCAST,NIGHT_OVERCAST,NIGHT_DRIZZLE,NIGHT_LIGHT_RAIN,RAIN,HEAVY_SNOW","Onshore,Onshore,Onshore,Onshore,Onshore,Onshore,Onshore",7
5842041f4e65fad6a7708a01,2024_02_13,40.17202,-74.01503,"16th Ave., Belmar",0.2857142857142857,0.7274571428571428,1.2534809523809525,6,5,"NIGHT_OVERCAST,NIGHT_OVERCAST,NIGHT_OVERCAST,NIGHT_DRIZZLE,NIGHT_LIGHT_RAIN,RAIN,HEAVY_SNOW","Onshore,Onshore,Onshore,Onshore,Onshore,Onshore,Onshore",7
5842041f4e65fad6a7708a02,2024_02_13,40.217443,-73.99982,Asbury Park,0.42857142857142855,0.48822857142857146,0.8154285714285714,6,5,"NIGHT_OVERCAST,NIGHT_OVERCAST,NIGHT_DRIZZLE,NIGHT_DRIZZLE,NIGHT_LIGHT_RAIN,RAIN,HEAVY_SNOW","Onshore,Onshore,Onshore,Onshore,Onshore,Onshore,Onshore",7
5842041f4e65fad6a7708a03,2024_02_13,40.229841,-73.996782,Loch Arbour and Deal,0.5,0.4806095238095238,0.8054285714285714,6,5,"NIGHT_OVERCAST,NIGHT_OVERCAST,NIGHT_DRIZZLE,NIGHT_LIGHT_RAIN,NIGHT_LIGHT_RAIN,RAIN,HEAVY_SNOW","Onshore,Onshore,Onshore,Cross-shore,Onshore,Cross-shore,Cross-shore",7
5842041f4e65fad6a7708a05,2024_02_13,40.41754,-73.97935,Sandy Hook,0.8571428571428571,0.13857142857142857,0.4257142857142857,6,6,"NIGHT_CLEAR,NIGHT_CLOUDY,NIGHT_RAIN,NIGHT_LIGHT_RAIN,NIGHT_LIGHT_RAIN,LIGHT_RAIN,HEAVY_SNOW","Onshore,Onshore,Onshore,Cross-shore,Onshore,Cross-shore,Cross-shore",7
5842041f4e65fad6a7708a06,2024_02_13,39.36353,-74.40873,Crystals,0.35714285714285715,0.5157123809523809,0.8538747619047619,6,5,"NIGHT_OVERCAST,NIGHT_LIGHT_RAIN,NIGHT_DRIZZLE,NIGHT_LIGHT_RAIN,NIGHT_LIGHT_RAIN,RAIN,RAIN","Cross-shore,Cross-shore,Cross-shore,Cross-shore,Cross-shore,Cross-shore,Offshore",7
5842041f4e65fad6a7708a07,2024_02_13,39.31443,-74.51863,32nd Street,0.8085714285714286,0.7613977380952381,1.259990476190476,6,5,"NIGHT_OVERCAST,NIGHT_LIGHT_RAIN,NIGHT_LIGHT_RAIN,NIGHT_LIGHT_RAIN,NIGHT_RAIN,RAIN,RAIN","Cross-shore,Cross-shore,Cross-shore,Cross-shore,Cross-shore,Cross-shore,Cross-shore",7
5842041f4e65fad6a7708a08,2024_02_13,39.327688,-74.49524,Margate Pier Northside,0.8085714285714286,0.7613977380952381,1.259990476190476,6,5,"NIGHT_OVERCAST,NIGHT_LIGHT_RAIN,NIGHT_LIGHT_RAIN,NIGHT_LIGHT_RAIN,NIGHT_RAIN,RAIN,RAIN","Cross-shore,Cross-shore,Cross-shore,Cross-shore,Cross-shore,Cross-shore,Cross-shore",7
5842041f4e65fad6a7708a09,2024_02_13,39.336276,-74.47782,Ventnor Pier,0.5,0.48450857142857146,0.8051252380952381,6,5,"NIGHT_OVERCAST,NIGHT_LIGHT_RAIN,NIGHT_LIGHT_RAIN,NIGHT_LIGHT_RAIN,NIGHT_RAIN,RAIN,RAIN","Cross-shore,Cross-shore,Cross-shore,Cross-shore,Cross-shore,Offshore,Offshore",7
5842041f4e65fad6a7708a0a,2024_02_13,39.35929751441085,-74.41683,States Avenue,0.35714285714285715,0.5157123809523809,0.8538747619047619,6,5,"NIGHT_OVERCAST,NIGHT_LIGHT_RAIN,NIGHT_DRIZZLE,NIGHT_LIGHT_RAIN,NIGHT_LIGHT_RAIN,RAIN,RAIN","Cross-shore,Cross-shore,Cross-shore,Cross-shore,Cross-shore,Cross-shore,Offshore",7
5842041f4e65fad6a7708a0b,2024_02_13,39.37274173278517,-74.40454,Brigantine Jetty,0.35714285714285715,0.3932990476190476,0.6626080952380953,6,5,"NIGHT_OVERCAST,NIGHT_LIGHT_RAIN,NIGHT_DRIZZLE,NIGHT_LIGHT_RAIN,NIGHT_LIGHT_RAIN,RAIN,RAIN","Cross-shore,Offshore,Offshore,Offshore,Offshore,Offshore,Offshore",7
5842041f4e65fad6a7708a0c,2024_02_13,39.356505,-74.42263,South Carolina Avenue,0.35714285714285715,0.3932990476190476,0.6626080952380953,6,5,"NIGHT_OVERCAST,NIGHT_LIGHT_RAIN,NIGHT_DRIZZLE,NIGHT_LIGHT_RAIN,NIGHT_LIGHT_RAIN,RAIN,RAIN","Cross-shore,Offshore,Offshore,Offshore,Offshore,Offshore,Offshore",7
5842041f4e65fad6a7708a0d,2024_02_13,39.413485,-74.35476,14th Street North,0.35714285714285715,0.6034666666666667,0.9742095238095237,6,5,"NIGHT_OVERCAST,NIGHT_LIGHT_RAIN,NIGHT_DRIZZLE,NIGHT_LIGHT_RAIN,NIGHT_RAIN,RAIN,RAIN","Onshore,Cross-shore,Cross-shore,Cross-shore,Cross-shore,Cross-shore,Cross-shore",7
5842041f4e65fad6a7708a0e,2024_02_13,39.531319,-74.263252,The Wooden Jetty,1.0957142857142856,1.039689761904762,1.3553847619047619,6,5,"NIGHT_OVERCAST,NIGHT_LIGHT_RAIN,NIGHT_OVERCAST,NIGHT_RAIN,NIGHT_LIGHT_RAIN,RAIN,HEAVY_RAIN","Onshore,Cross-shore,Cross-shore,Cross-shore,Cross-shore,Cross-shore,Offshore",7
5842041f4e65fad6a7708a0f,2024_02_13,39.552472,-74.24344,Holyoke,1.1185714285714285,1.0644044047619048,1.358790119047619,6,5,"NIGHT_OVERCAST,NIGHT_LIGHT_RAIN,NIGHT_OVERCAST,NIGHT_RAIN,NIGHT_LIGHT_RAIN,RAIN,HEAVY_RAIN","Onshore,Cross-shore,Cross-shore,Cross-shore,Cross-shore,Cross-shore,Cross-shore",7
5842041f4e65fad6a7708a10,2024_02_13,39.692364,-74.14068,Hudson Ave.,1.0957142857142856,1.015947619047619,1.5193095238095238,6,5,"NIGHT_CLOUDY,NIGHT_LIGHT_RAIN,NIGHT_LIGHT_RAIN,NIGHT_RAIN,NIGHT_RAIN,RAIN,RAIN","Onshore,Cross-shore,Cross-shore,Cross-shore,Cross-shore,Cross-shore,Offshore",7
5842041f4e65fad6a7708a11,2024_02_13,39.79614,-74.09248,Island Beach State Park,0.42857142857142855,0.6008,0.9009904761904762,6,5,"NIGHT_CLOUDY,NIGHT_LIGHT_RAIN,NIGHT_LIGHT_RAIN,NIGHT_DRIZZLE,NIGHT_RAIN,HEAVY_RAIN,HEAVY_RAIN","Onshore,Onshore,Onshore,Onshore,Onshore,Cross-shore,Cross-shore",7
5842041f4e65fad6a7708a12,2024_02_13,39.91813588078152,-74.07527,Seaside Park,0.42857142857142855,0.5822285714285714,0.8852761904761904,6,5,"NIGHT_OVERCAST,NIGHT_LIGHT_RAIN,NIGHT_DRIZZLE,NIGHT_LIGHT_RAIN,NIGHT_OVERCAST,HEAVY_RAIN,RAIN","Onshore,Onshore,Onshore,Onshore,Onshore,Cross-shore,Cross-shore",7
5842041f4e65fad6a7708a14,2024_02_13,39.946638,-74.06884,Seaside Heights,0.2857142857142857,0.5410857142857143,0.8905333333333333,6,5,"NIGHT_OVERCAST,NIGHT_DRIZZLE,NIGHT_OVERCAST,NIGHT_LIGHT_RAIN,NIGHT_DRIZZLE,HEAVY_RAIN,ICE_PELLETS","Onshore,Onshore,Onshore,Cross-shore,Onshore,Cross-shore,Cross-shore",7
5842041f4e65fad6a7708a15,2024_02_13,39.95745637606704,-74.06736,Ortley Beach,0.21428571428571427,0.49346666666666666,0.8627809523809523,6,5,"NIGHT_OVERCAST,NIGHT_DRIZZLE,NIGHT_OVERCAST,NIGHT_LIGHT_RAIN,NIGHT_DRIZZLE,HEAVY_RAIN,ICE_PELLETS","Onshore,Onshore,Onshore,Cross-shore,Onshore,Cross-shore,Cross-shore",7
5842041f4e65fad6a7708a16,2024_02_13,39.98313468342945,-74.06265685577506,Lavallette,0.35714285714285715,0.467752380952381,0.8399238095238095,6,5,"NIGHT_OVERCAST,NIGHT_DRIZZLE,NIGHT_OVERCAST,NIGHT_LIGHT_RAIN,NIGHT_DRIZZLE,HEAVY_RAIN,HEAVY_SNOW","Onshore,Onshore,Onshore,Cross-shore,Onshore,Cross-shore,Cross-shore",7
5842041f4e65fad6a7708a17,2024_02_13,40.0699319967757,-74.04144910856634,Bay Head,0.35714285714285715,0.5163238095238095,0.8861142857142857,6,5,"NIGHT_OVERCAST,NIGHT_DRIZZLE,NIGHT_DRIZZLE,NIGHT_LIGHT_RAIN,NIGHT_DRIZZLE,RAIN,RAIN","Onshore,Onshore,Onshore,Cross-shore,Onshore,Cross-shore,Cross-shore",7
5842041f4e65fad6a7708a18,2024_02_13,40.094041,-74.034859,Jenkinson's,0.42857142857142855,0.4968,0.8680190476190476,6,5,"NIGHT_OVERCAST,NIGHT_OVERCAST,NIGHT_OVERCAST,NIGHT_LIGHT_RAIN,NIGHT_LIGHT_RAIN,RAIN,HEAVY_SNOW","Onshore,Cross-shore,Cross-shore,Cross-shore,Cross-shore,Cross-shore,Cross-shore",7
5842041f4e65fad6a7708a1a,2024_02_13,38.148058,-75.17704,Assateague,0.35714285714285715,0.7553714285714286,1.1033904761904763,6,5,"NIGHT_OVERCAST,NIGHT_DRIZZLE,NIGHT_LIGHT_SHOWERS_POSSIBLE,NIGHT_MIST,NIGHT_HEAVY_RAIN,LIGHT_RAIN,OVERCAST","Onshore,Onshore,Onshore,Onshore,Cross-shore,Cross-shore,Cross-shore",7
5842041f4e65fad6a7708a1b,2024_02_13,38.33889038664497,-75.08017670566352,North End to Ocean City Inlet,0.5714285714285714,0.6953714285714285,1.0429142857142857,6,5,"NIGHT_CLOUDY,NIGHT_DRIZZLE,NIGHT_HEAVY_SHOWERS_POSSIBLE,NIGHT_OVERCAST,NIGHT_RAIN,RAIN,CLOUDY","Onshore,Onshore,Onshore,Onshore,Onshore,Onshore,Onshore",7
5842041f4e65fad6a7708a1c,2024_02_13,38.603993,-75.06271,Indian River Inlet,0.35714285714285715,0.6863185714285714,1.0986795238095237,6,5,"NIGHT_OVERCAST,NIGHT_LIGHT_RAIN,NIGHT_RAIN,NIGHT_DRIZZLE,NIGHT_DRIZZLE,RAIN,LIGHT_RAIN","Onshore,Onshore,Onshore,Onshore,Onshore,Onshore,Cross-shore",7
5842041f4e65fad6a7708a1d,2024_02_13,38.460477,-75.052069,Fenwick Island,0.5714285714285714,0.5625142857142857,0.9143428571428571,6,5,"NIGHT_OVERCAST,NIGHT_LIGHT_RAIN,NIGHT_RAIN,NIGHT_OVERCAST,NIGHT_DRIZZLE,RAIN,OVERCAST","Onshore,Onshore,Onshore,Onshore,Onshore,Onshore,Onshore",7
5842041f4e65fad6a7708a1e,2024_02_13,38.538767,-75.05619,Bethany Beach,0.35714285714285715,0.6927223809523809,1.1086880952380953,6,5,"NIGHT_OVERCAST,NIGHT_LIGHT_RAIN,NIGHT_RAIN,NIGHT_OVERCAST,NIGHT_RAIN,LIGHT_RAIN,DRIZZLE","Onshore,Onshore,Onshore,Onshore,Onshore,Onshore,Onshore",7
5842041f4e65fad6a7708a1f,2024_02_13,38.697657,-75.075951,Dewey Beach,0.35714285714285715,0.775847619047619,1.128152380952381,6,5,"NIGHT_OVERCAST,NIGHT_DRIZZLE,NIGHT_RAIN,NIGHT_LIGHT_RAIN,NIGHT_LIGHT_RAIN,RAIN,DRIZZLE","Onshore,Onshore,Onshore,Onshore,Onshore,Onshore,Onshore",7
5842041f4e65fad6a7708a20,2024_02_13,38.75034741676525,-75.08194,Gordons Pond,0.35714285714285715,0.6212333333333333,0.9969828571428572,6,5,"NIGHT_OVERCAST,NIGHT_OVERCAST,NIGHT_HEAVY_RAIN,NIGHT_LIGHT_RAIN,NIGHT_LIGHT_RAIN,RAIN,LIGHT_RAIN","Onshore,Onshore,Onshore,Onshore,Onshore,Onshore,Cross-shore",7
5842041f4e65fad6a7708a21,2024_02_13,38.767837,-75.082841,Naval Jetties,0.35714285714285715,0.7368,1.084342857142857,6,5,"NIGHT_OVERCAST,NIGHT_OVERCAST,NIGHT_HEAVY_RAIN,NIGHT_LIGHT_RAIN,NIGHT_LIGHT_RAIN,RAIN,LIGHT_RAIN","Onshore,Onshore,Onshore,Onshore,Onshore,Onshore,Onshore",7
5842041f4e65fad6a7708a22,2024_02_13,36.81735875786576,-75.96624,Camp Pendleton,1.6242857142857143,0.2786419047619048,0.5794419047619048,8,7,"NIGHT_LIGHT_RAIN,NIGHT_RAIN,NIGHT_LIGHT_RAIN,NIGHT_MIST,NIGHT_FOG,MIST,MOSTLY_CLEAR","Onshore,Onshore,Cross-shore,Onshore,Cross-shore,Offshore,Offshore",7
5842041f4e65fad6a7708a23,2024_02_13,36.9102212316428,-75.98732471466064,North End,1.6428571428571428,0.28223714285714285,0.5881561904761905,8,7,"NIGHT_DRIZZLE,NIGHT_LIGHT_RAIN,NIGHT_DRIZZLE,NIGHT_BRIEF_SHOWERS,NIGHT_MIST,MIST,BRIEF_SHOWERS","Onshore,Onshore,Onshore,Cross-shore,Cross-shore,Offshore,Offshore",7
5842041f4e65fad6a7708a24,2024_02_13,36.737117517621314,-75.93923719853362,Sandbridge Beach,1.1428571428571428,0.2783809523809524,0.5836666666666667,8,7,"NIGHT_DRIZZLE,NIGHT_LIGHT_RAIN,NIGHT_MIST,NIGHT_FOG,NIGHT_FOG,MOSTLY_CLOUDY,CLEAR","Onshore,Cross-shore,Cross-shore,Onshore,Offshore,Offshore,Offshore",7
5842041f4e65fad6a7708a26,2024_02_13,36.818257440557794,-75.96666,Croatan to Pendleton,1.6,0.2796180952380953,0.5850133333333334,8,7,"NIGHT_LIGHT_RAIN,NIGHT_RAIN,NIGHT_LIGHT_RAIN,NIGHT_MIST,NIGHT_FOG,MIST,MOSTLY_CLEAR","Onshore,Onshore,Cross-shore,Onshore,Cross-shore,Offshore,Offshore",7
5842041f4e65fad6a7708a27,2024_02_13,36.84318777204769,-75.9719,South End,1,0.14885238095238096,0.45401904761904766,8,7,"NIGHT_MIST,NIGHT_RAIN,NIGHT_MIST,NIGHT_MOSTLY_CLOUDY,NIGHT_FOG,FOG,BRIEF_SHOWERS","Onshore,Onshore,Cross-shore,Onshore,Cross-shore,Offshore,Offshore",7
5842041f4e65fad6a7708a28,2024_02_13,37.08612627584661,-75.976121638199,Fishermans Island,0.7142857142857143,0.09028571428571429,0.21142857142857144,6.285714285714286,6.285714285714286,"NIGHT_HEAVY_RAIN,NIGHT_LIGHT_RAIN,NIGHT_DRIZZLE,NIGHT_HEAVY_SHOWERS,NIGHT_MIST,MIST,MIST","Onshore,Cross-shore,Cross-shore,Onshore,Onshore,Onshore,Cross-shore",7
5842041f4e65fad6a7708a38,2024_02_13,35.254619418229026,-75.52074,Cape Hatteras Lighthouse,0.9042857142857142,0.9234835714285714,1.261969761904762,11,9,"NIGHT_MIST,NIGHT_DRIZZLE,NIGHT_MIST,NIGHT_MIST,NIGHT_MIST,MIST,CLEAR","Cross-shore,Cross-shore,Cross-shore,Cross-shore,Offshore,Cross-shore,Offshore",7
5842041f4e65fad6a7708a3a,2024_02_13,35.54572934093336,-75.46477,Waves and Salvo,1.0957142857142856,1.037095238095238,1.317095238095238,9,8,"NIGHT_DRIZZLE,NIGHT_MIST,NIGHT_LIGHT_SHOWERS_POSSIBLE,NIGHT_MIST,NIGHT_MIST,DRIZZLE,MIST","Onshore,Cross-shore,Cross-shore,Cross-shore,Offshore,Cross-shore,Offshore",7
5842041f4e65fad6a7708a3b,2024_02_13,35.22565892751075,-75.63606,Frisco,0.4042857142857143,0.9888571428571429,1.268047619047619,12,11,"NIGHT_MIST,NIGHT_MIST,NIGHT_BRIEF_SHOWERS,NIGHT_MIST,NIGHT_MIST,MIST,CLEAR","Onshore,Onshore,Onshore,Onshore,Onshore,Onshore,Cross-shore",7
5842041f4e65fad6a7708a3c,2024_02_13,35.13086,-75.90591,Ocracoke,0.2857142857142857,0.7898028571428571,1.2340671428571428,8.857142857142858,8.857142857142858,"NIGHT_DRIZZLE,NIGHT_LIGHT_RAIN,NIGHT_MIST,NIGHT_MIST,NIGHT_MIST,MIST,CLEAR","Onshore,Onshore,Cross-shore,Cross-shore,Cross-shore,Cross-shore,Cross-shore",7
5842041f4e65fad6a7708a3d,2024_02_13,35.34721340158342,-75.50084,Avon Pier,1.5942857142857143,0.8262999999999999,1.2850047619047618,9,8,"NIGHT_DRIZZLE,NIGHT_OVERCAST,NIGHT_BRIEF_SHOWERS,NIGHT_OVERCAST,NIGHT_OVERCAST,OVERCAST,CLEAR","Cross-shore,Cross-shore,Cross-shore,Offshore,Offshore,Offshore,Offshore",7
5842041f4e65fad6a7708a3f,2024_02_13,35.71680821253768,-75.49243,Pea Island,1.2857142857142858,0.76,1.0471428571428572,6.571428571428571,6.571428571428571,"NIGHT_LIGHT_RAIN,NIGHT_MIST,NIGHT_MIST,NIGHT_MIST,NIGHT_MIST,MIST,CLEAR","Cross-shore,Cross-shore,Offshore,Offshore,Offshore,Offshore,Offshore",7
5842041f4e65fad6a7708a40,2024_02_13,35.97427620657821,-75.62984,Nags Head Pier,1.8285714285714285,0.6748904761904762,0.9817142857142858,8,6,"NIGHT_LIGHT_RAIN,NIGHT_LIGHT_RAIN,NIGHT_MIST,NIGHT_MOSTLY_CLOUDY,NIGHT_CLEAR,CLOUDY,OVERCAST","Cross-shore,Offshore,Offshore,Offshore,Offshore,Offshore,Offshore",7
5842041f4e65fad6a7708a41,2024_02_13,36.0439998039079,-75.67288,Avalon Pier,1.3800000000000001,0.5477142857142857,0.8678428571428571,8,6,"NIGHT_LIGHT_RAIN,NIGHT_LIGHT_RAIN,NIGHT_MOSTLY_CLEAR,NIGHT_MIST,NIGHT_MIST,MIST,OVERCAST","Cross-shore,Cross-shore,Offshore,Offshore,Offshore,Offshore,Offshore",7
5842041f4e65fad6a7708a42,2024_02_13,36.03043116489792,-75.66413,First Street,2.0614285714285714,0.6768904761904763,1.0194504761904761,8,6,"NIGHT_LIGHT_RAIN,NIGHT_LIGHT_RAIN,NIGHT_MOSTLY_CLEAR,NIGHT_MIST,NIGHT_MIST,MIST,OVERCAST","Cross-shore,Cross-shore,Offshore,Offshore,Offshore,Offshore,Offshore",7
5842041f4e65fad6a7708a43,2024_02_13,36.06829910590498,-75.6899,Old Station/Laundromats,1.69,0.5336666666666666,0.8899285714285714,8,6,"NIGHT_LIGHT_RAIN,NIGHT_BRIEF_SHOWERS,NIGHT_MOSTLY_CLEAR,NIGHT_MIST,NIGHT_MIST,CLOUDY,OVERCAST","Cross-shore,Cross-shore,Offshore,Offshore,Offshore,Offshore,Offshore",7
5842041f4e65fad6a7708a44,2024_02_13,36.10126676607491,-75.71107462163894,Kitty Hawk Pier,2.085714285714286,0.6733190476190477,1.0175933333333333,8,6,"NIGHT_LIGHT_RAIN,NIGHT_MIST,NIGHT_CLEAR,NIGHT_MIST,NIGHT_MIST,MIST,LIGHT_RAIN","Cross-shore,Cross-shore,Offshore,Offshore,Offshore,Offshore,Offshore",7
5842041f4e65fad6a7708a45,2024_02_13,36.18220630068973,-75.75013580649097,Duck Pier,1.5471428571428572,0.33326190476190476,0.6938095238095239,8,6,"NIGHT_LIGHT_RAIN,NIGHT_MIST,NIGHT_MIST,NIGHT_MIST,NIGHT_MIST,MIST,MIST","Onshore,Cross-shore,Offshore,Offshore,Offshore,Offshore,Offshore",7
5842041f4e65fad6a7708a46,2024_02_13,36.37660668125033,-75.82409701687456,Corolla,1.5471428571428572,0.33921428571428575,0.6960714285714286,8,6,"NIGHT_LIGHT_RAIN,NIGHT_LIGHT_RAIN,NIGHT_MIST,NIGHT_MIST,NIGHT_FOG,MIST,BRIEF_SHOWERS","Onshore,Onshore,Cross-shore,Offshore,Offshore,Offshore,Offshore",7
5842041f4e65fad6a7708a47,2024_02_13,33.90373404124834,-78.08241431707907,Oak Island,0.2857142857142857,0.8928571428571428,1.1957142857142857,12.285714285714286,12.285714285714286,"NIGHT_MIST,NIGHT_MOSTLY_CLOUDY,NIGHT_CLEAR,NIGHT_CLEAR,NIGHT_CLEAR,CLEAR,CLEAR","Cross-shore,Onshore,Onshore,Onshore,Onshore,Onshore,Onshore",7
5842041f4e65fad6a7708a48,2024_02_13,33.91108837766468,-78.29653,South Brunswick Beaches,0.2857142857142857,0.8967571428571428,1.4011842857142858,11.285714285714286,11.285714285714286,"NIGHT_DRIZZLE,NIGHT_MIST,NIGHT_MOSTLY_CLEAR,NIGHT_CLEAR,NIGHT_CLEAR,CLEAR,CLEAR","Cross-shore,Onshore,Onshore,Cross-shore,Cross-shore,Cross-shore,Cross-shore",7
5842041f4e65fad6a7708a49,2024_02_13,34.05683595651973,-77.88128,Carolina Beach Pier,1.8571428571428572,0.8412619047619048,1.167357142857143,11,10,"NIGHT_LIGHT_RAIN,NIGHT_MIST,NIGHT_MOSTLY_CLEAR,NIGHT_CLEAR,NIGHT_CLEAR,CLEAR,CLEAR","Onshore,Cross-shore,Cross-shore,Offshore,Offshore,Offshore,Offshore",7
5842041f4e65fad6a7708a4a,2024_02_13,33.96841191816696,-77.9180242565498,Fort Fisher,2.0242857142857145,0.9503095238095238,1.2755714285714286,11,10,"NIGHT_DRIZZLE,NIGHT_MOSTLY_CLEAR,NIGHT_CLEAR,NIGHT_CLEAR,NIGHT_CLEAR,CLEAR,CLEAR","Onshore,Offshore,Offshore,Offshore,Offshore,Offshore,Offshore",7
5842041f4e65fad6a7708a4b,2024_02_13,34.46776662988774,-77.47083191635772,Topsail Beach,0.4042857142857143,0.8879619047619047,1.1914142857142858,11,10,"NIGHT_MIST,NIGHT_MIST,NIGHT_CLEAR,NIGHT_CLEAR,NIGHT_CLEAR,CLEAR,CLEAR","Onshore,Onshore,Onshore,Cross-shore,Cross-shore,Cross-shore,Cross-shore",7
5842041f4e65fad6a7708a4c,2024_02_13,34.69270354752445,-76.82854854446575,Iron Steamer,0.14285714285714285,0.944552380952381,1.4800333333333333,12,11,"NIGHT_MIST,NIGHT_MIST,NIGHT_MIST,NIGHT_MIST,NIGHT_MIST,CLEAR,CLEAR","Cross-shore,Onshore,Onshore,Onshore,Onshore,Cross-shore,Cross-shore",7
5842041f4e65fad6a7708a4f,2024_02_13,30.85132684893727,-81.42283496231143,Cumberland Island,1.8571428571428572,0.4985714285714286,0.8042857142857143,13,13,"CLOUDY,NIGHT_MOSTLY_CLEAR,NIGHT_CLEAR,NIGHT_CLEAR,NIGHT_CLEAR,NIGHT_CLEAR,CLEAR","Cross-shore,Offshore,Offshore,Offshore,Offshore,Offshore,Offshore",7
5842041f4e65fad6a7708a50,2024_02_13,34.686741128540874,-76.47516712138378,Cape Lookout National Seashore,0.2857142857142857,1.1571428571428573,1.4328571428571428,12.285714285714286,12.285714285714286,"NIGHT_MIST,NIGHT_MIST,NIGHT_MOSTLY_CLOUDY,NIGHT_MIST,NIGHT_MIST,MIST,CLEAR","Onshore,Cross-shore,Cross-shore,Cross-shore,Cross-shore,Offshore,Offshore",7
5842041f4e65fad6a7708a51,2024_02_13,31.10585419260024,-81.40422767604812,Jekyll Island,1,0.10571428571428572,0.41000000000000003,12.285714285714286,12.285714285714286,"CLOUDY,NIGHT_CLEAR,NIGHT_CLEAR,NIGHT_CLEAR,NIGHT_CLEAR,NIGHT_CLEAR,CLEAR","Cross-shore,Offshore,Offshore,Offshore,Offshore,Offshore,Offshore",7
5842041f4e65fad6a7708a52,2024_02_13,31.16212806376699,-81.32512426500224,Harbor Marker Buoys,1,0.33,0.6342857142857142,12.285714285714286,12.285714285714286,"MIST,NIGHT_CLEAR,NIGHT_CLEAR,NIGHT_CLEAR,NIGHT_CLEAR,NIGHT_CLEAR,CLEAR","Onshore,Offshore,Offshore,Offshore,Offshore,Offshore,Offshore",7
5842041f4e65fad6a7708a53,2024_02_13,31.20076299997009,-81.32629,Sea Island,1,0.41285714285714287,0.72,12.285714285714286,12.285714285714286,"MIST,NIGHT_CLEAR,NIGHT_CLEAR,NIGHT_CLEAR,NIGHT_CLEAR,NIGHT_CLEAR,CLEAR","Onshore,Offshore,Offshore,Offshore,Offshore,Offshore,Offshore",7
5842041f4e65fad6a7708a54,2024_02_13,31.13553222995767,-81.38457634790909,St. Simons Island,1,0.4785714285714286,0.7814285714285715,12.285714285714286,12.285714285714286,"MIST,NIGHT_CLEAR,NIGHT_CLEAR,NIGHT_CLEAR,NIGHT_CLEAR,NIGHT_CLEAR,CLEAR","Onshore,Offshore,Offshore,Offshore,Offshore,Offshore,Offshore",7
5842041f4e65fad6a7708a55,2024_02_13,31.33550077186516,-81.28383377408417,Wolf Island,1.2857142857142858,0.39714285714285713,0.7042857142857143,12.285714285714286,12.285714285714286,"MIST,NIGHT_CLEAR,NIGHT_CLEAR,NIGHT_CLEAR,NIGHT_CLEAR,NIGHT_CLEAR,CLEAR","Cross-shore,Offshore,Offshore,Offshore,Offshore,Offshore,Offshore",7
5842041f4e65fad6a7708a56,2024_02_13,31.2704493877174,-81.27324039152315,Little St. Simons Island,1.2857142857142858,0.3585714285714286,0.6628571428571428,12.285714285714286,12.285714285714286,"MIST,NIGHT_CLEAR,NIGHT_CLEAR,NIGHT_CLEAR,NIGHT_CLEAR,NIGHT_CLEAR,CLEAR","Cross-shore,Offshore,Offshore,Offshore,Offshore,Offshore,Offshore",7
5842041f4e65fad6a7708a57,2024_02_13,31.39261761368919,-81.26190520231917,Sapelo Island,1.1428571428571428,0.35,0.6557142857142857,12.285714285714286,12.285714285714286,"MIST,NIGHT_CLEAR,NIGHT_CLEAR,NIGHT_CLEAR,NIGHT_CLEAR,NIGHT_CLEAR,CLEAR","Onshore,Offshore,Offshore,Offshore,Offshore,Offshore,Offshore",7
5842041f4e65fad6a7708a58,2024_02_13,34.42458783809001,-77.54492,Surf City Pier,0.8328571428571429,0.8499857142857143,1.1434380952380951,11,10,"NIGHT_MIST,NIGHT_SHOWERS,NIGHT_CLEAR,NIGHT_CLEAR,NIGHT_CLEAR,CLEAR,CLEAR","Onshore,Cross-shore,Cross-shore,Cross-shore,Cross-shore,Cross-shore,Cross-shore",7
5842041f4e65fad6a7708a59,2024_02_13,31.4231993614213,-81.24725340591522,Cabretta Island,1.1428571428571428,0.35285714285714287,0.66,12.285714285714286,12.285714285714286,"MIST,NIGHT_CLEAR,NIGHT_CLEAR,NIGHT_CLEAR,NIGHT_CLEAR,NIGHT_CLEAR,CLEAR","Onshore,Offshore,Offshore,Offshore,Offshore,Offshore,Offshore",7
5842041f4e65fad6a7708a5a,2024_02_13,31.46684389030369,-81.2100056410468,Blackbeard Island,1,0.35,0.6557142857142857,12.285714285714286,12.285714285714286,"MIST,NIGHT_CLEAR,NIGHT_CLEAR,NIGHT_CLEAR,NIGHT_CLEAR,NIGHT_CLEAR,CLEAR","Onshore,Offshore,Offshore,Offshore,Offshore,Offshore,Offshore",7
5842041f4e65fad6a7708a5b,2024_02_13,31.85953587631629,-80.99031310336719,Wassaw Island/South End,0.7142857142857143,0.16142857142857142,0.4685714285714286,12,12,"MIST,NIGHT_CLEAR,NIGHT_CLEAR,NIGHT_CLEAR,NIGHT_CLEAR,NIGHT_CLEAR,CLEAR","Onshore,Offshore,Offshore,Offshore,Offshore,Offshore,Offshore",7
5842041f4e65fad6a7708a5c,2024_02_13,31.62535662342983,-81.13328352167974,St. Catherines Island,1.7142857142857142,0.44,0.7442857142857143,12,12,"MIST,NIGHT_CLEAR,NIGHT_CLEAR,NIGHT_CLEAR,NIGHT_CLEAR,NIGHT_CLEAR,CLEAR","Cross-shore,Offshore,Offshore,Offshore,Offshore,Offshore,Offshore",7
5842041f4e65fad6a7708a5d,2024_02_13,31.76502169596568,-81.07655443806622,Ossabaw Island,1.2857142857142858,0.38285714285714284,0.6871428571428572,12,12,"MIST,NIGHT_CLEAR,NIGHT_CLEAR,NIGHT_CLEAR,NIGHT_CLEAR,NIGHT_CLEAR,CLEAR","Onshore,Offshore,Offshore,Offshore,Offshore,Offshore,Offshore",7
5842041f4e65fad6a7708a5e,2024_02_13,31.90593619092352,-80.93589231700857,Wassaw Island/North End,1,0.43142857142857144,0.7385714285714285,12,12,"MIST,NIGHT_CLEAR,NIGHT_CLEAR,NIGHT_CLEAR,NIGHT_CLEAR,NIGHT_CLEAR,CLEAR","Onshore,Offshore,Offshore,Offshore,Offshore,Offshore,Offshore",7
5842041f4e65fad6a7708a5f,2024_02_13,31.96738675414547,-80.86977980706155,Little Tybee Island,1,0.56,0.8671428571428572,12,12,"MIST,NIGHT_CLEAR,NIGHT_CLEAR,NIGHT_CLEAR,NIGHT_CLEAR,NIGHT_CLEAR,CLEAR","Onshore,Offshore,Offshore,Offshore,Offshore,Offshore,Offshore",7
5842041f4e65fad6a7708a60,2024_02_13,31.9812255780179,-80.84773973467009,South Tybee Sandbars,1.5714285714285714,0.5485714285714286,0.8542857142857143,12,12,"MIST,NIGHT_CLEAR,NIGHT_CLEAR,NIGHT_CLEAR,NIGHT_CLEAR,NIGHT_CLEAR,CLEAR","Cross-shore,Offshore,Offshore,Offshore,Offshore,Offshore,Offshore",7
5842041f4e65fad6a7708a61,2024_02_13,32.01226,-80.83983,Sugar Shack,1,0.62,0.9257142857142857,12,12,"MIST,NIGHT_CLEAR,NIGHT_CLEAR,NIGHT_CLEAR,NIGHT_CLEAR,NIGHT_CLEAR,CLEAR","Offshore,Offshore,Offshore,Offshore,Offshore,Offshore,Offshore",7
5842041f4e65fad6a7708a62,2024_02_13,31.98722842396969,-80.84773,18th St. Jetty,1,0.3426414285714286,0.5353757142857143,12,12,"MIST,NIGHT_CLEAR,NIGHT_CLEAR,NIGHT_CLEAR,NIGHT_CLEAR,NIGHT_CLEAR,CLEAR","Cross-shore,Offshore,Offshore,Offshore,Offshore,Offshore,Offshore",7
5842041f4e65fad6a7708a64,2024_02_13,34.013473721006676,-77.8991,"Alabama Ave., Kure Beach",2.2857142857142856,0.6385714285714286,0.9471428571428572,13,13,"NIGHT_LIGHT_RAIN,NIGHT_MIST,NIGHT_MOSTLY_CLEAR,NIGHT_CLEAR,NIGHT_CLEAR,CLEAR,CLEAR","Onshore,Offshore,Offshore,Offshore,Offshore,Offshore,Offshore",7
5842041f4e65fad6a7708a65,2024_02_13,34.20859853336924,-77.79293,"C Street, Wrightsville Beach",1.81,0.8147142857142857,1.1405714285714286,11,10,"NIGHT_DRIZZLE,NIGHT_MOSTLY_CLEAR,NIGHT_CLEAR,NIGHT_MOSTLY_CLEAR,NIGHT_CLEAR,CLEAR,CLEAR","Onshore,Cross-shore,Cross-shore,Cross-shore,Offshore,Offshore,Offshore",7
5842041f4e65fad6a7708a66,2024_02_13,32.831,-79.71,Dewees Island,1,0.5357142857142857,0.84,13,13,"NIGHT_MIST,NIGHT_CLEAR,NIGHT_CLEAR,NIGHT_CLEAR,NIGHT_CLEAR,NIGHT_CLEAR,CLEAR","Onshore,Offshore,Offshore,Offshore,Offshore,Offshore,Offshore",7
5842041f4e65fad6a7708a67,2024_02_13,33.82924423172106,-78.62813,Cherry Grove Pier,1.6185714285714285,0.5556095238095239,0.8602904761904763,11,11,"NIGHT_LIGHT_RAIN,NIGHT_CLEAR,NIGHT_CLEAR,NIGHT_CLEAR,NIGHT_CLEAR,NIGHT_CLEAR,CLEAR","Onshore,Cross-shore,Cross-shore,Cross-shore,Cross-shore,Cross-shore,Cross-shore",7
5842041f4e65fad6a7708a69,2024_02_13,34.27197439666496,-77.74050223196774,Figure Eight and Shell Islands,1.7385714285714287,0.7966190476190477,1.1267619047619049,11,10,"NIGHT_RAIN,NIGHT_MOSTLY_CLEAR,NIGHT_CLEAR,NIGHT_CLEAR,NIGHT_CLEAR,CLEAR,CLEAR","Onshore,Cross-shore,Cross-shore,Cross-shore,Cross-shore,Cross-shore,Cross-shore",7
5842041f4e65fad6a7708a6b,2024_02_13,33.49041958261793,-79.07666070599386,North End,1,0.6542857142857142,0.9585714285714286,12,12,"NIGHT_RAIN,NIGHT_CLEAR,NIGHT_CLEAR,NIGHT_CLEAR,NIGHT_CLEAR,NIGHT_CLEAR,CLEAR","Onshore,Cross-shore,Cross-shore,Offshore,Offshore,Offshore,Offshore",7
5842041f4e65fad6a7708a6c,2024_02_13,33.39537062495087,-79.13835037835189,The South End,1,0.5442857142857143,0.8471428571428572,12.714285714285714,12.714285714285714,"NIGHT_CLOUDY,NIGHT_CLEAR,NIGHT_CLEAR,NIGHT_CLEAR,NIGHT_CLEAR,NIGHT_CLEAR,CLEAR","Onshore,Offshore,Offshore,Offshore,Offshore,Offshore,Offshore",7
5842041f4e65fad6a7708a6d,2024_02_13,33.29001727666697,-79.17190003352977,North Island,1,0.33714285714285713,0.6414285714285715,13,13,"NIGHT_OVERCAST,NIGHT_CLEAR,NIGHT_CLEAR,NIGHT_CLEAR,NIGHT_CLEAR,NIGHT_CLEAR,CLEAR","Onshore,Offshore,Offshore,Offshore,Offshore,Offshore,Offshore",7
