_id,date,lat,lon,name,daily_mean_swell_rating,daily_mean_wave_height_min,daily_mean_wave_height_max,daily_mean_water_temperature_max,daily_mean_water_temperature_min,weather_per_timestamp,wind_per_timestamp,n_samples_per_day
5842041f4e65fad6a77087f9,2024_03_12,37.741668,-122.51038,South Ocean Beach,2.29125,3.2077145833333334,3.9259187499999997,14,14,"CLOUDY,CLOUDY,CLEAR,CLEAR,NIGHT_MOSTLY_CLOUDY,NIGHT_MOSTLY_CLOUDY,NIGHT_OVERCAST,NIGHT_DRIZZLE,NIGHT_CLOUDY,NIGHT_OVERCAST,NIGHT_DRIZZLE,NIGHT_DRIZZLE,NIGHT_RAIN,NIGHT_MIST,BRIEF_SHOWERS,MIST","Onshore,Onshore,Onshore,Onshore,Onshore,Onshore,Cross-shore,Cross-shore,Cross-shore,Cross-shore,Offshore,Offshore,Offshore,Offshore,Onshore,Onshore",16
5842041f4e65fad6a7708801,2024_03_12,37.49142,-122.50428,Maverick's,NA,3.14665625,3.8631979166666666,13,13,"OVERCAST,DRIZZLE,OVERCAST,MOSTLY_CLOUDY,NIGHT_MOSTLY_CLOUDY,NIGHT_MOSTLY_CLEAR,NIGHT_CLOUDY,NIGHT_OVERCAST,NIGHT_MOSTLY_CLOUDY,NIGHT_CLOUDY,NIGHT_BRIEF_SHOWERS,NIGHT_LIGHT_RAIN,NIGHT_BRIEF_SHOWERS,NIGHT_MIST,BRIEF_SHOWERS,MIST","Onshore,Onshore,Onshore,Onshore,Onshore,Onshore,Onshore,Onshore,Onshore,Onshore,Onshore,Onshore,Onshore,Onshore,Onshore,Onshore",16
5842041f4e65fad6a7708804,2024_03_12,44.997,-124.018,Roads End,0.75,3.564375,4.259375,10.3125,10.3125,"RAIN,DRIZZLE,HEAVY_RAIN,SHOWERS,NIGHT_BRIEF_SHOWERS,NIGHT_OVERCAST,NIGHT_OVERCAST,NIGHT_OVERCAST,NIGHT_MOSTLY_CLOUDY,NIGHT_CLEAR,NIGHT_MOSTLY_CLOUDY,NIGHT_LIGHT_RAIN,NIGHT_MOSTLY_CLOUDY,NIGHT_MOSTLY_CLOUDY,CLEAR,BRIEF_SHOWERS","Cross-shore,Cross-shore,Cross-shore,Cross-shore,Onshore,Onshore,Onshore,Onshore,Onshore,Onshore,Onshore,Onshore,Onshore,Onshore,Onshore,Onshore",16
5842041f4e65fad6a7708805,2024_03_12,36.95188851423011,-122.02522,Steamer Lane,3.458125,2.023914583333333,2.66451875,14,14,"CLEAR,CLEAR,CLEAR,CLEAR,NIGHT_CLEAR,NIGHT_CLEAR,NIGHT_MOSTLY_CLOUDY,NIGHT_MOSTLY_CLOUDY,NIGHT_MOSTLY_CLOUDY,NIGHT_LIGHT_SHOWERS_POSSIBLE,NIGHT_FOG,NIGHT_FOG,NIGHT_LIGHT_RAIN,NIGHT_FOG,FOG,LIGHT_RAIN","Offshore,Offshore,Offshore,Offshore,Offshore,Offshore,Offshore,Offshore,Offshore,Offshore,Offshore,Cross-shore,Offshore,Onshore,Onshore,Onshore",16
5842041f4e65fad6a7708806,2024_03_12,36.95918781542251,-122.02489,Cowells,2.239375,0.35523125,0.7465229166666667,14,14,"CLEAR,CLEAR,CLEAR,CLEAR,NIGHT_CLEAR,NIGHT_CLEAR,NIGHT_MOSTLY_CLOUDY,NIGHT_MOSTLY_CLOUDY,NIGHT_MOSTLY_CLOUDY,NIGHT_LIGHT_SHOWERS_POSSIBLE,NIGHT_FOG,NIGHT_FOG,NIGHT_LIGHT_RAIN,NIGHT_FOG,FOG,LIGHT_RAIN","Offshore,Offshore,Offshore,Offshore,Offshore,Offshore,Offshore,Cross-shore,Offshore,Offshore,Offshore,Onshore,Cross-shore,Onshore,Onshore,Onshore",16
5842041f4e65fad6a7708807,2024_03_12,36.95468082526536,-121.97234,Pleasure Point,3.145625,1.7132229166666666,2.3061958333333332,14,14,"CLOUDY,CLOUDY,CLEAR,CLEAR,NIGHT_CLEAR,NIGHT_CLEAR,NIGHT_MOSTLY_CLEAR,NIGHT_MOSTLY_CLOUDY,NIGHT_BRIEF_SHOWERS,NIGHT_LIGHT_RAIN,NIGHT_FOG,NIGHT_FOG,NIGHT_FOG,NIGHT_LIGHT_RAIN_AND_FOG,FOG,MIST","Cross-shore,Cross-shore,Cross-shore,Cross-shore,Cross-shore,Cross-shore,Cross-shore,Cross-shore,Cross-shore,Cross-shore,Onshore,Onshore,Onshore,Onshore,Onshore,Onshore",16
5842041f4e65fad6a770880a,2024_03_12,35.37815414378748,-120.86589,Morro Bay,3.176875,2.1588,2.66668125,14,14,"MOSTLY_CLOUDY,MOSTLY_CLOUDY,CLEAR,CLOUDY,NIGHT_CLEAR,NIGHT_CLEAR,NIGHT_CLEAR,NIGHT_CLEAR,NIGHT_CLEAR,NIGHT_MOSTLY_CLOUDY,NIGHT_MOSTLY_CLOUDY,NIGHT_CLOUDY,NIGHT_MOSTLY_CLOUDY,NIGHT_CLEAR,BRIEF_SHOWERS,CLEAR","Onshore,Onshore,Onshore,Onshore,Onshore,Onshore,Onshore,Offshore,Offshore,Onshore,Offshore,Offshore,Cross-shore,Offshore,Offshore,Offshore",16
5842041f4e65fad6a770880b,2024_03_12,36.95782765000708,-121.9672887511276,Jack's,2.770625,0.92440625,1.2690041666666667,14,14,"CLOUDY,CLOUDY,CLEAR,CLEAR,NIGHT_CLEAR,NIGHT_CLEAR,NIGHT_MOSTLY_CLEAR,NIGHT_MOSTLY_CLOUDY,NIGHT_BRIEF_SHOWERS,NIGHT_LIGHT_RAIN,NIGHT_FOG,NIGHT_FOG,NIGHT_FOG,NIGHT_LIGHT_RAIN_AND_FOG,FOG,MIST","Cross-shore,Offshore,Offshore,Cross-shore,Offshore,Offshore,Offshore,Offshore,Cross-shore,Cross-shore,Onshore,Onshore,Onshore,Onshore,Onshore,Onshore",16
5842041f4e65fad6a770880d,2024_03_12,34.29982939936656,-119.3489016603669,Gold Coast Beachbreaks,2.3125,0.424375,0.72875,14,14,"CLEAR,CLEAR,MOSTLY_CLEAR,MIST,NIGHT_CLEAR,NIGHT_CLEAR,NIGHT_CLEAR,NIGHT_CLEAR,NIGHT_MIST,NIGHT_MIST,NIGHT_MIST,NIGHT_FOG,NIGHT_MIST,NIGHT_MIST,BRIEF_SHOWERS,MOSTLY_CLEAR","Onshore,Onshore,Onshore,Onshore,Onshore,Onshore,Onshore,Cross-shore,Cross-shore,Cross-shore,Offshore,Offshore,Cross-shore,Offshore,Cross-shore,Cross-shore",16
5842041f4e65fad6a7708811,2024_03_12,34.245076,-119.26799,Ventura Harbor,2.75,1.3277444791666666,1.65105921875,14,14,"CLEAR,MOSTLY_CLEAR,CLEAR,MIST,NIGHT_MOSTLY_CLEAR,NIGHT_CLEAR,NIGHT_CLEAR,NIGHT_CLEAR,NIGHT_MIST,NIGHT_CLEAR,NIGHT_MIST,NIGHT_FOG,NIGHT_MIST,NIGHT_MIST,CLEAR,MIST","Onshore,Onshore,Onshore,Onshore,Onshore,Onshore,Onshore,Onshore,Offshore,Offshore,Offshore,Offshore,Cross-shore,Cross-shore,Cross-shore,Offshore",16
5842041f4e65fad6a7708813,2024_03_12,34.051,-118.964,County Line,2.614375,0.7855020833333333,1.0889375,15,15,"MOSTLY_CLEAR,MOSTLY_CLEAR,MOSTLY_CLEAR,NIGHT_MOSTLY_CLEAR,NIGHT_MIST,NIGHT_MIST,NIGHT_OVERCAST,NIGHT_MOSTLY_CLOUDY,NIGHT_MOSTLY_CLOUDY,NIGHT_MOSTLY_CLEAR,NIGHT_MOSTLY_CLEAR,NIGHT_MOSTLY_CLEAR,NIGHT_MOSTLY_CLEAR,NIGHT_MOSTLY_CLEAR,MIST,CLEAR","Onshore,Onshore,Onshore,Onshore,Cross-shore,Cross-shore,Cross-shore,Cross-shore,Cross-shore,Offshore,Offshore,Offshore,Offshore,Offshore,Offshore,Offshore",16
5842041f4e65fad6a7708814,2024_03_12,34.37256264378892,-119.47797,Rincon,3,0.834375,1.085625,14,14,"CLEAR,MOSTLY_CLEAR,MOSTLY_CLEAR,CLEAR,NIGHT_CLEAR,NIGHT_CLEAR,NIGHT_CLEAR,NIGHT_CLEAR,NIGHT_CLEAR,NIGHT_CLEAR,NIGHT_CLEAR,NIGHT_CLEAR,NIGHT_CLEAR,NIGHT_CLEAR,CLEAR,CLEAR","Cross-shore,Cross-shore,Cross-shore,Cross-shore,Cross-shore,Cross-shore,Onshore,Onshore,Onshore,Cross-shore,Onshore,Onshore,Onshore,Onshore,Onshore,Onshore",16
5842041f4e65fad6a7708817,2024_03_12,34.03096101876324,-118.68109,Malibu Third Point,2.8125,0.44875,0.755625,15,15,"MOSTLY_CLEAR,CLEAR,CLEAR,NIGHT_CLEAR,NIGHT_CLEAR,NIGHT_CLEAR,NIGHT_CLEAR,NIGHT_MIST,NIGHT_MIST,NIGHT_CLEAR,NIGHT_MIST,NIGHT_MIST,NIGHT_MIST,NIGHT_MIST,MIST,MIST","Cross-shore,Cross-shore,Offshore,Cross-shore,Offshore,Offshore,Cross-shore,Offshore,Offshore,Offshore,Cross-shore,Onshore,Onshore,Onshore,Onshore,Cross-shore",16
5842041f4e65fad6a7708819,2024_03_12,33.984079047970035,-118.47381591796875,Venice Beach,2.16625,0.8830208333333334,1.1537770833333334,14,14,"CLEAR,CLEAR,CLEAR,NIGHT_CLEAR,NIGHT_CLEAR,NIGHT_CLEAR,NIGHT_CLEAR,NIGHT_CLEAR,NIGHT_CLEAR,NIGHT_MOSTLY_CLOUDY,NIGHT_MOSTLY_CLOUDY,NIGHT_MOSTLY_CLOUDY,NIGHT_MIST,NIGHT_MIST,MIST,CLOUDY","Cross-shore,Cross-shore,Cross-shore,Cross-shore,Cross-shore,Cross-shore,Onshore,Cross-shore,Onshore,Onshore,Cross-shore,Cross-shore,Cross-shore,Onshore,Onshore,Onshore",16
5842041f4e65fad6a770881e,2024_03_12,34.037508438646746,-118.58339846155594,Topanga Beach,2.5625,0.49336458333333333,0.7969229166666667,15,15,"MOSTLY_CLEAR,CLEAR,MOSTLY_CLEAR,NIGHT_CLEAR,NIGHT_MIST,NIGHT_CLEAR,NIGHT_CLEAR,NIGHT_MIST,NIGHT_MOSTLY_CLOUDY,NIGHT_MOSTLY_CLOUDY,NIGHT_MIST,NIGHT_FOG,NIGHT_FOG,NIGHT_MIST,CLOUDY,MIST","Onshore,Onshore,Onshore,Onshore,Cross-shore,Cross-shore,Offshore,Cross-shore,Offshore,Cross-shore,Offshore,Cross-shore,Offshore,Offshore,Offshore,Offshore",16
5842041f4e65fad6a7708820,2024_03_12,33.73954373690184,-118.11414,Seal Beach Jetty,2.375,0.471875,0.7775000000000001,15,15,"CLEAR,CLEAR,CLEAR,NIGHT_MOSTLY_CLEAR,NIGHT_CLEAR,NIGHT_MOSTLY_CLEAR,NIGHT_CLEAR,NIGHT_MOSTLY_CLOUDY,NIGHT_CLOUDY,NIGHT_FOG,NIGHT_MOSTLY_CLOUDY,NIGHT_MOSTLY_CLOUDY,NIGHT_BRIEF_SHOWERS,NIGHT_MIST,MIST,CLOUDY","Onshore,Onshore,Onshore,Onshore,Onshore,Onshore,Onshore,Onshore,Onshore,Onshore,Onshore,Onshore,Cross-shore,Onshore,Offshore,Offshore",16
5842041f4e65fad6a7708822,2024_03_12,33.72309983348433,-118.08078,Anderson Street,2.125,0.543125,0.848125,15.3125,15.3125,"CLEAR,CLEAR,CLEAR,NIGHT_MOSTLY_CLEAR,NIGHT_MOSTLY_CLOUDY,NIGHT_MOSTLY_CLOUDY,NIGHT_MOSTLY_CLEAR,NIGHT_CLEAR,NIGHT_OVERCAST,NIGHT_FOG,NIGHT_MOSTLY_CLOUDY,NIGHT_MOSTLY_CLOUDY,NIGHT_MOSTLY_CLOUDY,NIGHT_MOSTLY_CLOUDY,MOSTLY_CLOUDY,OVERCAST","Onshore,Onshore,Onshore,Onshore,Onshore,Onshore,Onshore,Onshore,Onshore,Onshore,Onshore,Onshore,Cross-shore,Cross-shore,Offshore,Offshore",16
5842041f4e65fad6a7708827,2024_03_12,33.65574085629463,-118.00397,Huntington Beach Pier Northside,2,1.1253520833333333,1.44154375,15,15,"CLEAR,CLEAR,CLEAR,NIGHT_MOSTLY_CLEAR,NIGHT_CLEAR,NIGHT_CLEAR,NIGHT_MOSTLY_CLOUDY,NIGHT_MOSTLY_CLOUDY,NIGHT_FOG,NIGHT_FOG,NIGHT_FOG,NIGHT_OVERCAST,NIGHT_OVERCAST,NIGHT_OVERCAST,MIST,MIST","Onshore,Onshore,Onshore,Onshore,Onshore,Onshore,Onshore,Onshore,Onshore,Onshore,Onshore,Onshore,Onshore,Onshore,Onshore,Offshore",16
5842041f4e65fad6a7708828,2024_03_12,34.272041739333,-119.2997646331,C St.,2.989375,0.98850625,1.266275,14,14,"MIST,MIST,CLEAR,MOSTLY_CLEAR,NIGHT_CLEAR,NIGHT_CLEAR,NIGHT_CLEAR,NIGHT_CLEAR,NIGHT_CLEAR,NIGHT_CLEAR,NIGHT_CLEAR,NIGHT_CLEAR,NIGHT_MOSTLY_CLEAR,NIGHT_MIST,MIST,MIST","Cross-shore,Cross-shore,Cross-shore,Cross-shore,Cross-shore,Cross-shore,Cross-shore,Offshore,Cross-shore,Offshore,Offshore,Offshore,Offshore,Offshore,Offshore,Offshore",16
5842041f4e65fad6a770882a,2024_03_12,33.61555743705257,-117.93676,Newport Lower Jetties,2.198125,0.5974854166666667,0.93041875,15,15,"CLEAR,CLEAR,MOSTLY_CLEAR,NIGHT_CLEAR,NIGHT_MOSTLY_CLOUDY,NIGHT_CLEAR,NIGHT_MOSTLY_CLOUDY,NIGHT_MOSTLY_CLOUDY,NIGHT_MIST,NIGHT_FOG,NIGHT_OVERCAST,NIGHT_OVERCAST,NIGHT_OVERCAST,NIGHT_OVERCAST,OVERCAST,MIST","Onshore,Onshore,Cross-shore,Onshore,Cross-shore,Onshore,Onshore,Cross-shore,Onshore,Onshore,Onshore,Onshore,Onshore,Onshore,Onshore,Onshore",16
5842041f4e65fad6a770882b,2024_03_12,33.5930302087,-117.88199,The Wedge,2.010625,0.8520968229166667,1.1711041145833334,17,17,"CLEAR,CLEAR,MOSTLY_CLEAR,NIGHT_CLEAR,NIGHT_CLEAR,NIGHT_MOSTLY_CLEAR,NIGHT_MOSTLY_CLOUDY,NIGHT_FOG,NIGHT_FOG,NIGHT_FOG,NIGHT_FOG,NIGHT_OVERCAST,NIGHT_OVERCAST,NIGHT_OVERCAST,OVERCAST,MIST","Onshore,Onshore,Cross-shore,Onshore,Onshore,Cross-shore,Onshore,Cross-shore,Cross-shore,Cross-shore,Cross-shore,Cross-shore,Cross-shore,Offshore,Offshore,Offshore",16
5842041f4e65fad6a770882c,2024_03_12,33.60577342582,-117.9315376281,Newport Beach Pier,2,0.5317041666666666,0.8374812500000001,15,15,"CLEAR,CLEAR,CLEAR,NIGHT_CLEAR,NIGHT_CLEAR,NIGHT_CLEAR,NIGHT_FOG,NIGHT_MOSTLY_CLOUDY,NIGHT_DRIZZLE,NIGHT_FOG,NIGHT_CLOUDY,NIGHT_CLOUDY,NIGHT_CLOUDY,NIGHT_CLOUDY,DRIZZLE,MIST","Onshore,Onshore,Cross-shore,Cross-shore,Cross-shore,Cross-shore,Cross-shore,Cross-shore,Cross-shore,Cross-shore,Cross-shore,Onshore,Onshore,Onshore,Onshore,Onshore",16
5842041f4e65fad6a770882e,2024_03_12,33.475793399792984,-117.72291,Salt Creek,3,1.08049375,1.42081875,15,15,"CLEAR,CLEAR,CLEAR,NIGHT_MOSTLY_CLOUDY,NIGHT_MOSTLY_CLOUDY,NIGHT_MOSTLY_CLOUDY,NIGHT_MOSTLY_CLOUDY,NIGHT_FOG,NIGHT_FOG,NIGHT_LIGHT_RAIN_AND_FOG,NIGHT_FOG,NIGHT_FOG,NIGHT_FOG,NIGHT_MIST,MIST,MOSTLY_CLOUDY","Onshore,Onshore,Onshore,Onshore,Onshore,Onshore,Onshore,Onshore,Onshore,Onshore,Onshore,Onshore,Onshore,Onshore,Onshore,Onshore",16
5842041f4e65fad6a7708830,2024_03_12,33.41800974113613,-117.61952,T-Street,2.989375,1.0416916666666667,1.2895937499999999,16,16,"CLEAR,CLEAR,MOSTLY_CLEAR,NIGHT_CLEAR,NIGHT_CLEAR,NIGHT_MOSTLY_CLOUDY,NIGHT_MOSTLY_CLOUDY,NIGHT_MOSTLY_CLOUDY,NIGHT_MIST,NIGHT_FOG,NIGHT_BRIEF_SHOWERS,NIGHT_FOG,NIGHT_FOG,NIGHT_FOG,CLOUDY,BRIEF_SHOWERS","Onshore,Onshore,Onshore,Cross-shore,Cross-shore,Cross-shore,Cross-shore,Onshore,Cross-shore,Offshore,Onshore,Onshore,Onshore,Onshore,Onshore,Onshore",16
5842041f4e65fad6a7708832,2024_03_12,33.202391008646,-117.39475,Oceanside Harbor,2.948125,0.9994791666666667,1.3616145833333333,16,16,"CLEAR,CLEAR,CLEAR,NIGHT_CLEAR,NIGHT_MOSTLY_CLOUDY,NIGHT_MOSTLY_CLOUDY,NIGHT_MOSTLY_CLOUDY,NIGHT_OVERCAST,NIGHT_FOG,NIGHT_MOSTLY_CLOUDY,NIGHT_MOSTLY_CLOUDY,NIGHT_FOG,NIGHT_FOG,NIGHT_FOG,FOG,BRIEF_SHOWERS","Onshore,Onshore,Onshore,Onshore,Onshore,Onshore,Onshore,Cross-shore,Cross-shore,Offshore,Offshore,Offshore,Offshore,Offshore,Offshore,Offshore",16
5842041f4e65fad6a7708835,2024_03_12,33.19477795952803,-117.38667,Oceanside Pier,2.864375,1.038125,1.2517708333333333,16,16,"MOSTLY_CLOUDY,MOSTLY_CLOUDY,CLEAR,NIGHT_CLEAR,NIGHT_MOSTLY_CLOUDY,NIGHT_CLEAR,NIGHT_MOSTLY_CLOUDY,NIGHT_OVERCAST,NIGHT_FOG,NIGHT_MOSTLY_CLOUDY,NIGHT_CLEAR,NIGHT_MOSTLY_CLOUDY,NIGHT_FOG,NIGHT_FOG,FOG,MIST","Onshore,Onshore,Onshore,Onshore,Onshore,Onshore,Onshore,Cross-shore,Offshore,Offshore,Onshore,Cross-shore,Cross-shore,Offshore,Offshore,Offshore",16
5842041f4e65fad6a7708837,2024_03_12,33.14948100706,-117.35029,Tamarack,2.6875,0.4675,0.77125,15,15,"MOSTLY_CLOUDY,CLEAR,CLEAR,NIGHT_CLEAR,NIGHT_CLOUDY,NIGHT_MOSTLY_CLOUDY,NIGHT_MOSTLY_CLOUDY,NIGHT_OVERCAST,NIGHT_FOG,NIGHT_MOSTLY_CLOUDY,NIGHT_FOG,NIGHT_BRIEF_SHOWERS,NIGHT_FOG,NIGHT_FOG,FOG,MIST","Onshore,Onshore,Onshore,Cross-shore,Cross-shore,Cross-shore,Cross-shore,Cross-shore,Cross-shore,Offshore,Offshore,Onshore,Cross-shore,Cross-shore,Cross-shore,Offshore",16
5842041f4e65fad6a7708839,2024_03_12,32.865777159358856,-117.25614295356122,Scripps,2.311875,1.0755729166666665,1.3595833333333334,16,16,"MOSTLY_CLOUDY,MOSTLY_CLOUDY,CLEAR,NIGHT_CLOUDY,NIGHT_CLOUDY,NIGHT_MOSTLY_CLOUDY,NIGHT_MOSTLY_CLOUDY,NIGHT_OVERCAST,NIGHT_MOSTLY_CLOUDY,NIGHT_FOG,NIGHT_FOG,NIGHT_BRIEF_SHOWERS,NIGHT_LIGHT_RAIN_AND_FOG,NIGHT_FOG,FOG,MIST","Onshore,Onshore,Onshore,Onshore,Onshore,Onshore,Onshore,Onshore,Onshore,Cross-shore,Onshore,Onshore,Onshore,Onshore,Onshore,Onshore",16
5842041f4e65fad6a770883a,2024_03_12,32.813094,-117.27381,Birdrock,3.3125,1.446875,1.73125,16,16,"MOSTLY_CLOUDY,MOSTLY_CLOUDY,MOSTLY_CLOUDY,NIGHT_OVERCAST,NIGHT_MOSTLY_CLOUDY,NIGHT_MOSTLY_CLOUDY,NIGHT_MOSTLY_CLOUDY,NIGHT_MOSTLY_CLOUDY,NIGHT_FOG,NIGHT_FOG,NIGHT_FOG,NIGHT_FOG,NIGHT_FOG,NIGHT_FOG,FOG,MIST","Onshore,Cross-shore,Onshore,Cross-shore,Cross-shore,Offshore,Offshore,Offshore,Offshore,Offshore,Offshore,Offshore,Offshore,Cross-shore,Cross-shore,Onshore",16
5842041f4e65fad6a770883b,2024_03_12,32.877231,-117.25303,Blacks,2.770625,1.4844791666666666,1.9406770833333333,16,16,"MOSTLY_CLOUDY,MOSTLY_CLOUDY,CLEAR,NIGHT_CLOUDY,NIGHT_CLOUDY,NIGHT_MOSTLY_CLOUDY,NIGHT_MOSTLY_CLOUDY,NIGHT_OVERCAST,NIGHT_MOSTLY_CLOUDY,NIGHT_FOG,NIGHT_FOG,NIGHT_BRIEF_SHOWERS,NIGHT_LIGHT_RAIN_AND_FOG,NIGHT_FOG,FOG,MIST","Onshore,Onshore,Onshore,Onshore,Onshore,Onshore,Onshore,Onshore,Onshore,Onshore,Cross-shore,Onshore,Onshore,Onshore,Onshore,Onshore",16
5842041f4e65fad6a770883c,2024_03_12,32.82978974229765,-117.28161740727381,Windansea,2.874375,1.3431770833333334,1.7574208333333332,15,15,"MOSTLY_CLOUDY,CLEAR,CLEAR,NIGHT_OVERCAST,NIGHT_OVERCAST,NIGHT_MOSTLY_CLOUDY,NIGHT_MOSTLY_CLOUDY,NIGHT_MOSTLY_CLOUDY,NIGHT_FOG,NIGHT_FOG,NIGHT_FOG,NIGHT_FOG,NIGHT_FOG,NIGHT_FOG,FOG,MIST","Onshore,Onshore,Onshore,Onshore,Onshore,Onshore,Onshore,Onshore,Onshore,Offshore,Offshore,Onshore,Onshore,Onshore,Onshore,Onshore",16
5842041f4e65fad6a770883d,2024_03_12,32.838278,-117.28396,Horseshoe,3.1875,1.51,1.80625,16,16,"MOSTLY_CLOUDY,CLEAR,CLEAR,NIGHT_OVERCAST,NIGHT_MOSTLY_CLOUDY,NIGHT_MOSTLY_CLOUDY,NIGHT_MOSTLY_CLOUDY,NIGHT_MOSTLY_CLOUDY,NIGHT_FOG,NIGHT_FOG,NIGHT_FOG,NIGHT_FOG,NIGHT_FOG,NIGHT_FOG,FOG,MIST","Onshore,Onshore,Onshore,Onshore,Cross-shore,Offshore,Offshore,Offshore,Offshore,Offshore,Offshore,Offshore,Offshore,Offshore,Offshore,Onshore",16
5842041f4e65fad6a770883f,2024_03_12,32.75034717673179,-117.25337,Ocean Beach,2.561875,1.4606791666666668,1.8709375,15,15,"CLEAR,CLEAR,CLEAR,NIGHT_CLOUDY,NIGHT_CLOUDY,NIGHT_MOSTLY_CLOUDY,NIGHT_MOSTLY_CLOUDY,NIGHT_OVERCAST,NIGHT_FOG,NIGHT_FOG,NIGHT_FOG,NIGHT_BRIEF_SHOWERS,NIGHT_FOG,NIGHT_CLOUDY,DRIZZLE,BRIEF_SHOWERS","Onshore,Onshore,Onshore,Onshore,Onshore,Cross-shore,Cross-shore,Onshore,Onshore,Offshore,Offshore,Onshore,Onshore,Onshore,Onshore,Onshore",16
5842041f4e65fad6a7708840,2024_03_12,32.73693,-117.25718,Sunset Cliffs,3,1.516875,1.81375,15.3125,15.3125,"MOSTLY_CLEAR,CLEAR,CLEAR,NIGHT_OVERCAST,NIGHT_OVERCAST,NIGHT_MOSTLY_CLOUDY,NIGHT_OVERCAST,NIGHT_OVERCAST,NIGHT_FOG,NIGHT_MOSTLY_CLOUDY,NIGHT_FOG,NIGHT_BRIEF_SHOWERS,NIGHT_FOG,NIGHT_CLOUDY,LIGHT_RAIN,BRIEF_SHOWERS","Onshore,Onshore,Onshore,Onshore,Onshore,Cross-shore,Cross-shore,Onshore,Onshore,Offshore,Offshore,Cross-shore,Onshore,Onshore,Onshore,Onshore",16
5842041f4e65fad6a7708841,2024_03_12,32.796582258728826,-117.25779,Pacific Beach,2.811875,1.3674479166666667,1.7483854166666666,15,15,"MOSTLY_CLOUDY,CLEAR,CLEAR,NIGHT_CLOUDY,NIGHT_MOSTLY_CLOUDY,NIGHT_MOSTLY_CLOUDY,NIGHT_MOSTLY_CLOUDY,NIGHT_DRIZZLE,NIGHT_FOG,NIGHT_FOG,NIGHT_FOG,NIGHT_FOG,NIGHT_FOG,NIGHT_FOG,FOG,BRIEF_SHOWERS","Onshore,Cross-shore,Onshore,Cross-shore,Cross-shore,Offshore,Offshore,Offshore,Offshore,Offshore,Offshore,Offshore,Offshore,Cross-shore,Cross-shore,Onshore",16
5842041f4e65fad6a7708842,2024_03_12,32.776636,-117.25514,Mission Beach,2.73875,1.3822916666666667,1.7605729166666666,15,15,"MOSTLY_CLOUDY,CLEAR,CLEAR,NIGHT_CLOUDY,NIGHT_CLOUDY,NIGHT_MOSTLY_CLOUDY,NIGHT_MOSTLY_CLOUDY,NIGHT_DRIZZLE,NIGHT_FOG,NIGHT_FOG,NIGHT_FOG,NIGHT_FOG,NIGHT_FOG,NIGHT_FOG,FOG,BRIEF_SHOWERS","Onshore,Onshore,Onshore,Onshore,Onshore,Offshore,Offshore,Offshore,Offshore,Offshore,Offshore,Offshore,Offshore,Offshore,Offshore,Onshore",16
5842041f4e65fad6a7708844,2024_03_12,32.577195519016,-117.13475,Imperial Beach Pier,2.6875,1.6575,1.98,15,15,"MOSTLY_CLEAR,CLEAR,CLEAR,NIGHT_CLOUDY,NIGHT_CLOUDY,NIGHT_OVERCAST,NIGHT_OVERCAST,NIGHT_MOSTLY_CLOUDY,NIGHT_FOG,NIGHT_FOG,NIGHT_FOG,NIGHT_FOG,NIGHT_FOG,NIGHT_FOG,FOG,BRIEF_SHOWERS","Onshore,Onshore,Onshore,Onshore,Onshore,Cross-shore,Cross-shore,Cross-shore,Cross-shore,Cross-shore,Offshore,Offshore,Offshore,Offshore,Cross-shore,Cross-shore",16
5842041f4e65fad6a770884a,2024_03_12,42.88678181061,-70.80843,Seabrook,1.625,0.3659228125,0.6469595833333334,4,3,"NIGHT_CLEAR,NIGHT_CLEAR,NIGHT_CLEAR,NIGHT_CLEAR,NIGHT_CLEAR,NIGHT_CLEAR,NIGHT_CLEAR,NIGHT_CLEAR,NIGHT_CLEAR,NIGHT_CLEAR,CLEAR,CLEAR,CLEAR,CLEAR,CLEAR,CLEAR","Offshore,Offshore,Offshore,Offshore,Offshore,Offshore,Offshore,Offshore,Offshore,Offshore,Offshore,Offshore,Offshore,Offshore,Offshore,Offshore",16
5842041f4e65fad6a770884e,2024_03_12,41.434181432898335,-71.45312118111178,Narragansett,0.854375,0.02068125,0.31157083333333335,6,4,"NIGHT_CLEAR,NIGHT_CLEAR,NIGHT_CLEAR,NIGHT_CLEAR,NIGHT_CLEAR,NIGHT_CLEAR,NIGHT_CLEAR,NIGHT_CLEAR,NIGHT_CLEAR,NIGHT_CLEAR,NIGHT_CLEAR,CLEAR,CLEAR,CLEAR,CLEAR,CLEAR","Offshore,Offshore,Offshore,Offshore,Offshore,Offshore,Offshore,Offshore,Offshore,Offshore,Cross-shore,Offshore,Offshore,Offshore,Offshore,Offshore",16
5842041f4e65fad6a7708850,2024_03_12,40.582703230722,-73.65247,Lincoln Blvd,0.703125,0.028593749999999998,0.33561875,7,6,"NIGHT_CLEAR,NIGHT_CLEAR,NIGHT_CLEAR,NIGHT_CLEAR,NIGHT_CLEAR,NIGHT_CLEAR,NIGHT_CLEAR,NIGHT_CLEAR,NIGHT_CLEAR,NIGHT_CLEAR,NIGHT_CLEAR,CLEAR,CLEAR,CLEAR,CLEAR,CLEAR","Onshore,Onshore,Onshore,Onshore,Onshore,Onshore,Onshore,Onshore,Cross-shore,Cross-shore,Cross-shore,Cross-shore,Cross-shore,Cross-shore,Cross-shore,Cross-shore",16
5842041f4e65fad6a7708852,2024_03_12,40.58342841721757,-73.81182,Rockaways,0.15125,-0.013125000000000001,0.254525,7,6,"NIGHT_CLEAR,NIGHT_CLEAR,NIGHT_CLEAR,NIGHT_CLEAR,NIGHT_CLEAR,NIGHT_CLEAR,NIGHT_CLEAR,NIGHT_CLEAR,NIGHT_CLEAR,NIGHT_CLEAR,NIGHT_CLEAR,CLEAR,CLEAR,CLEAR,CLEAR,CLEAR","Offshore,Cross-shore,Cross-shore,Cross-shore,Cross-shore,Cross-shore,Cross-shore,Cross-shore,Cross-shore,Cross-shore,Cross-shore,Cross-shore,Cross-shore,Cross-shore,Cross-shore,Cross-shore",16
5842041f4e65fad6a7708853,2024_03_12,40.330474,-73.9734,Monmouth Beach,0.59375,-0.006406250000000002,0.23750416666666668,7,6,"NIGHT_CLEAR,NIGHT_CLEAR,NIGHT_CLEAR,NIGHT_CLEAR,NIGHT_CLEAR,NIGHT_CLEAR,NIGHT_CLEAR,NIGHT_CLEAR,NIGHT_CLEAR,NIGHT_CLEAR,NIGHT_CLEAR,CLEAR,CLEAR,CLEAR,CLEAR,CLEAR","Offshore,Offshore,Offshore,Offshore,Offshore,Offshore,Offshore,Offshore,Offshore,Offshore,Offshore,Offshore,Offshore,Offshore,Offshore,Offshore",16
5842041f4e65fad6a7708856,2024_03_12,40.113,-74.028,Manasquan Inlet,0.6875,-0.012031250000000002,0.21453541666666667,7,6,"NIGHT_CLEAR,NIGHT_CLEAR,NIGHT_CLEAR,NIGHT_CLEAR,NIGHT_CLEAR,NIGHT_CLEAR,NIGHT_CLEAR,NIGHT_CLEAR,NIGHT_CLEAR,NIGHT_CLEAR,NIGHT_CLEAR,CLEAR,CLEAR,CLEAR,CLEAR,CLEAR","Offshore,Offshore,Offshore,Offshore,Offshore,Offshore,Offshore,Offshore,Offshore,Offshore,Offshore,Offshore,Offshore,Offshore,Offshore,Offshore",16
5842041f4e65fad6a7708857,2024_03_12,39.941519877445664,-74.06829,Casino Pier,0.78125,-0.012031250000000002,0.2574,7,6,"NIGHT_CLEAR,NIGHT_CLEAR,NIGHT_CLEAR,NIGHT_CLEAR,NIGHT_CLEAR,NIGHT_CLEAR,NIGHT_CLEAR,NIGHT_CLEAR,NIGHT_CLEAR,NIGHT_CLEAR,NIGHT_CLEAR,CLEAR,CLEAR,CLEAR,CLEAR,CLEAR","Offshore,Offshore,Offshore,Offshore,Offshore,Offshore,Offshore,Offshore,Offshore,Offshore,Offshore,Offshore,Offshore,Offshore,Offshore,Offshore",16
5842041f4e65fad6a7708858,2024_03_12,39.28223089949212,-74.55766,North End OC,0.995,-0.00765625,0.26109791666666665,8,6,"NIGHT_CLEAR,NIGHT_CLEAR,NIGHT_CLEAR,NIGHT_CLEAR,NIGHT_CLEAR,NIGHT_CLEAR,NIGHT_CLEAR,NIGHT_CLEAR,NIGHT_CLEAR,NIGHT_CLEAR,NIGHT_CLEAR,CLEAR,CLEAR,CLEAR,CLEAR,CLEAR","Offshore,Offshore,Offshore,Offshore,Offshore,Offshore,Offshore,Offshore,Offshore,Offshore,Offshore,Offshore,Offshore,Offshore,Offshore,Offshore",16
5842041f4e65fad6a770885b,2024_03_12,39.65080599934257,-74.17146,Ship Bottom,0.995,-0.01359375,0.26385833333333336,8,6,"NIGHT_CLEAR,NIGHT_CLEAR,NIGHT_CLEAR,NIGHT_CLEAR,NIGHT_CLEAR,NIGHT_CLEAR,NIGHT_CLEAR,NIGHT_CLEAR,NIGHT_CLEAR,NIGHT_CLEAR,NIGHT_CLEAR,CLEAR,CLEAR,CLEAR,CLEAR,CLEAR","Offshore,Offshore,Offshore,Offshore,Offshore,Offshore,Offshore,Offshore,Offshore,Offshore,Offshore,Offshore,Offshore,Offshore,Offshore,Offshore",16
5842041f4e65fad6a7708863,2024_03_12,36.034151543144,-75.66791,Third Street,2.21875,0.3448041666666667,0.6615791666666667,9,8,"CLEAR,NIGHT_CLEAR,NIGHT_CLEAR,NIGHT_CLEAR,NIGHT_CLEAR,NIGHT_CLEAR,NIGHT_CLEAR,NIGHT_CLEAR,NIGHT_CLEAR,NIGHT_CLEAR,NIGHT_CLEAR,CLEAR,CLEAR,CLEAR,CLEAR,CLEAR","Offshore,Offshore,Offshore,Offshore,Offshore,Offshore,Offshore,Offshore,Offshore,Offshore,Offshore,Offshore,Offshore,Offshore,Offshore,Offshore",16
5842041f4e65fad6a7708867,2024_03_12,35.605833221351425,-75.46303,S-Turns,2.12,0.624375,0.9303125,10,9,"CLEAR,NIGHT_CLEAR,NIGHT_CLEAR,NIGHT_CLEAR,NIGHT_CLEAR,NIGHT_CLEAR,NIGHT_CLEAR,NIGHT_CLEAR,NIGHT_CLEAR,NIGHT_CLEAR,NIGHT_CLEAR,CLEAR,CLEAR,CLEAR,CLEAR,CLEAR","Offshore,Offshore,Offshore,Offshore,Offshore,Offshore,Offshore,Offshore,Offshore,Offshore,Offshore,Offshore,Offshore,Offshore,Offshore,Offshore",16
5842041f4e65fad6a770886d,2024_03_12,38.338461,-75.08117,Ocean City Boardwalk,1,-0.006562500000000001,0.26635833333333336,8,7,"CLEAR,NIGHT_CLEAR,NIGHT_CLEAR,NIGHT_CLEAR,NIGHT_CLEAR,NIGHT_CLEAR,NIGHT_CLEAR,NIGHT_CLEAR,NIGHT_CLEAR,NIGHT_CLEAR,NIGHT_CLEAR,CLEAR,CLEAR,CLEAR,CLEAR,CLEAR","Offshore,Offshore,Offshore,Offshore,Offshore,Offshore,Offshore,Offshore,Offshore,Offshore,Offshore,Offshore,Offshore,Offshore,Offshore,Offshore",16
5842041f4e65fad6a770886f,2024_03_12,29.844757212379562,-81.26136,A St.,2,0.4975,0.8025,18,18,"CLEAR,NIGHT_CLEAR,NIGHT_CLEAR,NIGHT_CLEAR,NIGHT_CLEAR,NIGHT_CLEAR,NIGHT_CLEAR,NIGHT_CLEAR,NIGHT_CLEAR,NIGHT_CLEAR,NIGHT_CLEAR,CLEAR,CLEAR,CLEAR,CLEAR,CLEAR","Onshore,Onshore,Onshore,Onshore,Onshore,Onshore,Onshore,Onshore,Onshore,Onshore,Onshore,Onshore,Onshore,Onshore,Onshore,Onshore",16
5842041f4e65fad6a7708871,2024_03_12,29.069417851135093,-80.90824,New Smyrna Beach,2.114375,0.9958791666666666,1.4182249999999998,19,17,"CLEAR,NIGHT_CLEAR,NIGHT_CLEAR,NIGHT_CLEAR,NIGHT_CLEAR,NIGHT_CLEAR,NIGHT_CLEAR,NIGHT_CLEAR,NIGHT_MOSTLY_CLOUDY,NIGHT_CLEAR,NIGHT_CLEAR,CLEAR,CLEAR,CLEAR,CLEAR,CLEAR","Onshore,Onshore,Onshore,Onshore,Onshore,Onshore,Onshore,Onshore,Onshore,Onshore,Onshore,Onshore,Onshore,Onshore,Onshore,Onshore",16
5842041f4e65fad6a7708872,2024_03_12,28.367707417566,-80.60171,Cocoa Beach Pier,2.1975,0.6190270833333333,0.9208583333333333,23,21,"MOSTLY_CLEAR,NIGHT_MOSTLY_CLEAR,NIGHT_CLEAR,NIGHT_MOSTLY_CLOUDY,NIGHT_MOSTLY_CLOUDY,NIGHT_CLEAR,NIGHT_MOSTLY_CLOUDY,NIGHT_CLEAR,NIGHT_MOSTLY_CLOUDY,NIGHT_CLOUDY,NIGHT_OVERCAST,MOSTLY_CLOUDY,MOSTLY_CLOUDY,MOSTLY_CLOUDY,CLEAR,CLEAR","Onshore,Onshore,Onshore,Onshore,Onshore,Onshore,Onshore,Onshore,Onshore,Onshore,Onshore,Onshore,Onshore,Onshore,Onshore,Onshore",16
5842041f4e65fad6a7708873,2024_03_12,28.091782738658846,-80.56479,Indialantic,1.770625,0.6485875,1.0162,23,21,"MOSTLY_CLEAR,NIGHT_CLEAR,NIGHT_CLEAR,NIGHT_CLEAR,NIGHT_MOSTLY_CLEAR,NIGHT_CLEAR,NIGHT_CLEAR,NIGHT_MOSTLY_CLOUDY,NIGHT_CLEAR,NIGHT_CLOUDY,NIGHT_OVERCAST,CLOUDY,CLOUDY,MOSTLY_CLOUDY,MOSTLY_CLOUDY,CLEAR","Onshore,Onshore,Onshore,Onshore,Onshore,Onshore,Onshore,Onshore,Onshore,Onshore,Onshore,Onshore,Onshore,Onshore,Onshore,Onshore",16
5842041f4e65fad6a7708876,2024_03_12,27.25392904143517,-80.19455,Jensen Beach,1.8587500000000001,0.882525,1.1863354166666666,23,22,"MOSTLY_CLOUDY,NIGHT_MOSTLY_CLOUDY,NIGHT_MOSTLY_CLOUDY,NIGHT_OVERCAST,NIGHT_MOSTLY_CLOUDY,NIGHT_OVERCAST,NIGHT_OVERCAST,NIGHT_OVERCAST,NIGHT_OVERCAST,NIGHT_CLOUDY,NIGHT_CLOUDY,CLOUDY,CLOUDY,OVERCAST,CLOUDY,CLEAR","Onshore,Onshore,Onshore,Onshore,Onshore,Onshore,Onshore,Onshore,Onshore,Onshore,Onshore,Onshore,Onshore,Onshore,Onshore,Onshore",16
5842041f4e65fad6a7708879,2024_03_12,26.76346795333825,-80.0360655784607,Reef Road,1.458125,0.39230000000000004,0.7240270833333333,24,23,"OVERCAST,NIGHT_OVERCAST,NIGHT_MOSTLY_CLOUDY,NIGHT_CLOUDY,NIGHT_OVERCAST,NIGHT_OVERCAST,NIGHT_MOSTLY_CLOUDY,NIGHT_CLEAR,NIGHT_OVERCAST,NIGHT_OVERCAST,NIGHT_MOSTLY_CLOUDY,OVERCAST,OVERCAST,DRIZZLE,OVERCAST,MOSTLY_CLOUDY","Onshore,Onshore,Onshore,Onshore,Onshore,Onshore,Onshore,Onshore,Onshore,Onshore,Onshore,Onshore,Onshore,Onshore,Onshore,Onshore",16
5842041f4e65fad6a770887c,2024_03_12,26.336499228484,-80.06956100463,Boca Raton Inlet,0.770625,0.15041666666666667,0.4552833333333334,25,23,"OVERCAST,NIGHT_CLOUDY,NIGHT_MOSTLY_CLOUDY,NIGHT_MOSTLY_CLOUDY,NIGHT_MOSTLY_CLOUDY,NIGHT_MOSTLY_CLOUDY,NIGHT_MOSTLY_CLOUDY,NIGHT_DRIZZLE,NIGHT_MOSTLY_CLOUDY,NIGHT_OVERCAST,NIGHT_OVERCAST,OVERCAST,OVERCAST,OVERCAST,MOSTLY_CLOUDY,MOSTLY_CLOUDY","Onshore,Onshore,Onshore,Onshore,Onshore,Onshore,Onshore,Onshore,Onshore,Onshore,Onshore,Onshore,Onshore,Onshore,Onshore,Onshore",16
5842041f4e65fad6a770887d,2024_03_12,26.31719311695038,-80.07452525176168,Deerfield Beach Pier,0.676875,0.09551083333333334,0.376865,25,23,"OVERCAST,NIGHT_CLOUDY,NIGHT_SHOWERS,NIGHT_MOSTLY_CLOUDY,NIGHT_OVERCAST,NIGHT_MOSTLY_CLOUDY,NIGHT_MOSTLY_CLOUDY,NIGHT_OVERCAST,NIGHT_MOSTLY_CLOUDY,NIGHT_OVERCAST,NIGHT_OVERCAST,CLOUDY,OVERCAST,OVERCAST,MOSTLY_CLOUDY,CLEAR","Onshore,Onshore,Onshore,Onshore,Onshore,Onshore,Onshore,Onshore,Onshore,Onshore,Onshore,Onshore,Onshore,Onshore,Onshore,Onshore",16
5842041f4e65fad6a7708881,2024_03_12,30.20276320866628,-85.85626528676136,"Spyglass Dr., Panama City",0,0,0.15174375,19,18,"CLEAR,NIGHT_CLEAR,NIGHT_CLEAR,NIGHT_CLEAR,NIGHT_CLEAR,NIGHT_CLEAR,NIGHT_CLEAR,NIGHT_CLEAR,NIGHT_CLEAR,NIGHT_CLEAR,NIGHT_CLEAR,CLEAR,CLEAR,CLEAR,CLEAR,CLEAR","Offshore,Offshore,Offshore,Offshore,Offshore,Offshore,Offshore,Offshore,Offshore,Offshore,Offshore,Offshore,Offshore,Offshore,Offshore,Offshore",16
5842041f4e65fad6a7708884,2024_03_12,33.39000832738053,-117.59852,Cottons,3,0.96721875,1.2311083333333332,16,16,"MOSTLY_CLEAR,CLEAR,CLEAR,NIGHT_MOSTLY_CLOUDY,NIGHT_MOSTLY_CLOUDY,NIGHT_MOSTLY_CLOUDY,NIGHT_MOSTLY_CLOUDY,NIGHT_FOG,NIGHT_MOSTLY_CLOUDY,NIGHT_FOG,NIGHT_BRIEF_SHOWERS,NIGHT_FOG,NIGHT_LIGHT_RAIN_AND_FOG,NIGHT_FOG,FOG,BRIEF_SHOWERS","Onshore,Onshore,Onshore,Onshore,Onshore,Cross-shore,Cross-shore,Cross-shore,Cross-shore,Offshore,Offshore,Offshore,Cross-shore,Cross-shore,Cross-shore,Onshore",16
5842041f4e65fad6a7708885,2024_03_12,33.359416282661,-117.54167901405711,Trails,2.75,0.713125,1.019375,15,15,"MOSTLY_CLEAR,CLEAR,CLEAR,NIGHT_BRIEF_SHOWERS,NIGHT_BRIEF_SHOWERS,NIGHT_CLEAR,NIGHT_MOSTLY_CLOUDY,NIGHT_BRIEF_SHOWERS,NIGHT_FOG,NIGHT_MOSTLY_CLOUDY,NIGHT_MOSTLY_CLOUDY,NIGHT_LIGHT_RAIN_AND_FOG,NIGHT_FOG,NIGHT_FOG,FOG,BRIEF_SHOWERS","Onshore,Onshore,Onshore,Cross-shore,Cross-shore,Offshore,Offshore,Offshore,Offshore,Offshore,Offshore,Cross-shore,Offshore,Offshore,Offshore,Offshore",16
5842041f4e65fad6a7708886,2024_03_12,33.38042605929805,-117.58332,Middles,2.989375,0.8179916666666667,1.1715229166666667,16,16,"MOSTLY_CLEAR,CLEAR,CLEAR,NIGHT_MOSTLY_CLOUDY,NIGHT_MOSTLY_CLOUDY,NIGHT_MOSTLY_CLOUDY,NIGHT_MOSTLY_CLOUDY,NIGHT_FOG,NIGHT_MOSTLY_CLOUDY,NIGHT_FOG,NIGHT_BRIEF_SHOWERS,NIGHT_FOG,NIGHT_LIGHT_RAIN_AND_FOG,NIGHT_FOG,FOG,BRIEF_SHOWERS","Onshore,Onshore,Onshore,Onshore,Cross-shore,Offshore,Offshore,Offshore,Offshore,Offshore,Offshore,Offshore,Offshore,Offshore,Offshore,Onshore",16
5842041f4e65fad6a7708887,2024_03_12,33.38445596302903,-117.59445,Upper Trestles,3,1.0672708333333334,1.3912125,16,16,"MOSTLY_CLEAR,CLEAR,CLEAR,NIGHT_MOSTLY_CLOUDY,NIGHT_MOSTLY_CLOUDY,NIGHT_MOSTLY_CLOUDY,NIGHT_MOSTLY_CLOUDY,NIGHT_FOG,NIGHT_MOSTLY_CLOUDY,NIGHT_FOG,NIGHT_BRIEF_SHOWERS,NIGHT_FOG,NIGHT_LIGHT_RAIN_AND_FOG,NIGHT_FOG,FOG,BRIEF_SHOWERS","Onshore,Onshore,Onshore,Cross-shore,Cross-shore,Offshore,Offshore,Offshore,Offshore,Offshore,Offshore,Offshore,Offshore,Offshore,Offshore,Cross-shore",16
5842041f4e65fad6a7708889,2024_03_12,28.944414,-95.28883,Surfside,1.375,0.2813425,0.439595625,19,19,"CLEAR,CLEAR,NIGHT_CLEAR,NIGHT_CLEAR,NIGHT_CLEAR,NIGHT_CLEAR,NIGHT_CLEAR,NIGHT_CLEAR,NIGHT_CLEAR,NIGHT_CLEAR,NIGHT_CLEAR,NIGHT_CLEAR,CLEAR,CLEAR,CLEAR,MOSTLY_CLOUDY","Onshore,Onshore,Onshore,Onshore,Onshore,Onshore,Onshore,Onshore,Onshore,Onshore,Onshore,Onshore,Onshore,Onshore,Onshore,Onshore",16
5842041f4e65fad6a770888a,2024_03_12,33.38143999849023,-117.58843,Lower Trestles,3,1.0610729166666668,1.4804895833333334,16,16,"MOSTLY_CLEAR,CLEAR,CLEAR,NIGHT_MOSTLY_CLOUDY,NIGHT_MOSTLY_CLOUDY,NIGHT_MOSTLY_CLOUDY,NIGHT_MOSTLY_CLOUDY,NIGHT_FOG,NIGHT_MOSTLY_CLOUDY,NIGHT_FOG,NIGHT_BRIEF_SHOWERS,NIGHT_FOG,NIGHT_LIGHT_RAIN_AND_FOG,NIGHT_FOG,FOG,BRIEF_SHOWERS","Onshore,Onshore,Onshore,Cross-shore,Cross-shore,Offshore,Offshore,Offshore,Offshore,Offshore,Offshore,Offshore,Offshore,Offshore,Offshore,Cross-shore",16
5842041f4e65fad6a770888b,2024_03_12,33.379622288757,-117.57894,Church,2.989375,0.87179375,1.1899083333333333,16,16,"MOSTLY_CLEAR,CLEAR,CLEAR,NIGHT_MOSTLY_CLOUDY,NIGHT_CLEAR,NIGHT_MOSTLY_CLOUDY,NIGHT_MOSTLY_CLOUDY,NIGHT_FOG,NIGHT_MOSTLY_CLOUDY,NIGHT_FOG,NIGHT_BRIEF_SHOWERS,NIGHT_FOG,NIGHT_LIGHT_RAIN_AND_FOG,NIGHT_FOG,FOG,BRIEF_SHOWERS","Onshore,Onshore,Onshore,Onshore,Cross-shore,Offshore,Cross-shore,Offshore,Cross-shore,Offshore,Offshore,Offshore,Cross-shore,Offshore,Cross-shore,Onshore",16
5842041f4e65fad6a770888d,2024_03_12,21.679,-158.042,Sunset Beach,3.9375,2.17715625,2.63570625,26,25,"BRIEF_SHOWERS,OVERCAST,BRIEF_SHOWERS,CLEAR,BRIEF_SHOWERS,MOSTLY_CLOUDY,NIGHT_CLEAR,NIGHT_BRIEF_SHOWERS,NIGHT_MOSTLY_CLOUDY,NIGHT_SHOWERS,NIGHT_BRIEF_SHOWERS,NIGHT_CLEAR,NIGHT_MOSTLY_CLEAR,NIGHT_MOSTLY_CLEAR,NIGHT_MOSTLY_CLEAR,NIGHT_BRIEF_SHOWERS","Cross-shore,Offshore,Cross-shore,Offshore,Cross-shore,Cross-shore,Cross-shore,Offshore,Cross-shore,Cross-shore,Offshore,Cross-shore,Cross-shore,Cross-shore,Offshore,Offshore",16
5842041f4e65fad6a770888e,2024_03_12,21.670550036401,-158.0482,Rocky Point,3.5,1.79444375,2.20263125,26,25,"CLEAR,CLEAR,BRIEF_SHOWERS_POSSIBLE,CLEAR,CLEAR,BRIEF_SHOWERS,NIGHT_BRIEF_SHOWERS_POSSIBLE,NIGHT_BRIEF_SHOWERS_POSSIBLE,NIGHT_CLEAR,NIGHT_MOSTLY_CLEAR,NIGHT_MOSTLY_CLEAR,NIGHT_CLEAR,NIGHT_CLEAR,NIGHT_CLEAR,NIGHT_CLEAR,NIGHT_BRIEF_SHOWERS","Cross-shore,Cross-shore,Cross-shore,Cross-shore,Onshore,Cross-shore,Cross-shore,Cross-shore,Cross-shore,Cross-shore,Cross-shore,Cross-shore,Onshore,Cross-shore,Offshore,Cross-shore",16
5842041f4e65fad6a770888f,2024_03_12,21.668,-158.05,Chambers,3.25,1.921875,2.298125,24,24,"CLEAR,CLEAR,BRIEF_SHOWERS_POSSIBLE,CLEAR,BRIEF_SHOWERS_POSSIBLE,BRIEF_SHOWERS,NIGHT_BRIEF_SHOWERS_POSSIBLE,NIGHT_BRIEF_SHOWERS_POSSIBLE,NIGHT_CLEAR,NIGHT_MOSTLY_CLEAR,NIGHT_MOSTLY_CLEAR,NIGHT_CLEAR,NIGHT_CLEAR,NIGHT_CLEAR,NIGHT_CLEAR,NIGHT_BRIEF_SHOWERS","Cross-shore,Cross-shore,Cross-shore,Cross-shore,Onshore,Cross-shore,Offshore,Offshore,Cross-shore,Offshore,Offshore,Offshore,Cross-shore,Cross-shore,Offshore,Offshore",16
5842041f4e65fad6a7708890,2024_03_12,21.66522,-158.0526,Pipeline,4,2.2380375,2.68153125,26,25,"CLEAR,CLEAR,BRIEF_SHOWERS_POSSIBLE,CLEAR,BRIEF_SHOWERS_POSSIBLE,BRIEF_SHOWERS,NIGHT_BRIEF_SHOWERS_POSSIBLE,NIGHT_BRIEF_SHOWERS_POSSIBLE,NIGHT_CLEAR,NIGHT_MOSTLY_CLEAR,NIGHT_MOSTLY_CLEAR,NIGHT_CLEAR,NIGHT_CLEAR,NIGHT_CLEAR,NIGHT_CLEAR,NIGHT_BRIEF_SHOWERS","Cross-shore,Cross-shore,Cross-shore,Cross-shore,Cross-shore,Cross-shore,Cross-shore,Offshore,Cross-shore,Cross-shore,Cross-shore,Cross-shore,Cross-shore,Cross-shore,Offshore,Offshore",16
5842041f4e65fad6a7708891,2024_03_12,21.665,-158.054,Backdoor,3.8125,2.2380375,2.68153125,26,25,"CLEAR,CLEAR,BRIEF_SHOWERS_POSSIBLE,CLEAR,BRIEF_SHOWERS_POSSIBLE,BRIEF_SHOWERS,NIGHT_BRIEF_SHOWERS_POSSIBLE,NIGHT_BRIEF_SHOWERS_POSSIBLE,NIGHT_CLEAR,NIGHT_MOSTLY_CLEAR,NIGHT_MOSTLY_CLEAR,NIGHT_CLEAR,NIGHT_CLEAR,NIGHT_CLEAR,NIGHT_CLEAR,NIGHT_BRIEF_SHOWERS","Cross-shore,Cross-shore,Cross-shore,Cross-shore,Cross-shore,Cross-shore,Cross-shore,Offshore,Cross-shore,Cross-shore,Cross-shore,Cross-shore,Cross-shore,Offshore,Offshore,Offshore",16
5842041f4e65fad6a7708892,2024_03_12,21.662,-158.057,Rockpile,3,2,2.39,24,24,"CLEAR,CLEAR,BRIEF_SHOWERS_POSSIBLE,CLEAR,BRIEF_SHOWERS_POSSIBLE,BRIEF_SHOWERS,NIGHT_BRIEF_SHOWERS_POSSIBLE,NIGHT_BRIEF_SHOWERS_POSSIBLE,NIGHT_CLEAR,NIGHT_MOSTLY_CLEAR,NIGHT_MOSTLY_CLEAR,NIGHT_CLEAR,NIGHT_CLEAR,NIGHT_CLEAR,NIGHT_CLEAR,NIGHT_BRIEF_SHOWERS","Cross-shore,Cross-shore,Cross-shore,Cross-shore,Cross-shore,Cross-shore,Cross-shore,Cross-shore,Cross-shore,Cross-shore,Offshore,Cross-shore,Onshore,Cross-shore,Offshore,Cross-shore",16
5842041f4e65fad6a7708893,2024_03_12,21.65870453806827,-158.06058,Log Cabins,3.125,1.633125,1.95125,24,24,"CLEAR,CLEAR,BRIEF_SHOWERS_POSSIBLE,CLEAR,BRIEF_SHOWERS_POSSIBLE,BRIEF_SHOWERS,NIGHT_BRIEF_SHOWERS_POSSIBLE,NIGHT_BRIEF_SHOWERS_POSSIBLE,NIGHT_CLEAR,NIGHT_MOSTLY_CLEAR,NIGHT_MOSTLY_CLEAR,NIGHT_CLEAR,NIGHT_CLEAR,NIGHT_CLEAR,NIGHT_CLEAR,NIGHT_BRIEF_SHOWERS","Cross-shore,Cross-shore,Cross-shore,Cross-shore,Cross-shore,Cross-shore,Cross-shore,Cross-shore,Cross-shore,Cross-shore,Cross-shore,Cross-shore,Cross-shore,Offshore,Offshore,Offshore",16
5842041f4e65fad6a7708894,2024_03_12,21.66203493640557,-158.05495,Off-The-Wall,3.125,2.036875,2.43375,24,24,"CLEAR,CLEAR,BRIEF_SHOWERS_POSSIBLE,CLEAR,CLEAR,BRIEF_SHOWERS,NIGHT_BRIEF_SHOWERS_POSSIBLE,NIGHT_BRIEF_SHOWERS_POSSIBLE,NIGHT_CLEAR,NIGHT_MOSTLY_CLEAR,NIGHT_MOSTLY_CLEAR,NIGHT_CLEAR,NIGHT_CLEAR,NIGHT_CLEAR,NIGHT_CLEAR,NIGHT_BRIEF_SHOWERS","Cross-shore,Cross-shore,Cross-shore,Cross-shore,Onshore,Cross-shore,Cross-shore,Offshore,Cross-shore,Cross-shore,Cross-shore,Cross-shore,Cross-shore,Cross-shore,Offshore,Offshore",16
5842041f4e65fad6a7708895,2024_03_12,21.643,-158.067,Waimea Bay,NA,2.23381875,2.72794375,26,25,"CLEAR,CLEAR,BRIEF_SHOWERS_POSSIBLE,CLEAR,BRIEF_SHOWERS_POSSIBLE,BRIEF_SHOWERS,NIGHT_BRIEF_SHOWERS_POSSIBLE,NIGHT_BRIEF_SHOWERS_POSSIBLE,NIGHT_CLEAR,NIGHT_MOSTLY_CLEAR,NIGHT_MOSTLY_CLEAR,NIGHT_CLEAR,NIGHT_CLEAR,NIGHT_CLEAR,NIGHT_CLEAR,NIGHT_BRIEF_SHOWERS","Offshore,Offshore,Offshore,Offshore,Cross-shore,Cross-shore,Cross-shore,Offshore,Cross-shore,Cross-shore,Cross-shore,Cross-shore,Cross-shore,Offshore,Offshore,Offshore",16
5842041f4e65fad6a7708896,2024_03_12,21.622,-158.087,Hultin's,4,2.6721,3.25200625,26,25,"CLEAR,CLEAR,CLEAR,CLEAR,CLEAR,MOSTLY_CLOUDY,NIGHT_CLEAR,NIGHT_CLEAR,NIGHT_MOSTLY_CLOUDY,NIGHT_MOSTLY_CLEAR,NIGHT_BRIEF_SHOWERS,NIGHT_MOSTLY_CLEAR,NIGHT_CLEAR,NIGHT_CLEAR,NIGHT_CLEAR,NIGHT_MOSTLY_CLOUDY","Offshore,Offshore,Offshore,Offshore,Offshore,Offshore,Offshore,Offshore,Offshore,Offshore,Offshore,Offshore,Offshore,Offshore,Offshore,Offshore",16
5842041f4e65fad6a7708897,2024_03_12,21.623,-158.085,Jocko's,3,1.62625,1.943125,24,24,"CLEAR,CLEAR,CLEAR,CLEAR,CLEAR,MOSTLY_CLOUDY,NIGHT_CLEAR,NIGHT_CLEAR,NIGHT_MOSTLY_CLOUDY,NIGHT_MOSTLY_CLEAR,NIGHT_BRIEF_SHOWERS,NIGHT_MOSTLY_CLEAR,NIGHT_CLEAR,NIGHT_CLEAR,NIGHT_CLEAR,NIGHT_MOSTLY_CLOUDY","Cross-shore,Cross-shore,Cross-shore,Cross-shore,Cross-shore,Cross-shore,Cross-shore,Cross-shore,Onshore,Cross-shore,Cross-shore,Cross-shore,Cross-shore,Cross-shore,Cross-shore,Cross-shore",16
5842041f4e65fad6a7708898,2024_03_12,21.62,-158.088,Laniakea,3.875,1.556475,1.8715312499999999,26,25,"CLEAR,CLEAR,CLEAR,CLEAR,CLEAR,MOSTLY_CLOUDY,NIGHT_CLEAR,NIGHT_CLEAR,NIGHT_MOSTLY_CLOUDY,NIGHT_MOSTLY_CLEAR,NIGHT_BRIEF_SHOWERS,NIGHT_MOSTLY_CLEAR,NIGHT_CLEAR,NIGHT_CLEAR,NIGHT_CLEAR,NIGHT_MOSTLY_CLOUDY","Offshore,Offshore,Offshore,Offshore,Offshore,Offshore,Offshore,Offshore,Cross-shore,Offshore,Offshore,Offshore,Offshore,Offshore,Offshore,Offshore",16
5842041f4e65fad6a7708899,2024_03_12,21.625,-158.083,Chun's,3.8125,1.710625,2.043125,24,24,"CLEAR,CLEAR,CLEAR,CLEAR,CLEAR,MOSTLY_CLOUDY,NIGHT_CLEAR,NIGHT_CLEAR,NIGHT_MOSTLY_CLOUDY,NIGHT_MOSTLY_CLEAR,NIGHT_BRIEF_SHOWERS,NIGHT_MOSTLY_CLEAR,NIGHT_CLEAR,NIGHT_CLEAR,NIGHT_CLEAR,NIGHT_MOSTLY_CLOUDY","Offshore,Offshore,Offshore,Offshore,Offshore,Offshore,Offshore,Offshore,Offshore,Offshore,Offshore,Offshore,Offshore,Offshore,Offshore,Offshore",16
5842041f4e65fad6a770889c,2024_03_12,21.286357895152136,-157.8515,South Shore - Ala Moana Park,2,0.53125,0.836875,24,24,"CLEAR,CLEAR,SHOWERS,MOSTLY_CLOUDY,CLEAR,BRIEF_SHOWERS,NIGHT_MOSTLY_CLOUDY,NIGHT_MOSTLY_CLOUDY,NIGHT_MOSTLY_CLOUDY,NIGHT_MOSTLY_CLOUDY,NIGHT_MOSTLY_CLOUDY,NIGHT_MOSTLY_CLOUDY,NIGHT_MOSTLY_CLOUDY,NIGHT_MOSTLY_CLOUDY,NIGHT_MOSTLY_CLOUDY,NIGHT_CLEAR","Offshore,Offshore,Offshore,Offshore,Offshore,Offshore,Offshore,Offshore,Offshore,Offshore,Offshore,Offshore,Offshore,Offshore,Offshore,Offshore",16
5842041f4e65fad6a770889d,2024_03_12,19.606,-155.978,Banyans,2.4375,0.41214375000000003,0.716575,26,25,"OVERCAST,CLOUDY,CLEAR,CLEAR,CLEAR,MOSTLY_CLOUDY,NIGHT_MOSTLY_CLOUDY,NIGHT_OVERCAST,NIGHT_MOSTLY_CLOUDY,NIGHT_CLEAR,NIGHT_CLEAR,NIGHT_MOSTLY_CLEAR,NIGHT_CLEAR,NIGHT_CLEAR,NIGHT_CLEAR,NIGHT_CLEAR","Onshore,Onshore,Cross-shore,Onshore,Onshore,Cross-shore,Cross-shore,Cross-shore,Cross-shore,Cross-shore,Cross-shore,Offshore,Cross-shore,Offshore,Cross-shore,Cross-shore",16
5842041f4e65fad6a770889e,2024_03_12,20.029,-155.831,Kawaihae,1.9375,0.4444,0.58301625,24.3125,24.3125,"CLEAR,CLEAR,MOSTLY_CLOUDY,MOSTLY_CLOUDY,CLEAR,MOSTLY_CLOUDY,NIGHT_MOSTLY_CLOUDY,NIGHT_CLEAR,NIGHT_MOSTLY_CLEAR,NIGHT_MOSTLY_CLEAR,NIGHT_CLEAR,NIGHT_CLEAR,NIGHT_MOSTLY_CLEAR,NIGHT_MOSTLY_CLEAR,NIGHT_SHOWERS,NIGHT_MOSTLY_CLEAR","Onshore,Onshore,Onshore,Onshore,Onshore,Onshore,Cross-shore,Offshore,Onshore,Cross-shore,Cross-shore,Cross-shore,Offshore,Offshore,Offshore,Cross-shore",16
5842041f4e65fad6a770889f,2024_03_12,33.07541383424675,-117.3105,Grandview,3,0.92875,1.136875,15,15,"MOSTLY_CLOUDY,CLEAR,CLEAR,NIGHT_CLEAR,NIGHT_CLEAR,NIGHT_MOSTLY_CLOUDY,NIGHT_OVERCAST,NIGHT_OVERCAST,NIGHT_CLOUDY,NIGHT_MOSTLY_CLOUDY,NIGHT_BRIEF_SHOWERS,NIGHT_FOG,NIGHT_FOG,NIGHT_FOG,FOG,CLEAR","Onshore,Onshore,Onshore,Onshore,Onshore,Cross-shore,Cross-shore,Cross-shore,Offshore,Offshore,Offshore,Offshore,Offshore,Cross-shore,Offshore,Offshore",16
5842041f4e65fad6a77088a0,2024_03_12,33.065267421296596,-117.30577,Beacons,2.8125,0.934375,1.139375,15,15,"MOSTLY_CLOUDY,CLEAR,CLEAR,NIGHT_CLEAR,NIGHT_CLEAR,NIGHT_MOSTLY_CLOUDY,NIGHT_OVERCAST,NIGHT_OVERCAST,NIGHT_CLOUDY,NIGHT_MOSTLY_CLOUDY,NIGHT_BRIEF_SHOWERS,NIGHT_FOG,NIGHT_FOG,NIGHT_FOG,FOG,CLEAR","Onshore,Onshore,Onshore,Onshore,Cross-shore,Onshore,Onshore,Onshore,Onshore,Offshore,Offshore,Offshore,Offshore,Offshore,Offshore,Offshore",16
5842041f4e65fad6a77088a2,2024_03_12,21.252,-157.805,Diamond Head,3,0.91912453125,1.2349265625,26,25,"CLEAR,MOSTLY_CLOUDY,MOSTLY_CLOUDY,MOSTLY_CLOUDY,CLEAR,BRIEF_SHOWERS,NIGHT_MOSTLY_CLOUDY,NIGHT_MOSTLY_CLOUDY,NIGHT_MOSTLY_CLOUDY,NIGHT_MOSTLY_CLOUDY,NIGHT_MOSTLY_CLOUDY,NIGHT_MOSTLY_CLOUDY,NIGHT_CLEAR,NIGHT_MOSTLY_CLOUDY,NIGHT_MOSTLY_CLEAR,NIGHT_CLEAR","Cross-shore,Cross-shore,Cross-shore,Cross-shore,Cross-shore,Cross-shore,Cross-shore,Cross-shore,Offshore,Cross-shore,Cross-shore,Cross-shore,Cross-shore,Offshore,Offshore,Cross-shore",16
5842041f4e65fad6a77088a3,2024_03_12,33.04694255008896,-117.29966,Moonlight State Beach,2.9375,1,1.194375,15,15,"MOSTLY_CLOUDY,MOSTLY_CLOUDY,CLEAR,NIGHT_CLEAR,NIGHT_CLEAR,NIGHT_MOSTLY_CLOUDY,NIGHT_OVERCAST,NIGHT_OVERCAST,NIGHT_CLOUDY,NIGHT_MOSTLY_CLOUDY,NIGHT_MOSTLY_CLOUDY,NIGHT_FOG,NIGHT_FOG,NIGHT_FOG,FOG,MIST","Onshore,Onshore,Onshore,Onshore,Onshore,Cross-shore,Offshore,Offshore,Offshore,Offshore,Offshore,Offshore,Offshore,Offshore,Offshore,Offshore",16
5842041f4e65fad6a77088a5,2024_03_12,33.08685865930869,-117.31532,Ponto,2.875,1.1525,1.41,15,15,"MOSTLY_CLOUDY,CLEAR,CLEAR,NIGHT_CLEAR,NIGHT_CLEAR,NIGHT_MOSTLY_CLOUDY,NIGHT_OVERCAST,NIGHT_OVERCAST,NIGHT_CLOUDY,NIGHT_MOSTLY_CLOUDY,NIGHT_BRIEF_SHOWERS,NIGHT_FOG,NIGHT_FOG,NIGHT_FOG,FOG,CLEAR","Onshore,Onshore,Onshore,Onshore,Onshore,Onshore,Offshore,Offshore,Offshore,Offshore,Offshore,Offshore,Offshore,Offshore,Offshore,Offshore",16
5842041f4e65fad6a77088a6,2024_03_12,33.130343587871906,-117.33667796442558,Terra Mar Point,3,0.7605729166666667,1.1248958333333332,16,16,"MOSTLY_CLOUDY,MOSTLY_CLOUDY,CLEAR,NIGHT_CLEAR,NIGHT_CLEAR,NIGHT_MOSTLY_CLOUDY,NIGHT_MOSTLY_CLOUDY,NIGHT_OVERCAST,NIGHT_FOG,NIGHT_MOSTLY_CLOUDY,NIGHT_MOSTLY_CLOUDY,NIGHT_MOSTLY_CLOUDY,NIGHT_FOG,NIGHT_FOG,FOG,MIST","Onshore,Onshore,Onshore,Onshore,Cross-shore,Onshore,Onshore,Onshore,Cross-shore,Offshore,Offshore,Offshore,Cross-shore,Cross-shore,Offshore,Offshore",16
5842041f4e65fad6a77088af,2024_03_12,32.95916304183685,-117.26963,Del Mar,2.8125,1.2625,1.50875,16,16,"MOSTLY_CLOUDY,CLEAR,CLEAR,NIGHT_CLOUDY,NIGHT_CLEAR,NIGHT_MOSTLY_CLOUDY,NIGHT_MOSTLY_CLOUDY,NIGHT_CLOUDY,NIGHT_CLOUDY,NIGHT_CLEAR,NIGHT_FOG,NIGHT_BRIEF_SHOWERS,NIGHT_FOG,NIGHT_FOG,FOG,MIST","Onshore,Onshore,Onshore,Onshore,Onshore,Offshore,Offshore,Offshore,Offshore,Offshore,Offshore,Offshore,Offshore,Cross-shore,Offshore,Offshore",16
5842041f4e65fad6a77088b0,2024_03_12,32.97527261243354,-117.2721061331305,Del Mar Rivermouth,2.8125,1.205,1.45875,15.3125,15.3125,"MOSTLY_CLOUDY,CLEAR,CLEAR,NIGHT_CLOUDY,NIGHT_MOSTLY_CLOUDY,NIGHT_MOSTLY_CLOUDY,NIGHT_MOSTLY_CLOUDY,NIGHT_OVERCAST,NIGHT_CLOUDY,NIGHT_CLEAR,NIGHT_FOG,NIGHT_FOG,NIGHT_FOG,NIGHT_FOG,FOG,BRIEF_SHOWERS","Onshore,Onshore,Onshore,Onshore,Onshore,Cross-shore,Offshore,Offshore,Offshore,Offshore,Offshore,Offshore,Offshore,Cross-shore,Offshore,Offshore",16
5842041f4e65fad6a77088b1,2024_03_12,33.01352178146273,-117.28219,Cardiff Reef,3,1.2486979166666667,1.6646875,16,16,"MOSTLY_CLOUDY,CLEAR,CLEAR,NIGHT_CLEAR,NIGHT_CLOUDY,NIGHT_MOSTLY_CLOUDY,NIGHT_OVERCAST,NIGHT_OVERCAST,NIGHT_CLOUDY,NIGHT_MOSTLY_CLOUDY,NIGHT_MOSTLY_CLOUDY,NIGHT_FOG,NIGHT_FOG,NIGHT_FOG,FOG,BRIEF_SHOWERS","Onshore,Onshore,Onshore,Onshore,Cross-shore,Cross-shore,Cross-shore,Cross-shore,Cross-shore,Offshore,Offshore,Offshore,Offshore,Offshore,Cross-shore,Cross-shore",16
5842041f4e65fad6a77088b3,2024_03_12,33.00211185876003,-117.2811,Seaside Reef,3,1.2193229166666666,1.60125,16,16,"MOSTLY_CLOUDY,CLEAR,CLEAR,NIGHT_CLOUDY,NIGHT_CLEAR,NIGHT_CLEAR,NIGHT_MOSTLY_CLOUDY,NIGHT_CLOUDY,NIGHT_CLOUDY,NIGHT_MOSTLY_CLOUDY,NIGHT_FOG,NIGHT_FOG,NIGHT_FOG,NIGHT_FOG,FOG,SHOWERS","Onshore,Onshore,Onshore,Onshore,Cross-shore,Cross-shore,Cross-shore,Cross-shore,Cross-shore,Offshore,Offshore,Offshore,Offshore,Offshore,Onshore,Cross-shore",16
5842041f4e65fad6a77088b4,2024_03_12,33.0341859796287,-117.29552,Swami's,3.301875,1.2847395833333333,1.6176041666666667,16,16,"MOSTLY_CLOUDY,CLEAR,CLEAR,NIGHT_CLEAR,NIGHT_CLOUDY,NIGHT_MOSTLY_CLOUDY,NIGHT_OVERCAST,NIGHT_OVERCAST,NIGHT_CLOUDY,NIGHT_MOSTLY_CLOUDY,NIGHT_MOSTLY_CLOUDY,NIGHT_FOG,NIGHT_FOG,NIGHT_FOG,FOG,BRIEF_SHOWERS","Onshore,Onshore,Onshore,Onshore,Onshore,Cross-shore,Offshore,Offshore,Offshore,Offshore,Offshore,Offshore,Offshore,Offshore,Cross-shore,Cross-shore",16
5842041f4e65fad6a77088b7,2024_03_12,33.04569760260221,-117.2994,D Street,3.0625,1.124375,1.378125,15,15,"MOSTLY_CLOUDY,MOSTLY_CLOUDY,CLEAR,NIGHT_CLEAR,NIGHT_CLEAR,NIGHT_MOSTLY_CLOUDY,NIGHT_OVERCAST,NIGHT_OVERCAST,NIGHT_CLOUDY,NIGHT_MOSTLY_CLOUDY,NIGHT_MOSTLY_CLOUDY,NIGHT_FOG,NIGHT_FOG,NIGHT_FOG,FOG,MIST","Onshore,Onshore,Onshore,Onshore,Onshore,Cross-shore,Offshore,Offshore,Offshore,Offshore,Offshore,Offshore,Offshore,Offshore,Offshore,Onshore",16
5842041f4e65fad6a77088b8,2024_03_12,33.02090944350196,-117.28535,San Elijo State Beach,3,1.0140625,1.37421875,16,16,"MOSTLY_CLOUDY,CLEAR,CLEAR,NIGHT_CLEAR,NIGHT_CLOUDY,NIGHT_MOSTLY_CLOUDY,NIGHT_OVERCAST,NIGHT_OVERCAST,NIGHT_CLOUDY,NIGHT_MOSTLY_CLOUDY,NIGHT_MOSTLY_CLOUDY,NIGHT_FOG,NIGHT_FOG,NIGHT_FOG,FOG,BRIEF_SHOWERS","Onshore,Onshore,Onshore,Onshore,Cross-shore,Cross-shore,Cross-shore,Cross-shore,Cross-shore,Offshore,Offshore,Offshore,Offshore,Offshore,Cross-shore,Cross-shore",16
5842041f4e65fad6a77088c2,2024_03_12,32.80662846492798,-117.2688764333725,PB Point,3.375,1.356875,1.625,16,16,"MOSTLY_CLOUDY,MOSTLY_CLOUDY,MOSTLY_CLOUDY,NIGHT_OVERCAST,NIGHT_OVERCAST,NIGHT_MOSTLY_CLOUDY,NIGHT_MOSTLY_CLOUDY,NIGHT_MOSTLY_CLOUDY,NIGHT_FOG,NIGHT_FOG,NIGHT_FOG,NIGHT_FOG,NIGHT_FOG,NIGHT_FOG,FOG,MIST","Cross-shore,Cross-shore,Cross-shore,Cross-shore,Offshore,Offshore,Offshore,Offshore,Offshore,Cross-shore,Cross-shore,Offshore,Offshore,Onshore,Cross-shore,Cross-shore",16
5842041f4e65fad6a77088c4,2024_03_12,32.8060476681448,-117.26479,Old Man's at Tourmaline,3.375,1.0975,1.326875,16,16,"MOSTLY_CLOUDY,MOSTLY_CLOUDY,MOSTLY_CLOUDY,NIGHT_OVERCAST,NIGHT_OVERCAST,NIGHT_MOSTLY_CLOUDY,NIGHT_MOSTLY_CLOUDY,NIGHT_MOSTLY_CLOUDY,NIGHT_FOG,NIGHT_FOG,NIGHT_FOG,NIGHT_FOG,NIGHT_FOG,NIGHT_FOG,FOG,MIST","Cross-shore,Cross-shore,Cross-shore,Cross-shore,Offshore,Offshore,Offshore,Offshore,Offshore,Cross-shore,Cross-shore,Offshore,Offshore,Onshore,Cross-shore,Onshore",16
5842041f4e65fad6a77088cb,2024_03_12,32.557056711256,-117.1327445020322,Tijuana Slough,2.75,1.006875,1.20375,15,15,"MOSTLY_CLEAR,CLEAR,CLEAR,NIGHT_OVERCAST,NIGHT_MOSTLY_CLOUDY,NIGHT_CLOUDY,NIGHT_OVERCAST,NIGHT_MOSTLY_CLOUDY,NIGHT_FOG,NIGHT_MOSTLY_CLOUDY,NIGHT_FOG,NIGHT_FOG,NIGHT_FOG,NIGHT_FOG,LIGHT_RAIN_AND_FOG,MIST","Onshore,Onshore,Cross-shore,Cross-shore,Cross-shore,Cross-shore,Cross-shore,Cross-shore,Offshore,Offshore,Offshore,Offshore,Offshore,Offshore,Offshore,Onshore",16
5842041f4e65fad6a77088cc,2024_03_12,32.863,-117.257,La Jolla Shores,2.4375,0.999375,1.245,16,16,"MOSTLY_CLOUDY,MOSTLY_CLOUDY,CLEAR,NIGHT_CLOUDY,NIGHT_CLOUDY,NIGHT_MOSTLY_CLOUDY,NIGHT_MOSTLY_CLOUDY,NIGHT_OVERCAST,NIGHT_MOSTLY_CLOUDY,NIGHT_FOG,NIGHT_FOG,NIGHT_BRIEF_SHOWERS,NIGHT_LIGHT_RAIN_AND_FOG,NIGHT_FOG,FOG,MIST","Onshore,Onshore,Onshore,Onshore,Onshore,Onshore,Onshore,Onshore,Onshore,Cross-shore,Onshore,Onshore,Onshore,Onshore,Onshore,Onshore",16
5842041f4e65fad6a77088ce,2024_03_12,32.67443657790586,-117.17421316238693,Coronado Beach,2.8125,0.864375,1.120625,15,15,"CLEAR,CLEAR,CLEAR,NIGHT_CLOUDY,NIGHT_OVERCAST,NIGHT_CLOUDY,NIGHT_CLOUDY,NIGHT_CLOUDY,NIGHT_FOG,NIGHT_FOG,NIGHT_FOG,NIGHT_MOSTLY_CLOUDY,NIGHT_OVERCAST,NIGHT_BRIEF_SHOWERS,FOG,BRIEF_SHOWERS","Cross-shore,Cross-shore,Offshore,Offshore,Offshore,Offshore,Offshore,Offshore,Offshore,Offshore,Cross-shore,Cross-shore,Cross-shore,Cross-shore,Cross-shore,Onshore",16
5842041f4e65fad6a77088cf,2024_03_12,33.40484417640326,-117.60749,San Clemente State Beach,2.6875,0.824375,1.066875,15,15,"MOSTLY_CLEAR,CLEAR,CLEAR,NIGHT_MOSTLY_CLOUDY,NIGHT_MOSTLY_CLOUDY,NIGHT_MOSTLY_CLOUDY,NIGHT_MOSTLY_CLOUDY,NIGHT_MOSTLY_CLOUDY,NIGHT_CLEAR,NIGHT_MOSTLY_CLOUDY,NIGHT_BRIEF_SHOWERS,NIGHT_FOG,NIGHT_FOG,NIGHT_FOG,FOG,MIST","Onshore,Onshore,Onshore,Cross-shore,Cross-shore,Cross-shore,Offshore,Cross-shore,Cross-shore,Offshore,Onshore,Onshore,Onshore,Onshore,Onshore,Onshore",16
5842041f4e65fad6a77088d5,2024_03_12,33.4663042002114,-117.7168352817103,Strands,3,1.036275,1.393475,15,15,"CLEAR,CLEAR,CLEAR,NIGHT_MOSTLY_CLOUDY,NIGHT_MOSTLY_CLOUDY,NIGHT_MOSTLY_CLOUDY,NIGHT_MOSTLY_CLOUDY,NIGHT_FOG,NIGHT_FOG,NIGHT_LIGHT_RAIN_AND_FOG,NIGHT_FOG,NIGHT_FOG,NIGHT_FOG,NIGHT_MIST,MIST,MOSTLY_CLOUDY","Onshore,Onshore,Onshore,Onshore,Cross-shore,Cross-shore,Onshore,Onshore,Onshore,Onshore,Onshore,Onshore,Onshore,Onshore,Onshore,Onshore",16
5842041f4e65fad6a77088d7,2024_03_12,33.4609858001748,-117.68535,Doheny State Beach,2.073125,0.17589166666666667,0.4790770833333333,16,16,"CLEAR,CLEAR,MOSTLY_CLEAR,NIGHT_MOSTLY_CLOUDY,NIGHT_MOSTLY_CLOUDY,NIGHT_MOSTLY_CLOUDY,NIGHT_MOSTLY_CLOUDY,NIGHT_MOSTLY_CLOUDY,NIGHT_FOG,NIGHT_FOG,NIGHT_FOG,NIGHT_FOG,NIGHT_FOG,NIGHT_FOG,MIST,MIST","Onshore,Onshore,Onshore,Cross-shore,Cross-shore,Offshore,Offshore,Offshore,Offshore,Cross-shore,Offshore,Offshore,Offshore,Cross-shore,Onshore,Onshore",16
5842041f4e65fad6a77088dc,2024_03_12,33.50894790083017,-117.75243,Aliso Creek,2.125,0.696875,1.00125,15,15,"CLEAR,CLEAR,MOSTLY_CLEAR,NIGHT_MOSTLY_CLOUDY,NIGHT_CLEAR,NIGHT_CLEAR,NIGHT_CLEAR,NIGHT_FOG,NIGHT_FOG,NIGHT_LIGHT_RAIN,NIGHT_FOG,NIGHT_FOG,NIGHT_CLOUDY,NIGHT_MIST,MIST,MOSTLY_CLOUDY","Onshore,Onshore,Onshore,Cross-shore,Cross-shore,Cross-shore,Cross-shore,Onshore,Onshore,Onshore,Onshore,Onshore,Onshore,Onshore,Onshore,Onshore",16
5842041f4e65fad6a77088dd,2024_03_12,33.5326591767067,-117.77764,Brooks Street,2.0625,0.4625,0.765,15,15,"CLEAR,CLEAR,MOSTLY_CLEAR,NIGHT_CLEAR,NIGHT_MIST,NIGHT_CLEAR,NIGHT_CLEAR,NIGHT_FOG,NIGHT_CLOUDY,NIGHT_MIST,NIGHT_FOG,NIGHT_CLOUDY,NIGHT_CLOUDY,NIGHT_OVERCAST,MIST,MIST","Onshore,Onshore,Onshore,Cross-shore,Cross-shore,Cross-shore,Cross-shore,Onshore,Cross-shore,Onshore,Cross-shore,Onshore,Onshore,Onshore,Onshore,Onshore",16
5842041f4e65fad6a77088de,2024_03_12,33.53561225884637,-117.7799,Thalia Street,2.0625,0.51375,0.8175,15,15,"CLEAR,CLEAR,MOSTLY_CLEAR,NIGHT_CLEAR,NIGHT_CLEAR,NIGHT_CLEAR,NIGHT_CLEAR,NIGHT_FOG,NIGHT_CLOUDY,NIGHT_MIST,NIGHT_FOG,NIGHT_CLOUDY,NIGHT_CLOUDY,NIGHT_OVERCAST,MIST,MIST","Onshore,Onshore,Onshore,Cross-shore,Cross-shore,Cross-shore,Cross-shore,Onshore,Cross-shore,Onshore,Cross-shore,Onshore,Onshore,Onshore,Onshore,Onshore",16
5842041f4e65fad6a77088e3,2024_03_12,33.54268310353641,-117.7916,Rockpile,2.9375,0.909375,1.09625,15,15,"CLEAR,CLEAR,MOSTLY_CLEAR,NIGHT_CLEAR,NIGHT_MIST,NIGHT_CLEAR,NIGHT_CLEAR,NIGHT_FOG,NIGHT_CLOUDY,NIGHT_MIST,NIGHT_FOG,NIGHT_CLOUDY,NIGHT_CLOUDY,NIGHT_OVERCAST,MIST,MIST","Onshore,Onshore,Cross-shore,Cross-shore,Cross-shore,Cross-shore,Cross-shore,Cross-shore,Cross-shore,Cross-shore,Cross-shore,Cross-shore,Onshore,Onshore,Onshore,Onshore",16
5842041f4e65fad6a77088e4,2024_03_12,33.7368459504689,-118.10342,"Seal Beach Pier, Southside",1.5625,0.225625,0.53,15,15,"CLEAR,CLEAR,CLEAR,NIGHT_MOSTLY_CLEAR,NIGHT_MOSTLY_CLEAR,NIGHT_CLEAR,NIGHT_CLEAR,NIGHT_CLEAR,NIGHT_CLOUDY,NIGHT_FOG,NIGHT_MOSTLY_CLOUDY,NIGHT_MOSTLY_CLOUDY,NIGHT_MIST,NIGHT_MOSTLY_CLOUDY,MOSTLY_CLOUDY,CLEAR","Onshore,Onshore,Onshore,Onshore,Onshore,Onshore,Onshore,Cross-shore,Onshore,Onshore,Onshore,Onshore,Cross-shore,Cross-shore,Offshore,Offshore",16
5842041f4e65fad6a77088e5,2024_03_12,33.73933701820233,-118.117,Ray Bay,1.625,0.231875,0.535625,15,15,"CLEAR,CLEAR,CLEAR,NIGHT_MOSTLY_CLEAR,NIGHT_CLEAR,NIGHT_MOSTLY_CLEAR,NIGHT_CLEAR,NIGHT_MOSTLY_CLOUDY,NIGHT_CLOUDY,NIGHT_FOG,NIGHT_MOSTLY_CLOUDY,NIGHT_MOSTLY_CLOUDY,NIGHT_BRIEF_SHOWERS,NIGHT_MIST,MIST,CLOUDY","Onshore,Onshore,Onshore,Onshore,Onshore,Onshore,Onshore,Onshore,Onshore,Onshore,Onshore,Onshore,Cross-shore,Cross-shore,Offshore,Offshore",16
5842041f4e65fad6a77088e7,2024_03_12,33.728733,-118.08982,Surfside,2.5625,0.738125,0.990625,15.3125,15.3125,"CLEAR,CLEAR,CLEAR,NIGHT_MOSTLY_CLEAR,NIGHT_MOSTLY_CLOUDY,NIGHT_MOSTLY_CLOUDY,NIGHT_MOSTLY_CLEAR,NIGHT_CLEAR,NIGHT_OVERCAST,NIGHT_FOG,NIGHT_MOSTLY_CLOUDY,NIGHT_MOSTLY_CLOUDY,NIGHT_MOSTLY_CLOUDY,NIGHT_MOSTLY_CLOUDY,MOSTLY_CLOUDY,OVERCAST","Onshore,Onshore,Onshore,Onshore,Onshore,Onshore,Onshore,Onshore,Onshore,Onshore,Onshore,Onshore,Cross-shore,Cross-shore,Offshore,Offshore",16
5842041f4e65fad6a77088e8,2024_03_12,33.68760321488161,-118.04236,Bolsa Chica State Beach,2.426875,1.0973312499999999,1.3749833333333332,15,15,"CLEAR,CLEAR,CLEAR,NIGHT_CLEAR,NIGHT_MOSTLY_CLOUDY,NIGHT_BRIEF_SHOWERS,NIGHT_MOSTLY_CLOUDY,NIGHT_MOSTLY_CLOUDY,NIGHT_CLOUDY,NIGHT_FOG,NIGHT_OVERCAST,NIGHT_MOSTLY_CLOUDY,NIGHT_OVERCAST,NIGHT_OVERCAST,OVERCAST,OVERCAST","Onshore,Onshore,Onshore,Onshore,Onshore,Onshore,Onshore,Onshore,Onshore,Onshore,Onshore,Onshore,Onshore,Onshore,Onshore,Onshore",16
5842041f4e65fad6a77088ea,2024_03_12,33.66704400178788,-118.0192,North HB Streets,2.239375,1.0930083333333334,1.4127937499999998,15,15,"CLEAR,CLEAR,CLEAR,NIGHT_CLEAR,NIGHT_CLEAR,NIGHT_MOSTLY_CLEAR,NIGHT_MOSTLY_CLOUDY,NIGHT_CLEAR,NIGHT_OVERCAST,NIGHT_FOG,NIGHT_CLOUDY,NIGHT_CLOUDY,NIGHT_OVERCAST,NIGHT_OVERCAST,MIST,OVERCAST","Onshore,Onshore,Onshore,Onshore,Cross-shore,Cross-shore,Onshore,Onshore,Onshore,Onshore,Onshore,Onshore,Onshore,Onshore,Onshore,Onshore",16
5842041f4e65fad6a77088ed,2024_03_12,33.65475101379567,-118.00291,Huntington Beach Pier Southside,2,1.0688479166666667,1.4086041666666667,15,15,"CLEAR,CLEAR,CLEAR,NIGHT_MOSTLY_CLEAR,NIGHT_CLEAR,NIGHT_CLEAR,NIGHT_MOSTLY_CLOUDY,NIGHT_MOSTLY_CLOUDY,NIGHT_FOG,NIGHT_FOG,NIGHT_FOG,NIGHT_OVERCAST,NIGHT_OVERCAST,NIGHT_OVERCAST,MIST,MIST","Onshore,Onshore,Onshore,Onshore,Onshore,Onshore,Onshore,Onshore,Onshore,Onshore,Onshore,Onshore,Onshore,Onshore,Onshore,Offshore",16
5842041f4e65fad6a77088ee,2024_03_12,33.62778647706099,-117.95939,River Jetties,2,0.9564979166666667,1.3013875,15,15,"CLEAR,CLEAR,MOSTLY_CLEAR,NIGHT_CLEAR,NIGHT_MOSTLY_CLOUDY,NIGHT_CLEAR,NIGHT_MOSTLY_CLOUDY,NIGHT_MOSTLY_CLOUDY,NIGHT_MIST,NIGHT_FOG,NIGHT_OVERCAST,NIGHT_OVERCAST,NIGHT_OVERCAST,NIGHT_OVERCAST,OVERCAST,MIST","Onshore,Onshore,Onshore,Onshore,Onshore,Onshore,Onshore,Onshore,Onshore,Onshore,Onshore,Onshore,Onshore,Onshore,Onshore,Cross-shore",16
5842041f4e65fad6a77088f2,2024_03_12,33.605165797643664,-117.92500376701355,Newport Point,2.25,0.74375,1.02375,15.3125,15.3125,"CLEAR,CLEAR,CLEAR,NIGHT_CLEAR,NIGHT_CLEAR,NIGHT_CLEAR,NIGHT_FOG,NIGHT_MOSTLY_CLOUDY,NIGHT_DRIZZLE,NIGHT_FOG,NIGHT_CLOUDY,NIGHT_CLOUDY,NIGHT_CLOUDY,NIGHT_CLOUDY,DRIZZLE,MIST","Onshore,Onshore,Cross-shore,Cross-shore,Cross-shore,Cross-shore,Onshore,Cross-shore,Cross-shore,Cross-shore,Cross-shore,Onshore,Onshore,Onshore,Onshore,Onshore",16
5842041f4e65fad6a77088f3,2024_03_12,33.58982984726977,-117.87713,Corona del Mar,2,0.26788875,0.41857625,15,15,"CLEAR,CLEAR,MOSTLY_CLEAR,NIGHT_CLEAR,NIGHT_CLEAR,NIGHT_MOSTLY_CLEAR,NIGHT_FOG,NIGHT_MOSTLY_CLOUDY,NIGHT_MIST,NIGHT_FOG,NIGHT_FOG,NIGHT_CLOUDY,NIGHT_CLOUDY,NIGHT_OVERCAST,MIST,MIST","Onshore,Onshore,Onshore,Onshore,Onshore,Onshore,Onshore,Onshore,Onshore,Onshore,Onshore,Cross-shore,Onshore,Offshore,Offshore,Offshore",16
5842041f4e65fad6a77088f7,2024_03_12,34.00750300824362,-118.4971783496269,Santa Monica Pier,2.1875,0.46,0.7631249999999999,15,15,"MOSTLY_CLEAR,CLEAR,CLEAR,NIGHT_CLEAR,NIGHT_CLEAR,NIGHT_CLEAR,NIGHT_CLEAR,NIGHT_MIST,NIGHT_MIST,NIGHT_CLEAR,NIGHT_MOSTLY_CLOUDY,NIGHT_MOSTLY_CLOUDY,NIGHT_OVERCAST,NIGHT_DRIZZLE,DRIZZLE,MOSTLY_CLOUDY","Onshore,Onshore,Onshore,Onshore,Onshore,Onshore,Onshore,Onshore,Onshore,Onshore,Onshore,Onshore,Onshore,Cross-shore,Offshore,Cross-shore",16
5842041f4e65fad6a77088ff,2024_03_12,33.94070283102945,-118.44321,Dockweiler Beach,2.061875,0.8550802604166667,1.1456494791666667,14,14,"CLEAR,CLEAR,CLEAR,NIGHT_MOSTLY_CLOUDY,NIGHT_CLEAR,NIGHT_MOSTLY_CLEAR,NIGHT_MOSTLY_CLOUDY,NIGHT_CLOUDY,NIGHT_CLOUDY,NIGHT_CLOUDY,NIGHT_MOSTLY_CLOUDY,NIGHT_OVERCAST,NIGHT_MIST,NIGHT_MIST,OVERCAST,CLOUDY","Onshore,Onshore,Onshore,Onshore,Onshore,Onshore,Onshore,Onshore,Onshore,Onshore,Onshore,Onshore,Onshore,Cross-shore,Offshore,Onshore",16
5842041f4e65fad6a7708900,2024_03_12,33.9231846937237,-118.4341465777908,Shitpipe,1.9993750000000001,0.7816145833333333,1.1180208333333332,14,14,"CLEAR,CLEAR,CLEAR,NIGHT_CLEAR,NIGHT_CLEAR,NIGHT_CLEAR,NIGHT_BRIEF_SHOWERS,NIGHT_CLOUDY,NIGHT_MIST,NIGHT_CLOUDY,NIGHT_CLOUDY,NIGHT_OVERCAST,NIGHT_OVERCAST,NIGHT_OVERCAST,OVERCAST,CLOUDY","Onshore,Onshore,Onshore,Onshore,Onshore,Onshore,Onshore,Onshore,Onshore,Onshore,Onshore,Onshore,Onshore,Onshore,Cross-shore,Onshore",16
5842041f4e65fad6a7708902,2024_03_12,33.9108528052242,-118.4279133138721,Hammerland,2.0725,0.9597916666666666,1.285,14,14,"CLEAR,CLEAR,CLEAR,NIGHT_CLEAR,NIGHT_CLEAR,NIGHT_CLEAR,NIGHT_BRIEF_SHOWERS,NIGHT_CLOUDY,NIGHT_MIST,NIGHT_CLOUDY,NIGHT_CLOUDY,NIGHT_OVERCAST,NIGHT_OVERCAST,NIGHT_OVERCAST,OVERCAST,CLOUDY","Onshore,Onshore,Onshore,Onshore,Onshore,Onshore,Onshore,Onshore,Onshore,Onshore,Onshore,Onshore,Onshore,Onshore,Cross-shore,Onshore",16
5842041f4e65fad6a7708904,2024_03_12,33.87201368173932,-118.4075151286262,Hermosa Beach,1.8118750000000001,0.7096354166666666,0.9981770833333333,14,14,"CLEAR,CLEAR,MOSTLY_CLEAR,NIGHT_MOSTLY_CLOUDY,NIGHT_MOSTLY_CLEAR,NIGHT_MOSTLY_CLEAR,NIGHT_MOSTLY_CLOUDY,NIGHT_CLEAR,NIGHT_CLOUDY,NIGHT_CLOUDY,NIGHT_CLOUDY,NIGHT_OVERCAST,NIGHT_OVERCAST,NIGHT_DRIZZLE,CLOUDY,CLOUDY","Onshore,Onshore,Onshore,Onshore,Onshore,Onshore,Onshore,Onshore,Onshore,Onshore,Onshore,Onshore,Onshore,Onshore,Cross-shore,Onshore",16
5842041f4e65fad6a7708906,2024_03_12,33.90129336911256,-118.42184,El Porto,2.061875,1.2147916666666667,1.5615104166666667,14,14,"CLEAR,CLEAR,CLEAR,NIGHT_MOSTLY_CLOUDY,NIGHT_CLEAR,NIGHT_CLEAR,NIGHT_MOSTLY_CLOUDY,NIGHT_OVERCAST,NIGHT_MIST,NIGHT_CLOUDY,NIGHT_CLOUDY,NIGHT_OVERCAST,NIGHT_OVERCAST,NIGHT_OVERCAST,OVERCAST,CLOUDY","Onshore,Onshore,Onshore,Onshore,Onshore,Onshore,Onshore,Onshore,Onshore,Onshore,Onshore,Onshore,Onshore,Onshore,Cross-shore,Onshore",16
5842041f4e65fad6a7708907,2024_03_12,33.87963506431794,-118.41102,Manhattan Beach Pier,2.061875,1.171875,1.4200520833333334,14,14,"CLEAR,CLEAR,CLEAR,NIGHT_MOSTLY_CLOUDY,NIGHT_CLEAR,NIGHT_CLEAR,NIGHT_MOSTLY_CLOUDY,NIGHT_OVERCAST,NIGHT_MIST,NIGHT_CLOUDY,NIGHT_CLOUDY,NIGHT_OVERCAST,NIGHT_OVERCAST,NIGHT_OVERCAST,OVERCAST,CLOUDY","Onshore,Onshore,Onshore,Onshore,Onshore,Onshore,Onshore,Onshore,Onshore,Onshore,Onshore,Onshore,Onshore,Onshore,Cross-shore,Onshore",16
5842041f4e65fad6a7708914,2024_03_12,34.038053387863464,-118.5532,Sunset Point,1.75,0.24625,0.549375,15,15,"CLEAR,CLEAR,CLEAR,NIGHT_CLEAR,NIGHT_CLEAR,NIGHT_CLEAR,NIGHT_CLEAR,NIGHT_MIST,NIGHT_MOSTLY_CLOUDY,NIGHT_CLEAR,NIGHT_CLEAR,NIGHT_MOSTLY_CLOUDY,NIGHT_MOSTLY_CLOUDY,NIGHT_MIST,MIST,CLEAR","Onshore,Onshore,Onshore,Onshore,Offshore,Offshore,Offshore,Cross-shore,Offshore,Offshore,Offshore,Offshore,Offshore,Offshore,Offshore,Cross-shore",16
5842041f4e65fad6a7708920,2024_03_12,33.80930828074364,-118.3933198342649,Haggerty's,1.3125,0.2205,0.40349999999999997,15.3125,15.3125,"CLEAR,CLEAR,MOSTLY_CLEAR,NIGHT_MOSTLY_CLOUDY,NIGHT_MOSTLY_CLOUDY,NIGHT_MOSTLY_CLEAR,NIGHT_MOSTLY_CLOUDY,NIGHT_CLOUDY,NIGHT_CLOUDY,NIGHT_CLOUDY,NIGHT_CLOUDY,NIGHT_MIST,NIGHT_DRIZZLE,NIGHT_CLOUDY,CLOUDY,MIST","Onshore,Onshore,Onshore,Onshore,Onshore,Onshore,Onshore,Onshore,Onshore,Onshore,Onshore,Onshore,Onshore,Cross-shore,Cross-shore,Onshore",16
5842041f4e65fad6a7708921,2024_03_12,33.85044519861206,-118.40048,Redondo Breakwater,2.625,1.13625,1.390625,16,16,"CLEAR,CLEAR,MOSTLY_CLEAR,NIGHT_MOSTLY_CLOUDY,NIGHT_MOSTLY_CLEAR,NIGHT_MOSTLY_CLEAR,NIGHT_MOSTLY_CLOUDY,NIGHT_CLEAR,NIGHT_CLOUDY,NIGHT_CLOUDY,NIGHT_CLOUDY,NIGHT_OVERCAST,NIGHT_OVERCAST,NIGHT_DRIZZLE,CLOUDY,CLOUDY","Onshore,Onshore,Onshore,Onshore,Onshore,Onshore,Onshore,Onshore,Onshore,Onshore,Onshore,Onshore,Onshore,Onshore,Cross-shore,Onshore",16
5842041f4e65fad6a7708927,2024_03_12,33.70877301002487,-118.2840112858389,Cabrillo Beach,2,0.104375,0.40875,15,15,"CLEAR,CLEAR,CLEAR,NIGHT_MOSTLY_CLEAR,NIGHT_MOSTLY_CLOUDY,NIGHT_MOSTLY_CLEAR,NIGHT_CLEAR,NIGHT_MIST,NIGHT_OVERCAST,NIGHT_MOSTLY_CLOUDY,NIGHT_OVERCAST,NIGHT_OVERCAST,NIGHT_OVERCAST,NIGHT_DRIZZLE,DRIZZLE,OVERCAST","Cross-shore,Offshore,Offshore,Offshore,Offshore,Offshore,Offshore,Cross-shore,Offshore,Offshore,Offshore,Cross-shore,Cross-shore,Cross-shore,Onshore,Cross-shore",16
5842041f4e65fad6a770892c,2024_03_12,33.77209986806257,-118.4268428476672,Lunada Bay,1.5,1.039375,1.270625,15,15,"MOSTLY_CLEAR,CLEAR,CLEAR,NIGHT_MOSTLY_CLOUDY,NIGHT_MOSTLY_CLOUDY,NIGHT_MOSTLY_CLEAR,NIGHT_MOSTLY_CLOUDY,NIGHT_MOSTLY_CLOUDY,NIGHT_OVERCAST,NIGHT_CLOUDY,NIGHT_CLOUDY,NIGHT_OVERCAST,NIGHT_DRIZZLE,NIGHT_OVERCAST,CLOUDY,CLOUDY","Onshore,Onshore,Onshore,Onshore,Onshore,Onshore,Onshore,Onshore,Onshore,Cross-shore,Onshore,Onshore,Onshore,Onshore,Onshore,Onshore",16
5842041f4e65fad6a770892d,2024_03_12,33.79294656286144,-118.4070316699825,PV Cove,1.875,0.78281625,1.03645375,15.3125,15.3125,"CLEAR,CLEAR,MOSTLY_CLEAR,NIGHT_MOSTLY_CLOUDY,NIGHT_MOSTLY_CLOUDY,NIGHT_MOSTLY_CLEAR,NIGHT_MOSTLY_CLOUDY,NIGHT_CLOUDY,NIGHT_CLOUDY,NIGHT_CLOUDY,NIGHT_CLOUDY,NIGHT_MIST,NIGHT_DRIZZLE,NIGHT_CLOUDY,CLOUDY,MIST","Onshore,Onshore,Onshore,Onshore,Onshore,Onshore,Onshore,Onshore,Onshore,Onshore,Onshore,Onshore,Onshore,Cross-shore,Cross-shore,Onshore",16
5842041f4e65fad6a7708930,2024_03_12,34.03944902292561,-118.57539,Chart House,1.5625,0.09125,0.395,15,15,"MOSTLY_CLEAR,MOSTLY_CLEAR,MOSTLY_CLEAR,NIGHT_CLEAR,NIGHT_CLEAR,NIGHT_CLEAR,NIGHT_CLEAR,NIGHT_CLEAR,NIGHT_MOSTLY_CLOUDY,NIGHT_MOSTLY_CLOUDY,NIGHT_MIST,NIGHT_FOG,NIGHT_FOG,NIGHT_FOG,CLOUDY,MIST","Cross-shore,Onshore,Onshore,Onshore,Offshore,Offshore,Offshore,Cross-shore,Offshore,Cross-shore,Cross-shore,Offshore,Offshore,Offshore,Offshore,Cross-shore",16
5842041f4e65fad6a7708936,2024_03_12,34.0016731994772,-118.80456,Point Dume,2.166875,0.3901354166666667,0.6952041666666666,15,15,"CLEAR,CLEAR,CLEAR,NIGHT_CLEAR,NIGHT_CLEAR,NIGHT_CLEAR,NIGHT_MOSTLY_CLOUDY,NIGHT_BRIEF_SHOWERS,NIGHT_BRIEF_SHOWERS,NIGHT_MOSTLY_CLOUDY,NIGHT_MOSTLY_CLOUDY,NIGHT_MOSTLY_CLOUDY,NIGHT_MOSTLY_CLOUDY,NIGHT_MOSTLY_CLOUDY,MIST,MOSTLY_CLEAR","Cross-shore,Cross-shore,Cross-shore,Offshore,Offshore,Offshore,Cross-shore,Cross-shore,Offshore,Offshore,Offshore,Onshore,Onshore,Cross-shore,Cross-shore,Cross-shore",16
5842041f4e65fad6a7708937,2024_03_12,34.02587527588963,-118.7554939066114,Latigo Point,2.25,0.330625,0.635,15,15,"CLEAR,CLEAR,CLEAR,NIGHT_CLEAR,NIGHT_CLEAR,NIGHT_CLEAR,NIGHT_CLEAR,NIGHT_CLEAR,NIGHT_CLEAR,NIGHT_CLEAR,NIGHT_CLEAR,NIGHT_MOSTLY_CLOUDY,NIGHT_MIST,NIGHT_MIST,MIST,MOSTLY_CLEAR","Cross-shore,Cross-shore,Offshore,Offshore,Offshore,Offshore,Cross-shore,Cross-shore,Offshore,Offshore,Cross-shore,Onshore,Onshore,Cross-shore,Cross-shore,Cross-shore",16
5842041f4e65fad6a770893f,2024_03_12,34.043762,-118.93294,Leo Carrillo,2.60375,0.6242520833333334,0.9785208333333333,15,15,"CLEAR,CLEAR,CLEAR,NIGHT_CLEAR,NIGHT_MOSTLY_CLEAR,NIGHT_MIST,NIGHT_MIST,NIGHT_CLEAR,NIGHT_CLEAR,NIGHT_CLEAR,NIGHT_CLEAR,NIGHT_CLEAR,NIGHT_CLEAR,NIGHT_CLEAR,MOSTLY_CLEAR,CLEAR","Cross-shore,Cross-shore,Cross-shore,Offshore,Offshore,Offshore,Offshore,Offshore,Offshore,Offshore,Offshore,Offshore,Offshore,Offshore,Offshore,Offshore",16
5842041f4e65fad6a7708941,2024_03_12,36.69388179265737,-121.81289,Marina State Beach,2.5,2.589375,3.0612500000000002,13,13,"MOSTLY_CLOUDY,MOSTLY_CLOUDY,BRIEF_SHOWERS,CLOUDY,NIGHT_MOSTLY_CLOUDY,NIGHT_OVERCAST,NIGHT_MOSTLY_CLOUDY,NIGHT_MOSTLY_CLOUDY,NIGHT_OVERCAST,NIGHT_OVERCAST,NIGHT_CLEAR,NIGHT_MOSTLY_CLOUDY,NIGHT_DRIZZLE,NIGHT_OVERCAST,OVERCAST,MOSTLY_CLOUDY","Onshore,Onshore,Onshore,Onshore,Onshore,Onshore,Onshore,Onshore,Onshore,Onshore,Cross-shore,Offshore,Offshore,Offshore,Offshore,Offshore",16
5842041f4e65fad6a7708944,2024_03_12,34.34145077331085,-119.416999352654,Stanley's,2.5,0.5525,0.858125,14,14,"CLEAR,CLEAR,MOSTLY_CLEAR,MOSTLY_CLEAR,NIGHT_CLOUDY,NIGHT_MIST,NIGHT_CLEAR,NIGHT_CLEAR,NIGHT_MIST,NIGHT_MIST,NIGHT_MIST,NIGHT_MIST,NIGHT_BRIEF_SHOWERS,NIGHT_MIST,MOSTLY_CLOUDY,CLEAR","Onshore,Onshore,Onshore,Onshore,Onshore,Onshore,Onshore,Onshore,Offshore,Offshore,Cross-shore,Cross-shore,Cross-shore,Offshore,Offshore,Cross-shore",16
5842041f4e65fad6a7708945,2024_03_12,34.35113017313915,-119.426921498899,Oil Piers,2.375,0.501875,0.80625,14,14,"CLEAR,CLEAR,MOSTLY_CLEAR,MOSTLY_CLEAR,NIGHT_CLEAR,NIGHT_MIST,NIGHT_CLEAR,NIGHT_CLEAR,NIGHT_MIST,NIGHT_MIST,NIGHT_MIST,NIGHT_MIST,NIGHT_BRIEF_SHOWERS,NIGHT_MIST,MOSTLY_CLOUDY,CLEAR","Onshore,Onshore,Onshore,Onshore,Onshore,Cross-shore,Onshore,Onshore,Offshore,Cross-shore,Onshore,Onshore,Cross-shore,Cross-shore,Offshore,Onshore",16
5842041f4e65fad6a770894c,2024_03_12,34.17876333306018,-119.2399483564372,Oxnard,2.5,1.013125,1.255625,14,14,"CLEAR,CLEAR,CLEAR,CLEAR,NIGHT_MOSTLY_CLOUDY,NIGHT_CLEAR,NIGHT_CLEAR,NIGHT_CLEAR,NIGHT_CLEAR,NIGHT_CLEAR,NIGHT_MIST,NIGHT_FOG,NIGHT_MIST,NIGHT_MIST,MIST,CLEAR","Onshore,Onshore,Onshore,Onshore,Onshore,Onshore,Onshore,Onshore,Onshore,Cross-shore,Offshore,Offshore,Offshore,Offshore,Offshore,Offshore",16
5842041f4e65fad6a7708957,2024_03_12,34.31720331100517,-119.3882324751725,Pitas Point,2.375,0.564375,0.868125,14,14,"MIST,CLEAR,CLEAR,MOSTLY_CLEAR,NIGHT_OVERCAST,NIGHT_CLEAR,NIGHT_CLEAR,NIGHT_CLEAR,NIGHT_CLEAR,NIGHT_CLEAR,NIGHT_CLEAR,NIGHT_MOSTLY_CLEAR,NIGHT_MOSTLY_CLEAR,NIGHT_CLEAR,CLEAR,CLEAR","Onshore,Cross-shore,Cross-shore,Cross-shore,Cross-shore,Cross-shore,Cross-shore,Cross-shore,Offshore,Offshore,Offshore,Offshore,Offshore,Offshore,Cross-shore,Onshore",16
5842041f4e65fad6a7708959,2024_03_12,34.27851754384724,-119.316202617226,Emma Wood,2.125,0.4925,0.7975,14,14,"MIST,MIST,MOSTLY_CLEAR,MOSTLY_CLEAR,NIGHT_CLEAR,NIGHT_CLEAR,NIGHT_CLEAR,NIGHT_CLEAR,NIGHT_CLEAR,NIGHT_CLEAR,NIGHT_CLEAR,NIGHT_CLEAR,NIGHT_CLEAR,NIGHT_MIST,MIST,CLEAR","Onshore,Onshore,Onshore,Onshore,Onshore,Onshore,Onshore,Offshore,Offshore,Offshore,Offshore,Offshore,Offshore,Offshore,Offshore,Offshore",16
5842041f4e65fad6a770895a,2024_03_12,34.35513640390276,-119.4400589884255,Mussel Shoals (aka Little Rincon),2.5625,0.704375,0.971875,14,14,"MIST,CLEAR,MOSTLY_CLEAR,CLEAR,NIGHT_CLEAR,NIGHT_CLEAR,NIGHT_CLEAR,NIGHT_CLEAR,NIGHT_CLEAR,NIGHT_CLEAR,NIGHT_CLEAR,NIGHT_CLEAR,NIGHT_CLEAR,NIGHT_MOSTLY_CLEAR,CLEAR,CLEAR","Onshore,Cross-shore,Onshore,Onshore,Cross-shore,Cross-shore,Onshore,Onshore,Cross-shore,Cross-shore,Onshore,Onshore,Cross-shore,Cross-shore,Offshore,Onshore",16
5842041f4e65fad6a770895e,2024_03_12,34.28991757054902,-119.3366646794652,Summer Beach,2,0.34750000000000003,0.653125,14,14,"MIST,MIST,MOSTLY_CLEAR,MOSTLY_CLEAR,NIGHT_MOSTLY_CLOUDY,NIGHT_CLEAR,NIGHT_CLEAR,NIGHT_CLEAR,NIGHT_CLEAR,NIGHT_CLEAR,NIGHT_CLEAR,NIGHT_CLEAR,NIGHT_CLEAR,NIGHT_MIST,MIST,CLEAR","Onshore,Onshore,Onshore,Onshore,Onshore,Onshore,Onshore,Offshore,Offshore,Offshore,Offshore,Offshore,Offshore,Offshore,Offshore,Offshore",16
5842041f4e65fad6a770895f,2024_03_12,34.30897456105926,-119.3582501170116,Solimar,2.25,0.383125,0.688125,14,14,"MIST,CLEAR,CLEAR,MOSTLY_CLEAR,NIGHT_OVERCAST,NIGHT_CLEAR,NIGHT_CLEAR,NIGHT_CLEAR,NIGHT_CLEAR,NIGHT_CLEAR,NIGHT_CLEAR,NIGHT_MOSTLY_CLEAR,NIGHT_MOSTLY_CLEAR,NIGHT_CLEAR,CLEAR,CLEAR","Onshore,Cross-shore,Cross-shore,Onshore,Cross-shore,Cross-shore,Cross-shore,Cross-shore,Offshore,Offshore,Offshore,Offshore,Offshore,Offshore,Cross-shore,Onshore",16
5842041f4e65fad6a7708960,2024_03_12,34.39836265281686,-119.70213,Leadbetter Point,1.8125,0.065,0.3725,14,14,"CLEAR,CLEAR,CLEAR,CLEAR,NIGHT_CLEAR,NIGHT_CLEAR,NIGHT_CLEAR,NIGHT_CLEAR,NIGHT_CLEAR,NIGHT_CLEAR,NIGHT_CLEAR,NIGHT_CLEAR,NIGHT_CLEAR,NIGHT_CLEAR,CLEAR,MIST","Offshore,Offshore,Offshore,Offshore,Offshore,Cross-shore,Offshore,Offshore,Offshore,Offshore,Offshore,Offshore,Cross-shore,Offshore,Offshore,Cross-shore",16
5842041f4e65fad6a7708961,2024_03_12,34.46052293893899,-120.07328,Refugio,1,0.094375,0.40125,14,14,"CLEAR,CLEAR,CLEAR,CLEAR,NIGHT_CLEAR,NIGHT_CLEAR,NIGHT_CLEAR,NIGHT_CLEAR,NIGHT_CLEAR,NIGHT_CLEAR,NIGHT_CLEAR,NIGHT_CLEAR,NIGHT_CLEAR,NIGHT_CLEAR,CLEAR,CLEAR","Offshore,Offshore,Offshore,Offshore,Offshore,Offshore,Offshore,Offshore,Offshore,Offshore,Offshore,Offshore,Offshore,Offshore,Offshore,Offshore",16
5842041f4e65fad6a7708962,2024_03_12,34.40754276777778,-119.87639,Devereux,2.6875,0.49812500000000004,0.800625,14,14,"MIST,CLEAR,CLEAR,CLEAR,NIGHT_CLEAR,NIGHT_CLEAR,NIGHT_CLEAR,NIGHT_CLEAR,NIGHT_CLEAR,NIGHT_CLEAR,NIGHT_CLEAR,NIGHT_CLEAR,NIGHT_CLEAR,NIGHT_CLEAR,CLEAR,CLEAR","Cross-shore,Offshore,Offshore,Offshore,Offshore,Offshore,Offshore,Offshore,Offshore,Offshore,Offshore,Offshore,Offshore,Offshore,Offshore,Offshore",16
5842041f4e65fad6a7708963,2024_03_12,34.27479983305182,-119.3133222656776,Ventura Overhead,2.3125,0.5325,0.83625,14,14,"MIST,MIST,CLEAR,MOSTLY_CLEAR,NIGHT_CLEAR,NIGHT_CLEAR,NIGHT_CLEAR,NIGHT_CLEAR,NIGHT_CLEAR,NIGHT_CLEAR,NIGHT_CLEAR,NIGHT_CLEAR,NIGHT_MOSTLY_CLEAR,NIGHT_MIST,MIST,MIST","Onshore,Onshore,Onshore,Onshore,Onshore,Onshore,Onshore,Offshore,Offshore,Cross-shore,Offshore,Offshore,Offshore,Offshore,Offshore,Offshore",16
5842041f4e65fad6a7708964,2024_03_12,34.41023236011655,-119.88261,Sands,2.125,0.579375,0.8825,14,14,"MIST,CLEAR,CLEAR,CLEAR,NIGHT_CLEAR,NIGHT_CLEAR,NIGHT_CLEAR,NIGHT_CLEAR,NIGHT_CLEAR,NIGHT_CLEAR,NIGHT_CLEAR,NIGHT_CLEAR,NIGHT_CLEAR,NIGHT_CLEAR,CLEAR,CLEAR","Onshore,Onshore,Onshore,Cross-shore,Cross-shore,Cross-shore,Cross-shore,Cross-shore,Cross-shore,Cross-shore,Cross-shore,Cross-shore,Offshore,Offshore,Offshore,Offshore",16
5842041f4e65fad6a7708966,2024_03_12,34.40450193869233,-119.68752,Sandspit,1,0,0.240625,14,14,"CLEAR,CLEAR,MOSTLY_CLEAR,CLEAR,NIGHT_CLEAR,NIGHT_CLEAR,NIGHT_CLEAR,NIGHT_CLEAR,NIGHT_CLEAR,NIGHT_CLEAR,NIGHT_CLEAR,NIGHT_CLEAR,NIGHT_MIST,NIGHT_MIST,MOSTLY_CLEAR,MIST","Offshore,Offshore,Offshore,Offshore,Offshore,Cross-shore,Offshore,Offshore,Offshore,Offshore,Offshore,Offshore,Offshore,Offshore,Offshore,Cross-shore",16
5842041f4e65fad6a7708967,2024_03_12,34.41549098334453,-119.6375149840203,Hammond's,2,0.08625000000000001,0.38875,14,14,"CLEAR,CLEAR,MOSTLY_CLEAR,CLEAR,NIGHT_CLOUDY,NIGHT_CLEAR,NIGHT_CLEAR,NIGHT_CLEAR,NIGHT_CLEAR,NIGHT_CLEAR,NIGHT_CLEAR,NIGHT_CLEAR,NIGHT_MIST,NIGHT_MIST,BRIEF_SHOWERS,MIST","Cross-shore,Cross-shore,Cross-shore,Offshore,Offshore,Offshore,Offshore,Offshore,Offshore,Cross-shore,Cross-shore,Cross-shore,Onshore,Onshore,Onshore,Onshore",16
5842041f4e65fad6a7708968,2024_03_12,34.45759322742309,-120.0220251867315,El Capitan,1,0.200625,0.504375,14,14,"CLEAR,CLEAR,CLEAR,CLEAR,NIGHT_CLEAR,NIGHT_CLEAR,NIGHT_CLEAR,NIGHT_CLEAR,NIGHT_CLEAR,NIGHT_CLEAR,NIGHT_CLEAR,NIGHT_CLEAR,NIGHT_CLEAR,NIGHT_CLEAR,CLEAR,CLEAR","Offshore,Offshore,Offshore,Offshore,Offshore,Offshore,Offshore,Offshore,Offshore,Offshore,Offshore,Offshore,Offshore,Offshore,Offshore,Offshore",16
5842041f4e65fad6a770896c,2024_03_12,34.405117655616,-119.84317,Campus Point,1.875,0.201875,0.508125,14,14,"CLEAR,CLEAR,CLEAR,CLEAR,NIGHT_CLEAR,NIGHT_CLEAR,NIGHT_CLEAR,NIGHT_CLEAR,NIGHT_CLEAR,NIGHT_CLEAR,NIGHT_CLEAR,NIGHT_CLEAR,NIGHT_CLEAR,NIGHT_CLEAR,CLEAR,CLEAR","Cross-shore,Cross-shore,Offshore,Offshore,Offshore,Offshore,Offshore,Offshore,Offshore,Offshore,Offshore,Offshore,Offshore,Offshore,Offshore,Offshore",16
5842041f4e65fad6a770896e,2024_03_12,34.38935162233354,-119.51955,Carpinteria State Beach,2.6875,0.63375,0.890625,14,14,"MOSTLY_CLEAR,MOSTLY_CLEAR,MOSTLY_CLEAR,CLEAR,NIGHT_CLEAR,NIGHT_CLEAR,NIGHT_CLEAR,NIGHT_CLEAR,NIGHT_CLEAR,NIGHT_CLEAR,NIGHT_CLEAR,NIGHT_CLEAR,NIGHT_CLEAR,NIGHT_CLEAR,CLEAR,CLEAR","Onshore,Onshore,Onshore,Onshore,Offshore,Offshore,Offshore,Offshore,Offshore,Offshore,Offshore,Offshore,Offshore,Offshore,Offshore,Cross-shore",16
5842041f4e65fad6a770896f,2024_03_12,37.48296565175612,-122.4549300127824,Half Moon Bay,2.1875,1.77,2.120625,13,13,"OVERCAST,LIGHT_RAIN,LIGHT_RAIN,BRIEF_SHOWERS,NIGHT_BRIEF_SHOWERS,NIGHT_BRIEF_SHOWERS,NIGHT_DRIZZLE,NIGHT_DRIZZLE,NIGHT_BRIEF_SHOWERS,NIGHT_DRIZZLE,NIGHT_BRIEF_SHOWERS,NIGHT_SHOWERS,NIGHT_SHOWERS,NIGHT_BRIEF_SHOWERS,SHOWERS,HEAVY_SHOWERS","Onshore,Onshore,Onshore,Onshore,Onshore,Onshore,Onshore,Onshore,Onshore,Onshore,Onshore,Onshore,Onshore,Onshore,Onshore,Onshore",16
5842041f4e65fad6a7708970,2024_03_12,37.499,-122.471,Princeton Jetty,2.3125,1.91125,2.281875,13,13,"OVERCAST,OVERCAST,MIST,MIST,NIGHT_OVERCAST,NIGHT_MOSTLY_CLEAR,NIGHT_OVERCAST,NIGHT_LIGHT_RAIN,NIGHT_BRIEF_SHOWERS,NIGHT_RAIN,NIGHT_SHOWERS,NIGHT_SHOWERS,NIGHT_MOSTLY_CLOUDY,NIGHT_BRIEF_SHOWERS,SHOWERS,HEAVY_SHOWERS","Onshore,Onshore,Onshore,Onshore,Onshore,Onshore,Onshore,Onshore,Onshore,Onshore,Onshore,Onshore,Onshore,Onshore,Onshore,Onshore",16
5842041f4e65fad6a7708972,2024_03_12,37.35699547365155,-122.4069534707252,Tunitas Creek,2,3.22375,3.850625,13.3125,13.3125,"DRIZZLE,OVERCAST,OVERCAST,MOSTLY_CLOUDY,NIGHT_BRIEF_SHOWERS,NIGHT_MOSTLY_CLOUDY,NIGHT_MOSTLY_CLOUDY,NIGHT_OVERCAST,NIGHT_MOSTLY_CLOUDY,NIGHT_DRIZZLE,NIGHT_BRIEF_SHOWERS,NIGHT_BRIEF_SHOWERS,NIGHT_MOSTLY_CLOUDY,NIGHT_MOSTLY_CLOUDY,MIST,BRIEF_SHOWERS","Onshore,Onshore,Onshore,Onshore,Onshore,Onshore,Onshore,Onshore,Onshore,Cross-shore,Cross-shore,Onshore,Onshore,Onshore,Onshore,Onshore",16
5842041f4e65fad6a7708974,2024_03_12,37.54735589428842,-122.5161090212687,Montara,2.375,2.414375,2.881875,13,13,"CLOUDY,CLOUDY,MIST,MOSTLY_CLOUDY,NIGHT_MOSTLY_CLOUDY,NIGHT_MOSTLY_CLOUDY,NIGHT_DRIZZLE,NIGHT_DRIZZLE,NIGHT_OVERCAST,NIGHT_OVERCAST,NIGHT_BRIEF_SHOWERS,NIGHT_OVERCAST,NIGHT_MIST,NIGHT_BRIEF_SHOWERS,BRIEF_SHOWERS,BRIEF_SHOWERS","Cross-shore,Cross-shore,Cross-shore,Cross-shore,Cross-shore,Cross-shore,Cross-shore,Cross-shore,Cross-shore,Offshore,Offshore,Offshore,Cross-shore,Cross-shore,Onshore,Cross-shore",16
5842041f4e65fad6a7708975,2024_03_12,34.3869373724559,-119.5142334209018,Tarpits,2.1875,0.510625,0.815,14,14,"CLEAR,MOSTLY_CLEAR,MOSTLY_CLEAR,CLEAR,NIGHT_CLEAR,NIGHT_CLEAR,NIGHT_CLEAR,NIGHT_CLEAR,NIGHT_CLEAR,NIGHT_MIST,NIGHT_CLEAR,NIGHT_CLEAR,NIGHT_CLEAR,NIGHT_CLEAR,CLEAR,CLEAR","Cross-shore,Cross-shore,Cross-shore,Onshore,Cross-shore,Offshore,Offshore,Onshore,Offshore,Cross-shore,Cross-shore,Offshore,Offshore,Offshore,Offshore,Cross-shore",16
5842041f4e65fad6a7708976,2024_03_12,37.59881852720143,-122.50463,Pacifica / Linda Mar,2.239375,1.0946145833333334,1.48051875,14,14,"MIST,MIST,CLOUDY,CLEAR,NIGHT_MOSTLY_CLOUDY,NIGHT_MOSTLY_CLOUDY,NIGHT_OVERCAST,NIGHT_OVERCAST,NIGHT_LIGHT_RAIN,NIGHT_OVERCAST,NIGHT_BRIEF_SHOWERS,NIGHT_OVERCAST,NIGHT_MOSTLY_CLOUDY,NIGHT_MIST,BRIEF_SHOWERS,SHOWERS","Onshore,Onshore,Onshore,Cross-shore,Cross-shore,Cross-shore,Cross-shore,Cross-shore,Cross-shore,Cross-shore,Offshore,Cross-shore,Cross-shore,Cross-shore,Onshore,Onshore",16
5842041f4e65fad6a7708978,2024_03_12,37.59883098461164,-122.5143843582282,Pedro Point,2.75,2.373125,2.828125,13,13,"CLOUDY,OVERCAST,CLOUDY,CLEAR,NIGHT_MOSTLY_CLOUDY,NIGHT_MOSTLY_CLOUDY,NIGHT_OVERCAST,NIGHT_OVERCAST,NIGHT_DRIZZLE,NIGHT_OVERCAST,NIGHT_LIGHT_RAIN,NIGHT_RAIN,NIGHT_BRIEF_SHOWERS,NIGHT_MIST,MIST,BRIEF_SHOWERS","Cross-shore,Cross-shore,Cross-shore,Cross-shore,Cross-shore,Cross-shore,Cross-shore,Cross-shore,Offshore,Offshore,Offshore,Offshore,Offshore,Cross-shore,Onshore,Onshore",16
5842041f4e65fad6a7708979,2024_03_12,37.61081996647663,-122.4973287570634,Rockaway,2,2.38875,2.844375,13,13,"MIST,MIST,CLOUDY,CLEAR,NIGHT_MOSTLY_CLOUDY,NIGHT_MOSTLY_CLOUDY,NIGHT_OVERCAST,NIGHT_OVERCAST,NIGHT_LIGHT_RAIN,NIGHT_OVERCAST,NIGHT_BRIEF_SHOWERS,NIGHT_OVERCAST,NIGHT_MOSTLY_CLOUDY,NIGHT_MIST,BRIEF_SHOWERS,SHOWERS","Onshore,Onshore,Onshore,Onshore,Onshore,Onshore,Cross-shore,Cross-shore,Cross-shore,Cross-shore,Cross-shore,Cross-shore,Cross-shore,Cross-shore,Onshore,Onshore",16
5842041f4e65fad6a770897a,2024_03_12,37.809987384424446,-122.4751353263855,Fort Point,2.75,1.479375,1.769375,13,13,"CLOUDY,OVERCAST,CLOUDY,CLEAR,NIGHT_MOSTLY_CLOUDY,NIGHT_MOSTLY_CLOUDY,NIGHT_OVERCAST,NIGHT_DRIZZLE,NIGHT_CLEAR,NIGHT_OVERCAST,NIGHT_LIGHT_RAIN,NIGHT_LIGHT_RAIN,NIGHT_LIGHT_RAIN,NIGHT_BRIEF_SHOWERS,BRIEF_SHOWERS,MIST","Cross-shore,Cross-shore,Onshore,Onshore,Cross-shore,Onshore,Onshore,Onshore,Onshore,Onshore,Onshore,Onshore,Onshore,Onshore,Cross-shore,Onshore",16
5842041f4e65fad6a770897c,2024_03_12,37.63422542967464,-122.4951,Sharp Park,1.8125,2.509375,2.993125,13,13,"DRIZZLE,OVERCAST,CLOUDY,CLEAR,NIGHT_MOSTLY_CLOUDY,NIGHT_CLEAR,NIGHT_MOSTLY_CLOUDY,NIGHT_OVERCAST,NIGHT_LIGHT_RAIN,NIGHT_OVERCAST,NIGHT_LIGHT_RAIN,NIGHT_SHOWERS,NIGHT_BRIEF_SHOWERS,NIGHT_MIST,SHOWERS,SHOWERS","Onshore,Onshore,Onshore,Onshore,Onshore,Onshore,Onshore,Onshore,Cross-shore,Cross-shore,Cross-shore,Cross-shore,Cross-shore,Onshore,Onshore,Onshore",16
5842041f4e65fad6a770897d,2024_03_12,37.27313605072472,-122.4127387912554,Pescadero,2.375,3.09875,3.70375,13.3125,13.3125,"CLOUDY,CLOUDY,CLOUDY,MOSTLY_CLOUDY,NIGHT_CLOUDY,NIGHT_CLEAR,NIGHT_MOSTLY_CLOUDY,NIGHT_MOSTLY_CLOUDY,NIGHT_MOSTLY_CLOUDY,NIGHT_DRIZZLE,NIGHT_OVERCAST,NIGHT_RAIN,NIGHT_HEAVY_RAIN,NIGHT_RAIN,MIST,RAIN","Onshore,Onshore,Onshore,Cross-shore,Onshore,Cross-shore,Cross-shore,Cross-shore,Cross-shore,Cross-shore,Cross-shore,Cross-shore,Cross-shore,Cross-shore,Cross-shore,Cross-shore",16
5842041f4e65fad6a770897e,2024_03_12,37.18140279972666,-122.3926685899327,Pigeon Point,2.3125,3.028125,3.619375,13.3125,13.3125,"CLOUDY,CLOUDY,OVERCAST,MOSTLY_CLOUDY,NIGHT_MIST,NIGHT_BRIEF_SHOWERS,NIGHT_MOSTLY_CLEAR,NIGHT_MOSTLY_CLOUDY,NIGHT_MOSTLY_CLOUDY,NIGHT_OVERCAST,NIGHT_OVERCAST,NIGHT_RAIN,NIGHT_OVERCAST,NIGHT_DRIZZLE,RAIN,LIGHT_RAIN","Cross-shore,Cross-shore,Cross-shore,Onshore,Onshore,Onshore,Onshore,Onshore,Onshore,Onshore,Onshore,Onshore,Onshore,Onshore,Onshore,Onshore",16
5842041f4e65fad6a770897f,2024_03_12,37.11578956919415,-122.314699271291,Ano Nuevo,2.8125,2.31125,2.765,13.3125,13.3125,"MOSTLY_CLOUDY,CLEAR,CLOUDY,MOSTLY_CLOUDY,NIGHT_DRIZZLE,NIGHT_CLEAR,NIGHT_MOSTLY_CLEAR,NIGHT_MOSTLY_CLEAR,NIGHT_OVERCAST,NIGHT_DRIZZLE,NIGHT_BRIEF_SHOWERS,NIGHT_RAIN,NIGHT_LIGHT_RAIN,NIGHT_RAIN,RAIN,LIGHT_RAIN","Offshore,Offshore,Offshore,Cross-shore,Cross-shore,Cross-shore,Onshore,Onshore,Onshore,Onshore,Onshore,Onshore,Onshore,Onshore,Onshore,Onshore",16
5842041f4e65fad6a7708980,2024_03_12,37.09520872681598,-122.2805474707768,Waddell Creek,3,2.343125,2.799375,13.3125,13.3125,"MOSTLY_CLOUDY,CLOUDY,CLOUDY,CLEAR,NIGHT_CLEAR,NIGHT_CLEAR,NIGHT_MOSTLY_CLEAR,NIGHT_CLEAR,NIGHT_OVERCAST,NIGHT_FOG,NIGHT_BRIEF_SHOWERS,NIGHT_SHOWERS,NIGHT_DRIZZLE,NIGHT_RAIN,MIST,MIST","Cross-shore,Cross-shore,Cross-shore,Onshore,Onshore,Onshore,Onshore,Onshore,Onshore,Cross-shore,Onshore,Onshore,Onshore,Onshore,Onshore,Onshore",16
5842041f4e65fad6a7708981,2024_03_12,36.96512852130351,-122.1252825495626,Four Mile,3.25,2.656875,3.166875,13.3125,13.3125,"CLEAR,CLEAR,CLEAR,MOSTLY_CLOUDY,NIGHT_CLEAR,NIGHT_MOSTLY_CLEAR,NIGHT_MOSTLY_CLOUDY,NIGHT_MOSTLY_CLOUDY,NIGHT_BRIEF_SHOWERS,NIGHT_RAIN,NIGHT_FOG,NIGHT_LIGHT_RAIN,NIGHT_LIGHT_RAIN,NIGHT_LIGHT_RAIN,LIGHT_RAIN,LIGHT_RAIN","Offshore,Offshore,Offshore,Offshore,Offshore,Cross-shore,Cross-shore,Cross-shore,Onshore,Onshore,Onshore,Onshore,Onshore,Onshore,Onshore,Onshore",16
5842041f4e65fad6a7708982,2024_03_12,37.04122807048655,-122.2333684729756,Scott Creek,3,2.408125,2.8775,13.3125,13.3125,"CLEAR,CLOUDY,CLEAR,CLEAR,NIGHT_OVERCAST,NIGHT_BRIEF_SHOWERS,NIGHT_BRIEF_SHOWERS,NIGHT_SHOWERS,NIGHT_MOSTLY_CLOUDY,NIGHT_FOG,NIGHT_FOG,NIGHT_LIGHT_RAIN,NIGHT_OVERCAST,NIGHT_DRIZZLE,MIST,LIGHT_RAIN","Cross-shore,Cross-shore,Cross-shore,Cross-shore,Onshore,Onshore,Onshore,Onshore,Onshore,Onshore,Onshore,Onshore,Onshore,Onshore,Onshore,Onshore",16
5842041f4e65fad6a7708983,2024_03_12,37.02350229387179,-122.21908,Davenport,3,2.633125,3.144375,13.3125,13.3125,"CLEAR,CLEAR,CLEAR,CLEAR,NIGHT_OVERCAST,NIGHT_BRIEF_SHOWERS,NIGHT_MOSTLY_CLOUDY,NIGHT_MOSTLY_CLOUDY,NIGHT_BRIEF_SHOWERS,NIGHT_LIGHT_RAIN_AND_FOG,NIGHT_MOSTLY_CLOUDY,NIGHT_RAIN,NIGHT_OVERCAST,NIGHT_LIGHT_RAIN,MIST,RAIN","Cross-shore,Cross-shore,Cross-shore,Cross-shore,Cross-shore,Onshore,Onshore,Onshore,Onshore,Onshore,Onshore,Onshore,Onshore,Onshore,Onshore,Onshore",16
5842041f4e65fad6a7708986,2024_03_12,36.94905295955728,-122.0611823912244,Natural Bridges,3,2.119375,2.531875,13.3125,13.3125,"CLEAR,CLEAR,CLEAR,CLEAR,NIGHT_CLEAR,NIGHT_MOSTLY_CLEAR,NIGHT_MOSTLY_CLOUDY,NIGHT_MOSTLY_CLOUDY,NIGHT_BRIEF_SHOWERS,NIGHT_LIGHT_SHOWERS_POSSIBLE,NIGHT_FOG,NIGHT_LIGHT_RAIN,NIGHT_LIGHT_RAIN,NIGHT_DRIZZLE,LIGHT_RAIN_AND_FOG,RAIN","Cross-shore,Cross-shore,Cross-shore,Cross-shore,Cross-shore,Cross-shore,Cross-shore,Onshore,Onshore,Onshore,Onshore,Onshore,Onshore,Onshore,Onshore,Onshore",16
5842041f4e65fad6a7708987,2024_03_12,36.95154854910425,-122.0420693940968,Mitchell's Cove,3.5,1.6125,1.926875,13.3125,13.3125,"CLEAR,CLEAR,CLEAR,CLEAR,NIGHT_CLEAR,NIGHT_CLEAR,NIGHT_MOSTLY_CLOUDY,NIGHT_MOSTLY_CLOUDY,NIGHT_MOSTLY_CLOUDY,NIGHT_LIGHT_SHOWERS_POSSIBLE,NIGHT_FOG,NIGHT_FOG,NIGHT_LIGHT_RAIN,NIGHT_FOG,FOG,LIGHT_RAIN","Cross-shore,Cross-shore,Cross-shore,Cross-shore,Cross-shore,Cross-shore,Cross-shore,Cross-shore,Onshore,Onshore,Onshore,Onshore,Onshore,Onshore,Onshore,Onshore",16
5842041f4e65fad6a770898a,2024_03_12,36.9572312370203,-121.98177,26th Ave,3,1.96875,2.3525,13.3125,13.3125,"CLEAR,CLEAR,CLEAR,CLEAR,NIGHT_CLEAR,NIGHT_CLEAR,NIGHT_MOSTLY_CLEAR,NIGHT_CLEAR,NIGHT_MOSTLY_CLOUDY,NIGHT_LIGHT_RAIN,NIGHT_FOG,NIGHT_FOG,NIGHT_LIGHT_RAIN,NIGHT_FOG,FOG,MIST","Onshore,Onshore,Onshore,Onshore,Onshore,Onshore,Onshore,Onshore,Onshore,Onshore,Onshore,Onshore,Onshore,Cross-shore,Cross-shore,Onshore",16
5842041f4e65fad6a770898e,2024_03_12,36.91899972819882,-121.85536,Manresa,2.625,2.204375,2.615,13.3125,13.3125,"CLEAR,CLEAR,CLEAR,CLEAR,NIGHT_CLEAR,NIGHT_CLEAR,NIGHT_CLEAR,NIGHT_MOSTLY_CLOUDY,NIGHT_MOSTLY_CLOUDY,NIGHT_DRIZZLE,NIGHT_FOG,NIGHT_FOG,NIGHT_LIGHT_RAIN_AND_FOG,NIGHT_FOG,FOG,DRIZZLE","Onshore,Onshore,Onshore,Onshore,Onshore,Onshore,Onshore,Onshore,Onshore,Onshore,Onshore,Onshore,Onshore,Cross-shore,Cross-shore,Onshore",16
5842041f4e65fad6a7708990,2024_03_12,34.45747731928454,-120.34242,The Ranch,2.75,0.795625,1.073125,13,13,"CLEAR,CLEAR,CLEAR,CLEAR,NIGHT_CLEAR,NIGHT_CLEAR,NIGHT_CLEAR,NIGHT_CLEAR,NIGHT_CLEAR,NIGHT_CLEAR,NIGHT_CLEAR,NIGHT_CLEAR,NIGHT_CLEAR,NIGHT_OVERCAST,CLEAR,CLEAR","Offshore,Offshore,Offshore,Offshore,Offshore,Offshore,Offshore,Offshore,Offshore,Offshore,Offshore,Offshore,Offshore,Offshore,Offshore,Offshore",16
5842041f4e65fad6a7708991,2024_03_12,34.50875036590315,-120.50348,Jalama,2.8125,1.71875,2.053125,13,13,"CLEAR,CLEAR,CLEAR,CLEAR,NIGHT_CLEAR,NIGHT_MOSTLY_CLOUDY,NIGHT_MOSTLY_CLOUDY,NIGHT_MOSTLY_CLOUDY,NIGHT_MOSTLY_CLOUDY,NIGHT_CLEAR,NIGHT_CLEAR,NIGHT_CLEAR,NIGHT_CLEAR,NIGHT_CLEAR,CLEAR,CLEAR","Cross-shore,Cross-shore,Cross-shore,Cross-shore,Cross-shore,Cross-shore,Cross-shore,Cross-shore,Cross-shore,Cross-shore,Cross-shore,Cross-shore,Cross-shore,Cross-shore,Cross-shore,Cross-shore",16
5842041f4e65fad6a7708996,2024_03_12,34.68700870220497,-120.6111611019887,Surf Beach,1.6875,4.150625,4.961875,13,13,"CLEAR,MOSTLY_CLOUDY,MOSTLY_CLOUDY,CLOUDY,NIGHT_CLOUDY,NIGHT_MOSTLY_CLOUDY,NIGHT_MOSTLY_CLOUDY,NIGHT_CLOUDY,NIGHT_CLOUDY,NIGHT_CLOUDY,NIGHT_CLOUDY,NIGHT_CLOUDY,NIGHT_OVERCAST,NIGHT_MOSTLY_CLOUDY,MOSTLY_CLOUDY,CLEAR","Onshore,Onshore,Onshore,Onshore,Onshore,Onshore,Onshore,Onshore,Onshore,Onshore,Onshore,Onshore,Onshore,Onshore,Onshore,Onshore",16
5842041f4e65fad6a770899c,2024_03_12,35.5730538161116,-121.1143362345574,Moonstone,3,2.995625,3.58,13.3125,13.3125,"CLEAR,CLEAR,CLEAR,CLEAR,NIGHT_CLEAR,NIGHT_CLEAR,NIGHT_CLEAR,NIGHT_CLEAR,NIGHT_CLEAR,NIGHT_CLEAR,NIGHT_CLEAR,NIGHT_CLEAR,NIGHT_MOSTLY_CLEAR,NIGHT_OVERCAST,CLEAR,CLEAR","Onshore,Onshore,Onshore,Onshore,Cross-shore,Onshore,Cross-shore,Cross-shore,Offshore,Cross-shore,Cross-shore,Cross-shore,Offshore,Offshore,Offshore,Offshore",16
5842041f4e65fad6a770899d,2024_03_12,35.61533716776573,-121.1502053073914,Pico Creek,3,2.0975,2.505,13,13,"CLEAR,CLEAR,CLEAR,CLEAR,NIGHT_CLOUDY,NIGHT_CLEAR,NIGHT_CLEAR,NIGHT_CLEAR,NIGHT_CLEAR,NIGHT_MOSTLY_CLOUDY,NIGHT_CLEAR,NIGHT_CLEAR,NIGHT_CLEAR,NIGHT_DRIZZLE,MOSTLY_CLOUDY,CLEAR","Onshore,Onshore,Onshore,Onshore,Cross-shore,Cross-shore,Cross-shore,Cross-shore,Cross-shore,Cross-shore,Cross-shore,Cross-shore,Offshore,Offshore,Offshore,Onshore",16
5842041f4e65fad6a770899e,2024_03_12,35.56829031927379,-121.1120653023953,Santa Rosa Creek,2.8125,2.995625,3.58,13.3125,13.3125,"CLEAR,CLEAR,CLEAR,MIST,NIGHT_CLEAR,NIGHT_CLEAR,NIGHT_CLEAR,NIGHT_CLEAR,NIGHT_CLEAR,NIGHT_MOSTLY_CLOUDY,NIGHT_CLOUDY,NIGHT_CLEAR,NIGHT_MOSTLY_CLEAR,NIGHT_OVERCAST,MOSTLY_CLOUDY,CLEAR","Cross-shore,Cross-shore,Cross-shore,Cross-shore,Cross-shore,Cross-shore,Cross-shore,Cross-shore,Offshore,Offshore,Offshore,Cross-shore,Onshore,Cross-shore,Offshore,Offshore",16
5842041f4e65fad6a77089a2,2024_03_12,35.44820114936284,-120.90715,"Cayucos Pier, Southside ",3.25,1.5,1.79625,13,13,"MOSTLY_CLOUDY,CLEAR,CLEAR,MIST,NIGHT_CLEAR,NIGHT_CLEAR,NIGHT_CLEAR,NIGHT_CLEAR,NIGHT_MIST,NIGHT_MIST,NIGHT_MOSTLY_CLOUDY,NIGHT_CLEAR,NIGHT_CLEAR,NIGHT_MOSTLY_CLOUDY,BRIEF_SHOWERS,CLEAR","Cross-shore,Cross-shore,Cross-shore,Cross-shore,Cross-shore,Offshore,Offshore,Offshore,Offshore,Offshore,Offshore,Offshore,Offshore,Offshore,Offshore,Offshore",16
5842041f4e65fad6a77089a4,2024_03_12,35.30143372628852,-120.877819239902,Cable Landing,2.5,4.09125,4.88875,13.3125,13.3125,"MOSTLY_CLOUDY,MOSTLY_CLOUDY,CLEAR,CLOUDY,NIGHT_MOSTLY_CLEAR,NIGHT_MOSTLY_CLEAR,NIGHT_MOSTLY_CLOUDY,NIGHT_MOSTLY_CLOUDY,NIGHT_MIST,NIGHT_MIST,NIGHT_MIST,NIGHT_CLOUDY,NIGHT_MOSTLY_CLOUDY,NIGHT_MOSTLY_CLOUDY,BRIEF_SHOWERS,CLEAR","Onshore,Onshore,Onshore,Onshore,Onshore,Onshore,Onshore,Onshore,Onshore,Cross-shore,Offshore,Offshore,Offshore,Offshore,Offshore,Onshore",16
5842041f4e65fad6a77089a9,2024_03_12,35.61269103500222,-121.1480725356606,San Simeon,3,1.4424375,1.7241875,13,13,"CLEAR,CLEAR,CLEAR,CLEAR,NIGHT_CLEAR,NIGHT_CLEAR,NIGHT_CLEAR,NIGHT_CLEAR,NIGHT_CLEAR,NIGHT_MIST,NIGHT_CLOUDY,NIGHT_CLOUDY,NIGHT_MOSTLY_CLOUDY,NIGHT_MOSTLY_CLOUDY,CLEAR,CLEAR","Cross-shore,Cross-shore,Cross-shore,Cross-shore,Cross-shore,Cross-shore,Cross-shore,Cross-shore,Offshore,Cross-shore,Offshore,Onshore,Cross-shore,Cross-shore,Offshore,Cross-shore",16
5842041f4e65fad6a77089ab,2024_03_12,35.1775325966252,-120.7341125142258,Avila Beach,2,0.136875,0.440625,14,14,"CLEAR,MOSTLY_CLOUDY,CLEAR,CLEAR,NIGHT_CLEAR,NIGHT_CLEAR,NIGHT_CLEAR,NIGHT_CLEAR,NIGHT_CLEAR,NIGHT_MOSTLY_CLOUDY,NIGHT_MOSTLY_CLOUDY,NIGHT_CLEAR,NIGHT_CLEAR,NIGHT_MOSTLY_CLEAR,MOSTLY_CLOUDY,CLEAR","Cross-shore,Cross-shore,Cross-shore,Cross-shore,Offshore,Offshore,Offshore,Offshore,Offshore,Offshore,Offshore,Offshore,Offshore,Offshore,Offshore,Offshore",16
5842041f4e65fad6a77089ac,2024_03_12,35.13877877884115,-120.64535,Pismo Beach Pier,2.8125,1.8349895833333334,2.2989645833333334,14,14,"CLEAR,MOSTLY_CLOUDY,CLEAR,MOSTLY_CLOUDY,NIGHT_MIST,NIGHT_MOSTLY_CLEAR,NIGHT_CLEAR,NIGHT_MOSTLY_CLEAR,NIGHT_MOSTLY_CLOUDY,NIGHT_MOSTLY_CLOUDY,NIGHT_MOSTLY_CLOUDY,NIGHT_MOSTLY_CLOUDY,NIGHT_OVERCAST,NIGHT_MOSTLY_CLEAR,MOSTLY_CLOUDY,CLEAR","Cross-shore,Cross-shore,Cross-shore,Cross-shore,Cross-shore,Cross-shore,Cross-shore,Cross-shore,Cross-shore,Cross-shore,Cross-shore,Cross-shore,Cross-shore,Cross-shore,Cross-shore,Cross-shore",16
5842041f4e65fad6a77089ad,2024_03_12,46.8907710233147,-124.12964,Westport/Olympic Peninsula,0.8125,2.94625,3.521875,9.3125,9.3125,"RAIN,LIGHT_RAIN,DRIZZLE,DRIZZLE,NIGHT_OVERCAST,NIGHT_OVERCAST,NIGHT_HEAVY_SHOWERS,NIGHT_BRIEF_SHOWERS,NIGHT_MOSTLY_CLOUDY,NIGHT_LIGHT_RAIN,NIGHT_MOSTLY_CLOUDY,NIGHT_CLEAR,NIGHT_BRIEF_SHOWERS_POSSIBLE,NIGHT_CLEAR,MOSTLY_CLEAR,CLEAR","Cross-shore,Cross-shore,Cross-shore,Onshore,Onshore,Onshore,Onshore,Onshore,Onshore,Onshore,Onshore,Onshore,Onshore,Onshore,Onshore,Onshore",16
5842041f4e65fad6a77089ae,2024_03_12,46.35185177248545,-124.06747,Long Beach Peninsula,0,3.731875,4.460625,9.3125,9.3125,"RAIN,RAIN,LIGHT_RAIN,MOSTLY_CLOUDY,NIGHT_OVERCAST,NIGHT_MOSTLY_CLOUDY,NIGHT_CLOUDY,NIGHT_MOSTLY_CLOUDY,NIGHT_OVERCAST,NIGHT_CLOUDY,NIGHT_MOSTLY_CLOUDY,NIGHT_MOSTLY_CLOUDY,NIGHT_SHOWERS,NIGHT_CLEAR,CLEAR,CLEAR","Cross-shore,Cross-shore,Cross-shore,Onshore,Onshore,Onshore,Onshore,Onshore,Onshore,Onshore,Onshore,Onshore,Onshore,Onshore,Onshore,Onshore",16
5842041f4e65fad6a77089af,2024_03_12,47.90649175554033,-124.6370864743483,La Push,0.375,2.965625,3.545625,8.6875,8.6875,"RAIN,RAIN,LIGHT_RAIN,SHOWERS,NIGHT_OVERCAST,NIGHT_MOSTLY_CLOUDY,NIGHT_CLEAR,NIGHT_CLOUDY,NIGHT_CLEAR,NIGHT_MOSTLY_CLOUDY,NIGHT_MOSTLY_CLOUDY,NIGHT_MOSTLY_CLOUDY,NIGHT_CLEAR,NIGHT_MOSTLY_CLOUDY,MOSTLY_CLOUDY,CLEAR","Cross-shore,Onshore,Cross-shore,Onshore,Onshore,Onshore,Onshore,Onshore,Onshore,Onshore,Onshore,Onshore,Onshore,Onshore,Onshore,Onshore",16
5842041f4e65fad6a77089b0,2024_03_12,42.04368239985442,-124.26828,Brookings Jetty,1.0625,1.618430625,2.528799375,11,11,"RAIN,RAIN,DRIZZLE,DRIZZLE,NIGHT_OVERCAST,NIGHT_LIGHT_RAIN,NIGHT_RAIN,NIGHT_OVERCAST,NIGHT_BRIEF_SHOWERS,NIGHT_MOSTLY_CLOUDY,NIGHT_MOSTLY_CLOUDY,NIGHT_MOSTLY_CLOUDY,NIGHT_RAIN,NIGHT_BRIEF_SHOWERS,MOSTLY_CLOUDY,MOSTLY_CLOUDY","Onshore,Onshore,Onshore,Onshore,Onshore,Onshore,Onshore,Onshore,Onshore,Onshore,Onshore,Onshore,Onshore,Onshore,Onshore,Onshore",16
5842041f4e65fad6a77089b1,2024_03_12,42.74071837900346,-124.4983727491047,Port Orford,0.875,2.96375,3.4275,10.3125,10.3125,"RAIN,SHOWERS,BRIEF_SHOWERS,CLEAR,NIGHT_RAIN,NIGHT_LIGHT_RAIN,NIGHT_BRIEF_SHOWERS,NIGHT_MOSTLY_CLOUDY,NIGHT_OVERCAST,NIGHT_MOSTLY_CLOUDY,NIGHT_MOSTLY_CLOUDY,NIGHT_OVERCAST,NIGHT_DRIZZLE,NIGHT_MOSTLY_CLOUDY,MOSTLY_CLOUDY,MOSTLY_CLEAR","Onshore,Onshore,Onshore,Onshore,Onshore,Onshore,Onshore,Onshore,Onshore,Onshore,Onshore,Onshore,Onshore,Cross-shore,Cross-shore,Cross-shore",16
5842041f4e65fad6a77089b2,2024_03_12,44.01532689312291,-124.13865,Florence South Jetty,0.6875,3.83625,4.581875,10.3125,10.3125,"LIGHT_RAIN,LIGHT_RAIN,DRIZZLE,DRIZZLE,NIGHT_DRIZZLE,NIGHT_BRIEF_SHOWERS,NIGHT_MIST,NIGHT_OVERCAST,NIGHT_OVERCAST,NIGHT_MOSTLY_CLOUDY,NIGHT_MOSTLY_CLOUDY,NIGHT_SHOWERS,NIGHT_BRIEF_SHOWERS,NIGHT_MOSTLY_CLOUDY,CLOUDY,MOSTLY_CLOUDY","Cross-shore,Cross-shore,Cross-shore,Onshore,Onshore,Onshore,Onshore,Onshore,Onshore,Onshore,Onshore,Onshore,Onshore,Onshore,Onshore,Onshore",16
5842041f4e65fad6a77089b3,2024_03_12,42.41812540774362,-124.42945,Gold Beach South Jetty,0.5,3.49625,4.178125,11,11,"RAIN,DRIZZLE,BRIEF_SHOWERS,BRIEF_SHOWERS,NIGHT_BRIEF_SHOWERS,NIGHT_DRIZZLE,NIGHT_BRIEF_SHOWERS,NIGHT_MOSTLY_CLOUDY,NIGHT_MOSTLY_CLOUDY,NIGHT_MOSTLY_CLOUDY,NIGHT_MOSTLY_CLOUDY,NIGHT_DRIZZLE,NIGHT_MOSTLY_CLOUDY,NIGHT_MOSTLY_CLOUDY,MOSTLY_CLOUDY,MOSTLY_CLEAR","Onshore,Onshore,Onshore,Onshore,Onshore,Onshore,Onshore,Onshore,Onshore,Onshore,Onshore,Onshore,Onshore,Onshore,Cross-shore,Onshore",16
5842041f4e65fad6a77089b4,2024_03_12,44.95857310226525,-124.0219017690976,Lincoln City,0.75,3.66625,4.3825,10.3125,10.3125,"RAIN,RAIN,LIGHT_RAIN,SHOWERS,NIGHT_MOSTLY_CLOUDY,NIGHT_DRIZZLE,NIGHT_OVERCAST,NIGHT_OVERCAST,NIGHT_MOSTLY_CLOUDY,NIGHT_CLEAR,NIGHT_CLOUDY,NIGHT_LIGHT_RAIN,NIGHT_MOSTLY_CLOUDY,NIGHT_CLOUDY,BRIEF_SHOWERS,MOSTLY_CLOUDY","Cross-shore,Cross-shore,Cross-shore,Cross-shore,Onshore,Onshore,Onshore,Onshore,Onshore,Onshore,Onshore,Onshore,Onshore,Onshore,Onshore,Onshore",16
5842041f4e65fad6a77089b5,2024_03_12,44.63792761362982,-124.0657,Newport,0.4375,4.081875,4.871875,10,10,"LIGHT_RAIN,LIGHT_RAIN,DRIZZLE,RAIN,NIGHT_BRIEF_SHOWERS,NIGHT_MOSTLY_CLOUDY,NIGHT_CLOUDY,NIGHT_CLOUDY,NIGHT_OVERCAST,NIGHT_BRIEF_SHOWERS,NIGHT_SHOWERS,NIGHT_BRIEF_SHOWERS,NIGHT_MOSTLY_CLOUDY,NIGHT_MOSTLY_CLOUDY,MOSTLY_CLOUDY,OVERCAST","Cross-shore,Cross-shore,Cross-shore,Onshore,Onshore,Onshore,Onshore,Onshore,Onshore,Onshore,Onshore,Onshore,Onshore,Onshore,Onshore,Onshore",16
5842041f4e65fad6a77089b6,2024_03_12,45.61468496266301,-123.94643,Rockaway Beach,1,3.7775,4.5131250000000005,9.3125,9.3125,"LIGHT_RAIN,LIGHT_RAIN,LIGHT_RAIN,MOSTLY_CLOUDY,NIGHT_CLEAR,NIGHT_MIST,NIGHT_DRIZZLE,NIGHT_CLEAR,NIGHT_BRIEF_SHOWERS,NIGHT_MOSTLY_CLOUDY,NIGHT_CLOUDY,NIGHT_MOSTLY_CLOUDY,NIGHT_BRIEF_SHOWERS,NIGHT_BRIEF_SHOWERS,MOSTLY_CLOUDY,OVERCAST","Cross-shore,Cross-shore,Cross-shore,Cross-shore,Onshore,Onshore,Onshore,Onshore,Onshore,Onshore,Onshore,Onshore,Onshore,Onshore,Onshore,Onshore",16
5842041f4e65fad6a77089b7,2024_03_12,45.20252914186085,-123.96975,Pacific City,0.5,3.59375,4.295,10,10,"LIGHT_RAIN,LIGHT_RAIN,DRIZZLE,RAIN,NIGHT_MOSTLY_CLOUDY,NIGHT_LIGHT_RAIN,NIGHT_OVERCAST,NIGHT_RAIN,NIGHT_MOSTLY_CLOUDY,NIGHT_MOSTLY_CLOUDY,NIGHT_OVERCAST,NIGHT_MOSTLY_CLOUDY,NIGHT_MOSTLY_CLOUDY,NIGHT_MOSTLY_CLOUDY,SHOWERS,BRIEF_SHOWERS_POSSIBLE","Cross-shore,Onshore,Onshore,Onshore,Onshore,Onshore,Onshore,Onshore,Onshore,Onshore,Onshore,Onshore,Onshore,Onshore,Onshore,Onshore",16
5842041f4e65fad6a77089b8,2024_03_12,45.88179930310263,-123.96681,Cannon Beach,0.1875,3.705625,4.428125,9.3125,9.3125,"LIGHT_RAIN,OVERCAST,LIGHT_RAIN,SHOWERS,NIGHT_BRIEF_SHOWERS,NIGHT_MOSTLY_CLOUDY,NIGHT_MOSTLY_CLOUDY,NIGHT_OVERCAST,NIGHT_MOSTLY_CLOUDY,NIGHT_MOSTLY_CLOUDY,NIGHT_LIGHT_RAIN,NIGHT_BRIEF_SHOWERS,NIGHT_MOSTLY_CLOUDY,NIGHT_BRIEF_SHOWERS,MOSTLY_CLOUDY,MOSTLY_CLOUDY","Cross-shore,Cross-shore,Cross-shore,Onshore,Onshore,Onshore,Onshore,Onshore,Onshore,Onshore,Onshore,Onshore,Onshore,Onshore,Onshore,Onshore",16
5842041f4e65fad6a77089ba,2024_03_12,40.02528754746774,-124.06372,Shelter Cove,1.5,0.991610625,1.549390625,11.6875,11.6875,"RAIN,LIGHT_RAIN,LIGHT_RAIN,RAIN,NIGHT_RAIN,NIGHT_LIGHT_RAIN,NIGHT_OVERCAST,NIGHT_LIGHT_RAIN,NIGHT_DRIZZLE,NIGHT_MOSTLY_CLEAR,NIGHT_FOG,NIGHT_CLEAR,NIGHT_FOG,NIGHT_MOSTLY_CLEAR,CLEAR,MOSTLY_CLOUDY","Onshore,Onshore,Onshore,Onshore,Onshore,Onshore,Onshore,Onshore,Onshore,Cross-shore,Offshore,Offshore,Offshore,Offshore,Offshore,Offshore",16
5842041f4e65fad6a77089bb,2024_03_12,40.76816197136951,-124.24248,Humboldt Harbor Entrance,0.875,3.578125,4.275,11,11,"LIGHT_RAIN,LIGHT_RAIN,LIGHT_RAIN,LIGHT_RAIN,NIGHT_LIGHT_RAIN,NIGHT_DRIZZLE,NIGHT_OVERCAST,NIGHT_OVERCAST,NIGHT_CLEAR,NIGHT_BRIEF_SHOWERS,NIGHT_MOSTLY_CLOUDY,NIGHT_MOSTLY_CLOUDY,NIGHT_MOSTLY_CLOUDY,NIGHT_BRIEF_SHOWERS,MOSTLY_CLOUDY,MIST","Cross-shore,Cross-shore,Cross-shore,Cross-shore,Cross-shore,Cross-shore,Cross-shore,Cross-shore,Onshore,Onshore,Onshore,Onshore,Onshore,Onshore,Onshore,Onshore",16
5842041f4e65fad6a77089bc,2024_03_12,40.76684246920174,-124.23107,North Jetty,2,4.1725,4.9868749999999995,11,11,"LIGHT_RAIN,LIGHT_RAIN,LIGHT_RAIN,LIGHT_RAIN,NIGHT_CLEAR,NIGHT_OVERCAST,NIGHT_DRIZZLE,NIGHT_HEAVY_RAIN,NIGHT_CLEAR,NIGHT_MOSTLY_CLOUDY,NIGHT_MOSTLY_CLOUDY,NIGHT_CLEAR,NIGHT_FOG,NIGHT_MOSTLY_CLOUDY,BRIEF_SHOWERS,CLEAR","Cross-shore,Cross-shore,Offshore,Offshore,Offshore,Cross-shore,Cross-shore,Cross-shore,Onshore,Onshore,Onshore,Onshore,Onshore,Onshore,Onshore,Onshore",16
5842041f4e65fad6a77089bd,2024_03_12,41.02731183893966,-124.1149972888982,Westhaven,1,5.19375,6.20875,11,11,"LIGHT_RAIN,LIGHT_RAIN,DRIZZLE,OVERCAST,NIGHT_LIGHT_RAIN,NIGHT_OVERCAST,NIGHT_OVERCAST,NIGHT_OVERCAST,NIGHT_CLOUDY,NIGHT_MOSTLY_CLOUDY,NIGHT_FOG,NIGHT_CLEAR,NIGHT_FOG,NIGHT_BRIEF_SHOWERS,SHOWERS,CLEAR","Cross-shore,Cross-shore,Cross-shore,Cross-shore,Cross-shore,Cross-shore,Cross-shore,Cross-shore,Onshore,Onshore,Onshore,Onshore,Onshore,Onshore,Onshore,Onshore",16
5842041f4e65fad6a77089be,2024_03_12,41.13016238153297,-124.16466,Sue-meg,1.9375,3.251875,3.884375,11,11,"LIGHT_RAIN,LIGHT_RAIN,LIGHT_RAIN,OVERCAST,NIGHT_OVERCAST,NIGHT_DRIZZLE,NIGHT_LIGHT_RAIN,NIGHT_LIGHT_RAIN,NIGHT_CLEAR,NIGHT_CLEAR,NIGHT_CLEAR,NIGHT_MOSTLY_CLOUDY,NIGHT_MOSTLY_CLOUDY,NIGHT_MOSTLY_CLOUDY,MOSTLY_CLOUDY,MOSTLY_CLOUDY","Offshore,Offshore,Offshore,Offshore,Offshore,Offshore,Cross-shore,Cross-shore,Cross-shore,Onshore,Onshore,Onshore,Cross-shore,Cross-shore,Cross-shore,Onshore",16
5842041f4e65fad6a77089bf,2024_03_12,37.8289474958188,-122.5376795097543,Fort Cronkite/Rodeo Beach,1.6875,2.858125,3.410625,13,13,"CLOUDY,CLEAR,MOSTLY_CLOUDY,MOSTLY_CLOUDY,NIGHT_MOSTLY_CLOUDY,NIGHT_CLOUDY,NIGHT_OVERCAST,NIGHT_OVERCAST,NIGHT_MOSTLY_CLOUDY,NIGHT_DRIZZLE,NIGHT_OVERCAST,NIGHT_LIGHT_RAIN,NIGHT_MIST,NIGHT_MIST,MIST,MIST","Onshore,Onshore,Onshore,Onshore,Onshore,Onshore,Onshore,Onshore,Onshore,Onshore,Onshore,Onshore,Onshore,Onshore,Cross-shore,Cross-shore",16
5842041f4e65fad6a77089c0,2024_03_12,41.74415759876137,-124.17717,South Beach CA,1.625,2.31625,2.764375,11,11,"RAIN,LIGHT_RAIN,LIGHT_RAIN,OVERCAST,NIGHT_OVERCAST,NIGHT_LIGHT_RAIN,NIGHT_OVERCAST,NIGHT_LIGHT_RAIN,NIGHT_FOG,NIGHT_FOG,NIGHT_BRIEF_SHOWERS,NIGHT_MOSTLY_CLOUDY,NIGHT_MOSTLY_CLOUDY,NIGHT_BRIEF_SHOWERS,CLEAR,MIST","Onshore,Onshore,Onshore,Onshore,Onshore,Onshore,Onshore,Onshore,Onshore,Onshore,Onshore,Onshore,Onshore,Onshore,Onshore,Onshore",16
5842041f4e65fad6a77089c1,2024_03_12,37.89801283969752,-122.64519,Stinson Beach,2.5,0.834375,1.08875,13,13,"MIST,MIST,MIST,MIST,NIGHT_MIST,NIGHT_OVERCAST,NIGHT_DRIZZLE,NIGHT_BRIEF_SHOWERS,NIGHT_HEAVY_SHOWERS,NIGHT_HEAVY_RAIN,NIGHT_HEAVY_SHOWERS,NIGHT_SHOWERS,NIGHT_LIGHT_RAIN,NIGHT_MIST,MIST,MIST","Offshore,Offshore,Offshore,Offshore,Offshore,Cross-shore,Cross-shore,Cross-shore,Cross-shore,Cross-shore,Onshore,Onshore,Cross-shore,Cross-shore,Offshore,Offshore",16
5842041f4e65fad6a77089c2,2024_03_12,37.90514516176495,-122.68151,Bolinas,2.9375,0.759035625,1.18599125,13,13,"OVERCAST,OVERCAST,MIST,MIST,NIGHT_MOSTLY_CLOUDY,NIGHT_OVERCAST,NIGHT_DRIZZLE,NIGHT_SHOWERS,NIGHT_BRIEF_SHOWERS,NIGHT_RAIN,NIGHT_RAIN,NIGHT_SHOWERS,NIGHT_RAIN,NIGHT_FOG,FOG,MIST","Offshore,Offshore,Offshore,Offshore,Offshore,Offshore,Offshore,Cross-shore,Cross-shore,Cross-shore,Cross-shore,Cross-shore,Cross-shore,Offshore,Offshore,Cross-shore",16
5842041f4e65fad6a77089c3,2024_03_12,38.04892513158693,-122.9892494965416,Point Reyes (north),1.75,3.7975,4.533125,13,13,"CLOUDY,CLOUDY,MOSTLY_CLOUDY,MOSTLY_CLOUDY,NIGHT_DRIZZLE,NIGHT_OVERCAST,NIGHT_OVERCAST,NIGHT_CLOUDY,NIGHT_OVERCAST,NIGHT_DRIZZLE,NIGHT_RAIN,NIGHT_MIST,NIGHT_MIST,NIGHT_CLOUDY,MOSTLY_CLOUDY,CLEAR","Cross-shore,Cross-shore,Cross-shore,Cross-shore,Offshore,Cross-shore,Cross-shore,Offshore,Offshore,Offshore,Cross-shore,Onshore,Onshore,Onshore,Onshore,Onshore",16
5842041f4e65fad6a77089c6,2024_03_12,38.31088736605785,-123.0496777333731,Doran Beach,2.125,0.825625,1.09625,12,12,"DRIZZLE,OVERCAST,BRIEF_SHOWERS,OVERCAST,NIGHT_MOSTLY_CLOUDY,NIGHT_OVERCAST,NIGHT_MOSTLY_CLOUDY,NIGHT_MOSTLY_CLOUDY,NIGHT_DRIZZLE,NIGHT_LIGHT_RAIN,NIGHT_LIGHT_RAIN,NIGHT_OVERCAST,NIGHT_BRIEF_SHOWERS,NIGHT_MOSTLY_CLOUDY,CLEAR,MOSTLY_CLEAR","Cross-shore,Cross-shore,Onshore,Onshore,Onshore,Onshore,Onshore,Onshore,Onshore,Onshore,Onshore,Offshore,Offshore,Offshore,Offshore,Offshore",16
5842041f4e65fad6a77089c7,2024_03_12,38.45077228660809,-123.13008,Russian Rivermouth,2,2.890625,3.449375,12,12,"MIST,OVERCAST,BRIEF_SHOWERS,LIGHT_RAIN,NIGHT_BRIEF_SHOWERS,NIGHT_LIGHT_RAIN,NIGHT_BRIEF_SHOWERS,NIGHT_RAIN,NIGHT_HEAVY_RAIN,NIGHT_LIGHT_RAIN,NIGHT_LIGHT_RAIN,NIGHT_OVERCAST,NIGHT_MOSTLY_CLOUDY,NIGHT_CLEAR,CLEAR,CLEAR","Onshore,Onshore,Onshore,Onshore,Onshore,Onshore,Onshore,Onshore,Onshore,Onshore,Onshore,Onshore,Onshore,Onshore,Onshore,Onshore",16
5842041f4e65fad6a77089c8,2024_03_12,38.35329968518107,-123.06906,Salmon Creek,1.6875,2.815625,3.34,12,12,"MIST,CLEAR,MOSTLY_CLOUDY,OVERCAST,NIGHT_MOSTLY_CLOUDY,NIGHT_DRIZZLE,NIGHT_BRIEF_SHOWERS,NIGHT_BRIEF_SHOWERS,NIGHT_RAIN,NIGHT_MIST,NIGHT_LIGHT_RAIN,NIGHT_MIST,NIGHT_BRIEF_SHOWERS,NIGHT_MOSTLY_CLOUDY,CLEAR,CLEAR","Onshore,Onshore,Onshore,Onshore,Cross-shore,Onshore,Cross-shore,Cross-shore,Cross-shore,Cross-shore,Onshore,Onshore,Onshore,Onshore,Onshore,Onshore",16
5842041f4e65fad6a77089c9,2024_03_12,38.6845180197959,-123.4322714291198,Black Point Beach,3.375,2.125625,2.53875,12,12,"CLOUDY,CLOUDY,DRIZZLE,OVERCAST,NIGHT_LIGHT_RAIN,NIGHT_LIGHT_RAIN,NIGHT_RAIN,NIGHT_RAIN,NIGHT_LIGHT_RAIN,NIGHT_MIST,NIGHT_LIGHT_RAIN,NIGHT_MIST,NIGHT_MOSTLY_CLOUDY,NIGHT_MIST,MOSTLY_CLOUDY,CLEAR","Cross-shore,Cross-shore,Cross-shore,Offshore,Offshore,Offshore,Offshore,Offshore,Cross-shore,Cross-shore,Onshore,Onshore,Onshore,Onshore,Onshore,Onshore",16
5842041f4e65fad6a77089ca,2024_03_12,43.251076,-70.59144,Ogunquit,1.5,0.23875833333333335,0.5603270833333334,4,3,"NIGHT_CLEAR,NIGHT_CLEAR,NIGHT_CLEAR,NIGHT_CLEAR,NIGHT_CLEAR,NIGHT_CLEAR,NIGHT_CLEAR,NIGHT_CLEAR,NIGHT_CLEAR,NIGHT_CLEAR,CLEAR,CLEAR,CLEAR,CLEAR,CLEAR,CLEAR","Offshore,Offshore,Offshore,Offshore,Offshore,Offshore,Offshore,Offshore,Offshore,Offshore,Offshore,Offshore,Offshore,Offshore,Offshore,Offshore",16
5842041f4e65fad6a77089cb,2024_03_12,41.362631366305415,-71.48006772942608,Point Judith,1.166875,0.019743750000000004,0.30708125000000003,6,4,"NIGHT_CLEAR,NIGHT_CLEAR,NIGHT_CLEAR,NIGHT_CLEAR,NIGHT_CLEAR,NIGHT_CLEAR,NIGHT_CLEAR,NIGHT_CLEAR,NIGHT_CLEAR,NIGHT_CLEAR,NIGHT_CLEAR,CLEAR,CLEAR,CLEAR,CLEAR,CLEAR","Offshore,Offshore,Offshore,Offshore,Offshore,Offshore,Offshore,Offshore,Offshore,Offshore,Offshore,Offshore,Offshore,Offshore,Offshore,Offshore",16
5842041f4e65fad6a77089cd,2024_03_12,41.422678090954726,-71.45413,Monahan's - Narragansett,1,0.18752875,0.293015,5.3125,5.3125,"NIGHT_CLEAR,NIGHT_CLEAR,NIGHT_CLEAR,NIGHT_CLEAR,NIGHT_CLEAR,NIGHT_CLEAR,NIGHT_CLEAR,NIGHT_CLEAR,NIGHT_CLEAR,NIGHT_CLEAR,NIGHT_CLEAR,CLEAR,CLEAR,CLEAR,CLEAR,CLEAR","Offshore,Offshore,Offshore,Offshore,Offshore,Offshore,Offshore,Offshore,Offshore,Offshore,Offshore,Offshore,Offshore,Offshore,Offshore,Offshore",16
