_id,date,lat,lon,name,daily_mean_swell_rating,daily_mean_wave_height_min,daily_mean_wave_height_max,daily_mean_water_temperature_max,daily_mean_water_temperature_min,weather_per_timestamp,wind_per_timestamp,n_samples_per_day
5842041f4e65fad6a77087f9,2024_04_08,37.741668,-122.51038,South Ocean Beach,1.3333333333333333,1.5183,1.81725,14,14,"NIGHT_CLEAR,NIGHT_CLEAR,NIGHT_CLEAR,NIGHT_CLEAR,NIGHT_CLEAR,NIGHT_CLEAR","Onshore,Onshore,Onshore,Onshore,Onshore,Onshore",6
5842041f4e65fad6a7708801,2024_04_08,37.49142,-122.50428,Maverick's,NA,1.97,2.305,13,13,"NIGHT_CLEAR,NIGHT_CLEAR,NIGHT_MOSTLY_CLOUDY,NIGHT_MOSTLY_CLOUDY,NIGHT_CLEAR,NIGHT_CLEAR","Offshore,Offshore,Offshore,Offshore,Offshore,Offshore",6
5842041f4e65fad6a7708804,2024_04_08,44.997,-124.018,Roads End,3,1.8516666666666666,2.0966666666666667,11,11,"NIGHT_MOSTLY_CLEAR,NIGHT_MOSTLY_CLOUDY,NIGHT_CLEAR,NIGHT_MOSTLY_CLOUDY,NIGHT_MOSTLY_CLOUDY,NIGHT_MOSTLY_CLEAR","Onshore,Onshore,Onshore,Offshore,Offshore,Cross-shore",6
5842041f4e65fad6a7708805,2024_04_08,36.95188851423011,-122.02522,Steamer Lane,3,0.8462333333333334,1.07185,14,14,"NIGHT_CLEAR,NIGHT_CLEAR,NIGHT_CLEAR,NIGHT_CLEAR,NIGHT_CLEAR,NIGHT_CLEAR","Offshore,Offshore,Offshore,Offshore,Offshore,Offshore",6
5842041f4e65fad6a7708806,2024_04_08,36.95918781542251,-122.02489,Cowells,0.5,0,0.15635000000000002,14,14,"NIGHT_CLEAR,NIGHT_CLEAR,NIGHT_CLEAR,NIGHT_CLEAR,NIGHT_CLEAR,NIGHT_CLEAR","Offshore,Offshore,Cross-shore,Cross-shore,Cross-shore,Offshore",6
5842041f4e65fad6a7708807,2024_04_08,36.95468082526536,-121.97234,Pleasure Point,3,0.6724833333333333,0.9776833333333333,14,14,"NIGHT_CLEAR,NIGHT_CLEAR,NIGHT_CLEAR,NIGHT_CLEAR,NIGHT_CLEAR,NIGHT_CLEAR","Offshore,Offshore,Offshore,Offshore,Cross-shore,Cross-shore",6
5842041f4e65fad6a770880a,2024_04_08,35.37815414378748,-120.86589,Morro Bay,3,1.0028388888888888,1.271238888888889,12,12,"NIGHT_CLEAR,NIGHT_CLEAR,NIGHT_CLEAR,NIGHT_CLEAR,NIGHT_CLEAR,NIGHT_CLEAR","Offshore,Offshore,Cross-shore,Offshore,Offshore,Cross-shore",6
5842041f4e65fad6a770880b,2024_04_08,36.95782765000708,-121.96729,Jack's,2,0.20416666666666666,0.5060333333333333,14,14,"NIGHT_CLEAR,NIGHT_CLEAR,NIGHT_CLEAR,NIGHT_CLEAR,NIGHT_CLEAR,NIGHT_CLEAR","Offshore,Offshore,Offshore,Offshore,Cross-shore,Onshore",6
5842041f4e65fad6a770880d,2024_04_08,34.29982939936656,-119.3489016603669,Gold Coast Beachbreaks,2.8333333333333335,0.4083333333333333,0.71,13,13,"NIGHT_CLEAR,NIGHT_CLEAR,NIGHT_CLEAR,NIGHT_CLEAR,NIGHT_CLEAR,NIGHT_CLEAR","Cross-shore,Cross-shore,Cross-shore,Offshore,Cross-shore,Cross-shore",6
5842041f4e65fad6a7708811,2024_04_08,34.245076,-119.26799,Ventura Harbor,3,0.9571954166666666,1.2267895833333333,12,12,"NIGHT_CLEAR,NIGHT_CLEAR,NIGHT_CLEAR,NIGHT_CLEAR,NIGHT_CLEAR,NIGHT_CLEAR","Offshore,Offshore,Offshore,Offshore,Offshore,Cross-shore",6
5842041f4e65fad6a7708813,2024_04_08,34.051,-118.964,County Line,3,0.6979111111111111,1.0029777777777777,13,13,"NIGHT_CLEAR,NIGHT_CLEAR,NIGHT_CLEAR,NIGHT_CLEAR,NIGHT_CLEAR,NIGHT_CLEAR","Offshore,Offshore,Offshore,Cross-shore,Offshore,Offshore",6
5842041f4e65fad6a7708814,2024_04_08,34.37256264378892,-119.47797,Rincon,3,0.42833333333333334,0.735,13,13,"NIGHT_CLEAR,NIGHT_CLEAR,NIGHT_CLEAR,NIGHT_CLEAR,NIGHT_CLEAR,NIGHT_CLEAR","Offshore,Offshore,Offshore,Offshore,Offshore,Offshore",6
5842041f4e65fad6a7708817,2024_04_08,34.03096101876324,-118.68109,Malibu Third Point,2,0.37333333333333335,0.6783333333333333,14,14,"NIGHT_CLEAR,NIGHT_CLEAR,NIGHT_CLEAR,NIGHT_CLEAR,NIGHT_CLEAR,NIGHT_CLEAR","Offshore,Offshore,Offshore,Offshore,Offshore,Offshore",6
5842041f4e65fad6a7708819,2024_04_08,33.984079047970035,-118.47382,Venice Beach,3,0.8495777777777778,1.0763111111111112,14,14,"NIGHT_CLEAR,NIGHT_CLEAR,NIGHT_CLEAR,NIGHT_CLEAR,NIGHT_CLEAR,NIGHT_CLEAR","Offshore,Cross-shore,Cross-shore,Offshore,Cross-shore,Cross-shore",6
5842041f4e65fad6a770881e,2024_04_08,34.037508438646746,-118.5834,Topanga Beach,3,0.5417333333333333,0.8451333333333333,14,14,"NIGHT_CLEAR,NIGHT_CLEAR,NIGHT_CLEAR,NIGHT_CLEAR,NIGHT_CLEAR,NIGHT_CLEAR","Offshore,Offshore,Cross-shore,Cross-shore,Cross-shore,Offshore",6
5842041f4e65fad6a7708820,2024_04_08,33.73954373690184,-118.11414,Seal Beach Jetty,2.1666666666666665,0.26166666666666666,0.565,15,15,"NIGHT_MIST,NIGHT_MIST,NIGHT_OVERCAST,NIGHT_DRIZZLE,NIGHT_CLEAR,NIGHT_MOSTLY_CLEAR","Offshore,Offshore,Offshore,Offshore,Offshore,Offshore",6
5842041f4e65fad6a7708822,2024_04_08,33.72309983348433,-118.08078,Anderson Street,2.5,0.37999444444444447,0.6815888888888889,14,14,"NIGHT_MIST,NIGHT_MIST,NIGHT_OVERCAST,NIGHT_OVERCAST,NIGHT_CLEAR,NIGHT_MOSTLY_CLEAR","Offshore,Offshore,Offshore,Offshore,Offshore,Offshore",6
5842041f4e65fad6a7708827,2024_04_08,33.65574085629463,-118.00397,Huntington Beach Pier Northside,2.8333333333333335,0.9302722222222223,1.2052,14,14,"NIGHT_MIST,NIGHT_MIST,NIGHT_MIST,NIGHT_MIST,NIGHT_CLEAR,NIGHT_MOSTLY_CLEAR","Onshore,Offshore,Offshore,Offshore,Offshore,Offshore",6
5842041f4e65fad6a7708828,2024_04_08,34.272041739333,-119.29976,C St.,3,0.5932611111111111,0.8966611111111111,12,12,"NIGHT_MIST,NIGHT_MIST,NIGHT_MIST,NIGHT_MIST,NIGHT_CLEAR,NIGHT_CLEAR","Offshore,Offshore,Offshore,Offshore,Offshore,Offshore",6
5842041f4e65fad6a770882a,2024_04_08,33.61555743705257,-117.93676,Newport Lower Jetties,3,0.55305,0.8596444444444444,14,14,"NIGHT_MIST,NIGHT_MIST,NIGHT_DRIZZLE,NIGHT_MIST,NIGHT_MOSTLY_CLEAR,NIGHT_MOSTLY_CLEAR","Cross-shore,Cross-shore,Offshore,Offshore,Offshore,Offshore",6
5842041f4e65fad6a770882b,2024_04_08,33.5930302087,-117.88199,The Wedge,2,0.5068265277777778,0.9343027777777778,14,14,"NIGHT_MIST,NIGHT_MIST,NIGHT_MIST,NIGHT_MIST,NIGHT_MOSTLY_CLEAR,NIGHT_MOSTLY_CLEAR","Offshore,Offshore,Offshore,Offshore,Offshore,Offshore",6
5842041f4e65fad6a770882c,2024_04_08,33.60577342582,-117.9315376281,Newport Beach Pier,2.1666666666666665,0.5872166666666667,0.8938111111111111,14,14,"NIGHT_MIST,NIGHT_MIST,NIGHT_MIST,NIGHT_MIST,NIGHT_MOSTLY_CLEAR,NIGHT_MOSTLY_CLOUDY","Onshore,Onshore,Onshore,Cross-shore,Onshore,Onshore",6
5842041f4e65fad6a770882e,2024_04_08,33.475793399792984,-117.72291,Salt Creek,3,0.6859666666666666,0.9910333333333333,13,13,"NIGHT_BRIEF_SHOWERS,NIGHT_BRIEF_SHOWERS,NIGHT_MIST,NIGHT_MIST,NIGHT_CLEAR,NIGHT_CLEAR","Offshore,Offshore,Offshore,Offshore,Offshore,Cross-shore",6
5842041f4e65fad6a7708830,2024_04_08,33.41800974113613,-117.61952,T-Street,2,0.5913166666666667,0.8962444444444444,14,14,"NIGHT_MIST,NIGHT_CLEAR,NIGHT_MIST,NIGHT_MIST,NIGHT_MIST,NIGHT_CLEAR","Cross-shore,Cross-shore,Cross-shore,Cross-shore,Cross-shore,Cross-shore",6
5842041f4e65fad6a7708832,2024_04_08,33.202391008646,-117.39475,Oceanside Harbor,3,0.6602722222222221,0.9670055555555556,14,14,"NIGHT_DRIZZLE,NIGHT_DRIZZLE,NIGHT_MIST,NIGHT_MIST,NIGHT_MOSTLY_CLOUDY,NIGHT_MOSTLY_CLOUDY","Cross-shore,Offshore,Offshore,Offshore,Offshore,Offshore",6
5842041f4e65fad6a7708835,2024_04_08,33.19477795952803,-117.38667,Oceanside Pier,3,0.5570111111111111,0.8636055555555555,14,14,"NIGHT_MIST,NIGHT_MIST,NIGHT_MIST,NIGHT_MIST,NIGHT_MOSTLY_CLOUDY,NIGHT_MOSTLY_CLOUDY","Cross-shore,Offshore,Offshore,Offshore,Offshore,Offshore",6
5842041f4e65fad6a7708837,2024_04_08,33.14948100706,-117.35029,Tamarack,3,0.43,0.7316666666666667,15,15,"NIGHT_MIST,NIGHT_MIST,NIGHT_MIST,NIGHT_MOSTLY_CLOUDY,NIGHT_OVERCAST,NIGHT_MOSTLY_CLOUDY","Offshore,Offshore,Offshore,Offshore,Offshore,Offshore",6
5842041f4e65fad6a7708839,2024_04_08,32.865777159358856,-117.25614,Scripps,3,0.8659,1.1709666666666667,16,16,"NIGHT_MIST,NIGHT_MIST,NIGHT_MIST,NIGHT_MIST,NIGHT_LIGHT_RAIN_AND_FOG,NIGHT_FOG","Offshore,Offshore,Offshore,Offshore,Offshore,Offshore",6
5842041f4e65fad6a770883a,2024_04_08,32.813094,-117.27381,Birdrock,3,0.7116666666666667,1.0166666666666666,15,15,"NIGHT_MIST,NIGHT_MIST,NIGHT_OVERCAST,NIGHT_OVERCAST,NIGHT_LIGHT_RAIN_AND_FOG,NIGHT_FOG","Onshore,Onshore,Offshore,Offshore,Offshore,Offshore",6
5842041f4e65fad6a770883b,2024_04_08,32.877231,-117.25303,Blacks,2.3333333333333335,0.9393,1.1558944444444446,16,16,"NIGHT_MIST,NIGHT_MIST,NIGHT_MIST,NIGHT_MIST,NIGHT_LIGHT_RAIN_AND_FOG,NIGHT_FOG","Onshore,Onshore,Cross-shore,Cross-shore,Offshore,Offshore",6
5842041f4e65fad6a770883c,2024_04_08,32.82978974229765,-117.28162,Windansea,2,0.8184,1.1233277777777777,15,15,"NIGHT_MIST,NIGHT_OVERCAST,NIGHT_OVERCAST,NIGHT_MIST,NIGHT_LIGHT_RAIN_AND_FOG,NIGHT_FOG","Cross-shore,Cross-shore,Offshore,Offshore,Offshore,Offshore",6
5842041f4e65fad6a770883d,2024_04_08,32.838278,-117.28396,Horseshoe,3,0.8233333333333334,1.1283333333333334,15,15,"NIGHT_MIST,NIGHT_OVERCAST,NIGHT_OVERCAST,NIGHT_MIST,NIGHT_LIGHT_RAIN_AND_FOG,NIGHT_FOG","Cross-shore,Cross-shore,Cross-shore,Offshore,Offshore,Offshore",6
5842041f4e65fad6a770883f,2024_04_08,32.75034717673179,-117.25337,Ocean Beach,2.8333333333333335,0.8198555555555556,1.0920388888888888,15,15,"NIGHT_BRIEF_SHOWERS,NIGHT_OVERCAST,NIGHT_CLOUDY,NIGHT_MIST,NIGHT_FOG,NIGHT_FOG","Cross-shore,Cross-shore,Offshore,Offshore,Offshore,Offshore",6
5842041f4e65fad6a7708840,2024_04_08,32.73693,-117.25718,Sunset Cliffs,2,0.7483333333333333,1.0533333333333332,15,15,"NIGHT_MOSTLY_CLOUDY,NIGHT_MIST,NIGHT_MIST,NIGHT_MIST,NIGHT_FOG,NIGHT_LIGHT_RAIN_AND_FOG","Onshore,Cross-shore,Offshore,Offshore,Offshore,Offshore",6
5842041f4e65fad6a7708841,2024_04_08,32.796582258728826,-117.25779,Pacific Beach,2.6666666666666665,0.8626333333333334,1.1393666666666666,15,15,"NIGHT_MIST,NIGHT_MIST,NIGHT_CLOUDY,NIGHT_CLOUDY,NIGHT_FOG,NIGHT_FOG","Onshore,Onshore,Offshore,Offshore,Offshore,Offshore",6
5842041f4e65fad6a7708842,2024_04_08,32.776636,-117.25514,Mission Beach,3,0.9545777777777777,1.242838888888889,15,15,"NIGHT_MIST,NIGHT_MIST,NIGHT_CLOUDY,NIGHT_CLOUDY,NIGHT_FOG,NIGHT_FOG","Onshore,Onshore,Offshore,Offshore,Offshore,Offshore",6
5842041f4e65fad6a7708844,2024_04_08,32.577195519016,-117.13475,Imperial Beach Pier,2.8333333333333335,0.775,1.0466666666666666,15,15,"NIGHT_MIST,NIGHT_MOSTLY_CLOUDY,NIGHT_MIST,NIGHT_MIST,NIGHT_CLOUDY,NIGHT_FOG","Onshore,Offshore,Offshore,Offshore,Cross-shore,Offshore",6
5842041f4e65fad6a770884a,2024_04_08,42.88678181061,-70.80843,Seabrook,3,0.5499816666666667,0.8783983333333334,5,4,"NIGHT_CLEAR,NIGHT_CLEAR,NIGHT_CLEAR,NIGHT_CLEAR,NIGHT_CLEAR,CLEAR","Offshore,Offshore,Offshore,Offshore,Offshore,Offshore",6
5842041f4e65fad6a770884e,2024_04_08,41.434181432898335,-71.45312,Narragansett,0,0,0.30202222222222225,6,5,"NIGHT_CLEAR,NIGHT_CLEAR,NIGHT_CLEAR,NIGHT_CLEAR,NIGHT_CLEAR,CLEAR","Offshore,Offshore,Offshore,Offshore,Offshore,Offshore",6
5842041f4e65fad6a7708850,2024_04_08,40.582703230722,-73.65247,Lincoln Blvd,0,0,0.15156666666666668,8,7,"NIGHT_CLEAR,NIGHT_CLEAR,NIGHT_CLEAR,NIGHT_CLEAR,NIGHT_CLEAR,CLEAR","Onshore,Cross-shore,Onshore,Cross-shore,Onshore,Cross-shore",6
5842041f4e65fad6a7708852,2024_04_08,40.58342841721757,-73.81182,Rockaways,0,0,0.18057777777777778,8,7,"NIGHT_CLEAR,NIGHT_CLEAR,NIGHT_CLEAR,NIGHT_CLEAR,NIGHT_CLEAR,CLEAR","Cross-shore,Cross-shore,Offshore,Offshore,Offshore,Offshore",6
5842041f4e65fad6a7708853,2024_04_08,40.330474,-73.9734,Monmouth Beach,2,0.013333333333333332,0.31833333333333336,8,7,"NIGHT_CLEAR,NIGHT_CLEAR,NIGHT_CLEAR,NIGHT_CLEAR,NIGHT_CLEAR,CLEAR","Offshore,Offshore,Offshore,Offshore,Offshore,Offshore",6
5842041f4e65fad6a7708856,2024_04_08,40.113,-74.028,Manasquan Inlet,1.0283333333333333,0.0040222222222222265,0.30854444444444445,8,7,"NIGHT_CLEAR,NIGHT_CLEAR,NIGHT_CLEAR,NIGHT_CLEAR,NIGHT_CLEAR,CLEAR","Offshore,Offshore,Offshore,Offshore,Offshore,Offshore",6
5842041f4e65fad6a7708857,2024_04_08,39.941519877445664,-74.06829,Casino Pier,1.0283333333333333,0.3093777777777778,0.6119555555555556,8,7,"NIGHT_CLEAR,NIGHT_CLEAR,NIGHT_CLEAR,NIGHT_CLEAR,NIGHT_CLEAR,CLEAR","Offshore,Offshore,Offshore,Offshore,Offshore,Offshore",6
5842041f4e65fad6a7708858,2024_04_08,39.28223089949212,-74.55766,North End OC,2,0.3211888888888889,0.6257111111111111,8,7,"NIGHT_CLEAR,NIGHT_CLEAR,NIGHT_CLEAR,NIGHT_CLEAR,NIGHT_CLEAR,CLEAR","Cross-shore,Onshore,Cross-shore,Cross-shore,Onshore,Cross-shore",6
5842041f4e65fad6a770885b,2024_04_08,39.65080599934257,-74.17146,Ship Bottom,2,0.3104888888888889,0.6105666666666667,8,7,"NIGHT_CLEAR,NIGHT_CLEAR,NIGHT_CLEAR,NIGHT_CLEAR,NIGHT_CLEAR,CLEAR","Offshore,Offshore,Offshore,Offshore,Offshore,Offshore",6
5842041f4e65fad6a7708863,2024_04_08,36.034151543144,-75.66791,Third Street,2.8333333333333335,0.6482666666666667,0.9794666666666667,12,10,"NIGHT_CLEAR,NIGHT_CLEAR,NIGHT_CLEAR,NIGHT_CLEAR,NIGHT_CLEAR,CLEAR","Offshore,Offshore,Offshore,Offshore,Offshore,Offshore",6
5842041f4e65fad6a7708867,2024_04_08,35.605833221351425,-75.46303,S-Turns,2.1666666666666665,0.5344888888888889,0.9688555555555556,14,13,"NIGHT_CLEAR,NIGHT_CLEAR,NIGHT_CLEAR,NIGHT_CLEAR,NIGHT_CLEAR,CLEAR","Offshore,Offshore,Offshore,Offshore,Offshore,Offshore",6
5842041f4e65fad6a770886d,2024_04_08,38.338461,-75.08117,Ocean City Boardwalk,2,0.5900444444444445,0.8937333333333334,9,8,"NIGHT_CLEAR,NIGHT_CLEAR,NIGHT_CLEAR,NIGHT_CLEAR,NIGHT_CLEAR,CLEAR","Cross-shore,Cross-shore,Cross-shore,Cross-shore,Offshore,Offshore",6
5842041f4e65fad6a770886f,2024_04_08,29.844757212379562,-81.26136,A St.,1,0.12,0.425,19,19,"NIGHT_CLEAR,NIGHT_CLEAR,NIGHT_CLEAR,NIGHT_CLEAR,NIGHT_CLEAR,NIGHT_CLEAR","Onshore,Onshore,Onshore,Onshore,Onshore,Onshore",6
5842041f4e65fad6a7708871,2024_04_08,29.069417851135093,-80.90824,New Smyrna Beach,1,0.3632666666666667,0.6928,20,19,"NIGHT_MOSTLY_CLOUDY,NIGHT_MOSTLY_CLOUDY,NIGHT_MOSTLY_CLOUDY,NIGHT_CLEAR,NIGHT_CLEAR,NIGHT_CLEAR","Onshore,Onshore,Onshore,Onshore,Onshore,Onshore",6
5842041f4e65fad6a7708872,2024_04_08,28.367707417566,-80.60171,Cocoa Beach Pier,1,0.15413333333333334,0.4566,24,23,"NIGHT_MOSTLY_CLOUDY,NIGHT_MOSTLY_CLOUDY,NIGHT_CLEAR,NIGHT_CLOUDY,NIGHT_MOSTLY_CLOUDY,NIGHT_MOSTLY_CLOUDY","Onshore,Onshore,Onshore,Onshore,Onshore,Onshore",6
5842041f4e65fad6a7708873,2024_04_08,28.091782738658846,-80.56479,Indialantic,1,0.3324666666666667,0.6382666666666666,24,23,"NIGHT_MOSTLY_CLOUDY,NIGHT_CLEAR,NIGHT_CLEAR,NIGHT_CLEAR,NIGHT_MOSTLY_CLOUDY,NIGHT_MOSTLY_CLOUDY","Onshore,Onshore,Onshore,Onshore,Onshore,Onshore",6
5842041f4e65fad6a7708876,2024_04_08,27.25392904143517,-80.19455,Jensen Beach,1,0.3358,0.6382666666666666,24,23,"NIGHT_MOSTLY_CLOUDY,NIGHT_CLEAR,NIGHT_MOSTLY_CLOUDY,NIGHT_MOSTLY_CLOUDY,NIGHT_CLEAR,NIGHT_MOSTLY_CLOUDY","Onshore,Onshore,Onshore,Onshore,Onshore,Onshore",6
5842041f4e65fad6a7708879,2024_04_08,26.76346795333825,-80.0360655784607,Reef Road,0.8333333333333334,0.4033333333333333,0.6837333333333333,26,24,"NIGHT_CLEAR,NIGHT_MOSTLY_CLOUDY,NIGHT_CLOUDY,NIGHT_MOSTLY_CLOUDY,NIGHT_MOSTLY_CLOUDY,NIGHT_MOSTLY_CLOUDY","Onshore,Onshore,Onshore,Onshore,Onshore,Onshore",6
5842041f4e65fad6a770887c,2024_04_08,26.336499228484,-80.06956100463,Boca Raton Inlet,0.8333333333333334,0.06833333333333333,0.37246666666666667,26,24,"NIGHT_MOSTLY_CLOUDY,NIGHT_CLEAR,NIGHT_MOSTLY_CLOUDY,NIGHT_MOSTLY_CLOUDY,NIGHT_OVERCAST,NIGHT_OVERCAST","Onshore,Onshore,Onshore,Onshore,Onshore,Onshore",6
5842041f4e65fad6a770887d,2024_04_08,26.31719311695038,-80.07453,Deerfield Beach Pier,0.8333333333333334,0.15601666666666666,0.29359166666666664,26,24,"NIGHT_MOSTLY_CLOUDY,NIGHT_CLEAR,NIGHT_MOSTLY_CLOUDY,NIGHT_MOSTLY_CLOUDY,NIGHT_OVERCAST,NIGHT_OVERCAST","Onshore,Onshore,Onshore,Onshore,Onshore,Onshore",6
5842041f4e65fad6a7708881,2024_04_08,30.20276320866628,-85.85626528676136,"Spyglass Dr., Panama City",0,0,0.15873333333333334,19,18,"NIGHT_CLEAR,NIGHT_CLEAR,NIGHT_CLEAR,NIGHT_CLEAR,NIGHT_CLEAR,NIGHT_CLEAR","Onshore,Cross-shore,Cross-shore,Cross-shore,Cross-shore,Offshore",6
5842041f4e65fad6a7708884,2024_04_08,33.39000832738053,-117.59852,Cottons,3,0.7781888888888889,1.041588888888889,14,14,"NIGHT_MIST,NIGHT_CLEAR,NIGHT_MIST,NIGHT_CLEAR,NIGHT_MOSTLY_CLEAR,NIGHT_MOSTLY_CLEAR","Cross-shore,Cross-shore,Cross-shore,Offshore,Offshore,Cross-shore",6
5842041f4e65fad6a7708885,2024_04_08,33.359416282661,-117.54167901405711,Trails,3,0.41,0.7166666666666667,15,15,"NIGHT_CLEAR,NIGHT_MIST,NIGHT_BRIEF_SHOWERS,NIGHT_MIST,NIGHT_BRIEF_SHOWERS,NIGHT_CLEAR","Offshore,Offshore,Offshore,Offshore,Offshore,Offshore",6
5842041f4e65fad6a7708886,2024_04_08,33.38042605929805,-117.58332,Middles,3,0.5368722222222222,0.8368,14,14,"NIGHT_MIST,NIGHT_CLEAR,NIGHT_MIST,NIGHT_CLEAR,NIGHT_MOSTLY_CLEAR,NIGHT_MOSTLY_CLEAR","Offshore,Offshore,Offshore,Offshore,Offshore,Offshore",6
5842041f4e65fad6a7708887,2024_04_08,33.38445596302903,-117.59445,Upper Trestles,3,0.6862444444444444,0.9878388888888889,14,14,"NIGHT_MIST,NIGHT_CLEAR,NIGHT_MIST,NIGHT_CLEAR,NIGHT_MOSTLY_CLEAR,NIGHT_MOSTLY_CLEAR","Offshore,Offshore,Offshore,Offshore,Offshore,Offshore",6
5842041f4e65fad6a7708889,2024_04_08,28.944414,-95.28883,Surfside,2.1666666666666665,0.8021366666666667,1.2533366666666668,21,21,"NIGHT_LIGHT_RAIN,NIGHT_MIST,NIGHT_MIST,NIGHT_MIST,NIGHT_LIGHT_RAIN,NIGHT_MIST","Onshore,Onshore,Onshore,Onshore,Onshore,Onshore",6
5842041f4e65fad6a770888a,2024_04_08,33.38143999849023,-117.58843,Lower Trestles,3,0.6941611111111111,1.002561111111111,14,14,"NIGHT_MIST,NIGHT_CLEAR,NIGHT_MIST,NIGHT_CLEAR,NIGHT_MOSTLY_CLEAR,NIGHT_MOSTLY_CLEAR","Offshore,Offshore,Offshore,Offshore,Offshore,Offshore",6
5842041f4e65fad6a770888b,2024_04_08,33.379622288757,-117.57894,Church,3,0.5306222222222222,0.8356888888888889,14,14,"NIGHT_MIST,NIGHT_CLEAR,NIGHT_MIST,NIGHT_CLEAR,NIGHT_MOSTLY_CLEAR,NIGHT_MOSTLY_CLEAR","Cross-shore,Offshore,Cross-shore,Offshore,Offshore,Cross-shore",6
5842041f4e65fad6a770888d,2024_04_08,21.679,-158.042,Sunset Beach,3,0.6533333333333333,0.96,26,25,"NIGHT_MOSTLY_CLEAR,NIGHT_SHOWERS,NIGHT_BRIEF_SHOWERS,NIGHT_BRIEF_SHOWERS,NIGHT_BRIEF_SHOWERS,NIGHT_MOSTLY_CLEAR","Cross-shore,Offshore,Cross-shore,Offshore,Offshore,Offshore",6
5842041f4e65fad6a770888e,2024_04_08,21.670550036401,-158.0482,Rocky Point,3,0.7316666666666667,1.0366666666666666,26,25,"NIGHT_SHOWERS,NIGHT_BRIEF_SHOWERS,NIGHT_MOSTLY_CLOUDY,NIGHT_CLEAR,NIGHT_MOSTLY_CLOUDY,NIGHT_MOSTLY_CLEAR","Cross-shore,Cross-shore,Cross-shore,Offshore,Offshore,Offshore",6
5842041f4e65fad6a770888f,2024_04_08,21.668,-158.05,Chambers,3,0.6583333333333333,0.9633333333333333,24,24,"NIGHT_SHOWERS,NIGHT_BRIEF_SHOWERS,NIGHT_MOSTLY_CLOUDY,NIGHT_CLEAR,NIGHT_MOSTLY_CLOUDY,NIGHT_MOSTLY_CLEAR","Cross-shore,Cross-shore,Cross-shore,Offshore,Offshore,Offshore",6
5842041f4e65fad6a7708890,2024_04_08,21.66522,-158.0526,Pipeline,1,0.44333333333333336,0.745,26,25,"NIGHT_SHOWERS,NIGHT_BRIEF_SHOWERS,NIGHT_MOSTLY_CLOUDY,NIGHT_CLEAR,NIGHT_MOSTLY_CLOUDY,NIGHT_MOSTLY_CLEAR","Cross-shore,Cross-shore,Cross-shore,Offshore,Offshore,Offshore",6
5842041f4e65fad6a7708891,2024_04_08,21.665,-158.054,Backdoor,3,0.44333333333333336,0.745,26,25,"NIGHT_SHOWERS,NIGHT_BRIEF_SHOWERS,NIGHT_MOSTLY_CLOUDY,NIGHT_CLEAR,NIGHT_MOSTLY_CLOUDY,NIGHT_MOSTLY_CLEAR","Cross-shore,Cross-shore,Cross-shore,Offshore,Offshore,Offshore",6
5842041f4e65fad6a7708892,2024_04_08,21.662,-158.057,Rockpile,3,0.7683333333333333,1.0766666666666667,24,24,"NIGHT_SHOWERS,NIGHT_BRIEF_SHOWERS,NIGHT_MOSTLY_CLOUDY,NIGHT_CLEAR,NIGHT_MOSTLY_CLOUDY,NIGHT_MOSTLY_CLEAR","Cross-shore,Cross-shore,Cross-shore,Offshore,Offshore,Offshore",6
5842041f4e65fad6a7708893,2024_04_08,21.65870453806827,-158.06058,Log Cabins,2.3333333333333335,0.5366666666666667,0.8416666666666667,24,24,"NIGHT_SHOWERS,NIGHT_BRIEF_SHOWERS,NIGHT_MOSTLY_CLOUDY,NIGHT_CLEAR,NIGHT_MOSTLY_CLOUDY,NIGHT_MOSTLY_CLEAR","Cross-shore,Cross-shore,Cross-shore,Offshore,Offshore,Offshore",6
5842041f4e65fad6a7708894,2024_04_08,21.66203493640557,-158.05495,Off-The-Wall,3,0.6,0.905,24,24,"NIGHT_SHOWERS,NIGHT_BRIEF_SHOWERS,NIGHT_MOSTLY_CLOUDY,NIGHT_CLEAR,NIGHT_MOSTLY_CLOUDY,NIGHT_MOSTLY_CLEAR","Cross-shore,Cross-shore,Cross-shore,Offshore,Offshore,Offshore",6
5842041f4e65fad6a7708895,2024_04_08,21.643,-158.067,Waimea Bay,NA,0.47333333333333333,0.7816666666666667,26,25,"NIGHT_SHOWERS,NIGHT_BRIEF_SHOWERS,NIGHT_MOSTLY_CLOUDY,NIGHT_CLEAR,NIGHT_MOSTLY_CLOUDY,NIGHT_MOSTLY_CLEAR","Cross-shore,Offshore,Offshore,Offshore,Offshore,Offshore",6
5842041f4e65fad6a7708896,2024_04_08,21.622,-158.087,Hultin's,2,0.5333333333333333,0.835,26,25,"NIGHT_CLEAR,NIGHT_CLEAR,NIGHT_CLEAR,NIGHT_CLEAR,NIGHT_MOSTLY_CLOUDY,NIGHT_CLEAR","Offshore,Offshore,Offshore,Offshore,Offshore,Offshore",6
5842041f4e65fad6a7708897,2024_04_08,21.623,-158.085,Jocko's,2,0.4666666666666667,0.7716666666666667,24,24,"NIGHT_CLEAR,NIGHT_CLEAR,NIGHT_CLEAR,NIGHT_CLEAR,NIGHT_MOSTLY_CLOUDY,NIGHT_CLEAR","Cross-shore,Cross-shore,Cross-shore,Cross-shore,Cross-shore,Cross-shore",6
5842041f4e65fad6a7708898,2024_04_08,21.62,-158.088,Laniakea,3,0.785,1.0866666666666667,26,25,"NIGHT_CLEAR,NIGHT_CLEAR,NIGHT_CLEAR,NIGHT_CLEAR,NIGHT_MOSTLY_CLOUDY,NIGHT_CLEAR","Offshore,Cross-shore,Offshore,Offshore,Offshore,Offshore",6
5842041f4e65fad6a7708899,2024_04_08,21.625,-158.083,Chun's,1.5,0.6583333333333333,0.9616666666666667,24,24,"NIGHT_CLEAR,NIGHT_CLEAR,NIGHT_CLEAR,NIGHT_CLEAR,NIGHT_MOSTLY_CLOUDY,NIGHT_CLEAR","Offshore,Offshore,Offshore,Offshore,Offshore,Offshore",6
5842041f4e65fad6a770889c,2024_04_08,21.286357895152136,-157.8515,South Shore - Ala Moana Park,2,0.6516666666666667,0.955,24,24,"NIGHT_CLEAR,NIGHT_CLEAR,NIGHT_CLEAR,NIGHT_CLEAR,NIGHT_MOSTLY_CLOUDY,NIGHT_BRIEF_SHOWERS","Offshore,Offshore,Offshore,Offshore,Offshore,Offshore",6
5842041f4e65fad6a770889d,2024_04_08,19.606,-155.978,Banyans,2.1666666666666665,0.33333333333333337,0.6383333333333333,26,25,"NIGHT_CLEAR,NIGHT_MOSTLY_CLEAR,NIGHT_FOG,NIGHT_CLEAR,NIGHT_MOSTLY_CLEAR,NIGHT_MOSTLY_CLEAR","Onshore,Onshore,Onshore,Onshore,Cross-shore,Cross-shore",6
5842041f4e65fad6a770889e,2024_04_08,20.029,-155.831,Kawaihae,1.5,0.4444,0.52132,25,25,"NIGHT_MOSTLY_CLEAR,NIGHT_MOSTLY_CLEAR,NIGHT_CLEAR,NIGHT_CLEAR,NIGHT_MOSTLY_CLEAR,NIGHT_CLEAR","Onshore,Offshore,Offshore,Offshore,Offshore,Offshore",6
5842041f4e65fad6a770889f,2024_04_08,33.07541383424675,-117.3105,Grandview,2.6666666666666665,0.6900000000000001,0.995,15,15,"NIGHT_MIST,NIGHT_MIST,NIGHT_MIST,NIGHT_MIST,NIGHT_CLOUDY,NIGHT_OVERCAST","Cross-shore,Cross-shore,Offshore,Offshore,Offshore,Offshore",6
5842041f4e65fad6a77088a0,2024_04_08,33.065267421296596,-117.30577,Beacons,3,0.6900000000000001,0.995,15,15,"NIGHT_MIST,NIGHT_MIST,NIGHT_MIST,NIGHT_MIST,NIGHT_CLOUDY,NIGHT_OVERCAST","Cross-shore,Cross-shore,Offshore,Offshore,Offshore,Offshore",6
5842041f4e65fad6a77088a2,2024_04_08,21.252,-157.805,Diamond Head,3,0.9958183333333332,1.3140749999999999,26,25,"NIGHT_CLEAR,NIGHT_MOSTLY_CLOUDY,NIGHT_CLEAR,NIGHT_MOSTLY_CLOUDY,NIGHT_MOSTLY_CLOUDY,NIGHT_MOSTLY_CLEAR","Cross-shore,Cross-shore,Cross-shore,Cross-shore,Cross-shore,Cross-shore",6
5842041f4e65fad6a77088a3,2024_04_08,33.04694255008896,-117.29966,Moonlight State Beach,3,0.685,0.9866666666666667,15,15,"NIGHT_DRIZZLE,NIGHT_OVERCAST,NIGHT_CLOUDY,NIGHT_CLOUDY,NIGHT_OVERCAST,NIGHT_OVERCAST","Offshore,Offshore,Offshore,Offshore,Offshore,Offshore",6
5842041f4e65fad6a77088a5,2024_04_08,33.08685865930869,-117.31532,Ponto,3,0.8133333333333334,1.1183333333333334,15,15,"NIGHT_MIST,NIGHT_MIST,NIGHT_MIST,NIGHT_MIST,NIGHT_CLOUDY,NIGHT_OVERCAST","Offshore,Offshore,Offshore,Offshore,Offshore,Offshore",6
5842041f4e65fad6a77088a6,2024_04_08,33.130343587871906,-117.33668,Terra Mar Point,3,0.5845777777777778,0.8896444444444445,14,14,"NIGHT_MIST,NIGHT_MIST,NIGHT_MIST,NIGHT_OVERCAST,NIGHT_OVERCAST,NIGHT_MOSTLY_CLOUDY","Offshore,Offshore,Offshore,Offshore,Offshore,Offshore",6
5842041f4e65fad6a77088af,2024_04_08,32.95916304183685,-117.26963,Del Mar,3,0.875,1.18,15,15,"NIGHT_MIST,NIGHT_CLOUDY,NIGHT_CLOUDY,NIGHT_CLOUDY,NIGHT_OVERCAST,NIGHT_FOG","Cross-shore,Cross-shore,Cross-shore,Offshore,Offshore,Offshore",6
5842041f4e65fad6a77088b0,2024_04_08,32.97527261243354,-117.2721061331305,Del Mar Rivermouth,2.3333333333333335,0.7733333333333333,1.08,15,15,"NIGHT_CLOUDY,NIGHT_MIST,NIGHT_MIST,NIGHT_MIST,NIGHT_FOG,NIGHT_DRIZZLE","Cross-shore,Cross-shore,Cross-shore,Offshore,Offshore,Offshore",6
5842041f4e65fad6a77088b1,2024_04_08,33.01352178146273,-117.28219,Cardiff Reef,2.3333333333333335,0.7826333333333333,1.08815,14,14,"NIGHT_CLOUDY,NIGHT_CLOUDY,NIGHT_CLOUDY,NIGHT_CLOUDY,NIGHT_FOG,NIGHT_OVERCAST","Offshore,Offshore,Offshore,Offshore,Offshore,Offshore",6
5842041f4e65fad6a77088b3,2024_04_08,33.00211185876003,-117.2811,Seaside Reef,2.3333333333333335,0.78055,1.0844,14,14,"NIGHT_CLOUDY,NIGHT_CLOUDY,NIGHT_CLOUDY,NIGHT_MIST,NIGHT_FOG,NIGHT_OVERCAST","Cross-shore,Cross-shore,Cross-shore,Cross-shore,Offshore,Offshore",6
5842041f4e65fad6a77088b4,2024_04_08,33.0341859796287,-117.29552,Swami's,2.5,0.7487444444444444,1.0520055555555556,14,14,"NIGHT_CLOUDY,NIGHT_CLOUDY,NIGHT_CLOUDY,NIGHT_CLOUDY,NIGHT_FOG,NIGHT_OVERCAST","Offshore,Offshore,Offshore,Offshore,Offshore,Offshore",6
5842041f4e65fad6a77088b7,2024_04_08,33.04569760260221,-117.2994,D Street,3,0.7333333333333333,1.04,15,15,"NIGHT_DRIZZLE,NIGHT_OVERCAST,NIGHT_CLOUDY,NIGHT_CLOUDY,NIGHT_OVERCAST,NIGHT_OVERCAST","Offshore,Offshore,Offshore,Offshore,Offshore,Offshore",6
5842041f4e65fad6a77088b8,2024_04_08,33.02090944350196,-117.28535,San Elijo State Beach,2.3333333333333335,0.5770777777777778,0.8874555555555556,14,14,"NIGHT_CLOUDY,NIGHT_CLOUDY,NIGHT_CLOUDY,NIGHT_CLOUDY,NIGHT_FOG,NIGHT_OVERCAST","Offshore,Offshore,Offshore,Offshore,Offshore,Offshore",6
5842041f4e65fad6a77088c2,2024_04_08,32.80662846492798,-117.2688764333725,PB Point,2.6666666666666665,0.7466666666666666,1.0533333333333332,15,15,"NIGHT_MIST,NIGHT_MIST,NIGHT_OVERCAST,NIGHT_OVERCAST,NIGHT_LIGHT_RAIN_AND_FOG,NIGHT_FOG","Onshore,Cross-shore,Offshore,Offshore,Offshore,Offshore",6
5842041f4e65fad6a77088c4,2024_04_08,32.8060476681448,-117.26479,Old Man's at Tourmaline,3,0.635,0.9416666666666667,15,15,"NIGHT_MIST,NIGHT_MIST,NIGHT_OVERCAST,NIGHT_OVERCAST,NIGHT_LIGHT_RAIN_AND_FOG,NIGHT_FOG","Onshore,Onshore,Offshore,Offshore,Offshore,Offshore",6
5842041f4e65fad6a77088cb,2024_04_08,32.557056711256,-117.1327445020322,Tijuana Slough,2.5,0.6916666666666667,0.9983333333333333,15,15,"NIGHT_MIST,NIGHT_MIST,NIGHT_MIST,NIGHT_MIST,NIGHT_CLOUDY,NIGHT_MOSTLY_CLOUDY","Onshore,Offshore,Offshore,Cross-shore,Cross-shore,Offshore",6
5842041f4e65fad6a77088cc,2024_04_08,32.863,-117.257,La Jolla Shores,3,0.7066666666666667,1.0116666666666667,15,15,"NIGHT_MIST,NIGHT_MIST,NIGHT_MIST,NIGHT_MIST,NIGHT_LIGHT_RAIN_AND_FOG,NIGHT_FOG","Offshore,Offshore,Offshore,Offshore,Offshore,Offshore",6
5842041f4e65fad6a77088ce,2024_04_08,32.67443657790586,-117.17421316238693,Coronado Beach,2,0.4066666666666667,0.71,15,15,"NIGHT_MOSTLY_CLOUDY,NIGHT_MOSTLY_CLOUDY,NIGHT_FOG,NIGHT_FOG,NIGHT_FOG,NIGHT_CLOUDY","Onshore,Onshore,Onshore,Cross-shore,Onshore,Cross-shore",6
5842041f4e65fad6a77088cf,2024_04_08,33.40484417640326,-117.60749,San Clemente State Beach,2.1666666666666665,0.515,0.8200000000000001,15,15,"NIGHT_MIST,NIGHT_CLEAR,NIGHT_CLEAR,NIGHT_CLEAR,NIGHT_MOSTLY_CLEAR,NIGHT_CLEAR","Cross-shore,Cross-shore,Cross-shore,Offshore,Cross-shore,Cross-shore",6
5842041f4e65fad6a77088d5,2024_04_08,33.4663042002114,-117.7168352817103,Strands,2.5,0.7311055555555556,0.9910333333333333,13,13,"NIGHT_BRIEF_SHOWERS,NIGHT_BRIEF_SHOWERS,NIGHT_MIST,NIGHT_MIST,NIGHT_CLEAR,NIGHT_CLEAR","Offshore,Cross-shore,Cross-shore,Cross-shore,Cross-shore,Cross-shore",6
5842041f4e65fad6a77088d7,2024_04_08,33.4609858001748,-117.68535,Doheny State Beach,2,0.07444444444444445,0.3778444444444444,14,14,"NIGHT_MIST,NIGHT_MIST,NIGHT_MOSTLY_CLOUDY,NIGHT_MIST,NIGHT_MOSTLY_CLEAR,NIGHT_MIST","Offshore,Offshore,Offshore,Offshore,Offshore,Offshore",6
5842041f4e65fad6a77088dc,2024_04_08,33.50894790083017,-117.75243,Aliso Creek,2,0.48,0.7816666666666666,15,15,"NIGHT_MIST,NIGHT_MIST,NIGHT_MIST,NIGHT_MIST,NIGHT_MIST,NIGHT_MIST","Cross-shore,Cross-shore,Cross-shore,Cross-shore,Cross-shore,Cross-shore",6
5842041f4e65fad6a77088dd,2024_04_08,33.5326591767067,-117.77764,Brooks Street,2,0.3783333333333333,0.685,15,15,"NIGHT_MIST,NIGHT_MIST,NIGHT_MIST,NIGHT_MIST,NIGHT_CLEAR,NIGHT_MIST","Cross-shore,Cross-shore,Cross-shore,Cross-shore,Cross-shore,Onshore",6
5842041f4e65fad6a77088de,2024_04_08,33.53561225884637,-117.7799,Thalia Street,2,0.4266666666666667,0.7316666666666667,15,15,"NIGHT_MIST,NIGHT_MIST,NIGHT_MIST,NIGHT_MIST,NIGHT_CLEAR,NIGHT_MIST","Cross-shore,Cross-shore,Cross-shore,Cross-shore,Cross-shore,Onshore",6
5842041f4e65fad6a77088e3,2024_04_08,33.54268310353641,-117.7916,Rockpile,2,0.44833333333333336,0.7533333333333333,15,15,"NIGHT_MIST,NIGHT_MIST,NIGHT_MIST,NIGHT_MIST,NIGHT_CLEAR,NIGHT_MIST","Cross-shore,Cross-shore,Cross-shore,Cross-shore,Onshore,Onshore",6
5842041f4e65fad6a77088e4,2024_04_08,33.7368459504689,-118.10342,"Seal Beach Pier, Southside",2,0.08666666666666667,0.39166666666666666,15,15,"NIGHT_MIST,NIGHT_MIST,NIGHT_MIST,NIGHT_MIST,NIGHT_CLEAR,NIGHT_MOSTLY_CLEAR","Offshore,Offshore,Offshore,Offshore,Offshore,Offshore",6
5842041f4e65fad6a77088e5,2024_04_08,33.73933701820233,-118.117,Ray Bay,2,0.075,0.37666666666666665,15,15,"NIGHT_MIST,NIGHT_MIST,NIGHT_OVERCAST,NIGHT_DRIZZLE,NIGHT_CLEAR,NIGHT_MOSTLY_CLEAR","Offshore,Offshore,Offshore,Offshore,Offshore,Offshore",6
5842041f4e65fad6a77088e7,2024_04_08,33.728733,-118.08982,Surfside,2,0.18833333333333335,0.4966666666666667,15,15,"NIGHT_MIST,NIGHT_MIST,NIGHT_OVERCAST,NIGHT_OVERCAST,NIGHT_CLEAR,NIGHT_MOSTLY_CLEAR","Offshore,Offshore,Offshore,Offshore,Offshore,Offshore",6
5842041f4e65fad6a77088e8,2024_04_08,33.68760321488161,-118.04236,Bolsa Chica State Beach,2.6666666666666665,0.635411111111111,0.9421444444444445,14,14,"NIGHT_MIST,NIGHT_MIST,NIGHT_MIST,NIGHT_MIST,NIGHT_CLEAR,NIGHT_MOSTLY_CLEAR","Cross-shore,Cross-shore,Cross-shore,Cross-shore,Cross-shore,Onshore",6
5842041f4e65fad6a77088ea,2024_04_08,33.66704400178788,-118.0192,North HB Streets,2.6666666666666665,0.8665222222222222,1.1182555555555556,14,14,"NIGHT_MIST,NIGHT_MIST,NIGHT_MIST,NIGHT_MIST,NIGHT_CLEAR,NIGHT_CLEAR","Onshore,Onshore,Cross-shore,Cross-shore,Onshore,Onshore",6
5842041f4e65fad6a77088ed,2024_04_08,33.65475101379567,-118.00291,Huntington Beach Pier Southside,2.8333333333333335,0.9138833333333334,1.1459277777777779,14,14,"NIGHT_MIST,NIGHT_MIST,NIGHT_MIST,NIGHT_MIST,NIGHT_CLEAR,NIGHT_MOSTLY_CLEAR","Onshore,Offshore,Offshore,Offshore,Offshore,Offshore",6
5842041f4e65fad6a77088ee,2024_04_08,33.62778647706099,-117.95939,River Jetties,3,0.7649944444444444,1.0382555555555555,14,14,"NIGHT_MIST,NIGHT_MIST,NIGHT_DRIZZLE,NIGHT_MIST,NIGHT_MOSTLY_CLEAR,NIGHT_MOSTLY_CLEAR","Offshore,Offshore,Offshore,Offshore,Offshore,Offshore",6
5842041f4e65fad6a77088f2,2024_04_08,33.605165797643664,-117.92500376701355,Newport Point,2,0.5366666666666667,0.8433333333333333,15,15,"NIGHT_MIST,NIGHT_MIST,NIGHT_MIST,NIGHT_MIST,NIGHT_MOSTLY_CLEAR,NIGHT_MOSTLY_CLOUDY","Onshore,Onshore,Cross-shore,Cross-shore,Onshore,Onshore",6
5842041f4e65fad6a77088f3,2024_04_08,33.58982984726977,-117.87713,Corona del Mar,1,0.18681333333333333,0.29189,15,15,"NIGHT_MIST,NIGHT_MIST,NIGHT_MIST,NIGHT_MIST,NIGHT_MOSTLY_CLEAR,NIGHT_MOSTLY_CLOUDY","Offshore,Offshore,Offshore,Offshore,Offshore,Offshore",6
5842041f4e65fad6a77088f7,2024_04_08,34.00750300824362,-118.4971783496269,Santa Monica Pier,2.6666666666666665,0.5416666666666666,0.845,14,14,"NIGHT_CLEAR,NIGHT_CLEAR,NIGHT_CLEAR,NIGHT_MOSTLY_CLEAR,NIGHT_CLEAR,NIGHT_CLEAR","Offshore,Offshore,Offshore,Offshore,Offshore,Offshore",6
5842041f4e65fad6a77088ff,2024_04_08,33.94070283102945,-118.44321,Dockweiler Beach,3,1.0538783333333333,1.2516220833333334,14,14,"NIGHT_CLEAR,NIGHT_MOSTLY_CLEAR,NIGHT_CLEAR,NIGHT_MIST,NIGHT_MOSTLY_CLEAR,NIGHT_CLEAR","Onshore,Onshore,Offshore,Cross-shore,Offshore,Offshore",6
5842041f4e65fad6a7708900,2024_04_08,33.9231846937237,-118.4341465777908,Shitpipe,3,0.891938888888889,1.1974555555555555,14,14,"NIGHT_CLEAR,NIGHT_MOSTLY_CLEAR,NIGHT_MIST,NIGHT_MIST,NIGHT_CLEAR,NIGHT_MIST","Onshore,Onshore,Offshore,Cross-shore,Offshore,Offshore",6
5842041f4e65fad6a7708902,2024_04_08,33.9108528052242,-118.4279133138721,Hammerland,3,0.882838888888889,1.1883555555555556,14,14,"NIGHT_CLEAR,NIGHT_MOSTLY_CLEAR,NIGHT_MIST,NIGHT_MIST,NIGHT_CLEAR,NIGHT_MIST","Onshore,Onshore,Offshore,Cross-shore,Offshore,Offshore",6
5842041f4e65fad6a7708904,2024_04_08,33.87201368173932,-118.40752,Hermosa Beach,3,0.8860333333333333,1.185961111111111,14,14,"NIGHT_CLEAR,NIGHT_CLEAR,NIGHT_CLEAR,NIGHT_MIST,NIGHT_MIST,NIGHT_MIST","Cross-shore,Cross-shore,Offshore,Offshore,Offshore,Offshore",6
5842041f4e65fad6a7708906,2024_04_08,33.90129336911256,-118.42184,El Porto,3,0.9954777777777778,1.2776611111111111,14,14,"NIGHT_CLEAR,NIGHT_MOSTLY_CLEAR,NIGHT_MIST,NIGHT_MIST,NIGHT_CLEAR,NIGHT_CLEAR","Onshore,Cross-shore,Offshore,Offshore,Offshore,Offshore",6
5842041f4e65fad6a7708907,2024_04_08,33.87963506431794,-118.41102,Manhattan Beach Pier,3,0.8433944444444444,1.1066555555555555,14,14,"NIGHT_CLEAR,NIGHT_MOSTLY_CLEAR,NIGHT_MIST,NIGHT_MIST,NIGHT_CLEAR,NIGHT_CLEAR","Onshore,Cross-shore,Offshore,Offshore,Offshore,Offshore",6
5842041f4e65fad6a7708914,2024_04_08,34.038053387863464,-118.5532,Sunset Point,2.8333333333333335,0.3566666666666667,0.66,14,14,"NIGHT_CLEAR,NIGHT_CLEAR,NIGHT_CLEAR,NIGHT_CLEAR,NIGHT_CLEAR,NIGHT_CLEAR","Offshore,Offshore,Cross-shore,Cross-shore,Cross-shore,Offshore",6
5842041f4e65fad6a7708920,2024_04_08,33.80930828074364,-118.3933198342649,Haggerty's,2,0.266,0.449,14,14,"NIGHT_CLEAR,NIGHT_CLEAR,NIGHT_MOSTLY_CLOUDY,NIGHT_MIST,NIGHT_CLEAR,NIGHT_CLEAR","Cross-shore,Offshore,Offshore,Cross-shore,Offshore,Offshore",6
5842041f4e65fad6a7708921,2024_04_08,33.85044519861206,-118.40048,Redondo Breakwater,3,0.9016666666666666,1.2066666666666666,14,14,"NIGHT_CLEAR,NIGHT_CLEAR,NIGHT_CLEAR,NIGHT_MIST,NIGHT_MIST,NIGHT_MIST","Cross-shore,Cross-shore,Offshore,Offshore,Offshore,Offshore",6
5842041f4e65fad6a7708927,2024_04_08,33.70877301002487,-118.2840112858389,Cabrillo Beach,2,0.17166666666666666,0.47833333333333333,14,14,"NIGHT_MIST,NIGHT_MIST,NIGHT_MIST,NIGHT_MIST,NIGHT_MOSTLY_CLEAR,NIGHT_MOSTLY_CLEAR","Cross-shore,Onshore,Onshore,Onshore,Onshore,Onshore",6
5842041f4e65fad6a770892c,2024_04_08,33.77209986806257,-118.4268428476672,Lunada Bay,2,0.9216666666666666,1.225,14,14,"NIGHT_CLEAR,NIGHT_CLEAR,NIGHT_CLEAR,NIGHT_MOSTLY_CLOUDY,NIGHT_CLEAR,NIGHT_CLEAR","Onshore,Cross-shore,Offshore,Offshore,Cross-shore,Offshore",6
5842041f4e65fad6a770892d,2024_04_08,33.79294656286144,-118.4070316699825,PV Cove,3,0.8524633333333334,1.10887,14,14,"NIGHT_CLEAR,NIGHT_CLEAR,NIGHT_MOSTLY_CLOUDY,NIGHT_MIST,NIGHT_CLEAR,NIGHT_CLEAR","Offshore,Offshore,Cross-shore,Offshore,Offshore,Offshore",6
5842041f4e65fad6a7708930,2024_04_08,34.03944902292561,-118.57539,Chart House,2,0.24,0.5433333333333333,14,14,"NIGHT_CLEAR,NIGHT_CLEAR,NIGHT_CLEAR,NIGHT_CLEAR,NIGHT_CLEAR,NIGHT_CLEAR","Offshore,Offshore,Cross-shore,Cross-shore,Cross-shore,Offshore",6
5842041f4e65fad6a7708936,2024_04_08,34.0016731994772,-118.80456,Point Dume,2,0.21076111111111112,0.5156888888888889,14,14,"NIGHT_CLEAR,NIGHT_MIST,NIGHT_CLEAR,NIGHT_CLEAR,NIGHT_CLEAR,NIGHT_CLEAR","Onshore,Cross-shore,Offshore,Offshore,Offshore,Offshore",6
5842041f4e65fad6a7708937,2024_04_08,34.02587527588963,-118.7554939066114,Latigo Point,2,0.18833333333333332,0.49,14,14,"NIGHT_CLEAR,NIGHT_CLEAR,NIGHT_CLEAR,NIGHT_CLEAR,NIGHT_CLEAR,NIGHT_CLEAR","Offshore,Offshore,Offshore,Offshore,Offshore,Cross-shore",6
5842041f4e65fad6a770893f,2024_04_08,34.043762,-118.93294,Leo Carrillo,3,0.48055000000000003,0.7856166666666666,13,13,"NIGHT_CLEAR,NIGHT_CLEAR,NIGHT_CLEAR,NIGHT_CLEAR,NIGHT_CLEAR,NIGHT_CLEAR","Offshore,Offshore,Offshore,Offshore,Offshore,Offshore",6
5842041f4e65fad6a7708941,2024_04_08,36.69388179265737,-121.81289,Marina State Beach,2.1666666666666665,1.4583333333333335,1.7066666666666668,13,13,"NIGHT_CLEAR,NIGHT_MOSTLY_CLEAR,NIGHT_MOSTLY_CLOUDY,NIGHT_MOSTLY_CLOUDY,NIGHT_MIST,NIGHT_MOSTLY_CLOUDY","Onshore,Onshore,Onshore,Onshore,Onshore,Onshore",6
5842041f4e65fad6a7708944,2024_04_08,34.34145077331085,-119.416999352654,Stanley's,2.1666666666666665,0.4633333333333333,0.7683333333333333,13,13,"NIGHT_CLEAR,NIGHT_CLEAR,NIGHT_CLEAR,NIGHT_CLEAR,NIGHT_CLEAR,NIGHT_CLEAR","Offshore,Offshore,Offshore,Offshore,Offshore,Offshore",6
5842041f4e65fad6a7708945,2024_04_08,34.35113017313915,-119.426921498899,Oil Piers,2.5,0.315,0.6183333333333334,13,13,"NIGHT_CLEAR,NIGHT_CLEAR,NIGHT_CLEAR,NIGHT_CLEAR,NIGHT_CLEAR,NIGHT_CLEAR","Offshore,Offshore,Offshore,Offshore,Offshore,Offshore",6
5842041f4e65fad6a770894c,2024_04_08,34.17876333306018,-119.2399483564372,Oxnard,3,0.6583333333333333,0.9616666666666667,14,14,"NIGHT_CLEAR,NIGHT_CLEAR,NIGHT_CLEAR,NIGHT_MIST,NIGHT_MIST,NIGHT_MIST","Cross-shore,Offshore,Offshore,Offshore,Offshore,Offshore",6
5842041f4e65fad6a7708957,2024_04_08,34.31720331100517,-119.3882324751725,Pitas Point,3,0.43333333333333335,0.7416666666666667,13,13,"NIGHT_CLEAR,NIGHT_CLEAR,NIGHT_CLEAR,NIGHT_CLEAR,NIGHT_CLEAR,NIGHT_CLEAR","Offshore,Offshore,Offshore,Offshore,Offshore,Offshore",6
5842041f4e65fad6a7708959,2024_04_08,34.27851754384724,-119.316202617226,Emma Wood,3,0.43666666666666665,0.745,13,13,"NIGHT_CLEAR,NIGHT_CLEAR,NIGHT_CLEAR,NIGHT_CLEAR,NIGHT_CLEAR,NIGHT_CLEAR","Offshore,Offshore,Offshore,Offshore,Offshore,Offshore",6
5842041f4e65fad6a770895a,2024_04_08,34.35513640390276,-119.4400589884255,Mussel Shoals (aka Little Rincon),2.8333333333333335,0.39166666666666666,0.6933333333333334,13,13,"NIGHT_CLEAR,NIGHT_CLEAR,NIGHT_CLEAR,NIGHT_CLEAR,NIGHT_CLEAR,NIGHT_CLEAR","Offshore,Offshore,Offshore,Offshore,Offshore,Offshore",6
5842041f4e65fad6a770895e,2024_04_08,34.28991757054902,-119.3366646794652,Summer Beach,2.5,0.30666666666666664,0.6116666666666667,13,13,"NIGHT_CLEAR,NIGHT_CLEAR,NIGHT_CLEAR,NIGHT_CLEAR,NIGHT_CLEAR,NIGHT_CLEAR","Cross-shore,Offshore,Offshore,Offshore,Offshore,Offshore",6
5842041f4e65fad6a770895f,2024_04_08,34.30897456105926,-119.3582501170116,Solimar,2.6666666666666665,0.3383333333333333,0.6433333333333333,13,13,"NIGHT_CLEAR,NIGHT_CLEAR,NIGHT_CLEAR,NIGHT_CLEAR,NIGHT_CLEAR,NIGHT_CLEAR","Offshore,Offshore,Offshore,Offshore,Cross-shore,Offshore",6
5842041f4e65fad6a7708960,2024_04_08,34.39836265281686,-119.70213,Leadbetter Point,1.1666666666666667,0.0016666666666666668,0.2783333333333333,13,13,"NIGHT_CLEAR,NIGHT_CLEAR,NIGHT_CLEAR,NIGHT_CLEAR,NIGHT_CLEAR,NIGHT_CLEAR","Offshore,Offshore,Offshore,Cross-shore,Cross-shore,Cross-shore",6
5842041f4e65fad6a7708961,2024_04_08,34.46052293893899,-120.07328,Refugio,1,0,0.30166666666666664,12,12,"NIGHT_CLEAR,NIGHT_CLEAR,NIGHT_CLEAR,NIGHT_CLEAR,NIGHT_CLEAR,NIGHT_CLEAR","Offshore,Offshore,Offshore,Offshore,Offshore,Offshore",6
5842041f4e65fad6a7708962,2024_04_08,34.40754276777778,-119.87639,Devereux,2,0.205,0.5066666666666667,12,12,"NIGHT_CLEAR,NIGHT_CLEAR,NIGHT_CLEAR,NIGHT_CLEAR,NIGHT_CLEAR,NIGHT_CLEAR","Offshore,Offshore,Offshore,Offshore,Offshore,Offshore",6
5842041f4e65fad6a7708963,2024_04_08,34.27479983305182,-119.3133222656776,Ventura Overhead,3,0.44666666666666666,0.75,13,13,"NIGHT_MIST,NIGHT_MIST,NIGHT_MIST,NIGHT_MIST,NIGHT_CLEAR,NIGHT_CLEAR","Cross-shore,Offshore,Offshore,Offshore,Offshore,Offshore",6
5842041f4e65fad6a7708964,2024_04_08,34.41023236011655,-119.88261,Sands,2,0.28833333333333333,0.59,12,12,"NIGHT_CLEAR,NIGHT_CLEAR,NIGHT_CLEAR,NIGHT_CLEAR,NIGHT_CLEAR,NIGHT_CLEAR","Cross-shore,Cross-shore,Offshore,Offshore,Cross-shore,Cross-shore",6
5842041f4e65fad6a7708966,2024_04_08,34.40450193869233,-119.68752,Sandspit,0.6666666666666666,0,0.16833333333333333,13,13,"NIGHT_CLEAR,NIGHT_CLEAR,NIGHT_CLEAR,NIGHT_CLEAR,NIGHT_CLEAR,NIGHT_CLEAR","Offshore,Offshore,Offshore,Offshore,Cross-shore,Cross-shore",6
5842041f4e65fad6a7708967,2024_04_08,34.41549098334453,-119.6375149840203,Hammond's,1.1666666666666667,0.005,0.27166666666666667,13,13,"NIGHT_CLEAR,NIGHT_CLEAR,NIGHT_CLEAR,NIGHT_CLEAR,NIGHT_CLEAR,NIGHT_CLEAR","Cross-shore,Cross-shore,Cross-shore,Offshore,Offshore,Offshore",6
5842041f4e65fad6a7708968,2024_04_08,34.45759322742309,-120.0220251867315,El Capitan,2,0.08166666666666667,0.385,12,12,"NIGHT_CLEAR,NIGHT_CLEAR,NIGHT_CLEAR,NIGHT_CLEAR,NIGHT_CLEAR,NIGHT_CLEAR","Offshore,Offshore,Offshore,Offshore,Offshore,Offshore",6
5842041f4e65fad6a770896c,2024_04_08,34.405117655616,-119.84317,Campus Point,2,0.085,0.39,13,13,"NIGHT_CLEAR,NIGHT_CLEAR,NIGHT_CLEAR,NIGHT_CLEAR,NIGHT_CLEAR,NIGHT_CLEAR","Offshore,Offshore,Offshore,Offshore,Offshore,Offshore",6
5842041f4e65fad6a770896e,2024_04_08,34.38935162233354,-119.51955,Carpinteria State Beach,2.3333333333333335,0.25166666666666665,0.5583333333333333,13,13,"NIGHT_CLEAR,NIGHT_CLEAR,NIGHT_CLEAR,NIGHT_CLEAR,NIGHT_CLEAR,NIGHT_CLEAR","Onshore,Onshore,Onshore,Onshore,Onshore,Cross-shore",6
5842041f4e65fad6a770896f,2024_04_08,37.48296565175612,-122.4549300127824,Half Moon Bay,2.6666666666666665,1.255,1.5566666666666666,13,13,"NIGHT_MOSTLY_CLOUDY,NIGHT_MIST,NIGHT_MOSTLY_CLOUDY,NIGHT_MOSTLY_CLOUDY,NIGHT_CLEAR,NIGHT_CLEAR","Cross-shore,Cross-shore,Cross-shore,Cross-shore,Cross-shore,Cross-shore",6
5842041f4e65fad6a7708970,2024_04_08,37.499,-122.471,Princeton Jetty,2.6666666666666665,0.985,1.2916666666666667,13,13,"NIGHT_BRIEF_SHOWERS,NIGHT_MOSTLY_CLOUDY,NIGHT_BRIEF_SHOWERS,NIGHT_BRIEF_SHOWERS,NIGHT_MOSTLY_CLEAR,NIGHT_CLEAR","Offshore,Cross-shore,Offshore,Offshore,Offshore,Offshore",6
5842041f4e65fad6a7708972,2024_04_08,37.35699547365155,-122.4069534707252,Tunitas Creek,2,2.4216666666666664,2.631666666666667,13,13,"NIGHT_MOSTLY_CLOUDY,NIGHT_MOSTLY_CLOUDY,NIGHT_MOSTLY_CLOUDY,NIGHT_MOSTLY_CLOUDY,NIGHT_CLEAR,NIGHT_MOSTLY_CLEAR","Cross-shore,Cross-shore,Cross-shore,Cross-shore,Cross-shore,Cross-shore",6
5842041f4e65fad6a7708974,2024_04_08,37.54735589428842,-122.5161090212687,Montara,1,1.9716666666666667,2.276666666666667,13,13,"NIGHT_MOSTLY_CLOUDY,NIGHT_MIST,NIGHT_MIST,NIGHT_MIST,NIGHT_CLEAR,NIGHT_CLEAR","Onshore,Onshore,Onshore,Onshore,Onshore,Onshore",6
5842041f4e65fad6a7708975,2024_04_08,34.3869373724559,-119.5142334209018,Tarpits,2.1666666666666665,0.23833333333333334,0.5416666666666666,13,13,"NIGHT_CLEAR,NIGHT_CLEAR,NIGHT_CLEAR,NIGHT_CLEAR,NIGHT_CLEAR,NIGHT_CLEAR","Onshore,Onshore,Onshore,Onshore,Onshore,Onshore",6
5842041f4e65fad6a7708976,2024_04_08,37.59881852720143,-122.50463,Pacifica / Linda Mar,2.1666666666666665,0.6410333333333333,0.9462333333333334,14,14,"NIGHT_MOSTLY_CLOUDY,NIGHT_MOSTLY_CLOUDY,NIGHT_MOSTLY_CLOUDY,NIGHT_MOSTLY_CLOUDY,NIGHT_CLEAR,NIGHT_CLEAR","Onshore,Onshore,Onshore,Onshore,Onshore,Onshore",6
5842041f4e65fad6a7708978,2024_04_08,37.59883098461164,-122.5143843582282,Pedro Point,1.1666666666666667,2.086666666666667,2.3916666666666666,13,13,"NIGHT_MOSTLY_CLOUDY,NIGHT_MOSTLY_CLOUDY,NIGHT_MOSTLY_CLOUDY,NIGHT_MOSTLY_CLOUDY,NIGHT_CLEAR,NIGHT_CLEAR","Onshore,Onshore,Onshore,Onshore,Onshore,Onshore",6
5842041f4e65fad6a7708979,2024_04_08,37.61081996647663,-122.4973287570634,Rockaway,2.3333333333333335,2.025,2.333333333333333,13,13,"NIGHT_MOSTLY_CLOUDY,NIGHT_MOSTLY_CLOUDY,NIGHT_MOSTLY_CLOUDY,NIGHT_MOSTLY_CLOUDY,NIGHT_CLEAR,NIGHT_CLEAR","Onshore,Cross-shore,Onshore,Onshore,Onshore,Onshore",6
5842041f4e65fad6a770897a,2024_04_08,37.809987384424446,-122.4751353263855,Fort Point,3,1.0266666666666666,1.335,13,13,"NIGHT_CLEAR,NIGHT_CLEAR,NIGHT_CLEAR,NIGHT_CLEAR,NIGHT_CLEAR,NIGHT_CLEAR","Offshore,Offshore,Offshore,Offshore,Offshore,Offshore",6
5842041f4e65fad6a770897c,2024_04_08,37.63422542967464,-122.4951,Sharp Park,2.3333333333333335,2.171666666666667,2.4733333333333336,13,13,"NIGHT_MOSTLY_CLOUDY,NIGHT_MOSTLY_CLOUDY,NIGHT_MOSTLY_CLOUDY,NIGHT_MOSTLY_CLEAR,NIGHT_CLEAR,NIGHT_CLEAR","Cross-shore,Cross-shore,Onshore,Onshore,Onshore,Onshore",6
5842041f4e65fad6a770897d,2024_04_08,37.27313605072472,-122.4127387912554,Pescadero,0.8333333333333334,2.4066666666666667,2.64,13,13,"NIGHT_CLOUDY,NIGHT_CLOUDY,NIGHT_CLOUDY,NIGHT_MIST,NIGHT_CLEAR,NIGHT_MOSTLY_CLOUDY","Onshore,Onshore,Cross-shore,Cross-shore,Cross-shore,Cross-shore",6
5842041f4e65fad6a770897e,2024_04_08,37.18140279972666,-122.3926685899327,Pigeon Point,3,2.2483333333333335,2.408333333333333,13,13,"NIGHT_CLOUDY,NIGHT_MIST,NIGHT_MIST,NIGHT_MIST,NIGHT_MOSTLY_CLOUDY,NIGHT_CLEAR","Offshore,Offshore,Offshore,Offshore,Offshore,Offshore",6
5842041f4e65fad6a770897f,2024_04_08,37.11578956919415,-122.314699271291,Ano Nuevo,3.8333333333333335,1.32,1.6083333333333334,13,13,"NIGHT_MOSTLY_CLOUDY,NIGHT_MIST,NIGHT_BRIEF_SHOWERS,NIGHT_MIST,NIGHT_MOSTLY_CLOUDY,NIGHT_MOSTLY_CLOUDY","Offshore,Offshore,Offshore,Offshore,Offshore,Offshore",6
5842041f4e65fad6a7708980,2024_04_08,37.09520872681598,-122.2805474707768,Waddell Creek,3,1.585,1.865,13,13,"NIGHT_MOSTLY_CLOUDY,NIGHT_MOSTLY_CLOUDY,NIGHT_BRIEF_SHOWERS,NIGHT_MOSTLY_CLOUDY,NIGHT_CLEAR,NIGHT_MOSTLY_CLOUDY","Cross-shore,Cross-shore,Offshore,Cross-shore,Cross-shore,Offshore",6
5842041f4e65fad6a7708981,2024_04_08,36.96512852130351,-122.1252825495626,Four Mile,4,1.355,1.625,12,12,"NIGHT_CLEAR,NIGHT_CLEAR,NIGHT_CLEAR,NIGHT_CLEAR,NIGHT_CLEAR,NIGHT_CLEAR","Offshore,Offshore,Offshore,Offshore,Offshore,Offshore",6
5842041f4e65fad6a7708982,2024_04_08,37.04122807048655,-122.2333684729756,Scott Creek,3,1.8033333333333332,1.99,13,13,"NIGHT_CLEAR,NIGHT_CLEAR,NIGHT_CLEAR,NIGHT_MOSTLY_CLOUDY,NIGHT_CLEAR,NIGHT_CLEAR","Cross-shore,Offshore,Offshore,Offshore,Offshore,Offshore",6
5842041f4e65fad6a7708983,2024_04_08,37.02350229387179,-122.21908,Davenport,3,1.565,1.8716666666666666,13,13,"NIGHT_MOSTLY_CLOUDY,NIGHT_MOSTLY_CLOUDY,NIGHT_CLEAR,NIGHT_MOSTLY_CLOUDY,NIGHT_CLEAR,NIGHT_CLEAR","Cross-shore,Offshore,Offshore,Offshore,Offshore,Offshore",6
5842041f4e65fad6a7708986,2024_04_08,36.94905295955728,-122.0611823912244,Natural Bridges,3,1.4183333333333334,1.665,12,12,"NIGHT_CLEAR,NIGHT_CLEAR,NIGHT_CLEAR,NIGHT_CLEAR,NIGHT_CLEAR,NIGHT_CLEAR","Offshore,Offshore,Offshore,Offshore,Offshore,Offshore",6
5842041f4e65fad6a7708987,2024_04_08,36.95154854910425,-122.04207,Mitchell's Cove,3,0.61,0.9166666666666667,13,13,"NIGHT_CLEAR,NIGHT_CLEAR,NIGHT_CLEAR,NIGHT_CLEAR,NIGHT_CLEAR,NIGHT_CLEAR","Offshore,Offshore,Offshore,Offshore,Offshore,Cross-shore",6
5842041f4e65fad6a770898a,2024_04_08,36.9572312370203,-121.98177,26th Ave,2.8333333333333335,0.74,1.025,13,13,"NIGHT_CLEAR,NIGHT_CLEAR,NIGHT_CLEAR,NIGHT_CLEAR,NIGHT_CLEAR,NIGHT_CLEAR","Cross-shore,Onshore,Cross-shore,Cross-shore,Offshore,Offshore",6
5842041f4e65fad6a770898e,2024_04_08,36.91899972819882,-121.85536,Manresa,3,1.1166666666666667,1.3233333333333333,13,13,"NIGHT_CLEAR,NIGHT_CLEAR,NIGHT_CLEAR,NIGHT_CLEAR,NIGHT_CLEAR,NIGHT_MIST","Cross-shore,Cross-shore,Offshore,Cross-shore,Cross-shore,Offshore",6
5842041f4e65fad6a7708990,2024_04_08,34.45747731928454,-120.34242,The Ranch,1,0.19,0.49333333333333335,12,12,"NIGHT_CLEAR,NIGHT_CLEAR,NIGHT_CLEAR,NIGHT_CLEAR,NIGHT_CLEAR,NIGHT_CLEAR","Offshore,Offshore,Offshore,Offshore,Offshore,Offshore",6
5842041f4e65fad6a7708991,2024_04_08,34.50875036590315,-120.50348,Jalama,1,0.6716666666666666,0.975,12,12,"NIGHT_CLEAR,NIGHT_CLEAR,NIGHT_CLEAR,NIGHT_CLEAR,NIGHT_CLEAR,NIGHT_CLEAR","Cross-shore,Offshore,Offshore,Offshore,Offshore,Offshore",6
5842041f4e65fad6a7708996,2024_04_08,34.68700870220497,-120.6111611019887,Surf Beach,1.3333333333333333,2.1333333333333333,2.4333333333333336,12,12,"NIGHT_CLEAR,NIGHT_MOSTLY_CLEAR,NIGHT_CLEAR,NIGHT_CLEAR,NIGHT_CLEAR,NIGHT_CLEAR","Onshore,Onshore,Onshore,Cross-shore,Cross-shore,Cross-shore",6
5842041f4e65fad6a770899c,2024_04_08,35.5730538161116,-121.1143362345574,Moonstone,3,1.2666666666666666,1.5166666666666666,12,12,"NIGHT_CLEAR,NIGHT_CLEAR,NIGHT_CLEAR,NIGHT_CLEAR,NIGHT_CLEAR,NIGHT_CLEAR","Cross-shore,Cross-shore,Cross-shore,Cross-shore,Cross-shore,Offshore",6
5842041f4e65fad6a770899d,2024_04_08,35.61533716776573,-121.1502053073914,Pico Creek,2.6666666666666665,1.3333333333333335,1.4649999999999999,12,12,"NIGHT_CLEAR,NIGHT_CLEAR,NIGHT_CLEAR,NIGHT_CLEAR,NIGHT_CLEAR,NIGHT_CLEAR","Onshore,Onshore,Cross-shore,Cross-shore,Offshore,Cross-shore",6
5842041f4e65fad6a770899e,2024_04_08,35.56829031927379,-121.1120653023953,Santa Rosa Creek,3,1.2666666666666666,1.5166666666666666,12,12,"NIGHT_CLEAR,NIGHT_CLEAR,NIGHT_CLEAR,NIGHT_CLEAR,NIGHT_CLEAR,NIGHT_CLEAR","Offshore,Cross-shore,Cross-shore,Cross-shore,Cross-shore,Cross-shore",6
5842041f4e65fad6a77089a2,2024_04_08,35.44820114936284,-120.90715,"Cayucos Pier, Southside ",3,0.49333333333333335,0.795,12,12,"NIGHT_CLEAR,NIGHT_CLEAR,NIGHT_CLEAR,NIGHT_CLEAR,NIGHT_CLEAR,NIGHT_CLEAR","Offshore,Offshore,Offshore,Offshore,Offshore,Offshore",6
5842041f4e65fad6a77089a4,2024_04_08,35.30143372628852,-120.877819239902,Cable Landing,2.8333333333333335,2.375,2.6133333333333333,12,12,"NIGHT_CLEAR,NIGHT_CLEAR,NIGHT_CLEAR,NIGHT_CLEAR,NIGHT_CLEAR,NIGHT_CLEAR","Cross-shore,Cross-shore,Cross-shore,Cross-shore,Offshore,Offshore",6
5842041f4e65fad6a77089a9,2024_04_08,35.61269103500222,-121.1480725356606,San Simeon,3,0.7256666666666667,0.9415,12,12,"NIGHT_CLEAR,NIGHT_CLEAR,NIGHT_CLEAR,NIGHT_CLEAR,NIGHT_CLEAR,NIGHT_CLEAR","Offshore,Offshore,Offshore,Offshore,Offshore,Offshore",6
5842041f4e65fad6a77089ab,2024_04_08,35.1775325966252,-120.7341125142258,Avila Beach,1,0,0.2816666666666667,12,12,"NIGHT_CLEAR,NIGHT_CLEAR,NIGHT_CLEAR,NIGHT_CLEAR,NIGHT_CLEAR,NIGHT_CLEAR","Offshore,Offshore,Offshore,Offshore,Offshore,Offshore",6
5842041f4e65fad6a77089ac,2024_04_08,35.13877877884115,-120.64535,Pismo Beach Pier,2.3333333333333335,0.7469388888888889,1.050788888888889,12,12,"NIGHT_MOSTLY_CLEAR,NIGHT_CLEAR,NIGHT_CLEAR,NIGHT_CLEAR,NIGHT_CLEAR,NIGHT_CLEAR","Onshore,Cross-shore,Onshore,Onshore,Cross-shore,Cross-shore",6
5842041f4e65fad6a77089ad,2024_04_08,46.8907710233147,-124.12964,Westport/Olympic Peninsula,2.1666666666666665,1.32,1.5716666666666668,10,10,"NIGHT_MOSTLY_CLOUDY,NIGHT_MOSTLY_CLOUDY,NIGHT_DRIZZLE,NIGHT_BRIEF_SHOWERS,NIGHT_MOSTLY_CLOUDY,NIGHT_OVERCAST","Onshore,Onshore,Onshore,Onshore,Onshore,Cross-shore",6
5842041f4e65fad6a77089ae,2024_04_08,46.35185177248545,-124.06747,Long Beach Peninsula,2,1.9283333333333332,2.17,10,10,"NIGHT_CLOUDY,NIGHT_CLOUDY,NIGHT_MOSTLY_CLOUDY,NIGHT_MOSTLY_CLOUDY,NIGHT_MOSTLY_CLOUDY,NIGHT_OVERCAST","Onshore,Cross-shore,Cross-shore,Cross-shore,Cross-shore,Cross-shore",6
5842041f4e65fad6a77089af,2024_04_08,47.90649175554033,-124.6370864743483,La Push,2.6666666666666665,1.5966666666666667,1.8283333333333334,10,10,"NIGHT_CLEAR,NIGHT_CLEAR,NIGHT_OVERCAST,NIGHT_LIGHT_RAIN,NIGHT_DRIZZLE,NIGHT_LIGHT_RAIN","Onshore,Onshore,Cross-shore,Offshore,Offshore,Onshore",6
5842041f4e65fad6a77089b0,2024_04_08,42.04368239985442,-124.26828,Brookings Jetty,3,0.8825383333333333,1.378965,10,10,"NIGHT_CLEAR,NIGHT_CLEAR,NIGHT_CLEAR,NIGHT_CLEAR,NIGHT_CLEAR,NIGHT_CLEAR","Offshore,Offshore,Offshore,Offshore,Offshore,Offshore",6
5842041f4e65fad6a77089b1,2024_04_08,42.74071837900346,-124.4983727491047,Port Orford,3,1.025,1.2966666666666666,11,11,"NIGHT_CLEAR,NIGHT_CLEAR,NIGHT_MOSTLY_CLOUDY,NIGHT_CLEAR,NIGHT_CLEAR,NIGHT_CLEAR","Offshore,Offshore,Offshore,Offshore,Offshore,Offshore",6
5842041f4e65fad6a77089b2,2024_04_08,44.01532689312291,-124.13865,Florence South Jetty,3,2.0816666666666666,2.388333333333333,11,11,"NIGHT_MOSTLY_CLEAR,NIGHT_MOSTLY_CLEAR,NIGHT_CLEAR,NIGHT_CLEAR,NIGHT_CLEAR,NIGHT_MOSTLY_CLOUDY","Onshore,Onshore,Onshore,Onshore,Onshore,Onshore",6
5842041f4e65fad6a77089b3,2024_04_08,42.41812540774362,-124.42945,Gold Beach South Jetty,4,1.62,1.875,10,10,"NIGHT_CLEAR,NIGHT_CLEAR,NIGHT_MOSTLY_CLEAR,NIGHT_MOSTLY_CLOUDY,NIGHT_CLEAR,NIGHT_CLEAR","Offshore,Offshore,Offshore,Offshore,Offshore,Offshore",6
5842041f4e65fad6a77089b4,2024_04_08,44.95857310226525,-124.0219017690976,Lincoln City,3,1.9549999999999998,2.2133333333333334,11,11,"NIGHT_MOSTLY_CLOUDY,NIGHT_BRIEF_SHOWERS,NIGHT_MOSTLY_CLOUDY,NIGHT_MOSTLY_CLOUDY,NIGHT_MOSTLY_CLOUDY,NIGHT_MOSTLY_CLOUDY","Onshore,Onshore,Cross-shore,Cross-shore,Cross-shore,Cross-shore",6
5842041f4e65fad6a77089b5,2024_04_08,44.63792761362982,-124.0657,Newport,3,2.1433333333333335,2.47,10,10,"NIGHT_MOSTLY_CLEAR,NIGHT_MOSTLY_CLEAR,NIGHT_MOSTLY_CLOUDY,NIGHT_CLEAR,NIGHT_MOSTLY_CLOUDY,NIGHT_MOSTLY_CLOUDY","Onshore,Onshore,Onshore,Onshore,Onshore,Onshore",6
5842041f4e65fad6a77089b6,2024_04_08,45.61468496266301,-123.94643,Rockaway Beach,3,1.99,2.26,10,10,"NIGHT_MOSTLY_CLOUDY,NIGHT_MOSTLY_CLOUDY,NIGHT_MOSTLY_CLOUDY,NIGHT_CLEAR,NIGHT_MOSTLY_CLOUDY,NIGHT_MOSTLY_CLOUDY","Cross-shore,Cross-shore,Cross-shore,Cross-shore,Cross-shore,Cross-shore",6
5842041f4e65fad6a77089b7,2024_04_08,45.20252914186085,-123.96975,Pacific City,3,1.6883333333333335,1.935,11,11,"NIGHT_CLEAR,NIGHT_MOSTLY_CLOUDY,NIGHT_MOSTLY_CLOUDY,NIGHT_MOSTLY_CLOUDY,NIGHT_MOSTLY_CLEAR,NIGHT_MOSTLY_CLOUDY","Onshore,Onshore,Onshore,Onshore,Onshore,Cross-shore",6
5842041f4e65fad6a77089b8,2024_04_08,45.88179930310263,-123.96681,Cannon Beach,3,1.8366666666666667,2.0833333333333335,10,10,"NIGHT_MIST,NIGHT_MOSTLY_CLOUDY,NIGHT_BRIEF_SHOWERS,NIGHT_MOSTLY_CLOUDY,NIGHT_CLEAR,NIGHT_MOSTLY_CLOUDY","Onshore,Onshore,Onshore,Onshore,Onshore,Onshore",6
5842041f4e65fad6a77089ba,2024_04_08,40.02528754746774,-124.06372,Shelter Cove,3,0.43895833333333334,0.68587,11,11,"NIGHT_CLEAR,NIGHT_CLEAR,NIGHT_CLEAR,NIGHT_CLEAR,NIGHT_CLEAR,NIGHT_CLEAR","Offshore,Offshore,Offshore,Offshore,Offshore,Offshore",6
5842041f4e65fad6a77089bb,2024_04_08,40.76816197136951,-124.24248,Humboldt Harbor Entrance,3,2.1550000000000002,2.4766666666666666,10,10,"NIGHT_OVERCAST,NIGHT_CLOUDY,NIGHT_CLOUDY,NIGHT_OVERCAST,NIGHT_OVERCAST,NIGHT_OVERCAST","Cross-shore,Cross-shore,Cross-shore,Cross-shore,Cross-shore,Cross-shore",6
5842041f4e65fad6a77089bc,2024_04_08,40.76684246920174,-124.23107,North Jetty,2.8333333333333335,3.0416666666666665,3.5433333333333334,10,10,"NIGHT_OVERCAST,NIGHT_OVERCAST,NIGHT_CLOUDY,NIGHT_OVERCAST,NIGHT_OVERCAST,NIGHT_OVERCAST","Cross-shore,Cross-shore,Cross-shore,Cross-shore,Cross-shore,Cross-shore",6
5842041f4e65fad6a77089bd,2024_04_08,41.02731183893966,-124.1149972888982,Westhaven,3,3.2316666666666665,3.763333333333333,10,10,"NIGHT_CLEAR,NIGHT_CLOUDY,NIGHT_CLOUDY,NIGHT_CLEAR,NIGHT_DRIZZLE,NIGHT_CLOUDY","Cross-shore,Cross-shore,Cross-shore,Cross-shore,Cross-shore,Cross-shore",6
5842041f4e65fad6a77089be,2024_04_08,41.13016238153297,-124.16466,Sue-meg,2,2.2416666666666667,2.535,10,10,"NIGHT_CLOUDY,NIGHT_OVERCAST,NIGHT_OVERCAST,NIGHT_OVERCAST,NIGHT_CLOUDY,NIGHT_CLOUDY","Cross-shore,Cross-shore,Cross-shore,Cross-shore,Cross-shore,Cross-shore",6
5842041f4e65fad6a77089bf,2024_04_08,37.8289474958188,-122.5376795097543,Fort Cronkite/Rodeo Beach,3,1.3450000000000002,1.61,13,13,"NIGHT_CLEAR,NIGHT_CLEAR,NIGHT_CLEAR,NIGHT_CLEAR,NIGHT_CLEAR,NIGHT_CLEAR","Offshore,Offshore,Offshore,Offshore,Offshore,Offshore",6
5842041f4e65fad6a77089c0,2024_04_08,41.74415759876137,-124.17717,South Beach CA,3,0.685,0.9916666666666667,10,10,"NIGHT_CLEAR,NIGHT_MOSTLY_CLOUDY,NIGHT_CLEAR,NIGHT_MOSTLY_CLEAR,NIGHT_CLEAR,NIGHT_CLEAR","Offshore,Offshore,Offshore,Offshore,Offshore,Offshore",6
5842041f4e65fad6a77089c1,2024_04_08,37.89801283969752,-122.64519,Stinson Beach,3,0.51,0.8166666666666667,12,12,"NIGHT_MOSTLY_CLEAR,NIGHT_CLEAR,NIGHT_CLEAR,NIGHT_CLEAR,NIGHT_CLEAR,NIGHT_CLEAR","Offshore,Offshore,Offshore,Offshore,Offshore,Offshore",6
5842041f4e65fad6a77089c2,2024_04_08,37.90514516176495,-122.68151,Bolinas,2,0.31164166666666665,0.48694166666666666,12,12,"NIGHT_CLEAR,NIGHT_CLEAR,NIGHT_CLEAR,NIGHT_CLEAR,NIGHT_CLEAR,NIGHT_CLEAR","Cross-shore,Cross-shore,Cross-shore,Cross-shore,Cross-shore,Cross-shore",6
5842041f4e65fad6a77089c3,2024_04_08,38.04892513158693,-122.9892494965416,Point Reyes (north),1,2.74,3.035,12,12,"NIGHT_MOSTLY_CLOUDY,NIGHT_CLEAR,NIGHT_CLEAR,NIGHT_CLEAR,NIGHT_CLEAR,NIGHT_CLEAR","Onshore,Onshore,Onshore,Onshore,Onshore,Onshore",6
5842041f4e65fad6a77089c6,2024_04_08,38.31088736605785,-123.0496777333731,Doran Beach,2,0.16166666666666668,0.4666666666666667,11,11,"NIGHT_CLEAR,NIGHT_CLEAR,NIGHT_CLEAR,NIGHT_CLEAR,NIGHT_CLEAR,NIGHT_CLEAR","Offshore,Offshore,Offshore,Offshore,Offshore,Offshore",6
5842041f4e65fad6a77089c7,2024_04_08,38.45077228660809,-123.13008,Russian Rivermouth,3,1.6283333333333334,1.9466666666666665,11,11,"NIGHT_CLEAR,NIGHT_CLEAR,NIGHT_CLEAR,NIGHT_CLEAR,NIGHT_CLEAR,NIGHT_CLEAR","Cross-shore,Cross-shore,Offshore,Offshore,Offshore,Offshore",6
5842041f4e65fad6a77089c8,2024_04_08,38.35329968518107,-123.06906,Salmon Creek,2,2.1516666666666664,2.413333333333333,11,11,"NIGHT_CLEAR,NIGHT_CLEAR,NIGHT_CLEAR,NIGHT_CLEAR,NIGHT_CLEAR,NIGHT_CLEAR","Onshore,Cross-shore,Cross-shore,Onshore,Onshore,Cross-shore",6
5842041f4e65fad6a77089c9,2024_04_08,38.6845180197959,-123.4322714291198,Black Point Beach,2,0.7,1.0033333333333334,10,10,"NIGHT_CLEAR,NIGHT_CLEAR,NIGHT_CLEAR,NIGHT_CLEAR,NIGHT_CLEAR,NIGHT_CLEAR","Onshore,Onshore,Onshore,Onshore,Onshore,Onshore",6
5842041f4e65fad6a77089ca,2024_04_08,43.251076,-70.59144,Ogunquit,3,0.5916,0.9211333333333334,5,4,"NIGHT_CLEAR,NIGHT_CLEAR,NIGHT_CLEAR,NIGHT_CLEAR,NIGHT_CLEAR,CLEAR","Offshore,Offshore,Offshore,Offshore,Offshore,Offshore",6
5842041f4e65fad6a77089cb,2024_04_08,41.362631366305415,-71.48007,Point Judith,0.16666666666666666,0,0.30202222222222225,6,5,"NIGHT_CLEAR,NIGHT_CLEAR,NIGHT_CLEAR,NIGHT_CLEAR,NIGHT_CLEAR,CLEAR","Offshore,Offshore,Offshore,Offshore,Offshore,Offshore",6
5842041f4e65fad6a77089cd,2024_04_08,41.422678090954726,-71.45413,Monahan's - Narragansett,1,0.13756666666666667,0.21494666666666667,6,6,"NIGHT_CLEAR,NIGHT_CLEAR,NIGHT_CLEAR,NIGHT_CLEAR,NIGHT_CLEAR,CLEAR","Offshore,Offshore,Offshore,Offshore,Offshore,Offshore",6
5842041f4e65fad6a77089ce,2024_04_08,41.469,-71.293,Ruggles - Newport,1,0.147845,0.23100666666666667,6,6,"NIGHT_CLEAR,NIGHT_CLEAR,NIGHT_CLEAR,NIGHT_CLEAR,NIGHT_CLEAR,CLEAR","Offshore,Offshore,Offshore,Offshore,Offshore,Offshore",6
5842041f4e65fad6a77089cf,2024_04_08,43.175394,-70.606351,Short Sands Beach,2.3333333333333335,0.4583333333333333,0.7616666666666667,5,5,"NIGHT_CLEAR,NIGHT_CLEAR,NIGHT_CLEAR,NIGHT_CLEAR,NIGHT_CLEAR,CLEAR","Cross-shore,Offshore,Offshore,Offshore,Offshore,Offshore",6
5842041f4e65fad6a77089d0,2024_04_08,41.487408,-71.29017,First Beach,0.16666666666666666,0,0.12833333333333333,6,6,"NIGHT_CLEAR,NIGHT_CLEAR,NIGHT_CLEAR,NIGHT_CLEAR,NIGHT_CLEAR,CLEAR","Offshore,Offshore,Offshore,Offshore,Offshore,Offshore",6
5842041f4e65fad6a77089d1,2024_04_08,42.27916830233153,-70.86498,Nantasket Beach,2.1666666666666665,0.49660000000000004,0.8261333333333334,6,4,"NIGHT_CLEAR,NIGHT_CLEAR,NIGHT_CLEAR,NIGHT_CLEAR,NIGHT_CLEAR,CLEAR","Cross-shore,Cross-shore,Cross-shore,Cross-shore,Cross-shore,Cross-shore",6
5842041f4e65fad6a77089d2,2024_04_08,41.817,-69.935,Cape Cod,3,0.7633333333333333,1.0683333333333334,5,5,"NIGHT_CLEAR,NIGHT_CLEAR,NIGHT_CLEAR,NIGHT_CLEAR,NIGHT_CLEAR,CLEAR","Offshore,Offshore,Offshore,Offshore,Offshore,Offshore",6
5842041f4e65fad6a77089d3,2024_04_08,42.22055448975661,-70.70634873403819,Egypt Beach,2,0.65,0.9566666666666667,5,5,"NIGHT_CLEAR,NIGHT_CLEAR,NIGHT_CLEAR,NIGHT_CLEAR,NIGHT_CLEAR,CLEAR","Offshore,Offshore,Offshore,Offshore,Offshore,Offshore",6
5842041f4e65fad6a77089d4,2024_04_08,41.48739647744607,-71.25723,Second Beach,0,0.07339833333333333,0.14008166666666666,6,5,"NIGHT_CLEAR,NIGHT_CLEAR,NIGHT_CLEAR,NIGHT_CLEAR,NIGHT_CLEAR,CLEAR","Offshore,Offshore,Offshore,Offshore,Offshore,Offshore",6
5842041f4e65fad6a77089d5,2024_04_08,42.964,-70.769,Fox Hill,2.1666666666666665,0.24493333333333334,0.5744666666666667,5,4,"NIGHT_CLEAR,NIGHT_CLEAR,NIGHT_CLEAR,NIGHT_CLEAR,NIGHT_CLEAR,CLEAR","Offshore,Offshore,Offshore,Offshore,Offshore,Offshore",6
5842041f4e65fad6a77089d6,2024_04_08,42.991359,-70.75149,Straws Point,3,0.46326666666666666,0.7928,5,4,"NIGHT_CLEAR,NIGHT_CLEAR,NIGHT_CLEAR,NIGHT_CLEAR,NIGHT_CLEAR,CLEAR","Offshore,Offshore,Offshore,Offshore,Offshore,Offshore",6
5842041f4e65fad6a77089d7,2024_04_08,42.946,-70.786,Plaice Cove,2.1666666666666665,0.24493333333333334,0.5744666666666667,5,4,"NIGHT_CLEAR,NIGHT_CLEAR,NIGHT_CLEAR,NIGHT_CLEAR,NIGHT_CLEAR,CLEAR","Offshore,Offshore,Offshore,Offshore,Offshore,Offshore",6
5842041f4e65fad6a77089d9,2024_04_08,42.911574,-70.80831,The Main Beach,3,0.6694833333333334,1.009554722222222,6,4,"NIGHT_CLEAR,NIGHT_CLEAR,NIGHT_CLEAR,NIGHT_CLEAR,NIGHT_CLEAR,CLEAR","Offshore,Offshore,Offshore,Offshore,Offshore,Offshore",6
5842041f4e65fad6a77089da,2024_04_08,42.97583846220203,-70.764,Sawyer's Beach,2.1666666666666665,0.2899333333333333,0.6228,5,4,"NIGHT_CLEAR,NIGHT_CLEAR,NIGHT_CLEAR,NIGHT_CLEAR,NIGHT_CLEAR,CLEAR","Offshore,Offshore,Offshore,Offshore,Offshore,Offshore",6
5842041f4e65fad6a77089db,2024_04_08,42.97,-70.77,Rye on the Rocks / 5-0's,2.9166666666666665,0.6232388888888889,0.9506330555555556,6,4,"NIGHT_CLEAR,NIGHT_CLEAR,NIGHT_CLEAR,NIGHT_CLEAR,NIGHT_CLEAR,CLEAR","Offshore,Offshore,Offshore,Offshore,Offshore,Offshore",6
5842041f4e65fad6a77089dc,2024_04_08,43.55902946610303,-70.27795,Higgins Beach,1.445,0.04091111111111114,0.3459888888888889,5,4,"NIGHT_CLEAR,NIGHT_CLEAR,NIGHT_CLEAR,NIGHT_CLEAR,NIGHT_CLEAR,CLEAR","Offshore,Offshore,Offshore,Offshore,Offshore,Offshore",6
5842041f4e65fad6a77089dd,2024_04_08,43.302676,-70.5652,Wells Beach,2.1666666666666665,0.27993333333333337,0.6111333333333333,5,4,"NIGHT_CLEAR,NIGHT_CLEAR,NIGHT_CLEAR,NIGHT_CLEAR,NIGHT_CLEAR,CLEAR","Offshore,Offshore,Offshore,Offshore,Offshore,Offshore",6
5842041f4e65fad6a77089de,2024_04_08,43.545359,-70.30479,Scarborough Beach State Park,2.1666666666666665,0.36576166666666665,0.59055,5,4,"NIGHT_CLEAR,NIGHT_CLEAR,NIGHT_CLEAR,NIGHT_CLEAR,NIGHT_CLEAR,CLEAR","Offshore,Offshore,Offshore,Offshore,Offshore,Offshore",6
5842041f4e65fad6a77089df,2024_04_08,43.514481,-70.372146,Old Orchard Beach,3,0.5684888888888889,0.89507777777777775,5,4,"NIGHT_CLEAR,NIGHT_CLEAR,NIGHT_CLEAR,NIGHT_CLEAR,NIGHT_CLEAR,CLEAR","Offshore,Offshore,Offshore,Offshore,Offshore,Offshore",6
5842041f4e65fad6a77089e0,2024_04_08,43.34711,-70.48165,Gooch's Beach,2,0.15413333333333334,0.4599333333333333,5,4,"NIGHT_CLEAR,NIGHT_CLEAR,NIGHT_CLEAR,NIGHT_CLEAR,NIGHT_CLEAR,CLEAR","Offshore,Offshore,Offshore,Offshore,Offshore,Offshore",6
5842041f4e65fad6a77089e2,2024_04_08,40.58433,-73.62953,Lido Beach,0,0,0.1501777777777778,8,7,"NIGHT_CLEAR,NIGHT_CLEAR,NIGHT_CLEAR,NIGHT_CLEAR,NIGHT_CLEAR,CLEAR","Cross-shore,Cross-shore,Onshore,Offshore,Cross-shore,Cross-shore",6
5842041f4e65fad6a77089e3,2024_04_08,43.163135,-70.61689,Long Sands Beach,3,0.5814863888888889,0.8958705555555555,5,4,"NIGHT_CLEAR,NIGHT_CLEAR,NIGHT_CLEAR,NIGHT_CLEAR,NIGHT_CLEAR,CLEAR","Offshore,Offshore,Offshore,Offshore,Offshore,Offshore",6
5842041f4e65fad6a77089e4,2024_04_08,40.61695351251805,-73.39376,Gilgo Beach,0.16666666666666666,0,0.16413333333333333,8,7,"NIGHT_CLEAR,NIGHT_CLEAR,NIGHT_CLEAR,NIGHT_CLEAR,NIGHT_CLEAR,CLEAR","Cross-shore,Cross-shore,Offshore,Offshore,Offshore,Offshore",6
5842041f4e65fad6a77089e5,2024_04_08,40.62530081928036,-73.23827,Robert Moses,0.3333333333333333,0,0.16,6,6,"NIGHT_CLEAR,NIGHT_CLEAR,NIGHT_CLEAR,NIGHT_CLEAR,NIGHT_CLEAR,CLEAR","Cross-shore,Offshore,Offshore,Offshore,Offshore,Offshore",6
5842041f4e65fad6a77089e6,2024_04_08,40.64313317632791,-73.15727,Fire Island,0.5,0,0.16333333333333333,6,6,"NIGHT_CLEAR,NIGHT_CLEAR,NIGHT_CLEAR,NIGHT_CLEAR,NIGHT_CLEAR,CLEAR","Cross-shore,Offshore,Offshore,Offshore,Offshore,Offshore",6
5842041f4e65fad6a77089e8,2024_04_08,40.76653118828782,-72.74579619372713,Cupsogue,1,0,0.22,6,6,"NIGHT_CLEAR,NIGHT_CLEAR,NIGHT_CLEAR,NIGHT_CLEAR,NIGHT_CLEAR,CLEAR","Cross-shore,Cross-shore,Offshore,Offshore,Offshore,Offshore",6
5842041f4e65fad6a77089e9,2024_04_08,42.9376373334092,-70.79141,The Wall ,3,0.6746472222222223,1.0176244444444444,6,4,"NIGHT_CLEAR,NIGHT_CLEAR,NIGHT_CLEAR,NIGHT_CLEAR,NIGHT_CLEAR,CLEAR","Offshore,Offshore,Offshore,Offshore,Offshore,Offshore",6
5842041f4e65fad6a77089ea,2024_04_08,40.887088,-72.33856,Flys,1,0,0.22,6,6,"NIGHT_CLEAR,NIGHT_CLEAR,NIGHT_CLEAR,NIGHT_CLEAR,NIGHT_CLEAR,CLEAR","Cross-shore,Offshore,Cross-shore,Offshore,Offshore,Offshore",6
5842041f4e65fad6a77089eb,2024_04_08,41.0389266436591,-71.91068529316958,Trailer Park,0.6933333333333334,0,0.30391666666666667,8,7,"NIGHT_CLEAR,NIGHT_CLEAR,NIGHT_CLEAR,NIGHT_CLEAR,NIGHT_CLEAR,CLEAR","Offshore,Offshore,Offshore,Offshore,Cross-shore,Offshore",6
5842041f4e65fad6a77089ec,2024_04_08,41.039505402729105,-71.9142,Ditch Plains,1.1666666666666667,0.178115,0.278305,6,6,"NIGHT_CLEAR,NIGHT_CLEAR,NIGHT_CLEAR,NIGHT_CLEAR,NIGHT_CLEAR,CLEAR","Offshore,Offshore,Offshore,Offshore,Offshore,Offshore",6
5842041f4e65fad6a77089ee,2024_04_08,40.57633275206492,-73.56895305108567,"West End, Jones Beach",0,0,0.1908,8,7,"NIGHT_CLEAR,NIGHT_CLEAR,NIGHT_CLEAR,NIGHT_CLEAR,NIGHT_CLEAR,CLEAR","Cross-shore,Cross-shore,Cross-shore,Offshore,Cross-shore,Cross-shore",6
5842041f4e65fad6a77089f1,2024_04_08,41.038286691230795,-71.91991567611694,Poles,0.4716666666666667,0,0.3101305555555556,8,7,"NIGHT_CLEAR,NIGHT_CLEAR,NIGHT_CLEAR,NIGHT_CLEAR,NIGHT_CLEAR,CLEAR","Offshore,Offshore,Offshore,Offshore,Offshore,Offshore",6
5842041f4e65fad6a77089f3,2024_04_08,40.84077769766295,-72.47989493724765,The Bowl,1,0,0.22,6,6,"NIGHT_CLEAR,NIGHT_CLEAR,NIGHT_CLEAR,NIGHT_CLEAR,NIGHT_CLEAR,CLEAR","Cross-shore,Cross-shore,Offshore,Offshore,Offshore,Offshore",6
5842041f4e65fad6a77089f4,2024_04_08,40.94235535243154,-72.19286,Main Beach,1,0.050800000000000005,0.27493333333333336,14,13,"NIGHT_CLEAR,NIGHT_CLEAR,NIGHT_CLEAR,NIGHT_CLEAR,NIGHT_CLEAR,CLEAR","Cross-shore,Cross-shore,Cross-shore,Offshore,Cross-shore,Cross-shore",6
5842041f4e65fad6a77089f5,2024_04_08,40.58270702399518,-73.67251552079799,Laurelton Blvd.,0,0,0.1510386111111111,8,7,"NIGHT_CLEAR,NIGHT_CLEAR,NIGHT_CLEAR,NIGHT_CLEAR,NIGHT_CLEAR,CLEAR","Onshore,Cross-shore,Onshore,Cross-shore,Onshore,Cross-shore",6
5842041f4e65fad6a77089f6,2024_04_08,41.033752854071416,-71.93696,Terrace,0.6933333333333334,0,0.3073,8,7,"NIGHT_CLEAR,NIGHT_CLEAR,NIGHT_CLEAR,NIGHT_CLEAR,NIGHT_CLEAR,CLEAR","Cross-shore,Offshore,Offshore,Offshore,Cross-shore,Offshore",6
5842041f4e65fad6a77089f7,2024_04_08,40.83372943645748,-72.50426173210144,K Road,1,0,0.25166666666666665,6,6,"NIGHT_CLEAR,NIGHT_CLEAR,NIGHT_CLEAR,NIGHT_CLEAR,NIGHT_CLEAR,CLEAR","Cross-shore,Offshore,Offshore,Offshore,Offshore,Offshore",6
5842041f4e65fad6a77089f8,2024_04_08,40.58456099581507,-73.80730032920837,84th Street,0,0,0.1803,8,7,"NIGHT_CLEAR,NIGHT_CLEAR,NIGHT_CLEAR,NIGHT_CLEAR,NIGHT_CLEAR,CLEAR","Cross-shore,Cross-shore,Offshore,Offshore,Offshore,Offshore",6
5842041f4e65fad6a77089fa,2024_04_08,40.1319,-74.02788,Sea Girt,2,0.10333333333333333,0.41,8,7,"NIGHT_CLEAR,NIGHT_CLEAR,NIGHT_CLEAR,NIGHT_CLEAR,NIGHT_CLEAR,CLEAR","Offshore,Offshore,Offshore,Offshore,Offshore,Offshore",6
5842041f4e65fad6a77089fb,2024_04_08,40.54698301868125,-73.9268,Breezy Point,1,0,0.17,7,7,"NIGHT_CLEAR,NIGHT_CLEAR,NIGHT_CLEAR,NIGHT_CLEAR,NIGHT_CLEAR,CLEAR","Cross-shore,Cross-shore,Cross-shore,Offshore,Cross-shore,Offshore",6
5842041f4e65fad6a77089fc,2024_04_08,40.152504,-74.021383,Spring Lake,2,0.09666666666666666,0.4,8,7,"NIGHT_CLEAR,NIGHT_CLEAR,NIGHT_CLEAR,NIGHT_CLEAR,NIGHT_CLEAR,CLEAR","Offshore,Offshore,Offshore,Offshore,Offshore,Offshore",6
5842041f4e65fad6a77089fd,2024_04_08,40.591277,-73.770792,30th - 39th Streets,0,0,0.16746666666666668,8,7,"NIGHT_CLEAR,NIGHT_CLEAR,NIGHT_CLEAR,NIGHT_MIST,NIGHT_CLEAR,CLEAR","Cross-shore,Cross-shore,Offshore,Offshore,Offshore,Offshore",6
5842041f4e65fad6a77089fe,2024_04_08,40.18834955871439,-74.00860982500222,Avon,2,0.14,0.445,8,7,"NIGHT_CLEAR,NIGHT_CLEAR,NIGHT_CLEAR,NIGHT_CLEAR,NIGHT_CLEAR,CLEAR","Offshore,Offshore,Offshore,Offshore,Offshore,Offshore",6
5842041f4e65fad6a77089ff,2024_04_08,40.1974229100932,-74.00650533798255,Bradley Beach,2,0.12,0.425,8,7,"NIGHT_CLEAR,NIGHT_CLEAR,NIGHT_CLEAR,NIGHT_CLEAR,NIGHT_CLEAR,CLEAR","Offshore,Offshore,Offshore,Offshore,Offshore,Offshore",6
5842041f4e65fad6a7708a01,2024_04_08,40.17202,-74.01503,"16th Ave., Belmar",0.6683333333333333,0.0020777777777777756,0.30743333333333334,8,7,"NIGHT_CLEAR,NIGHT_CLEAR,NIGHT_CLEAR,NIGHT_CLEAR,NIGHT_CLEAR,CLEAR","Offshore,Offshore,Offshore,Offshore,Offshore,Offshore",6
5842041f4e65fad6a7708a02,2024_04_08,40.217443,-73.99982,Asbury Park,2,0.07,0.375,8,7,"NIGHT_CLEAR,NIGHT_CLEAR,NIGHT_CLEAR,NIGHT_CLEAR,NIGHT_CLEAR,CLEAR","Offshore,Offshore,Offshore,Offshore,Offshore,Offshore",6
5842041f4e65fad6a7708a03,2024_04_08,40.229841,-73.996782,Loch Arbour and Deal,2,0.06666666666666667,0.37166666666666665,8,7,"NIGHT_CLEAR,NIGHT_CLEAR,NIGHT_CLEAR,NIGHT_CLEAR,NIGHT_CLEAR,CLEAR","Offshore,Offshore,Offshore,Offshore,Offshore,Offshore",6
5842041f4e65fad6a7708a05,2024_04_08,40.41754,-73.97935,Sandy Hook,0.16666666666666666,0,0.14500000000000002,7,7,"NIGHT_CLEAR,NIGHT_CLEAR,NIGHT_CLEAR,NIGHT_CLEAR,NIGHT_CLEAR,CLEAR","Offshore,Offshore,Offshore,Offshore,Offshore,Offshore",6
5842041f4e65fad6a7708a06,2024_04_08,39.36353,-74.40873,Crystals,1,0.23721833333333334,0.370655,8,7,"NIGHT_CLEAR,NIGHT_CLEAR,NIGHT_CLEAR,NIGHT_CLEAR,NIGHT_CLEAR,CLEAR","Cross-shore,Cross-shore,Cross-shore,Cross-shore,Cross-shore,Cross-shore",6
5842041f4e65fad6a7708a07,2024_04_08,39.31443,-74.51863,32nd Street,2,0.28990944444444444,0.5863352777777778,8,7,"NIGHT_CLEAR,NIGHT_CLEAR,NIGHT_CLEAR,NIGHT_CLEAR,NIGHT_CLEAR,CLEAR","Cross-shore,Cross-shore,Cross-shore,Cross-shore,Cross-shore,Cross-shore",6
5842041f4e65fad6a7708a08,2024_04_08,39.327688,-74.49524,Margate Pier Northside,2,0.28990944444444444,0.5863352777777778,8,7,"NIGHT_CLEAR,NIGHT_CLEAR,NIGHT_CLEAR,NIGHT_CLEAR,NIGHT_CLEAR,CLEAR","Cross-shore,Cross-shore,Cross-shore,Cross-shore,Cross-shore,Cross-shore",6
5842041f4e65fad6a7708a09,2024_04_08,39.336276,-74.47782,Ventnor Pier,1,0.23129833333333333,0.3614033333333333,8,7,"NIGHT_CLEAR,NIGHT_CLEAR,NIGHT_CLEAR,NIGHT_CLEAR,NIGHT_CLEAR,CLEAR","Cross-shore,Cross-shore,Cross-shore,Cross-shore,Cross-shore,Cross-shore",6
5842041f4e65fad6a7708a0a,2024_04_08,39.35929751441085,-74.41683,States Avenue,1.5,0.23721833333333334,0.370655,8,7,"NIGHT_CLEAR,NIGHT_CLEAR,NIGHT_CLEAR,NIGHT_CLEAR,NIGHT_CLEAR,CLEAR","Cross-shore,Cross-shore,Cross-shore,Cross-shore,Cross-shore,Cross-shore",6
5842041f4e65fad6a7708a0b,2024_04_08,39.37274173278517,-74.40454,Brigantine Jetty,1,0.16303833333333334,0.25474833333333335,8,7,"NIGHT_CLEAR,NIGHT_CLEAR,NIGHT_CLEAR,NIGHT_CLEAR,NIGHT_CLEAR,CLEAR","Onshore,Cross-shore,Cross-shore,Cross-shore,Cross-shore,Cross-shore",6
5842041f4e65fad6a7708a0c,2024_04_08,39.356505,-74.42263,South Carolina Avenue,1,0.16303833333333334,0.25474833333333335,8,7,"NIGHT_CLEAR,NIGHT_CLEAR,NIGHT_CLEAR,NIGHT_CLEAR,NIGHT_CLEAR,CLEAR","Onshore,Cross-shore,Cross-shore,Cross-shore,Onshore,Cross-shore",6
5842041f4e65fad6a7708a0d,2024_04_08,39.413485,-74.35476,14th Street North,1.5,0.011666666666666667,0.315,8,7,"NIGHT_CLEAR,NIGHT_CLEAR,NIGHT_CLEAR,NIGHT_CLEAR,NIGHT_CLEAR,CLEAR","Cross-shore,Cross-shore,Cross-shore,Offshore,Cross-shore,Offshore",6
5842041f4e65fad6a7708a0e,2024_04_08,39.531319,-74.263252,The Wooden Jetty,2,0.3082125,0.619075,8,7,"NIGHT_CLEAR,NIGHT_CLEAR,NIGHT_CLEAR,NIGHT_CLEAR,NIGHT_CLEAR,CLEAR","Cross-shore,Cross-shore,Cross-shore,Offshore,Offshore,Offshore",6
5842041f4e65fad6a7708a0f,2024_04_08,39.552472,-74.24344,Holyoke,2,0.31894083333333334,0.6269327777777778,8,7,"NIGHT_CLEAR,NIGHT_CLEAR,NIGHT_CLEAR,NIGHT_CLEAR,NIGHT_CLEAR,CLEAR","Cross-shore,Cross-shore,Cross-shore,Offshore,Offshore,Offshore",6
5842041f4e65fad6a7708a10,2024_04_08,39.692364,-74.14068,Hudson Ave.,2,0.3118777777777778,0.6164000000000001,8,7,"NIGHT_CLEAR,NIGHT_CLEAR,NIGHT_CLEAR,NIGHT_CLEAR,NIGHT_CLEAR,CLEAR","Offshore,Offshore,Offshore,Offshore,Offshore,Offshore",6
5842041f4e65fad6a7708a11,2024_04_08,39.79614,-74.09248,Island Beach State Park,2,0.11666666666666667,0.42,8,7,"NIGHT_CLEAR,NIGHT_CLEAR,NIGHT_CLEAR,NIGHT_CLEAR,NIGHT_CLEAR,CLEAR","Offshore,Offshore,Offshore,Offshore,Offshore,Offshore",6
5842041f4e65fad6a7708a12,2024_04_08,39.91813588078152,-74.07527,Seaside Park,2,0.11166666666666666,0.42,8,7,"NIGHT_CLEAR,NIGHT_CLEAR,NIGHT_CLEAR,NIGHT_CLEAR,NIGHT_CLEAR,CLEAR","Offshore,Offshore,Offshore,Offshore,Offshore,Offshore",6
5842041f4e65fad6a7708a14,2024_04_08,39.946638,-74.06884,Seaside Heights,2,0.14666666666666667,0.45166666666666666,8,7,"NIGHT_CLEAR,NIGHT_CLEAR,NIGHT_CLEAR,NIGHT_CLEAR,NIGHT_CLEAR,CLEAR","Offshore,Offshore,Offshore,Offshore,Offshore,Offshore",6
5842041f4e65fad6a7708a15,2024_04_08,39.95745637606704,-74.06736,Ortley Beach,2,0.10666666666666666,0.4116666666666667,8,7,"NIGHT_CLEAR,NIGHT_CLEAR,NIGHT_CLEAR,NIGHT_CLEAR,NIGHT_CLEAR,CLEAR","Offshore,Offshore,Offshore,Offshore,Offshore,Offshore",6
5842041f4e65fad6a7708a16,2024_04_08,39.98313468342945,-74.06265685577506,Lavallette,2,0.10333333333333333,0.41,8,7,"NIGHT_CLEAR,NIGHT_CLEAR,NIGHT_CLEAR,NIGHT_CLEAR,NIGHT_CLEAR,CLEAR","Offshore,Offshore,Offshore,Offshore,Offshore,Offshore",6
5842041f4e65fad6a7708a17,2024_04_08,40.0699319967757,-74.04144910856634,Bay Head,2,0.11166666666666666,0.42,8,7,"NIGHT_CLEAR,NIGHT_CLEAR,NIGHT_CLEAR,NIGHT_CLEAR,NIGHT_CLEAR,CLEAR","Offshore,Offshore,Offshore,Offshore,Offshore,Offshore",6
5842041f4e65fad6a7708a18,2024_04_08,40.094041,-74.034859,Jenkinson's,2,0.06666666666666667,0.37166666666666665,8,7,"NIGHT_CLEAR,NIGHT_CLEAR,NIGHT_CLEAR,NIGHT_CLEAR,NIGHT_CLEAR,CLEAR","Offshore,Offshore,Offshore,Offshore,Offshore,Offshore",6
5842041f4e65fad6a7708a1a,2024_04_08,38.148058,-75.17704,Assateague,2,0.42,0.725,8,7,"NIGHT_CLEAR,NIGHT_CLEAR,NIGHT_CLEAR,NIGHT_CLEAR,NIGHT_CLEAR,CLEAR","Cross-shore,Cross-shore,Cross-shore,Onshore,Onshore,Cross-shore",6
5842041f4e65fad6a7708a1b,2024_04_08,38.33889038664497,-75.08017670566352,North End to Ocean City Inlet,2.1666666666666665,0.4683333333333333,0.7733333333333333,8,7,"NIGHT_CLEAR,NIGHT_CLEAR,NIGHT_CLEAR,NIGHT_CLEAR,NIGHT_CLEAR,CLEAR","Offshore,Cross-shore,Cross-shore,Cross-shore,Offshore,Offshore",6
5842041f4e65fad6a7708a1c,2024_04_08,38.603993,-75.06271,Indian River Inlet,2,0.40463,0.6322366666666667,8,7,"NIGHT_CLEAR,NIGHT_CLEAR,NIGHT_CLEAR,NIGHT_MIST,NIGHT_MIST,MIST","Onshore,Onshore,Cross-shore,Cross-shore,Cross-shore,Cross-shore",6
5842041f4e65fad6a7708a1d,2024_04_08,38.460477,-75.052069,Fenwick Island,2,0.195,0.505,8,7,"NIGHT_CLEAR,NIGHT_CLEAR,NIGHT_CLEAR,NIGHT_CLEAR,NIGHT_CLEAR,CLEAR","Offshore,Offshore,Offshore,Offshore,Offshore,Offshore",6
5842041f4e65fad6a7708a1e,2024_04_08,38.538767,-75.05619,Bethany Beach,2,0.41446,0.647595,8,7,"NIGHT_CLEAR,NIGHT_CLEAR,NIGHT_CLEAR,NIGHT_CLEAR,NIGHT_CLEAR,MIST","Cross-shore,Cross-shore,Cross-shore,Cross-shore,Cross-shore,Cross-shore",6
5842041f4e65fad6a7708a1f,2024_04_08,38.697657,-75.075951,Dewey Beach,1.8333333333333333,0.23166666666666666,0.535,8,7,"NIGHT_CLEAR,NIGHT_CLEAR,NIGHT_CLEAR,NIGHT_MIST,NIGHT_MIST,MIST","Offshore,Offshore,Offshore,Offshore,Offshore,Offshore",6
5842041f4e65fad6a7708a20,2024_04_08,38.75034741676525,-75.08194,Gordons Pond,1,0.24493833333333334,0.38271666666666665,8,7,"NIGHT_CLEAR,NIGHT_CLEAR,NIGHT_CLEAR,NIGHT_CLEAR,NIGHT_MIST,MIST","Cross-shore,Cross-shore,Cross-shore,Cross-shore,Cross-shore,Cross-shore",6
5842041f4e65fad6a7708a21,2024_04_08,38.767837,-75.082841,Naval Jetties,2,0.27166666666666667,0.5766666666666667,8,7,"NIGHT_CLEAR,NIGHT_CLEAR,NIGHT_CLEAR,NIGHT_CLEAR,NIGHT_MIST,MIST","Offshore,Offshore,Offshore,Offshore,Offshore,Offshore",6
5842041f4e65fad6a7708a22,2024_04_08,36.81735875786576,-75.96624,Camp Pendleton,1.5266666666666666,0.27663333333333334,0.5814333333333334,10,9,"NIGHT_CLEAR,NIGHT_CLEAR,NIGHT_CLEAR,NIGHT_CLEAR,NIGHT_CLEAR,CLEAR","Offshore,Offshore,Offshore,Offshore,Offshore,Offshore",6
5842041f4e65fad6a7708a23,2024_04_08,36.9102212316428,-75.98732471466064,North End,0.6933333333333334,0.27441111111111116,0.5828222222222222,10,9,"NIGHT_CLEAR,NIGHT_CLEAR,NIGHT_CLEAR,NIGHT_CLEAR,NIGHT_CLEAR,CLEAR","Offshore,Offshore,Offshore,Offshore,Offshore,Offshore",6
5842041f4e65fad6a7708a24,2024_04_08,36.737117517621314,-75.93924,Sandbridge Beach,2.6666666666666665,0.3274666666666667,0.6316,10,9,"NIGHT_CLEAR,NIGHT_CLEAR,NIGHT_CLEAR,NIGHT_CLEAR,NIGHT_CLEAR,CLEAR","Offshore,Offshore,Offshore,Offshore,Offshore,Offshore",6
5842041f4e65fad6a7708a26,2024_04_08,36.818257440557794,-75.96666,Croatan to Pendleton,1.5266666666666666,0.27163333333333334,0.5797666666666667,10,9,"NIGHT_CLEAR,NIGHT_CLEAR,NIGHT_CLEAR,NIGHT_CLEAR,NIGHT_CLEAR,CLEAR","Offshore,Offshore,Offshore,Offshore,Offshore,Offshore",6
5842041f4e65fad6a7708a27,2024_04_08,36.84318777204769,-75.9719,South End,1.8333333333333333,0.24413333333333334,0.5482666666666667,10,9,"NIGHT_CLEAR,NIGHT_CLEAR,NIGHT_CLEAR,NIGHT_CLEAR,NIGHT_CLEAR,CLEAR","Offshore,Offshore,Offshore,Offshore,Offshore,Offshore",6
5842041f4e65fad6a7708a28,2024_04_08,37.08612627584661,-75.976121638199,Fishermans Island,0,0,0.068,11,11,"NIGHT_CLEAR,NIGHT_CLEAR,NIGHT_CLEAR,NIGHT_CLEAR,NIGHT_CLEAR,CLEAR","Cross-shore,Cross-shore,Cross-shore,Cross-shore,Cross-shore,Cross-shore",6
5842041f4e65fad6a7708a38,2024_04_08,35.254619418229026,-75.52074,Cape Hatteras Lighthouse,2.6933333333333334,0.7738527777777777,1.0773780555555557,16,14,"NIGHT_CLEAR,NIGHT_CLEAR,NIGHT_CLEAR,NIGHT_CLEAR,NIGHT_CLEAR,CLEAR","Offshore,Offshore,Offshore,Offshore,Offshore,Offshore",6
5842041f4e65fad6a7708a3a,2024_04_08,35.54572934093336,-75.46477,Waves and Salvo,3,0.7632666666666666,1.0944666666666667,15,13,"NIGHT_CLEAR,NIGHT_CLEAR,NIGHT_CLEAR,NIGHT_CLEAR,NIGHT_CLEAR,CLEAR","Offshore,Offshore,Offshore,Offshore,Offshore,Offshore",6
5842041f4e65fad6a7708a3b,2024_04_08,35.22565892751075,-75.63606,Frisco,1,0.050800000000000005,0.28826666666666667,17,16,"NIGHT_CLEAR,NIGHT_CLEAR,NIGHT_CLEAR,NIGHT_CLEAR,NIGHT_CLEAR,CLEAR","Offshore,Offshore,Offshore,Cross-shore,Cross-shore,Onshore",6
5842041f4e65fad6a7708a3c,2024_04_08,35.13086,-75.90591,Ocracoke,1.8333333333333333,0.21496333333333334,0.33588,15,15,"NIGHT_CLEAR,NIGHT_CLEAR,NIGHT_CLEAR,NIGHT_CLEAR,NIGHT_CLEAR,CLEAR","Onshore,Cross-shore,Onshore,Cross-shore,Onshore,Onshore",6
5842041f4e65fad6a7708a3d,2024_04_08,35.34721340158342,-75.50084,Avon Pier,2.6933333333333334,0.8101222222222222,1.1146444444444445,16,14,"NIGHT_CLEAR,NIGHT_CLEAR,NIGHT_CLEAR,NIGHT_CLEAR,NIGHT_CLEAR,CLEAR","Offshore,Offshore,Offshore,Offshore,Offshore,Offshore",6
5842041f4e65fad6a7708a3f,2024_04_08,35.71680821253768,-75.49243,Pea Island,2.8333333333333335,0.5916666666666667,0.8966666666666667,12,12,"NIGHT_CLEAR,NIGHT_CLEAR,NIGHT_CLEAR,NIGHT_CLEAR,NIGHT_CLEAR,CLEAR","Offshore,Offshore,Offshore,Offshore,Offshore,Offshore",6
5842041f4e65fad6a7708a40,2024_04_08,35.97427620657821,-75.62984,Nags Head Pier,1.945,0.5933777777777778,0.9302444444444444,12,10,"NIGHT_CLEAR,NIGHT_CLEAR,NIGHT_CLEAR,NIGHT_CLEAR,NIGHT_CLEAR,CLEAR","Offshore,Offshore,Offshore,Onshore,Offshore,Offshore",6
5842041f4e65fad6a7708a41,2024_04_08,36.0439998039079,-75.67288,Avalon Pier,2.8333333333333335,0.6749333333333334,1.0061333333333333,12,10,"NIGHT_CLEAR,NIGHT_CLEAR,NIGHT_CLEAR,NIGHT_CLEAR,NIGHT_CLEAR,CLEAR","Offshore,Offshore,Offshore,Offshore,Offshore,Offshore",6
5842041f4e65fad6a7708a42,2024_04_08,36.03043116489792,-75.66413,First Street,2.6933333333333334,0.5472666666666667,0.9883,12,10,"NIGHT_CLEAR,NIGHT_CLEAR,NIGHT_CLEAR,NIGHT_CLEAR,NIGHT_CLEAR,CLEAR","Offshore,Offshore,Offshore,Offshore,Offshore,Offshore",6
5842041f4e65fad6a7708a43,2024_04_08,36.06829910590498,-75.6899,Old Station/Laundromats,2.8333333333333335,0.5849333333333333,0.9144666666666666,12,10,"NIGHT_CLEAR,NIGHT_CLEAR,NIGHT_CLEAR,NIGHT_CLEAR,NIGHT_CLEAR,CLEAR","Offshore,Offshore,Offshore,Offshore,Offshore,Offshore",6
5842041f4e65fad6a7708a44,2024_04_08,36.10126676607491,-75.71107,Kitty Hawk Pier,2.0283333333333333,0.5814333333333334,0.9066333333333333,12,10,"NIGHT_CLEAR,NIGHT_CLEAR,NIGHT_CLEAR,NIGHT_CLEAR,NIGHT_CLEAR,CLEAR","Offshore,Offshore,Offshore,Offshore,Offshore,Offshore",6
5842041f4e65fad6a7708a45,2024_04_08,36.18220630068973,-75.75013580649097,Duck Pier,2,0.2908,0.6203333333333333,11,9,"NIGHT_CLEAR,NIGHT_CLEAR,NIGHT_CLEAR,NIGHT_CLEAR,NIGHT_CLEAR,CLEAR","Offshore,Offshore,Offshore,Offshore,Offshore,Offshore",6
5842041f4e65fad6a7708a46,2024_04_08,36.37660668125033,-75.82409701687456,Corolla,2.8333333333333335,0.3358,0.667,11,9,"NIGHT_CLEAR,NIGHT_CLEAR,NIGHT_CLEAR,NIGHT_CLEAR,NIGHT_CLEAR,CLEAR","Offshore,Offshore,Offshore,Offshore,Offshore,Offshore",6
5842041f4e65fad6a7708a47,2024_04_08,33.90373404124834,-78.08241431707907,Oak Island,0,0,0.14,17,17,"NIGHT_CLEAR,NIGHT_CLEAR,NIGHT_CLEAR,NIGHT_CLEAR,NIGHT_CLEAR,CLEAR","Onshore,Onshore,Onshore,Onshore,Onshore,Onshore",6
5842041f4e65fad6a7708a48,2024_04_08,33.91108837766468,-78.29653,South Brunswick Beaches,1,0.10967,0.17135666666666666,16,16,"NIGHT_CLEAR,NIGHT_CLEAR,NIGHT_CLEAR,NIGHT_CLEAR,NIGHT_CLEAR,CLEAR","Onshore,Onshore,Onshore,Onshore,Onshore,Onshore",6
5842041f4e65fad6a7708a49,2024_04_08,34.05683595651973,-77.88128,Carolina Beach Pier,0.5,0,0.24580000000000002,15,14,"NIGHT_CLEAR,NIGHT_CLEAR,NIGHT_CLEAR,NIGHT_CLEAR,NIGHT_CLEAR,CLEAR","Cross-shore,Cross-shore,Cross-shore,Cross-shore,Cross-shore,Cross-shore",6
5842041f4e65fad6a7708a4a,2024_04_08,33.96841191816696,-77.9180242565498,Fort Fisher,0.8333333333333334,0,0.24413333333333334,15,14,"NIGHT_CLEAR,NIGHT_CLEAR,NIGHT_CLEAR,NIGHT_CLEAR,NIGHT_CLEAR,CLEAR","Cross-shore,Cross-shore,Cross-shore,Cross-shore,Cross-shore,Offshore",6
5842041f4e65fad6a7708a4b,2024_04_08,34.46776662988774,-77.47083191635772,Topsail Beach,0.3333333333333333,0,0.24913333333333332,15,14,"NIGHT_CLEAR,NIGHT_CLEAR,NIGHT_CLEAR,NIGHT_CLEAR,NIGHT_CLEAR,CLEAR","Onshore,Onshore,Onshore,Onshore,Onshore,Cross-shore",6
5842041f4e65fad6a7708a4c,2024_04_08,34.69270354752445,-76.82854854446575,Iron Steamer,0,0,0.18206666666666665,16,14,"NIGHT_CLEAR,NIGHT_CLEAR,NIGHT_CLEAR,NIGHT_CLEAR,NIGHT_CLEAR,CLEAR","Onshore,Onshore,Onshore,Onshore,Onshore,Onshore",6
5842041f4e65fad6a7708a4f,2024_04_08,30.85132684893727,-81.42283496231143,Cumberland Island,1,0.008333333333333333,0.315,18,18,"NIGHT_CLEAR,NIGHT_CLEAR,NIGHT_CLEAR,NIGHT_CLEAR,NIGHT_CLEAR,NIGHT_CLEAR","Onshore,Onshore,Onshore,Onshore,Onshore,Onshore",6
5842041f4e65fad6a7708a50,2024_04_08,34.686741128540874,-76.47516712138378,Cape Lookout National Seashore,1.5,0.14,0.445,17,17,"NIGHT_CLEAR,NIGHT_CLEAR,NIGHT_CLEAR,NIGHT_CLEAR,NIGHT_CLEAR,CLEAR","Onshore,Onshore,Onshore,Onshore,Cross-shore,Cross-shore",6
5842041f4e65fad6a7708a51,2024_04_08,31.10585419260024,-81.40422767604812,Jekyll Island,1,0,0.17333333333333334,18,18,"NIGHT_CLEAR,NIGHT_CLEAR,NIGHT_CLEAR,NIGHT_CLEAR,NIGHT_CLEAR,NIGHT_CLEAR","Onshore,Onshore,Onshore,Onshore,Onshore,Onshore",6
5842041f4e65fad6a7708a52,2024_04_08,31.16212806376699,-81.32512426500224,Harbor Marker Buoys,0.3333333333333333,0,0.22,18,18,"NIGHT_CLEAR,NIGHT_CLEAR,NIGHT_CLEAR,NIGHT_CLEAR,NIGHT_CLEAR,NIGHT_CLEAR","Onshore,Onshore,Onshore,Onshore,Onshore,Onshore",6
5842041f4e65fad6a7708a53,2024_04_08,31.20076299997009,-81.32629,Sea Island,1,0,0.21166666666666667,18,18,"NIGHT_CLEAR,NIGHT_CLEAR,NIGHT_CLEAR,NIGHT_CLEAR,NIGHT_CLEAR,NIGHT_CLEAR","Onshore,Onshore,Onshore,Onshore,Onshore,Onshore",6
5842041f4e65fad6a7708a54,2024_04_08,31.13553222995767,-81.38457634790909,St. Simons Island,1,0,0.22666666666666668,18,18,"NIGHT_CLEAR,NIGHT_CLEAR,NIGHT_CLEAR,NIGHT_CLEAR,NIGHT_CLEAR,NIGHT_CLEAR","Onshore,Onshore,Onshore,Onshore,Onshore,Onshore",6
5842041f4e65fad6a7708a55,2024_04_08,31.33550077186516,-81.28383377408417,Wolf Island,0.5,0,0.2,18,18,"NIGHT_CLEAR,NIGHT_CLEAR,NIGHT_CLEAR,NIGHT_CLEAR,NIGHT_CLEAR,NIGHT_CLEAR","Onshore,Onshore,Onshore,Onshore,Onshore,Onshore",6
5842041f4e65fad6a7708a56,2024_04_08,31.2704493877174,-81.27324039152315,Little St. Simons Island,0.5,0,0.235,18,18,"NIGHT_CLEAR,NIGHT_CLEAR,NIGHT_CLEAR,NIGHT_CLEAR,NIGHT_CLEAR,NIGHT_CLEAR","Onshore,Onshore,Onshore,Onshore,Onshore,Onshore",6
5842041f4e65fad6a7708a57,2024_04_08,31.39261761368919,-81.26190520231917,Sapelo Island,1,0,0.20166666666666666,18,18,"NIGHT_CLEAR,NIGHT_CLEAR,NIGHT_CLEAR,NIGHT_CLEAR,NIGHT_CLEAR,NIGHT_CLEAR","Onshore,Onshore,Onshore,Onshore,Onshore,Onshore",6
5842041f4e65fad6a7708a58,2024_04_08,34.42458783809001,-77.54492,Surf City Pier,0.5,0,0.2458,15,14,"NIGHT_CLEAR,NIGHT_CLEAR,NIGHT_CLEAR,NIGHT_CLEAR,NIGHT_CLEAR,CLEAR","Onshore,Onshore,Onshore,Onshore,Cross-shore,Cross-shore",6
5842041f4e65fad6a7708a59,2024_04_08,31.4231993614213,-81.24725340591522,Cabretta Island,1,0,0.22166666666666668,18,18,"NIGHT_CLEAR,NIGHT_CLEAR,NIGHT_CLEAR,NIGHT_CLEAR,NIGHT_CLEAR,NIGHT_CLEAR","Onshore,Onshore,Onshore,Onshore,Onshore,Onshore",6
5842041f4e65fad6a7708a5a,2024_04_08,31.46684389030369,-81.2100056410468,Blackbeard Island,1,0,0.20166666666666666,17,17,"NIGHT_CLEAR,NIGHT_CLEAR,NIGHT_CLEAR,NIGHT_CLEAR,NIGHT_CLEAR,NIGHT_CLEAR","Onshore,Onshore,Onshore,Onshore,Onshore,Onshore",6
5842041f4e65fad6a7708a5b,2024_04_08,31.85953587631629,-80.99031310336719,Wassaw Island/South End,0,0,0.15,18,18,"NIGHT_CLEAR,NIGHT_CLEAR,NIGHT_CLEAR,NIGHT_CLEAR,NIGHT_CLEAR,NIGHT_CLEAR","Onshore,Onshore,Onshore,Onshore,Onshore,Onshore",6
5842041f4e65fad6a7708a5c,2024_04_08,31.62535662342983,-81.13328352167974,St. Catherines Island,1,0,0.24,18,18,"NIGHT_CLEAR,NIGHT_CLEAR,NIGHT_CLEAR,NIGHT_CLEAR,NIGHT_CLEAR,NIGHT_CLEAR","Onshore,Onshore,Onshore,Onshore,Onshore,Onshore",6
5842041f4e65fad6a7708a5d,2024_04_08,31.76502169596568,-81.07655443806622,Ossabaw Island,1,0,0.19166666666666668,18,18,"NIGHT_CLEAR,NIGHT_CLEAR,NIGHT_CLEAR,NIGHT_CLEAR,NIGHT_CLEAR,NIGHT_CLEAR","Onshore,Onshore,Onshore,Onshore,Onshore,Onshore",6
5842041f4e65fad6a7708a5e,2024_04_08,31.90593619092352,-80.93589231700857,Wassaw Island/North End,1,0,0.215,18,18,"NIGHT_CLEAR,NIGHT_CLEAR,NIGHT_CLEAR,NIGHT_CLEAR,NIGHT_CLEAR,NIGHT_CLEAR","Onshore,Onshore,Onshore,Onshore,Onshore,Onshore",6
5842041f4e65fad6a7708a5f,2024_04_08,31.96738675414547,-80.86977980706155,Little Tybee Island,1,0,0.215,17,17,"NIGHT_CLEAR,NIGHT_CLEAR,NIGHT_CLEAR,NIGHT_CLEAR,NIGHT_CLEAR,NIGHT_CLEAR","Onshore,Onshore,Onshore,Onshore,Onshore,Onshore",6
5842041f4e65fad6a7708a60,2024_04_08,31.9812255780179,-80.84773973467009,South Tybee Sandbars,0,0,0.23,17,17,"NIGHT_CLEAR,NIGHT_CLEAR,NIGHT_CLEAR,NIGHT_CLEAR,NIGHT_CLEAR,NIGHT_CLEAR","Onshore,Onshore,Onshore,Onshore,Onshore,Onshore",6
5842041f4e65fad6a7708a61,2024_04_08,32.01226,-80.83983,Sugar Shack,1,0,0.17833333333333334,17,17,"NIGHT_CLEAR,NIGHT_CLEAR,NIGHT_CLEAR,NIGHT_CLEAR,NIGHT_CLEAR,NIGHT_CLEAR","Cross-shore,Cross-shore,Cross-shore,Cross-shore,Cross-shore,Cross-shore",6
5842041f4e65fad6a7708a62,2024_04_08,31.98722842396969,-80.84773,18th St. Jetty,0,0.156675,0.244805,17,17,"NIGHT_CLEAR,NIGHT_CLEAR,NIGHT_CLEAR,NIGHT_CLEAR,NIGHT_CLEAR,NIGHT_CLEAR","Onshore,Onshore,Onshore,Onshore,Onshore,Onshore",6
5842041f4e65fad6a7708a64,2024_04_08,34.013473721006676,-77.8991,"Alabama Ave., Kure Beach",1,0,0.22833333333333333,16,16,"NIGHT_CLEAR,NIGHT_CLEAR,NIGHT_CLEAR,NIGHT_CLEAR,NIGHT_CLEAR,CLEAR","Offshore,Offshore,Offshore,Offshore,Offshore,Cross-shore",6
5842041f4e65fad6a7708a65,2024_04_08,34.20859853336924,-77.79293,"C Street, Wrightsville Beach",1,0,0.2508,15,14,"NIGHT_CLEAR,NIGHT_CLEAR,NIGHT_CLEAR,NIGHT_CLEAR,NIGHT_CLEAR,CLEAR","Cross-shore,Cross-shore,Cross-shore,Cross-shore,Offshore,Offshore",6
5842041f4e65fad6a7708a66,2024_04_08,32.831,-79.71,Dewees Island,0,0,0.15,17,17,"NIGHT_CLEAR,NIGHT_CLEAR,NIGHT_CLEAR,NIGHT_CLEAR,NIGHT_MOSTLY_CLOUDY,MOSTLY_CLEAR","Onshore,Onshore,Onshore,Onshore,Onshore,Onshore",6
5842041f4e65fad6a7708a67,2024_04_08,33.82924423172106,-78.62813,Cherry Grove Pier,0,0,0.13,16,16,"NIGHT_CLEAR,NIGHT_CLEAR,NIGHT_CLEAR,NIGHT_CLEAR,NIGHT_CLEAR,CLEAR","Onshore,Onshore,Onshore,Onshore,Onshore,Onshore",6
5842041f4e65fad6a7708a69,2024_04_08,34.27197439666496,-77.74050223196774,Figure Eight and Shell Islands,1,0,0.24580000000000002,15,14,"NIGHT_CLEAR,NIGHT_CLEAR,NIGHT_CLEAR,NIGHT_CLEAR,NIGHT_CLEAR,CLEAR","Onshore,Onshore,Onshore,Onshore,Cross-shore,Cross-shore",6
5842041f4e65fad6a7708a6b,2024_04_08,33.49041958261793,-79.07666070599386,North End,1,0,0.16333333333333333,17,17,"NIGHT_CLEAR,NIGHT_CLEAR,NIGHT_CLEAR,NIGHT_CLEAR,NIGHT_CLEAR,CLEAR","Onshore,Onshore,Onshore,Onshore,Onshore,Onshore",6
5842041f4e65fad6a7708a6c,2024_04_08,33.39537062495087,-79.13835037835189,The South End,1,0,0.17,17,17,"NIGHT_CLEAR,NIGHT_CLEAR,NIGHT_CLEAR,NIGHT_CLEAR,NIGHT_CLEAR,CLEAR","Onshore,Onshore,Cross-shore,Cross-shore,Cross-shore,Cross-shore",6
5842041f4e65fad6a7708a6d,2024_04_08,33.29001727666697,-79.17190003352977,North Island,1,0,0.265,17,17,"NIGHT_CLEAR,NIGHT_CLEAR,NIGHT_CLEAR,NIGHT_CLEAR,NIGHT_CLEAR,CLEAR","Cross-shore,Cross-shore,Cross-shore,Cross-shore,Cross-shore,Cross-shore",6
5842041f4e65fad6a7708a6e,2024_04_08,32.90929771158952,-79.57810400297359,Bull Island,1,0,0.20333333333333334,17,17,"NIGHT_CLEAR,NIGHT_CLEAR,NIGHT_CLEAR,NIGHT_CLEAR,NIGHT_MOSTLY_CLOUDY,MOSTLY_CLEAR","Onshore,Onshore,Onshore,Onshore,Onshore,Onshore",6
5842041f4e65fad6a7708a6f,2024_04_08,31.99153112815895,-80.84543050470074,Tybee Island Pier,0,0,0.15166666666666667,17,17,"NIGHT_CLEAR,NIGHT_CLEAR,NIGHT_CLEAR,NIGHT_CLEAR,NIGHT_CLEAR,NIGHT_CLEAR","Onshore,Onshore,Onshore,Onshore,Onshore,Onshore",6
5842041f4e65fad6a7708a70,2024_04_08,33.03478144356316,-79.35021028265125,Cape Romain,1,0,0.25666666666666665,17,17,"NIGHT_CLEAR,NIGHT_CLEAR,NIGHT_CLEAR,NIGHT_CLEAR,NIGHT_CLEAR,CLEAR","Onshore,Onshore,Onshore,Onshore,Cross-shore,Cross-shore",6
5842041f4e65fad6a7708a71,2024_04_08,33.43231073271028,-79.11789,The Pier,0,0.13185666666666668,0.20602666666666666,17,17,"NIGHT_CLEAR,NIGHT_CLEAR,NIGHT_CLEAR,NIGHT_CLEAR,NIGHT_CLEAR,CLEAR","Onshore,Onshore,Cross-shore,Cross-shore,Cross-shore,Cross-shore",6
5842041f4e65fad6a7708a72,2024_04_08,33.45423621397969,-79.10497798178424,South Litchfield,1,0,0.17,17,17,"NIGHT_CLEAR,NIGHT_CLEAR,NIGHT_CLEAR,NIGHT_CLEAR,NIGHT_CLEAR,CLEAR","Onshore,Onshore,Onshore,Onshore,Cross-shore,Onshore",6
5842041f4e65fad6a7708a73,2024_04_08,34.19316590251396,-77.8045,Crystal Pier,0.8333333333333334,0,0.21913333333333335,15,14,"NIGHT_CLEAR,NIGHT_CLEAR,NIGHT_CLEAR,NIGHT_CLEAR,NIGHT_CLEAR,CLEAR","Offshore,Cross-shore,Cross-shore,Cross-shore,Offshore,Offshore",6
5842041f4e65fad6a7708a74,2024_04_08,33.68628680045124,-78.88346,Myrtle Beach,1,0,0.16,17,17,"NIGHT_CLEAR,NIGHT_CLEAR,NIGHT_CLEAR,NIGHT_CLEAR,NIGHT_CLEAR,CLEAR","Onshore,Onshore,Onshore,Onshore,Cross-shore,Cross-shore",6
5842041f4e65fad6a7708a75,2024_04_08,32.66166297145973,-79.91951806398808,10th Street,1,0,0.235,17,17,"NIGHT_CLEAR,NIGHT_CLEAR,NIGHT_CLEAR,NIGHT_CLEAR,NIGHT_CLEAR,CLEAR","Onshore,Onshore,Onshore,Onshore,Onshore,Onshore",6
5842041f4e65fad6a7708a76,2024_04_08,33.16729555197199,-79.19829236867845,South Island,0,0,0.26333333333333336,17,17,"NIGHT_CLEAR,NIGHT_CLEAR,NIGHT_CLEAR,NIGHT_CLEAR,NIGHT_CLEAR,CLEAR","Cross-shore,Onshore,Cross-shore,Cross-shore,Cross-shore,Cross-shore",6
5842041f4e65fad6a7708a77,2024_04_08,32.595,-80.088,Kiawah Island/Seabrook Island,1,0,0.17,17,17,"NIGHT_CLEAR,NIGHT_CLEAR,NIGHT_CLEAR,NIGHT_CLEAR,NIGHT_CLEAR,CLEAR","Onshore,Onshore,Onshore,Onshore,Onshore,Onshore",6
5842041f4e65fad6a7708a78,2024_04_08,32.51356930575787,-80.28223,Edisto Beach,1,0.13751333333333332,0.21486333333333332,17,17,"NIGHT_CLEAR,NIGHT_CLEAR,NIGHT_CLEAR,NIGHT_CLEAR,NIGHT_CLEAR,CLEAR","Onshore,Onshore,Onshore,Onshore,Onshore,Onshore",6
5842041f4e65fad6a7708a79,2024_04_08,32.366270751262,-80.43911,Hunting Island,1,0.14352833333333334,0.22426166666666666,18,18,"NIGHT_CLEAR,NIGHT_CLEAR,NIGHT_CLEAR,NIGHT_CLEAR,NIGHT_CLEAR,MOSTLY_CLOUDY","Onshore,Cross-shore,Onshore,Onshore,Cross-shore,Onshore",6
5842041f4e65fad6a7708a7a,2024_04_08,32.65337734408365,-79.93983,Folly Beach Pier,0.8333333333333334,0,0.2008,17,16,"NIGHT_CLEAR,NIGHT_CLEAR,NIGHT_CLEAR,NIGHT_CLEAR,NIGHT_CLEAR,CLEAR","Onshore,Onshore,Onshore,Onshore,Onshore,Onshore",6
5842041f4e65fad6a7708a7b,2024_04_08,33.41209545530049,-79.13026341393126,South Jetty,1,0,0.17,17,17,"NIGHT_CLEAR,NIGHT_CLEAR,NIGHT_CLEAR,NIGHT_CLEAR,NIGHT_CLEAR,CLEAR","Onshore,Onshore,Cross-shore,Cross-shore,Cross-shore,Onshore",6
5842041f4e65fad6a7708a7c,2024_04_08,32.31115640606869,-80.48564,Fripp Island,1,0.15162,0.236905,17,17,"NIGHT_CLEAR,NIGHT_CLEAR,NIGHT_CLEAR,NIGHT_CLEAR,NIGHT_CLEAR,MOSTLY_CLOUDY","Onshore,Onshore,Onshore,Onshore,Onshore,Onshore",6
5842041f4e65fad6a7708a7d,2024_04_08,32.14365226036034,-80.74402,Hilton Head Island,0,0,0.07,17,17,"NIGHT_CLEAR,NIGHT_CLEAR,NIGHT_CLEAR,NIGHT_CLEAR,NIGHT_CLEAR,NIGHT_CLEAR","Onshore,Onshore,Onshore,Onshore,Onshore,Onshore",6
5842041f4e65fad6a7708a7e,2024_04_08,29.70405364733744,-81.22426,Matanzas Inlet,0.8333333333333334,0.026666666666666665,0.32913333333333333,19,18,"NIGHT_CLEAR,NIGHT_CLEAR,NIGHT_CLEAR,NIGHT_CLEAR,NIGHT_CLEAR,NIGHT_CLEAR","Onshore,Onshore,Onshore,Onshore,Onshore,Onshore",6
5842041f4e65fad6a7708a81,2024_04_08,29.76878537149042,-81.25109,Crescent Beach,1,0.04166666666666667,0.34833333333333333,19,19,"NIGHT_CLEAR,NIGHT_CLEAR,NIGHT_CLEAR,NIGHT_CLEAR,NIGHT_CLEAR,NIGHT_CLEAR","Onshore,Onshore,Onshore,Onshore,Onshore,Onshore",6
5842041f4e65fad6a7708a82,2024_04_08,32.80251718689188,-79.73221919500764,Wild Dunes,1,0,0.23666666666666666,17,17,"NIGHT_CLEAR,NIGHT_CLEAR,NIGHT_CLEAR,NIGHT_CLEAR,NIGHT_MOSTLY_CLOUDY,MOSTLY_CLEAR","Onshore,Onshore,Onshore,Onshore,Onshore,Onshore",6
5842041f4e65fad6a7708a84,2024_04_08,32.75733539419244,-79.83258856064796,Bert's Bar,1,0,0.16,17,17,"NIGHT_CLEAR,NIGHT_CLEAR,NIGHT_CLEAR,NIGHT_CLEAR,NIGHT_CLEAR,CLEAR","Onshore,Onshore,Onshore,Onshore,Onshore,Onshore",6
5842041f4e65fad6a7708a85,2024_04_08,32.66829212943039,-79.90735,Washout,1,0,0.21746666666666667,17,16,"NIGHT_CLEAR,NIGHT_CLEAR,NIGHT_CLEAR,NIGHT_CLEAR,NIGHT_CLEAR,CLEAR","Onshore,Onshore,Onshore,Onshore,Onshore,Onshore",6
5842041f4e65fad6a7708a86,2024_04_08,32.78452968219067,-79.78540233488354,The Pier/Windjammer,0.5,0,0.21166666666666667,17,17,"NIGHT_CLEAR,NIGHT_CLEAR,NIGHT_CLEAR,NIGHT_CLEAR,NIGHT_MOSTLY_CLOUDY,CLEAR","Onshore,Onshore,Onshore,Onshore,Onshore,Onshore",6
5842041f4e65fad6a7708a87,2024_04_08,29.86618162637438,-81.2662150259608,Anastasia Park (The Entrance),1,0.028333333333333332,0.33166666666666667,19,19,"NIGHT_CLEAR,NIGHT_CLEAR,NIGHT_CLEAR,NIGHT_CLEAR,NIGHT_CLEAR,NIGHT_CLEAR","Onshore,Onshore,Onshore,Onshore,Onshore,Onshore",6
5842041f4e65fad6a7708a89,2024_04_08,29.89149785916623,-81.2723223244215,Blowholes,0.6666666666666666,0.013333333333333334,0.3158,24,22,"NIGHT_CLEAR,NIGHT_CLEAR,NIGHT_CLEAR,NIGHT_CLEAR,NIGHT_CLEAR,NIGHT_CLEAR","Onshore,Onshore,Onshore,Onshore,Onshore,Onshore",6
5842041f4e65fad6a7708a8a,2024_04_08,30.16227112983666,-81.35502907491218,Crossroads,0.8333333333333334,0.065,0.37246666666666667,24,22,"NIGHT_CLEAR,NIGHT_CLEAR,NIGHT_CLEAR,NIGHT_CLEAR,NIGHT_CLEAR,NIGHT_CLEAR","Onshore,Onshore,Onshore,Onshore,Onshore,Onshore",6
5842041f4e65fad6a7708a8b,2024_04_08,30.19308537587637,-81.36314247820911,Sawgrass,0.8333333333333334,0.06666666666666667,0.37246666666666667,24,22,"NIGHT_CLEAR,NIGHT_CLEAR,NIGHT_CLEAR,NIGHT_CLEAR,NIGHT_CLEAR,NIGHT_CLEAR","Onshore,Onshore,Onshore,Onshore,Onshore,Onshore",6
5842041f4e65fad6a7708a8c,2024_04_08,30.34696027700899,-81.39451,18th Street,0,0.14329,0.22388833333333333,18,18,"NIGHT_CLEAR,NIGHT_CLEAR,NIGHT_CLEAR,NIGHT_CLEAR,NIGHT_CLEAR,NIGHT_CLEAR","Onshore,Onshore,Onshore,Onshore,Onshore,Onshore",6
5842041f4e65fad6a7708a8d,2024_04_08,30.381793,-81.39686,Mayport Poles,1,0.08333333333333333,0.38833333333333336,18,18,"NIGHT_CLEAR,NIGHT_CLEAR,NIGHT_CLEAR,NIGHT_CLEAR,NIGHT_CLEAR,NIGHT_CLEAR","Onshore,Onshore,Onshore,Onshore,Onshore,Onshore",6
5842041f4e65fad6a7708a8e,2024_04_08,30.390516,-81.395591,Blue Roofs,1,0.060000000000000005,0.365,18,18,"NIGHT_CLEAR,NIGHT_CLEAR,NIGHT_CLEAR,NIGHT_CLEAR,NIGHT_CLEAR,NIGHT_CLEAR","Onshore,Onshore,Onshore,Onshore,Onshore,Onshore",6
5842041f4e65fad6a7708a8f,2024_04_08,30.40517712722211,-81.40074116169004,Huguenot Park (North Jetty),1,0.013333333333333334,0.31666666666666665,18,18,"NIGHT_CLEAR,NIGHT_CLEAR,NIGHT_CLEAR,NIGHT_CLEAR,NIGHT_CLEAR,NIGHT_CLEAR","Onshore,Onshore,Onshore,Onshore,Onshore,Onshore",6
5842041f4e65fad6a7708a90,2024_04_08,30.47788918872762,-81.41055821335078,Talbot Island,1,0.3564133333333333,0.5418333333333334,19,18,"NIGHT_CLEAR,NIGHT_CLEAR,NIGHT_CLEAR,NIGHT_CLEAR,NIGHT_CLEAR,NIGHT_CLEAR","Onshore,Onshore,Onshore,Onshore,Onshore,Onshore",6
5842041f4e65fad6a7708a91,2024_04_08,30.66753984549761,-81.42983,Main Beach,1,0,0.26166666666666666,18,18,"NIGHT_CLEAR,NIGHT_CLEAR,NIGHT_CLEAR,NIGHT_CLEAR,NIGHT_CLEAR,NIGHT_CLEAR","Onshore,Onshore,Onshore,Onshore,Onshore,Onshore",6
5842041f4e65fad6a7708a92,2024_04_08,30.69983581209126,-81.42483,Ft. Clinch State Park,1,0,0.29666666666666663,18,18,"NIGHT_CLEAR,NIGHT_CLEAR,NIGHT_CLEAR,NIGHT_CLEAR,NIGHT_CLEAR,NIGHT_CLEAR","Onshore,Onshore,Onshore,Onshore,Onshore,Onshore",6
5842041f4e65fad6a7708a93,2024_04_08,30.62059700777582,-81.437252942757425,Amelia Pier,0.3333333333333333,0.0016666666666666668,0.3,18,18,"NIGHT_CLEAR,NIGHT_CLEAR,NIGHT_CLEAR,NIGHT_CLEAR,NIGHT_CLEAR,NIGHT_CLEAR","Onshore,Onshore,Onshore,Onshore,Onshore,Onshore",6
5842041f4e65fad6a7708a95,2024_04_08,28.95125170929067,-80.83837,Bethune Beach,1,0.21,0.515,21,21,"NIGHT_CLEAR,NIGHT_CLEAR,NIGHT_MOSTLY_CLOUDY,NIGHT_MOSTLY_CLOUDY,NIGHT_CLEAR,NIGHT_CLEAR","Onshore,Onshore,Onshore,Onshore,Onshore,Onshore",6
5842041f4e65fad6a7708a96,2024_04_08,29.03874288905362,-80.8933424949646,Flagler Ave.,1,0.22493333333333335,0.5528,24,22,"NIGHT_MOSTLY_CLOUDY,NIGHT_MOSTLY_CLOUDY,NIGHT_MOSTLY_CLOUDY,NIGHT_MOSTLY_CLOUDY,NIGHT_CLEAR,NIGHT_CLEAR","Onshore,Onshore,Onshore,Onshore,Onshore,Onshore",6
5842041f4e65fad6a7708a98,2024_04_08,30.332297686992757,-81.39319,Atlantic Beach,0,0.14484333333333332,0.22632,18,18,"NIGHT_CLEAR,NIGHT_CLEAR,NIGHT_CLEAR,NIGHT_CLEAR,NIGHT_CLEAR,NIGHT_CLEAR","Onshore,Onshore,Onshore,Onshore,Onshore,Onshore",6
5842041f4e65fad6a7708a99,2024_04_08,29.87530059952514,-81.26757958498874,Middles,0.8333333333333334,0.021666666666666667,0.3224666666666667,24,22,"NIGHT_CLEAR,NIGHT_CLEAR,NIGHT_CLEAR,NIGHT_CLEAR,NIGHT_CLEAR,NIGHT_CLEAR","Onshore,Onshore,Onshore,Onshore,Onshore,Onshore",6
5842041f4e65fad6a7708a9a,2024_04_08,29.146475528378218,-80.96347,Sunglow Pier,1,0.14500000000000002,0.44833333333333336,20,20,"NIGHT_MOSTLY_CLOUDY,NIGHT_CLEAR,NIGHT_MOSTLY_CLOUDY,NIGHT_MOSTLY_CLOUDY,NIGHT_CLEAR,NIGHT_CLEAR","Onshore,Onshore,Onshore,Onshore,Onshore,Onshore",6
5842041f4e65fad6a7708a9b,2024_04_08,30.02251238001095,-81.32183077344881,Gate Station,0.8333333333333334,0.021666666666666667,0.32413333333333333,24,22,"NIGHT_CLEAR,NIGHT_CLEAR,NIGHT_CLEAR,NIGHT_CLEAR,NIGHT_CLEAR,NIGHT_CLEAR","Onshore,Onshore,Onshore,Onshore,Onshore,Onshore",6
5842041f4e65fad6a7708a9c,2024_04_08,29.33976495417899,-81.0606,Bicentennial Park,1,0.13833333333333334,0.44166666666666665,19,19,"NIGHT_MOSTLY_CLOUDY,NIGHT_CLEAR,NIGHT_MOSTLY_CLOUDY,NIGHT_CLOUDY,NIGHT_CLEAR,NIGHT_CLEAR","Onshore,Onshore,Onshore,Onshore,Onshore,Onshore",6
5842041f4e65fad6a7708a9d,2024_04_08,29.08257353385602,-80.92137,Ponce Inlet,1,0.3191333333333333,0.6216,20,19,"NIGHT_MOSTLY_CLOUDY,NIGHT_MOSTLY_CLOUDY,NIGHT_MOSTLY_CLOUDY,NIGHT_MOSTLY_CLOUDY,NIGHT_CLEAR,NIGHT_MOSTLY_CLEAR","Onshore,Onshore,Onshore,Onshore,Onshore,Onshore",6
5842041f4e65fad6a7708a9f,2024_04_08,27.862962005874696,-80.44668,Sebastian Inlet,1,0.5930316666666667,0.7765333333333333,24,23,"NIGHT_MOSTLY_CLOUDY,NIGHT_MOSTLY_CLOUDY,NIGHT_CLEAR,NIGHT_CLEAR,NIGHT_CLEAR,NIGHT_CLEAR","Onshore,Onshore,Onshore,Onshore,Onshore,Onshore",6
5842041f4e65fad6a7708aa0,2024_04_08,30.292626880836885,-81.38579,Jacksonville Beach Pier,1.5,0.06333333333333334,0.36746666666666666,19,18,"NIGHT_CLEAR,NIGHT_CLEAR,NIGHT_CLEAR,NIGHT_CLEAR,NIGHT_CLEAR,NIGHT_CLEAR","Onshore,Onshore,Onshore,Onshore,Onshore,Onshore",6
5842041f4e65fad6a7708aa1,2024_04_08,29.22878213864532,-81.00551,Main Street North,1,0.4086533333333333,0.5782033333333333,20,20,"NIGHT_CLEAR,NIGHT_CLEAR,NIGHT_MOSTLY_CLOUDY,NIGHT_CLEAR,NIGHT_CLEAR,NIGHT_CLEAR","Onshore,Onshore,Onshore,Onshore,Onshore,Onshore",6
5842041f4e65fad6a7708aa2,2024_04_08,29.21860397328164,-81.0019,Daytona Beach,1,0.14666666666666667,0.45166666666666666,20,20,"NIGHT_CLEAR,NIGHT_CLEAR,NIGHT_MOSTLY_CLOUDY,NIGHT_CLEAR,NIGHT_CLEAR,NIGHT_CLEAR","Onshore,Onshore,Onshore,Onshore,Onshore,Onshore",6
5842041f4e65fad6a7708aa3,2024_04_08,27.47531255634912,-80.28914,Ft. Pierce Inlet,1.6666666666666667,0.27080000000000004,0.5732666666666667,24,23,"NIGHT_CLEAR,NIGHT_MOSTLY_CLEAR,NIGHT_BRIEF_SHOWERS,NIGHT_CLEAR,NIGHT_CLEAR,NIGHT_MOSTLY_CLOUDY","Onshore,Onshore,Onshore,Onshore,Onshore,Onshore",6
5842041f4e65fad6a7708aa4,2024_04_08,29.29239875585548,-81.0386,Ormond Beach,1,0.23333333333333334,0.54,20,20,"NIGHT_MOSTLY_CLOUDY,NIGHT_MOSTLY_CLOUDY,NIGHT_CLEAR,NIGHT_CLEAR,NIGHT_CLEAR,NIGHT_CLEAR","Onshore,Onshore,Onshore,Onshore,Onshore,Onshore",6
5842041f4e65fad6a7708aa5,2024_04_08,29.91629441498523,-81.28801,Vilano,0.6666666666666666,0.011666666666666667,0.31166666666666665,19,19,"NIGHT_CLEAR,NIGHT_CLEAR,NIGHT_CLEAR,NIGHT_CLEAR,NIGHT_CLEAR,NIGHT_CLEAR","Onshore,Onshore,Onshore,Onshore,Onshore,Onshore",6
