_id,date,lat,lon,name,daily_mean_swell_rating,daily_mean_wave_height_min,daily_mean_wave_height_max,daily_mean_water_temperature_max,daily_mean_water_temperature_min,weather_per_timestamp,wind_per_timestamp,n_samples_per_day
5842041f4e65fad6a77087f9,2024_05_17,37.741668,-122.51038,South Ocean Beach,1.522,0.8891153333333334,1.2563246666666668,11,11,"NIGHT_MIST,NIGHT_BRIEF_SHOWERS,NIGHT_CLOUDY,NIGHT_BRIEF_SHOWERS,NIGHT_BRIEF_SHOWERS,NIGHT_BRIEF_SHOWERS,MOSTLY_CLOUDY,MOSTLY_CLOUDY,MOSTLY_CLOUDY,BRIEF_SHOWERS,MIST,MIST,MIST,MOSTLY_CLOUDY,BRIEF_SHOWERS","Onshore,Onshore,Onshore,Onshore,Onshore,Cross-shore,Cross-shore,Cross-shore,Cross-shore,Cross-shore,Cross-shore,Cross-shore,Onshore,Onshore,Onshore",15
5842041f4e65fad6a7708801,2024_05_17,37.49142,-122.50428,Maverick's,NA,1.1226666666666667,1.4293333333333333,14,14,"NIGHT_MIST,NIGHT_MIST,NIGHT_MIST,NIGHT_BRIEF_SHOWERS,NIGHT_BRIEF_SHOWERS,NIGHT_BRIEF_SHOWERS,MOSTLY_CLOUDY,MIST,BRIEF_SHOWERS,BRIEF_SHOWERS,BRIEF_SHOWERS,MIST,MIST,MIST,MIST","Onshore,Onshore,Onshore,Cross-shore,Onshore,Onshore,Onshore,Onshore,Onshore,Onshore,Onshore,Onshore,Onshore,Onshore,Onshore",15
5842041f4e65fad6a7708804,2024_05_17,44.997,-124.018,Roads End,2.066666666666667,1.6106666666666667,1.926,11.333333333333334,11.333333333333334,"NIGHT_CLEAR,NIGHT_MOSTLY_CLOUDY,NIGHT_MOSTLY_CLOUDY,NIGHT_MOSTLY_CLEAR,NIGHT_MOSTLY_CLOUDY,NIGHT_BRIEF_SHOWERS,MOSTLY_CLOUDY,MOSTLY_CLOUDY,BRIEF_SHOWERS,MOSTLY_CLOUDY,CLEAR,MOSTLY_CLOUDY,CLEAR,MOSTLY_CLEAR,MOSTLY_CLEAR","Cross-shore,Cross-shore,Cross-shore,Cross-shore,Cross-shore,Cross-shore,Cross-shore,Cross-shore,Cross-shore,Cross-shore,Cross-shore,Cross-shore,Cross-shore,Cross-shore,Cross-shore",15
5842041f4e65fad6a7708805,2024_05_17,36.95188851423011,-122.02522,Steamer Lane,2.533333333333333,0.6388733333333333,1.0141926666666667,11,11,"NIGHT_MIST,NIGHT_MOSTLY_CLOUDY,NIGHT_MIST,NIGHT_FOG,NIGHT_MOSTLY_CLOUDY,NIGHT_MOSTLY_CLOUDY,MOSTLY_CLOUDY,FOG,MIST,MIST,MIST,MIST,MIST,MOSTLY_CLOUDY,MOSTLY_CLOUDY","Offshore,Cross-shore,Cross-shore,Offshore,Offshore,Onshore,Offshore,Offshore,Offshore,Cross-shore,Offshore,Cross-shore,Onshore,Onshore,Onshore",15
5842041f4e65fad6a7708806,2024_05_17,36.95918781542251,-122.02489,Cowells,1.1,0,0.22406466666666666,11,11,"NIGHT_MIST,NIGHT_MOSTLY_CLOUDY,NIGHT_MIST,NIGHT_FOG,NIGHT_MOSTLY_CLOUDY,NIGHT_MOSTLY_CLOUDY,MOSTLY_CLOUDY,FOG,MIST,MIST,MIST,MIST,MIST,MOSTLY_CLOUDY,MOSTLY_CLOUDY","Offshore,Offshore,Offshore,Offshore,Offshore,Cross-shore,Offshore,Offshore,Offshore,Offshore,Offshore,Offshore,Cross-shore,Cross-shore,Cross-shore",15
5842041f4e65fad6a7708807,2024_05_17,36.95468082526536,-121.97234,Pleasure Point,3,0.6165953333333334,0.9716246666666667,11,11,"NIGHT_MOSTLY_CLOUDY,NIGHT_MOSTLY_CLOUDY,NIGHT_MOSTLY_CLOUDY,NIGHT_FOG,NIGHT_MOSTLY_CLOUDY,NIGHT_MOSTLY_CLOUDY,MOSTLY_CLOUDY,FOG,MIST,MIST,MIST,MIST,MIST,MOSTLY_CLOUDY,MOSTLY_CLOUDY","Cross-shore,Cross-shore,Cross-shore,Onshore,Onshore,Onshore,Onshore,Cross-shore,Cross-shore,Cross-shore,Onshore,Onshore,Cross-shore,Cross-shore,Cross-shore",15
5842041f4e65fad6a770880a,2024_05_17,35.37815414378748,-120.86589,Morro Bay,2.622,0.51766,0.8238466666666667,11,11,"NIGHT_MIST,NIGHT_MIST,NIGHT_MIST,NIGHT_BRIEF_SHOWERS,NIGHT_MIST,NIGHT_MIST,MIST,MIST,BRIEF_SHOWERS,MIST,MIST,MIST,MOSTLY_CLEAR,MOSTLY_CLEAR,MOSTLY_CLEAR","Onshore,Cross-shore,Onshore,Offshore,Onshore,Onshore,Cross-shore,Onshore,Onshore,Onshore,Onshore,Onshore,Onshore,Onshore,Onshore",15
5842041f4e65fad6a770880b,2024_05_17,36.95782765000708,-121.96729,Jack's,2,0.2762446666666667,0.5786246666666667,11,11,"NIGHT_MOSTLY_CLOUDY,NIGHT_MOSTLY_CLOUDY,NIGHT_MOSTLY_CLOUDY,NIGHT_FOG,NIGHT_MOSTLY_CLOUDY,NIGHT_MOSTLY_CLOUDY,MOSTLY_CLOUDY,FOG,MIST,MIST,MIST,MIST,MIST,MOSTLY_CLOUDY,MOSTLY_CLOUDY","Cross-shore,Cross-shore,Cross-shore,Cross-shore,Cross-shore,Cross-shore,Cross-shore,Cross-shore,Cross-shore,Onshore,Cross-shore,Cross-shore,Cross-shore,Cross-shore,Cross-shore",15
5842041f4e65fad6a770880d,2024_05_17,34.29982939936656,-119.3489016603669,Gold Coast Beachbreaks,2,0.23733333333333334,0.542,15,15,"NIGHT_MIST,NIGHT_MIST,NIGHT_FOG,NIGHT_FOG,NIGHT_FOG,NIGHT_FOG,FOG,MIST,MIST,MIST,MIST,MIST,CLEAR,CLEAR,CLEAR","Onshore,Offshore,Onshore,Offshore,Offshore,Cross-shore,Offshore,Offshore,Offshore,Onshore,Onshore,Onshore,Onshore,Onshore,Onshore",15
5842041f4e65fad6a7708811,2024_05_17,34.245076,-119.26799,Ventura Harbor,2.3333333333333335,0.5654706666666667,0.85145,14,14,"NIGHT_MOSTLY_CLOUDY,NIGHT_MOSTLY_CLOUDY,NIGHT_MOSTLY_CLOUDY,NIGHT_FOG,NIGHT_FOG,NIGHT_FOG,FOG,MIST,MOSTLY_CLOUDY,MIST,MIST,MOSTLY_CLEAR,CLEAR,CLEAR,CLEAR","Onshore,Onshore,Onshore,Onshore,Onshore,Onshore,Onshore,Onshore,Onshore,Onshore,Onshore,Onshore,Onshore,Onshore,Onshore",15
5842041f4e65fad6a7708813,2024_05_17,34.051,-118.964,County Line,2.3,0.527042,0.8366706666666667,16,15,"NIGHT_CLEAR,NIGHT_CLEAR,NIGHT_CLEAR,NIGHT_FOG,NIGHT_MOSTLY_CLEAR,NIGHT_FOG,FOG,MIST,MIST,MOSTLY_CLOUDY,MOSTLY_CLOUDY,MOSTLY_CLOUDY,MOSTLY_CLEAR,MOSTLY_CLEAR,MOSTLY_CLEAR","Onshore,Onshore,Offshore,Offshore,Offshore,Offshore,Offshore,Offshore,Onshore,Onshore,Onshore,Onshore,Onshore,Onshore,Onshore",15
5842041f4e65fad6a7708814,2024_05_17,34.37256264378892,-119.47797,Rincon,2,0.088,0.39266666666666666,14.666666666666666,14.666666666666666,"NIGHT_MIST,NIGHT_MIST,NIGHT_MIST,NIGHT_FOG,NIGHT_CLEAR,NIGHT_FOG,MIST,MIST,MIST,MIST,MIST,MIST,MIST,MIST,MIST","Onshore,Onshore,Onshore,Onshore,Onshore,Onshore,Onshore,Onshore,Onshore,Onshore,Onshore,Onshore,Onshore,Onshore,Onshore",15
5842041f4e65fad6a7708817,2024_05_17,34.03096101876324,-118.68109,Malibu Third Point,2.8,0.358,0.6626666666666667,16,16,"NIGHT_MOSTLY_CLOUDY,NIGHT_MOSTLY_CLOUDY,NIGHT_MIST,NIGHT_MOSTLY_CLEAR,NIGHT_MOSTLY_CLEAR,NIGHT_MOSTLY_CLOUDY,MOSTLY_CLOUDY,FOG,MIST,MOSTLY_CLEAR,MOSTLY_CLOUDY,MOSTLY_CLEAR,CLEAR,CLEAR,CLEAR","Offshore,Cross-shore,Cross-shore,Onshore,Onshore,Onshore,Onshore,Onshore,Onshore,Onshore,Onshore,Cross-shore,Cross-shore,Cross-shore,Cross-shore",15
5842041f4e65fad6a7708819,2024_05_17,33.984079047970035,-118.47382,Venice Beach,1.9333333333333333,0.431584,0.737744,16,16,"NIGHT_MIST,NIGHT_BRIEF_SHOWERS,NIGHT_MOSTLY_CLOUDY,NIGHT_MOSTLY_CLOUDY,NIGHT_MOSTLY_CLOUDY,NIGHT_MIST,MIST,MIST,MIST,MIST,MIST,BRIEF_SHOWERS,BRIEF_SHOWERS,BRIEF_SHOWERS,BRIEF_SHOWERS","Cross-shore,Cross-shore,Onshore,Onshore,Onshore,Cross-shore,Cross-shore,Onshore,Onshore,Onshore,Onshore,Cross-shore,Cross-shore,Cross-shore,Cross-shore",15
5842041f4e65fad6a770881e,2024_05_17,34.037508438646746,-118.5834,Topanga Beach,2.278,0.2871246666666667,0.594618,16,15,"NIGHT_MOSTLY_CLOUDY,NIGHT_MOSTLY_CLOUDY,NIGHT_MOSTLY_CLOUDY,NIGHT_MOSTLY_CLOUDY,NIGHT_MOSTLY_CLOUDY,NIGHT_MOSTLY_CLOUDY,MIST,FOG,MIST,MIST,MOSTLY_CLEAR,MOSTLY_CLEAR,CLEAR,CLEAR,CLEAR","Offshore,Cross-shore,Onshore,Onshore,Onshore,Offshore,Onshore,Onshore,Onshore,Onshore,Onshore,Onshore,Onshore,Onshore,Onshore",15
5842041f4e65fad6a7708820,2024_05_17,33.73954373690184,-118.11414,Seal Beach Jetty,2,0.16666666666666666,0.4713333333333333,16,16,"NIGHT_CLEAR,NIGHT_CLEAR,NIGHT_MOSTLY_CLOUDY,NIGHT_MOSTLY_CLOUDY,NIGHT_MOSTLY_CLOUDY,NIGHT_FOG,MOSTLY_CLOUDY,MOSTLY_CLOUDY,MOSTLY_CLOUDY,BRIEF_SHOWERS,MOSTLY_CLEAR,MOSTLY_CLEAR,MOSTLY_CLEAR,CLEAR,CLEAR","Cross-shore,Onshore,Onshore,Onshore,Onshore,Onshore,Onshore,Onshore,Onshore,Onshore,Onshore,Onshore,Onshore,Onshore,Onshore",15
5842041f4e65fad6a7708822,2024_05_17,33.72309983348433,-118.08078,Anderson Street,1.1,0.12869333333333333,0.37499733333333335,15.466666666666667,15.466666666666667,"NIGHT_CLEAR,NIGHT_MOSTLY_CLOUDY,NIGHT_MOSTLY_CLOUDY,NIGHT_MOSTLY_CLOUDY,NIGHT_FOG,NIGHT_FOG,MOSTLY_CLOUDY,MOSTLY_CLOUDY,MOSTLY_CLOUDY,CLEAR,CLEAR,CLEAR,CLEAR,CLEAR,CLEAR","Cross-shore,Onshore,Onshore,Onshore,Onshore,Onshore,Onshore,Onshore,Onshore,Onshore,Onshore,Onshore,Onshore,Onshore,Onshore",15
5842041f4e65fad6a7708827,2024_05_17,33.65574085629463,-118.00397,Huntington Beach Pier Northside,2.566666666666667,0.5514286666666667,0.9109753333333334,15.466666666666667,15.466666666666667,"NIGHT_MOSTLY_CLOUDY,NIGHT_MOSTLY_CLOUDY,NIGHT_MOSTLY_CLOUDY,NIGHT_MOSTLY_CLOUDY,NIGHT_FOG,NIGHT_FOG,FOG,FOG,MIST,CLEAR,CLEAR,CLEAR,CLEAR,CLEAR,CLEAR","Cross-shore,Cross-shore,Onshore,Cross-shore,Onshore,Onshore,Onshore,Onshore,Onshore,Onshore,Onshore,Onshore,Onshore,Onshore,Onshore",15
5842041f4e65fad6a7708828,2024_05_17,34.272041739333,-119.29976,C St.,1.822,0.19402866666666668,0.49896666666666667,14,14,"NIGHT_MOSTLY_CLOUDY,NIGHT_MIST,NIGHT_MIST,NIGHT_MIST,NIGHT_MIST,NIGHT_MIST,MIST,MIST,MIST,MIST,MIST,MIST,MIST,MIST,MIST","Onshore,Onshore,Onshore,Onshore,Onshore,Onshore,Cross-shore,Cross-shore,Cross-shore,Cross-shore,Cross-shore,Cross-shore,Cross-shore,Cross-shore,Cross-shore",15
5842041f4e65fad6a770882a,2024_05_17,33.61555743705257,-117.93676,Newport Lower Jetties,2,0.24886,0.55422,16,16,"NIGHT_MOSTLY_CLOUDY,NIGHT_MOSTLY_CLOUDY,NIGHT_MIST,NIGHT_FOG,NIGHT_CLEAR,NIGHT_FOG,FOG,FOG,MOSTLY_CLOUDY,CLEAR,MOSTLY_CLEAR,CLEAR,CLEAR,CLEAR,CLEAR","Onshore,Cross-shore,Onshore,Onshore,Onshore,Onshore,Onshore,Onshore,Onshore,Onshore,Onshore,Onshore,Onshore,Onshore,Onshore",15
5842041f4e65fad6a770882b,2024_05_17,33.5930302087,-117.88199,The Wedge,1.922,0.5933446666666666,0.910378,16,16,"NIGHT_MOSTLY_CLOUDY,NIGHT_MIST,NIGHT_MIST,NIGHT_MOSTLY_CLOUDY,NIGHT_FOG,NIGHT_FOG,FOG,MOSTLY_CLOUDY,MIST,CLEAR,CLEAR,CLEAR,CLEAR,CLEAR,CLEAR","Onshore,Onshore,Cross-shore,Onshore,Onshore,Onshore,Onshore,Cross-shore,Onshore,Onshore,Onshore,Onshore,Onshore,Onshore,Onshore",15
5842041f4e65fad6a770882e,2024_05_17,33.475793399792984,-117.72291,Salt Creek,2.878,0.5457,0.9231426666666667,16,16,"NIGHT_MIST,NIGHT_MIST,NIGHT_DRIZZLE,NIGHT_CLEAR,NIGHT_MOSTLY_CLEAR,NIGHT_MOSTLY_CLEAR,MOSTLY_CLEAR,MOSTLY_CLOUDY,MOSTLY_CLOUDY,MIST,MIST,MOSTLY_CLOUDY,CLEAR,CLEAR,CLEAR","Onshore,Onshore,Onshore,Onshore,Onshore,Onshore,Onshore,Onshore,Onshore,Onshore,Onshore,Onshore,Onshore,Onshore,Onshore",15
5842041f4e65fad6a7708830,2024_05_17,33.41800974113613,-117.61952,T-Street,2.4113333333333333,0.5463113333333334,0.849634,17,17,"NIGHT_BRIEF_SHOWERS,NIGHT_MIST,NIGHT_MIST,NIGHT_MOSTLY_CLEAR,NIGHT_CLEAR,NIGHT_CLEAR,CLEAR,CLEAR,MIST,MIST,MIST,MIST,CLEAR,CLEAR,MIST","Cross-shore,Cross-shore,Cross-shore,Onshore,Cross-shore,Cross-shore,Onshore,Onshore,Onshore,Onshore,Onshore,Onshore,Onshore,Onshore,Onshore",15
5842041f4e65fad6a7708832,2024_05_17,33.202391008646,-117.39475,Oceanside Harbor,2.6,0.5753266666666667,0.94528,18,17,"NIGHT_FOG,NIGHT_FOG,NIGHT_FOG,NIGHT_MOSTLY_CLOUDY,NIGHT_MOSTLY_CLOUDY,NIGHT_MOSTLY_CLOUDY,CLEAR,CLEAR,CLEAR,MIST,MOSTLY_CLOUDY,BRIEF_SHOWERS,MIST,CLEAR,CLEAR","Onshore,Onshore,Onshore,Onshore,Cross-shore,Offshore,Cross-shore,Cross-shore,Cross-shore,Onshore,Onshore,Onshore,Onshore,Onshore,Onshore",15
5842041f4e65fad6a7708835,2024_05_17,33.19477795952803,-117.38667,Oceanside Pier,2.4886666666666666,0.5278266666666667,0.82924,18,17,"NIGHT_FOG,NIGHT_FOG,NIGHT_FOG,NIGHT_MOSTLY_CLOUDY,NIGHT_CLEAR,NIGHT_MOSTLY_CLOUDY,MOSTLY_CLOUDY,CLEAR,CLEAR,MIST,BRIEF_SHOWERS,MIST,MOSTLY_CLEAR,CLEAR,CLEAR","Onshore,Onshore,Onshore,Onshore,Cross-shore,Offshore,Cross-shore,Cross-shore,Onshore,Onshore,Onshore,Onshore,Onshore,Onshore,Onshore",15
5842041f4e65fad6a7708837,2024_05_17,33.14948100706,-117.35029,Tamarack,3,0.6486666666666666,0.9533333333333334,18,18,"NIGHT_FOG,NIGHT_FOG,NIGHT_FOG,NIGHT_FOG,NIGHT_MOSTLY_CLOUDY,NIGHT_MOSTLY_CLOUDY,MOSTLY_CLOUDY,MOSTLY_CLEAR,CLEAR,MOSTLY_CLOUDY,MOSTLY_CLOUDY,MOSTLY_CLOUDY,MOSTLY_CLEAR,MOSTLY_CLEAR,CLEAR","Onshore,Onshore,Cross-shore,Onshore,Onshore,Cross-shore,Onshore,Onshore,Onshore,Onshore,Onshore,Onshore,Onshore,Onshore,Onshore",15
5842041f4e65fad6a7708839,2024_05_17,32.865777159358856,-117.25614,Scripps,2.0553333333333335,0.41591333333333336,0.7204933333333333,18,17,"NIGHT_FOG,NIGHT_FOG,NIGHT_FOG,NIGHT_FOG,NIGHT_MOSTLY_CLOUDY,NIGHT_MOSTLY_CLOUDY,MOSTLY_CLOUDY,MOSTLY_CLOUDY,MOSTLY_CLOUDY,CLOUDY,CLOUDY,MOSTLY_CLOUDY,MOSTLY_CLOUDY,MIST,MIST","Onshore,Onshore,Onshore,Onshore,Onshore,Onshore,Onshore,Onshore,Cross-shore,Onshore,Onshore,Onshore,Onshore,Onshore,Onshore",15
5842041f4e65fad6a770883a,2024_05_17,32.813094,-117.27381,Birdrock,2.7333333333333334,0.486,0.7913333333333333,18,18,"NIGHT_OVERCAST,NIGHT_FOG,NIGHT_OVERCAST,NIGHT_FOG,NIGHT_FOG,NIGHT_FOG,FOG,FOG,MIST,MIST,OVERCAST,MOSTLY_CLOUDY,MOSTLY_CLOUDY,CLEAR,MOSTLY_CLEAR","Onshore,Onshore,Onshore,Onshore,Onshore,Cross-shore,Cross-shore,Onshore,Onshore,Cross-shore,Onshore,Cross-shore,Cross-shore,Cross-shore,Cross-shore",15
5842041f4e65fad6a770883b,2024_05_17,32.877231,-117.25303,Blacks,3,0.6599933333333333,0.97032,18,17,"NIGHT_FOG,NIGHT_FOG,NIGHT_FOG,NIGHT_FOG,NIGHT_MOSTLY_CLOUDY,NIGHT_MOSTLY_CLOUDY,MOSTLY_CLOUDY,MOSTLY_CLOUDY,MOSTLY_CLOUDY,CLOUDY,CLOUDY,MOSTLY_CLOUDY,MOSTLY_CLOUDY,MIST,MIST","Onshore,Onshore,Onshore,Onshore,Onshore,Onshore,Onshore,Onshore,Onshore,Onshore,Onshore,Onshore,Onshore,Onshore,Onshore",15
5842041f4e65fad6a770883c,2024_05_17,32.82978974229765,-117.28162,Windansea,2.178,0.5998266666666666,0.9091533333333334,18,17,"NIGHT_OVERCAST,NIGHT_OVERCAST,NIGHT_OVERCAST,NIGHT_FOG,NIGHT_FOG,NIGHT_FOG,FOG,FOG,MOSTLY_CLOUDY,OVERCAST,MIST,MOSTLY_CLOUDY,MOSTLY_CLOUDY,CLEAR,CLEAR","Onshore,Onshore,Onshore,Onshore,Onshore,Onshore,Onshore,Onshore,Onshore,Onshore,Onshore,Onshore,Onshore,Onshore,Onshore",15
5842041f4e65fad6a770883d,2024_05_17,32.838278,-117.28396,Horseshoe,2.2666666666666666,0.5926666666666667,0.8966666666666667,18,18,"NIGHT_OVERCAST,NIGHT_OVERCAST,NIGHT_OVERCAST,NIGHT_FOG,NIGHT_FOG,NIGHT_FOG,FOG,FOG,MOSTLY_CLOUDY,OVERCAST,MIST,MOSTLY_CLOUDY,MOSTLY_CLOUDY,CLEAR,CLEAR","Onshore,Onshore,Onshore,Onshore,Onshore,Onshore,Onshore,Onshore,Onshore,Onshore,Onshore,Onshore,Onshore,Onshore,Onshore",15
5842041f4e65fad6a770883f,2024_05_17,32.75034717673179,-117.25337,Ocean Beach,2.6333333333333333,0.63166,0.9384066666666666,18,17,"NIGHT_FOG,NIGHT_FOG,NIGHT_FOG,NIGHT_FOG,NIGHT_FOG,NIGHT_FOG,FOG,FOG,MIST,CLOUDY,MIST,MIST,MOSTLY_CLOUDY,MOSTLY_CLEAR,MIST","Onshore,Onshore,Onshore,Onshore,Onshore,Onshore,Onshore,Onshore,Onshore,Onshore,Onshore,Onshore,Onshore,Onshore,Onshore",15
5842041f4e65fad6a7708840,2024_05_17,32.73693,-117.25718,Sunset Cliffs,2,0.4146666666666667,0.72,18,18,"NIGHT_FOG,NIGHT_FOG,NIGHT_FOG,NIGHT_FOG,NIGHT_FOG,NIGHT_FOG,FOG,FOG,DRIZZLE,OVERCAST,MIST,MIST,MIST,CLEAR,MOSTLY_CLEAR","Onshore,Onshore,Onshore,Onshore,Onshore,Onshore,Onshore,Onshore,Onshore,Onshore,Onshore,Onshore,Cross-shore,Onshore,Onshore",15
5842041f4e65fad6a7708841,2024_05_17,32.796582258728826,-117.25779,Pacific Beach,2.7333333333333334,0.45758,0.7598266666666667,18,17,"NIGHT_FOG,NIGHT_FOG,NIGHT_FOG,NIGHT_FOG,NIGHT_FOG,NIGHT_FOG,FOG,FOG,MIST,MIST,CLOUDY,MIST,MOSTLY_CLOUDY,CLEAR,CLEAR","Onshore,Onshore,Onshore,Onshore,Onshore,Cross-shore,Cross-shore,Onshore,Onshore,Cross-shore,Onshore,Cross-shore,Cross-shore,Cross-shore,Cross-shore",15
5842041f4e65fad6a7708842,2024_05_17,32.776636,-117.25514,Mission Beach,2.6666666666666665,0.45591333333333334,0.7619933333333333,18,17,"NIGHT_FOG,NIGHT_FOG,NIGHT_FOG,NIGHT_FOG,NIGHT_FOG,NIGHT_FOG,FOG,FOG,MIST,MIST,CLOUDY,MIST,MOSTLY_CLOUDY,CLEAR,CLEAR","Onshore,Onshore,Onshore,Onshore,Onshore,Onshore,Onshore,Onshore,Onshore,Onshore,Onshore,Onshore,Onshore,Onshore,Onshore",15
5842041f4e65fad6a7708844,2024_05_17,32.577195519016,-117.13475,Imperial Beach Pier,2,0.586,0.8926666666666667,18,18,"NIGHT_CLOUDY,NIGHT_FOG,NIGHT_FOG,NIGHT_FOG,NIGHT_FOG,NIGHT_FOG,FOG,FOG,MIST,MOSTLY_CLOUDY,MOSTLY_CLOUDY,MOSTLY_CLOUDY,MOSTLY_CLOUDY,CLEAR,CLEAR","Onshore,Onshore,Onshore,Onshore,Onshore,Onshore,Onshore,Onshore,Onshore,Onshore,Onshore,Onshore,Onshore,Onshore,Onshore",15
5842041f4e65fad6a770884a,2024_05_17,42.88678181061,-70.80843,Seabrook,1.7553333333333334,0.6209413333333333,0.9886366666666666,11,9,"NIGHT_MOSTLY_CLEAR,NIGHT_CLEAR,NIGHT_CLEAR,CLEAR,CLEAR,CLEAR,MOSTLY_CLEAR,MOSTLY_CLEAR,CLEAR,MIST,MIST,MIST,MIST,MIST,MIST","Cross-shore,Cross-shore,Cross-shore,Cross-shore,Cross-shore,Cross-shore,Cross-shore,Cross-shore,Onshore,Onshore,Onshore,Onshore,Onshore,Onshore,Onshore",15
5842041f4e65fad6a770884e,2024_05_17,41.434181432898335,-71.45312,Narragansett,1.822,0.5668913333333333,1.0164286666666666,11,10,"NIGHT_MOSTLY_CLOUDY,NIGHT_MOSTLY_CLOUDY,NIGHT_OVERCAST,MOSTLY_CLEAR,MOSTLY_CLEAR,CLEAR,CLEAR,CLEAR,CLEAR,CLEAR,CLEAR,CLEAR,CLEAR,CLEAR,CLEAR","Offshore,Offshore,Offshore,Offshore,Offshore,Offshore,Offshore,Offshore,Offshore,Offshore,Offshore,Offshore,Offshore,Offshore,Offshore",15
5842041f4e65fad6a7708850,2024_05_17,40.582703230722,-73.65247,Lincoln Blvd,2.6666666666666665,0.6147066666666666,0.9736933333333333,13,12,"NIGHT_MOSTLY_CLOUDY,NIGHT_MOSTLY_CLOUDY,NIGHT_MOSTLY_CLOUDY,CLEAR,CLEAR,CLEAR,CLEAR,CLEAR,CLEAR,CLEAR,CLEAR,CLEAR,CLEAR,CLEAR,CLEAR","Offshore,Offshore,Offshore,Offshore,Offshore,Offshore,Offshore,Offshore,Offshore,Offshore,Cross-shore,Onshore,Cross-shore,Offshore,Offshore",15
5842041f4e65fad6a7708852,2024_05_17,40.58342841721757,-73.81182,Rockaways,2.3333333333333335,0.8787333333333334,1.1873933333333333,13,12,"NIGHT_CLEAR,NIGHT_CLEAR,NIGHT_MOSTLY_CLOUDY,CLEAR,CLEAR,CLEAR,CLEAR,CLEAR,CLEAR,CLEAR,CLEAR,CLEAR,CLEAR,CLEAR,CLEAR","Offshore,Offshore,Offshore,Offshore,Offshore,Offshore,Offshore,Offshore,Offshore,Offshore,Cross-shore,Onshore,Onshore,Onshore,Onshore",15
5842041f4e65fad6a7708853,2024_05_17,40.330474,-73.9734,Monmouth Beach,1.8446666666666667,0.9471706666666667,1.3372466666666667,14,12,"NIGHT_CLOUDY,NIGHT_OVERCAST,NIGHT_OVERCAST,CLEAR,CLEAR,CLEAR,CLEAR,CLEAR,CLEAR,CLEAR,CLEAR,CLEAR,CLEAR,CLEAR,CLEAR","Cross-shore,Cross-shore,Cross-shore,Cross-shore,Cross-shore,Cross-shore,Cross-shore,Cross-shore,Cross-shore,Cross-shore,Cross-shore,Onshore,Onshore,Cross-shore,Cross-shore",15
5842041f4e65fad6a7708856,2024_05_17,40.113,-74.028,Manasquan Inlet,1.4213333333333333,0.95712,1.4640153333333332,14,12,"NIGHT_OVERCAST,NIGHT_OVERCAST,NIGHT_OVERCAST,CLOUDY,CLEAR,CLEAR,CLEAR,CLEAR,CLEAR,OVERCAST,CLEAR,CLEAR,CLEAR,CLEAR,CLEAR","Onshore,Onshore,Cross-shore,Cross-shore,Cross-shore,Onshore,Cross-shore,Cross-shore,Cross-shore,Cross-shore,Onshore,Onshore,Onshore,Onshore,Cross-shore",15
5842041f4e65fad6a7708857,2024_05_17,39.941519877445664,-74.06829,Casino Pier,1.2333333333333334,1.008144,1.4737386666666668,14,12,"NIGHT_OVERCAST,NIGHT_OVERCAST,NIGHT_OVERCAST,MOSTLY_CLOUDY,CLEAR,CLEAR,CLEAR,CLEAR,CLEAR,CLOUDY,CLEAR,CLEAR,CLEAR,CLEAR,CLEAR","Cross-shore,Cross-shore,Cross-shore,Cross-shore,Cross-shore,Cross-shore,Cross-shore,Cross-shore,Cross-shore,Cross-shore,Cross-shore,Cross-shore,Onshore,Onshore,Onshore",15
5842041f4e65fad6a7708858,2024_05_17,39.28223089949212,-74.55766,North End OC,1.9333333333333333,0.6379913333333334,1.02334,14,12,"NIGHT_OVERCAST,NIGHT_CLOUDY,NIGHT_OVERCAST,MOSTLY_CLOUDY,MOSTLY_CLOUDY,MOSTLY_CLOUDY,CLEAR,CLEAR,CLEAR,OVERCAST,OVERCAST,OVERCAST,OVERCAST,MOSTLY_CLEAR,CLEAR","Offshore,Cross-shore,Offshore,Offshore,Offshore,Cross-shore,Cross-shore,Cross-shore,Cross-shore,Cross-shore,Offshore,Cross-shore,Onshore,Cross-shore,Cross-shore",15
5842041f4e65fad6a770885b,2024_05_17,39.65080599934257,-74.17146,Ship Bottom,1.3446666666666667,0.9597313333333334,1.3672033333333333,14,12,"NIGHT_OVERCAST,NIGHT_OVERCAST,NIGHT_OVERCAST,BRIEF_SHOWERS,MOSTLY_CLOUDY,CLEAR,CLEAR,CLEAR,CLEAR,OVERCAST,OVERCAST,OVERCAST,CLEAR,CLEAR,CLEAR","Cross-shore,Cross-shore,Cross-shore,Cross-shore,Cross-shore,Cross-shore,Cross-shore,Cross-shore,Cross-shore,Cross-shore,Cross-shore,Cross-shore,Cross-shore,Cross-shore,Onshore",15
5842041f4e65fad6a7708863,2024_05_17,36.034151543144,-75.66791,Third Street,1.1333333333333333,0.6948373333333333,1.0008393333333334,16.466666666666665,14.933333333333334,"NIGHT_CLEAR,NIGHT_CLEAR,NIGHT_CLEAR,CLEAR,CLEAR,OVERCAST,CLOUDY,OVERCAST,MOSTLY_CLOUDY,CLEAR,CLEAR,CLEAR,CLEAR,CLEAR,CLEAR","Onshore,Onshore,Onshore,Onshore,Onshore,Onshore,Onshore,Onshore,Onshore,Onshore,Onshore,Onshore,Onshore,Onshore,Onshore",15
5842041f4e65fad6a7708867,2024_05_17,35.605833221351425,-75.46303,S-Turns,0.8553333333333333,0.9073066666666667,1.2145866666666667,18,17,"NIGHT_CLEAR,NIGHT_CLEAR,NIGHT_CLEAR,CLOUDY,CLEAR,MIST,MIST,CLOUDY,CLOUDY,CLOUDY,CLOUDY,MOSTLY_CLOUDY,CLOUDY,MOSTLY_CLOUDY,CLEAR","Cross-shore,Cross-shore,Cross-shore,Cross-shore,Cross-shore,Cross-shore,Cross-shore,Cross-shore,Cross-shore,Onshore,Cross-shore,Cross-shore,Cross-shore,Cross-shore,Cross-shore",15
5842041f4e65fad6a770886d,2024_05_17,38.338461,-75.08117,Ocean City Boardwalk,1.278,0.7105246666666667,1.0690133333333334,14,13,"NIGHT_MIST,NIGHT_OVERCAST,NIGHT_MIST,OVERCAST,OVERCAST,OVERCAST,OVERCAST,OVERCAST,OVERCAST,OVERCAST,MIST,OVERCAST,CLOUDY,MOSTLY_CLOUDY,OVERCAST","Cross-shore,Onshore,Cross-shore,Cross-shore,Cross-shore,Cross-shore,Cross-shore,Cross-shore,Cross-shore,Cross-shore,Cross-shore,Cross-shore,Onshore,Onshore,Onshore",15
5842041f4e65fad6a770886f,2024_05_17,29.844757212379562,-81.26136,A St.,1,0.04,0.3433333333333333,24.333333333333332,24.333333333333332,"NIGHT_CLEAR,NIGHT_CLEAR,NIGHT_CLEAR,NIGHT_MOSTLY_CLOUDY,MIST,MIST,MIST,MIST,MIST,CLOUDY,CLEAR,CLEAR,CLEAR,CLEAR,MIST","Cross-shore,Offshore,Cross-shore,Onshore,Cross-shore,Cross-shore,Cross-shore,Cross-shore,Cross-shore,Onshore,Onshore,Onshore,Onshore,Onshore,Onshore",15
5842041f4e65fad6a7708871,2024_05_17,29.069417851135093,-80.90824,New Smyrna Beach,1.466,0.06882666666666667,0.37262,25,24,"NIGHT_MOSTLY_CLEAR,NIGHT_MOSTLY_CLEAR,NIGHT_CLEAR,NIGHT_CLEAR,MIST,CLEAR,CLEAR,CLEAR,CLOUDY,OVERCAST,CLEAR,CLEAR,CLEAR,CLEAR,CLEAR","Cross-shore,Offshore,Offshore,Cross-shore,Cross-shore,Cross-shore,Offshore,Cross-shore,Cross-shore,Offshore,Cross-shore,Cross-shore,Cross-shore,Onshore,Onshore",15
5842041f4e65fad6a7708872,2024_05_17,28.367707417566,-80.60171,Cocoa Beach Pier,0.26666666666666666,0.0013333333333333333,0.24903133333333333,26,24,"NIGHT_CLEAR,NIGHT_CLEAR,NIGHT_BRIEF_SHOWERS_POSSIBLE,NIGHT_MIST,BRIEF_SHOWERS_POSSIBLE,MIST,CLEAR,CLEAR,CLEAR,MOSTLY_CLOUDY,CLEAR,OVERCAST,CLEAR,CLEAR,CLEAR","Cross-shore,Cross-shore,Cross-shore,Cross-shore,Cross-shore,Cross-shore,Offshore,Offshore,Offshore,Cross-shore,Onshore,Onshore,Onshore,Onshore,Onshore",15
5842041f4e65fad6a7708873,2024_05_17,28.091782738658846,-80.56479,Indialantic,0.6553333333333333,6.666666666666666e-4,0.2084,26,24,"NIGHT_MIST,NIGHT_MOSTLY_CLOUDY,NIGHT_MOSTLY_CLOUDY,NIGHT_MIST,CLEAR,CLEAR,MOSTLY_CLEAR,CLEAR,CLEAR,MIST,CLEAR,CLEAR,CLEAR,CLEAR,CLEAR","Cross-shore,Offshore,Offshore,Cross-shore,Cross-shore,Offshore,Offshore,Offshore,Onshore,Onshore,Onshore,Onshore,Onshore,Onshore,Onshore",15
5842041f4e65fad6a7708876,2024_05_17,27.25392904143517,-80.19455,Jensen Beach,0.078,-2.5e-4,0.15532066666666666,27,25,"NIGHT_CLEAR,NIGHT_MOSTLY_CLEAR,NIGHT_MOSTLY_CLOUDY,NIGHT_CLEAR,CLEAR,CLEAR,CLEAR,CLEAR,MOSTLY_CLOUDY,CLEAR,CLEAR,CLEAR,CLEAR,CLEAR,CLEAR","Offshore,Offshore,Offshore,Offshore,Offshore,Offshore,Offshore,Offshore,Cross-shore,Offshore,Offshore,Onshore,Onshore,Onshore,Cross-shore",15
5842041f4e65fad6a7708879,2024_05_17,26.76346795333825,-80.03607,Reef Road,0.6553333333333333,0.004,0.20173333333333332,28,27,"NIGHT_CLEAR,NIGHT_CLEAR,NIGHT_CLEAR,NIGHT_MOSTLY_CLEAR,MOSTLY_CLEAR,CLEAR,CLEAR,CLEAR,CLEAR,CLEAR,CLEAR,CLEAR,CLEAR,CLEAR,CLEAR","Offshore,Offshore,Offshore,Offshore,Offshore,Offshore,Offshore,Offshore,Cross-shore,Onshore,Onshore,Onshore,Onshore,Onshore,Onshore",15
5842041f4e65fad6a770887c,2024_05_17,26.336499228484,-80.06956100463,Boca Raton Inlet,0.5553333333333333,0,0.24246666666666666,28,27,"NIGHT_CLEAR,NIGHT_CLEAR,NIGHT_CLEAR,NIGHT_CLEAR,CLEAR,CLEAR,CLEAR,CLEAR,CLEAR,CLEAR,CLEAR,CLEAR,CLEAR,CLEAR,CLEAR","Offshore,Offshore,Offshore,Offshore,Cross-shore,Cross-shore,Cross-shore,Cross-shore,Cross-shore,Onshore,Onshore,Onshore,Onshore,Onshore,Onshore",15
5842041f4e65fad6a770887d,2024_05_17,26.31719311695038,-80.07453,Deerfield Beach Pier,0,-2.933333333333333e-4,0.15059133333333333,28,27,"NIGHT_CLEAR,NIGHT_CLEAR,NIGHT_CLEAR,NIGHT_CLEAR,CLEAR,CLEAR,CLEAR,CLEAR,CLEAR,CLEAR,CLEAR,CLEAR,CLEAR,CLEAR,MOSTLY_CLOUDY","Offshore,Offshore,Offshore,Offshore,Cross-shore,Cross-shore,Cross-shore,Offshore,Cross-shore,Onshore,Onshore,Onshore,Onshore,Onshore,Onshore",15
5842041f4e65fad6a7708881,2024_05_17,30.20276320866628,-85.85626528676136,"Spyglass Dr., Panama City",1.0773333333333333,0.293998,0.599218,26,25,"NIGHT_CLEAR,NIGHT_OVERCAST,NIGHT_CLEAR,NIGHT_BRIEF_SHOWERS_POSSIBLE,OVERCAST,LIGHT_RAIN,CLEAR,BRIEF_SHOWERS_POSSIBLE,CLEAR,CLEAR,CLEAR,CLEAR,BRIEF_SHOWERS_POSSIBLE,CLEAR,CLEAR","Onshore,Cross-shore,Cross-shore,Cross-shore,Offshore,Offshore,Cross-shore,Onshore,Onshore,Onshore,Onshore,Onshore,Onshore,Onshore,Onshore",15
5842041f4e65fad6a7708884,2024_05_17,33.39000832738053,-117.59852,Cottons,2.934,0.6291446666666667,1.0167113333333333,17,17,"NIGHT_MIST,NIGHT_FOG,NIGHT_FOG,NIGHT_MOSTLY_CLEAR,NIGHT_MOSTLY_CLEAR,NIGHT_MOSTLY_CLEAR,CLEAR,CLEAR,CLEAR,MIST,MIST,MOSTLY_CLOUDY,MOSTLY_CLOUDY,MOSTLY_CLEAR,CLEAR","Onshore,Onshore,Offshore,Offshore,Offshore,Offshore,Offshore,Offshore,Cross-shore,Offshore,Offshore,Offshore,Onshore,Onshore,Onshore",15
5842041f4e65fad6a7708885,2024_05_17,33.359416282661,-117.54168,Trails,3,0.49333333333333335,0.796,18,18,"NIGHT_FOG,NIGHT_FOG,NIGHT_FOG,NIGHT_MOSTLY_CLEAR,NIGHT_MOSTLY_CLEAR,NIGHT_MIST,CLEAR,CLEAR,CLEAR,MIST,MIST,MOSTLY_CLOUDY,MOSTLY_CLOUDY,CLEAR,CLEAR","Cross-shore,Onshore,Onshore,Offshore,Offshore,Offshore,Onshore,Onshore,Cross-shore,Cross-shore,Onshore,Onshore,Onshore,Onshore,Onshore",15
5842041f4e65fad6a7708886,2024_05_17,33.38042605929805,-117.58332,Middles,2.9446666666666665,0.610478,0.9840866666666667,17,17,"NIGHT_MIST,NIGHT_FOG,NIGHT_FOG,NIGHT_MOSTLY_CLEAR,NIGHT_MOSTLY_CLEAR,NIGHT_MOSTLY_CLEAR,CLEAR,CLEAR,CLEAR,MIST,MIST,MOSTLY_CLOUDY,MOSTLY_CLOUDY,MOSTLY_CLEAR,CLEAR","Onshore,Onshore,Cross-shore,Offshore,Offshore,Offshore,Offshore,Offshore,Offshore,Offshore,Offshore,Offshore,Onshore,Onshore,Onshore",15
5842041f4e65fad6a7708887,2024_05_17,33.38445596302903,-117.59445,Upper Trestles,2.9886666666666666,0.6173113333333333,0.9932666666666666,17,17,"NIGHT_MIST,NIGHT_FOG,NIGHT_FOG,NIGHT_MOSTLY_CLEAR,NIGHT_MOSTLY_CLEAR,NIGHT_MOSTLY_CLEAR,CLEAR,CLEAR,CLEAR,MIST,MIST,MOSTLY_CLOUDY,MOSTLY_CLOUDY,MOSTLY_CLEAR,CLEAR","Cross-shore,Onshore,Cross-shore,Offshore,Offshore,Offshore,Offshore,Offshore,Offshore,Offshore,Offshore,Offshore,Onshore,Onshore,Onshore",15
5842041f4e65fad6a7708889,2024_05_17,28.944414,-95.28883,Surfside,1.6,0.549098,0.8579666666666667,26.666666666666668,26.666666666666668,"NIGHT_DRIZZLE,NIGHT_MIST,NIGHT_MIST,NIGHT_DRIZZLE,NIGHT_OVERCAST,OVERCAST,OVERCAST,OVERCAST,CLOUDY,OVERCAST,LIGHT_RAIN,OVERCAST,MOSTLY_CLOUDY,MOSTLY_CLOUDY,CLEAR","Onshore,Onshore,Onshore,Offshore,Offshore,Offshore,Offshore,Offshore,Offshore,Offshore,Offshore,Offshore,Cross-shore,Cross-shore,Cross-shore",15
5842041f4e65fad6a770888a,2024_05_17,33.38143999849023,-117.58843,Lower Trestles,2.8773333333333335,0.8086333333333333,1.1816313333333333,17,17,"NIGHT_MIST,NIGHT_FOG,NIGHT_FOG,NIGHT_MOSTLY_CLEAR,NIGHT_MOSTLY_CLEAR,NIGHT_MOSTLY_CLEAR,CLEAR,CLEAR,CLEAR,MIST,MIST,MOSTLY_CLOUDY,MOSTLY_CLOUDY,MOSTLY_CLEAR,CLEAR","Cross-shore,Onshore,Onshore,Offshore,Offshore,Offshore,Offshore,Offshore,Offshore,Offshore,Offshore,Offshore,Onshore,Onshore,Onshore",15
5842041f4e65fad6a770888b,2024_05_17,33.379622288757,-117.57894,Church,2.978,0.6140886666666667,0.9917533333333333,17,17,"NIGHT_MIST,NIGHT_FOG,NIGHT_FOG,NIGHT_MOSTLY_CLEAR,NIGHT_MOSTLY_CLEAR,NIGHT_MOSTLY_CLEAR,CLEAR,CLEAR,CLEAR,MIST,MIST,MOSTLY_CLOUDY,MOSTLY_CLOUDY,MOSTLY_CLEAR,CLEAR","Onshore,Onshore,Onshore,Offshore,Offshore,Offshore,Offshore,Offshore,Offshore,Offshore,Offshore,Onshore,Onshore,Onshore,Onshore",15
5842041f4e65fad6a770888d,2024_05_17,21.679,-158.042,Sunset Beach,3.378,2.2962219999999998,2.651222,26,25,"NIGHT_FOG,NIGHT_BRIEF_SHOWERS,NIGHT_FOG,NIGHT_FOG,NIGHT_FOG,NIGHT_FOG,NIGHT_FOG,NIGHT_BRIEF_SHOWERS,NIGHT_FOG,FOG,MIST,MOSTLY_CLEAR,MOSTLY_CLEAR,CLEAR,MOSTLY_CLEAR","Onshore,Onshore,Onshore,Offshore,Offshore,Cross-shore,Onshore,Offshore,Onshore,Offshore,Cross-shore,Cross-shore,Cross-shore,Cross-shore,Cross-shore",15
5842041f4e65fad6a770888e,2024_05_17,21.670550036401,-158.0482,Rocky Point,3.2,2.1826666666666665,2.490666666666667,26,25,"NIGHT_FOG,NIGHT_MOSTLY_CLOUDY,NIGHT_MOSTLY_CLOUDY,NIGHT_FOG,NIGHT_FOG,NIGHT_FOG,NIGHT_FOG,NIGHT_FOG,NIGHT_MIST,MIST,FOG,MOSTLY_CLEAR,CLEAR,CLEAR,CLEAR","Onshore,Cross-shore,Onshore,Offshore,Offshore,Cross-shore,Onshore,Onshore,Onshore,Offshore,Cross-shore,Cross-shore,Cross-shore,Cross-shore,Offshore",15
5842041f4e65fad6a770888f,2024_05_17,21.668,-158.05,Chambers,3.533333333333333,2.207333333333333,2.485333333333333,24,24,"NIGHT_FOG,NIGHT_MOSTLY_CLOUDY,NIGHT_MOSTLY_CLOUDY,NIGHT_FOG,NIGHT_FOG,NIGHT_FOG,NIGHT_FOG,NIGHT_FOG,NIGHT_MIST,MIST,FOG,MOSTLY_CLEAR,CLEAR,CLEAR,CLEAR","Offshore,Onshore,Offshore,Offshore,Offshore,Cross-shore,Offshore,Offshore,Onshore,Cross-shore,Cross-shore,Onshore,Offshore,Offshore,Cross-shore",15
5842041f4e65fad6a7708890,2024_05_17,21.66522,-158.0526,Pipeline,3.244666666666667,1.948,2.267778,26,25,"NIGHT_FOG,NIGHT_MOSTLY_CLOUDY,NIGHT_MOSTLY_CLOUDY,NIGHT_FOG,NIGHT_FOG,NIGHT_FOG,NIGHT_FOG,NIGHT_FOG,NIGHT_MIST,MIST,FOG,MOSTLY_CLEAR,CLEAR,CLEAR,CLEAR","Onshore,Onshore,Onshore,Offshore,Offshore,Cross-shore,Onshore,Onshore,Onshore,Offshore,Cross-shore,Cross-shore,Cross-shore,Cross-shore,Offshore",15
5842041f4e65fad6a7708891,2024_05_17,21.665,-158.054,Backdoor,3.6666666666666665,1.948,2.267778,26,25,"NIGHT_FOG,NIGHT_MOSTLY_CLOUDY,NIGHT_MOSTLY_CLOUDY,NIGHT_FOG,NIGHT_FOG,NIGHT_FOG,NIGHT_FOG,NIGHT_FOG,NIGHT_MIST,MIST,FOG,MOSTLY_CLEAR,CLEAR,CLEAR,CLEAR","Onshore,Onshore,Onshore,Offshore,Offshore,Cross-shore,Onshore,Onshore,Onshore,Offshore,Cross-shore,Cross-shore,Cross-shore,Cross-shore,Cross-shore",15
5842041f4e65fad6a7708892,2024_05_17,21.662,-158.057,Rockpile,2.933333333333333,2.3166666666666664,2.6033333333333335,24,24,"NIGHT_FOG,NIGHT_MOSTLY_CLOUDY,NIGHT_MOSTLY_CLOUDY,NIGHT_FOG,NIGHT_FOG,NIGHT_FOG,NIGHT_FOG,NIGHT_FOG,NIGHT_MIST,MIST,FOG,MOSTLY_CLEAR,CLEAR,CLEAR,CLEAR","Offshore,Onshore,Onshore,Offshore,Offshore,Offshore,Onshore,Offshore,Onshore,Offshore,Cross-shore,Onshore,Offshore,Offshore,Offshore",15
5842041f4e65fad6a7708893,2024_05_17,21.65870453806827,-158.06058,Log Cabins,3.1333333333333333,1.8253333333333335,2.1113333333333335,24,24,"NIGHT_FOG,NIGHT_MOSTLY_CLOUDY,NIGHT_MOSTLY_CLOUDY,NIGHT_FOG,NIGHT_FOG,NIGHT_FOG,NIGHT_FOG,NIGHT_FOG,NIGHT_MIST,MIST,FOG,MOSTLY_CLEAR,CLEAR,CLEAR,CLEAR","Onshore,Onshore,Onshore,Offshore,Offshore,Cross-shore,Onshore,Onshore,Onshore,Offshore,Cross-shore,Cross-shore,Cross-shore,Cross-shore,Offshore",15
5842041f4e65fad6a7708894,2024_05_17,21.66203493640557,-158.05495,Off-The-Wall,3.466666666666667,2.376,2.6426666666666665,24,24,"NIGHT_FOG,NIGHT_MOSTLY_CLOUDY,NIGHT_MOSTLY_CLOUDY,NIGHT_FOG,NIGHT_FOG,NIGHT_FOG,NIGHT_FOG,NIGHT_FOG,NIGHT_MIST,MIST,FOG,MOSTLY_CLEAR,CLEAR,CLEAR,CLEAR","Offshore,Onshore,Onshore,Offshore,Offshore,Cross-shore,Offshore,Offshore,Onshore,Offshore,Cross-shore,Onshore,Offshore,Offshore,Cross-shore",15
5842041f4e65fad6a7708895,2024_05_17,21.643,-158.067,Waimea Bay,NA,2.4172219999999998,2.759888666666667,26,25,"NIGHT_FOG,NIGHT_MOSTLY_CLOUDY,NIGHT_MOSTLY_CLOUDY,NIGHT_FOG,NIGHT_FOG,NIGHT_FOG,NIGHT_FOG,NIGHT_FOG,NIGHT_MIST,MIST,FOG,MOSTLY_CLEAR,CLEAR,CLEAR,CLEAR","Onshore,Cross-shore,Onshore,Offshore,Offshore,Cross-shore,Cross-shore,Cross-shore,Cross-shore,Offshore,Cross-shore,Cross-shore,Cross-shore,Cross-shore,Offshore",15
5842041f4e65fad6a7708896,2024_05_17,21.622,-158.087,Hultin's,3.522,2.227888666666667,2.6928886666666667,26,25,"NIGHT_MOSTLY_CLOUDY,NIGHT_MOSTLY_CLOUDY,NIGHT_MOSTLY_CLOUDY,NIGHT_FOG,NIGHT_FOG,NIGHT_MOSTLY_CLOUDY,NIGHT_MOSTLY_CLOUDY,NIGHT_MOSTLY_CLOUDY,NIGHT_CLEAR,MOSTLY_CLOUDY,HEAVY_SHOWERS,MOSTLY_CLEAR,CLEAR,CLEAR,CLEAR","Cross-shore,Offshore,Cross-shore,Cross-shore,Offshore,Offshore,Offshore,Offshore,Offshore,Offshore,Offshore,Offshore,Cross-shore,Cross-shore,Offshore",15
5842041f4e65fad6a7708897,2024_05_17,21.623,-158.085,Jocko's,3.2,2.1653333333333333,2.392,24,24,"NIGHT_MOSTLY_CLOUDY,NIGHT_MOSTLY_CLOUDY,NIGHT_MOSTLY_CLOUDY,NIGHT_FOG,NIGHT_FOG,NIGHT_MOSTLY_CLOUDY,NIGHT_MOSTLY_CLOUDY,NIGHT_MOSTLY_CLOUDY,NIGHT_CLEAR,MOSTLY_CLOUDY,HEAVY_SHOWERS,MOSTLY_CLEAR,CLEAR,CLEAR,CLEAR","Onshore,Onshore,Onshore,Onshore,Onshore,Onshore,Onshore,Onshore,Cross-shore,Onshore,Cross-shore,Offshore,Onshore,Onshore,Cross-shore",15
5842041f4e65fad6a7708898,2024_05_17,21.62,-158.088,Laniakea,3.178,2.0233333333333334,2.356666666666667,26,25,"NIGHT_MOSTLY_CLOUDY,NIGHT_MOSTLY_CLOUDY,NIGHT_MOSTLY_CLOUDY,NIGHT_FOG,NIGHT_FOG,NIGHT_MOSTLY_CLOUDY,NIGHT_MOSTLY_CLOUDY,NIGHT_MOSTLY_CLOUDY,NIGHT_CLEAR,MOSTLY_CLOUDY,HEAVY_SHOWERS,MOSTLY_CLEAR,CLEAR,CLEAR,CLEAR","Cross-shore,Cross-shore,Onshore,Cross-shore,Cross-shore,Cross-shore,Cross-shore,Cross-shore,Offshore,Cross-shore,Offshore,Offshore,Onshore,Cross-shore,Offshore",15
5842041f4e65fad6a7708899,2024_05_17,21.625,-158.083,Chun's,3.2666666666666666,2.215333333333333,2.4646666666666666,24,24,"NIGHT_MOSTLY_CLOUDY,NIGHT_MOSTLY_CLOUDY,NIGHT_MOSTLY_CLOUDY,NIGHT_FOG,NIGHT_FOG,NIGHT_MOSTLY_CLOUDY,NIGHT_MOSTLY_CLOUDY,NIGHT_MOSTLY_CLOUDY,NIGHT_CLEAR,MOSTLY_CLOUDY,HEAVY_SHOWERS,MOSTLY_CLEAR,CLEAR,CLEAR,CLEAR","Cross-shore,Cross-shore,Onshore,Cross-shore,Cross-shore,Cross-shore,Cross-shore,Offshore,Offshore,Cross-shore,Offshore,Offshore,Onshore,Cross-shore,Offshore",15
5842041f4e65fad6a770889c,2024_05_17,21.286357895152136,-157.8515,South Shore - Ala Moana Park,3.066666666666667,1.7506666666666666,2.0933333333333333,25,25,"NIGHT_LIGHT_SHOWERS_POSSIBLE,NIGHT_BRIEF_SHOWERS,NIGHT_FOG,NIGHT_CLEAR,NIGHT_CLEAR,NIGHT_MOSTLY_CLEAR,NIGHT_FOG,NIGHT_LIGHT_SHOWERS_POSSIBLE,NIGHT_MOSTLY_CLOUDY,FOG,HEAVY_RAIN,HEAVY_SHOWERS,BRIEF_SHOWERS,MIST,MIST","Onshore,Onshore,Onshore,Offshore,Offshore,Offshore,Onshore,Onshore,Onshore,Offshore,Cross-shore,Cross-shore,Cross-shore,Onshore,Onshore",15
5842041f4e65fad6a770889d,2024_05_17,19.606,-155.978,Banyans,3.178,1.5445553333333333,1.931778,26,25,"NIGHT_CLEAR,NIGHT_CLEAR,NIGHT_CLEAR,NIGHT_CLEAR,NIGHT_CLEAR,NIGHT_CLEAR,NIGHT_CLEAR,NIGHT_CLEAR,NIGHT_CLEAR,MOSTLY_CLEAR,CLEAR,CLEAR,CLEAR,CLEAR,CLEAR","Cross-shore,Cross-shore,Cross-shore,Cross-shore,Cross-shore,Cross-shore,Cross-shore,Cross-shore,Cross-shore,Cross-shore,Onshore,Onshore,Onshore,Onshore,Onshore",15
5842041f4e65fad6a770889e,2024_05_17,20.029,-155.831,Kawaihae,2,0.47516800000000003,0.86746,25,25,"NIGHT_MOSTLY_CLEAR,NIGHT_LIGHT_SHOWERS_POSSIBLE,NIGHT_BRIEF_SHOWERS,NIGHT_MOSTLY_CLEAR,NIGHT_MOSTLY_CLEAR,NIGHT_BRIEF_SHOWERS_POSSIBLE,NIGHT_MOSTLY_CLEAR,NIGHT_CLEAR,NIGHT_CLEAR,CLEAR,CLEAR,CLEAR,CLEAR,MOSTLY_CLEAR,CLEAR","Cross-shore,Cross-shore,Cross-shore,Cross-shore,Offshore,Offshore,Offshore,Offshore,Cross-shore,Offshore,Cross-shore,Onshore,Onshore,Onshore,Onshore",15
5842041f4e65fad6a770889f,2024_05_17,33.07541383424675,-117.3105,Grandview,2.3333333333333335,0.4886666666666667,0.7953333333333333,18,18,"NIGHT_MIST,NIGHT_MIST,NIGHT_FOG,NIGHT_FOG,NIGHT_MOSTLY_CLOUDY,NIGHT_MOSTLY_CLOUDY,MOSTLY_CLOUDY,MOSTLY_CLOUDY,CLEAR,MIST,MIST,MOSTLY_CLOUDY,MOSTLY_CLOUDY,CLEAR,CLEAR","Onshore,Onshore,Onshore,Onshore,Onshore,Onshore,Onshore,Onshore,Cross-shore,Onshore,Onshore,Onshore,Onshore,Onshore,Onshore",15
5842041f4e65fad6a77088a0,2024_05_17,33.065267421296596,-117.30577,Beacons,2.4,0.442,0.7473333333333333,18,18,"NIGHT_MIST,NIGHT_MIST,NIGHT_FOG,NIGHT_FOG,NIGHT_MOSTLY_CLOUDY,NIGHT_MOSTLY_CLOUDY,MOSTLY_CLOUDY,MOSTLY_CLOUDY,CLEAR,MIST,MIST,MOSTLY_CLOUDY,MOSTLY_CLOUDY,CLEAR,CLEAR","Onshore,Onshore,Onshore,Onshore,Onshore,Onshore,Onshore,Onshore,Cross-shore,Onshore,Onshore,Onshore,Onshore,Onshore,Onshore",15
5842041f4e65fad6a77088a2,2024_05_17,21.252,-157.805,Diamond Head,2.744,1.8055700000000001,2.202231333333333,26,25,"NIGHT_MOSTLY_CLOUDY,NIGHT_MOSTLY_CLEAR,NIGHT_CLEAR,NIGHT_CLEAR,NIGHT_CLEAR,NIGHT_CLEAR,NIGHT_BRIEF_SHOWERS,NIGHT_MOSTLY_CLOUDY,NIGHT_MOSTLY_CLOUDY,FOG,FOG,LIGHT_RAIN,HEAVY_SHOWERS,CLEAR,MOSTLY_CLOUDY","Onshore,Onshore,Onshore,Offshore,Offshore,Cross-shore,Onshore,Onshore,Onshore,Offshore,Offshore,Onshore,Onshore,Onshore,Onshore",15
5842041f4e65fad6a77088a3,2024_05_17,33.04694255008896,-117.29966,Moonlight State Beach,2.7333333333333334,0.46799999999999997,0.7733333333333333,18,18,"NIGHT_FOG,NIGHT_FOG,NIGHT_FOG,NIGHT_FOG,NIGHT_FOG,NIGHT_FOG,FOG,FOG,MOSTLY_CLOUDY,MIST,MIST,MOSTLY_CLOUDY,MOSTLY_CLOUDY,MOSTLY_CLEAR,CLEAR","Cross-shore,Onshore,Onshore,Onshore,Onshore,Offshore,Cross-shore,Cross-shore,Cross-shore,Onshore,Onshore,Onshore,Onshore,Onshore,Onshore",15
5842041f4e65fad6a77088a5,2024_05_17,33.08685865930869,-117.31532,Ponto,2.533333333333333,0.5273333333333333,0.8333333333333333,18,18,"NIGHT_MIST,NIGHT_MIST,NIGHT_FOG,NIGHT_FOG,NIGHT_MOSTLY_CLOUDY,NIGHT_MOSTLY_CLOUDY,MOSTLY_CLOUDY,MOSTLY_CLOUDY,CLEAR,MIST,MIST,MOSTLY_CLOUDY,MOSTLY_CLOUDY,CLEAR,CLEAR","Onshore,Onshore,Onshore,Onshore,Onshore,Onshore,Onshore,Onshore,Onshore,Onshore,Onshore,Onshore,Onshore,Onshore,Onshore",15
5842041f4e65fad6a77088a6,2024_05_17,33.130343587871906,-117.33668,Terra Mar Point,2.522,0.32508,0.6965333333333333,18,17,"NIGHT_FOG,NIGHT_FOG,NIGHT_FOG,NIGHT_MOSTLY_CLOUDY,NIGHT_MOSTLY_CLOUDY,NIGHT_MOSTLY_CLOUDY,MOSTLY_CLOUDY,MOSTLY_CLOUDY,MOSTLY_CLOUDY,MIST,MIST,MOSTLY_CLOUDY,MOSTLY_CLOUDY,MOSTLY_CLEAR,CLEAR","Onshore,Onshore,Onshore,Onshore,Onshore,Onshore,Onshore,Onshore,Onshore,Onshore,Onshore,Onshore,Onshore,Onshore,Onshore",15
5842041f4e65fad6a77088af,2024_05_17,32.95916304183685,-117.26963,Del Mar,2.3333333333333335,0.562,0.868,18,18,"NIGHT_FOG,NIGHT_FOG,NIGHT_FOG,NIGHT_FOG,NIGHT_MOSTLY_CLOUDY,NIGHT_MOSTLY_CLOUDY,MOSTLY_CLOUDY,MOSTLY_CLOUDY,MOSTLY_CLOUDY,MIST,MIST,MOSTLY_CLOUDY,MOSTLY_CLOUDY,CLEAR,CLEAR","Onshore,Onshore,Onshore,Onshore,Onshore,Onshore,Onshore,Onshore,Onshore,Onshore,Onshore,Onshore,Onshore,Onshore,Onshore",15
5842041f4e65fad6a77088b0,2024_05_17,32.97527261243354,-117.2721061331305,Del Mar Rivermouth,2.2666666666666666,0.47333333333333333,0.7773333333333333,18,18,"NIGHT_FOG,NIGHT_FOG,NIGHT_FOG,NIGHT_FOG,NIGHT_MOSTLY_CLOUDY,NIGHT_MOSTLY_CLOUDY,MOSTLY_CLOUDY,MOSTLY_CLOUDY,MOSTLY_CLOUDY,MIST,MIST,MIST,MOSTLY_CLOUDY,MOSTLY_CLEAR,MOSTLY_CLEAR","Onshore,Onshore,Onshore,Onshore,Onshore,Onshore,Onshore,Onshore,Onshore,Onshore,Onshore,Onshore,Onshore,Onshore,Onshore",15
5842041f4e65fad6a77088b1,2024_05_17,33.01352178146273,-117.28219,Cardiff Reef,2.066666666666667,0.36658,0.6724933333333333,18,17,"NIGHT_FOG,NIGHT_FOG,NIGHT_FOG,NIGHT_FOG,NIGHT_FOG,NIGHT_MOSTLY_CLOUDY,CLEAR,MOSTLY_CLOUDY,MOSTLY_CLOUDY,MIST,MIST,MIST,MIST,CLEAR,CLEAR","Onshore,Onshore,Onshore,Onshore,Onshore,Onshore,Cross-shore,Onshore,Onshore,Onshore,Onshore,Onshore,Onshore,Onshore,Onshore",15
5842041f4e65fad6a77088b3,2024_05_17,33.00211185876003,-117.2811,Seaside Reef,2.3333333333333335,0.5274933333333334,0.8345733333333334,18,17,"NIGHT_FOG,NIGHT_FOG,NIGHT_FOG,NIGHT_FOG,NIGHT_MOSTLY_CLOUDY,NIGHT_MOSTLY_CLOUDY,FOG,FOG,MOSTLY_CLOUDY,MIST,MIST,MIST,MOSTLY_CLOUDY,MOSTLY_CLEAR,CLEAR","Onshore,Onshore,Onshore,Onshore,Onshore,Onshore,Onshore,Onshore,Cross-shore,Onshore,Onshore,Onshore,Onshore,Onshore,Onshore",15
5842041f4e65fad6a77088b4,2024_05_17,33.0341859796287,-117.29552,Swami's,2.6886666666666668,0.38258000000000003,0.6864933333333333,18,17,"NIGHT_FOG,NIGHT_FOG,NIGHT_FOG,NIGHT_FOG,NIGHT_FOG,NIGHT_MOSTLY_CLOUDY,CLEAR,MOSTLY_CLOUDY,MOSTLY_CLOUDY,MIST,MIST,MIST,MIST,CLEAR,CLEAR","Cross-shore,Onshore,Onshore,Onshore,Onshore,Offshore,Cross-shore,Onshore,Onshore,Onshore,Onshore,Onshore,Onshore,Onshore,Onshore",15
5842041f4e65fad6a77088b7,2024_05_17,33.04569760260221,-117.2994,D Street,2.8,0.524,0.8273333333333334,18,18,"NIGHT_FOG,NIGHT_FOG,NIGHT_FOG,NIGHT_FOG,NIGHT_FOG,NIGHT_FOG,FOG,FOG,MOSTLY_CLOUDY,MIST,MIST,MOSTLY_CLOUDY,MOSTLY_CLOUDY,MOSTLY_CLEAR,CLEAR","Cross-shore,Onshore,Onshore,Onshore,Onshore,Offshore,Cross-shore,Cross-shore,Cross-shore,Onshore,Onshore,Onshore,Onshore,Onshore,Onshore",15
5842041f4e65fad6a77088b8,2024_05_17,33.02090944350196,-117.28535,San Elijo State Beach,2,0.27708,0.58516,18,17,"NIGHT_FOG,NIGHT_FOG,NIGHT_FOG,NIGHT_FOG,NIGHT_FOG,NIGHT_MOSTLY_CLOUDY,CLEAR,MOSTLY_CLOUDY,MOSTLY_CLOUDY,MIST,MIST,MIST,MIST,CLEAR,CLEAR","Onshore,Onshore,Onshore,Onshore,Onshore,Cross-shore,Cross-shore,Onshore,Onshore,Onshore,Onshore,Onshore,Onshore,Onshore,Onshore",15
5842041f4e65fad6a77088c2,2024_05_17,32.80662846492798,-117.26888,PB Point,2.6,0.48266666666666663,0.7866666666666667,18,18,"NIGHT_OVERCAST,NIGHT_FOG,NIGHT_OVERCAST,NIGHT_FOG,NIGHT_FOG,NIGHT_FOG,FOG,FOG,MIST,MIST,OVERCAST,MOSTLY_CLOUDY,MOSTLY_CLOUDY,CLEAR,MOSTLY_CLEAR","Cross-shore,Cross-shore,Cross-shore,Cross-shore,Cross-shore,Cross-shore,Cross-shore,Cross-shore,Cross-shore,Cross-shore,Cross-shore,Cross-shore,Cross-shore,Cross-shore,Cross-shore",15
5842041f4e65fad6a77088c4,2024_05_17,32.8060476681448,-117.26479,Old Man's at Tourmaline,2.6666666666666665,0.398,0.7026666666666667,18,18,"NIGHT_OVERCAST,NIGHT_FOG,NIGHT_OVERCAST,NIGHT_FOG,NIGHT_FOG,NIGHT_FOG,FOG,FOG,MIST,MIST,OVERCAST,MOSTLY_CLOUDY,MOSTLY_CLOUDY,CLEAR,MOSTLY_CLEAR","Cross-shore,Cross-shore,Cross-shore,Cross-shore,Cross-shore,Cross-shore,Cross-shore,Cross-shore,Cross-shore,Cross-shore,Cross-shore,Cross-shore,Cross-shore,Cross-shore,Cross-shore",15
5842041f4e65fad6a77088cb,2024_05_17,32.557056711256,-117.1327445020322,Tijuana Slough,2,0.3453333333333333,0.6493333333333333,18,18,"NIGHT_CLOUDY,NIGHT_FOG,NIGHT_OVERCAST,NIGHT_FOG,NIGHT_FOG,NIGHT_FOG,FOG,FOG,MIST,MOSTLY_CLOUDY,MOSTLY_CLOUDY,MOSTLY_CLOUDY,MOSTLY_CLOUDY,CLEAR,CLEAR","Onshore,Onshore,Onshore,Onshore,Onshore,Onshore,Onshore,Onshore,Onshore,Onshore,Onshore,Onshore,Onshore,Onshore,Onshore",15
5842041f4e65fad6a77088cc,2024_05_17,32.863,-117.257,La Jolla Shores,2.1333333333333333,0.412,0.7153333333333333,18,18,"NIGHT_FOG,NIGHT_FOG,NIGHT_FOG,NIGHT_FOG,NIGHT_MOSTLY_CLOUDY,NIGHT_MOSTLY_CLOUDY,MOSTLY_CLOUDY,MOSTLY_CLOUDY,MOSTLY_CLOUDY,CLOUDY,CLOUDY,MOSTLY_CLOUDY,MOSTLY_CLOUDY,MIST,MIST","Onshore,Onshore,Onshore,Onshore,Onshore,Onshore,Onshore,Onshore,Cross-shore,Onshore,Onshore,Onshore,Onshore,Onshore,Onshore",15
5842041f4e65fad6a77088ce,2024_05_17,32.67443657790586,-117.17421,Coronado Beach,3,1.0046666666666666,1.2073333333333334,18,18,"NIGHT_FOG,NIGHT_FOG,NIGHT_FOG,NIGHT_FOG,NIGHT_FOG,NIGHT_FOG,FOG,FOG,MIST,MOSTLY_CLOUDY,CLOUDY,MOSTLY_CLOUDY,MOSTLY_CLOUDY,CLEAR,CLEAR","Cross-shore,Cross-shore,Cross-shore,Cross-shore,Cross-shore,Cross-shore,Cross-shore,Cross-shore,Cross-shore,Cross-shore,Cross-shore,Cross-shore,Cross-shore,Cross-shore,Cross-shore",15
5842041f4e65fad6a77088cf,2024_05_17,33.40484417640326,-117.60749,San Clemente State Beach,2.533333333333333,0.3433333333333333,0.6473333333333333,18,18,"NIGHT_MIST,NIGHT_FOG,NIGHT_FOG,NIGHT_FOG,NIGHT_MOSTLY_CLEAR,NIGHT_MOSTLY_CLEAR,MOSTLY_CLEAR,MOSTLY_CLOUDY,MOSTLY_CLOUDY,MIST,MIST,MOSTLY_CLOUDY,MOSTLY_CLOUDY,MOSTLY_CLEAR,CLEAR","Onshore,Cross-shore,Cross-shore,Onshore,Onshore,Onshore,Onshore,Onshore,Onshore,Onshore,Onshore,Onshore,Onshore,Onshore,Onshore",15
5842041f4e65fad6a77088d5,2024_05_17,33.4663042002114,-117.7168352817103,Strands,2.8666666666666667,0.5248666666666667,0.8999753333333333,16,16,"NIGHT_MIST,NIGHT_MIST,NIGHT_DRIZZLE,NIGHT_CLEAR,NIGHT_MOSTLY_CLEAR,NIGHT_MOSTLY_CLEAR,MOSTLY_CLEAR,MOSTLY_CLOUDY,MOSTLY_CLOUDY,MIST,MIST,MOSTLY_CLOUDY,CLEAR,CLEAR,CLEAR","Onshore,Onshore,Cross-shore,Onshore,Onshore,Onshore,Onshore,Onshore,Onshore,Onshore,Onshore,Onshore,Onshore,Onshore,Onshore",15
5842041f4e65fad6a77088d7,2024_05_17,33.4609858001748,-117.68535,Doheny State Beach,2,0.210462,0.516784,17,17,"NIGHT_MOSTLY_CLOUDY,NIGHT_OVERCAST,NIGHT_FOG,NIGHT_MOSTLY_CLOUDY,NIGHT_MOSTLY_CLEAR,NIGHT_MOSTLY_CLEAR,MOSTLY_CLOUDY,MOSTLY_CLOUDY,MOSTLY_CLOUDY,MIST,MIST,MOSTLY_CLOUDY,MOSTLY_CLOUDY,CLEAR,CLEAR","Onshore,Onshore,Cross-shore,Onshore,Onshore,Onshore,Onshore,Onshore,Onshore,Onshore,Onshore,Onshore,Onshore,Onshore,Onshore",15
5842041f4e65fad6a77088dc,2024_05_17,33.50894790083017,-117.75243,Aliso Creek,2.2666666666666666,0.30933333333333335,0.616,17,17,"NIGHT_MIST,NIGHT_MIST,NIGHT_OVERCAST,NIGHT_FOG,NIGHT_MIST,NIGHT_MIST,CLEAR,MOSTLY_CLOUDY,MIST,MIST,MOSTLY_CLOUDY,CLEAR,CLEAR,CLEAR,CLEAR","Onshore,Onshore,Onshore,Onshore,Cross-shore,Cross-shore,Onshore,Onshore,Onshore,Onshore,Onshore,Onshore,Onshore,Onshore,Onshore",15
5842041f4e65fad6a77088dd,2024_05_17,33.5326591767067,-117.77764,Brooks Street,2,0.22933333333333333,0.5333333333333333,17,17,"NIGHT_MIST,NIGHT_MIST,NIGHT_MIST,NIGHT_FOG,NIGHT_MIST,NIGHT_CLEAR,FOG,FOG,MIST,MIST,MOSTLY_CLOUDY,CLEAR,CLEAR,CLEAR,CLEAR","Onshore,Onshore,Onshore,Onshore,Cross-shore,Onshore,Onshore,Cross-shore,Onshore,Onshore,Onshore,Onshore,Onshore,Onshore,Onshore",15
5842041f4e65fad6a77088de,2024_05_17,33.53561225884637,-117.7799,Thalia Street,2,0.19466666666666668,0.49933333333333335,17,17,"NIGHT_MIST,NIGHT_MIST,NIGHT_MIST,NIGHT_FOG,NIGHT_MIST,NIGHT_CLEAR,FOG,FOG,MIST,MIST,MOSTLY_CLOUDY,CLEAR,CLEAR,CLEAR,CLEAR","Onshore,Onshore,Onshore,Onshore,Cross-shore,Onshore,Onshore,Cross-shore,Onshore,Onshore,Onshore,Onshore,Onshore,Onshore,Onshore",15
5842041f4e65fad6a77088e3,2024_05_17,33.54268310353641,-117.7916,Rockpile,2,0.22933333333333333,0.5333333333333333,17,17,"NIGHT_MIST,NIGHT_MIST,NIGHT_MIST,NIGHT_FOG,NIGHT_MIST,NIGHT_CLEAR,FOG,FOG,MIST,MIST,MOSTLY_CLOUDY,CLEAR,CLEAR,CLEAR,CLEAR","Onshore,Onshore,Onshore,Onshore,Cross-shore,Cross-shore,Cross-shore,Cross-shore,Onshore,Onshore,Onshore,Onshore,Onshore,Onshore,Onshore",15
5842041f4e65fad6a77088e4,2024_05_17,33.7368459504689,-118.10342,"Seal Beach Pier, Southside",1.9333333333333333,0.09,0.394,16,16,"NIGHT_CLEAR,NIGHT_MIST,NIGHT_MIST,NIGHT_MOSTLY_CLOUDY,NIGHT_MOSTLY_CLOUDY,NIGHT_MIST,FOG,MIST,MIST,MIST,MIST,CLEAR,MIST,MIST,MIST","Offshore,Cross-shore,Onshore,Onshore,Onshore,Onshore,Onshore,Onshore,Onshore,Onshore,Onshore,Onshore,Onshore,Onshore,Onshore",15
5842041f4e65fad6a77088e5,2024_05_17,33.73933701820233,-118.117,Ray Bay,1.9333333333333333,0.192,0.49666666666666665,16,16,"NIGHT_CLEAR,NIGHT_CLEAR,NIGHT_MOSTLY_CLOUDY,NIGHT_MOSTLY_CLOUDY,NIGHT_MOSTLY_CLOUDY,NIGHT_FOG,MOSTLY_CLOUDY,MOSTLY_CLOUDY,MOSTLY_CLOUDY,BRIEF_SHOWERS,MOSTLY_CLEAR,MOSTLY_CLEAR,MOSTLY_CLEAR,CLEAR,CLEAR","Cross-shore,Cross-shore,Onshore,Onshore,Onshore,Onshore,Onshore,Onshore,Onshore,Onshore,Onshore,Onshore,Onshore,Onshore,Onshore",15
5842041f4e65fad6a77088e7,2024_05_17,33.728733,-118.08982,Surfside,1,0,0.20666666666666667,16,16,"NIGHT_CLEAR,NIGHT_MOSTLY_CLOUDY,NIGHT_MOSTLY_CLOUDY,NIGHT_MOSTLY_CLOUDY,NIGHT_FOG,NIGHT_FOG,MOSTLY_CLOUDY,MOSTLY_CLOUDY,MOSTLY_CLOUDY,CLEAR,CLEAR,CLEAR,CLEAR,CLEAR,CLEAR","Offshore,Cross-shore,Onshore,Onshore,Onshore,Onshore,Onshore,Onshore,Onshore,Onshore,Onshore,Onshore,Onshore,Onshore,Onshore",15
5842041f4e65fad6a77088e8,2024_05_17,33.68760321488161,-118.04236,Bolsa Chica State Beach,1.7446666666666666,0.26019333333333333,0.568164,15.466666666666667,15.466666666666667,"NIGHT_MOSTLY_CLOUDY,NIGHT_MOSTLY_CLOUDY,NIGHT_MOSTLY_CLOUDY,NIGHT_FOG,NIGHT_MOSTLY_CLOUDY,NIGHT_MOSTLY_CLOUDY,FOG,FOG,MIST,CLEAR,CLEAR,CLEAR,CLEAR,CLEAR,CLEAR","Onshore,Onshore,Onshore,Onshore,Onshore,Onshore,Onshore,Onshore,Onshore,Onshore,Onshore,Onshore,Onshore,Onshore,Onshore",15
5842041f4e65fad6a77088ea,2024_05_17,33.66704400178788,-118.0192,North HB Streets,2,0.48127533333333333,0.795962,15.466666666666667,15.466666666666667,"NIGHT_MOSTLY_CLOUDY,NIGHT_MOSTLY_CLOUDY,NIGHT_MOSTLY_CLOUDY,NIGHT_MOSTLY_CLOUDY,NIGHT_FOG,NIGHT_FOG,FOG,FOG,MIST,CLEAR,CLEAR,CLEAR,CLEAR,CLEAR,CLEAR","Cross-shore,Cross-shore,Onshore,Cross-shore,Onshore,Onshore,Onshore,Onshore,Onshore,Onshore,Onshore,Onshore,Onshore,Onshore,Onshore",15
5842041f4e65fad6a77088ed,2024_05_17,33.65475101379567,-118.00291,Huntington Beach Pier Southside,2.3666666666666667,0.657664,0.960982,15.466666666666667,15.466666666666667,"NIGHT_MOSTLY_CLOUDY,NIGHT_MOSTLY_CLOUDY,NIGHT_MOSTLY_CLOUDY,NIGHT_MOSTLY_CLOUDY,NIGHT_FOG,NIGHT_FOG,FOG,FOG,MIST,CLEAR,CLEAR,CLEAR,CLEAR,CLEAR,CLEAR","Onshore,Onshore,Onshore,Onshore,Onshore,Onshore,Onshore,Onshore,Onshore,Onshore,Onshore,Onshore,Onshore,Onshore,Onshore",15
5842041f4e65fad6a77088ee,2024_05_17,33.62778647706099,-117.95939,River Jetties,2.4113333333333333,0.5448313333333333,0.9123153333333334,16,16,"NIGHT_MOSTLY_CLOUDY,NIGHT_MOSTLY_CLOUDY,NIGHT_MIST,NIGHT_FOG,NIGHT_CLEAR,NIGHT_FOG,FOG,FOG,MOSTLY_CLOUDY,CLEAR,MOSTLY_CLEAR,CLEAR,CLEAR,CLEAR,CLEAR","Onshore,Onshore,Onshore,Onshore,Onshore,Onshore,Onshore,Onshore,Onshore,Onshore,Onshore,Onshore,Onshore,Onshore,Onshore",15
5842041f4e65fad6a77088f2,2024_05_17,33.605165797643664,-117.925,Newport Point,2,0.232,0.536,17,17,"NIGHT_MIST,NIGHT_MIST,NIGHT_MIST,NIGHT_CLEAR,NIGHT_MIST,NIGHT_MIST,FOG,MIST,MIST,MIST,MIST,MIST,CLEAR,CLEAR,MIST","Onshore,Onshore,Onshore,Onshore,Onshore,Onshore,Onshore,Onshore,Onshore,Onshore,Onshore,Onshore,Onshore,Onshore,Onshore",15
5842041f4e65fad6a77088f3,2024_05_17,33.58982984726977,-117.87713,Corona del Mar,2,0.24333333333333335,0.5493333333333333,17,17,"NIGHT_MIST,NIGHT_MIST,NIGHT_MIST,NIGHT_CLEAR,NIGHT_MIST,NIGHT_MIST,FOG,MIST,MIST,MIST,MIST,MIST,MOSTLY_CLEAR,MOSTLY_CLEAR,CLEAR","Onshore,Onshore,Onshore,Onshore,Onshore,Onshore,Onshore,Onshore,Onshore,Onshore,Onshore,Onshore,Onshore,Onshore,Onshore",15
5842041f4e65fad6a77088f7,2024_05_17,34.00750300824362,-118.4971783496269,Santa Monica Pier,2.466666666666667,0.33066666666666666,0.6353333333333333,16,16,"NIGHT_MOSTLY_CLOUDY,NIGHT_MOSTLY_CLOUDY,NIGHT_MOSTLY_CLOUDY,NIGHT_MOSTLY_CLOUDY,NIGHT_CLEAR,NIGHT_MOSTLY_CLOUDY,FOG,MOSTLY_CLOUDY,MIST,MOSTLY_CLEAR,CLEAR,CLEAR,CLEAR,CLEAR,CLEAR","Onshore,Onshore,Onshore,Onshore,Onshore,Onshore,Onshore,Onshore,Onshore,Onshore,Onshore,Onshore,Onshore,Onshore,Onshore",15
5842041f4e65fad6a77088ff,2024_05_17,33.94070283102945,-118.44321,Dockweiler Beach,1.8666666666666667,0.4129313333333333,0.718924,16,16,"NIGHT_MIST,NIGHT_MIST,NIGHT_MIST,NIGHT_BRIEF_SHOWERS,NIGHT_BRIEF_SHOWERS,NIGHT_BRIEF_SHOWERS,MIST,MIST,MIST,MIST,BRIEF_SHOWERS,BRIEF_SHOWERS,BRIEF_SHOWERS,BRIEF_SHOWERS,BRIEF_SHOWERS","Onshore,Onshore,Onshore,Onshore,Onshore,Onshore,Onshore,Onshore,Onshore,Onshore,Onshore,Onshore,Onshore,Onshore,Onshore",15
5842041f4e65fad6a7708900,2024_05_17,33.9231846937237,-118.4341465777908,Shitpipe,1.8666666666666667,0.46565333333333336,0.7699246666666667,16,16,"NIGHT_MIST,NIGHT_MIST,NIGHT_DRIZZLE,NIGHT_MOSTLY_CLOUDY,NIGHT_MIST,NIGHT_MIST,MIST,MIST,MIST,MIST,MIST,MIST,MIST,MIST,MIST","Onshore,Onshore,Onshore,Onshore,Onshore,Onshore,Onshore,Onshore,Onshore,Onshore,Onshore,Onshore,Onshore,Onshore,Onshore",15
5842041f4e65fad6a7708902,2024_05_17,33.9108528052242,-118.4279133138721,Hammerland,1.8666666666666667,0.46565333333333336,0.7699246666666667,16,16,"NIGHT_MIST,NIGHT_MIST,NIGHT_DRIZZLE,NIGHT_MOSTLY_CLOUDY,NIGHT_MIST,NIGHT_MIST,MIST,MIST,MIST,MIST,MIST,MIST,MIST,MIST,MIST","Onshore,Onshore,Onshore,Onshore,Onshore,Onshore,Onshore,Onshore,Onshore,Onshore,Onshore,Onshore,Onshore,Onshore,Onshore",15
5842041f4e65fad6a7708904,2024_05_17,33.87201368173932,-118.40752,Hermosa Beach,1.9446666666666668,0.35821533333333333,0.664098,16,16,"NIGHT_MIST,NIGHT_MIST,NIGHT_MIST,NIGHT_MOSTLY_CLOUDY,NIGHT_MIST,NIGHT_MIST,MIST,MIST,MIST,MIST,MIST,MIST,MIST,MIST,MIST","Onshore,Onshore,Onshore,Onshore,Onshore,Onshore,Onshore,Onshore,Onshore,Onshore,Onshore,Onshore,Onshore,Onshore,Onshore",15
5842041f4e65fad6a7708906,2024_05_17,33.90129336911256,-118.42184,El Porto,2,0.46565333333333336,0.769258,16,16,"NIGHT_MOSTLY_CLOUDY,NIGHT_MIST,NIGHT_MIST,NIGHT_MOSTLY_CLOUDY,NIGHT_MIST,NIGHT_MIST,MIST,MIST,MIST,MIST,MIST,MIST,MIST,MIST,MIST","Onshore,Onshore,Onshore,Onshore,Onshore,Onshore,Onshore,Onshore,Onshore,Onshore,Onshore,Onshore,Onshore,Onshore,Onshore",15
5842041f4e65fad6a7708907,2024_05_17,33.87963506431794,-118.41102,Manhattan Beach Pier,2.0446666666666666,0.5372646666666667,0.8395906666666667,16,16,"NIGHT_MOSTLY_CLOUDY,NIGHT_MIST,NIGHT_MIST,NIGHT_MOSTLY_CLOUDY,NIGHT_MIST,NIGHT_MIST,MIST,MIST,MIST,MIST,MIST,MIST,MIST,MIST,MIST","Onshore,Onshore,Onshore,Onshore,Onshore,Onshore,Onshore,Onshore,Onshore,Onshore,Onshore,Onshore,Onshore,Onshore,Onshore",15
5842041f4e65fad6a7708914,2024_05_17,34.038053387863464,-118.5532,Sunset Point,2,0.18066666666666667,0.484,16,16,"NIGHT_MOSTLY_CLOUDY,NIGHT_MOSTLY_CLOUDY,NIGHT_MOSTLY_CLOUDY,NIGHT_MOSTLY_CLOUDY,NIGHT_CLEAR,NIGHT_MOSTLY_CLOUDY,MOSTLY_CLOUDY,MOSTLY_CLOUDY,MOSTLY_CLOUDY,MIST,MIST,MIST,MIST,MIST,MIST","Cross-shore,Offshore,Onshore,Onshore,Onshore,Offshore,Onshore,Onshore,Onshore,Onshore,Onshore,Onshore,Onshore,Onshore,Onshore",15
5842041f4e65fad6a7708920,2024_05_17,33.80282,-118.39989,Haggerty's,2,0.25226666666666664,0.49493333333333334,16,16,"NIGHT_MIST,NIGHT_MIST,NIGHT_MIST,NIGHT_MIST,NIGHT_MIST,NIGHT_MIST,MIST,MIST,MIST,MIST,MIST,MIST,MIST,MIST,MIST","Onshore,Onshore,Onshore,Onshore,Onshore,Onshore,Onshore,Onshore,Onshore,Onshore,Onshore,Onshore,Onshore,Onshore,Onshore",15
5842041f4e65fad6a7708921,2024_05_17,33.85044519861206,-118.40048,Redondo Breakwater,2,0.3413333333333333,0.648,16,16,"NIGHT_MIST,NIGHT_MIST,NIGHT_MIST,NIGHT_MOSTLY_CLOUDY,NIGHT_MIST,NIGHT_MIST,MIST,MIST,MIST,MIST,MIST,MIST,MIST,MIST,MIST","Onshore,Onshore,Onshore,Onshore,Onshore,Onshore,Onshore,Onshore,Onshore,Onshore,Onshore,Onshore,Onshore,Onshore,Onshore",15
5842041f4e65fad6a7708927,2024_05_17,33.70877301002487,-118.2840112858389,Cabrillo Beach,2,0.17333333333333334,0.47733333333333333,16,16,"NIGHT_CLEAR,NIGHT_CLEAR,NIGHT_CLEAR,NIGHT_MOSTLY_CLEAR,NIGHT_MOSTLY_CLEAR,NIGHT_MOSTLY_CLEAR,MOSTLY_CLOUDY,MOSTLY_CLOUDY,MOSTLY_CLOUDY,MOSTLY_CLEAR,MOSTLY_CLOUDY,CLEAR,MOSTLY_CLEAR,CLEAR,CLEAR","Cross-shore,Cross-shore,Onshore,Offshore,Offshore,Cross-shore,Onshore,Onshore,Cross-shore,Onshore,Cross-shore,Cross-shore,Offshore,Cross-shore,Cross-shore",15
5842041f4e65fad6a770892c,2024_05_17,33.77209986806257,-118.4268428476672,Lunada Bay,1,0.41333333333333333,0.7193333333333333,16,16,"NIGHT_MIST,NIGHT_MIST,NIGHT_MIST,NIGHT_MIST,NIGHT_MIST,NIGHT_MIST,MIST,MIST,MIST,MIST,MIST,MIST,MIST,MIST,MIST","Onshore,Onshore,Cross-shore,Cross-shore,Cross-shore,Cross-shore,Cross-shore,Cross-shore,Cross-shore,Onshore,Onshore,Onshore,Onshore,Onshore,Onshore",15
5842041f4e65fad6a770892d,2024_05_17,33.79294656286144,-118.40703,PV Cove,2,0.31533333333333335,0.6186666666666667,16,16,"NIGHT_MIST,NIGHT_MIST,NIGHT_MIST,NIGHT_MIST,NIGHT_MIST,NIGHT_MIST,MIST,MIST,MIST,MIST,MIST,MIST,MIST,MIST,MIST","Onshore,Onshore,Onshore,Onshore,Onshore,Onshore,Onshore,Onshore,Onshore,Onshore,Onshore,Onshore,Onshore,Onshore,Onshore",15
5842041f4e65fad6a7708930,2024_05_17,34.03944902292561,-118.57539,Chart House,1,0,0.246,16,16,"NIGHT_CLEAR,NIGHT_MOSTLY_CLOUDY,NIGHT_MOSTLY_CLOUDY,NIGHT_MOSTLY_CLOUDY,NIGHT_MOSTLY_CLOUDY,NIGHT_MOSTLY_CLOUDY,MOSTLY_CLOUDY,FOG,MIST,MOSTLY_CLEAR,MOSTLY_CLEAR,MOSTLY_CLEAR,CLEAR,CLEAR,CLEAR","Cross-shore,Cross-shore,Onshore,Onshore,Onshore,Offshore,Cross-shore,Cross-shore,Onshore,Cross-shore,Onshore,Onshore,Cross-shore,Onshore,Cross-shore",15
5842041f4e65fad6a7708936,2024_05_17,34.0016731994772,-118.80456,Point Dume,1.7553333333333334,0.156202,0.459196,16,15,"NIGHT_CLEAR,NIGHT_CLEAR,NIGHT_CLEAR,NIGHT_MOSTLY_CLEAR,NIGHT_MOSTLY_CLEAR,NIGHT_MOSTLY_CLEAR,MOSTLY_CLOUDY,MOSTLY_CLOUDY,MIST,MIST,MIST,MIST,MIST,MIST,MIST","Offshore,Cross-shore,Offshore,Cross-shore,Cross-shore,Cross-shore,Cross-shore,Cross-shore,Cross-shore,Onshore,Onshore,Onshore,Cross-shore,Cross-shore,Cross-shore",15
5842041f4e65fad6a7708937,2024_05_17,34.02587527588963,-118.7554939066114,Latigo Point,2.466666666666667,0.31333333333333335,0.618,16,16,"NIGHT_CLEAR,NIGHT_CLEAR,NIGHT_CLEAR,NIGHT_MOSTLY_CLEAR,NIGHT_MOSTLY_CLEAR,NIGHT_MOSTLY_CLEAR,MOSTLY_CLOUDY,MOSTLY_CLOUDY,MOSTLY_CLOUDY,MIST,MIST,MIST,MIST,MIST,MIST","Offshore,Cross-shore,Onshore,Offshore,Onshore,Onshore,Onshore,Cross-shore,Onshore,Cross-shore,Cross-shore,Onshore,Onshore,Onshore,Onshore",15
5842041f4e65fad6a770893f,2024_05_17,34.043762,-118.93294,Leo Carrillo,2.1773333333333333,0.5309306666666667,0.8411706666666666,16,15,"NIGHT_CLEAR,NIGHT_CLEAR,NIGHT_CLEAR,NIGHT_MOSTLY_CLEAR,NIGHT_MOSTLY_CLEAR,NIGHT_MIST,MIST,MIST,MIST,MIST,MIST,MIST,MIST,MIST,MIST","Cross-shore,Cross-shore,Cross-shore,Cross-shore,Cross-shore,Cross-shore,Onshore,Cross-shore,Onshore,Cross-shore,Cross-shore,Cross-shore,Cross-shore,Cross-shore,Cross-shore",15
5842041f4e65fad6a7708941,2024_05_17,36.69388179265737,-121.81289,Marina State Beach,2.066666666666667,0.81,1.088,13,13,"NIGHT_OVERCAST,NIGHT_OVERCAST,NIGHT_OVERCAST,NIGHT_OVERCAST,NIGHT_OVERCAST,NIGHT_OVERCAST,OVERCAST,OVERCAST,MIST,MOSTLY_CLOUDY,MOSTLY_CLOUDY,MOSTLY_CLOUDY,MOSTLY_CLOUDY,MOSTLY_CLOUDY,MOSTLY_CLOUDY","Onshore,Onshore,Onshore,Onshore,Onshore,Onshore,Onshore,Onshore,Onshore,Onshore,Onshore,Onshore,Onshore,Onshore,Onshore",15
5842041f4e65fad6a7708944,2024_05_17,34.34145077331085,-119.416999352654,Stanley's,1.9333333333333333,0.13466666666666666,0.438,15,15,"NIGHT_CLEAR,NIGHT_CLEAR,NIGHT_CLEAR,NIGHT_FOG,NIGHT_MIST,NIGHT_FOG,FOG,MIST,MIST,MOSTLY_CLEAR,MIST,MIST,MOSTLY_CLEAR,CLEAR,CLEAR","Offshore,Offshore,Offshore,Offshore,Offshore,Cross-shore,Onshore,Onshore,Onshore,Onshore,Onshore,Onshore,Onshore,Onshore,Onshore",15
5842041f4e65fad6a7708945,2024_05_17,34.35113017313915,-119.426921498899,Oil Piers,2,0.14866666666666667,0.4533333333333333,14.666666666666666,14.666666666666666,"NIGHT_CLEAR,NIGHT_CLEAR,NIGHT_CLEAR,NIGHT_FOG,NIGHT_MIST,NIGHT_FOG,FOG,MIST,MIST,MOSTLY_CLEAR,MIST,MIST,MOSTLY_CLEAR,CLEAR,CLEAR","Cross-shore,Onshore,Cross-shore,Offshore,Offshore,Offshore,Cross-shore,Onshore,Onshore,Cross-shore,Cross-shore,Onshore,Onshore,Onshore,Onshore",15
5842041f4e65fad6a770894c,2024_05_17,34.17876333306018,-119.23995,Oxnard,2.6,0.5740000000000001,0.8793333333333333,15,15,"NIGHT_OVERCAST,NIGHT_OVERCAST,NIGHT_OVERCAST,NIGHT_FOG,NIGHT_FOG,NIGHT_FOG,FOG,FOG,MIST,MIST,CLEAR,CLEAR,CLEAR,CLEAR,CLEAR","Onshore,Onshore,Cross-shore,Onshore,Onshore,Onshore,Onshore,Onshore,Onshore,Onshore,Onshore,Onshore,Onshore,Onshore,Onshore",15
5842041f4e65fad6a7708957,2024_05_17,34.31720331100517,-119.3882324751725,Pitas Point,2,0.14533333333333334,0.45,15,15,"NIGHT_MIST,NIGHT_MIST,NIGHT_MIST,NIGHT_MIST,NIGHT_MIST,NIGHT_MIST,MIST,MIST,MIST,MIST,MIST,MIST,MIST,MIST,MIST","Onshore,Offshore,Offshore,Offshore,Cross-shore,Cross-shore,Offshore,Cross-shore,Offshore,Onshore,Onshore,Onshore,Onshore,Cross-shore,Cross-shore",15
5842041f4e65fad6a7708959,2024_05_17,34.27851754384724,-119.3162,Emma Wood,1.8,0.20466666666666666,0.5106666666666667,15,15,"NIGHT_MOSTLY_CLOUDY,NIGHT_MIST,NIGHT_MIST,NIGHT_MIST,NIGHT_MIST,NIGHT_MIST,MIST,MIST,MIST,MIST,MIST,MIST,MIST,MIST,MIST","Cross-shore,Cross-shore,Cross-shore,Onshore,Cross-shore,Onshore,Onshore,Onshore,Onshore,Onshore,Onshore,Onshore,Onshore,Onshore,Onshore",15
5842041f4e65fad6a770895a,2024_05_17,34.35513640390276,-119.4400589884255,Mussel Shoals (aka Little Rincon),2,0.07133333333333333,0.37666666666666665,14.666666666666666,14.666666666666666,"NIGHT_MIST,NIGHT_MIST,NIGHT_MIST,NIGHT_BRIEF_SHOWERS,NIGHT_MIST,NIGHT_MIST,BRIEF_SHOWERS,BRIEF_SHOWERS,MIST,MIST,MIST,MIST,MIST,MIST,MIST","Cross-shore,Onshore,Cross-shore,Onshore,Offshore,Offshore,Cross-shore,Cross-shore,Onshore,Cross-shore,Cross-shore,Onshore,Onshore,Onshore,Onshore",15
5842041f4e65fad6a770895e,2024_05_17,34.28991757054902,-119.3366646794652,Summer Beach,1.8,0.232,0.5353333333333333,15,15,"NIGHT_MOSTLY_CLOUDY,NIGHT_MIST,NIGHT_MIST,NIGHT_MIST,NIGHT_MIST,NIGHT_MIST,MIST,MIST,MIST,MIST,MIST,MIST,MIST,MIST,MIST","Cross-shore,Cross-shore,Offshore,Cross-shore,Cross-shore,Onshore,Onshore,Onshore,Onshore,Onshore,Onshore,Onshore,Onshore,Onshore,Onshore",15
5842041f4e65fad6a770895f,2024_05_17,34.30897456105926,-119.3582501170116,Solimar,2,0.18,0.486,15,15,"NIGHT_MIST,NIGHT_MIST,NIGHT_MIST,NIGHT_MIST,NIGHT_MIST,NIGHT_MIST,MIST,MIST,MIST,MIST,MIST,MIST,MIST,MIST,MIST","Onshore,Offshore,Offshore,Offshore,Cross-shore,Cross-shore,Offshore,Cross-shore,Cross-shore,Onshore,Onshore,Onshore,Onshore,Onshore,Onshore",15
5842041f4e65fad6a7708960,2024_05_17,34.39836265281686,-119.70213,Leadbetter Point,1,0,0.28200000000000003,14,14,"NIGHT_MIST,NIGHT_MIST,NIGHT_MIST,NIGHT_MOSTLY_CLOUDY,NIGHT_MOSTLY_CLOUDY,NIGHT_MIST,FOG,MIST,MIST,MOSTLY_CLOUDY,MOSTLY_CLOUDY,MOSTLY_CLEAR,CLEAR,CLEAR,CLEAR","Cross-shore,Onshore,Onshore,Offshore,Offshore,Offshore,Cross-shore,Offshore,Cross-shore,Cross-shore,Cross-shore,Cross-shore,Cross-shore,Cross-shore,Cross-shore",15
5842041f4e65fad6a7708961,2024_05_17,34.46052293893899,-120.07328,Refugio,2,0.096,0.4033333333333333,13,13,"NIGHT_CLEAR,NIGHT_CLEAR,NIGHT_CLEAR,NIGHT_MOSTLY_CLEAR,NIGHT_MOSTLY_CLEAR,NIGHT_MOSTLY_CLOUDY,MOSTLY_CLOUDY,BRIEF_SHOWERS,MIST,BRIEF_SHOWERS,MIST,MIST,CLEAR,CLEAR,CLEAR","Offshore,Cross-shore,Offshore,Offshore,Onshore,Offshore,Offshore,Onshore,Offshore,Onshore,Cross-shore,Cross-shore,Offshore,Cross-shore,Cross-shore",15
5842041f4e65fad6a7708962,2024_05_17,34.40754276777778,-119.87639,Devereux,2,0.212,0.5186666666666667,13,13,"NIGHT_MIST,NIGHT_MIST,NIGHT_MIST,NIGHT_MIST,NIGHT_MIST,NIGHT_MIST,MIST,MIST,MIST,CLEAR,MIST,MIST,MIST,MIST,MIST","Onshore,Onshore,Onshore,Onshore,Onshore,Onshore,Onshore,Onshore,Onshore,Onshore,Onshore,Onshore,Onshore,Cross-shore,Cross-shore",15
5842041f4e65fad6a7708963,2024_05_17,34.27479983305182,-119.3133222656776,Ventura Overhead,1.8,0.21466666666666667,0.52,15,15,"NIGHT_MOSTLY_CLOUDY,NIGHT_MIST,NIGHT_MIST,NIGHT_MIST,NIGHT_MIST,NIGHT_MIST,MIST,MIST,MIST,MIST,MIST,MIST,MIST,MIST,MIST","Cross-shore,Cross-shore,Offshore,Onshore,Cross-shore,Onshore,Onshore,Onshore,Onshore,Onshore,Onshore,Onshore,Onshore,Onshore,Onshore",15
5842041f4e65fad6a7708964,2024_05_17,34.41023236011655,-119.88261,Sands,2,0.20400000000000001,0.51,13,13,"NIGHT_MIST,NIGHT_MIST,NIGHT_MIST,NIGHT_MIST,NIGHT_MIST,NIGHT_MIST,MIST,MIST,MIST,CLEAR,MIST,MIST,MIST,MIST,MIST","Cross-shore,Cross-shore,Offshore,Offshore,Offshore,Offshore,Offshore,Offshore,Cross-shore,Cross-shore,Onshore,Onshore,Onshore,Onshore,Onshore",15
5842041f4e65fad6a7708966,2024_05_17,34.40450193869233,-119.68752,Sandspit,1,0,0.18733333333333332,14,14,"NIGHT_MOSTLY_CLEAR,NIGHT_MOSTLY_CLEAR,NIGHT_MOSTLY_CLEAR,NIGHT_BRIEF_SHOWERS,NIGHT_BRIEF_SHOWERS,NIGHT_BRIEF_SHOWERS,FOG,FOG,MIST,MIST,MIST,MOSTLY_CLEAR,MOSTLY_CLEAR,CLEAR,CLEAR","Cross-shore,Cross-shore,Cross-shore,Offshore,Offshore,Offshore,Cross-shore,Offshore,Cross-shore,Cross-shore,Cross-shore,Cross-shore,Cross-shore,Cross-shore,Cross-shore",15
5842041f4e65fad6a7708967,2024_05_17,34.41549098334453,-119.6375149840203,Hammond's,1,0,0.168,14,14,"NIGHT_MIST,NIGHT_MIST,NIGHT_MIST,NIGHT_MOSTLY_CLOUDY,NIGHT_MOSTLY_CLOUDY,NIGHT_MIST,FOG,FOG,MIST,MIST,MIST,MIST,MOSTLY_CLEAR,CLEAR,CLEAR","Onshore,Cross-shore,Onshore,Cross-shore,Onshore,Onshore,Offshore,Cross-shore,Onshore,Onshore,Cross-shore,Cross-shore,Cross-shore,Cross-shore,Cross-shore",15
5842041f4e65fad6a7708968,2024_05_17,34.45759322742309,-120.02203,El Capitan,2,0.13933333333333334,0.44666666666666666,13,13,"NIGHT_CLEAR,NIGHT_MOSTLY_CLEAR,NIGHT_MOSTLY_CLEAR,NIGHT_CLEAR,NIGHT_CLEAR,NIGHT_CLEAR,MOSTLY_CLOUDY,MOSTLY_CLOUDY,BRIEF_SHOWERS,MIST,MIST,MOSTLY_CLEAR,MOSTLY_CLEAR,CLEAR,CLEAR","Cross-shore,Cross-shore,Cross-shore,Cross-shore,Cross-shore,Cross-shore,Offshore,Cross-shore,Cross-shore,Cross-shore,Onshore,Cross-shore,Offshore,Cross-shore,Cross-shore",15
5842041f4e65fad6a770896c,2024_05_17,34.405117655616,-119.84317,Campus Point,2,0.038,0.34400000000000003,13.666666666666666,13.666666666666666,"NIGHT_CLEAR,NIGHT_CLEAR,NIGHT_MOSTLY_CLEAR,NIGHT_MIST,NIGHT_MIST,NIGHT_MIST,MIST,MOSTLY_CLOUDY,CLEAR,MOSTLY_CLOUDY,MOSTLY_CLOUDY,CLEAR,CLEAR,CLEAR,CLEAR","Onshore,Onshore,Onshore,Onshore,Onshore,Onshore,Onshore,Onshore,Onshore,Onshore,Onshore,Onshore,Onshore,Onshore,Cross-shore",15
5842041f4e65fad6a770896e,2024_05_17,34.38935162233354,-119.51955,Carpinteria State Beach,2,0.06666666666666667,0.372,14.666666666666666,14.666666666666666,"NIGHT_MIST,NIGHT_MIST,NIGHT_MIST,NIGHT_MIST,NIGHT_MIST,NIGHT_MIST,MIST,MIST,MIST,MIST,MIST,MIST,MIST,MIST,MIST","Cross-shore,Cross-shore,Offshore,Onshore,Offshore,Onshore,Offshore,Offshore,Onshore,Onshore,Onshore,Onshore,Onshore,Onshore,Onshore",15
5842041f4e65fad6a770896f,2024_05_17,37.48296565175612,-122.45493,Half Moon Bay,2,0.8346666666666667,1.052,14,14,"NIGHT_MIST,NIGHT_MIST,NIGHT_BRIEF_SHOWERS,NIGHT_BRIEF_SHOWERS,NIGHT_BRIEF_SHOWERS,NIGHT_BRIEF_SHOWERS,BRIEF_SHOWERS,BRIEF_SHOWERS,BRIEF_SHOWERS,BRIEF_SHOWERS,BRIEF_SHOWERS,BRIEF_SHOWERS,MIST,MIST,MIST","Onshore,Onshore,Onshore,Onshore,Onshore,Onshore,Onshore,Onshore,Onshore,Onshore,Onshore,Onshore,Onshore,Onshore,Onshore",15
5842041f4e65fad6a7708970,2024_05_17,37.499,-122.471,Princeton Jetty,1.8666666666666667,0.634,0.9393333333333334,14,14,"NIGHT_BRIEF_SHOWERS,NIGHT_BRIEF_SHOWERS,NIGHT_MOSTLY_CLOUDY,NIGHT_BRIEF_SHOWERS,NIGHT_BRIEF_SHOWERS,NIGHT_BRIEF_SHOWERS,BRIEF_SHOWERS,BRIEF_SHOWERS,BRIEF_SHOWERS,BRIEF_SHOWERS,BRIEF_SHOWERS,BRIEF_SHOWERS,BRIEF_SHOWERS,MIST,MIST","Onshore,Onshore,Onshore,Onshore,Onshore,Onshore,Onshore,Onshore,Onshore,Onshore,Onshore,Onshore,Onshore,Onshore,Onshore",15
5842041f4e65fad6a7708972,2024_05_17,37.35699547365155,-122.4069534707252,Tunitas Creek,2.6666666666666665,1.6,1.8186666666666667,14,14,"NIGHT_MIST,NIGHT_MIST,NIGHT_MIST,NIGHT_BRIEF_SHOWERS,NIGHT_MIST,NIGHT_BRIEF_SHOWERS,FOG,MOSTLY_CLOUDY,MOSTLY_CLOUDY,MIST,MIST,MIST,MIST,MIST,MOSTLY_CLOUDY","Onshore,Onshore,Onshore,Onshore,Onshore,Onshore,Onshore,Onshore,Onshore,Onshore,Onshore,Onshore,Onshore,Onshore,Onshore",15
5842041f4e65fad6a7708974,2024_05_17,37.54735589428842,-122.51611,Montara,2.8666666666666667,1.2806666666666666,1.5866666666666667,14,14,"NIGHT_BRIEF_SHOWERS,NIGHT_BRIEF_SHOWERS,NIGHT_BRIEF_SHOWERS,NIGHT_BRIEF_SHOWERS,NIGHT_BRIEF_SHOWERS,NIGHT_BRIEF_SHOWERS,BRIEF_SHOWERS,BRIEF_SHOWERS,MIST,MIST,BRIEF_SHOWERS,MIST,MIST,MIST,CLEAR","Onshore,Onshore,Onshore,Onshore,Cross-shore,Cross-shore,Cross-shore,Cross-shore,Cross-shore,Cross-shore,Cross-shore,Cross-shore,Cross-shore,Cross-shore,Cross-shore",15
5842041f4e65fad6a7708975,2024_05_17,34.3869373724559,-119.5142334209018,Tarpits,2,0.04933333333333333,0.35333333333333333,14.666666666666666,14.666666666666666,"NIGHT_MIST,NIGHT_MIST,NIGHT_MIST,NIGHT_MIST,NIGHT_MIST,NIGHT_FOG,FOG,MIST,MIST,MIST,CLEAR,CLEAR,CLEAR,CLEAR,CLEAR","Onshore,Cross-shore,Cross-shore,Cross-shore,Cross-shore,Onshore,Offshore,Cross-shore,Cross-shore,Cross-shore,Cross-shore,Onshore,Cross-shore,Cross-shore,Cross-shore",15
5842041f4e65fad6a7708976,2024_05_17,37.59881852720143,-122.50463,Linda Mar,2.09,0.43027333333333334,0.736042,11,11,"NIGHT_BRIEF_SHOWERS,NIGHT_BRIEF_SHOWERS,NIGHT_BRIEF_SHOWERS,NIGHT_MIST,NIGHT_MIST,NIGHT_MIST,MOSTLY_CLOUDY,MIST,MIST,MIST,MIST,CLEAR,CLEAR,CLEAR,MIST","Onshore,Onshore,Onshore,Onshore,Cross-shore,Onshore,Cross-shore,Cross-shore,Cross-shore,Offshore,Onshore,Cross-shore,Cross-shore,Cross-shore,Cross-shore",15
5842041f4e65fad6a7708978,2024_05_17,37.59883098461164,-122.5143843582282,Pedro Point,3,1.2666666666666666,1.5706666666666667,14,14,"NIGHT_MIST,NIGHT_MOSTLY_CLOUDY,NIGHT_MOSTLY_CLOUDY,NIGHT_CLOUDY,NIGHT_DRIZZLE,NIGHT_MOSTLY_CLOUDY,BRIEF_SHOWERS,MOSTLY_CLOUDY,MOSTLY_CLOUDY,BRIEF_SHOWERS,BRIEF_SHOWERS,MIST,MIST,BRIEF_SHOWERS,MIST","Onshore,Onshore,Onshore,Cross-shore,Onshore,Onshore,Offshore,Offshore,Offshore,Offshore,Cross-shore,Cross-shore,Cross-shore,Offshore,Cross-shore",15
5842041f4e65fad6a7708979,2024_05_17,37.61081996647663,-122.49733,Rockaway,3,1.2733333333333334,1.4933333333333334,14,14,"NIGHT_BRIEF_SHOWERS,NIGHT_BRIEF_SHOWERS,NIGHT_BRIEF_SHOWERS,NIGHT_MIST,NIGHT_MIST,NIGHT_MIST,MOSTLY_CLOUDY,MIST,MIST,MIST,MIST,CLEAR,CLEAR,CLEAR,MIST","Cross-shore,Cross-shore,Cross-shore,Cross-shore,Cross-shore,Cross-shore,Cross-shore,Cross-shore,Offshore,Cross-shore,Cross-shore,Cross-shore,Cross-shore,Cross-shore,Cross-shore",15
5842041f4e65fad6a770897a,2024_05_17,37.809987384424446,-122.47514,Fort Point,1.9333333333333333,0.632,0.9366666666666666,15,15,"NIGHT_MOSTLY_CLOUDY,NIGHT_MIST,NIGHT_BRIEF_SHOWERS,NIGHT_BRIEF_SHOWERS,NIGHT_BRIEF_SHOWERS,NIGHT_BRIEF_SHOWERS,BRIEF_SHOWERS,MIST,CLEAR,MOSTLY_CLOUDY,MIST,MIST,MIST,BRIEF_SHOWERS,BRIEF_SHOWERS","Onshore,Onshore,Onshore,Onshore,Onshore,Onshore,Onshore,Onshore,Cross-shore,Onshore,Onshore,Onshore,Onshore,Cross-shore,Cross-shore",15
5842041f4e65fad6a770897c,2024_05_17,37.63422542967464,-122.4951,Sharp Park,3,1.348,1.6286666666666667,14,14,"NIGHT_MIST,NIGHT_MIST,NIGHT_MIST,NIGHT_MIST,NIGHT_MIST,NIGHT_MIST,MIST,MIST,MIST,MIST,MIST,MIST,MIST,MIST,MIST","Onshore,Onshore,Onshore,Cross-shore,Cross-shore,Cross-shore,Cross-shore,Cross-shore,Cross-shore,Cross-shore,Cross-shore,Cross-shore,Onshore,Cross-shore,Cross-shore",15
5842041f4e65fad6a770897d,2024_05_17,37.27313605072472,-122.4127387912554,Pescadero,2.8666666666666667,1.556,1.7906666666666666,13.333333333333334,13.333333333333334,"NIGHT_MIST,NIGHT_MIST,NIGHT_MOSTLY_CLOUDY,NIGHT_DRIZZLE,NIGHT_DRIZZLE,NIGHT_MIST,DRIZZLE,OVERCAST,OVERCAST,MIST,MIST,MIST,MIST,MIST,MIST","Onshore,Onshore,Onshore,Onshore,Onshore,Onshore,Onshore,Onshore,Cross-shore,Onshore,Onshore,Onshore,Cross-shore,Cross-shore,Cross-shore",15
5842041f4e65fad6a770897e,2024_05_17,37.18140279972666,-122.3926685899327,Pigeon Point,2.8666666666666667,1.4193333333333333,1.674,13,13,"NIGHT_MIST,NIGHT_MIST,NIGHT_MOSTLY_CLOUDY,NIGHT_MIST,NIGHT_MIST,NIGHT_MIST,FOG,CLOUDY,OVERCAST,MIST,MIST,MIST,MIST,MOSTLY_CLOUDY,CLEAR","Onshore,Cross-shore,Cross-shore,Cross-shore,Cross-shore,Cross-shore,Cross-shore,Onshore,Onshore,Onshore,Onshore,Onshore,Onshore,Onshore,Onshore",15
5842041f4e65fad6a770897f,2024_05_17,37.11578956919415,-122.314699271291,Ano Nuevo,3,0.8233333333333334,1.0993333333333333,13,13,"NIGHT_MIST,NIGHT_BRIEF_SHOWERS,NIGHT_BRIEF_SHOWERS,NIGHT_MIST,NIGHT_MIST,NIGHT_MIST,MIST,MIST,CLOUDY,MIST,MIST,MIST,MOSTLY_CLOUDY,MOSTLY_CLOUDY,MOSTLY_CLOUDY","Onshore,Cross-shore,Cross-shore,Offshore,Offshore,Offshore,Offshore,Cross-shore,Onshore,Onshore,Onshore,Onshore,Onshore,Onshore,Onshore",15
5842041f4e65fad6a7708980,2024_05_17,37.09520872681598,-122.2805474707768,Waddell Creek,3,1.1153333333333333,1.3653333333333333,13,13,"NIGHT_MOSTLY_CLOUDY,NIGHT_MOSTLY_CLOUDY,NIGHT_MOSTLY_CLOUDY,NIGHT_BRIEF_SHOWERS,NIGHT_MIST,NIGHT_MIST,MIST,MIST,MIST,MIST,MIST,MIST,MIST,MIST,MIST","Cross-shore,Onshore,Onshore,Cross-shore,Onshore,Onshore,Onshore,Onshore,Onshore,Onshore,Onshore,Onshore,Onshore,Onshore,Onshore",15
5842041f4e65fad6a7708981,2024_05_17,36.96512852130351,-122.1252825495626,Four Mile,3,0.628,0.9333333333333333,13,13,"NIGHT_BRIEF_SHOWERS,NIGHT_MIST,NIGHT_MOSTLY_CLOUDY,NIGHT_BRIEF_SHOWERS,NIGHT_MIST,NIGHT_MIST,MIST,MIST,MOSTLY_CLOUDY,MIST,MIST,MIST,MIST,MIST,MIST","Onshore,Cross-shore,Cross-shore,Cross-shore,Cross-shore,Cross-shore,Cross-shore,Cross-shore,Cross-shore,Offshore,Onshore,Onshore,Onshore,Onshore,Onshore",15
5842041f4e65fad6a7708982,2024_05_17,37.04122807048655,-122.23337,Scott Creek,3,1.2006666666666668,1.454,13,13,"NIGHT_MIST,NIGHT_FOG,NIGHT_MOSTLY_CLOUDY,NIGHT_BRIEF_SHOWERS,NIGHT_MIST,NIGHT_BRIEF_SHOWERS,BRIEF_SHOWERS,MIST,MOSTLY_CLOUDY,MIST,MIST,MIST,MIST,MIST,MIST","Onshore,Onshore,Onshore,Cross-shore,Cross-shore,Onshore,Onshore,Cross-shore,Onshore,Cross-shore,Onshore,Onshore,Onshore,Onshore,Onshore",15
5842041f4e65fad6a7708983,2024_05_17,37.02350229387179,-122.21908,Davenport,3.2,1.124,1.3780000000000001,13,13,"NIGHT_MOSTLY_CLOUDY,NIGHT_MOSTLY_CLOUDY,NIGHT_MOSTLY_CLOUDY,NIGHT_BRIEF_SHOWERS,NIGHT_MIST,NIGHT_MIST,MIST,MIST,MIST,MIST,MIST,MIST,MIST,MIST,MIST","Onshore,Onshore,Onshore,Cross-shore,Cross-shore,Onshore,Onshore,Cross-shore,Onshore,Onshore,Onshore,Onshore,Onshore,Onshore,Onshore",15
5842041f4e65fad6a7708986,2024_05_17,36.94905295955728,-122.06118,Natural Bridges,3,1.0133333333333334,1.2253333333333334,13,13,"NIGHT_MIST,NIGHT_FOG,NIGHT_MIST,NIGHT_FOG,NIGHT_MOSTLY_CLOUDY,NIGHT_MIST,FOG,FOG,MIST,MIST,MIST,BRIEF_SHOWERS,MIST,MIST,MIST","Onshore,Onshore,Onshore,Onshore,Onshore,Onshore,Onshore,Cross-shore,Onshore,Cross-shore,Onshore,Onshore,Onshore,Onshore,Onshore",15
5842041f4e65fad6a7708987,2024_05_17,36.95154854910425,-122.04207,Mitchell's Cove,2.933333333333333,0.6586666666666666,0.9666666666666667,13,13,"NIGHT_MIST,NIGHT_MOSTLY_CLOUDY,NIGHT_MIST,NIGHT_FOG,NIGHT_MOSTLY_CLOUDY,NIGHT_MOSTLY_CLOUDY,MOSTLY_CLOUDY,FOG,MIST,MIST,MIST,MIST,MIST,MOSTLY_CLOUDY,MOSTLY_CLOUDY","Onshore,Onshore,Onshore,Cross-shore,Cross-shore,Onshore,Cross-shore,Cross-shore,Cross-shore,Onshore,Onshore,Onshore,Onshore,Onshore,Onshore",15
5842041f4e65fad6a770898a,2024_05_17,36.9572312370203,-121.98177,26th Ave,3,1.008,1.246,13,13,"NIGHT_MOSTLY_CLOUDY,NIGHT_MOSTLY_CLOUDY,NIGHT_MOSTLY_CLOUDY,NIGHT_FOG,NIGHT_FOG,NIGHT_BRIEF_SHOWERS,FOG,FOG,BRIEF_SHOWERS,BRIEF_SHOWERS,MIST,MIST,MIST,MIST,MOSTLY_CLOUDY","Onshore,Onshore,Onshore,Onshore,Onshore,Cross-shore,Onshore,Onshore,Onshore,Onshore,Onshore,Onshore,Onshore,Onshore,Onshore",15
5842041f4e65fad6a770898e,2024_05_17,36.91899972819882,-121.85536,Manresa,2.066666666666667,0.5946666666666667,0.8993333333333333,13,13,"NIGHT_MOSTLY_CLOUDY,NIGHT_MOSTLY_CLOUDY,NIGHT_OVERCAST,NIGHT_MIST,NIGHT_BRIEF_SHOWERS,NIGHT_MIST,MIST,MIST,BRIEF_SHOWERS,BRIEF_SHOWERS,BRIEF_SHOWERS,MIST,MIST,MIST,MIST","Onshore,Onshore,Onshore,Onshore,Onshore,Onshore,Onshore,Onshore,Onshore,Onshore,Onshore,Onshore,Onshore,Onshore,Onshore",15
5842041f4e65fad6a7708990,2024_05_17,34.45747731928454,-120.34242,The Ranch,2.8,0.37533333333333335,0.6793333333333333,13,13,"NIGHT_CLEAR,NIGHT_CLEAR,NIGHT_CLEAR,NIGHT_MOSTLY_CLOUDY,NIGHT_MOSTLY_CLOUDY,NIGHT_MOSTLY_CLOUDY,MOSTLY_CLOUDY,MOSTLY_CLOUDY,MOSTLY_CLOUDY,MIST,MIST,MOSTLY_CLEAR,CLEAR,MOSTLY_CLEAR,MOSTLY_CLEAR","Offshore,Offshore,Offshore,Offshore,Onshore,Offshore,Onshore,Offshore,Offshore,Onshore,Onshore,Onshore,Onshore,Cross-shore,Cross-shore",15
5842041f4e65fad6a7708991,2024_05_17,34.50875036590315,-120.50348,Jalama,2.933333333333333,0.6593333333333333,0.9673333333333333,13,13,"NIGHT_CLEAR,NIGHT_CLEAR,NIGHT_CLEAR,NIGHT_MOSTLY_CLOUDY,NIGHT_MOSTLY_CLOUDY,NIGHT_MOSTLY_CLOUDY,MOSTLY_CLOUDY,MOSTLY_CLOUDY,CLEAR,MOSTLY_CLOUDY,MIST,MIST,MIST,MIST,MIST","Cross-shore,Cross-shore,Offshore,Cross-shore,Cross-shore,Offshore,Cross-shore,Offshore,Offshore,Onshore,Onshore,Onshore,Onshore,Onshore,Onshore",15
5842041f4e65fad6a7708996,2024_05_17,34.68700870220497,-120.6111611019887,Surf Beach,2.8,0.996,1.2286666666666666,12.333333333333334,12.333333333333334,"NIGHT_MIST,NIGHT_MIST,NIGHT_MIST,NIGHT_MIST,NIGHT_MIST,NIGHT_DRIZZLE,BRIEF_SHOWERS,BRIEF_SHOWERS,MOSTLY_CLOUDY,MOSTLY_CLOUDY,MIST,MIST,MIST,MIST,MIST","Onshore,Onshore,Onshore,Onshore,Onshore,Onshore,Onshore,Onshore,Onshore,Onshore,Onshore,Onshore,Onshore,Onshore,Onshore",15
5842041f4e65fad6a770899c,2024_05_17,35.5730538161116,-121.1143362345574,Moonstone,3,0.6426666666666667,0.9446666666666667,12,12,"NIGHT_MIST,NIGHT_MOSTLY_CLOUDY,NIGHT_BRIEF_SHOWERS,NIGHT_BRIEF_SHOWERS,NIGHT_BRIEF_SHOWERS,NIGHT_BRIEF_SHOWERS,BRIEF_SHOWERS,BRIEF_SHOWERS,BRIEF_SHOWERS,CLEAR,MOSTLY_CLOUDY,MIST,MIST,MIST,MIST","Onshore,Cross-shore,Cross-shore,Cross-shore,Offshore,Offshore,Offshore,Offshore,Offshore,Cross-shore,Onshore,Onshore,Onshore,Onshore,Onshore",15
5842041f4e65fad6a770899d,2024_05_17,35.61533716776573,-121.1502053073914,Pico Creek,3,0.854,1.074,12,12,"NIGHT_MOSTLY_CLOUDY,NIGHT_MOSTLY_CLOUDY,NIGHT_MOSTLY_CLOUDY,NIGHT_MOSTLY_CLOUDY,NIGHT_MOSTLY_CLOUDY,NIGHT_MOSTLY_CLOUDY,MOSTLY_CLOUDY,BRIEF_SHOWERS,MOSTLY_CLOUDY,MOSTLY_CLEAR,MIST,MIST,MIST,MIST,MIST","Onshore,Onshore,Offshore,Onshore,Cross-shore,Offshore,Offshore,Offshore,Offshore,Onshore,Onshore,Onshore,Onshore,Onshore,Onshore",15
5842041f4e65fad6a770899e,2024_05_17,35.56829031927379,-121.11207,Santa Rosa Creek,2.933333333333333,0.6426666666666667,0.9446666666666667,12,12,"NIGHT_MIST,NIGHT_MIST,NIGHT_BRIEF_SHOWERS,NIGHT_BRIEF_SHOWERS,NIGHT_MOSTLY_CLOUDY,NIGHT_MOSTLY_CLOUDY,MIST,MIST,MOSTLY_CLOUDY,MOSTLY_CLEAR,MIST,MIST,MIST,MIST,MIST","Cross-shore,Cross-shore,Cross-shore,Cross-shore,Offshore,Offshore,Offshore,Offshore,Offshore,Cross-shore,Onshore,Onshore,Onshore,Onshore,Onshore",15
5842041f4e65fad6a77089a2,2024_05_17,35.44820114936284,-120.90715,"Cayucos Pier, Southside ",2,0.19,0.494,12,12,"NIGHT_MIST,NIGHT_MOSTLY_CLOUDY,NIGHT_MIST,NIGHT_MIST,NIGHT_MIST,NIGHT_MIST,MIST,BRIEF_SHOWERS,BRIEF_SHOWERS,MOSTLY_CLEAR,MIST,MIST,BRIEF_SHOWERS,MOSTLY_CLEAR,MOSTLY_CLEAR","Cross-shore,Cross-shore,Cross-shore,Onshore,Onshore,Onshore,Onshore,Onshore,Onshore,Onshore,Onshore,Onshore,Cross-shore,Cross-shore,Cross-shore",15
5842041f4e65fad6a77089a4,2024_05_17,35.30143372628852,-120.877819239902,Cable Landing,3,1.2566666666666666,1.5406666666666666,12,12,"NIGHT_BRIEF_SHOWERS,NIGHT_BRIEF_SHOWERS,NIGHT_BRIEF_SHOWERS,NIGHT_DRIZZLE,NIGHT_MIST,NIGHT_MIST,MIST,MIST,MIST,MIST,MIST,MIST,MIST,MIST,BRIEF_SHOWERS","Onshore,Onshore,Onshore,Onshore,Onshore,Onshore,Onshore,Onshore,Onshore,Onshore,Onshore,Onshore,Onshore,Onshore,Onshore",15
5842041f4e65fad6a77089a9,2024_05_17,35.61269103500222,-121.14807,San Simeon,3,0.5310666666666667,0.721,12,12,"NIGHT_MOSTLY_CLOUDY,NIGHT_MOSTLY_CLOUDY,NIGHT_BRIEF_SHOWERS,NIGHT_BRIEF_SHOWERS,NIGHT_BRIEF_SHOWERS,NIGHT_MOSTLY_CLOUDY,MOSTLY_CLOUDY,BRIEF_SHOWERS,BRIEF_SHOWERS,CLEAR,MOSTLY_CLEAR,BRIEF_SHOWERS,MOSTLY_CLOUDY,MOSTLY_CLEAR,MOSTLY_CLEAR","Cross-shore,Cross-shore,Cross-shore,Cross-shore,Offshore,Offshore,Cross-shore,Offshore,Offshore,Onshore,Onshore,Onshore,Onshore,Onshore,Onshore",15
5842041f4e65fad6a77089ab,2024_05_17,35.1775325966252,-120.73411,Avila Beach,2,0.11266666666666666,0.41733333333333333,12,12,"NIGHT_MOSTLY_CLOUDY,NIGHT_MOSTLY_CLOUDY,NIGHT_MOSTLY_CLOUDY,NIGHT_OVERCAST,NIGHT_MIST,NIGHT_OVERCAST,MOSTLY_CLOUDY,OVERCAST,OVERCAST,MOSTLY_CLOUDY,MIST,BRIEF_SHOWERS,MIST,MOSTLY_CLEAR,MOSTLY_CLEAR","Offshore,Offshore,Onshore,Onshore,Cross-shore,Onshore,Onshore,Onshore,Onshore,Onshore,Onshore,Cross-shore,Onshore,Onshore,Onshore",15
5842041f4e65fad6a77089ac,2024_05_17,35.13877877884115,-120.64535,Pismo Beach Pier,2.6106666666666665,0.41513133333333335,0.718596,11,11,"NIGHT_MOSTLY_CLOUDY,NIGHT_MOSTLY_CLOUDY,NIGHT_MOSTLY_CLOUDY,NIGHT_OVERCAST,NIGHT_OVERCAST,NIGHT_OVERCAST,OVERCAST,DRIZZLE,BRIEF_SHOWERS,BRIEF_SHOWERS,BRIEF_SHOWERS,MOSTLY_CLEAR,MOSTLY_CLEAR,CLEAR,CLEAR","Offshore,Onshore,Offshore,Offshore,Offshore,Cross-shore,Onshore,Offshore,Offshore,Offshore,Cross-shore,Onshore,Onshore,Onshore,Onshore",15
5842041f4e65fad6a77089ad,2024_05_17,46.8907710233147,-124.12964,Westport/Olympic Peninsula,1.8,1.4393333333333334,1.7166666666666668,12,12,"NIGHT_LIGHT_RAIN,NIGHT_MOSTLY_CLOUDY,NIGHT_OVERCAST,NIGHT_DRIZZLE,NIGHT_OVERCAST,NIGHT_OVERCAST,OVERCAST,OVERCAST,OVERCAST,OVERCAST,OVERCAST,OVERCAST,OVERCAST,CLOUDY,CLEAR","Onshore,Cross-shore,Onshore,Onshore,Cross-shore,Onshore,Onshore,Onshore,Onshore,Onshore,Onshore,Onshore,Onshore,Onshore,Onshore",15
5842041f4e65fad6a77089ae,2024_05_17,46.35185177248545,-124.06747,Long Beach Peninsula,1.4666666666666666,1.6426666666666667,1.9293333333333333,13,13,"NIGHT_MOSTLY_CLOUDY,NIGHT_MOSTLY_CLOUDY,NIGHT_CLOUDY,NIGHT_OVERCAST,NIGHT_OVERCAST,NIGHT_DRIZZLE,BRIEF_SHOWERS,BRIEF_SHOWERS,MIST,DRIZZLE,CLOUDY,CLOUDY,MOSTLY_CLOUDY,BRIEF_SHOWERS,CLEAR","Onshore,Onshore,Onshore,Cross-shore,Onshore,Onshore,Onshore,Onshore,Onshore,Onshore,Onshore,Onshore,Onshore,Onshore,Onshore",15
5842041f4e65fad6a77089af,2024_05_17,47.90649175554033,-124.63709,La Push,2.4,1.766,2.0706666666666664,11,11,"NIGHT_CLEAR,NIGHT_CLOUDY,NIGHT_DRIZZLE,NIGHT_CLOUDY,NIGHT_CLOUDY,NIGHT_OVERCAST,OVERCAST,MIST,OVERCAST,CLOUDY,CLOUDY,OVERCAST,CLOUDY,MIST,MIST","Cross-shore,Cross-shore,Cross-shore,Cross-shore,Cross-shore,Cross-shore,Cross-shore,Cross-shore,Cross-shore,Cross-shore,Onshore,Onshore,Onshore,Onshore,Onshore",15
5842041f4e65fad6a77089b0,2024_05_17,42.04368239985442,-124.26828,Brookings Jetty,2.1333333333333333,0.37709466666666663,0.5892113333333333,10,10,"NIGHT_CLEAR,NIGHT_CLEAR,NIGHT_CLEAR,NIGHT_CLEAR,NIGHT_CLEAR,NIGHT_CLEAR,CLEAR,CLEAR,CLEAR,CLEAR,CLEAR,CLEAR,CLEAR,CLEAR,CLEAR","Offshore,Offshore,Offshore,Offshore,Offshore,Offshore,Offshore,Offshore,Offshore,Offshore,Offshore,Offshore,Offshore,Offshore,Offshore",15
5842041f4e65fad6a77089b1,2024_05_17,42.74071837900346,-124.4983727491047,Port Orford,2,0.4673333333333333,0.7726666666666667,9.333333333333334,9.333333333333334,"NIGHT_CLEAR,NIGHT_CLEAR,NIGHT_CLEAR,NIGHT_CLEAR,NIGHT_MOSTLY_CLEAR,NIGHT_CLEAR,CLEAR,CLEAR,CLEAR,CLEAR,CLEAR,CLEAR,CLEAR,CLEAR,CLEAR","Offshore,Offshore,Offshore,Offshore,Offshore,Offshore,Offshore,Offshore,Offshore,Offshore,Offshore,Offshore,Offshore,Offshore,Offshore",15
5842041f4e65fad6a77089b2,2024_05_17,44.01532689312291,-124.13865,Florence South Jetty,2.466666666666667,1.2306666666666666,1.5173333333333334,11.333333333333334,11.333333333333334,"NIGHT_MOSTLY_CLOUDY,NIGHT_BRIEF_SHOWERS,NIGHT_MOSTLY_CLOUDY,NIGHT_MOSTLY_CLOUDY,NIGHT_CLEAR,NIGHT_MOSTLY_CLOUDY,CLEAR,MOSTLY_CLEAR,CLEAR,CLEAR,CLEAR,CLEAR,CLEAR,CLEAR,CLEAR","Cross-shore,Cross-shore,Cross-shore,Cross-shore,Cross-shore,Cross-shore,Cross-shore,Cross-shore,Cross-shore,Cross-shore,Cross-shore,Cross-shore,Cross-shore,Cross-shore,Cross-shore",15
5842041f4e65fad6a77089b3,2024_05_17,42.41812540774362,-124.42945,Gold Beach South Jetty,2.8666666666666667,0.8180000000000001,1.0746666666666667,9,9,"NIGHT_CLEAR,NIGHT_CLEAR,NIGHT_CLEAR,NIGHT_CLEAR,NIGHT_CLEAR,NIGHT_CLEAR,CLEAR,CLEAR,CLEAR,CLEAR,CLEAR,CLEAR,CLEAR,CLEAR,CLEAR","Offshore,Offshore,Offshore,Offshore,Offshore,Offshore,Offshore,Offshore,Offshore,Offshore,Offshore,Offshore,Offshore,Offshore,Offshore",15
5842041f4e65fad6a77089b4,2024_05_17,44.95857310226525,-124.0219,Lincoln City,2,1.45,1.736,11.333333333333334,11.333333333333334,"NIGHT_CLEAR,NIGHT_MOSTLY_CLOUDY,NIGHT_CLEAR,NIGHT_MOSTLY_CLOUDY,NIGHT_CLEAR,NIGHT_MOSTLY_CLOUDY,CLEAR,MOSTLY_CLOUDY,MOSTLY_CLOUDY,MOSTLY_CLOUDY,CLEAR,CLEAR,MOSTLY_CLEAR,CLEAR,CLEAR","Cross-shore,Cross-shore,Cross-shore,Cross-shore,Cross-shore,Cross-shore,Cross-shore,Cross-shore,Cross-shore,Cross-shore,Cross-shore,Cross-shore,Cross-shore,Cross-shore,Cross-shore",15
5842041f4e65fad6a77089b5,2024_05_17,44.63792761362982,-124.0657,Newport,2.2,1.486,1.714,11,11,"NIGHT_MOSTLY_CLOUDY,NIGHT_BRIEF_SHOWERS,NIGHT_MOSTLY_CLOUDY,NIGHT_BRIEF_SHOWERS,NIGHT_CLEAR,NIGHT_MOSTLY_CLEAR,CLEAR,CLEAR,CLEAR,MOSTLY_CLOUDY,MOSTLY_CLOUDY,CLEAR,CLEAR,CLEAR,CLEAR","Cross-shore,Cross-shore,Cross-shore,Cross-shore,Cross-shore,Cross-shore,Cross-shore,Cross-shore,Cross-shore,Offshore,Offshore,Onshore,Onshore,Onshore,Onshore",15
5842041f4e65fad6a77089b6,2024_05_17,45.61468496266301,-123.94643,Rockaway Beach,2.2666666666666666,1.602,1.8586666666666667,12,12,"NIGHT_MOSTLY_CLOUDY,NIGHT_MOSTLY_CLOUDY,NIGHT_CLEAR,NIGHT_BRIEF_SHOWERS,NIGHT_MOSTLY_CLOUDY,NIGHT_MOSTLY_CLOUDY,OVERCAST,CLOUDY,MIST,CLEAR,MOSTLY_CLOUDY,MOSTLY_CLOUDY,MOSTLY_CLOUDY,MOSTLY_CLOUDY,MOSTLY_CLEAR","Onshore,Cross-shore,Cross-shore,Cross-shore,Cross-shore,Onshore,Onshore,Onshore,Cross-shore,Cross-shore,Cross-shore,Onshore,Onshore,Onshore,Onshore",15
5842041f4e65fad6a77089b7,2024_05_17,45.20252914186085,-123.96975,Pacific City,3,1.1586666666666667,1.3606666666666667,11.333333333333334,11.333333333333334,"NIGHT_BRIEF_SHOWERS,NIGHT_SHOWERS,NIGHT_MOSTLY_CLOUDY,NIGHT_CLEAR,NIGHT_MOSTLY_CLOUDY,NIGHT_MOSTLY_CLOUDY,BRIEF_SHOWERS,BRIEF_SHOWERS,MOSTLY_CLOUDY,MOSTLY_CLOUDY,BRIEF_SHOWERS,MOSTLY_CLOUDY,CLEAR,MOSTLY_CLEAR,CLEAR","Cross-shore,Cross-shore,Cross-shore,Cross-shore,Cross-shore,Cross-shore,Cross-shore,Cross-shore,Cross-shore,Cross-shore,Cross-shore,Cross-shore,Cross-shore,Cross-shore,Cross-shore",15
5842041f4e65fad6a77089b8,2024_05_17,45.88179930310263,-123.96681,Cannon Beach,2.466666666666667,1.5873333333333333,1.8739999999999999,12.666666666666666,12.666666666666666,"NIGHT_MOSTLY_CLOUDY,NIGHT_MOSTLY_CLOUDY,NIGHT_BRIEF_SHOWERS,NIGHT_MOSTLY_CLOUDY,NIGHT_OVERCAST,NIGHT_OVERCAST,OVERCAST,LIGHT_RAIN,LIGHT_RAIN,BRIEF_SHOWERS,MOSTLY_CLOUDY,MOSTLY_CLOUDY,MOSTLY_CLOUDY,MIST,MOSTLY_CLOUDY","Cross-shore,Cross-shore,Cross-shore,Cross-shore,Cross-shore,Cross-shore,Cross-shore,Cross-shore,Cross-shore,Cross-shore,Cross-shore,Onshore,Onshore,Onshore,Onshore",15
5842041f4e65fad6a77089ba,2024_05_17,40.02528754746774,-124.06372,Shelter Cove,2,0.304624,0.475976,12,12,"NIGHT_CLEAR,NIGHT_CLEAR,NIGHT_CLEAR,NIGHT_CLEAR,NIGHT_CLEAR,NIGHT_CLEAR,CLEAR,CLEAR,CLEAR,CLEAR,CLEAR,CLEAR,CLEAR,CLEAR,CLEAR","Offshore,Offshore,Offshore,Offshore,Offshore,Offshore,Offshore,Offshore,Offshore,Offshore,Offshore,Offshore,Offshore,Offshore,Offshore",15
5842041f4e65fad6a77089bb,2024_05_17,40.76816197136951,-124.24248,Humboldt Harbor Entrance,2.4,1.982,2.287333333333333,11.666666666666666,11.666666666666666,"NIGHT_MIST,NIGHT_MIST,NIGHT_MIST,NIGHT_MIST,NIGHT_MIST,NIGHT_MIST,MIST,MIST,MIST,MIST,MIST,MIST,CLEAR,CLEAR,CLEAR","Cross-shore,Onshore,Onshore,Offshore,Onshore,Onshore,Offshore,Onshore,Cross-shore,Onshore,Onshore,Onshore,Onshore,Onshore,Cross-shore",15
5842041f4e65fad6a77089bc,2024_05_17,40.76684246920174,-124.23107,North Jetty,2.4,2.396,2.7026666666666666,11.666666666666666,11.666666666666666,"NIGHT_MIST,NIGHT_MIST,NIGHT_MIST,NIGHT_CLEAR,NIGHT_MIST,NIGHT_DRIZZLE,MIST,MIST,MIST,MIST,MIST,MIST,MOSTLY_CLEAR,CLEAR,CLEAR","Cross-shore,Onshore,Onshore,Offshore,Onshore,Onshore,Offshore,Onshore,Cross-shore,Onshore,Onshore,Onshore,Onshore,Onshore,Onshore",15
5842041f4e65fad6a77089be,2024_05_17,41.13016238153297,-124.16466,Sue-meg,2.466666666666667,1.968,2.260666666666667,11,11,"NIGHT_MIST,NIGHT_MIST,NIGHT_BRIEF_SHOWERS,NIGHT_BRIEF_SHOWERS,NIGHT_BRIEF_SHOWERS,NIGHT_MIST,MIST,MIST,MIST,MIST,BRIEF_SHOWERS,BRIEF_SHOWERS,BRIEF_SHOWERS,MIST,MIST","Cross-shore,Cross-shore,Cross-shore,Cross-shore,Cross-shore,Cross-shore,Cross-shore,Cross-shore,Cross-shore,Cross-shore,Cross-shore,Cross-shore,Cross-shore,Cross-shore,Cross-shore",15
5842041f4e65fad6a77089bf,2024_05_17,37.8289474958188,-122.53768,Fort Cronkite/Rodeo Beach,1.9333333333333333,0.7613333333333333,1.0493333333333335,14.333333333333334,14.333333333333334,"NIGHT_MIST,NIGHT_MIST,NIGHT_MIST,NIGHT_BRIEF_SHOWERS,NIGHT_BRIEF_SHOWERS,NIGHT_BRIEF_SHOWERS,MOSTLY_CLOUDY,MIST,MIST,MIST,MIST,MIST,MIST,MIST,MIST","Onshore,Onshore,Onshore,Onshore,Onshore,Onshore,Onshore,Onshore,Onshore,Onshore,Onshore,Onshore,Onshore,Onshore,Onshore",15
5842041f4e65fad6a77089c0,2024_05_17,41.74415759876137,-124.17717,South Beach CA,2.7333333333333334,0.5206666666666666,0.8253333333333334,10.333333333333334,10.333333333333334,"NIGHT_CLEAR,NIGHT_CLEAR,NIGHT_CLEAR,NIGHT_CLEAR,NIGHT_CLEAR,NIGHT_CLEAR,CLEAR,CLEAR,CLEAR,CLEAR,CLEAR,CLEAR,CLEAR,CLEAR,CLEAR","Offshore,Offshore,Offshore,Offshore,Offshore,Offshore,Offshore,Offshore,Offshore,Offshore,Offshore,Offshore,Offshore,Offshore,Offshore",15
5842041f4e65fad6a77089c1,2024_05_17,37.89801283969752,-122.64519,Stinson Beach,3,0.41133333333333333,0.714,14,14,"NIGHT_BRIEF_SHOWERS_POSSIBLE,NIGHT_BRIEF_SHOWERS_POSSIBLE,NIGHT_BRIEF_SHOWERS,NIGHT_BRIEF_SHOWERS_POSSIBLE,NIGHT_BRIEF_SHOWERS,NIGHT_BRIEF_SHOWERS,MIST,BRIEF_SHOWERS,MIST,MOSTLY_CLOUDY,MOSTLY_CLOUDY,MOSTLY_CLOUDY,MOSTLY_CLOUDY,CLEAR,CLEAR","Offshore,Offshore,Offshore,Offshore,Offshore,Offshore,Offshore,Offshore,Onshore,Onshore,Onshore,Cross-shore,Cross-shore,Cross-shore,Offshore",15
5842041f4e65fad6a77089c2,2024_05_17,37.90514516176495,-122.68151,Bolinas,2.933333333333333,0.4657306666666667,0.727704,14,14,"NIGHT_FOG,NIGHT_BRIEF_SHOWERS,NIGHT_BRIEF_SHOWERS,NIGHT_BRIEF_SHOWERS,NIGHT_BRIEF_SHOWERS,NIGHT_BRIEF_SHOWERS,BRIEF_SHOWERS,MIST,MIST,MIST,MIST,MIST,MIST,MIST,MOSTLY_CLOUDY","Offshore,Offshore,Offshore,Offshore,Offshore,Offshore,Offshore,Offshore,Cross-shore,Cross-shore,Cross-shore,Cross-shore,Offshore,Offshore,Offshore",15
5842041f4e65fad6a77089c3,2024_05_17,38.04892513158693,-122.98925,Point Reyes (north),3.2,2.058666666666667,2.346,13,13,"NIGHT_MIST,NIGHT_MIST,NIGHT_DRIZZLE,NIGHT_MIST,NIGHT_MIST,NIGHT_MIST,MIST,OVERCAST,OVERCAST,MIST,MIST,MIST,MOSTLY_CLOUDY,CLEAR,CLEAR","Onshore,Onshore,Onshore,Onshore,Onshore,Onshore,Onshore,Onshore,Cross-shore,Offshore,Offshore,Offshore,Cross-shore,Cross-shore,Cross-shore",15
5842041f4e65fad6a77089c6,2024_05_17,38.31088736605785,-123.0496777333731,Doran Beach,2,0.11333333333333334,0.41866666666666663,12.333333333333334,12.333333333333334,"NIGHT_MIST,NIGHT_MIST,NIGHT_MOSTLY_CLOUDY,NIGHT_OVERCAST,NIGHT_OVERCAST,NIGHT_MOSTLY_CLOUDY,MIST,MIST,MOSTLY_CLOUDY,OVERCAST,MOSTLY_CLOUDY,MOSTLY_CLOUDY,MOSTLY_CLOUDY,MOSTLY_CLOUDY,MOSTLY_CLEAR","Offshore,Offshore,Offshore,Onshore,Onshore,Onshore,Onshore,Onshore,Onshore,Onshore,Onshore,Cross-shore,Cross-shore,Cross-shore,Cross-shore",15
5842041f4e65fad6a77089c7,2024_05_17,38.45077228660809,-123.13008,Russian Rivermouth,3,1.2106666666666668,1.4653333333333334,12,12,"NIGHT_CLEAR,NIGHT_MOSTLY_CLOUDY,NIGHT_MOSTLY_CLOUDY,NIGHT_MIST,NIGHT_MIST,NIGHT_MIST,MIST,MIST,CLEAR,MOSTLY_CLOUDY,MIST,MIST,MIST,MOSTLY_CLOUDY,MOSTLY_CLEAR","Onshore,Cross-shore,Offshore,Offshore,Offshore,Cross-shore,Offshore,Offshore,Offshore,Offshore,Onshore,Onshore,Onshore,Onshore,Onshore",15
5842041f4e65fad6a77089c8,2024_05_17,38.35329968518107,-123.06906,Salmon Creek,3.2666666666666666,1.752,2.0413333333333332,12,12,"NIGHT_MIST,NIGHT_MIST,NIGHT_OVERCAST,NIGHT_OVERCAST,NIGHT_OVERCAST,NIGHT_OVERCAST,OVERCAST,OVERCAST,MOSTLY_CLOUDY,CLOUDY,MIST,MIST,MIST,MIST,MIST","Onshore,Onshore,Onshore,Cross-shore,Cross-shore,Offshore,Offshore,Offshore,Cross-shore,Onshore,Onshore,Onshore,Onshore,Onshore,Onshore",15
5842041f4e65fad6a77089c9,2024_05_17,38.6845180197959,-123.4322714291198,Black Point Beach,2.933333333333333,0.6353333333333333,0.9406666666666667,11,11,"NIGHT_MIST,NIGHT_CLEAR,NIGHT_CLEAR,NIGHT_MOSTLY_CLEAR,NIGHT_MOSTLY_CLOUDY,NIGHT_MOSTLY_CLOUDY,MOSTLY_CLOUDY,MOSTLY_CLOUDY,MOSTLY_CLOUDY,MIST,MIST,MIST,MIST,MIST,MIST","Onshore,Onshore,Onshore,Onshore,Onshore,Cross-shore,Offshore,Cross-shore,Cross-shore,Onshore,Onshore,Onshore,Onshore,Onshore,Cross-shore",15
5842041f4e65fad6a77089ca,2024_05_17,43.251076,-70.59144,Ogunquit,2.1886666666666668,0.7216933333333333,1.0480953333333334,11,9,"NIGHT_CLEAR,NIGHT_CLEAR,NIGHT_CLEAR,CLEAR,CLEAR,CLEAR,CLEAR,CLEAR,CLEAR,CLEAR,CLEAR,CLEAR,CLEAR,CLEAR,CLEAR","Offshore,Cross-shore,Cross-shore,Cross-shore,Cross-shore,Cross-shore,Onshore,Onshore,Onshore,Onshore,Onshore,Onshore,Onshore,Onshore,Onshore",15
5842041f4e65fad6a77089cb,2024_05_17,41.362631366305415,-71.48007,Point Judith,1,0.8898753333333334,1.2624666666666666,11,10,"NIGHT_CLEAR,NIGHT_CLEAR,NIGHT_MOSTLY_CLOUDY,CLEAR,MOSTLY_CLEAR,CLEAR,CLEAR,CLEAR,CLEAR,CLEAR,CLEAR,CLEAR,CLEAR,CLEAR,CLEAR","Onshore,Onshore,Onshore,Cross-shore,Cross-shore,Cross-shore,Onshore,Onshore,Onshore,Onshore,Onshore,Onshore,Onshore,Onshore,Onshore",15
5842041f4e65fad6a77089cd,2024_05_17,41.422678090954726,-71.45413,Monahan's - Narragansett,1.4,0.7072993333333333,1.1051546666666667,12,12,"NIGHT_CLEAR,NIGHT_MOSTLY_CLOUDY,NIGHT_MIST,MOSTLY_CLEAR,MOSTLY_CLEAR,CLEAR,CLEAR,CLEAR,CLEAR,CLEAR,CLEAR,CLEAR,CLEAR,CLEAR,CLEAR","Cross-shore,Cross-shore,Cross-shore,Cross-shore,Cross-shore,Cross-shore,Cross-shore,Cross-shore,Cross-shore,Cross-shore,Cross-shore,Onshore,Onshore,Onshore,Cross-shore",15
5842041f4e65fad6a77089ce,2024_05_17,41.469,-71.293,Ruggles - Newport,2.6666666666666665,0.6995293333333333,1.0930126666666666,12,12,"NIGHT_CLEAR,NIGHT_CLEAR,NIGHT_CLEAR,CLEAR,CLEAR,CLEAR,CLEAR,CLEAR,CLEAR,CLEAR,CLEAR,CLEAR,CLEAR,CLEAR,CLEAR","Offshore,Offshore,Offshore,Offshore,Offshore,Offshore,Offshore,Offshore,Offshore,Offshore,Offshore,Offshore,Offshore,Offshore,Offshore",15
5842041f4e65fad6a77089cf,2024_05_17,43.175394,-70.606351,Short Sands Beach,1.6666666666666667,0.6819999999999999,0.9873333333333333,11,11,"NIGHT_CLEAR,NIGHT_CLEAR,NIGHT_CLEAR,CLEAR,CLEAR,CLEAR,CLEAR,CLEAR,CLEAR,CLEAR,CLEAR,MOSTLY_CLOUDY,CLEAR,CLEAR,CLEAR","Cross-shore,Cross-shore,Cross-shore,Cross-shore,Cross-shore,Onshore,Onshore,Onshore,Onshore,Onshore,Onshore,Onshore,Onshore,Onshore,Onshore",15
5842041f4e65fad6a77089d0,2024_05_17,41.487408,-71.29017,First Beach,2.466666666666667,0.5753333333333334,0.882,12,12,"NIGHT_CLEAR,NIGHT_OVERCAST,NIGHT_DRIZZLE,SHOWERS,BRIEF_SHOWERS,CLEAR,CLEAR,CLEAR,CLEAR,CLEAR,CLEAR,CLEAR,CLEAR,CLEAR,CLEAR","Offshore,Offshore,Offshore,Offshore,Offshore,Offshore,Offshore,Offshore,Offshore,Offshore,Offshore,Offshore,Offshore,Offshore,Offshore",15
5842041f4e65fad6a77089d1,2024_05_17,42.27916830233153,-70.86498,Nantasket Beach,0.644,0.08544466666666667,0.3906246666666667,11,9,"NIGHT_MIST,NIGHT_MOSTLY_CLOUDY,NIGHT_MOSTLY_CLOUDY,CLEAR,CLEAR,CLEAR,CLEAR,CLEAR,CLEAR,CLEAR,CLEAR,CLEAR,CLEAR,MOSTLY_CLEAR,MIST","Onshore,Onshore,Onshore,Onshore,Onshore,Onshore,Onshore,Onshore,Onshore,Onshore,Onshore,Onshore,Onshore,Onshore,Onshore",15
5842041f4e65fad6a77089d2,2024_05_17,41.817,-69.935,Cape Cod,1,0.81466666666666665,1.1206666666666667,10,10,"NIGHT_MIST,NIGHT_DRIZZLE,NIGHT_DRIZZLE,CLOUDY,CLOUDY,MIST,MIST,MIST,MIST,CLEAR,CLEAR,CLEAR,CLEAR,CLEAR,OVERCAST","Onshore,Onshore,Onshore,Onshore,Cross-shore,Cross-shore,Cross-shore,Cross-shore,Cross-shore,Cross-shore,Cross-shore,Onshore,Onshore,Onshore,Cross-shore",15
5842041f4e65fad6a77089d3,2024_05_17,42.22055448975661,-70.70634873403819,Egypt Beach,1,0.3353333333333333,0.6386666666666667,11,11,"NIGHT_CLEAR,NIGHT_CLEAR,NIGHT_MOSTLY_CLOUDY,CLEAR,CLEAR,CLEAR,CLEAR,CLEAR,CLEAR,CLEAR,CLEAR,CLEAR,CLEAR,CLEAR,CLEAR","Onshore,Onshore,Onshore,Onshore,Onshore,Cross-shore,Onshore,Onshore,Onshore,Onshore,Onshore,Onshore,Onshore,Onshore,Onshore",15
5842041f4e65fad6a77089d4,2024_05_17,41.48739647744607,-71.25723,Second Beach,2.178,0.5332286666666667,0.8092513333333333,11,10,"NIGHT_MIST,NIGHT_CLEAR,NIGHT_CLEAR,MOSTLY_CLEAR,MOSTLY_CLOUDY,CLEAR,CLEAR,CLEAR,CLEAR,CLEAR,CLEAR,CLEAR,CLEAR,CLEAR,CLEAR","Offshore,Offshore,Offshore,Offshore,Offshore,Offshore,Offshore,Offshore,Offshore,Offshore,Offshore,Offshore,Offshore,Offshore,Offshore",15
5842041f4e65fad6a77089d5,2024_05_17,42.964,-70.769,Fox Hill,1.7433333333333334,0.579582,0.926762,11,9,"NIGHT_CLEAR,NIGHT_CLEAR,NIGHT_CLEAR,CLEAR,CLEAR,CLEAR,CLEAR,CLEAR,CLEAR,CLEAR,CLEAR,CLEAR,CLEAR,CLEAR,CLEAR","Offshore,Offshore,Cross-shore,Offshore,Offshore,Cross-shore,Cross-shore,Cross-shore,Cross-shore,Cross-shore,Cross-shore,Cross-shore,Cross-shore,Cross-shore,Cross-shore",15
5842041f4e65fad6a77089d6,2024_05_17,42.991359,-70.75149,Straws Point,1.8113333333333332,0.5976933333333333,0.9449286666666666,11,9,"NIGHT_CLEAR,NIGHT_CLEAR,NIGHT_CLEAR,CLEAR,CLEAR,CLEAR,CLEAR,CLEAR,CLEAR,CLEAR,CLEAR,CLEAR,CLEAR,CLEAR,CLEAR","Offshore,Offshore,Offshore,Offshore,Offshore,Offshore,Cross-shore,Cross-shore,Cross-shore,Cross-shore,Cross-shore,Cross-shore,Cross-shore,Cross-shore,Cross-shore",15
5842041f4e65fad6a77089d7,2024_05_17,42.946,-70.786,Plaice Cove,1.6886666666666668,0.579582,0.926762,11,9,"NIGHT_CLEAR,NIGHT_CLEAR,NIGHT_CLEAR,CLEAR,CLEAR,CLEAR,CLEAR,CLEAR,CLEAR,CLEAR,CLEAR,CLEAR,CLEAR,CLEAR,CLEAR","Cross-shore,Cross-shore,Cross-shore,Cross-shore,Cross-shore,Cross-shore,Onshore,Onshore,Onshore,Onshore,Onshore,Onshore,Onshore,Onshore,Onshore",15
5842041f4e65fad6a77089d9,2024_05_17,42.911574,-70.80831,The Main Beach,1.6113333333333333,0.6350593333333333,0.971618,11,9,"NIGHT_CLEAR,NIGHT_CLEAR,NIGHT_CLEAR,CLEAR,CLEAR,CLEAR,CLEAR,CLEAR,CLEAR,CLEAR,CLEAR,CLEAR,CLEAR,CLEAR,MIST","Offshore,Offshore,Offshore,Offshore,Offshore,Offshore,Offshore,Cross-shore,Cross-shore,Cross-shore,Cross-shore,Cross-shore,Cross-shore,Cross-shore,Cross-shore",15
5842041f4e65fad6a77089da,2024_05_17,42.97583846220203,-70.764,Sawyer's Beach,1.6886666666666668,0.6363046666666666,0.98554,11,9,"NIGHT_CLEAR,NIGHT_CLEAR,NIGHT_CLEAR,CLEAR,CLEAR,CLEAR,CLEAR,CLEAR,CLEAR,CLEAR,CLEAR,CLEAR,CLEAR,CLEAR,CLEAR","Cross-shore,Cross-shore,Cross-shore,Cross-shore,Cross-shore,Cross-shore,Cross-shore,Onshore,Onshore,Onshore,Onshore,Onshore,Onshore,Onshore,Onshore",15
5842041f4e65fad6a77089db,2024_05_17,42.97,-70.77,Rye on the Rocks / 5-0's,1.4773333333333334,0.634786,0.9723393333333333,11,9,"NIGHT_CLEAR,NIGHT_CLEAR,NIGHT_CLEAR,CLEAR,CLEAR,CLEAR,CLEAR,CLEAR,CLEAR,CLEAR,CLEAR,CLEAR,CLEAR,CLEAR,CLEAR","Offshore,Offshore,Cross-shore,Offshore,Offshore,Cross-shore,Cross-shore,Cross-shore,Cross-shore,Cross-shore,Cross-shore,Cross-shore,Cross-shore,Cross-shore,Cross-shore",15
5842041f4e65fad6a77089dc,2024_05_17,43.55902946610303,-70.27795,Higgins Beach,2.255333333333333,0.7014353333333333,1.0406846666666667,11,9,"NIGHT_CLEAR,NIGHT_MIST,NIGHT_MIST,CLEAR,CLEAR,CLEAR,CLEAR,CLEAR,MOSTLY_CLEAR,CLEAR,CLEAR,CLEAR,CLEAR,CLEAR,CLEAR","Offshore,Offshore,Offshore,Offshore,Offshore,Offshore,Cross-shore,Cross-shore,Cross-shore,Cross-shore,Cross-shore,Cross-shore,Cross-shore,Cross-shore,Cross-shore",15
5842041f4e65fad6a77089dd,2024_05_17,43.302676,-70.5652,Wells Beach,2.033333333333333,0.633082,0.981318,11,9,"NIGHT_MIST,NIGHT_MIST,NIGHT_MIST,CLEAR,CLEAR,CLEAR,CLEAR,CLEAR,CLEAR,CLEAR,CLEAR,CLEAR,CLEAR,MIST,MIST","Cross-shore,Cross-shore,Cross-shore,Cross-shore,Cross-shore,Cross-shore,Onshore,Onshore,Onshore,Onshore,Onshore,Onshore,Onshore,Onshore,Onshore",15
5842041f4e65fad6a77089de,2024_05_17,43.545359,-70.30479,Scarborough Beach State Park,2.222,0.6576433333333334,1.04598,11,9,"NIGHT_MIST,NIGHT_MIST,NIGHT_MIST,CLEAR,CLEAR,CLEAR,CLEAR,CLEAR,CLEAR,CLEAR,CLEAR,CLEAR,CLEAR,MOSTLY_CLEAR,MOSTLY_CLEAR","Offshore,Offshore,Offshore,Offshore,Offshore,Cross-shore,Cross-shore,Cross-shore,Onshore,Cross-shore,Cross-shore,Cross-shore,Onshore,Onshore,Cross-shore",15
5842041f4e65fad6a77089df,2024_05_17,43.514481,-70.37215,Old Orchard Beach,2.1746666666666665,0.6775246666666667,1.0332953333333335,11,9,"NIGHT_MIST,NIGHT_MIST,NIGHT_MIST,CLEAR,CLEAR,CLEAR,CLEAR,CLEAR,MIST,CLEAR,CLEAR,MOSTLY_CLEAR,DRIZZLE,MIST,MIST","Offshore,Offshore,Offshore,Offshore,Offshore,Offshore,Cross-shore,Cross-shore,Onshore,Cross-shore,Cross-shore,Cross-shore,Cross-shore,Onshore,Cross-shore",15
5842041f4e65fad6a77089e0,2024_05_17,43.34711,-70.48165,Gooch's Beach,2.6886666666666668,0.6421933333333334,0.9879286666666667,11,9,"NIGHT_CLEAR,NIGHT_CLEAR,NIGHT_CLEAR,CLEAR,CLEAR,CLEAR,CLEAR,CLEAR,CLEAR,CLEAR,CLEAR,CLEAR,CLEAR,CLEAR,CLEAR","Offshore,Offshore,Offshore,Offshore,Offshore,Offshore,Offshore,Offshore,Offshore,Offshore,Offshore,Offshore,Offshore,Offshore,Offshore",15
5842041f4e65fad6a77089e2,2024_05_17,40.58433,-73.62953,Lido Beach,2.6666666666666665,0.6522266666666667,1.1411733333333334,13,12,"NIGHT_CLEAR,NIGHT_MOSTLY_CLOUDY,NIGHT_MOSTLY_CLOUDY,CLEAR,CLEAR,CLEAR,CLEAR,CLEAR,CLEAR,CLEAR,CLEAR,CLEAR,CLEAR,CLEAR,CLEAR","Cross-shore,Cross-shore,Cross-shore,Cross-shore,Cross-shore,Cross-shore,Cross-shore,Cross-shore,Cross-shore,Cross-shore,Cross-shore,Onshore,Cross-shore,Offshore,Offshore",15
5842041f4e65fad6a77089e3,2024_05_17,43.163135,-70.61689,Long Sands Beach,2.263333333333333,0.7043266666666667,1.0657353333333333,11,9,"NIGHT_CLEAR,NIGHT_CLEAR,NIGHT_CLEAR,CLEAR,CLEAR,CLEAR,CLEAR,CLEAR,CLEAR,CLEAR,CLEAR,CLEAR,CLEAR,CLEAR,CLEAR","Offshore,Offshore,Offshore,Offshore,Offshore,Offshore,Offshore,Cross-shore,Cross-shore,Cross-shore,Cross-shore,Cross-shore,Cross-shore,Cross-shore,Offshore",15
5842041f4e65fad6a77089e4,2024_05_17,40.61695351251805,-73.39376,Gilgo Beach,2.0993333333333335,0.5307486666666666,0.9312686666666666,12,11,"NIGHT_CLEAR,NIGHT_MOSTLY_CLEAR,NIGHT_CLEAR,CLEAR,CLEAR,CLEAR,CLEAR,CLEAR,CLEAR,CLEAR,CLEAR,CLEAR,CLEAR,CLEAR,CLEAR","Offshore,Offshore,Offshore,Offshore,Offshore,Offshore,Offshore,Offshore,Offshore,Offshore,Cross-shore,Onshore,Onshore,Onshore,Onshore",15
5842041f4e65fad6a77089e5,2024_05_17,40.62530081928036,-73.23827,Robert Moses,2.1333333333333333,0.584,0.8866666666666666,12,12,"NIGHT_CLEAR,NIGHT_MOSTLY_CLEAR,NIGHT_MOSTLY_CLOUDY,CLEAR,CLEAR,CLEAR,CLEAR,CLEAR,CLEAR,CLEAR,CLEAR,CLEAR,CLEAR,CLEAR,CLEAR","Offshore,Offshore,Offshore,Offshore,Offshore,Offshore,Offshore,Offshore,Offshore,Offshore,Cross-shore,Onshore,Onshore,Onshore,Onshore",15
5842041f4e65fad6a77089e6,2024_05_17,40.64313317632791,-73.15727,Fire Island,2,0.5806666666666667,0.8826666666666667,12,12,"NIGHT_CLEAR,NIGHT_CLEAR,NIGHT_MOSTLY_CLOUDY,CLEAR,CLEAR,CLEAR,CLEAR,CLEAR,CLEAR,CLEAR,CLEAR,CLEAR,CLEAR,CLEAR,CLEAR","Offshore,Offshore,Offshore,Offshore,Offshore,Offshore,Offshore,Offshore,Offshore,Cross-shore,Cross-shore,Onshore,Onshore,Onshore,Onshore",15
5842041f4e65fad6a77089e8,2024_05_17,40.76653118828782,-72.7458,Cupsogue,3,1.006,1.2473333333333334,12,12,"NIGHT_CLEAR,NIGHT_MOSTLY_CLOUDY,NIGHT_MOSTLY_CLOUDY,CLEAR,CLEAR,CLEAR,CLEAR,CLEAR,CLEAR,CLEAR,CLEAR,CLEAR,CLEAR,CLEAR,CLEAR","Offshore,Offshore,Offshore,Offshore,Offshore,Offshore,Offshore,Offshore,Offshore,Offshore,Offshore,Cross-shore,Onshore,Onshore,Onshore",15
