_id,date,lat,lon,name,daily_mean_swell_rating,daily_mean_wave_height_min,daily_mean_wave_height_max,daily_mean_water_temperature_max,daily_mean_water_temperature_min,weather_per_timestamp,wind_per_timestamp,n_samples_per_day
5842041f4e65fad6a77087f9,2024_11_22,37.741668,-122.51038,South Ocean Beach,2.333333333333333,1.9401099999999998,2.48009,12,12,"NIGHT_OVERCAST,RAIN","Offshore,Cross-shore",2
5842041f4e65fad6a7708801,2024_11_22,37.49142,-122.50428,Maverick's,NA,1.34833,1.6301649999999999,12,12,"NIGHT_MIST,OVERCAST","Onshore,Onshore",2
5842041f4e65fad6a7708804,2024_11_22,44.997,-124.018,Roads End,1,2.605,2.93,11.5,11.5,"NIGHT_RAIN,MOSTLY_CLOUDY","Onshore,Cross-shore",2
5842041f4e65fad6a7708805,2024_11_22,36.95188851423011,-122.02522,Steamer Lane,2.833333333333333,1.358875,1.864125,12,12,"NIGHT_MIST,OVERCAST","Onshore,Onshore",2
5842041f4e65fad6a7708806,2024_11_22,36.95918781542251,-122.02489,Cowells,1.9166666666666665,0.49009500000000006,0.797465,12,12,"NIGHT_MIST,OVERCAST","Cross-shore,Onshore",2
5842041f4e65fad6a7708807,2024_11_22,36.95468082526536,-121.97234,Pleasure Point,2.833333333333333,1.06979,1.4185349999999999,12,12,"NIGHT_CLEAR,BRIEF_SHOWERS","Offshore,Onshore",2
5842041f4e65fad6a770880a,2024_11_22,35.37815414378748,-120.86589,Morro Bay,3.5,1.136565,1.39273,12,12,"NIGHT_MOSTLY_CLEAR,CLEAR","Offshore,Onshore",2
5842041f4e65fad6a770880b,2024_11_22,36.95782765000708,-121.96729,Jack's,2.333333333333333,0.57508,0.864805,12,12,"NIGHT_CLEAR,BRIEF_SHOWERS","Offshore,Onshore",2
5842041f4e65fad6a770880d,2024_11_22,34.29982939936656,-119.3489016603669,Gold Coast Beachbreaks,2,0.26,0.565,13.5,13.5,"NIGHT_CLEAR,CLEAR","Offshore,Onshore",2
5842041f4e65fad6a7708811,2024_11_22,34.245076,-119.26799,Ventura Harbor,2.9166666666666665,0.868135,1.155535,13,13,"NIGHT_CLEAR,CLEAR","Onshore,Onshore",2
5842041f4e65fad6a7708813,2024_11_22,34.051,-118.964,County Line,3,0.6197999999999999,0.928065,13,13,"NIGHT_CLEAR,CLEAR","Cross-shore,Cross-shore",2
5842041f4e65fad6a7708814,2024_11_22,34.37256264378892,-119.47797,Rincon,3,0.485,0.79,13,13,"NIGHT_CLEAR,MIST","Onshore,Onshore",2
5842041f4e65fad6a7708817,2024_11_22,34.03096101876324,-118.68109,Malibu Third Point,2,0.314255,0.6125700000000001,15,15,"NIGHT_CLEAR,CLEAR","Cross-shore,Onshore",2
5842041f4e65fad6a7708819,2024_11_22,33.984079047970035,-118.47382,Venice Beach,3,0.61239,0.9836050000000001,14,14,"NIGHT_MIST,CLEAR","Offshore,Onshore",2
5842041f4e65fad6a770881e,2024_11_22,34.037508438646746,-118.5834,Topanga Beach,3.4166666666666665,0.8267249999999999,1.17161,14,14,"NIGHT_CLEAR,CLEAR","Onshore,Onshore",2
5842041f4e65fad6a7708820,2024_11_22,33.73954373690184,-118.11414,Seal Beach Jetty,3,0.46499999999999997,0.775,14,14,"NIGHT_CLEAR,CLEAR","Offshore,Onshore",2
5842041f4e65fad6a7708822,2024_11_22,33.72309983348433,-118.08078,Anderson Street,1.5,0.28428,0.5242,14,14,"NIGHT_CLEAR,MOSTLY_CLEAR","Offshore,Onshore",2
5842041f4e65fad6a7708827,2024_11_22,33.65574085629463,-118.00397,Huntington Beach Pier Northside,2.9166666666666665,0.80967,1.17835,14,14,"NIGHT_CLEAR,CLEAR","Offshore,Onshore",2
5842041f4e65fad6a7708828,2024_11_22,34.272041739333,-119.29976,C St.,3,0.722025,1.02658,13,13,"NIGHT_CLEAR,MIST","Offshore,Onshore",2
5842041f4e65fad6a770882a,2024_11_22,33.61555743705257,-117.93676,Newport Lower Jetties,3,0.554985,0.9518500000000001,14,14,"NIGHT_CLEAR,MOSTLY_CLOUDY","Offshore,Onshore",2
5842041f4e65fad6a770882b,2024_11_22,33.5930302087,-117.88199,The Wedge,1.9166666666666665,0.38375000000000004,0.6346499999999999,14,14,"NIGHT_MOSTLY_CLOUDY,CLEAR","Offshore,Onshore",2
5842041f4e65fad6a770882e,2024_11_22,33.475793399792984,-117.72291,Salt Creek,2.9166666666666665,0.82246,1.1658499999999998,14,14,"NIGHT_CLEAR,BRIEF_SHOWERS_POSSIBLE","Cross-shore,Onshore",2
5842041f4e65fad6a7708830,2024_11_22,33.41800974113613,-117.61952,T-Street,2.9166666666666665,0.7577050000000001,1.13727,14,14,"NIGHT_CLEAR,BRIEF_SHOWERS_POSSIBLE","Cross-shore,Onshore",2
5842041f4e65fad6a7708832,2024_11_22,33.202391008646,-117.39475,Oceanside Harbor,2.9166666666666665,0.70746,0.997505,15,15,"NIGHT_CLEAR,MIST","Offshore,Onshore",2
5842041f4e65fad6a7708835,2024_11_22,33.19477795952803,-117.38667,Oceanside Pier,3,0.483495,0.881735,15,15,"NIGHT_CLEAR,CLEAR","Offshore,Onshore",2
5842041f4e65fad6a7708837,2024_11_22,33.14948100706,-117.35029,Tamarack,3,0.472905,0.843035,15,15,"NIGHT_CLEAR,MIST","Offshore,Onshore",2
5842041f4e65fad6a7708839,2024_11_22,32.865777159358856,-117.25614,Scripps,3,0.883025,1.29414,15,15,"NIGHT_MOSTLY_CLOUDY,MIST","Offshore,Onshore",2
5842041f4e65fad6a770883a,2024_11_22,32.813094,-117.27381,Birdrock,3,0.62,0.925,15.5,15.5,"NIGHT_CLEAR,CLEAR","Offshore,Onshore",2
5842041f4e65fad6a770883b,2024_11_22,32.88338,-117.25571,Blacks,3,0.9655,1.26,15,15,"NIGHT_MOSTLY_CLOUDY,MIST","Onshore,Onshore",2
5842041f4e65fad6a770883c,2024_11_22,32.82978974229765,-117.28162,Windansea,3,0.882665,1.1898300000000002,15,15,"NIGHT_MOSTLY_CLOUDY,CLEAR","Offshore,Onshore",2
5842041f4e65fad6a770883d,2024_11_22,32.838278,-117.28396,Horseshoe,2.5,0.815,1.05,16,16,"NIGHT_MOSTLY_CLOUDY,CLEAR","Offshore,Onshore",2
5842041f4e65fad6a770883f,2024_11_22,32.75034717673179,-117.25337,Ocean Beach,3,0.83368,1.176855,15,15,"NIGHT_MIST,MIST","Cross-shore,Onshore",2
5842041f4e65fad6a7708840,2024_11_22,32.73693,-117.25718,Sunset Cliffs,2,0.671685,0.978985,15.5,15.5,"NIGHT_MIST,CLEAR","Cross-shore,Onshore",2
5842041f4e65fad6a7708841,2024_11_22,32.796582258728826,-117.25779,Pacific Beach,3,0.8099449999999999,1.176075,15,15,"NIGHT_MIST,CLEAR","Offshore,Onshore",2
5842041f4e65fad6a7708842,2024_11_22,32.776636,-117.25514,Mission Beach,3,0.796835,1.134035,15,15,"NIGHT_MIST,CLEAR","Offshore,Onshore",2
5842041f4e65fad6a7708844,2024_11_22,32.577195519016,-117.13475,Imperial Beach Pier,3,0.94,1.125,15,15,"NIGHT_CLEAR,CLEAR","Cross-shore,Onshore",2
5842041f4e65fad6a770884a,2024_11_22,42.88678181061,-70.80843,Seabrook,0.6666666666666666,1.36832,1.9116033333333333,11,9,"NIGHT_LIGHT_RAIN,MOSTLY_CLOUDY,CLEAR","Onshore,Onshore,Onshore",3
5842041f4e65fad6a770884e,2024_11_22,41.434181432898335,-71.45312,Narragansett,0.888888888888889,0.5608,0.9092666666666667,12.666666666666666,12,"NIGHT_OVERCAST,BRIEF_SHOWERS,CLEAR","Onshore,Onshore,Onshore",3
5842041f4e65fad6a7708850,2024_11_22,40.582703230722,-73.65247,Lincoln Blvd,0.7777777777777778,0.51252,0.9149666666666667,13.666666666666666,12.666666666666666,"NIGHT_MOSTLY_CLOUDY,LIGHT_SHOWERS_POSSIBLE,DRIZZLE","Onshore,Onshore,Onshore",3
5842041f4e65fad6a7708852,2024_11_22,40.58342841721757,-73.81182,Rockaways,0.5555555555555556,0.50085,0.8099433333333333,13.666666666666666,12.666666666666666,"NIGHT_CLEAR,BRIEF_SHOWERS_POSSIBLE,BRIEF_SHOWERS_POSSIBLE","Cross-shore,Onshore,Onshore",3
5842041f4e65fad6a7708853,2024_11_22,40.330474,-73.9734,Monmouth Beach,0.6666666666666666,0.19194666666666665,0.49182333333333333,12.666666666666666,12.333333333333334,"NIGHT_CLEAR,CLEAR,CLEAR","Offshore,Offshore,Cross-shore",3
5842041f4e65fad6a7708856,2024_11_22,40.113,-74.028,Manasquan Inlet,1.3333333333333333,0.23041,0.5549333333333333,12.666666666666666,12.333333333333334,"NIGHT_CLEAR,CLEAR,CLEAR","Offshore,Offshore,Offshore",3
5842041f4e65fad6a7708857,2024_11_22,39.941519877445664,-74.06829,Casino Pier,1.4444444444444444,0.2462333333333333,0.55771,12.666666666666666,12.333333333333334,"NIGHT_CLEAR,CLEAR,CLEAR","Offshore,Offshore,Cross-shore",3
5842041f4e65fad6a7708858,2024_11_22,39.28223089949212,-74.55766,North End OC,1,0.04666666666666667,0.35333333333333333,12.666666666666666,12.333333333333334,"NIGHT_CLEAR,CLEAR,MOSTLY_CLOUDY","Offshore,Cross-shore,Cross-shore",3
5842041f4e65fad6a770885b,2024_11_22,39.65080599934257,-74.17146,Ship Bottom,1.8888888888888888,0.5710766666666667,0.8921033333333334,14.333333333333334,14.333333333333334,"NIGHT_CLEAR,CLEAR,CLEAR","Offshore,Cross-shore,Cross-shore",3
5842041f4e65fad6a7708863,2024_11_22,36.034151543144,-75.66791,Third Street,1,0.23863333333333334,0.5450433333333333,17,16.666666666666668,"NIGHT_CLEAR,CLEAR,CLEAR","Offshore,Offshore,Offshore",3
5842041f4e65fad6a7708867,2024_11_22,35.605833221351425,-75.46303,S-Turns,1.1111111111111112,0.3244,0.62761,17.666666666666668,16.666666666666668,"NIGHT_CLEAR,CLEAR,CLEAR","Offshore,Offshore,Offshore",3
5842041f4e65fad6a770886d,2024_11_22,38.338461,-75.08117,Ocean City Boardwalk,0.8888888888888888,0.09143333333333334,0.3918333333333333,15.333333333333334,13.666666666666666,"NIGHT_CLEAR,CLEAR,CLEAR","Offshore,Offshore,Offshore",3
5842041f4e65fad6a770886f,2024_11_22,29.844757212379562,-81.26136,A St.,1,0.006666666666666667,0.3,23.666666666666668,23.666666666666668,"NIGHT_CLEAR,CLEAR,CLEAR","Offshore,Offshore,Offshore",3
5842041f4e65fad6a7708871,2024_11_22,29.069417851135093,-80.90824,New Smyrna Beach,2,0.5875333333333334,0.93759,24,23,"NIGHT_CLEAR,CLEAR,CLEAR","Offshore,Offshore,Offshore",3
5842041f4e65fad6a7708872,2024_11_22,28.367707417566,-80.60171,Cocoa Beach Pier,1,0,0.28154666666666667,23.666666666666668,23.666666666666668,"NIGHT_CLEAR,CLEAR,CLEAR","Offshore,Offshore,Offshore",3
5842041f4e65fad6a7708873,2024_11_22,28.091782738658846,-80.56479,Indialantic,0.9999999999999999,0.27682,0.5897533333333334,24,23.666666666666668,"NIGHT_CLEAR,CLEAR,CLEAR","Offshore,Offshore,Offshore",3
5842041f4e65fad6a7708876,2024_11_22,27.25392904143517,-80.19455,Jensen Beach,1.1111111111111112,0.6000333333333333,0.9467566666666667,26,25.333333333333332,"NIGHT_CLEAR,CLEAR,CLEAR","Cross-shore,Offshore,Offshore",3
5842041f4e65fad6a7708879,2024_11_22,26.76346795333825,-80.03607,Reef Road,3.3333333333333335,0.6598233333333333,1.0771233333333332,25.666666666666668,25.333333333333332,"NIGHT_CLEAR,CLEAR,CLEAR","Offshore,Offshore,Offshore",3
5842041f4e65fad6a770887c,2024_11_22,26.336499228484,-80.06956100463,Boca Raton Inlet,1.3888888888888888,0.21946666666666667,0.5228233333333333,26.666666666666668,26,"NIGHT_CLEAR,CLEAR,CLEAR","Offshore,Offshore,Offshore",3
5842041f4e65fad6a770887d,2024_11_22,26.31719311695038,-80.07453,Deerfield Beach Pier,2.111111111111111,0.4346966666666667,0.7382233333333333,27.666666666666668,27,"NIGHT_CLEAR,CLEAR,CLEAR","Offshore,Offshore,Offshore",3
5842041f4e65fad6a7708881,2024_11_22,30.20276320866628,-85.85626528676136,"Spyglass Dr., Panama City",1,0.5642433333333333,0.8706233333333333,21,20.333333333333332,"NIGHT_CLEAR,CLEAR,CLEAR","Offshore,Offshore,Offshore",3
5842041f4e65fad6a7708884,2024_11_22,33.39000832738053,-117.59852,Cottons,3,0.7587349999999999,1.066885,14,14,"NIGHT_MIST,CLEAR","Cross-shore,Onshore",2
5842041f4e65fad6a7708885,2024_11_22,33.359416282661,-117.54168,Trails,2.5,0.495,0.8,15,15,"NIGHT_CLEAR,CLEAR","Cross-shore,Onshore",2
5842041f4e65fad6a7708886,2024_11_22,33.38042605929805,-117.58332,Middles,3,0.59,0.89,15,15,"NIGHT_MIST,CLEAR","Onshore,Onshore",2
5842041f4e65fad6a7708887,2024_11_22,33.38445596302903,-117.59445,Upper Trestles,3,0.7828999999999999,1.09605,14,14,"NIGHT_MIST,CLEAR","Onshore,Onshore",2
5842041f4e65fad6a7708889,2024_11_22,28.944414,-95.28883,Surfside,1,0,0.25131000000000003,24,24,"NIGHT_CLEAR,CLEAR","Offshore,Cross-shore",2
5842041f4e65fad6a770888a,2024_11_22,33.38143999849023,-117.58843,Lower Trestles,2.9166666666666665,0.80455,1.21865,14,14,"NIGHT_MIST,CLEAR","Onshore,Onshore",2
5842041f4e65fad6a770888b,2024_11_22,33.379622288757,-117.57894,Church,2.5833333333333335,0.63193,0.995465,14,14,"NIGHT_MIST,CLEAR","Cross-shore,Onshore",2
5842041f4e65fad6a770888d,2024_11_22,21.679,-158.042,Sunset Beach,3.6666666666666665,1.1064433333333334,1.345,26,25,"NIGHT_MOSTLY_CLOUDY,NIGHT_MOSTLY_CLEAR,CLOUDY","Offshore,Offshore,Cross-shore",3
5842041f4e65fad6a770888e,2024_11_22,21.670550036401,-158.0482,Rocky Point,3.1666666666666665,1.0640166666666666,1.5109466666666667,26,25,"NIGHT_CLEAR,NIGHT_MOSTLY_CLEAR,CLEAR","Offshore,Offshore,Cross-shore",3
5842041f4e65fad6a770888f,2024_11_22,21.668,-158.05,Chambers,3.6666666666666665,1.19192,1.6766333333333334,26,26,"NIGHT_CLEAR,NIGHT_MOSTLY_CLEAR,CLEAR","Offshore,Offshore,Cross-shore",3
5842041f4e65fad6a7708890,2024_11_22,21.66522,-158.0526,Pipeline,2.1666666666666665,1.1159933333333334,1.4938066666666667,26,25,"NIGHT_CLEAR,NIGHT_MOSTLY_CLEAR,CLEAR","Offshore,Offshore,Offshore",3
5842041f4e65fad6a7708891,2024_11_22,21.665,-158.054,Backdoor,3.1666666666666665,0.8834433333333334,1.2610000000000001,26,25,"NIGHT_CLEAR,NIGHT_MOSTLY_CLEAR,CLEAR","Offshore,Offshore,Cross-shore",3
5842041f4e65fad6a7708892,2024_11_22,21.662,-158.057,Rockpile,3.6666666666666665,1.2333333333333334,1.47,26,26,"NIGHT_CLEAR,NIGHT_MOSTLY_CLEAR,CLEAR","Offshore,Offshore,Offshore",3
5842041f4e65fad6a7708893,2024_11_22,21.65870453806827,-158.06058,Log Cabins,3,0.8933333333333333,1.1966666666666668,26,26,"NIGHT_CLEAR,NIGHT_MOSTLY_CLEAR,CLEAR","Offshore,Offshore,Cross-shore",3
5842041f4e65fad6a7708894,2024_11_22,21.66203493640557,-158.05495,Off-The-Wall,3.6666666666666665,0.99,1.2366666666666666,26,26,"NIGHT_CLEAR,NIGHT_MOSTLY_CLEAR,CLEAR","Offshore,Offshore,Offshore",3
5842041f4e65fad6a7708895,2024_11_22,21.643,-158.067,Waimea Bay,NA,1.1314433333333334,1.3722233333333334,26,25,"NIGHT_CLEAR,NIGHT_MOSTLY_CLEAR,CLEAR","Offshore,Offshore,Offshore",3
5842041f4e65fad6a7708896,2024_11_22,21.622,-158.087,Hultin's,3,0.9947766666666666,1.2405566666666668,26,25,"NIGHT_CLEAR,NIGHT_CLEAR,CLEAR","Offshore,Offshore,Offshore",3
5842041f4e65fad6a7708897,2024_11_22,21.623,-158.085,Jocko's,3,1.0981666666666667,1.4214366666666667,26,26,"NIGHT_CLEAR,NIGHT_CLEAR,CLEAR","Cross-shore,Cross-shore,Cross-shore",3
5842041f4e65fad6a7708898,2024_11_22,21.62,-158.088,Laniakea,3.1666666666666665,0.9808899999999999,1.2427766666666666,26,25,"NIGHT_CLEAR,NIGHT_CLEAR,CLEAR","Offshore,Offshore,Offshore",3
5842041f4e65fad6a7708899,2024_11_22,21.625,-158.083,Chun's,3,0.89,1.1966666666666668,26,26,"NIGHT_CLEAR,NIGHT_CLEAR,CLEAR","Offshore,Offshore,Offshore",3
5842041f4e65fad6a770889c,2024_11_22,21.286357895152136,-157.8515,Ala Moana Beach Park,2,0.22666666666666666,0.53,26,26,"NIGHT_CLEAR,NIGHT_MOSTLY_CLOUDY,CLEAR","Offshore,Offshore,Offshore",3
5842041f4e65fad6a770889d,2024_11_22,19.606,-155.978,Banyans,1.7777777777777777,0.21507666666666667,0.52321,26,25,"NIGHT_CLEAR,NIGHT_MIST,CLEAR","Cross-shore,Cross-shore,Onshore",3
5842041f4e65fad6a770889e,2024_11_22,20.029,-155.831,Kawaihae,2,0.4444,0.5170466666666667,26,26,"NIGHT_LIGHT_SHOWERS_POSSIBLE,NIGHT_CLEAR,CLEAR","Onshore,Cross-shore,Onshore",3
5842041f4e65fad6a770889f,2024_11_22,33.07541383424675,-117.3105,Grandview,3,0.6207199999999999,1.017375,15,15,"NIGHT_CLEAR,MIST","Onshore,Onshore",2
5842041f4e65fad6a77088a0,2024_11_22,33.065267421296596,-117.30577,Beacons,3,0.808335,1.21108,15,15,"NIGHT_CLEAR,MIST","Onshore,Onshore",2
5842041f4e65fad6a77088a2,2024_11_22,21.252,-157.805,Diamond Head,2.1666666666666665,0.5134433333333334,0.8359300000000001,26,25,"NIGHT_CLEAR,NIGHT_CLEAR,CLOUDY","Cross-shore,Cross-shore,Offshore",3
5842041f4e65fad6a77088a3,2024_11_22,33.04694255008896,-117.29966,Moonlight State Beach,2.5,0.575,0.875,15,15,"NIGHT_CLEAR,MIST","Offshore,Onshore",2
5842041f4e65fad6a77088a5,2024_11_22,33.08685865930869,-117.31532,Ponto,3,0.853585,1.2335500000000001,15,15,"NIGHT_CLEAR,MIST","Offshore,Onshore",2
5842041f4e65fad6a77088a6,2024_11_22,33.130343587871906,-117.33668,Terra Mar Point,2.5,0.481305,0.8564400000000001,15,15,"NIGHT_MOSTLY_CLEAR,CLEAR","Offshore,Onshore",2
5842041f4e65fad6a77088af,2024_11_22,32.95916304183685,-117.26963,Del Mar,3,0.705445,1.0100850000000001,15,15,"NIGHT_CLEAR,MIST","Offshore,Onshore",2
5842041f4e65fad6a77088b0,2024_11_22,32.97527261243354,-117.2721061331305,Del Mar Rivermouth,3,0.675,0.98,15,15,"NIGHT_CLEAR,MIST","Offshore,Onshore",2
5842041f4e65fad6a77088b1,2024_11_22,33.01352178146273,-117.28219,Cardiff Reef,2.9166666666666665,0.85857000000000006,1.148615,15,15,"NIGHT_CLEAR,MIST","Offshore,Onshore",2
5842041f4e65fad6a77088b3,2024_11_22,33.00211185876003,-117.2811,Seaside Reef,3,0.665,0.975,15,15,"NIGHT_CLEAR,MIST","Offshore,Onshore",2
5842041f4e65fad6a77088b4,2024_11_22,33.0341859796287,-117.29552,Swami's,3,0.764015,1.08386,15,15,"NIGHT_CLEAR,MIST","Offshore,Onshore",2
5842041f4e65fad6a77088b7,2024_11_22,33.04569760260221,-117.2994,D Street,3,0.82771,1.22073,15,15,"NIGHT_CLEAR,MIST","Offshore,Onshore",2
5842041f4e65fad6a77088b8,2024_11_22,33.02090944350196,-117.28535,San Elijo State Beach,2.5833333333333335,0.48343499999999995,0.86434,15,15,"NIGHT_CLEAR,MIST","Offshore,Onshore",2
5842041f4e65fad6a77088c2,2024_11_22,32.80662846492798,-117.26888,PB Point,3,0.655,0.96,15.5,15.5,"NIGHT_CLEAR,CLEAR","Offshore,Cross-shore",2
5842041f4e65fad6a77088c4,2024_11_22,32.8060476681448,-117.26479,Old Man's at Tourmaline,2.5,0.37990999999999997,0.6929449999999999,15.5,15.5,"NIGHT_CLEAR,CLEAR","Offshore,Cross-shore",2
5842041f4e65fad6a77088cb,2024_11_22,32.557056711256,-117.1327445020322,Tijuana Slough,2.5,0.45999999999999996,0.77,15,15,"NIGHT_CLEAR,CLEAR","Offshore,Onshore",2
5842041f4e65fad6a77088cc,2024_11_22,32.863,-117.257,La Jolla Shores,3,0.575,0.88,15.5,15.5,"NIGHT_MOSTLY_CLOUDY,MIST","Cross-shore,Onshore",2
5842041f4e65fad6a77088ce,2024_11_22,32.67443657790586,-117.17421,Coronado Beach,2,0.27,0.5800000000000001,15,15,"NIGHT_CLEAR,CLEAR","Offshore,Cross-shore",2
5842041f4e65fad6a77088cf,2024_11_22,33.40484417640326,-117.60749,San Clemente State Beach,3,0.445,0.75,15,15,"NIGHT_MIST,CLEAR","Cross-shore,Onshore",2
5842041f4e65fad6a77088d5,2024_11_22,33.4663042002114,-117.7168352817103,Strands,3,0.7454000000000001,1.11237,14,14,"NIGHT_CLEAR,BRIEF_SHOWERS_POSSIBLE","Cross-shore,Onshore",2
5842041f4e65fad6a77088d7,2024_11_22,33.4609858001748,-117.68535,Doheny State Beach,2.4166666666666665,0.36806500000000003,0.670625,14,14,"NIGHT_CLEAR,CLEAR","Cross-shore,Onshore",2
5842041f4e65fad6a77088dc,2024_11_22,33.50894790083017,-117.75243,Aliso Creek,3,0.375,0.6799999999999999,15,15,"NIGHT_CLEAR,BRIEF_SHOWERS_POSSIBLE","Offshore,Onshore",2
5842041f4e65fad6a77088dd,2024_11_22,33.5326591767067,-117.77764,Brooks Street,2,0.28500000000000003,0.59,15,15,"NIGHT_CLEAR,BRIEF_SHOWERS_POSSIBLE","Offshore,Onshore",2
5842041f4e65fad6a77088de,2024_11_22,33.53561225884637,-117.7799,Thalia Street,2,0.3,0.6,15,15,"NIGHT_CLEAR,BRIEF_SHOWERS_POSSIBLE","Offshore,Onshore",2
5842041f4e65fad6a77088e3,2024_11_22,33.54268310353641,-117.7916,Rockpile,2,0.28500000000000003,0.59,15,15,"NIGHT_CLEAR,BRIEF_SHOWERS_POSSIBLE","Offshore,Onshore",2
5842041f4e65fad6a77088e4,2024_11_22,33.7368459504689,-118.10342,"Seal Beach Pier, Southside",3,0.545,0.85,15,15,"NIGHT_CLEAR,MIST","Offshore,Onshore",2
5842041f4e65fad6a77088e5,2024_11_22,33.73933701820233,-118.117,Ray Bay,2.5,0.5,0.805,15,15,"NIGHT_CLEAR,CLEAR","Offshore,Onshore",2
5842041f4e65fad6a77088e7,2024_11_22,33.728733,-118.08982,Surfside,1,0,0.24,15,15,"NIGHT_CLEAR,MOSTLY_CLEAR","Offshore,Onshore",2
5842041f4e65fad6a77088e8,2024_11_22,33.68760321488161,-118.04236,Bolsa Chica State Beach,3,0.615705,0.9902150000000001,14,14,"NIGHT_CLEAR,CLEAR","Offshore,Offshore",2
5842041f4e65fad6a77088ea,2024_11_22,33.66704400178788,-118.0192,North HB Streets,3,0.77435,1.080735,14,14,"NIGHT_CLEAR,CLEAR","Offshore,Onshore",2
5842041f4e65fad6a77088ed,2024_11_22,33.65475101379567,-118.00291,Huntington Beach Pier Southside,3,0.817685,1.179235,14,14,"NIGHT_CLEAR,CLEAR","Offshore,Onshore",2
5842041f4e65fad6a77088ee,2024_11_22,33.62778647706099,-117.95939,River Jetties,2.9166666666666665,0.806235,1.17185,14,14,"NIGHT_CLEAR,MOSTLY_CLOUDY","Offshore,Onshore",2
5842041f4e65fad6a77088f2,2024_11_22,33.605165797643664,-117.925,Newport Point,2,0.15500000000000003,0.46499999999999997,15,15,"NIGHT_CLEAR,BRIEF_SHOWERS_POSSIBLE","Cross-shore,Onshore",2
5842041f4e65fad6a77088f3,2024_11_22,33.58982984726977,-117.87713,Corona del Mar,2.5,0.29000000000000004,0.6,15,15,"NIGHT_CLEAR,BRIEF_SHOWERS","Offshore,Cross-shore",2
5842041f4e65fad6a77088f7,2024_11_22,34.00750300824362,-118.49718,Santa Monica Pier,2,0.31,0.615,15,15,"NIGHT_CLEAR,CLEAR","Offshore,Onshore",2
5842041f4e65fad6a77088ff,2024_11_22,33.94070283102945,-118.44321,Dockweiler Beach,3,0.891465,1.236335,14,14,"NIGHT_CLEAR,CLEAR","Cross-shore,Onshore",2
5842041f4e65fad6a7708900,2024_11_22,33.9231846937237,-118.4341465777908,Shitpipe,3,0.978135,1.316335,14,14,"NIGHT_CLEAR,CLEAR","Onshore,Onshore",2
5842041f4e65fad6a7708902,2024_11_22,33.9108528052242,-118.4279133138721,Hammerland,3,0.978135,1.316335,14,14,"NIGHT_CLEAR,CLEAR","Onshore,Onshore",2
5842041f4e65fad6a7708904,2024_11_22,33.87201368173932,-118.40752,Hermosa Beach,3,0.6564,0.931095,15,15,"NIGHT_MIST,CLEAR","Onshore,Onshore",2
5842041f4e65fad6a7708906,2024_11_22,33.90129336911256,-118.42184,El Porto,3,0.98819,1.2512050000000001,14,14,"NIGHT_BRIEF_SHOWERS_POSSIBLE,CLEAR","Onshore,Onshore",2
5842041f4e65fad6a7708907,2024_11_22,33.87963506431794,-118.41102,Manhattan Beach Pier,3,0.794945,1.02807,15,15,"NIGHT_BRIEF_SHOWERS_POSSIBLE,CLEAR","Onshore,Onshore",2
5842041f4e65fad6a7708914,2024_11_22,34.038053387863464,-118.5532,Sunset Point,2.5,0.28,0.585,15,15,"NIGHT_CLEAR,MIST","Onshore,Onshore",2
5842041f4e65fad6a7708920,2024_11_22,33.80282,-118.39989,Haggerty's,3,0.42,0.668,15,15,"NIGHT_BRIEF_SHOWERS,CLEAR","Cross-shore,Cross-shore",2
5842041f4e65fad6a7708921,2024_11_22,33.85044519861206,-118.40048,Redondo Breakwater,3,0.6542399999999999,0.956985,15,15,"NIGHT_MIST,CLEAR","Onshore,Onshore",2
5842041f4e65fad6a7708927,2024_11_22,33.70877301002487,-118.2840112858389,Cabrillo Beach,3,0.335,0.64,15,15,"NIGHT_CLEAR,CLEAR","Offshore,Offshore",2
5842041f4e65fad6a770892c,2024_11_22,33.77209986806257,-118.4268428476672,Lunada Bay,2,0.98,1.0750000000000002,15,15,"NIGHT_BRIEF_SHOWERS,MIST","Onshore,Onshore",2
5842041f4e65fad6a770892d,2024_11_22,33.79294656286144,-118.40703,PV Cove,2.5,0.525,0.835,15,15,"NIGHT_BRIEF_SHOWERS,CLEAR","Onshore,Onshore",2
5842041f4e65fad6a7708930,2024_11_22,34.03944902292561,-118.57539,Chart House,1,0,0.255,15,15,"NIGHT_CLEAR,CLEAR","Onshore,Onshore",2
5842041f4e65fad6a7708936,2024_11_22,34.0016731994772,-118.80456,Point Dume,2.0833333333333335,0.1666,0.4732,14,14,"NIGHT_CLEAR,BRIEF_SHOWERS_POSSIBLE","Cross-shore,Onshore",2
5842041f4e65fad6a7708937,2024_11_22,34.02587527588963,-118.7554939066114,Latigo Point,2,0.09,0.4,15,15,"NIGHT_CLEAR,MIST","Offshore,Onshore",2
5842041f4e65fad6a770893f,2024_11_22,34.043762,-118.93294,Leo Carrillo,3,0.6448,0.943065,13,13,"NIGHT_CLEAR,MIST","Cross-shore,Cross-shore",2
5842041f4e65fad6a7708941,2024_11_22,36.69388179265737,-121.81289,Marina State Beach,4,1.5350000000000001,1.815,12.5,12.5,"NIGHT_CLEAR,CLEAR","Offshore,Offshore",2
5842041f4e65fad6a7708944,2024_11_22,34.34145077331085,-119.416999352654,Stanley's,3,0.405,0.705,13,13,"NIGHT_CLEAR,CLEAR","Offshore,Onshore",2
5842041f4e65fad6a7708945,2024_11_22,34.35113017313915,-119.426921498899,Oil Piers,2.5,0.405,0.705,13,13,"NIGHT_CLEAR,CLEAR","Offshore,Onshore",2
5842041f4e65fad6a770894c,2024_11_22,34.17876333306018,-119.23995,Oxnard,3,0.51,0.815,14,14,"NIGHT_CLEAR,CLEAR","Onshore,Onshore",2
5842041f4e65fad6a7708957,2024_11_22,34.31720331100517,-119.3882324751725,Pitas Point,2.5,0.395,0.7,13,13,"NIGHT_CLEAR,MIST","Offshore,Onshore",2
5842041f4e65fad6a7708959,2024_11_22,34.27851754384724,-119.3162,Emma Wood,3,0.49,0.7949999999999999,14,14,"NIGHT_CLEAR,MIST","Offshore,Onshore",2
5842041f4e65fad6a770895a,2024_11_22,34.35513640390276,-119.4400589884255,Mussel Shoals (aka Little Rincon),3,0.445,0.75,13,13,"NIGHT_CLEAR,CLEAR","Offshore,Onshore",2
5842041f4e65fad6a770895e,2024_11_22,34.28991757054902,-119.3366646794652,Summer Beach,2,0.26,0.565,14,14,"NIGHT_CLEAR,MIST","Cross-shore,Onshore",2
5842041f4e65fad6a770895f,2024_11_22,34.30897456105926,-119.3582501170116,Solimar,2,0.26,0.565,13,13,"NIGHT_CLEAR,MIST","Offshore,Onshore",2
5842041f4e65fad6a7708960,2024_11_22,34.39836265281686,-119.70213,Leadbetter Point,1,0,0.275,14,14,"NIGHT_MOSTLY_CLEAR,CLEAR","Offshore,Onshore",2
5842041f4e65fad6a7708961,2024_11_22,34.46052293893899,-120.07328,Refugio,2,0.125,0.43,13.5,13.5,"NIGHT_CLEAR,CLEAR","Offshore,Onshore",2
5842041f4e65fad6a7708962,2024_11_22,34.40754276777778,-119.87639,Devereux,2,0.24,0.55,14,14,"NIGHT_CLEAR,CLEAR","Cross-shore,Onshore",2
5842041f4e65fad6a7708963,2024_11_22,34.27479983305182,-119.3133222656776,Ventura Overhead,3,0.49,0.7949999999999999,14,14,"NIGHT_CLEAR,MIST","Offshore,Onshore",2
5842041f4e65fad6a7708964,2024_11_22,34.41023236011655,-119.88261,Sands,2,0.22999999999999998,0.535,14,14,"NIGHT_CLEAR,CLEAR","Offshore,Cross-shore",2
5842041f4e65fad6a7708966,2024_11_22,34.40450193869233,-119.68752,Sandspit,1,0,0.275,14,14,"NIGHT_MOSTLY_CLEAR,CLEAR","Offshore,Onshore",2
5842041f4e65fad6a7708967,2024_11_22,34.41549098334453,-119.6375149840203,Hammond's,2,0.13,0.435,14,14,"NIGHT_CLEAR,CLEAR","Offshore,Onshore",2
5842041f4e65fad6a7708968,2024_11_22,34.45759322742309,-120.02203,El Capitan,2,0.15000000000000002,0.45999999999999996,13.5,13.5,"NIGHT_CLEAR,CLEAR","Offshore,Onshore",2
5842041f4e65fad6a770896c,2024_11_22,34.405117655616,-119.84317,Campus Point,2,0.22999999999999998,0.535,14,14,"NIGHT_CLEAR,CLEAR","Onshore,Onshore",2
5842041f4e65fad6a770896e,2024_11_22,34.38935162233354,-119.51955,Carpinteria State Beach,3,0.35,0.66,13,13,"NIGHT_CLEAR,MIST","Offshore,Cross-shore",2
5842041f4e65fad6a770896f,2024_11_22,37.48296565175612,-122.45493,Half Moon Bay,1,2.305,2.49,12.5,12.5,"NIGHT_OVERCAST,OVERCAST","Onshore,Onshore",2
5842041f4e65fad6a7708970,2024_11_22,37.499,-122.471,Princeton Jetty,1,1.5550000000000002,1.8599999999999999,12.5,12.5,"NIGHT_OVERCAST,OVERCAST","Onshore,Onshore",2
5842041f4e65fad6a7708972,2024_11_22,37.35699547365155,-122.4069534707252,Tunitas Creek,1,2.36,2.8,12.5,12.5,"NIGHT_CLEAR,BRIEF_SHOWERS","Cross-shore,Cross-shore",2
5842041f4e65fad6a7708974,2024_11_22,37.54735589428842,-122.51611,Montara,2,2.0700000000000003,2.375,12.5,12.5,"NIGHT_OVERCAST,OVERCAST","Offshore,Offshore",2
5842041f4e65fad6a7708975,2024_11_22,34.3869373724559,-119.5142334209018,Tarpits,2.5,0.38,0.69,13,13,"NIGHT_CLEAR,CLEAR","Cross-shore,Onshore",2
5842041f4e65fad6a7708976,2024_11_22,37.59881852720143,-122.50463,Linda Mar,2.0833333333333335,0.8683000000000001,1.167415,12,12,"NIGHT_BRIEF_SHOWERS_POSSIBLE,LIGHT_RAIN","Offshore,Offshore",2
5842041f4e65fad6a7708978,2024_11_22,37.59883098461164,-122.5143843582282,Pedro Point,3,2.075,2.385,12.5,12.5,"NIGHT_OVERCAST,LIGHT_RAIN","Offshore,Offshore",2
5842041f4e65fad6a7708979,2024_11_22,37.61081996647663,-122.49733,Rockaway,3,1.9949999999999999,2.335,12.5,12.5,"NIGHT_BRIEF_SHOWERS_POSSIBLE,LIGHT_RAIN","Offshore,Offshore",2
5842041f4e65fad6a770897a,2024_11_22,37.809987384424446,-122.47514,Fort Point,3,1.3,1.5550000000000002,13,13,"NIGHT_OVERCAST,LIGHT_RAIN","Onshore,Onshore",2
5842041f4e65fad6a770897c,2024_11_22,37.63422542967464,-122.4951,Sharp Park,2,2.165,2.5,12.5,12.5,"NIGHT_CLOUDY,OVERCAST","Offshore,Offshore",2
5842041f4e65fad6a770897d,2024_11_22,37.27313605072472,-122.4127387912554,Pescadero,2,2.295,2.73,12.5,12.5,"NIGHT_OVERCAST,LIGHT_RAIN","Cross-shore,Cross-shore",2
5842041f4e65fad6a770897e,2024_11_22,37.18140279972666,-122.3926685899327,Pigeon Point,1,2.375,2.835,13,13,"NIGHT_OVERCAST,DRIZZLE","Onshore,Onshore",2
5842041f4e65fad6a770897f,2024_11_22,37.11578956919415,-122.314699271291,Ano Nuevo,1,2.115,2.465,13,13,"NIGHT_MIST,LIGHT_RAIN","Onshore,Onshore",2
5842041f4e65fad6a7708980,2024_11_22,37.09520872681598,-122.2805474707768,Waddell Creek,2,2.1849999999999996,2.475,13,13,"NIGHT_MIST,RAIN","Cross-shore,Onshore",2
5842041f4e65fad6a7708981,2024_11_22,36.96512852130351,-122.1252825495626,Four Mile,3,1.955,2.27,13,13,"NIGHT_MIST,OVERCAST","Onshore,Onshore",2
5842041f4e65fad6a7708982,2024_11_22,37.04122807048655,-122.23337,Scott Creek,2.5,1.9249999999999998,2.27,13,13,"NIGHT_MIST,LIGHT_RAIN","Cross-shore,Cross-shore",2
5842041f4e65fad6a7708983,2024_11_22,37.02350229387179,-122.21908,Davenport,2.5,2.175,2.49,13,13,"NIGHT_MIST,OVERCAST","Cross-shore,Cross-shore",2
5842041f4e65fad6a7708986,2024_11_22,36.94905295955728,-122.06118,Natural Bridges,2.5,2.185,2.46,13,13,"NIGHT_MIST,OVERCAST","Onshore,Onshore",2
5842041f4e65fad6a7708987,2024_11_22,36.95154854910425,-122.04207,Mitchell's Cove,3,1.08773,1.48214,13,13,"NIGHT_MIST,OVERCAST","Onshore,Cross-shore",2
5842041f4e65fad6a770898a,2024_11_22,36.9572312370203,-121.98177,26th Ave,3,1.4700000000000002,1.745,12.5,12.5,"NIGHT_FOG,OVERCAST","Cross-shore,Cross-shore",2
5842041f4e65fad6a770898e,2024_11_22,36.91899972819882,-121.85536,Manresa,3,1.8399999999999999,2.105,12.5,12.5,"NIGHT_MIST,MOSTLY_CLOUDY","Offshore,Onshore",2
5842041f4e65fad6a7708990,2024_11_22,34.45747731928454,-120.34242,The Ranch,2.5,0.645,0.95,13,13,"NIGHT_CLEAR,CLEAR","Offshore,Cross-shore",2
5842041f4e65fad6a7708991,2024_11_22,34.50875036590315,-120.50348,Jalama,3,1.1,1.37,13,13,"NIGHT_CLEAR,CLEAR","Offshore,Onshore",2
5842041f4e65fad6a7708996,2024_11_22,34.68700870220497,-120.6111611019887,Surf Beach,3.5,2.11,2.525,12,12,"NIGHT_MOSTLY_CLOUDY,CLEAR","Offshore,Onshore",2
5842041f4e65fad6a770899c,2024_11_22,35.5730538161116,-121.1143362345574,Moonstone,3.5,1.58,1.8900000000000001,12,12,"NIGHT_BRIEF_SHOWERS,CLEAR","Offshore,Cross-shore",2
5842041f4e65fad6a770899d,2024_11_22,35.61533716776573,-121.1502053073914,Pico Creek,3.5,1.385,1.6800000000000002,12,12,"NIGHT_BRIEF_SHOWERS,CLEAR","Offshore,Cross-shore",2
5842041f4e65fad6a770899e,2024_11_22,35.56829031927379,-121.11207,Santa Rosa Creek,3.5,1.58,1.8900000000000001,12,12,"NIGHT_MOSTLY_CLOUDY,CLEAR","Offshore,Cross-shore",2
5842041f4e65fad6a77089a2,2024_11_22,35.44820114936284,-120.90715,"Cayucos Pier, Southside",3,0.58926,0.9082699999999999,12,12,"NIGHT_MOSTLY_CLOUDY,CLEAR","Offshore,Onshore",2
5842041f4e65fad6a77089a4,2024_11_22,35.30143372628852,-120.877819239902,Cable Landing,3.5,2.295,2.745,12,12,"NIGHT_CLEAR,CLEAR","Offshore,Onshore",2
5842041f4e65fad6a77089a9,2024_11_22,35.61269103500222,-121.14807,San Simeon,3,0.9695,1.1235,12,12,"NIGHT_BRIEF_SHOWERS,CLEAR","Offshore,Onshore",2
5842041f4e65fad6a77089ab,2024_11_22,35.1775325966252,-120.73411,Avila Beach,1,0,0.28500000000000003,12,12,"NIGHT_MOSTLY_CLOUDY,CLEAR","Cross-shore,Offshore",2
5842041f4e65fad6a77089ac,2024_11_22,35.13877877884115,-120.64535,Pismo Beach Pier,3.0833333333333335,1.0843500000000001,1.3785,12,12,"NIGHT_MOSTLY_CLOUDY,CLEAR","Offshore,Onshore",2
5842041f4e65fad6a77089ad,2024_11_22,46.8907710233147,-124.12964,Westport/Olympic Peninsula,1.6666666666666667,1.59,1.8366666666666667,11,11,"NIGHT_BRIEF_SHOWERS_POSSIBLE,NIGHT_LIGHT_RAIN,LIGHT_RAIN","Offshore,Offshore,Cross-shore",3
5842041f4e65fad6a77089ae,2024_11_22,46.35185177248545,-124.06747,Long Beach Peninsula,1.6666666666666667,1.9266666666666665,2.1733333333333333,11.333333333333334,11.333333333333334,"NIGHT_LIGHT_SHOWERS_POSSIBLE,NIGHT_OVERCAST,CLEAR","Offshore,Offshore,Cross-shore",3
5842041f4e65fad6a77089af,2024_11_22,47.90649175554033,-124.63709,La Push,3,1.2833333333333332,1.5433333333333332,11,11,"NIGHT_CLEAR,NIGHT_DRIZZLE,CLEAR","Offshore,Offshore,Offshore",3
5842041f4e65fad6a77089b0,2024_11_22,42.04368239985442,-124.26828,Brookings Jetty,0.5,1.713545,1.9079899999999999,12,12,"NIGHT_LIGHT_RAIN,OVERCAST","Onshore,Onshore",2
5842041f4e65fad6a77089b1,2024_11_22,42.74071837900346,-124.4983727491047,Port Orford,0,3.67,3.87,11.5,11.5,"NIGHT_DRIZZLE,BRIEF_SHOWERS_POSSIBLE","Onshore,Onshore",2
5842041f4e65fad6a77089b2,2024_11_22,44.01532689312291,-124.13865,Florence South Jetty,1,2.5549999999999997,2.825,12,12,"NIGHT_DRIZZLE,MOSTLY_CLOUDY","Offshore,Cross-shore",2
5842041f4e65fad6a77089b3,2024_11_22,42.41812540774362,-124.42945,Gold Beach South Jetty,0,3.09,3.6100000000000003,12,12,"NIGHT_RAIN,SHOWERS","Onshore,Onshore",2
5842041f4e65fad6a77089b4,2024_11_22,44.95857310226525,-124.0219,Lincoln City,1.5,2.395,2.71,11.5,11.5,"NIGHT_HEAVY_RAIN,CLEAR","Offshore,Cross-shore",2
5842041f4e65fad6a77089b5,2024_11_22,44.63792761362982,-124.0657,Newport,2.5,2.5549999999999997,2.8049999999999997,11.5,11.5,"NIGHT_HEAVY_RAIN,CLEAR","Offshore,Cross-shore",2
5842041f4e65fad6a77089b6,2024_11_22,45.61468496266301,-123.94643,Rockaway Beach,1.6666666666666667,1.9766666666666668,2.283333333333333,12,12,"NIGHT_LIGHT_SHOWERS_POSSIBLE,NIGHT_LIGHT_RAIN,BRIEF_SHOWERS","Offshore,Offshore,Cross-shore",3
5842041f4e65fad6a77089b7,2024_11_22,45.20252914186085,-123.96975,Pacific City,1.6666666666666667,1.9766666666666666,2.2466666666666666,11.666666666666666,11.666666666666666,"NIGHT_RAIN,NIGHT_BRIEF_SHOWERS,MOSTLY_CLOUDY","Offshore,Cross-shore,Onshore",3
5842041f4e65fad6a77089b8,2024_11_22,45.88179930310263,-123.96681,Cannon Beach,1.6666666666666667,2.02,2.243333333333333,12,12,"NIGHT_LIGHT_RAIN,NIGHT_RAIN,BRIEF_SHOWERS","Offshore,Cross-shore,Onshore",3
5842041f4e65fad6a77089ba,2024_11_22,40.02528754746774,-124.06372,Shelter Cove,1,1.2330999999999999,1.4084349999999999,13.5,13.5,"NIGHT_LIGHT_RAIN,MIST","Onshore,Onshore",2
5842041f4e65fad6a77089bb,2024_11_22,40.76816197136951,-124.24248,Humboldt Harbor Entrance,2.5,2.425,2.9,12.5,12.5,"NIGHT_RAIN,CLEAR","Offshore,Cross-shore",2
5842041f4e65fad6a77089bc,2024_11_22,40.76684246920174,-124.23107,North Jetty,3,2.63,3.1399999999999997,12.5,12.5,"NIGHT_RAIN,CLEAR","Offshore,Cross-shore",2
5842041f4e65fad6a77089be,2024_11_22,41.13016238153297,-124.16466,Sue-meg,2,2.395,2.865,12.5,12.5,"NIGHT_HEAVY_RAIN,SHOWERS","Cross-shore,Cross-shore",2
5842041f4e65fad6a77089bf,2024_11_22,37.8289474958188,-122.53768,Fort Cronkite/Rodeo Beach,1,2.075,2.42,13,13,"NIGHT_OVERCAST,LIGHT_RAIN","Onshore,Onshore",2
5842041f4e65fad6a77089c0,2024_11_22,41.74415759876137,-124.17717,South Beach CA,1,2.6399999999999997,3.035,12,12,"NIGHT_LIGHT_SHOWERS_POSSIBLE,BRIEF_SHOWERS","Onshore,Onshore",2
5842041f4e65fad6a77089c1,2024_11_22,37.89801283969752,-122.64519,Stinson Beach,2,1.405,1.62,12.5,12.5,"NIGHT_DRIZZLE,LIGHT_RAIN","Onshore,Onshore",2
5842041f4e65fad6a77089c2,2024_11_22,37.90514516176495,-122.68151,Bolinas,3,1.48467,1.52921,12.5,12.5,"NIGHT_DRIZZLE,MIST","Onshore,Cross-shore",2
5842041f4e65fad6a77089c3,2024_11_22,38.04892513158693,-122.98925,Point Reyes (north),2,2.6,3.1100000000000003,13,13,"NIGHT_OVERCAST,LIGHT_SHOWERS_POSSIBLE","Offshore,Offshore",2
5842041f4e65fad6a77089c6,2024_11_22,38.31088736605785,-123.0496777333731,Doran Beach,1,0.78,1.0899999999999999,13,13,"NIGHT_OVERCAST,LIGHT_RAIN","Onshore,Onshore",2
5842041f4e65fad6a77089c7,2024_11_22,38.45077228660809,-123.13008,Russian Rivermouth,1,2.4299999999999997,2.825,13,13,"NIGHT_RAIN,MIST","Cross-shore,Onshore",2
5842041f4e65fad6a77089c8,2024_11_22,38.35329968518107,-123.06906,Salmon Creek,1.5,2.585,3.075,13,13,"NIGHT_MIST,OVERCAST","Cross-shore,Cross-shore",2
5842041f4e65fad6a77089c9,2024_11_22,38.6845180197959,-123.4322714291198,Black Point Beach,2.5,2.385,2.58,13.5,13.5,"NIGHT_MIST,MIST","Offshore,Offshore",2
5842041f4e65fad6a77089ca,2024_11_22,43.251076,-70.59144,Ogunquit,0.6666666666666666,1.4741766666666667,1.8914433333333334,11,9,"NIGHT_LIGHT_RAIN,MOSTLY_CLOUDY,CLEAR","Onshore,Onshore,Onshore",3
5842041f4e65fad6a77089cb,2024_11_22,41.362631366305415,-71.48007,Point Judith,1.3333333333333333,0.69249,1.0875233333333334,12.666666666666666,12,"NIGHT_CLOUDY,MOSTLY_CLOUDY,CLEAR","Offshore,Offshore,Offshore",3
5842041f4e65fad6a77089cd,2024_11_22,41.422678090954726,-71.45413,Monahan's - Narragansett,0,0.5354033333333333,0.8357533333333333,14,14,"NIGHT_CLOUDY,SHOWERS,CLEAR","Cross-shore,Cross-shore,Cross-shore",3
5842041f4e65fad6a77089ce,2024_11_22,41.469,-71.293,Ruggles - Newport,0.3333333333333333,1.56433,1.9153466666666665,13,13,"NIGHT_CLOUDY,MOSTLY_CLOUDY,MOSTLY_CLEAR","Onshore,Onshore,Onshore",3
5842041f4e65fad6a77089cf,2024_11_22,43.175394,-70.606351,Short Sands Beach,1,1.6400000000000001,1.94,10,10,"NIGHT_LIGHT_RAIN,OVERCAST,CLEAR","Onshore,Onshore,Onshore",3
5842041f4e65fad6a77089d0,2024_11_22,41.487408,-71.29017,First Beach,0.3333333333333333,0.6966666666666667,0.9466666666666667,13,13,"NIGHT_OVERCAST,MOSTLY_CLOUDY,MOSTLY_CLEAR","Onshore,Onshore,Onshore",3
5842041f4e65fad6a77089d1,2024_11_22,42.27916830233153,-70.86498,Nantasket Beach,1.8888888888888888,1.0455666666666668,1.3991,12,11,"NIGHT_CLEAR,CLEAR,CLEAR","Offshore,Offshore,Offshore",3
5842041f4e65fad6a77089d2,2024_11_22,41.817,-69.935,Cape Cod,0.3333333333333333,0.79,1.05,11,11,"NIGHT_CLEAR,CLEAR,CLEAR","Cross-shore,Cross-shore,Cross-shore",3
5842041f4e65fad6a77089d3,2024_11_22,42.22055448975661,-70.70634873403819,Egypt Beach,0.3333333333333333,1.1466666666666667,1.3066666666666666,11,11,"NIGHT_CLEAR,CLEAR,CLEAR","Cross-shore,Cross-shore,Cross-shore",3
5842041f4e65fad6a77089d4,2024_11_22,41.48739647744607,-71.25723,Second Beach,0.11111111111111109,0.7346566666666666,1.0486866666666665,12.666666666666666,12,"NIGHT_CLOUDY,MOSTLY_CLOUDY,CLEAR","Onshore,Onshore,Onshore",3
5842041f4e65fad6a77089d5,2024_11_22,42.964,-70.769,Fox Hill,0.7777777777777778,1.1233433333333334,1.6529433333333332,11,9,"NIGHT_HEAVY_RAIN,DRIZZLE,CLEAR","Onshore,Onshore,Onshore",3
5842041f4e65fad6a77089d6,2024_11_22,42.991359,-70.75149,Straws Point,0.6666666666666666,1.2244566666666667,1.7507233333333334,11,9,"NIGHT_HEAVY_RAIN,LIGHT_RAIN,CLEAR","Cross-shore,Onshore,Onshore",3
5842041f4e65fad6a77089d7,2024_11_22,42.946,-70.786,Plaice Cove,0.6666666666666666,1.1233433333333334,1.6529433333333332,11,9,"NIGHT_HEAVY_RAIN,MOSTLY_CLOUDY,CLEAR","Onshore,Onshore,Onshore",3
5842041f4e65fad6a77089d9,2024_11_22,42.911574,-70.80831,The Main Beach,1.1666666666666665,1.1528,1.8160733333333332,11,9,"NIGHT_RAIN,MOSTLY_CLOUDY,CLEAR","Cross-shore,Onshore,Onshore",3
5842041f4e65fad6a77089da,2024_11_22,42.97583846220203,-70.764,Sawyer's Beach,0.6666666666666666,1.1472333333333333,1.61072,11,9,"NIGHT_HEAVY_RAIN,DRIZZLE,CLEAR","Onshore,Onshore,Onshore",3
5842041f4e65fad6a77089db,2024_11_22,42.97,-70.77,Rye on the Rocks / 5-0's,0.8333333333333334,1.1343633333333334,1.7952966666666668,11,9,"NIGHT_HEAVY_RAIN,DRIZZLE,CLEAR","Onshore,Onshore,Onshore",3
5842041f4e65fad6a77089dc,2024_11_22,43.55902946610303,-70.27795,Higgins Beach,1.2777777777777777,0.7964833333333333,1.27221,11,9,"NIGHT_LIGHT_RAIN,OVERCAST,CLEAR","Cross-shore,Onshore,Onshore",3
5842041f4e65fad6a77089dd,2024_11_22,43.302676,-70.5652,Wells Beach,0.6666666666666666,1.1314,1.6158866666666667,11,9,"NIGHT_RAIN,CLEAR,CLEAR","Onshore,Onshore,Onshore",3
5842041f4e65fad6a77089de,2024_11_22,43.545359,-70.30479,Scarborough Beach State Park,0.6666666666666666,1.2520133333333332,1.7709233333333332,11,9,"NIGHT_RAIN,MOSTLY_CLOUDY,CLEAR","Cross-shore,Onshore,Onshore",3
5842041f4e65fad6a77089df,2024_11_22,43.514481,-70.37215,Old Orchard Beach,0.6666666666666666,0.97251,1.3726133333333332,11,9,"NIGHT_LIGHT_RAIN,MOSTLY_CLOUDY,CLEAR","Cross-shore,Onshore,Onshore",3
5842041f4e65fad6a77089e0,2024_11_22,43.34711,-70.48165,Gooch's Beach,0.6666666666666666,0.9647133333333333,1.3082433333333332,11,9,"NIGHT_RAIN,CLEAR,CLEAR","Cross-shore,Onshore,Onshore",3
5842041f4e65fad6a77089e2,2024_11_22,40.58433,-73.62953,Lido Beach,0.22222222222222224,0.565,0.96189,13.666666666666666,12.666666666666666,"NIGHT_CLEAR,CLEAR,CLOUDY","Cross-shore,Cross-shore,Onshore",3
5842041f4e65fad6a77089e3,2024_11_22,43.163135,-70.61689,Long Sands Beach,0.6666666666666666,1.11541,1.45598,11,9,"NIGHT_LIGHT_RAIN,LIGHT_RAIN,CLEAR","Cross-shore,Onshore,Onshore",3
5842041f4e65fad6a77089e4,2024_11_22,40.61695351251805,-73.39376,Gilgo Beach,-0.11111111111111116,0.7637200000000001,1.1198866666666667,13.333333333333334,12.666666666666666,"NIGHT_CLOUDY,CLOUDY,OVERCAST","Onshore,Onshore,Onshore",3
5842041f4e65fad6a77089e5,2024_11_22,40.62530081928036,-73.23827,Robert Moses,0,0.8866666666666667,1.1966666666666668,15,15,"NIGHT_OVERCAST,CLOUDY,CLOUDY","Cross-shore,Onshore,Onshore",3
5842041f4e65fad6a77089e6,2024_11_22,40.64313317632791,-73.15727,Fire Island,0,0.89,1.1966666666666668,15,15,"NIGHT_CLOUDY,OVERCAST,CLOUDY","Cross-shore,Onshore,Onshore",3
5842041f4e65fad6a77089e8,2024_11_22,40.76653118828782,-72.7458,Cupsogue,0,1.34,1.6466666666666665,15,15,"NIGHT_MOSTLY_CLOUDY,OVERCAST,CLOUDY","Cross-shore,Onshore,Onshore",3
5842041f4e65fad6a77089e9,2024_11_22,42.9376373334092,-70.79141,The Wall,1,1.2545533333333334,1.89807,11,9,"NIGHT_RAIN,MOSTLY_CLOUDY,CLEAR","Onshore,Onshore,Onshore",3
5842041f4e65fad6a77089ea,2024_11_22,40.887088,-72.33856,Flys,0.3333333333333333,1.26,1.5666666666666667,14,14,"NIGHT_CLEAR,MOSTLY_CLOUDY,MOSTLY_CLOUDY","Onshore,Onshore,Onshore",3
5842041f4e65fad6a77089eb,2024_11_22,41.0389266436591,-71.91068529316958,Trailer Park,0.3333333333333333,0.8738633333333333,1.2954266666666665,13.333333333333334,12.666666666666666,"NIGHT_MOSTLY_CLOUDY,SHOWERS,MOSTLY_CLOUDY","Onshore,Onshore,Onshore",3
5842041f4e65fad6a77089ec,2024_11_22,41.039505402729105,-71.9142,Ditch Plains,0.3333333333333333,0.9759566666666667,1.3162333333333334,14,14,"NIGHT_MOSTLY_CLOUDY,SHOWERS,BRIEF_SHOWERS","Cross-shore,Onshore,Onshore",3
5842041f4e65fad6a77089ee,2024_11_22,40.57633275206492,-73.56895305108567,"West End, Jones Beach",0.22222222222222224,0.69809,1.0977666666666668,13.666666666666666,12.666666666666666,"NIGHT_CLEAR,CLOUDY,OVERCAST","Onshore,Onshore,Onshore",3
5842041f4e65fad6a77089f1,2024_11_22,41.038286691230795,-71.91991567611694,Poles,0.3333333333333333,0.8375666666666667,1.28477,13.333333333333334,12.666666666666666,"NIGHT_MOSTLY_CLOUDY,SHOWERS,MOSTLY_CLOUDY","Onshore,Onshore,Onshore",3
5842041f4e65fad6a77089f3,2024_11_22,40.84077769766295,-72.47989493724765,The Bowl,0.3333333333333333,1.4333333333333333,1.7366666666666666,14.333333333333334,14.333333333333334,"NIGHT_MOSTLY_CLOUDY,MOSTLY_CLOUDY,BRIEF_SHOWERS","Onshore,Onshore,Onshore",3
5842041f4e65fad6a77089f4,2024_11_22,40.94235535243154,-72.19286,Main Beach,0.3333333333333333,0.88789,1.241,17,16.666666666666668,"NIGHT_CLEAR,MOSTLY_CLOUDY,CLEAR","Onshore,Onshore,Onshore",3
5842041f4e65fad6a77089f5,2024_11_22,40.58270702399518,-73.67251552079799,Laurelton Blvd.,0.3333333333333333,0.6558766666666667,1.0084833333333334,13.666666666666666,12.666666666666666,"NIGHT_MOSTLY_CLOUDY,LIGHT_SHOWERS_POSSIBLE,DRIZZLE","Onshore,Onshore,Onshore",3
5842041f4e65fad6a77089f6,2024_11_22,41.033752854071416,-71.93696,Terrace,0.3333333333333333,0.86518,1.2142866666666667,13.333333333333334,12.666666666666666,"NIGHT_MOSTLY_CLOUDY,BRIEF_SHOWERS,MOSTLY_CLOUDY","Onshore,Onshore,Onshore",3
5842041f4e65fad6a77089f7,2024_11_22,40.83372943645748,-72.50426173210144,K Road,0.3333333333333333,1.4933333333333334,1.7933333333333332,15,15,"NIGHT_MOSTLY_CLOUDY,BRIEF_SHOWERS,OVERCAST","Cross-shore,Onshore,Onshore",3
5842041f4e65fad6a77089f8,2024_11_22,40.58456099581507,-73.80730032920837,84th Street,0.5555555555555556,0.4739,0.8756466666666667,13.666666666666666,12.666666666666666,"NIGHT_CLEAR,BRIEF_SHOWERS_POSSIBLE,BRIEF_SHOWERS_POSSIBLE","Cross-shore,Onshore,Onshore",3
5842041f4e65fad6a77089fa,2024_11_22,40.1319,-74.02788,Sea Girt,0.7777777777777778,0.11027666666666668,0.4201566666666667,13,12.666666666666666,"NIGHT_CLEAR,CLEAR,CLEAR","Offshore,Offshore,Offshore",3
5842041f4e65fad6a77089fb,2024_11_22,40.54698301868125,-73.9268,Breezy Point,0.3333333333333333,0.36333333333333334,0.6666666666666667,14,14,"NIGHT_CLEAR,LIGHT_SHOWERS_POSSIBLE,CLEAR","Cross-shore,Onshore,Onshore",3
5842041f4e65fad6a77089fc,2024_11_22,40.152504,-74.02138,Spring Lake,1.1111111111111112,0.12194333333333333,0.4287666666666667,13,12.666666666666666,"NIGHT_CLEAR,CLEAR,CLEAR","Offshore,Offshore,Offshore",3
5842041f4e65fad6a77089fd,2024_11_22,40.591277,-73.770792,30th - 39th Streets,0.3333333333333333,0.44309,0.8427666666666667,13.666666666666666,12.666666666666666,"NIGHT_MOSTLY_CLOUDY,LIGHT_SHOWERS_POSSIBLE,DRIZZLE","Cross-shore,Onshore,Onshore",3
5842041f4e65fad6a77089fe,2024_11_22,40.18834955871439,-74.00860982500222,Avon,1.1111111111111112,0.13972333333333334,0.4398766666666667,13.333333333333334,13,"NIGHT_CLEAR,CLEAR,CLEAR","Offshore,Offshore,Offshore",3
5842041f4e65fad6a77089ff,2024_11_22,40.1974229100932,-74.00650533798255,Bradley Beach,1.1111111111111112,0.12305333333333333,0.4359866666666667,13.333333333333334,13,"NIGHT_CLEAR,CLEAR,CLEAR","Offshore,Offshore,Offshore",3
5842041f4e65fad6a7708a01,2024_11_22,40.17202,-74.01503,"16th Ave., Belmar",0.7999999999999999,0.23346666666666666,0.5549333333333333,12.666666666666666,12.333333333333334,"NIGHT_CLEAR,CLEAR,CLEAR","Offshore,Offshore,Offshore",3
5842041f4e65fad6a7708a02,2024_11_22,40.217443,-73.99982,Asbury Park,0.7777777777777778,0.115,0.4215433333333333,13.333333333333334,13,"NIGHT_CLEAR,CLEAR,CLEAR","Offshore,Offshore,Offshore",3
5842041f4e65fad6a7708a03,2024_11_22,40.229841,-73.99678,Loch Arbour and Deal,0.6666666666666666,0.10722333333333334,0.4168233333333333,13.333333333333334,13,"NIGHT_CLEAR,CLEAR,CLEAR","Offshore,Offshore,Cross-shore",3
5842041f4e65fad6a7708a05,2024_11_22,40.41754,-73.97935,Sandy Hook,1,0,0.25333333333333335,14,14,"NIGHT_CLEAR,LIGHT_SHOWERS_POSSIBLE,CLEAR","Offshore,Offshore,Cross-shore",3
5842041f4e65fad6a7708a06,2024_11_22,39.36353,-74.40873,Crystals,0.6666666666666666,0.35953,0.7114933333333333,16,16,"NIGHT_CLEAR,CLEAR,CLEAR","Offshore,Cross-shore,Cross-shore",3
5842041f4e65fad6a7708a07,2024_11_22,39.31443,-74.51863,32nd Street,0.3333333333333333,0.26498333333333335,0.62488,12.666666666666666,12.333333333333334,"NIGHT_CLEAR,CLEAR,CLEAR","Offshore,Cross-shore,Cross-shore",3
5842041f4e65fad6a7708a08,2024_11_22,39.327688,-74.49524,Margate Pier Northside,0.3333333333333333,0.26498333333333335,0.62488,12.666666666666666,12.333333333333334,"NIGHT_CLEAR,CLEAR,CLEAR","Offshore,Cross-shore,Cross-shore",3
5842041f4e65fad6a7708a09,2024_11_22,39.336276,-74.47782,Ventnor Pier,0.3333333333333333,0.28550333333333333,0.60785,16,16,"NIGHT_CLEAR,CLEAR,CLEAR","Offshore,Cross-shore,Cross-shore",3
5842041f4e65fad6a7708a0a,2024_11_22,39.35929751441085,-74.41683,States Avenue,0.3333333333333333,0.35953,0.7114933333333333,16,16,"NIGHT_CLEAR,CLEAR,CLEAR","Offshore,Cross-shore,Cross-shore",3
5842041f4e65fad6a7708a0b,2024_11_22,39.37274173278517,-74.40454,Brigantine Jetty,0.3333333333333333,0.44255,0.7913366666666667,16,16,"NIGHT_CLEAR,CLEAR,CLEAR","Cross-shore,Cross-shore,Cross-shore",3
5842041f4e65fad6a7708a0c,2024_11_22,39.356505,-74.42263,South Carolina Avenue,0.3333333333333333,0.44255,0.7913366666666667,16,16,"NIGHT_CLEAR,CLEAR,CLEAR","Cross-shore,Cross-shore,Cross-shore",3
5842041f4e65fad6a7708a0d,2024_11_22,39.413485,-74.35476,14th Street North,0.6666666666666666,0,0.27,16,16,"NIGHT_CLEAR,CLEAR,MOSTLY_CLOUDY","Offshore,Offshore,Cross-shore",3
5842041f4e65fad6a7708a0e,2024_11_22,39.531319,-74.263252,The Wooden Jetty,1.5555555555555556,0.6022733333333333,0.8981833333333333,14.333333333333334,14.333333333333334,"NIGHT_CLEAR,CLEAR,MOSTLY_CLOUDY","Offshore,Cross-shore,Offshore",3
5842041f4e65fad6a7708a0f,2024_11_22,39.552472,-74.24344,Holyoke,1.5555555555555556,0.59734,0.9313933333333333,14.333333333333334,14.333333333333334,"NIGHT_CLEAR,CLEAR,MOSTLY_CLOUDY","Offshore,Offshore,Offshore",3
5842041f4e65fad6a7708a10,2024_11_22,39.692364,-74.14068,Hudson Ave.,1,0.22846333333333332,0.5565966666666666,12.666666666666666,12.333333333333334,"NIGHT_CLEAR,CLEAR,CLEAR","Offshore,Offshore,Offshore",3
5842041f4e65fad6a7708a11,2024_11_22,39.79614,-74.09248,Island Beach State Park,0.3333333333333333,0.15083333333333335,0.45099,15.666666666666666,15.666666666666666,"NIGHT_CLEAR,CLEAR,CLEAR","Offshore,Offshore,Cross-shore",3
5842041f4e65fad6a7708a12,2024_11_22,39.91813588078152,-74.07527,Seaside Park,0.6666666666666666,0.12994666666666668,0.43884666666666666,15.666666666666666,15.666666666666666,"NIGHT_CLEAR,CLEAR,CLEAR","Offshore,Offshore,Offshore",3
5842041f4e65fad6a7708a15,2024_11_22,39.95745637606704,-74.06736,Ortley Beach,0.22222222222222224,0.17497333333333334,0.47345,12.666666666666666,12.333333333333334,"NIGHT_CLEAR,CLEAR,CLEAR","Offshore,Offshore,Cross-shore",3
5842041f4e65fad6a7708a16,2024_11_22,39.98313468342945,-74.06265685577506,Lavallette,0.3333333333333333,0.12083333333333333,0.42404333333333333,12.666666666666666,12.333333333333334,"NIGHT_CLEAR,CLEAR,CLEAR","Offshore,Offshore,Cross-shore",3
5842041f4e65fad6a7708a17,2024_11_22,40.0699319967757,-74.04145,Bay Head,0.3333333333333333,0.12389,0.42404333333333333,12.666666666666666,12.333333333333334,"NIGHT_CLEAR,CLEAR,CLOUDY","Offshore,Offshore,Cross-shore",3
5842041f4e65fad6a7708a18,2024_11_22,40.094041,-74.034859,Jenkinson's,1,0.12027666666666667,0.4237666666666667,12.666666666666666,12.333333333333334,"NIGHT_CLEAR,CLEAR,CLEAR","Offshore,Offshore,Offshore",3
5842041f4e65fad6a7708a1a,2024_11_22,38.148058,-75.17704,Assateague,0.5555555555555556,0.26988,0.57948,14,13,"NIGHT_CLEAR,CLEAR,CLEAR","Offshore,Offshore,Offshore",3
5842041f4e65fad6a7708a1b,2024_11_22,38.33889038664497,-75.08017670566352,North End to Ocean City Inlet,1,0.2804333333333333,0.58031,14,13,"NIGHT_CLEAR,CLEAR,CLEAR","Offshore,Offshore,Offshore",3
5842041f4e65fad6a7708a1c,2024_11_22,38.603993,-75.06271,Indian River Inlet,1,0.055279999999999996,0.4185333333333333,15,15,"NIGHT_CLEAR,CLEAR,CLEAR","Offshore,Offshore,Offshore",3
5842041f4e65fad6a7708a1d,2024_11_22,38.460477,-75.05207,Fenwick Island,1,0.043333333333333335,0.35333333333333333,15.333333333333334,15.333333333333334,"NIGHT_CLEAR,CLEAR,CLEAR","Offshore,Offshore,Offshore",3
5842041f4e65fad6a7708a1e,2024_11_22,38.538767,-75.05619,Bethany Beach,1,0.05488,0.41553,15.333333333333334,15.333333333333334,"NIGHT_CLEAR,CLEAR,CLEAR","Offshore,Offshore,Offshore",3
5842041f4e65fad6a7708a1f,2024_11_22,38.697657,-75.07595,Dewey Beach,1,0.04,0.3433333333333333,15,15,"NIGHT_CLEAR,CLEAR,CLEAR","Offshore,Offshore,Offshore",3
5842041f4e65fad6a7708a20,2024_11_22,38.75034741676525,-75.08194,Gordons Pond,1,0,0.2762633333333333,15,15,"NIGHT_CLEAR,CLEAR,MOSTLY_CLOUDY","Offshore,Offshore,Offshore",3
5842041f4e65fad6a7708a21,2024_11_22,38.767837,-75.08284,Naval Jetties,1,0.09666666666666666,0.4033333333333333,15,15,"NIGHT_CLEAR,CLEAR,MOSTLY_CLOUDY","Offshore,Offshore,Offshore",3
5842041f4e65fad6a7708a22,2024_11_22,36.81735875786576,-75.96624,Camp Pendleton,1,0.02666666666666667,0.33,15.666666666666666,15.666666666666666,"NIGHT_CLEAR,CLEAR,CLEAR","Offshore,Offshore,Offshore",3
5842041f4e65fad6a7708a23,2024_11_22,36.9102212316428,-75.98732471466064,North End,0.5,0,0.18834666666666666,17,15.666666666666666,"NIGHT_CLEAR,CLEAR,CLEAR","Offshore,Offshore,Offshore",3
5842041f4e65fad6a7708a24,2024_11_22,36.737117517621314,-75.93924,Sandbridge Beach,0.7777777777777778,5.566666666666667e-4,0.24734333333333333,17,15.666666666666666,"NIGHT_CLEAR,CLEAR,CLEAR","Offshore,Offshore,Offshore",3
5842041f4e65fad6a7708a26,2024_11_22,36.818257440557794,-75.96666,Croatan to Pendleton,0.6111111111111112,0.005236666666666666,0.2169,17,15.666666666666666,"NIGHT_CLEAR,CLEAR,CLEAR","Offshore,Offshore,Offshore",3
5842041f4e65fad6a7708a27,2024_11_22,36.84318777204769,-75.9719,South End,0.6111111111111112,0,0.19473333333333334,17,15.666666666666666,"NIGHT_CLEAR,CLEAR,CLEAR","Offshore,Offshore,Offshore",3
5842041f4e65fad6a7708a28,2024_11_22,37.08612627584661,-75.976121638199,Fishermans Island,0,0,0.05333333333333333,15,15,"NIGHT_CLEAR,CLEAR,CLEAR","Offshore,Offshore,Offshore",3
5842041f4e65fad6a7708a38,2024_11_22,35.254619418229026,-75.52074,Cape Hatteras Lighthouse,1.2222222222222223,0.41663333333333336,0.73737,18,16.666666666666668,"NIGHT_CLEAR,CLEAR,CLEAR","Offshore,Offshore,Offshore",3
5842041f4e65fad6a7708a3a,2024_11_22,35.54572934093336,-75.46477,Waves and Salvo,1.1111111111111112,0.3335666666666667,0.64011,17.666666666666668,16.666666666666668,"NIGHT_CLEAR,CLEAR,CLEAR","Offshore,Offshore,Offshore",3
5842041f4e65fad6a7708a3b,2024_11_22,35.22565892751075,-75.63606,Frisco,0.8888888888888888,0.7608,1.0459533333333333,19.666666666666668,18.333333333333332,"NIGHT_CLEAR,CLEAR,CLEAR","Offshore,Offshore,Cross-shore",3
5842041f4e65fad6a7708a3c,2024_11_22,35.13086,-75.90591,Ocracoke,0,0.06286333333333333,0.42040666666666665,18.333333333333332,18.333333333333332,"NIGHT_CLEAR,CLEAR,CLEAR","Offshore,Offshore,Offshore",3
5842041f4e65fad6a7708a3d,2024_11_22,35.34721340158342,-75.50084,Avon Pier,1.3333333333333333,0.4113466666666667,0.7112233333333333,17.666666666666668,16.666666666666668,"NIGHT_CLEAR,CLEAR,CLEAR","Offshore,Offshore,Offshore",3
5842041f4e65fad6a7708a3f,2024_11_22,35.71680821253768,-75.49243,Pea Island,1,0.14,0.44666666666666666,16,16,"NIGHT_CLEAR,CLEAR,CLEAR","Cross-shore,Offshore,Offshore",3
5842041f4e65fad6a7708a40,2024_11_22,35.97427620657821,-75.62984,Nags Head Pier,1,0.23307666666666665,0.5333766666666667,17,16.666666666666668,"NIGHT_CLEAR,CLEAR,CLEAR","Offshore,Offshore,Offshore",3
5842041f4e65fad6a7708a41,2024_11_22,36.0439998039079,-75.67288,Avalon Pier,0.888888888888889,0.26363333333333333,0.5703233333333333,17,16.666666666666668,"NIGHT_CLEAR,CLEAR,CLEAR","Offshore,Offshore,Offshore",3
5842041f4e65fad6a7708a42,2024_11_22,36.03043116489792,-75.66413,First Street,1,0.2783,0.5924333333333334,17,16.666666666666668,"NIGHT_CLEAR,CLEAR,CLEAR","Offshore,Offshore,Offshore",3
5842041f4e65fad6a7708a43,2024_11_22,36.06829910590498,-75.6899,Old Station/Laundromats,0.888888888888889,0.2583566666666667,0.5581,17,16.666666666666668,"NIGHT_CLEAR,CLEAR,CLEAR","Offshore,Offshore,Offshore",3
5842041f4e65fad6a7708a44,2024_11_22,36.10126676607491,-75.71107,Kitty Hawk Pier,1.1111111111111112,0.30423666666666666,0.6153033333333333,17,16.666666666666668,"NIGHT_CLEAR,CLEAR,CLEAR","Offshore,Offshore,Offshore",3
5842041f4e65fad6a7708a45,2024_11_22,36.18220630068973,-75.75014,Duck Pier,0.3333333333333333,0.0033333333333333335,0.2866666666666667,16,16,"NIGHT_CLEAR,CLEAR,CLEAR","Offshore,Offshore,Offshore",3
5842041f4e65fad6a7708a46,2024_11_22,36.37660668125033,-75.8241,Corolla,1,0.049999999999999996,0.3566666666666667,16,16,"NIGHT_CLEAR,CLEAR,CLEAR","Offshore,Offshore,Offshore",3
5842041f4e65fad6a7708a47,2024_11_22,33.90373404124834,-78.08241431707907,Oak Island,0.6666666666666666,0.013333333333333334,0.30666666666666664,19,19,"NIGHT_CLEAR,CLEAR,CLEAR","Cross-shore,Cross-shore,Cross-shore",3
5842041f4e65fad6a7708a48,2024_11_22,33.91108837766468,-78.29653,South Brunswick Beaches,1,0.07677,0.4563433333333333,19,19,"NIGHT_CLEAR,CLEAR,CLEAR","Offshore,Offshore,Cross-shore",3
5842041f4e65fad6a7708a49,2024_11_22,34.05683595651973,-77.88128,Carolina Beach Pier,-0.4444444444444444,0,0.19334333333333334,17.666666666666668,17.333333333333332,"NIGHT_CLEAR,CLEAR,CLEAR","Offshore,Offshore,Offshore",3
5842041f4e65fad6a7708a4a,2024_11_22,33.96841191816696,-77.9180242565498,Fort Fisher,-0.4444444444444444,-0.00611,0.19523333333333331,17.666666666666668,17.333333333333332,"NIGHT_CLEAR,CLEAR,CLEAR","Offshore,Offshore,Offshore",3
5842041f4e65fad6a7708a4b,2024_11_22,34.46776662988774,-77.47083,Topsail Beach,0.4444444444444444,0.09646666666666666,0.3971766666666667,18.666666666666668,17.666666666666668,"NIGHT_CLEAR,CLEAR,CLEAR","Offshore,Offshore,Offshore",3
5842041f4e65fad6a7708a4c,2024_11_22,34.69270354752445,-76.82854854446575,Iron Steamer,0.6666666666666666,0.4650333333333333,0.77101,19,18.666666666666668,"NIGHT_MOSTLY_CLEAR,CLEAR,CLEAR","Offshore,Cross-shore,Cross-shore",3
5842041f4e65fad6a7708a4f,2024_11_22,30.85132684893727,-81.42283496231143,Cumberland Island,1,0,0.18333333333333335,22,22,"NIGHT_CLEAR,CLEAR,CLEAR","Offshore,Offshore,Offshore",3
5842041f4e65fad6a7708a50,2024_11_22,34.686741128540874,-76.47516712138378,Cape Lookout National Seashore,1,0.15333333333333332,0.4633333333333333,19,19,"NIGHT_CLEAR,CLEAR,CLEAR","Offshore,Offshore,Offshore",3
5842041f4e65fad6a7708a51,2024_11_22,31.10585419260024,-81.40422767604812,Jekyll Island,0,0,0.09333333333333334,21,21,"NIGHT_CLEAR,CLEAR,CLEAR","Offshore,Offshore,Offshore",3
5842041f4e65fad6a7708a52,2024_11_22,31.16212806376699,-81.32512426500224,Harbor Marker Buoys,0,0,0.12333333333333334,21.666666666666668,21.666666666666668,"NIGHT_CLEAR,CLEAR,CLEAR","Offshore,Offshore,Offshore",3
5842041f4e65fad6a7708a53,2024_11_22,31.20076299997009,-81.32629,Sea Island,0,0,0.11333333333333333,21.666666666666668,21.666666666666668,"NIGHT_CLEAR,CLEAR,CLEAR","Offshore,Offshore,Offshore",3
5842041f4e65fad6a7708a54,2024_11_22,31.13553222995767,-81.38457634790909,St. Simons Island,0,0,0.11333333333333333,21,21,"NIGHT_CLEAR,CLEAR,CLEAR","Offshore,Offshore,Offshore",3
5842041f4e65fad6a7708a55,2024_11_22,31.33550077186516,-81.28383377408417,Wolf Island,0,0,0.10333333333333333,21,21,"NIGHT_CLEAR,CLEAR,CLEAR","Offshore,Offshore,Offshore",3
5842041f4e65fad6a7708a56,2024_11_22,31.2704493877174,-81.27324039152315,Little St. Simons Island,0,0,0.13,21.666666666666668,21.666666666666668,"NIGHT_CLEAR,CLEAR,CLEAR","Offshore,Offshore,Offshore",3
5842041f4e65fad6a7708a57,2024_11_22,31.39261761368919,-81.26190520231917,Sapelo Island,0,0,0.10666666666666667,21,21,"NIGHT_CLEAR,CLEAR,CLEAR","Offshore,Offshore,Offshore",3
5842041f4e65fad6a7708a58,2024_11_22,34.42458783809001,-77.54492,Surf City Pier,0.4444444444444444,0.10313333333333333,0.40134333333333333,18.666666666666668,17.666666666666668,"NIGHT_CLEAR,CLEAR,CLEAR","Offshore,Offshore,Offshore",3
5842041f4e65fad6a7708a59,2024_11_22,31.4231993614213,-81.24725340591522,Cabretta Island,0,0,0.13,21,21,"NIGHT_CLEAR,CLEAR,CLEAR","Offshore,Offshore,Offshore",3
5842041f4e65fad6a7708a5a,2024_11_22,31.46684389030369,-81.2100056410468,Blackbeard Island,0,0,0.10666666666666667,21,21,"NIGHT_CLEAR,CLEAR,CLEAR","Offshore,Offshore,Offshore",3
5842041f4e65fad6a7708a5b,2024_11_22,31.85953587631629,-80.99031310336719,Wassaw Island/South End,0,0,0.08,20.333333333333332,20.333333333333332,"NIGHT_CLEAR,CLEAR,CLEAR","Offshore,Offshore,Offshore",3
5842041f4e65fad6a7708a5c,2024_11_22,31.62535662342983,-81.13328352167974,St. Catherines Island,0,0,0.12666666666666668,21,21,"NIGHT_CLEAR,CLEAR,CLEAR","Offshore,Offshore,Offshore",3
5842041f4e65fad6a7708a5d,2024_11_22,31.76502169596568,-81.07655443806622,Ossabaw Island,0,0,0.09333333333333334,21,21,"NIGHT_CLEAR,CLEAR,CLEAR","Offshore,Offshore,Offshore",3
5842041f4e65fad6a7708a5e,2024_11_22,31.90593619092352,-80.93589231700857,Wassaw Island/North End,0,0,0.11333333333333333,21,21,"NIGHT_CLEAR,CLEAR,CLEAR","Offshore,Offshore,Offshore",3
5842041f4e65fad6a7708a5f,2024_11_22,31.96738675414547,-80.86977980706155,Little Tybee Island,0,0,0.12,21,21,"NIGHT_CLEAR,CLEAR,CLEAR","Offshore,Offshore,Offshore",3
5842041f4e65fad6a7708a60,2024_11_22,31.9812255780179,-80.84773973467009,South Tybee Sandbars,0,0,0.12333333333333334,21,21,"NIGHT_CLEAR,CLEAR,CLEAR","Offshore,Offshore,Offshore",3
5842041f4e65fad6a7708a61,2024_11_22,32.01226,-80.83983,Sugar Shack,0,0,0.09333333333333334,21,21,"NIGHT_CLEAR,CLEAR,CLEAR","Offshore,Offshore,Offshore",3
5842041f4e65fad6a7708a62,2024_11_22,31.98722842396969,-80.84773,18th St. Jetty,0,0,0.15447666666666665,21,21,"NIGHT_CLEAR,CLEAR,CLEAR","Offshore,Offshore,Offshore",3
5842041f4e65fad6a7708a64,2024_11_22,34.013473721006676,-77.8991,"Alabama Ave., Kure Beach",0.6666666666666666,0,0.22333333333333333,19,19,"NIGHT_CLEAR,CLEAR,CLEAR","Offshore,Offshore,Offshore",3
5842041f4e65fad6a7708a65,2024_11_22,34.20859853336924,-77.79293,"C Street, Wrightsville Beach",-0.11111111111111112,-0.00889,0.14814,17.666666666666668,17.333333333333332,"NIGHT_CLEAR,CLEAR,CLEAR","Cross-shore,Onshore,Cross-shore",3
5842041f4e65fad6a7708a66,2024_11_22,32.831,-79.71,Dewees Island,0,0,0.12333333333333334,20,20,"NIGHT_CLEAR,CLEAR,CLEAR","Offshore,Offshore,Offshore",3
5842041f4e65fad6a7708a67,2024_11_22,33.82924423172106,-78.62813,Cherry Grove Pier,0.11111111111111109,0.29774333333333336,0.57081,19,19,"NIGHT_CLEAR,CLEAR,CLEAR","Offshore,Offshore,Offshore",3
5842041f4e65fad6a7708a69,2024_11_22,34.27197439666496,-77.74050223196774,Figure Eight and Shell Islands,0,-0.014813333333333333,0.13256666666666667,17.666666666666668,17.333333333333332,"NIGHT_CLEAR,CLEAR,CLEAR","Offshore,Offshore,Offshore",3
5842041f4e65fad6a7708a6b,2024_11_22,33.49041958261793,-79.07666070599386,North End,0.3333333333333333,0,0.16,19,19,"NIGHT_CLEAR,CLEAR,CLEAR","Offshore,Offshore,Offshore",3
5842041f4e65fad6a7708a6c,2024_11_22,33.39537062495087,-79.13835037835189,The South End,0,0,0.11333333333333334,19,19,"NIGHT_CLEAR,CLEAR,CLEAR","Offshore,Offshore,Offshore",3
5842041f4e65fad6a7708a6d,2024_11_22,33.29001727666697,-79.17190003352977,North Island,1,0,0.19,19,19,"NIGHT_CLEAR,CLEAR,CLEAR","Offshore,Offshore,Offshore",3
5842041f4e65fad6a7708a6e,2024_11_22,32.90929771158952,-79.57810400297359,Bull Island,1,0.023333333333333334,0.31333333333333335,20,20,"NIGHT_CLEAR,CLEAR,CLEAR","Offshore,Offshore,Offshore",3
5842041f4e65fad6a7708a6f,2024_11_22,31.99153112815895,-80.84543050470074,Tybee Island Pier,0,0,0.1,21,21,"NIGHT_CLEAR,CLEAR,CLEAR","Offshore,Offshore,Offshore",3
5842041f4e65fad6a7708a70,2024_11_22,33.03478144356316,-79.35021028265125,Cape Romain,1,0,0.21,20,20,"NIGHT_CLEAR,CLEAR,CLEAR","Offshore,Offshore,Offshore",3
5842041f4e65fad6a7708a71,2024_11_22,33.43231073271028,-79.11789,The Pier,0,0,0.11993,19,19,"NIGHT_CLEAR,CLEAR,CLEAR","Offshore,Offshore,Offshore",3
5842041f4e65fad6a7708a72,2024_11_22,33.45423621397969,-79.10497798178424,South Litchfield,0,0,0.10666666666666667,19,19,"NIGHT_CLEAR,CLEAR,CLEAR","Offshore,Offshore,Offshore",3
5842041f4e65fad6a7708a73,2024_11_22,34.19316590251396,-77.8045,Crystal Pier,0,0.15804333333333334,0.37717,17.666666666666668,17.333333333333332,"NIGHT_CLEAR,CLEAR,CLEAR","Cross-shore,Onshore,Cross-shore",3
5842041f4e65fad6a7708a74,2024_11_22,33.68628680045124,-78.88346,Myrtle Beach,0.3333333333333333,0,0.16333333333333333,19,19,"NIGHT_CLEAR,CLEAR,CLEAR","Offshore,Offshore,Offshore",3
5842041f4e65fad6a7708a75,2024_11_22,32.66166297145973,-79.91951806398808,10th Street,0.6666666666666666,0,0.19666666666666668,20,20,"NIGHT_CLEAR,CLEAR,CLEAR","Offshore,Offshore,Offshore",3
5842041f4e65fad6a7708a76,2024_11_22,33.16729555197199,-79.19829236867845,South Island,1,0.016666666666666666,0.3,19.666666666666668,19.666666666666668,"NIGHT_CLEAR,CLEAR,CLEAR","Offshore,Offshore,Offshore",3
5842041f4e65fad6a7708a77,2024_11_22,32.595,-80.088,Kiawah Island/Seabrook Island,0.3333333333333333,0,0.15,20,20,"NIGHT_CLEAR,CLEAR,CLEAR","Offshore,Offshore,Offshore",3
5842041f4e65fad6a7708a78,2024_11_22,32.51356930575787,-80.28223,Edisto Beach,0.6666666666666666,0,0.25206333333333336,20,20,"NIGHT_CLEAR,CLEAR,CLEAR","Offshore,Offshore,Offshore",3
5842041f4e65fad6a7708a79,2024_11_22,32.366270751262,-80.43911,Hunting Island,1,0,0.17336,20,20,"NIGHT_CLEAR,CLEAR,CLEAR","Offshore,Offshore,Offshore",3
5842041f4e65fad6a7708a7a,2024_11_22,32.65337734408365,-79.93983,Folly Beach Pier,0.11111111111111109,0,0.23225666666666667,20,20,"NIGHT_CLEAR,CLEAR,CLEAR","Offshore,Offshore,Offshore",3
5842041f4e65fad6a7708a7b,2024_11_22,33.41209545530049,-79.13026341393126,South Jetty,0,0,0.11333333333333334,19,19,"NIGHT_CLEAR,CLEAR,CLEAR","Offshore,Offshore,Offshore",3
5842041f4e65fad6a7708a7c,2024_11_22,32.31115640606869,-80.48564,Fripp Island,0.6666666666666666,0,0.29902999999999996,20,20,"NIGHT_CLEAR,CLEAR,CLEAR","Offshore,Offshore,Offshore",3
5842041f4e65fad6a7708a7d,2024_11_22,32.14365226036034,-80.74402,Hilton Head Island,0,0,0.02,21,21,"NIGHT_CLEAR,CLEAR,CLEAR","Offshore,Offshore,Offshore",3
5842041f4e65fad6a7708a7e,2024_11_22,29.70405364733744,-81.22426,Matanzas Inlet,1,0.21240333333333333,0.51583,23.666666666666668,22.666666666666668,"NIGHT_CLEAR,CLEAR,CLEAR","Offshore,Offshore,Offshore",3
5842041f4e65fad6a7708a81,2024_11_22,29.76878537149042,-81.25109,Crescent Beach,1,0.0033333333333333335,0.30333333333333334,23.666666666666668,23.666666666666668,"NIGHT_CLEAR,CLEAR,CLEAR","Offshore,Offshore,Offshore",3
5842041f4e65fad6a7708a82,2024_11_22,32.80251718689188,-79.73221919500764,Wild Dunes,1,0,0.20333333333333334,20,20,"NIGHT_CLEAR,CLEAR,CLEAR","Offshore,Offshore,Offshore",3
5842041f4e65fad6a7708a84,2024_11_22,32.75733539419244,-79.83258856064796,Bert's Bar,1,0,0.18,20,20,"NIGHT_CLEAR,CLEAR,CLEAR","Offshore,Offshore,Offshore",3
5842041f4e65fad6a7708a85,2024_11_22,32.66829212943039,-79.90735,Washout,0.3333333333333333,0,0.2558433333333333,19.666666666666668,17.666666666666668,"NIGHT_CLEAR,CLEAR,CLEAR","Offshore,Offshore,Offshore",3
5842041f4e65fad6a7708a86,2024_11_22,32.78452968219067,-79.7854,The Pier/Windjammer,0,0,0.17666666666666667,20,20,"NIGHT_CLEAR,CLEAR,CLEAR","Offshore,Offshore,Offshore",3
5842041f4e65fad6a7708a87,2024_11_22,29.86618162637438,-81.2662150259608,Anastasia Park (The Entrance),1,0.03,0.33666666666666667,23.666666666666668,23.666666666666668,"NIGHT_CLEAR,CLEAR,CLEAR","Offshore,Offshore,Offshore",3
5842041f4e65fad6a7708a89,2024_11_22,29.89149785916623,-81.2723223244215,Blowholes,0.5555555555555555,0.027776666666666668,0.33098666666666665,26,24,"NIGHT_CLEAR,CLEAR,CLEAR","Offshore,Offshore,Offshore",3
5842041f4e65fad6a7708a8a,2024_11_22,30.16227112983666,-81.35502907491218,Crossroads,0.5555555555555555,0,0.28265666666666667,26,24,"NIGHT_CLEAR,CLEAR,CLEAR","Offshore,Offshore,Offshore",3
5842041f4e65fad6a7708a8b,2024_11_22,30.19308537587637,-81.36314247820911,Sawgrass,0.5555555555555555,0,0.26987666666666665,26,24,"NIGHT_CLEAR,CLEAR,CLEAR","Offshore,Offshore,Offshore",3
5842041f4e65fad6a7708a8c,2024_11_22,30.34696027700899,-81.39451,18th Street,1,0.10301,0.35099,23,23,"NIGHT_CLEAR,CLEAR,CLEAR","Offshore,Offshore,Offshore",3
5842041f4e65fad6a7708a8d,2024_11_22,30.381793,-81.39686,Mayport Poles,1,0,0.23333333333333334,23,23,"NIGHT_CLEAR,CLEAR,CLEAR","Offshore,Offshore,Offshore",3
5842041f4e65fad6a7708a8e,2024_11_22,30.390516,-81.395591,Blue Roofs,1,0,0.20333333333333334,23,23,"NIGHT_CLEAR,CLEAR,CLEAR","Offshore,Offshore,Offshore",3
5842041f4e65fad6a7708a8f,2024_11_22,30.40517712722211,-81.40074116169004,Huguenot Park (North Jetty),1,0,0.18000000000000002,23,23,"NIGHT_CLEAR,CLEAR,CLEAR","Offshore,Offshore,Offshore",3
5842041f4e65fad6a7708a90,2024_11_22,30.47788918872762,-81.41055821335078,Talbot Island,0.5777777777777777,0.15847333333333333,0.38769000000000003,23.666666666666668,22.666666666666668,"NIGHT_CLEAR,CLEAR,CLEAR","Offshore,Offshore,Offshore",3
5842041f4e65fad6a7708a91,2024_11_22,30.66753984549761,-81.42983,Main Beach,0.3333333333333333,0,0.15,23,23,"NIGHT_CLEAR,CLEAR,CLEAR","Offshore,Offshore,Offshore",3
5842041f4e65fad6a7708a92,2024_11_22,30.69983581209126,-81.42483,Ft. Clinch State Park,1,0,0.16666666666666666,23,23,"NIGHT_CLEAR,CLEAR,CLEAR","Offshore,Offshore,Offshore",3
5842041f4e65fad6a7708a93,2024_11_22,30.62059700777582,-81.437252942757425,Amelia Pier,0,0,0.16666666666666666,23,23,"NIGHT_CLEAR,CLEAR,CLEAR","Offshore,Offshore,Offshore",3
5842041f4e65fad6a7708a95,2024_11_22,28.95125170929067,-80.83837,Bethune Beach,2,0.3466666666666667,0.65,25.333333333333332,25.333333333333332,"NIGHT_CLEAR,CLEAR,CLEAR","Offshore,Offshore,Offshore",3
5842041f4e65fad6a7708a96,2024_11_22,29.03874288905362,-80.8933424949646,Flagler Ave.,1.1111111111111112,0.47475666666666666,0.8214766666666667,26,24,"NIGHT_CLEAR,CLEAR,CLEAR","Offshore,Offshore,Offshore",3
5842041f4e65fad6a7708a98,2024_11_22,30.332297686992757,-81.39319,Atlantic Beach,1,0,0.23347,23,23,"NIGHT_CLEAR,CLEAR,CLEAR","Offshore,Offshore,Offshore",3
5842041f4e65fad6a7708a99,2024_11_22,29.87530059952514,-81.26757958498874,Middles,0.5555555555555555,0.03138666666666667,0.33126666666666665,26,24,"NIGHT_CLEAR,CLEAR,CLEAR","Offshore,Offshore,Offshore",3
5842041f4e65fad6a7708a9a,2024_11_22,29.146475528378218,-80.96347,Sunglow Pier,1,0.23666666666666666,0.54,24.333333333333332,24.333333333333332,"NIGHT_CLEAR,CLEAR,CLEAR","Offshore,Offshore,Offshore",3
5842041f4e65fad6a7708a9b,2024_11_22,30.02251238001095,-81.32183077344881,Gate Station,0.5555555555555555,0.008613333333333334,0.3151566666666667,26,24,"NIGHT_CLEAR,CLEAR,CLEAR","Offshore,Offshore,Offshore",3
5842041f4e65fad6a7708a9c,2024_11_22,29.33976495417899,-81.0606,Bicentennial Park,1,0.22,0.5233333333333333,24,24,"NIGHT_CLEAR,CLEAR,CLEAR","Offshore,Offshore,Offshore",3
5842041f4e65fad6a7708a9d,2024_11_22,29.08257353385602,-80.92137,Ponce Inlet,1.3333333333333333,0.5792,0.88908,24,23,"NIGHT_CLEAR,CLEAR,CLEAR","Offshore,Offshore,Offshore",3
5842041f4e65fad6a7708a9f,2024_11_22,27.862962005874696,-80.44668,Sebastian Inlet,0.7555555555555555,0.6223066666666667,0.9642999999999999,25.333333333333332,23.666666666666668,"NIGHT_CLEAR,CLEAR,CLEAR","Offshore,Offshore,Offshore",3
5842041f4e65fad6a7708aa0,2024_11_22,30.292626880836885,-81.38579,Jacksonville Beach Pier,0.3333333333333333,0,0.2740433333333333,23.666666666666668,22.666666666666668,"NIGHT_CLEAR,CLEAR,CLEAR","Cross-shore,Cross-shore,Cross-shore",3
5842041f4e65fad6a7708aa2,2024_11_22,29.21860397328164,-81.0019,Daytona Beach,1,0.23,0.5333333333333333,24,24,"NIGHT_CLEAR,CLEAR,CLEAR","Offshore,Offshore,Offshore",3
5842041f4e65fad6a7708aa3,2024_11_22,27.47531255634912,-80.28914,Ft. Pierce Inlet,1.7555555555555555,0.5872566666666666,0.9339766666666667,25.333333333333332,23.666666666666668,"NIGHT_CLEAR,CLEAR,CLEAR","Cross-shore,Cross-shore,Offshore",3
5842041f4e65fad6a7708aa4,2024_11_22,29.29239875585548,-81.0386,Ormond Beach,1,0.1,0.4033333333333333,24,24,"NIGHT_CLEAR,CLEAR,CLEAR","Offshore,Offshore,Offshore",3
5842041f4e65fad6a7708aa5,2024_11_22,29.91629441498523,-81.28801,Vilano,1,0.09333333333333334,0.39999999999999997,23.666666666666668,23.666666666666668,"NIGHT_CLEAR,CLEAR,CLEAR","Offshore,Offshore,Offshore",3
5842041f4e65fad6a7708aa6,2024_11_22,27.876230736320828,-80.4551,Spanish House,1.1111111111111112,0.5505866666666667,0.85352,24.666666666666668,23.666666666666668,"NIGHT_CLEAR,CLEAR,CLEAR","Offshore,Offshore,Offshore",3
5842041f4e65fad6a7708aa7,2024_11_22,28.64397251741012,-80.62329,Playalinda,1.6666666666666667,0.5233333333333333,0.8333333333333334,26,26,"NIGHT_CLEAR,CLEAR,CLEAR","Offshore,Offshore,Offshore",3
5842041f4e65fad6a7708aa8,2024_11_22,28.406142,-80.58886,Jetty Park,1,0,0.23,26.333333333333332,26.333333333333332,"NIGHT_CLEAR,CLEAR,CLEAR","Offshore,Offshore,Offshore",3
5842041f4e65fad6a7708aa9,2024_11_22,28.49083243010974,-80.58001715986319,Kennedy Space Center,2,0.46,0.7633333333333333,26.333333333333332,26.333333333333332,"NIGHT_CLEAR,CLEAR,CLEAR","Offshore,Offshore,Offshore",3
5842041f4e65fad6a7708aab,2024_11_22,28.336757013024314,-80.60568,Lori Wilson Park,0.7777777777777778,0,0.28988,23.666666666666668,23.666666666666668,"NIGHT_CLEAR,CLEAR,CLEAR","Offshore,Offshore,Offshore",3
5842041f4e65fad6a7708aad,2024_11_22,27.76388821683801,-80.3962958234027,Wabasso,1.6666666666666667,0.47,0.77,26.333333333333332,26.333333333333332,"NIGHT_CLEAR,CLEAR,CLEAR","Offshore,Offshore,Offshore",3
5842041f4e65fad6a7708aae,2024_11_22,27.521583322459,-80.30987620353699,P.V. Martin's,1.4444444444444444,0.5858666666666666,0.9389766666666667,25.333333333333332,23.666666666666668,"NIGHT_CLEAR,CLEAR,CLEAR","Offshore,Offshore,Offshore",3
5842041f4e65fad6a7708aaf,2024_11_22,27.644996047720046,-80.35242676734924,Riomar,1.4444444444444444,0.5942,0.9905466666666666,25.333333333333332,23.666666666666668,"NIGHT_CLEAR,CLEAR,CLEAR","Offshore,Offshore,Offshore",3
5842041f4e65fad6a7708ab1,2024_11_22,27.670121806659253,-80.36026954650879,Vero Pier,1.7777777777777777,0.58031,0.9830433333333333,25.333333333333332,23.666666666666668,"NIGHT_CLEAR,CLEAR,CLEAR","Offshore,Offshore,Offshore",3
5842041f4e65fad6a7708ab2,2024_11_22,28.047705032021486,-80.54680109024048,Spessard Holland,0.9111111111111111,0.61268,0.8926999999999999,24,23.666666666666668,"NIGHT_CLEAR,CLEAR,CLEAR","Offshore,Onshore,Onshore",3
5842041f4e65fad6a7708ab7,2024_11_22,28.135426226217064,-80.57895541191101,The Radisson,0.7777777777777778,0.27571,0.5792,23.666666666666668,23.666666666666668,"NIGHT_CLEAR,CLEAR,CLEAR","Offshore,Offshore,Offshore",3
5842041f4e65fad6a7708ab8,2024_11_22,28.26664623907351,-80.60448,Picnic Tables,1,0.06,0.37,26.333333333333332,26.333333333333332,"NIGHT_CLEAR,CLEAR,CLEAR","Offshore,Offshore,Offshore",3
5842041f4e65fad6a7708ab9,2024_11_22,28.200840983180232,-80.59493,Perkins,1,0.10333333333333333,0.4033333333333333,26.333333333333332,26.333333333333332,"NIGHT_CLEAR,CLEAR,CLEAR","Offshore,Offshore,Offshore",3
5842041f4e65fad6a7708aba,2024_11_22,28.185652556759443,-80.59154,RC's,1,0.17333333333333334,0.48,26.333333333333332,26.333333333333332,"NIGHT_CLEAR,CLEAR,CLEAR","Offshore,Offshore,Offshore",3
5842041f4e65fad6a7708abc,2024_11_22,28.252541991968208,-80.60269,2nd Light,1,0.06,0.36333333333333334,26.333333333333332,26.333333333333332,"NIGHT_CLEAR,CLEAR,CLEAR","Offshore,Offshore,Offshore",3
5842041f4e65fad6a7708abd,2024_11_22,27.901611308716447,-80.4697,Bonsteel Park,1.1111111111111112,0.6036433333333333,0.9037999999999999,24.666666666666668,23.666666666666668,"NIGHT_CLEAR,CLEAR,CLEAR","Offshore,Offshore,Offshore",3
5842041f4e65fad6a7708abe,2024_11_22,28.2423394657007,-80.60104,Hangar's Beach,1.3333333333333333,0.22,0.5233333333333333,26.333333333333332,26.333333333333332,"NIGHT_CLEAR,CLEAR,CLEAR","Offshore,Offshore,Offshore",3
5842041f4e65fad6a7708abf,2024_11_22,27.34018197146798,-80.23278,Walton Rocks,0.8666666666666667,0.5944766666666667,0.9445333333333333,26,25.333333333333332,"NIGHT_CLEAR,CLEAR,CLEAR","Cross-shore,Offshore,Offshore",3
5842041f4e65fad6a7708ac0,2024_11_22,25.80407401902198,-80.1222227290161,30th Street,1,0.10666666666666667,0.41333333333333333,27,27,"NIGHT_CLEAR,CLEAR,CLEAR","Offshore,Offshore,Offshore",3
5842041f4e65fad6a7708ac1,2024_11_22,25.76570280215999,-80.12983,South Beach,1.6111111111111112,0.22329,0.5275366666666667,27.666666666666668,27,"NIGHT_CLEAR,CLEAR,CLEAR","Offshore,Offshore,Offshore",3
5842041f4e65fad6a7708ac2,2024_11_22,26.058022412197,-80.10873562327671,Dania Pier,1,0.11333333333333334,0.42333333333333334,27,27,"NIGHT_CLEAR,CLEAR,CLEAR","Offshore,Offshore,Offshore",3
5842041f4e65fad6a7708ac3,2024_11_22,26.04825428257198,-80.11153150137932,Franklin Street,1.6666666666666667,0.42333333333333334,0.73,27,27,"NIGHT_CLEAR,CLEAR,CLEAR","Offshore,Offshore,Offshore",3
5842041f4e65fad6a7708ac4,2024_11_22,26.09086461141498,-80.10728410144065,John Lloyd State Park,1.3333333333333333,0.42333333333333334,0.73,27,27,"NIGHT_CLEAR,CLEAR,CLEAR","Offshore,Offshore,Offshore",3
5842041f4e65fad6a7708ac5,2024_11_22,26.0971397396683,-80.10298876028907,Spoils,1,0.14666666666666667,0.4533333333333333,27,27,"NIGHT_CLEAR,CLEAR,CLEAR","Offshore,Offshore,Offshore",3
5842041f4e65fad6a7708ac6,2024_11_22,26.18920557475824,-80.09224,Commercial Pier,1,0.16333333333333333,0.47000000000000003,27,27,"NIGHT_CLEAR,CLEAR,CLEAR","Offshore,Offshore,Offshore",3
5842041f4e65fad6a7708ac7,2024_11_22,28.289851576629342,-80.6063,16th St. South,0.5555555555555555,0.028333333333333335,0.3346,25.666666666666668,24.666666666666668,"NIGHT_CLEAR,CLEAR,CLEAR","Offshore,Offshore,Offshore",3
5842041f4e65fad6a7708ac8,2024_11_22,26.23467460139735,-80.0874,Pompano Pier,1.3333333333333333,0.32972333333333337,0.6361833333333333,26.333333333333332,26.333333333333332,"NIGHT_CLEAR,CLEAR,CLEAR","Offshore,Offshore,Offshore",3
5842041f4e65fad6a7708acb,2024_11_22,26.44179551370651,-80.05928855229453,Atlantic Dunes Park,3.022222222222222,0.5782233333333333,0.9693299999999999,26.333333333333332,25.333333333333332,"NIGHT_CLEAR,CLEAR,CLEAR","Offshore,Offshore,Offshore",3
5842041f4e65fad6a7708acd,2024_11_22,26.62215707439298,-80.03599398392342,Hilton Hotel Backyard,2.2222222222222223,0.5930866666666667,0.9428666666666666,25.666666666666668,25.333333333333332,"NIGHT_CLEAR,CLEAR,CLEAR","Offshore,Offshore,Offshore",3
5842041f4e65fad6a7708ace,2024_11_22,26.96418190555367,-80.07769168113562,Coral Cove Park,1.6666666666666667,0.5978133333333333,0.9542566666666666,25.333333333333332,24.333333333333332,"NIGHT_CLEAR,CLEAR,CLEAR","Offshore,Offshore,Offshore",3
5842041f4e65fad6a7708acf,2024_11_22,26.7029496416037,-80.03184,Palm Beach,2.2222222222222223,0.61781,0.9642533333333333,25.666666666666668,25.333333333333332,"NIGHT_CLEAR,CLEAR,CLEAR","Offshore,Offshore,Offshore",3
5842041f4e65fad6a7708ad0,2024_11_22,26.97679878167375,-80.08141631388132,Blowing Rocks,1.6666666666666667,0.62198,0.97509,25.333333333333332,24.333333333333332,"NIGHT_CLEAR,CLEAR,CLEAR","Offshore,Offshore,Offshore",3
5842041f4e65fad6a7708ad2,2024_11_22,26.45661880078336,-80.057,Delray Beach,2.6888888888888887,0.552,0.94644,26.333333333333332,25.333333333333332,"NIGHT_CLEAR,CLEAR,CLEAR","Offshore,Offshore,Offshore",3
5842041f4e65fad6a7708ad3,2024_11_22,27.205685534312778,-80.16826629638672,Fletcher's,1.5555555555555556,0.61281,0.9656433333333334,25.333333333333332,24.333333333333332,"NIGHT_CLEAR,CLEAR,CLEAR","Offshore,Offshore,Offshore",3
5842041f4e65fad6a7708ad5,2024_11_22,26.5848450388814,-80.03649735753257,Lantana Public Beach,1.8888888888888888,0.5635666666666667,0.9136233333333333,26.333333333333332,25.333333333333332,"NIGHT_CLEAR,CLEAR,CLEAR","Offshore,Offshore,Offshore",3
5842041f4e65fad6a7708ad6,2024_11_22,25.77468432731322,-80.12884045797499,5th Street,1,0.30333333333333334,0.6066666666666667,27,27,"NIGHT_CLEAR,CLEAR,CLEAR","Offshore,Offshore,Offshore",3
5842041f4e65fad6a7708ad7,2024_11_22,25.795157990715975,-80.12527585029602,21st Street,1,0.060000000000000005,0.36333333333333334,27,27,"NIGHT_CLEAR,CLEAR,CLEAR","Offshore,Offshore,Offshore",3
5842041f4e65fad6a7708ad8,2024_11_22,25.897806453088073,-80.1211827993393,Haulover Inlet (South Jetty),1,0.24666666666666667,0.5533333333333333,27,27,"NIGHT_CLEAR,CLEAR,CLEAR","Offshore,Offshore,Offshore",3
5842041f4e65fad6a7708ad9,2024_11_22,25.90147392328634,-80.12110769748688,Haulover Inlet (North Jetty),1.3333333333333333,0.4533333333333333,0.7533333333333333,27,27,"NIGHT_CLEAR,CLEAR,CLEAR","Offshore,Offshore,Offshore",3
5842041f4e65fad6a7708ada,2024_11_22,25.87049374242476,-80.11828560342356,85th Street,1,0.29333333333333333,0.5966666666666667,27,27,"NIGHT_CLEAR,CLEAR,CLEAR","Offshore,Offshore,Offshore",3
5842041f4e65fad6a7708adb,2024_11_22,26.25486382031396,-80.0805,Hillsboro Inlet,1,0.18483333333333332,0.50219,26.333333333333332,26.333333333333332,"NIGHT_CLEAR,CLEAR,CLEAR","Offshore,Offshore,Offshore",3
5842041f4e65fad6a7708add,2024_11_22,26.29705672965111,-80.07612,Hillsboro Beach,1,0.15,0.4533333333333333,26.333333333333332,26.333333333333332,"NIGHT_CLEAR,CLEAR,CLEAR","Offshore,Offshore,Offshore",3
5842041f4e65fad6a7708ade,2024_11_22,26.36569956413266,-80.06717936869391,Red Reef Park,1.5555555555555556,0.27821,0.62799,26.666666666666668,26,"NIGHT_CLEAR,CLEAR,CLEAR","Offshore,Offshore,Offshore",3
5842041f4e65fad6a7708adf,2024_11_22,26.54593873498907,-80.04104359585143,Boynton Beach Inlet (Northside),1.7777777777777777,0.31717666666666666,0.6672333333333333,26.333333333333332,25.333333333333332,"NIGHT_CLEAR,CLEAR,CLEAR","Offshore,Offshore,Offshore",3
5842041f4e65fad6a7708ae0,2024_11_22,26.92746505629809,-80.06721138954163,Corners,2.422222222222222,0.77611,1.13408,25.666666666666668,25.333333333333332,"NIGHT_CLEAR,CLEAR,CLEAR","Offshore,Offshore,Offshore",3
5842041f4e65fad6a7708ae1,2024_11_22,26.76983179886943,-80.03413481937037,The Cove,2.3333333333333335,0.5933666666666667,0.9495333333333333,25.666666666666668,25.333333333333332,"NIGHT_CLEAR,CLEAR,CLEAR","Offshore,Offshore,Offshore",3
5842041f4e65fad6a7708ae3,2024_11_22,26.39224485175123,-80.0650461233983,Japanese Rock,1.5555555555555556,0.2371,0.5932666666666666,26.666666666666668,26,"NIGHT_CLEAR,CLEAR,CLEAR","Offshore,Offshore,Offshore",3
5842041f4e65fad6a7708ae4,2024_11_22,29.94810928551321,-85.42545434612366,Mexico Beach,1.3333333333333333,0.4066666666666667,0.7066666666666667,23,23,"NIGHT_CLEAR,CLEAR,CLEAR","Cross-shore,Cross-shore,Cross-shore",3
5842041f4e65fad6a7708ae5,2024_11_22,30.11752500931267,-85.7306,Shell Island,1,0.31,0.62,23.333333333333332,23.333333333333332,"NIGHT_CLEAR,CLEAR,CLEAR","Cross-shore,Cross-shore,Offshore",3
5842041f4e65fad6a7708ae7,2024_11_22,29.94901514702268,-85.43042978529013,D.J.'s,2,0.39666666666666667,0.7033333333333334,23,23,"NIGHT_CLEAR,CLEAR,CLEAR","Cross-shore,Cross-shore,Offshore",3
5842041f4e65fad6a7708ae8,2024_11_22,30.12396111446713,-85.73637,St. Andrew's Park,1,0.53291,0.8391233333333333,21,20.333333333333332,"NIGHT_CLEAR,CLEAR,CLEAR","Cross-shore,Cross-shore,Cross-shore",3
5842041f4e65fad6a7708ae9,2024_11_22,30.16781531760227,-85.79604918824084,Spinnaker,1,0.5092433333333333,0.8141233333333333,21,20.333333333333332,"NIGHT_CLEAR,CLEAR,CLEAR","Offshore,Offshore,Offshore",3
5842041f4e65fad6a7708aea,2024_11_22,30.18877050526983,-85.83243530466363,Wood Pier,0.6666666666666666,0.22794333333333333,0.5342233333333334,21,20.333333333333332,"NIGHT_CLEAR,CLEAR,CLEAR","Cross-shore,Cross-shore,Offshore",3
5842041f4e65fad6a7708aeb,2024_11_22,30.2676205895555,-85.9938578144113,Inlet Beach Pier,0.6666666666666666,0.2135,0.5228333333333334,21,20.333333333333332,"NIGHT_CLEAR,CLEAR,CLEAR","Offshore,Cross-shore,Offshore",3
5842041f4e65fad6a7708aec,2024_11_22,30.31815542759119,-86.1383771867044,Bud and Alley's,0.6666666666666666,0.20211,0.49255666666666664,21,20.333333333333332,"NIGHT_CLEAR,CLEAR,CLEAR","Offshore,Offshore,Offshore",3
5842041f4e65fad6a7708aed,2024_11_22,30.32686082481946,-86.16650590275447,Grayton Beach,0.6666666666666666,0.18322333333333332,0.46116666666666667,21,20.333333333333332,"NIGHT_CLEAR,CLEAR,CLEAR","Offshore,Offshore,Offshore",3
5842041f4e65fad6a7708aee,2024_11_22,30.33661488976303,-86.20094,Blue Mountain Beach,0.6666666666666666,0.19183333333333333,0.4811666666666667,21,20.333333333333332,"NIGHT_CLEAR,CLEAR,CLEAR","Offshore,Offshore,Offshore",3
5842041f4e65fad6a7708aef,2024_11_22,30.37677202831587,-86.38513,Pompano Joe's,0.6666666666666666,0.16933333333333334,0.42866666666666664,21,20.333333333333332,"NIGHT_CLEAR,CLEAR,CLEAR","Cross-shore,Offshore,Offshore",3
5842041f4e65fad6a7708af0,2024_11_22,30.37429731725911,-86.36687,Seascape,0.6666666666666666,0.17933333333333332,0.45227666666666666,21,20.333333333333332,"NIGHT_CLEAR,CLEAR,CLEAR","Cross-shore,Offshore,Offshore",3
5842041f4e65fad6a7708af1,2024_11_22,30.382815988547186,-86.45839,The Back Porch,0.6666666666666666,0.16933333333333334,0.42755666666666664,21,20.333333333333332,"NIGHT_CLEAR,CLEAR,CLEAR","Offshore,Offshore,Offshore",3
5842041f4e65fad6a7708af2,2024_11_22,30.21207176798612,-85.87989730830542,Panama City Pier,0.6666666666666666,0.22266666666666668,0.5295000000000001,21,20.333333333333332,"NIGHT_CLEAR,CLEAR,CLEAR","Cross-shore,Cross-shore,Offshore",3
5842041f4e65fad6a7708af3,2024_11_22,30.37521499110326,-86.3717,Whale's Tail,1.222222222222222,0.16933333333333334,0.44866666666666666,21,20.333333333333332,"NIGHT_CLEAR,CLEAR,CLEAR","Cross-shore,Offshore,Offshore",3
5842041f4e65fad6a7708af4,2024_11_22,30.38120596658251,-86.43046,Old Crystal Pier,0.6666666666666666,0.16933333333333334,0.44533333333333336,21,20.333333333333332,"NIGHT_CLEAR,CLEAR,CLEAR","Offshore,Offshore,Offshore",3
5842041f4e65fad6a7708af5,2024_11_22,30.38090573159031,-86.50655,Jetty East,0.6666666666666666,0.16933333333333334,0.44005666666666665,21,20.333333333333332,"NIGHT_CLEAR,CLEAR,CLEAR","Offshore,Offshore,Offshore",3
5842041f4e65fad6a7708af6,2024_11_22,30.37584509640838,-86.50563,HMO's,0.6666666666666666,0.16933333333333334,0.44533333333333336,21,20.333333333333332,"NIGHT_CLEAR,CLEAR,CLEAR","Offshore,Offshore,Offshore",3
5842041f4e65fad6a7708af7,2024_11_22,30.38124006131522,-86.50052,Two By Fours,0.6666666666666666,0.17266666666666666,0.44561,21,20.333333333333332,"NIGHT_CLEAR,CLEAR,CLEAR","Offshore,Offshore,Offshore",3
5842041f4e65fad6a7708af8,2024_11_22,30.38250751017554,-86.45776,The Pumphouse,0.6666666666666666,0.17266666666666666,0.44894333333333336,21,20.333333333333332,"NIGHT_CLEAR,CLEAR,CLEAR","Offshore,Offshore,Offshore",3
5842041f4e65fad6a7708af9,2024_11_22,30.38655981578935,-86.52475,NCO Club,0.6666666666666666,0.16933333333333334,0.442,21,20.333333333333332,"NIGHT_CLEAR,CLEAR,CLEAR","Offshore,Offshore,Offshore",3
5842041f4e65fad6a7708afa,2024_11_22,30.39024516541047,-86.59341,Okaloosa Pier,0.6666666666666666,0.16933333333333334,0.43533333333333335,21,20.333333333333332,"NIGHT_CLEAR,CLEAR,CLEAR","Offshore,Offshore,Offshore",3
5842041f4e65fad6a7708afb,2024_11_22,30.39281125722673,-86.59766,Dead Man's,0.6666666666666666,0.16933333333333334,0.42755666666666664,21,20.333333333333332,"NIGHT_CLEAR,CLEAR,CLEAR","Offshore,Offshore,Offshore",3
5842041f4e65fad6a7708afc,2024_11_22,30.32703176167034,-87.14196,Pensacola Pier,0.3333333333333333,0,0.13666666666666666,23.333333333333332,23.333333333333332,"NIGHT_CLEAR,CLEAR,CLEAR","Offshore,Offshore,Offshore",3
5842041f4e65fad6a7708afd,2024_11_22,30.37920054094992,-86.85583,Navarre Beach,0.3333333333333333,0,0.14444333333333334,21,20.333333333333332,"NIGHT_CLEAR,CLEAR,CLEAR","Cross-shore,Offshore,Offshore",3
5842041f4e65fad6a7708afe,2024_11_22,30.39491626029151,-86.61248,Blue Horizon Motel,0.6666666666666666,0.16933333333333334,0.42839,21,20.333333333333332,"NIGHT_CLEAR,CLEAR,CLEAR","Offshore,Offshore,Offshore",3
5842041f4e65fad6a7708aff,2024_11_22,30.29345899260828,-87.43547,First Parking Lot,0,0,0.12333333333333334,23.333333333333332,23.333333333333332,"NIGHT_CLEAR,CLEAR,CLEAR","Offshore,Offshore,Offshore",3
5842041f4e65fad6a7708b00,2024_11_22,30.29767401311303,-87.41362,Johnsons Beach,0.3333333333333333,0,0.12333333333333334,23.333333333333332,23.333333333333332,"NIGHT_CLEAR,CLEAR,CLEAR","Offshore,Offshore,Offshore",3
5842041f4e65fad6a7708b01,2024_11_22,30.29513397370759,-87.42642,Sandy Key,0,0,0.11333333333333333,23.333333333333332,23.333333333333332,"NIGHT_CLEAR,CLEAR,CLEAR","Offshore,Offshore,Offshore",3
5842041f4e65fad6a7708b03,2024_11_22,30.377504907388026,-86.86444,Navarre Pier,0.3333333333333333,0,0.18855666666666665,21,20.333333333333332,"NIGHT_CLEAR,CLEAR,CLEAR","Offshore,Offshore,Offshore",3
5842041f4e65fad6a7708b04,2024_11_22,30.31482647791307,-87.26164,Pickens Point Dunes,0.3333333333333333,0,0.14333333333333334,23.333333333333332,23.333333333333332,"NIGHT_CLEAR,CLEAR,CLEAR","Offshore,Offshore,Offshore",3
5842041f4e65fad6a7708b05,2024_11_22,30.32632110836516,-87.16019503253068,Slabs,0.3333333333333333,0,0.13333333333333333,23.333333333333332,23.333333333333332,"NIGHT_CLEAR,CLEAR,CLEAR","Offshore,Offshore,Offshore",3
5842041f4e65fad6a7708b06,2024_11_22,30.32739721382043,-87.30406515493348,Pickens Point,0.3333333333333333,0,0.14666666666666667,23.333333333333332,23.333333333333332,"NIGHT_CLEAR,CLEAR,CLEAR","Cross-shore,Cross-shore,Cross-shore",3
5842041f4e65fad6a7708b07,2024_11_22,30.27406893266753,-87.54367,Bungalows,0.3333333333333333,0,0.12333333333333334,23.333333333333332,23.333333333333332,"NIGHT_CLEAR,CLEAR,CLEAR","Offshore,Offshore,Offshore",3
5842041f4e65fad6a7708b08,2024_11_22,27.99627311846992,-82.82942,880,0,1.0425633333333333,1.3802966666666667,24,24,"NIGHT_CLEAR,CLEAR,CLEAR","Cross-shore,Cross-shore,Onshore",3
5842041f4e65fad6a7708b09,2024_11_22,27.97779860371595,-82.83246509090527,Pier 60,0.3333333333333333,1.0933333333333335,1.4,24,24,"NIGHT_CLEAR,CLEAR,CLEAR","Onshore,Onshore,Onshore",3
5842041f4e65fad6a7708b0a,2024_11_22,27.96296387618043,-82.8332635965418,Sand Key,0.3333333333333333,1.0933333333333335,1.4,24,24,"NIGHT_CLEAR,CLEAR,CLEAR","Onshore,Onshore,Onshore",3
5842041f4e65fad6a7708b0b,2024_11_22,27.92492619212885,-82.8449122845279,Belleair,0.3333333333333333,1.1066666666666667,1.4133333333333333,24,24,"NIGHT_CLEAR,CLEAR,CLEAR","Cross-shore,Onshore,Onshore",3
5842041f4e65fad6a7708b0c,2024_11_22,27.882,-82.854,Indian Rocks Beach,0.6666666666666666,1.21,1.5166666666666666,24,24,"NIGHT_CLEAR,CLEAR,CLEAR","Cross-shore,Onshore,Onshore",3
5842041f4e65fad6a7708b0d,2024_11_22,27.83106104966094,-82.83550218771384,Redington Breakwater,2,1.1266666666666667,1.43,24,24,"NIGHT_CLEAR,CLEAR,CLEAR","Cross-shore,Cross-shore,Cross-shore",3
5842041f4e65fad6a7708b0e,2024_11_22,27.74369029906206,-82.76053473435867,Middle Jetty,1,1.0433333333333334,1.35,24,24,"NIGHT_CLEAR,CLEAR,CLEAR","Cross-shore,Cross-shore,Onshore",3
5842041f4e65fad6a7708b0f,2024_11_22,27.82174178852146,-82.83148664631841,Redington Pier,1.6666666666666667,1.09,1.3933333333333333,24,24,"NIGHT_CLEAR,CLEAR,CLEAR","Cross-shore,Cross-shore,Cross-shore",3
5842041f4e65fad6a7708b10,2024_11_22,27.31496308261514,-82.5830466912004,Lido Beach,1,0.8733333333333333,1.1766666666666665,25,25,"NIGHT_CLEAR,CLEAR,CLEAR","Cross-shore,Cross-shore,Onshore",3
5842041f4e65fad6a7708b11,2024_11_22,27.31122010159892,-82.57833234007632,Coolidge,1,0.8666666666666667,1.1733333333333333,25,25,"NIGHT_CLEAR,CLEAR,CLEAR","Cross-shore,Cross-shore,Onshore",3
5842041f4e65fad6a7708b12,2024_11_22,27.26471672017615,-82.55464835167173,Siesta Key,1.3333333333333333,0.47,0.78,24,23,"NIGHT_CLEAR,CLEAR,CLEAR","Cross-shore,Cross-shore,Cross-shore",3
5842041f4e65fad6a7708b13,2024_11_22,27.24638693488133,-82.53809115716797,Stickney Point,1.3333333333333333,0.7866666666666667,1.0933333333333335,25,25,"NIGHT_CLEAR,CLEAR,CLEAR","Cross-shore,Cross-shore,Cross-shore",3
5842041f4e65fad6a7708b14,2024_11_22,27.21907878229092,-82.51813937562073,Turtles,1.6666666666666667,0.76,1.0666666666666667,25,25,"NIGHT_CLEAR,CLEAR,CLEAR","Offshore,Cross-shore,Cross-shore",3
5842041f4e65fad6a7708b15,2024_11_22,27.11375765852028,-82.47039,Venice Jetties North,0.888888888888889,0.9232899999999999,1.2247566666666667,24,23,"NIGHT_CLEAR,CLEAR,CLEAR","Cross-shore,Cross-shore,Onshore",3
5842041f4e65fad6a7708b16,2024_11_22,27.111485758834025,-82.46757,Venice Jetties South,1.3333333333333333,0.59,0.89,24,23,"NIGHT_CLEAR,CLEAR,CLEAR","Cross-shore,Cross-shore,Cross-shore",3
5842041f4e65fad6a7708b17,2024_11_22,27.07249378831575,-82.4530285256104,Venice Pier,2,0.8166666666666667,1.1266666666666667,24,23,"NIGHT_CLEAR,CLEAR,CLEAR","Offshore,Cross-shore,Cross-shore",3
5842041f4e65fad6a7708b19,2024_11_22,27.49680446426314,-82.7140145455959,Holmes Beach Pier,0,0.86,1.1633333333333333,24.666666666666668,24.666666666666668,"NIGHT_CLEAR,CLEAR,CLEAR","Cross-shore,Cross-shore,Onshore",3
5842041f4e65fad6a7708b1a,2024_11_22,27.7390348493064,-82.75763,Sunset Beach,1.3333333333333333,1.04,1.3433333333333335,24,24,"NIGHT_CLEAR,CLEAR,CLEAR","Cross-shore,Cross-shore,Cross-shore",3
5842041f4e65fad6a7708b1b,2024_11_22,26.80347307599041,-82.28564775623539,Gasparilla Point,2,0.71,1.01,24.333333333333332,24.333333333333332,"NIGHT_CLEAR,CLEAR,CLEAR","Offshore,Offshore,Cross-shore",3
5842041f4e65fad6a7708b1c,2024_11_22,27.45365831548911,-82.69609,Coquina Jetties,0,0.8133333333333334,1.1166666666666667,25,25,"NIGHT_CLEAR,CLEAR,CLEAR","Cross-shore,Cross-shore,Cross-shore",3
5842041f4e65fad6a7708b1d,2024_11_22,27.46077315206043,-82.69924,Twin Piers,1.088888888888889,0.9082866666666667,1.2161466666666667,24,23,"NIGHT_CLEAR,CLEAR,CLEAR","Cross-shore,Cross-shore,Cross-shore",3
5842041f4e65fad6a7708b1e,2024_11_22,26.91007316019612,-82.35352,Englewood,1.6666666666666667,0.47333333333333333,0.7833333333333333,24.333333333333332,24.333333333333332,"NIGHT_CLEAR,CLEAR,CLEAR","Offshore,Offshore,Cross-shore",3
5842041f4e65fad6a7708b1f,2024_11_22,26.88221101560038,-82.3359828282636,Knight's Point,2.3333333333333335,0.6799999999999999,0.99,24.333333333333332,24.333333333333332,"NIGHT_CLEAR,CLEAR,CLEAR","Offshore,Offshore,Cross-shore",3
5842041f4e65fad6a7708b20,2024_11_22,26.51219285784982,-82.1928203289264,Tween Waters,1.3333333333333333,0.7366666666666667,1.04,24.333333333333332,24.333333333333332,"NIGHT_CLEAR,CLEAR,CLEAR","Cross-shore,Offshore,Onshore",3
5842041f4e65fad6a7708b21,2024_11_22,26.55130241615096,-82.20222762415648,Redfish Pass,1.3333333333333333,0.7466666666666667,1.05,24.333333333333332,24.333333333333332,"NIGHT_CLEAR,CLEAR,CLEAR","Cross-shore,Cross-shore,Onshore",3
5842041f4e65fad6a7708b22,2024_11_22,26.71713432926596,-82.26287777058234,Boca Grande,1.3333333333333333,0.6799999999999999,0.9866666666666667,24.333333333333332,24.333333333333332,"NIGHT_CLEAR,CLEAR,CLEAR","Cross-shore,Cross-shore,Onshore",3
5842041f4e65fad6a7708b23,2024_11_22,26.47856785808584,-82.181288592828,Blind Pass,1.3333333333333333,0.7566666666666667,1.0566666666666666,24.333333333333332,24.333333333333332,"NIGHT_CLEAR,CLEAR,CLEAR","Cross-shore,Offshore,Cross-shore",3
5842041f4e65fad6a7708b24,2024_11_22,26.25358330618783,-81.82429246081317,The Wall,1.6666666666666667,0.38,0.6866666666666666,25.333333333333332,25.333333333333332,"NIGHT_CLEAR,CLEAR,CLEAR","Cross-shore,Offshore,Onshore",3
5842041f4e65fad6a7708b25,2024_11_22,26.17456407516186,-81.81588575623482,Doctor's Pass,1.6666666666666667,0.3733333333333333,0.6766666666666666,25.333333333333332,25.333333333333332,"NIGHT_CLEAR,CLEAR,CLEAR","Cross-shore,Offshore,Onshore",3
5842041f4e65fad6a7708b26,2024_11_22,27.427134501874612,-82.68110766159296,Whitney Beach,0,0.9633333333333333,1.27,25,25,"NIGHT_CLEAR,CLEAR,CLEAR","Cross-shore,Cross-shore,Cross-shore",3
5842041f4e65fad6a7708b27,2024_11_22,26.17300183052463,-81.81515842430267,Doctor's Pass (South Jetty),1.6666666666666667,0.3733333333333333,0.6766666666666666,25.333333333333332,25.333333333333332,"NIGHT_CLEAR,CLEAR,CLEAR","Cross-shore,Offshore,Onshore",3
5842041f4e65fad6a7708b28,2024_11_22,27.73496421495629,-82.75268962468695,Upham Beach Park,1,1.04,1.34,24,24,"NIGHT_CLEAR,CLEAR,CLEAR","Cross-shore,Cross-shore,Onshore",3
5842041f4e65fad6a7708b29,2024_11_22,26.13144856766723,-81.8090395116521,Naples Pier,1.3333333333333333,0.2833333333333333,0.5833333333333334,25.333333333333332,25.333333333333332,"NIGHT_CLEAR,CLEAR,CLEAR","Cross-shore,Offshore,Onshore",3
5842041f4e65fad6a7708b2a,2024_11_22,20.63474,-156.45211,Little Beach,2,0.03333333333333333,0.3433333333333333,26,26,"NIGHT_CLEAR,NIGHT_CLEAR,CLEAR","Offshore,Offshore,Onshore",3
5842041f4e65fad6a7708b2b,2024_11_22,20.613,-156.438,Dumps,1,0,0.2733333333333334,26,26,"NIGHT_CLEAR,NIGHT_CLEAR,CLEAR","Cross-shore,Offshore,Onshore",3
5842041f4e65fad6a7708b2c,2024_11_22,22.216,-159.502,Hanalei Bay,3,1.41,1.68,26,26,"NIGHT_BRIEF_SHOWERS,NIGHT_CLEAR,CLOUDY","Offshore,Offshore,Offshore",3
5842041f4e65fad6a7708b2d,2024_11_22,22.225,-159.567,Ha'Ena Bay (Cannons/Tunnels),2.6666666666666665,1.0166666666666666,1.28,26,26,"NIGHT_MOSTLY_CLOUDY,NIGHT_CLEAR,CLEAR","Offshore,Offshore,Offshore",3
5842041f4e65fad6a7708b2f,2024_11_22,22.148,-159.301,Anahola Bay,2.3333333333333335,0.8766666666666667,1.1133333333333333,26,26,"NIGHT_CLEAR,NIGHT_MOSTLY_CLOUDY,CLOUDY","Onshore,Cross-shore,Onshore",3
5842041f4e65fad6a7708b30,2024_11_22,21.872,-159.462,Poipu Outer Reef,2,0.33333333333333337,0.6433333333333333,26,26,"NIGHT_MOSTLY_CLOUDY,NIGHT_CLEAR,CLEAR","Offshore,Offshore,Offshore",3
5842041f4e65fad6a7708b31,2024_11_22,21.936,-159.652,Pakala,2,0.10666666666666667,0.41,26,26,"NIGHT_CLEAR,NIGHT_CLEAR,CLEAR","Offshore,Offshore,Offshore",3
5842041f4e65fad6a7708b32,2024_11_22,21.272,-157.832,Populars,1.5,0.1670566666666667,0.47161,26,25,"NIGHT_CLEAR,NIGHT_MOSTLY_CLOUDY,CLEAR","Offshore,Offshore,Offshore",3
5842041f4e65fad6a7708b33,2024_11_22,21.26841992117695,-157.82329,Publics,1.5,0.23244333333333334,0.5337766666666667,26,25,"NIGHT_CLEAR,NIGHT_MOSTLY_CLOUDY,CLEAR","Offshore,Offshore,Offshore",3
5842041f4e65fad6a7708b34,2024_11_22,21.25460513357954,-157.79432,Black Point,2,0.4894,0.81424,26,26,"NIGHT_CLEAR,NIGHT_MOSTLY_CLOUDY,CLEAR","Offshore,Offshore,Offshore",3
5842041f4e65fad6a7708b35,2024_11_22,21.27394674233747,-157.82777,Canoes,1.5,0.24689,0.5515566666666667,26,25,"NIGHT_CLEAR,NIGHT_MOSTLY_CLOUDY,CLEAR","Offshore,Offshore,Offshore",3
5842041f4e65fad6a7708b36,2024_11_22,21.273658410008455,-157.8263,Queen's,1.5,0.21077666666666667,0.51211,26,25,"NIGHT_CLEAR,NIGHT_MOSTLY_CLOUDY,CLEAR","Offshore,Offshore,Offshore",3
5842041f4e65fad6a7708b37,2024_11_22,20.869,-156.679,Lahaina Harbor - Breakwall,2,0.15666666666666668,0.4633333333333333,26,26,"NIGHT_CLEAR,NIGHT_CLEAR,CLEAR","Offshore,Offshore,Onshore",3
5842041f4e65fad6a7708b38,2024_11_22,21.277,-157.841,Kaiser's,1.6666666666666667,0.31272333333333335,0.6113966666666667,26,25,"NIGHT_CLEAR,NIGHT_MOSTLY_CLOUDY,CLEAR","Offshore,Offshore,Offshore",3
5842041f4e65fad6a7708b39,2024_11_22,21.280537020769913,-157.84107,Rockpiles,1.8333333333333333,0.38573666666666667,0.6950466666666666,26,25,"NIGHT_CLEAR,NIGHT_MOSTLY_CLOUDY,CLEAR","Offshore,Offshore,Offshore",3
5842041f4e65fad6a7708b3a,2024_11_22,21.2745,-157.8395,Four's,1.6666666666666667,0.27,0.5733333333333334,26,26,"NIGHT_CLEAR,NIGHT_MOSTLY_CLOUDY,CLEAR","Offshore,Offshore,Offshore",3
5842041f4e65fad6a7708b3b,2024_11_22,21.576,-158.282,Kaena Point,1.3333333333333333,0.37,0.6733333333333333,26,26,"NIGHT_CLEAR,NIGHT_CLEAR,CLEAR","Cross-shore,Cross-shore,Cross-shore",3
5842041f4e65fad6a7708b3c,2024_11_22,21.31110306220024,-157.6590697786346,Makapu'u,1,0.68,0.99,25,25,"NIGHT_CLEAR,NIGHT_MOSTLY_CLOUDY,CLOUDY","Onshore,Onshore,Onshore",3
5842041f4e65fad6a7708b3d,2024_11_22,21.276618032562773,-157.83386,Three's,1.8333333333333333,0.21666,0.5235866666666666,26,25,"NIGHT_CLEAR,NIGHT_MOSTLY_CLOUDY,CLEAR","Offshore,Offshore,Offshore",3
5842041f4e65fad6a7708b3f,2024_11_22,39.63537452931482,-123.7858735430881,Westport,1.5,2.315,2.7649999999999997,13.5,13.5,"NIGHT_LIGHT_RAIN,MIST","Cross-shore,Onshore",2
5842041f4e65fad6a7708b40,2024_11_22,39.47339314374171,-123.8053109861082,MacKerricher,1.5,2.63,3.1399999999999997,13.5,13.5,"NIGHT_HEAVY_RAIN,MIST","Cross-shore,Onshore",2
5842041f4e65fad6a7708b41,2024_11_22,39.30271935445495,-123.79757,Mendocino Township,1,1.72,2.0549999999999997,13.5,13.5,"NIGHT_HEAVY_RAIN,LIGHT_RAIN","Onshore,Onshore",2
5842041f4e65fad6a7708b42,2024_11_22,21.281416779283845,-157.8457,Ala Moana Bowls,1.8333333333333333,0.4350266666666667,0.7355033333333333,26,25,"NIGHT_CLEAR,NIGHT_MOSTLY_CLOUDY,CLEAR","Offshore,Offshore,Offshore",3
5842041f4e65fad6a7708b43,2024_11_22,15.846,-97.06,Puerto Escondido,3.3333333333333335,1.3533333333333335,1.63,28.333333333333332,28.333333333333332,"NIGHT_CLEAR,CLEAR,CLEAR","Offshore,Offshore,Onshore",3
5842041f4e65fad6a7708b44,2024_11_22,11.44175,-86.08519,Santana,3,0.9433333333333334,1.13,27,27,"NIGHT_CLEAR,OVERCAST,CLOUDY","Offshore,Offshore,Offshore",3
5842041f4e65fad6a7708b46,2024_11_22,38.91444690804076,-123.7104245288878,Point Arena,1,2.7,3.1950000000000003,13.5,13.5,"NIGHT_RAIN,BRIEF_SHOWERS","Cross-shore,Cross-shore",2
5842041f4e65fad6a7708b47,2024_11_22,18.46,-66.07383728027,San Juan,3.466666666666667,0.96639,1.37811,27,26,"NIGHT_MIST,CLEAR,CLEAR","Offshore,Offshore,Offshore",3
5842041f4e65fad6a7708b48,2024_11_22,13.21526058417982,-59.52183,Soup Bowl,2,0.9342766666666666,1.3311566666666668,29.666666666666668,29.666666666666668,"NIGHT_CLEAR,OVERCAST,CLEAR","Onshore,Onshore,Onshore",3
5842041f4e65fad6a7708b49,2024_11_22,18.371581,-67.25941,Puntas,2.9166666666666665,0.9265333333333333,1.2228333333333332,28,27,"NIGHT_CLEAR,CLEAR,CLEAR","Offshore,Cross-shore,Onshore",3
5842041f4e65fad6a7708b4b,2024_11_22,-8.814,115.089,Uluwatu,4,1.4016233333333334,1.6982666666666666,28,28,"CLEAR,NIGHT_BRIEF_SHOWERS_POSSIBLE,NIGHT_CLEAR","Offshore,Offshore,Cross-shore",3
5842041f4e65fad6a7708b4c,2024_11_22,-8.950192825865,115.12573242187,Kuta,3,1.5633333333333332,1.8699999999999999,30,30,"CLEAR,NIGHT_CLEAR,NIGHT_CLEAR","Onshore,Onshore,Cross-shore",3
5842041f4e65fad6a7708b4d,2024_11_22,9.94,-85.668,Guiones,3,0.8566666666666667,1.0766666666666667,27,27,"NIGHT_LIGHT_SHOWERS_POSSIBLE,HEAVY_THUNDER_STORMS,THUNDER_SHOWERS","Offshore,Offshore,Offshore",3
5842041f4e65fad6a7708b4e,2024_11_22,9.56516,-84.59148,Playa Hermosa South,2.6666666666666665,0.7003233333333333,1.0485866666666666,27,27,"NIGHT_BRIEF_SHOWERS_POSSIBLE,LIGHT_SHOWERS_POSSIBLE,LIGHT_SHOWERS_POSSIBLE","Offshore,Offshore,Cross-shore",3
5842041f4e65fad6a7708b4f,2024_11_22,9.526305556,-84.48822,Playa Esterillos,3,0.93,1.11,27.333333333333332,27.333333333333332,"NIGHT_BRIEF_SHOWERS_POSSIBLE,LIGHT_SHOWERS_POSSIBLE,LIGHT_SHOWERS_POSSIBLE","Cross-shore,Cross-shore,Onshore",3
5842041f4e65fad6a7708b50,2024_11_22,9.576,-84.608,Playa Hermosa North,3,0.9866666666666667,1.18,27,27,"NIGHT_BRIEF_SHOWERS_POSSIBLE,LIGHT_SHOWERS_POSSIBLE,LIGHT_SHOWERS_POSSIBLE","Offshore,Offshore,Cross-shore",3
5842041f4e65fad6a7708b53,2024_11_22,-12.337,-76.839,Pico Alto,2,0.77137,1.1040433333333333,18.666666666666668,18.666666666666668,"NIGHT_CLOUDY,CLOUDY,MOSTLY_CLEAR","Onshore,Onshore,Onshore",3
5842041f4e65fad6a7708b55,2024_11_22,-12.17155,-77.08515,Peruazul,1,0.6766666666666666,0.9833333333333333,18.666666666666668,18.666666666666668,"NIGHT_CLEAR,CLEAR,MOSTLY_CLEAR","Cross-shore,Cross-shore,Cross-shore",3
5842041f4e65fad6a7708b56,2024_11_22,-12.133164,-77.03916,Makaha,2,0.78001,1.11899,18.666666666666668,18.666666666666668,"NIGHT_CLEAR,CLEAR,MOSTLY_CLEAR","Cross-shore,Cross-shore,Onshore",3
