_id,date,lat,lon,name,daily_mean_swell_rating,daily_mean_wave_height_min,daily_mean_wave_height_max,daily_mean_water_temperature_max,daily_mean_water_temperature_min,weather_per_timestamp,wind_per_timestamp,n_samples_per_day
5842041f4e65fad6a77087f9,2024_04_08,37.741668,-122.51038,South Ocean Beach,1.8,1.4592433333333334,1.8169533333333334,14,14,"NIGHT_CLEAR,NIGHT_CLEAR,NIGHT_CLEAR,NIGHT_CLEAR,NIGHT_CLEAR,NIGHT_CLEAR,NIGHT_CLEAR,NIGHT_CLEAR,CLEAR,CLEAR","Onshore,Onshore,Onshore,Onshore,Onshore,Onshore,Offshore,Offshore,Offshore,Offshore",10
5842041f4e65fad6a7708801,2024_04_08,37.49142,-122.50428,Maverick's,NA,1.945,2.294,13,13,"NIGHT_CLEAR,NIGHT_CLEAR,NIGHT_MOSTLY_CLOUDY,NIGHT_MOSTLY_CLOUDY,NIGHT_CLEAR,NIGHT_CLEAR,NIGHT_CLEAR,NIGHT_CLEAR,CLEAR,CLEAR","Offshore,Offshore,Offshore,Offshore,Offshore,Offshore,Offshore,Offshore,Offshore,Offshore",10
5842041f4e65fad6a7708804,2024_04_08,44.997,-124.018,Roads End,2.8,1.784,2.043,11,11,"NIGHT_MOSTLY_CLEAR,NIGHT_MOSTLY_CLOUDY,NIGHT_CLEAR,NIGHT_MOSTLY_CLOUDY,NIGHT_MOSTLY_CLOUDY,NIGHT_MOSTLY_CLEAR,NIGHT_CLEAR,NIGHT_CLEAR,MOSTLY_CLEAR,CLEAR","Onshore,Onshore,Onshore,Offshore,Offshore,Cross-shore,Cross-shore,Cross-shore,Cross-shore,Cross-shore",10
5842041f4e65fad6a7708805,2024_04_08,36.95188851423011,-122.02522,Steamer Lane,3,0.8381666666666666,1.0954566666666667,14,14,"NIGHT_CLEAR,NIGHT_CLEAR,NIGHT_CLEAR,NIGHT_CLEAR,NIGHT_CLEAR,NIGHT_CLEAR,NIGHT_MIST,NIGHT_MIST,CLEAR,CLEAR","Offshore,Offshore,Offshore,Offshore,Offshore,Offshore,Offshore,Offshore,Offshore,Offshore",10
5842041f4e65fad6a7708806,2024_04_08,36.95918781542251,-122.02489,Cowells,0.883,0,0.19181333333333334,14,14,"NIGHT_CLEAR,NIGHT_CLEAR,NIGHT_CLEAR,NIGHT_CLEAR,NIGHT_CLEAR,NIGHT_CLEAR,NIGHT_MIST,NIGHT_MIST,CLEAR,CLEAR","Offshore,Offshore,Cross-shore,Cross-shore,Cross-shore,Offshore,Cross-shore,Cross-shore,Cross-shore,Cross-shore",10
5842041f4e65fad6a7708807,2024_04_08,36.95468082526536,-121.97234,Pleasure Point,3,0.65908,0.9943299999999999,14,14,"NIGHT_CLEAR,NIGHT_CLEAR,NIGHT_CLEAR,NIGHT_CLEAR,NIGHT_CLEAR,NIGHT_CLEAR,NIGHT_CLEAR,NIGHT_CLEAR,CLEAR,CLEAR","Offshore,Offshore,Offshore,Offshore,Cross-shore,Cross-shore,Onshore,Cross-shore,Onshore,Offshore",10
5842041f4e65fad6a770880a,2024_04_08,35.37815414378748,-120.86589,Morro Bay,3,0.92996,1.2312966666666667,12,12,"NIGHT_CLEAR,NIGHT_CLEAR,NIGHT_CLEAR,NIGHT_CLEAR,NIGHT_CLEAR,NIGHT_CLEAR,NIGHT_CLEAR,NIGHT_CLEAR,CLEAR,CLEAR","Offshore,Offshore,Cross-shore,Offshore,Offshore,Cross-shore,Offshore,Offshore,Offshore,Offshore",10
5842041f4e65fad6a770880b,2024_04_08,36.95782765000708,-121.96729,Jack's,2,0.22675333333333333,0.5308766666666667,14,14,"NIGHT_CLEAR,NIGHT_CLEAR,NIGHT_CLEAR,NIGHT_CLEAR,NIGHT_CLEAR,NIGHT_CLEAR,NIGHT_CLEAR,NIGHT_CLEAR,CLEAR,CLEAR","Offshore,Offshore,Offshore,Offshore,Cross-shore,Onshore,Onshore,Onshore,Onshore,Onshore",10
5842041f4e65fad6a770880d,2024_04_08,34.29982939936656,-119.3489016603669,Gold Coast Beachbreaks,2.5,0.343,0.646,13,13,"NIGHT_CLEAR,NIGHT_CLEAR,NIGHT_CLEAR,NIGHT_CLEAR,NIGHT_CLEAR,NIGHT_CLEAR,NIGHT_CLEAR,NIGHT_CLEAR,CLEAR,CLEAR","Cross-shore,Cross-shore,Cross-shore,Offshore,Cross-shore,Cross-shore,Offshore,Cross-shore,Cross-shore,Cross-shore",10
5842041f4e65fad6a7708811,2024_04_08,34.245076,-119.26799,Ventura Harbor,3,0.87749325,1.16746075,12,12,"NIGHT_CLEAR,NIGHT_CLEAR,NIGHT_CLEAR,NIGHT_CLEAR,NIGHT_CLEAR,NIGHT_CLEAR,NIGHT_CLEAR,NIGHT_CLEAR,CLEAR,CLEAR","Offshore,Offshore,Offshore,Offshore,Offshore,Cross-shore,Offshore,Offshore,Offshore,Offshore",10
5842041f4e65fad6a7708813,2024_04_08,34.051,-118.964,County Line,2.7,0.6357066666666666,0.9402266666666667,13,13,"NIGHT_CLEAR,NIGHT_CLEAR,NIGHT_CLEAR,NIGHT_CLEAR,NIGHT_CLEAR,NIGHT_CLEAR,NIGHT_CLEAR,NIGHT_CLEAR,CLEAR,CLEAR","Offshore,Offshore,Offshore,Cross-shore,Offshore,Offshore,Offshore,Offshore,Offshore,Offshore",10
5842041f4e65fad6a7708814,2024_04_08,34.37256264378892,-119.47797,Rincon,2.6,0.368,0.674,13,13,"NIGHT_CLEAR,NIGHT_CLEAR,NIGHT_CLEAR,NIGHT_CLEAR,NIGHT_CLEAR,NIGHT_CLEAR,NIGHT_CLEAR,NIGHT_CLEAR,CLEAR,CLEAR","Offshore,Offshore,Offshore,Offshore,Offshore,Offshore,Offshore,Offshore,Offshore,Offshore",10
5842041f4e65fad6a7708817,2024_04_08,34.03096101876324,-118.68109,Malibu Third Point,1.8,0.343,0.647,14,14,"NIGHT_CLEAR,NIGHT_CLEAR,NIGHT_CLEAR,NIGHT_CLEAR,NIGHT_CLEAR,NIGHT_CLEAR,NIGHT_CLEAR,NIGHT_CLEAR,CLEAR,CLEAR","Offshore,Offshore,Offshore,Offshore,Offshore,Offshore,Offshore,Offshore,Offshore,Offshore",10
5842041f4e65fad6a7708819,2024_04_08,33.984079047970035,-118.47382,Venice Beach,3,0.7947066666666667,1.0542266666666666,14,14,"NIGHT_CLEAR,NIGHT_CLEAR,NIGHT_CLEAR,NIGHT_CLEAR,NIGHT_CLEAR,NIGHT_CLEAR,NIGHT_CLEAR,NIGHT_CLEAR,CLEAR,CLEAR","Offshore,Cross-shore,Cross-shore,Offshore,Cross-shore,Cross-shore,Cross-shore,Cross-shore,Cross-shore,Cross-shore",10
5842041f4e65fad6a770881e,2024_04_08,34.037508438646746,-118.5834,Topanga Beach,2.9,0.47952,0.78304,14,14,"NIGHT_CLEAR,NIGHT_CLEAR,NIGHT_CLEAR,NIGHT_CLEAR,NIGHT_CLEAR,NIGHT_CLEAR,NIGHT_CLEAR,NIGHT_CLEAR,CLEAR,CLEAR","Offshore,Offshore,Cross-shore,Cross-shore,Cross-shore,Offshore,Offshore,Cross-shore,Offshore,Cross-shore",10
5842041f4e65fad6a7708820,2024_04_08,33.73954373690184,-118.11414,Seal Beach Jetty,2.1,0.261,0.566,14.6,14.6,"NIGHT_MIST,NIGHT_MIST,NIGHT_OVERCAST,NIGHT_DRIZZLE,NIGHT_CLEAR,NIGHT_MOSTLY_CLEAR,NIGHT_MIST,NIGHT_MOSTLY_CLOUDY,MOSTLY_CLOUDY,MOSTLY_CLOUDY","Offshore,Offshore,Offshore,Offshore,Offshore,Offshore,Offshore,Offshore,Offshore,Offshore",10
5842041f4e65fad6a7708822,2024_04_08,33.72309983348433,-118.08078,Anderson Street,2.683,0.42158666666666667,0.7254633333333333,14,14,"NIGHT_MIST,NIGHT_MIST,NIGHT_OVERCAST,NIGHT_OVERCAST,NIGHT_CLEAR,NIGHT_MOSTLY_CLEAR,NIGHT_MOSTLY_CLOUDY,NIGHT_MOSTLY_CLOUDY,MOSTLY_CLOUDY,MOSTLY_CLOUDY","Offshore,Offshore,Offshore,Offshore,Offshore,Offshore,Offshore,Offshore,Offshore,Offshore",10
5842041f4e65fad6a7708827,2024_04_08,33.65574085629463,-118.00397,Huntington Beach Pier Northside,2.883,0.9415066666666667,1.2164666666666668,14,14,"NIGHT_MIST,NIGHT_MIST,NIGHT_MIST,NIGHT_MIST,NIGHT_CLEAR,NIGHT_MOSTLY_CLEAR,NIGHT_BRIEF_SHOWERS,NIGHT_MIST,MOSTLY_CLOUDY,CLEAR","Onshore,Offshore,Offshore,Offshore,Offshore,Offshore,Offshore,Offshore,Offshore,Offshore",10
5842041f4e65fad6a7708828,2024_04_08,34.272041739333,-119.29976,C St.,2.9,0.5254366666666667,0.8309566666666667,12,12,"NIGHT_MIST,NIGHT_MIST,NIGHT_MIST,NIGHT_MIST,NIGHT_CLEAR,NIGHT_CLEAR,NIGHT_CLEAR,NIGHT_CLEAR,CLEAR,CLEAR","Offshore,Offshore,Offshore,Offshore,Offshore,Offshore,Cross-shore,Offshore,Offshore,Offshore",10
5842041f4e65fad6a770882a,2024_04_08,33.61555743705257,-117.93676,Newport Lower Jetties,2.983,0.57567,0.9097566666666667,14,14,"NIGHT_MIST,NIGHT_MIST,NIGHT_DRIZZLE,NIGHT_MIST,NIGHT_MOSTLY_CLEAR,NIGHT_MOSTLY_CLEAR,NIGHT_MOSTLY_CLOUDY,NIGHT_MOSTLY_CLOUDY,MOSTLY_CLOUDY,MOSTLY_CLOUDY","Cross-shore,Cross-shore,Offshore,Offshore,Offshore,Offshore,Offshore,Offshore,Offshore,Offshore",10
5842041f4e65fad6a770882b,2024_04_08,33.5930302087,-117.88199,The Wedge,1.817,0.5333989166666667,0.9377601666666667,14,14,"NIGHT_MIST,NIGHT_MIST,NIGHT_MIST,NIGHT_MIST,NIGHT_MOSTLY_CLEAR,NIGHT_MOSTLY_CLEAR,NIGHT_MOSTLY_CLOUDY,NIGHT_MIST,MOSTLY_CLOUDY,MOSTLY_CLEAR","Offshore,Offshore,Offshore,Offshore,Offshore,Offshore,Offshore,Offshore,Offshore,Offshore",10
5842041f4e65fad6a770882c,2024_04_08,33.60577342582,-117.9315376281,Newport Beach Pier,2.483,0.6187533333333334,0.9519233333333333,14,14,"NIGHT_MIST,NIGHT_MIST,NIGHT_MIST,NIGHT_MIST,NIGHT_MOSTLY_CLEAR,NIGHT_MOSTLY_CLOUDY,NIGHT_MOSTLY_CLOUDY,NIGHT_MOSTLY_CLOUDY,MIST,MOSTLY_CLOUDY","Onshore,Onshore,Onshore,Cross-shore,Onshore,Onshore,Onshore,Onshore,Onshore,Cross-shore",10
5842041f4e65fad6a770882e,2024_04_08,33.475793399792984,-117.72291,Salt Creek,2.983,0.74442,0.9964633333333334,13,13,"NIGHT_BRIEF_SHOWERS,NIGHT_BRIEF_SHOWERS,NIGHT_MIST,NIGHT_MIST,NIGHT_CLEAR,NIGHT_CLEAR,NIGHT_MOSTLY_CLEAR,NIGHT_CLEAR,CLEAR,CLEAR","Offshore,Offshore,Offshore,Offshore,Offshore,Cross-shore,Offshore,Cross-shore,Onshore,Cross-shore",10
5842041f4e65fad6a7708830,2024_04_08,33.41800974113613,-117.61952,T-Street,2.3,0.6120466666666666,0.9160066666666666,14,14,"NIGHT_MIST,NIGHT_CLEAR,NIGHT_MIST,NIGHT_MIST,NIGHT_MIST,NIGHT_CLEAR,NIGHT_CLEAR,NIGHT_CLEAR,CLEAR,CLEAR","Cross-shore,Cross-shore,Cross-shore,Cross-shore,Cross-shore,Cross-shore,Offshore,Offshore,Offshore,Cross-shore",10
5842041f4e65fad6a7708832,2024_04_08,33.202391008646,-117.39475,Oceanside Harbor,2.983,0.72459,1.0316333333333334,14,14,"NIGHT_DRIZZLE,NIGHT_DRIZZLE,NIGHT_MIST,NIGHT_MIST,NIGHT_MOSTLY_CLOUDY,NIGHT_MOSTLY_CLOUDY,NIGHT_MOSTLY_CLOUDY,NIGHT_MOSTLY_CLEAR,CLEAR,CLEAR","Cross-shore,Offshore,Offshore,Offshore,Offshore,Offshore,Offshore,Offshore,Offshore,Offshore",10
5842041f4e65fad6a7708835,2024_04_08,33.19477795952803,-117.38667,Oceanside Pier,2.983,0.58338,0.9174666666666667,14,14,"NIGHT_MIST,NIGHT_MIST,NIGHT_MIST,NIGHT_MIST,NIGHT_MOSTLY_CLOUDY,NIGHT_MOSTLY_CLOUDY,NIGHT_MOSTLY_CLOUDY,NIGHT_MOSTLY_CLEAR,MOSTLY_CLEAR,CLEAR","Cross-shore,Offshore,Offshore,Offshore,Offshore,Offshore,Offshore,Offshore,Offshore,Offshore",10
5842041f4e65fad6a7708837,2024_04_08,33.14948100706,-117.35029,Tamarack,3,0.47000000000000003,0.774,15,15,"NIGHT_MIST,NIGHT_MIST,NIGHT_MIST,NIGHT_MOSTLY_CLOUDY,NIGHT_OVERCAST,NIGHT_MOSTLY_CLOUDY,NIGHT_MOSTLY_CLOUDY,NIGHT_MOSTLY_CLEAR,MOSTLY_CLEAR,CLEAR","Offshore,Offshore,Offshore,Offshore,Offshore,Offshore,Offshore,Offshore,Offshore,Offshore",10
5842041f4e65fad6a7708839,2024_04_08,32.865777159358856,-117.25614,Scripps,2.983,0.8262133333333334,1.1358833333333334,16,16,"NIGHT_MIST,NIGHT_MIST,NIGHT_MIST,NIGHT_MIST,NIGHT_LIGHT_RAIN_AND_FOG,NIGHT_FOG,NIGHT_CLEAR,NIGHT_CLEAR,CLEAR,MOSTLY_CLOUDY","Offshore,Offshore,Offshore,Offshore,Offshore,Offshore,Offshore,Offshore,Offshore,Offshore",10
5842041f4e65fad6a770883a,2024_04_08,32.813094,-117.27381,Birdrock,3,0.789,1.095,15,15,"NIGHT_MIST,NIGHT_MIST,NIGHT_OVERCAST,NIGHT_OVERCAST,NIGHT_LIGHT_RAIN_AND_FOG,NIGHT_FOG,NIGHT_CLEAR,NIGHT_MOSTLY_CLOUDY,MOSTLY_CLOUDY,MOSTLY_CLOUDY","Onshore,Onshore,Offshore,Offshore,Offshore,Offshore,Offshore,Offshore,Offshore,Offshore",10
5842041f4e65fad6a770883b,2024_04_08,32.877231,-117.25303,Blacks,2.583,0.9491733333333333,1.2058833333333334,16,16,"NIGHT_MIST,NIGHT_MIST,NIGHT_MIST,NIGHT_MIST,NIGHT_LIGHT_RAIN_AND_FOG,NIGHT_FOG,NIGHT_CLEAR,NIGHT_CLEAR,CLEAR,MOSTLY_CLOUDY","Onshore,Onshore,Cross-shore,Cross-shore,Offshore,Offshore,Offshore,Offshore,Offshore,Onshore",10
5842041f4e65fad6a770883c,2024_04_08,32.82978974229765,-117.28162,Windansea,2.283,0.8180499999999999,1.1225100000000001,15,15,"NIGHT_MIST,NIGHT_OVERCAST,NIGHT_OVERCAST,NIGHT_MIST,NIGHT_LIGHT_RAIN_AND_FOG,NIGHT_FOG,NIGHT_MOSTLY_CLOUDY,NIGHT_MOSTLY_CLOUDY,MOSTLY_CLOUDY,MOSTLY_CLOUDY","Cross-shore,Cross-shore,Offshore,Offshore,Offshore,Offshore,Offshore,Offshore,Offshore,Offshore",10
5842041f4e65fad6a770883d,2024_04_08,32.838278,-117.28396,Horseshoe,3,0.847,1.119,15,15,"NIGHT_MIST,NIGHT_OVERCAST,NIGHT_OVERCAST,NIGHT_MIST,NIGHT_LIGHT_RAIN_AND_FOG,NIGHT_FOG,NIGHT_MOSTLY_CLOUDY,NIGHT_MOSTLY_CLOUDY,MOSTLY_CLOUDY,MOSTLY_CLOUDY","Cross-shore,Cross-shore,Cross-shore,Offshore,Offshore,Offshore,Offshore,Offshore,Offshore,Offshore",10
5842041f4e65fad6a770883f,2024_04_08,32.75034717673179,-117.25337,Ocean Beach,2.883,0.8702566666666667,1.1564866666666667,15,15,"NIGHT_BRIEF_SHOWERS,NIGHT_OVERCAST,NIGHT_CLOUDY,NIGHT_MIST,NIGHT_FOG,NIGHT_FOG,NIGHT_BRIEF_SHOWERS,NIGHT_MOSTLY_CLOUDY,MOSTLY_CLOUDY,CLOUDY","Cross-shore,Cross-shore,Offshore,Offshore,Offshore,Offshore,Offshore,Offshore,Offshore,Offshore",10
5842041f4e65fad6a7708840,2024_04_08,32.73693,-117.25718,Sunset Cliffs,2,0.832,1.081,15,15,"NIGHT_MOSTLY_CLOUDY,NIGHT_MIST,NIGHT_MIST,NIGHT_MIST,NIGHT_FOG,NIGHT_LIGHT_RAIN_AND_FOG,NIGHT_FOG,NIGHT_MOSTLY_CLOUDY,CLEAR,CLOUDY","Onshore,Cross-shore,Offshore,Offshore,Offshore,Offshore,Offshore,Offshore,Offshore,Offshore",10
5842041f4e65fad6a7708841,2024_04_08,32.796582258728826,-117.25779,Pacific Beach,2.8,0.87534,1.1393833333333334,15,15,"NIGHT_MIST,NIGHT_MIST,NIGHT_CLOUDY,NIGHT_CLOUDY,NIGHT_FOG,NIGHT_FOG,NIGHT_FOG,NIGHT_MOSTLY_CLOUDY,MOSTLY_CLOUDY,CLOUDY","Onshore,Onshore,Offshore,Offshore,Offshore,Offshore,Offshore,Offshore,Offshore,Offshore",10
5842041f4e65fad6a7708842,2024_04_08,32.776636,-117.25514,Mission Beach,2.983,0.9477566666666667,1.2108833333333333,15,15,"NIGHT_MIST,NIGHT_MIST,NIGHT_CLOUDY,NIGHT_CLOUDY,NIGHT_FOG,NIGHT_FOG,NIGHT_FOG,NIGHT_MOSTLY_CLOUDY,MOSTLY_CLOUDY,CLOUDY","Onshore,Onshore,Offshore,Offshore,Offshore,Offshore,Offshore,Offshore,Offshore,Offshore",10
5842041f4e65fad6a7708844,2024_04_08,32.577195519016,-117.13475,Imperial Beach Pier,2.9,0.865,1.141,15,15,"NIGHT_MIST,NIGHT_MOSTLY_CLOUDY,NIGHT_MIST,NIGHT_MIST,NIGHT_CLOUDY,NIGHT_FOG,NIGHT_MOSTLY_CLOUDY,NIGHT_MOSTLY_CLOUDY,MOSTLY_CLOUDY,MOSTLY_CLOUDY","Onshore,Offshore,Offshore,Offshore,Cross-shore,Offshore,Offshore,Offshore,Offshore,Offshore",10
5842041f4e65fad6a770884a,2024_04_08,42.88678181061,-70.80843,Seabrook,3.066,0.6407988333333333,1.0488718333333333,5,4,"NIGHT_CLEAR,NIGHT_CLEAR,NIGHT_CLEAR,NIGHT_CLEAR,NIGHT_CLEAR,CLEAR,CLEAR,CLEAR,CLEAR,CLEAR","Offshore,Offshore,Offshore,Offshore,Offshore,Offshore,Offshore,Offshore,Offshore,Cross-shore",10
5842041f4e65fad6a770884e,2024_04_08,41.434181432898335,-71.45312,Narragansett,0.18000000000000002,-0.02,0.29913333333333336,6,5,"NIGHT_CLEAR,NIGHT_CLEAR,NIGHT_CLEAR,NIGHT_CLEAR,NIGHT_CLEAR,CLEAR,CLEAR,CLEAR,CLEAR,CLEAR","Offshore,Offshore,Offshore,Offshore,Offshore,Offshore,Offshore,Offshore,Offshore,Offshore",10
5842041f4e65fad6a7708850,2024_04_08,40.582703230722,-73.65247,Lincoln Blvd,0,0,0.18038,8,7,"NIGHT_CLEAR,NIGHT_CLEAR,NIGHT_CLEAR,NIGHT_CLEAR,NIGHT_CLEAR,CLEAR,CLEAR,CLEAR,CLEAR,CLEAR","Onshore,Cross-shore,Onshore,Cross-shore,Onshore,Cross-shore,Onshore,Onshore,Onshore,Onshore",10
5842041f4e65fad6a7708852,2024_04_08,40.58342841721757,-73.81182,Rockaways,0,0,0.22826666666666667,8,7,"NIGHT_CLEAR,NIGHT_CLEAR,NIGHT_CLEAR,NIGHT_CLEAR,NIGHT_CLEAR,CLEAR,CLEAR,CLEAR,CLEAR,CLEAR","Cross-shore,Cross-shore,Offshore,Offshore,Offshore,Offshore,Offshore,Offshore,Cross-shore,Cross-shore",10
5842041f4e65fad6a7708853,2024_04_08,40.330474,-73.9734,Monmouth Beach,1.3,0.008,0.25434,8,7,"NIGHT_CLEAR,NIGHT_CLEAR,NIGHT_CLEAR,NIGHT_CLEAR,NIGHT_CLEAR,CLEAR,CLEAR,CLEAR,CLEAR,CLEAR","Offshore,Offshore,Offshore,Offshore,Offshore,Offshore,Offshore,Offshore,Offshore,Offshore",10
5842041f4e65fad6a7708856,2024_04_08,40.113,-74.028,Manasquan Inlet,0.842,0.04763333333333334,0.31616666666666665,8,7,"NIGHT_CLEAR,NIGHT_CLEAR,NIGHT_CLEAR,NIGHT_CLEAR,NIGHT_CLEAR,CLEAR,CLEAR,CLEAR,CLEAR,CLEAR","Offshore,Offshore,Offshore,Offshore,Offshore,Offshore,Offshore,Offshore,Offshore,Onshore",10
5842041f4e65fad6a7708857,2024_04_08,39.941519877445664,-74.06829,Casino Pier,0.917,0.2770666666666667,0.5810333333333334,8,7,"NIGHT_CLEAR,NIGHT_CLEAR,NIGHT_CLEAR,NIGHT_CLEAR,NIGHT_CLEAR,CLEAR,CLEAR,CLEAR,CLEAR,CLEAR","Offshore,Offshore,Offshore,Offshore,Offshore,Offshore,Offshore,Offshore,Offshore,Offshore",10
5842041f4e65fad6a7708858,2024_04_08,39.28223089949212,-74.55766,North End OC,1.875,0.3146333333333334,0.6197666666666667,8,7,"NIGHT_CLEAR,NIGHT_CLEAR,NIGHT_CLEAR,NIGHT_CLEAR,NIGHT_CLEAR,CLEAR,CLEAR,CLEAR,CLEAR,CLEAR","Cross-shore,Onshore,Cross-shore,Cross-shore,Onshore,Cross-shore,Cross-shore,Cross-shore,Cross-shore,Onshore",10
5842041f4e65fad6a770885b,2024_04_08,39.65080599934257,-74.17146,Ship Bottom,1.5,0.23151333333333335,0.5354800000000001,8,7,"NIGHT_CLEAR,NIGHT_CLEAR,NIGHT_CLEAR,NIGHT_CLEAR,NIGHT_CLEAR,CLEAR,CLEAR,CLEAR,CLEAR,CLEAR","Offshore,Offshore,Offshore,Offshore,Offshore,Offshore,Offshore,Offshore,Offshore,Cross-shore",10
5842041f4e65fad6a7708863,2024_04_08,36.034151543144,-75.66791,Third Street,2.6,0.64532,1.01756,12,10,"NIGHT_CLEAR,NIGHT_CLEAR,NIGHT_CLEAR,NIGHT_CLEAR,NIGHT_CLEAR,CLEAR,CLEAR,CLEAR,CLEAR,CLEAR","Offshore,Offshore,Offshore,Offshore,Offshore,Offshore,Offshore,Offshore,Offshore,Offshore",10
5842041f4e65fad6a7708867,2024_04_08,35.605833221351425,-75.46303,S-Turns,2.5,0.6324933333333334,1.0417133333333333,14,13,"NIGHT_CLEAR,NIGHT_CLEAR,NIGHT_CLEAR,NIGHT_CLEAR,NIGHT_CLEAR,CLEAR,CLEAR,CLEAR,CLEAR,CLEAR","Offshore,Offshore,Offshore,Offshore,Offshore,Offshore,Offshore,Offshore,Offshore,Offshore",10
5842041f4e65fad6a770886d,2024_04_08,38.338461,-75.08117,Ocean City Boardwalk,1.725,0.4754466666666667,0.78033,9,8,"NIGHT_CLEAR,NIGHT_CLEAR,NIGHT_CLEAR,NIGHT_CLEAR,NIGHT_CLEAR,CLEAR,MIST,MIST,CLEAR,CLEAR","Cross-shore,Cross-shore,Cross-shore,Cross-shore,Offshore,Offshore,Offshore,Offshore,Offshore,Offshore",10
5842041f4e65fad6a770886f,2024_04_08,29.844757212379562,-81.26136,A St.,1,0.106,0.411,19,19,"NIGHT_CLEAR,NIGHT_CLEAR,NIGHT_CLEAR,NIGHT_CLEAR,NIGHT_CLEAR,NIGHT_CLEAR,CLEAR,CLEAR,CLEAR,CLEAR","Onshore,Onshore,Onshore,Onshore,Onshore,Onshore,Onshore,Onshore,Onshore,Onshore",10
5842041f4e65fad6a7708871,2024_04_08,29.069417851135093,-80.90824,New Smyrna Beach,1,0.4476666666666667,0.8171666666666667,20,19,"NIGHT_MOSTLY_CLOUDY,NIGHT_MOSTLY_CLOUDY,NIGHT_MOSTLY_CLOUDY,NIGHT_CLEAR,NIGHT_CLEAR,NIGHT_CLEAR,CLEAR,MOSTLY_CLOUDY,CLEAR,CLEAR","Onshore,Onshore,Onshore,Onshore,Onshore,Onshore,Onshore,Onshore,Onshore,Onshore",10
5842041f4e65fad6a7708872,2024_04_08,28.367707417566,-80.60171,Cocoa Beach Pier,1,0.20866666666666667,0.5121666666666667,24,23,"NIGHT_MOSTLY_CLOUDY,NIGHT_MOSTLY_CLOUDY,NIGHT_CLEAR,NIGHT_CLOUDY,NIGHT_MOSTLY_CLOUDY,NIGHT_MOSTLY_CLOUDY,MOSTLY_CLOUDY,MOSTLY_CLOUDY,MOSTLY_CLOUDY,CLEAR","Onshore,Onshore,Onshore,Onshore,Onshore,Onshore,Onshore,Onshore,Onshore,Onshore",10
5842041f4e65fad6a7708873,2024_04_08,28.091782738658846,-80.56479,Indialantic,1,0.32616666666666666,0.6316666666666667,24,23,"NIGHT_MOSTLY_CLOUDY,NIGHT_CLEAR,NIGHT_CLEAR,NIGHT_CLEAR,NIGHT_MOSTLY_CLOUDY,NIGHT_MOSTLY_CLOUDY,CLEAR,MOSTLY_CLEAR,MOSTLY_CLOUDY,CLEAR","Onshore,Onshore,Onshore,Onshore,Onshore,Onshore,Onshore,Onshore,Onshore,Onshore",10
5842041f4e65fad6a7708876,2024_04_08,27.25392904143517,-80.19455,Jensen Beach,1,0.334,0.6373333333333333,24,23,"NIGHT_MOSTLY_CLOUDY,NIGHT_CLEAR,NIGHT_MOSTLY_CLOUDY,NIGHT_MOSTLY_CLOUDY,NIGHT_CLEAR,NIGHT_MOSTLY_CLOUDY,BRIEF_SHOWERS,MOSTLY_CLOUDY,CLOUDY,MOSTLY_CLOUDY","Onshore,Onshore,Onshore,Onshore,Onshore,Onshore,Onshore,Onshore,Onshore,Onshore",10
5842041f4e65fad6a7708879,2024_04_08,26.76346795333825,-80.0360655784607,Reef Road,0.65,0.29,0.5325,26,24,"NIGHT_CLEAR,NIGHT_MOSTLY_CLOUDY,NIGHT_CLOUDY,NIGHT_MOSTLY_CLOUDY,NIGHT_MOSTLY_CLOUDY,NIGHT_MOSTLY_CLOUDY,MOSTLY_CLOUDY,MOSTLY_CLOUDY,SHOWERS,MOSTLY_CLOUDY","Onshore,Onshore,Onshore,Onshore,Onshore,Onshore,Onshore,Onshore,Onshore,Onshore",10
5842041f4e65fad6a770887c,2024_04_08,26.336499228484,-80.06956100463,Boca Raton Inlet,0.6,0.051,0.358,26,24,"NIGHT_MOSTLY_CLOUDY,NIGHT_CLEAR,NIGHT_MOSTLY_CLOUDY,NIGHT_MOSTLY_CLOUDY,NIGHT_OVERCAST,NIGHT_OVERCAST,OVERCAST,MOSTLY_CLOUDY,MOSTLY_CLOUDY,OVERCAST","Onshore,Onshore,Onshore,Onshore,Onshore,Onshore,Onshore,Onshore,Onshore,Onshore",10
5842041f4e65fad6a770887d,2024_04_08,26.31719311695038,-80.07453,Deerfield Beach Pier,0.5,0.111265,0.2543875,26,24,"NIGHT_MOSTLY_CLOUDY,NIGHT_CLEAR,NIGHT_MOSTLY_CLOUDY,NIGHT_MOSTLY_CLOUDY,NIGHT_OVERCAST,NIGHT_OVERCAST,OVERCAST,MOSTLY_CLOUDY,MOSTLY_CLOUDY,MOSTLY_CLOUDY","Onshore,Onshore,Onshore,Onshore,Onshore,Onshore,Onshore,Onshore,Onshore,Onshore",10
5842041f4e65fad6a7708881,2024_04_08,30.20276320866628,-85.85626528676136,"Spyglass Dr., Panama City",0,0,0.18816666666666668,19,18,"NIGHT_CLEAR,NIGHT_CLEAR,NIGHT_CLEAR,NIGHT_CLEAR,NIGHT_CLEAR,NIGHT_CLEAR,CLEAR,CLEAR,CLEAR,CLEAR","Onshore,Cross-shore,Cross-shore,Cross-shore,Cross-shore,Offshore,Offshore,Cross-shore,Cross-shore,Cross-shore",10
5842041f4e65fad6a7708884,2024_04_08,33.39000832738053,-117.59852,Cottons,2.983,0.7663366666666667,1.0635066666666666,14,14,"NIGHT_MIST,NIGHT_CLEAR,NIGHT_MIST,NIGHT_CLEAR,NIGHT_MOSTLY_CLEAR,NIGHT_MOSTLY_CLEAR,NIGHT_CLEAR,NIGHT_CLEAR,CLEAR,CLEAR","Cross-shore,Cross-shore,Cross-shore,Offshore,Offshore,Cross-shore,Cross-shore,Cross-shore,Cross-shore,Cross-shore",10
5842041f4e65fad6a7708885,2024_04_08,33.359416282661,-117.54167901405711,Trails,3,0.448,0.754,14.6,14.6,"NIGHT_CLEAR,NIGHT_MIST,NIGHT_BRIEF_SHOWERS,NIGHT_MIST,NIGHT_BRIEF_SHOWERS,NIGHT_CLEAR,NIGHT_CLEAR,NIGHT_CLEAR,CLEAR,CLEAR","Offshore,Offshore,Offshore,Offshore,Offshore,Offshore,Offshore,Offshore,Offshore,Offshore",10
5842041f4e65fad6a7708886,2024_04_08,33.38042605929805,-117.58332,Middles,2.8,0.5033766666666667,0.8072533333333334,14,14,"NIGHT_MIST,NIGHT_CLEAR,NIGHT_MIST,NIGHT_CLEAR,NIGHT_MOSTLY_CLEAR,NIGHT_MOSTLY_CLEAR,NIGHT_CLEAR,NIGHT_CLEAR,CLEAR,CLEAR","Offshore,Offshore,Offshore,Offshore,Offshore,Offshore,Cross-shore,Offshore,Offshore,Offshore",10
5842041f4e65fad6a7708887,2024_04_08,33.38445596302903,-117.59445,Upper Trestles,2.983,0.6920866666666666,1.0251733333333333,14,14,"NIGHT_MIST,NIGHT_CLEAR,NIGHT_MIST,NIGHT_CLEAR,NIGHT_MOSTLY_CLEAR,NIGHT_MOSTLY_CLEAR,NIGHT_CLEAR,NIGHT_CLEAR,CLEAR,CLEAR","Offshore,Offshore,Offshore,Offshore,Offshore,Offshore,Cross-shore,Offshore,Offshore,Offshore",10
5842041f4e65fad6a7708889,2024_04_08,28.944414,-95.28883,Surfside,2.1,0.845386,1.320915,21,21,"NIGHT_LIGHT_RAIN,NIGHT_MIST,NIGHT_MIST,NIGHT_MIST,NIGHT_LIGHT_RAIN,NIGHT_MIST,NIGHT_MIST,MIST,MIST,BRIEF_SHOWERS","Onshore,Onshore,Onshore,Onshore,Onshore,Onshore,Onshore,Onshore,Onshore,Onshore",10
5842041f4e65fad6a770888a,2024_04_08,33.38143999849023,-117.58843,Lower Trestles,2.8,0.6957533333333333,1.0037966666666667,14,14,"NIGHT_MIST,NIGHT_CLEAR,NIGHT_MIST,NIGHT_CLEAR,NIGHT_MOSTLY_CLEAR,NIGHT_MOSTLY_CLEAR,NIGHT_CLEAR,NIGHT_CLEAR,CLEAR,CLEAR","Offshore,Offshore,Offshore,Offshore,Offshore,Offshore,Cross-shore,Offshore,Offshore,Offshore",10
5842041f4e65fad6a770888b,2024_04_08,33.379622288757,-117.57894,Church,2.783,0.50371,0.8067533333333333,14,14,"NIGHT_MIST,NIGHT_CLEAR,NIGHT_MIST,NIGHT_CLEAR,NIGHT_MOSTLY_CLEAR,NIGHT_MOSTLY_CLEAR,NIGHT_CLEAR,NIGHT_CLEAR,CLEAR,CLEAR","Cross-shore,Offshore,Cross-shore,Offshore,Offshore,Cross-shore,Cross-shore,Cross-shore,Cross-shore,Offshore",10
5842041f4e65fad6a770888d,2024_04_08,21.679,-158.042,Sunset Beach,3,0.652,0.957,26,25,"NIGHT_MOSTLY_CLEAR,NIGHT_SHOWERS,NIGHT_BRIEF_SHOWERS,NIGHT_BRIEF_SHOWERS,NIGHT_BRIEF_SHOWERS,NIGHT_MOSTLY_CLEAR,NIGHT_MOSTLY_CLEAR,NIGHT_BRIEF_SHOWERS,NIGHT_MOSTLY_CLEAR,NIGHT_CLEAR","Cross-shore,Offshore,Cross-shore,Offshore,Offshore,Offshore,Offshore,Offshore,Onshore,Offshore",10
5842041f4e65fad6a770888e,2024_04_08,21.670550036401,-158.0482,Rocky Point,3,0.727,1.033,26,25,"NIGHT_SHOWERS,NIGHT_BRIEF_SHOWERS,NIGHT_MOSTLY_CLOUDY,NIGHT_CLEAR,NIGHT_MOSTLY_CLOUDY,NIGHT_MOSTLY_CLEAR,NIGHT_MOSTLY_CLEAR,NIGHT_MOSTLY_CLEAR,NIGHT_MOSTLY_CLEAR,NIGHT_MOSTLY_CLEAR","Cross-shore,Cross-shore,Cross-shore,Offshore,Offshore,Offshore,Offshore,Offshore,Onshore,Offshore",10
5842041f4e65fad6a770888f,2024_04_08,21.668,-158.05,Chambers,3,0.655,0.959,24,24,"NIGHT_SHOWERS,NIGHT_BRIEF_SHOWERS,NIGHT_MOSTLY_CLOUDY,NIGHT_CLEAR,NIGHT_MOSTLY_CLOUDY,NIGHT_MOSTLY_CLEAR,NIGHT_MOSTLY_CLEAR,NIGHT_MOSTLY_CLEAR,NIGHT_MOSTLY_CLEAR,NIGHT_MOSTLY_CLEAR","Cross-shore,Cross-shore,Cross-shore,Offshore,Offshore,Offshore,Cross-shore,Cross-shore,Onshore,Offshore",10
5842041f4e65fad6a7708890,2024_04_08,21.66522,-158.0526,Pipeline,1,0.447,0.751,26,25,"NIGHT_SHOWERS,NIGHT_BRIEF_SHOWERS,NIGHT_MOSTLY_CLOUDY,NIGHT_CLEAR,NIGHT_MOSTLY_CLOUDY,NIGHT_MOSTLY_CLEAR,NIGHT_MOSTLY_CLEAR,NIGHT_MOSTLY_CLEAR,NIGHT_MOSTLY_CLEAR,NIGHT_MOSTLY_CLEAR","Cross-shore,Cross-shore,Cross-shore,Offshore,Offshore,Offshore,Offshore,Offshore,Onshore,Offshore",10
5842041f4e65fad6a7708891,2024_04_08,21.665,-158.054,Backdoor,3,0.447,0.751,26,25,"NIGHT_SHOWERS,NIGHT_BRIEF_SHOWERS,NIGHT_MOSTLY_CLOUDY,NIGHT_CLEAR,NIGHT_MOSTLY_CLOUDY,NIGHT_MOSTLY_CLEAR,NIGHT_MOSTLY_CLEAR,NIGHT_MOSTLY_CLEAR,NIGHT_MOSTLY_CLEAR,NIGHT_MOSTLY_CLEAR","Cross-shore,Cross-shore,Cross-shore,Offshore,Offshore,Offshore,Offshore,Offshore,Onshore,Offshore",10
5842041f4e65fad6a7708892,2024_04_08,21.662,-158.057,Rockpile,3,0.757,1.064,24,24,"NIGHT_SHOWERS,NIGHT_BRIEF_SHOWERS,NIGHT_MOSTLY_CLOUDY,NIGHT_CLEAR,NIGHT_MOSTLY_CLOUDY,NIGHT_MOSTLY_CLEAR,NIGHT_MOSTLY_CLEAR,NIGHT_MOSTLY_CLEAR,NIGHT_MOSTLY_CLEAR,NIGHT_SHOWERS","Cross-shore,Cross-shore,Cross-shore,Offshore,Offshore,Offshore,Cross-shore,Offshore,Cross-shore,Offshore",10
5842041f4e65fad6a7708893,2024_04_08,21.65870453806827,-158.06058,Log Cabins,2.5,0.53,0.835,24,24,"NIGHT_SHOWERS,NIGHT_BRIEF_SHOWERS,NIGHT_MOSTLY_CLOUDY,NIGHT_CLEAR,NIGHT_MOSTLY_CLOUDY,NIGHT_MOSTLY_CLEAR,NIGHT_MOSTLY_CLEAR,NIGHT_MOSTLY_CLEAR,NIGHT_MOSTLY_CLEAR,NIGHT_MOSTLY_CLEAR","Cross-shore,Cross-shore,Cross-shore,Offshore,Offshore,Offshore,Offshore,Offshore,Onshore,Offshore",10
5842041f4e65fad6a7708894,2024_04_08,21.66203493640557,-158.05495,Off-The-Wall,3,0.596,0.901,24,24,"NIGHT_SHOWERS,NIGHT_BRIEF_SHOWERS,NIGHT_MOSTLY_CLOUDY,NIGHT_CLEAR,NIGHT_MOSTLY_CLOUDY,NIGHT_MOSTLY_CLEAR,NIGHT_MOSTLY_CLEAR,NIGHT_MOSTLY_CLEAR,NIGHT_MOSTLY_CLEAR,NIGHT_MOSTLY_CLEAR","Cross-shore,Cross-shore,Cross-shore,Offshore,Offshore,Offshore,Offshore,Cross-shore,Onshore,Offshore",10
5842041f4e65fad6a7708895,2024_04_08,21.643,-158.067,Waimea Bay,NA,0.473,0.782,26,25,"NIGHT_SHOWERS,NIGHT_BRIEF_SHOWERS,NIGHT_MOSTLY_CLOUDY,NIGHT_CLEAR,NIGHT_MOSTLY_CLOUDY,NIGHT_MOSTLY_CLEAR,NIGHT_MOSTLY_CLEAR,NIGHT_MOSTLY_CLEAR,NIGHT_MOSTLY_CLEAR,NIGHT_MOSTLY_CLEAR","Cross-shore,Offshore,Offshore,Offshore,Offshore,Offshore,Offshore,Offshore,Onshore,Offshore",10
5842041f4e65fad6a7708896,2024_04_08,21.622,-158.087,Hultin's,2,0.532,0.834,26,25,"NIGHT_CLEAR,NIGHT_CLEAR,NIGHT_CLEAR,NIGHT_CLEAR,NIGHT_MOSTLY_CLOUDY,NIGHT_CLEAR,NIGHT_MOSTLY_CLEAR,NIGHT_MOSTLY_CLEAR,NIGHT_MOSTLY_CLEAR,NIGHT_CLEAR","Offshore,Offshore,Offshore,Offshore,Offshore,Offshore,Offshore,Offshore,Offshore,Offshore",10
5842041f4e65fad6a7708897,2024_04_08,21.623,-158.085,Jocko's,2,0.465,0.768,24,24,"NIGHT_CLEAR,NIGHT_CLEAR,NIGHT_CLEAR,NIGHT_CLEAR,NIGHT_MOSTLY_CLOUDY,NIGHT_CLEAR,NIGHT_MOSTLY_CLEAR,NIGHT_MOSTLY_CLEAR,NIGHT_MOSTLY_CLEAR,NIGHT_CLEAR","Cross-shore,Cross-shore,Cross-shore,Cross-shore,Cross-shore,Cross-shore,Cross-shore,Cross-shore,Cross-shore,Cross-shore",10
5842041f4e65fad6a7708898,2024_04_08,21.62,-158.088,Laniakea,3,0.769,1.072,26,25,"NIGHT_CLEAR,NIGHT_CLEAR,NIGHT_CLEAR,NIGHT_CLEAR,NIGHT_MOSTLY_CLOUDY,NIGHT_CLEAR,NIGHT_MOSTLY_CLEAR,NIGHT_MOSTLY_CLEAR,NIGHT_MOSTLY_CLEAR,NIGHT_CLEAR","Offshore,Cross-shore,Offshore,Offshore,Offshore,Offshore,Offshore,Offshore,Offshore,Offshore",10
5842041f4e65fad6a7708899,2024_04_08,21.625,-158.083,Chun's,1.5,0.651,0.957,24,24,"NIGHT_CLEAR,NIGHT_CLEAR,NIGHT_CLEAR,NIGHT_CLEAR,NIGHT_MOSTLY_CLOUDY,NIGHT_CLEAR,NIGHT_MOSTLY_CLEAR,NIGHT_MOSTLY_CLEAR,NIGHT_MOSTLY_CLEAR,NIGHT_CLEAR","Offshore,Offshore,Offshore,Offshore,Offshore,Offshore,Offshore,Offshore,Offshore,Offshore",10
5842041f4e65fad6a770889c,2024_04_08,21.286357895152136,-157.8515,South Shore - Ala Moana Park,2.4,0.658,0.961,24,24,"NIGHT_CLEAR,NIGHT_CLEAR,NIGHT_CLEAR,NIGHT_CLEAR,NIGHT_MOSTLY_CLOUDY,NIGHT_BRIEF_SHOWERS,NIGHT_CLEAR,NIGHT_CLEAR,NIGHT_CLEAR,NIGHT_CLEAR","Offshore,Offshore,Offshore,Offshore,Offshore,Offshore,Offshore,Offshore,Offshore,Offshore",10
5842041f4e65fad6a770889d,2024_04_08,19.606,-155.978,Banyans,2.5,0.34299999999999997,0.648,26,25,"NIGHT_CLEAR,NIGHT_MOSTLY_CLEAR,NIGHT_FOG,NIGHT_CLEAR,NIGHT_MOSTLY_CLEAR,NIGHT_MOSTLY_CLEAR,NIGHT_MOSTLY_CLEAR,NIGHT_MOSTLY_CLEAR,NIGHT_MOSTLY_CLEAR,NIGHT_CLEAR","Onshore,Onshore,Onshore,Onshore,Cross-shore,Cross-shore,Cross-shore,Cross-shore,Cross-shore,Onshore",10
5842041f4e65fad6a770889e,2024_04_08,20.029,-155.831,Kawaihae,1.7,0.4444,0.520038,24.6,24.6,"NIGHT_MOSTLY_CLEAR,NIGHT_MOSTLY_CLEAR,NIGHT_CLEAR,NIGHT_CLEAR,NIGHT_MOSTLY_CLEAR,NIGHT_CLEAR,NIGHT_CLEAR,NIGHT_CLEAR,NIGHT_CLEAR,NIGHT_CLEAR","Onshore,Offshore,Offshore,Offshore,Offshore,Offshore,Offshore,Offshore,Offshore,Offshore",10
5842041f4e65fad6a770889f,2024_04_08,33.07541383424675,-117.3105,Grandview,2.8,0.722,1.014,15,15,"NIGHT_MIST,NIGHT_MIST,NIGHT_MIST,NIGHT_MIST,NIGHT_CLOUDY,NIGHT_OVERCAST,NIGHT_MOSTLY_CLOUDY,NIGHT_MOSTLY_CLOUDY,MOSTLY_CLOUDY,CLEAR","Cross-shore,Cross-shore,Offshore,Offshore,Offshore,Offshore,Offshore,Offshore,Offshore,Offshore",10
5842041f4e65fad6a77088a0,2024_04_08,33.065267421296596,-117.30577,Beacons,3,0.727,1.018,15,15,"NIGHT_MIST,NIGHT_MIST,NIGHT_MIST,NIGHT_MIST,NIGHT_CLOUDY,NIGHT_OVERCAST,NIGHT_MOSTLY_CLOUDY,NIGHT_MOSTLY_CLOUDY,MOSTLY_CLOUDY,CLEAR","Cross-shore,Cross-shore,Offshore,Offshore,Offshore,Offshore,Offshore,Offshore,Offshore,Offshore",10
5842041f4e65fad6a77088a2,2024_04_08,21.252,-157.805,Diamond Head,3,0.997918,1.315825,26,25,"NIGHT_CLEAR,NIGHT_MOSTLY_CLOUDY,NIGHT_CLEAR,NIGHT_MOSTLY_CLOUDY,NIGHT_MOSTLY_CLOUDY,NIGHT_MOSTLY_CLEAR,NIGHT_MOSTLY_CLOUDY,NIGHT_CLEAR,NIGHT_MOSTLY_CLOUDY,NIGHT_CLEAR","Cross-shore,Cross-shore,Cross-shore,Cross-shore,Cross-shore,Cross-shore,Cross-shore,Cross-shore,Cross-shore,Cross-shore",10
5842041f4e65fad6a77088a3,2024_04_08,33.04694255008896,-117.29966,Moonlight State Beach,3,0.717,1.0070000000000001,15,15,"NIGHT_DRIZZLE,NIGHT_OVERCAST,NIGHT_CLOUDY,NIGHT_CLOUDY,NIGHT_OVERCAST,NIGHT_OVERCAST,NIGHT_CLEAR,NIGHT_MOSTLY_CLOUDY,MOSTLY_CLOUDY,CLEAR","Offshore,Offshore,Offshore,Offshore,Offshore,Offshore,Offshore,Offshore,Offshore,Offshore",10
5842041f4e65fad6a77088a5,2024_04_08,33.08685865930869,-117.31532,Ponto,3,0.845,1.148,15,15,"NIGHT_MIST,NIGHT_MIST,NIGHT_MIST,NIGHT_MIST,NIGHT_CLOUDY,NIGHT_OVERCAST,NIGHT_MOSTLY_CLOUDY,NIGHT_MOSTLY_CLOUDY,MOSTLY_CLOUDY,CLEAR","Offshore,Offshore,Offshore,Offshore,Offshore,Offshore,Offshore,Offshore,Offshore,Offshore",10
5842041f4e65fad6a77088a6,2024_04_08,33.130343587871906,-117.33668,Terra Mar Point,2.983,0.6010866666666667,0.9080466666666667,14,14,"NIGHT_MIST,NIGHT_MIST,NIGHT_MIST,NIGHT_OVERCAST,NIGHT_OVERCAST,NIGHT_MOSTLY_CLOUDY,NIGHT_MOSTLY_CLOUDY,NIGHT_MOSTLY_CLEAR,MOSTLY_CLEAR,CLEAR","Offshore,Offshore,Offshore,Offshore,Offshore,Offshore,Offshore,Offshore,Offshore,Offshore",10
5842041f4e65fad6a77088af,2024_04_08,32.95916304183685,-117.26963,Del Mar,3,0.783,1.0879999999999999,15,15,"NIGHT_MIST,NIGHT_CLOUDY,NIGHT_CLOUDY,NIGHT_CLOUDY,NIGHT_OVERCAST,NIGHT_FOG,NIGHT_MOSTLY_CLOUDY,NIGHT_MOSTLY_CLOUDY,MOSTLY_CLOUDY,MOSTLY_CLOUDY","Cross-shore,Cross-shore,Cross-shore,Offshore,Offshore,Offshore,Offshore,Offshore,Offshore,Offshore",10
5842041f4e65fad6a77088b0,2024_04_08,32.97527261243354,-117.2721061331305,Del Mar Rivermouth,2.6,0.823,1.074,15,15,"NIGHT_CLOUDY,NIGHT_MIST,NIGHT_MIST,NIGHT_MIST,NIGHT_FOG,NIGHT_DRIZZLE,NIGHT_MOSTLY_CLOUDY,NIGHT_MOSTLY_CLOUDY,MOSTLY_CLOUDY,MOSTLY_CLOUDY","Cross-shore,Cross-shore,Cross-shore,Offshore,Offshore,Offshore,Offshore,Offshore,Offshore,Offshore",10
5842041f4e65fad6a77088b1,2024_04_08,33.01352178146273,-117.28219,Cardiff Reef,2.567,0.8455066666666666,1.15807,14,14,"NIGHT_CLOUDY,NIGHT_CLOUDY,NIGHT_CLOUDY,NIGHT_CLOUDY,NIGHT_FOG,NIGHT_OVERCAST,NIGHT_MOSTLY_CLOUDY,NIGHT_BRIEF_SHOWERS,MOSTLY_CLOUDY,MOSTLY_CLOUDY","Offshore,Offshore,Offshore,Offshore,Offshore,Offshore,Offshore,Offshore,Offshore,Offshore",10
5842041f4e65fad6a77088b3,2024_04_08,33.00211185876003,-117.2811,Seaside Reef,2.583,0.8202566666666666,1.1084866666666666,14,14,"NIGHT_CLOUDY,NIGHT_CLOUDY,NIGHT_CLOUDY,NIGHT_MIST,NIGHT_FOG,NIGHT_OVERCAST,NIGHT_MOSTLY_CLOUDY,NIGHT_MOSTLY_CLOUDY,MOSTLY_CLOUDY,MOSTLY_CLOUDY","Cross-shore,Cross-shore,Cross-shore,Cross-shore,Offshore,Offshore,Offshore,Offshore,Offshore,Offshore",10
5842041f4e65fad6a77088b4,2024_04_08,33.0341859796287,-117.29552,Swami's,2.683,0.7025033333333334,1.03759,14,14,"NIGHT_CLOUDY,NIGHT_CLOUDY,NIGHT_CLOUDY,NIGHT_CLOUDY,NIGHT_FOG,NIGHT_OVERCAST,NIGHT_MOSTLY_CLOUDY,NIGHT_BRIEF_SHOWERS,MOSTLY_CLOUDY,MOSTLY_CLOUDY","Offshore,Offshore,Offshore,Offshore,Offshore,Offshore,Offshore,Offshore,Offshore,Offshore",10
5842041f4e65fad6a77088b7,2024_04_08,33.04569760260221,-117.2994,D Street,3,0.779,1.067,15,15,"NIGHT_DRIZZLE,NIGHT_OVERCAST,NIGHT_CLOUDY,NIGHT_CLOUDY,NIGHT_OVERCAST,NIGHT_OVERCAST,NIGHT_CLEAR,NIGHT_MOSTLY_CLOUDY,MOSTLY_CLOUDY,CLEAR","Offshore,Offshore,Offshore,Offshore,Offshore,Offshore,Offshore,Offshore,Offshore,Offshore",10
5842041f4e65fad6a77088b8,2024_04_08,33.02090944350196,-117.28535,San Elijo State Beach,2.567,0.62167,0.9308166666666666,14,14,"NIGHT_CLOUDY,NIGHT_CLOUDY,NIGHT_CLOUDY,NIGHT_CLOUDY,NIGHT_FOG,NIGHT_OVERCAST,NIGHT_MOSTLY_CLOUDY,NIGHT_BRIEF_SHOWERS,MOSTLY_CLOUDY,MOSTLY_CLOUDY","Offshore,Offshore,Offshore,Offshore,Offshore,Offshore,Offshore,Offshore,Offshore,Offshore",10
5842041f4e65fad6a77088c2,2024_04_08,32.80662846492798,-117.2688764333725,PB Point,2.8,0.754,1.048,15,15,"NIGHT_MIST,NIGHT_MIST,NIGHT_OVERCAST,NIGHT_OVERCAST,NIGHT_LIGHT_RAIN_AND_FOG,NIGHT_FOG,NIGHT_CLEAR,NIGHT_MOSTLY_CLOUDY,MOSTLY_CLOUDY,MOSTLY_CLOUDY","Onshore,Cross-shore,Offshore,Offshore,Offshore,Offshore,Offshore,Offshore,Offshore,Offshore",10
5842041f4e65fad6a77088c4,2024_04_08,32.8060476681448,-117.26479,Old Man's at Tourmaline,3,0.685,0.99,15,15,"NIGHT_MIST,NIGHT_MIST,NIGHT_OVERCAST,NIGHT_OVERCAST,NIGHT_LIGHT_RAIN_AND_FOG,NIGHT_FOG,NIGHT_CLEAR,NIGHT_MOSTLY_CLOUDY,MOSTLY_CLOUDY,MOSTLY_CLOUDY","Onshore,Onshore,Offshore,Offshore,Offshore,Offshore,Offshore,Offshore,Offshore,Offshore",10
5842041f4e65fad6a77088cb,2024_04_08,32.557056711256,-117.1327445020322,Tijuana Slough,2.7,0.756,1.063,15,15,"NIGHT_MIST,NIGHT_MIST,NIGHT_MIST,NIGHT_MIST,NIGHT_CLOUDY,NIGHT_MOSTLY_CLOUDY,NIGHT_MOSTLY_CLOUDY,NIGHT_MOSTLY_CLOUDY,MOSTLY_CLOUDY,MOSTLY_CLOUDY","Onshore,Offshore,Offshore,Cross-shore,Cross-shore,Offshore,Offshore,Offshore,Offshore,Offshore",10
5842041f4e65fad6a77088cc,2024_04_08,32.863,-117.257,La Jolla Shores,3,0.7050000000000001,1.009,15,15,"NIGHT_MIST,NIGHT_MIST,NIGHT_MIST,NIGHT_MIST,NIGHT_LIGHT_RAIN_AND_FOG,NIGHT_FOG,NIGHT_CLEAR,NIGHT_CLEAR,CLEAR,MOSTLY_CLOUDY","Offshore,Offshore,Offshore,Offshore,Offshore,Offshore,Offshore,Offshore,Offshore,Offshore",10
5842041f4e65fad6a77088ce,2024_04_08,32.67443657790586,-117.17421316238693,Coronado Beach,2.1,0.47,0.772,15,15,"NIGHT_MOSTLY_CLOUDY,NIGHT_MOSTLY_CLOUDY,NIGHT_FOG,NIGHT_FOG,NIGHT_FOG,NIGHT_CLOUDY,NIGHT_MOSTLY_CLOUDY,NIGHT_MOSTLY_CLOUDY,MOSTLY_CLEAR,MOSTLY_CLOUDY","Onshore,Onshore,Onshore,Cross-shore,Onshore,Cross-shore,Cross-shore,Cross-shore,Cross-shore,Cross-shore",10
5842041f4e65fad6a77088cf,2024_04_08,33.40484417640326,-117.60749,San Clemente State Beach,2.4,0.5509999999999999,0.856,14.6,14.6,"NIGHT_MIST,NIGHT_CLEAR,NIGHT_CLEAR,NIGHT_CLEAR,NIGHT_MOSTLY_CLEAR,NIGHT_CLEAR,NIGHT_CLEAR,NIGHT_CLEAR,MIST,CLEAR","Cross-shore,Cross-shore,Cross-shore,Offshore,Cross-shore,Cross-shore,Offshore,Offshore,Offshore,Cross-shore",10
5842041f4e65fad6a77088d5,2024_04_08,33.4663042002114,-117.7168352817103,Strands,2.683,0.7710033333333334,0.9972133333333334,13,13,"NIGHT_BRIEF_SHOWERS,NIGHT_BRIEF_SHOWERS,NIGHT_MIST,NIGHT_MIST,NIGHT_CLEAR,NIGHT_CLEAR,NIGHT_MOSTLY_CLEAR,NIGHT_CLEAR,CLEAR,CLEAR","Offshore,Cross-shore,Cross-shore,Cross-shore,Cross-shore,Cross-shore,Cross-shore,Onshore,Onshore,Cross-shore",10
5842041f4e65fad6a77088d7,2024_04_08,33.4609858001748,-117.68535,Doheny State Beach,1.8,0.0665,0.36954333333333333,14,14,"NIGHT_MIST,NIGHT_MIST,NIGHT_MOSTLY_CLOUDY,NIGHT_MIST,NIGHT_MOSTLY_CLEAR,NIGHT_MIST,NIGHT_CLEAR,NIGHT_CLEAR,CLEAR,CLEAR","Offshore,Offshore,Offshore,Offshore,Offshore,Offshore,Offshore,Onshore,Cross-shore,Cross-shore",10
5842041f4e65fad6a77088dc,2024_04_08,33.50894790083017,-117.75243,Aliso Creek,2.4,0.519,0.821,14.6,14.6,"NIGHT_MIST,NIGHT_MIST,NIGHT_MIST,NIGHT_MIST,NIGHT_MIST,NIGHT_MIST,NIGHT_CLEAR,NIGHT_CLEAR,MOSTLY_CLEAR,CLEAR","Cross-shore,Cross-shore,Cross-shore,Cross-shore,Cross-shore,Cross-shore,Cross-shore,Onshore,Onshore,Onshore",10
5842041f4e65fad6a77088dd,2024_04_08,33.5326591767067,-117.77764,Brooks Street,2,0.41,0.716,14.6,14.6,"NIGHT_MIST,NIGHT_MIST,NIGHT_MIST,NIGHT_MIST,NIGHT_CLEAR,NIGHT_MIST,NIGHT_MOSTLY_CLEAR,NIGHT_MOSTLY_CLEAR,MOSTLY_CLEAR,CLEAR","Cross-shore,Cross-shore,Cross-shore,Cross-shore,Cross-shore,Onshore,Cross-shore,Onshore,Onshore,Onshore",10
5842041f4e65fad6a77088de,2024_04_08,33.53561225884637,-117.7799,Thalia Street,2.4,0.453,0.759,14.6,14.6,"NIGHT_MIST,NIGHT_MIST,NIGHT_MIST,NIGHT_MIST,NIGHT_CLEAR,NIGHT_MIST,NIGHT_MOSTLY_CLEAR,NIGHT_MOSTLY_CLEAR,MOSTLY_CLEAR,CLEAR","Cross-shore,Cross-shore,Cross-shore,Cross-shore,Cross-shore,Onshore,Cross-shore,Onshore,Onshore,Onshore",10
5842041f4e65fad6a77088e3,2024_04_08,33.54268310353641,-117.7916,Rockpile,2.3,0.465,0.771,14.6,14.6,"NIGHT_MIST,NIGHT_MIST,NIGHT_MIST,NIGHT_MIST,NIGHT_CLEAR,NIGHT_MIST,NIGHT_MOSTLY_CLEAR,NIGHT_MOSTLY_CLEAR,MOSTLY_CLEAR,MOSTLY_CLOUDY","Cross-shore,Cross-shore,Cross-shore,Cross-shore,Onshore,Onshore,Onshore,Onshore,Onshore,Cross-shore",10
5842041f4e65fad6a77088e4,2024_04_08,33.7368459504689,-118.10342,"Seal Beach Pier, Southside",2,0.08700000000000001,0.391,14.6,14.6,"NIGHT_MIST,NIGHT_MIST,NIGHT_MIST,NIGHT_MIST,NIGHT_CLEAR,NIGHT_MOSTLY_CLEAR,NIGHT_MOSTLY_CLOUDY,NIGHT_MOSTLY_CLOUDY,MOSTLY_CLOUDY,MOSTLY_CLOUDY","Offshore,Offshore,Offshore,Offshore,Offshore,Offshore,Offshore,Offshore,Offshore,Offshore",10
5842041f4e65fad6a77088e5,2024_04_08,33.73933701820233,-118.117,Ray Bay,2,0.067,0.368,14.6,14.6,"NIGHT_MIST,NIGHT_MIST,NIGHT_OVERCAST,NIGHT_DRIZZLE,NIGHT_CLEAR,NIGHT_MOSTLY_CLEAR,NIGHT_MIST,NIGHT_MOSTLY_CLOUDY,MOSTLY_CLOUDY,MOSTLY_CLOUDY","Offshore,Offshore,Offshore,Offshore,Offshore,Offshore,Offshore,Offshore,Offshore,Offshore",10
5842041f4e65fad6a77088e7,2024_04_08,33.728733,-118.08982,Surfside,2,0.184,0.493,14.6,14.6,"NIGHT_MIST,NIGHT_MIST,NIGHT_OVERCAST,NIGHT_OVERCAST,NIGHT_CLEAR,NIGHT_MOSTLY_CLEAR,NIGHT_MOSTLY_CLOUDY,NIGHT_MOSTLY_CLOUDY,MOSTLY_CLOUDY,MOSTLY_CLOUDY","Offshore,Offshore,Offshore,Offshore,Offshore,Offshore,Offshore,Offshore,Offshore,Offshore",10
5842041f4e65fad6a77088e8,2024_04_08,33.68760321488161,-118.04236,Bolsa Chica State Beach,2.783,0.6560866666666667,0.9630466666666667,14,14,"NIGHT_MIST,NIGHT_MIST,NIGHT_MIST,NIGHT_MIST,NIGHT_CLEAR,NIGHT_MOSTLY_CLEAR,NIGHT_MOSTLY_CLOUDY,NIGHT_MOSTLY_CLOUDY,MOSTLY_CLOUDY,MOSTLY_CLOUDY","Cross-shore,Cross-shore,Cross-shore,Cross-shore,Cross-shore,Onshore,Cross-shore,Onshore,Cross-shore,Onshore",10
5842041f4e65fad6a77088ea,2024_04_08,33.66704400178788,-118.0192,North HB Streets,2.783,0.8300866666666666,1.1082566666666667,14,14,"NIGHT_MIST,NIGHT_MIST,NIGHT_MIST,NIGHT_MIST,NIGHT_CLEAR,NIGHT_CLEAR,NIGHT_MOSTLY_CLOUDY,NIGHT_MOSTLY_CLOUDY,MOSTLY_CLOUDY,MOSTLY_CLOUDY","Onshore,Onshore,Cross-shore,Cross-shore,Onshore,Onshore,Cross-shore,Onshore,Onshore,Onshore",10
5842041f4e65fad6a77088ed,2024_04_08,33.65475101379567,-118.00291,Huntington Beach Pier Southside,2.9,0.91334,1.1634866666666666,14,14,"NIGHT_MIST,NIGHT_MIST,NIGHT_MIST,NIGHT_MIST,NIGHT_CLEAR,NIGHT_MOSTLY_CLEAR,NIGHT_BRIEF_SHOWERS,NIGHT_MIST,MOSTLY_CLOUDY,CLEAR","Onshore,Offshore,Offshore,Offshore,Offshore,Offshore,Offshore,Offshore,Offshore,Offshore",10
5842041f4e65fad6a77088ee,2024_04_08,33.62778647706099,-117.95939,River Jetties,2.983,0.75192,1.06809,14,14,"NIGHT_MIST,NIGHT_MIST,NIGHT_DRIZZLE,NIGHT_MIST,NIGHT_MOSTLY_CLEAR,NIGHT_MOSTLY_CLEAR,NIGHT_MOSTLY_CLOUDY,NIGHT_MOSTLY_CLOUDY,MOSTLY_CLOUDY,MOSTLY_CLOUDY","Offshore,Offshore,Offshore,Offshore,Offshore,Offshore,Offshore,Offshore,Offshore,Offshore",10
5842041f4e65fad6a77088f2,2024_04_08,33.605165797643664,-117.92500376701355,Newport Point,2.4,0.527,0.833,15,15,"NIGHT_MIST,NIGHT_MIST,NIGHT_MIST,NIGHT_MIST,NIGHT_MOSTLY_CLEAR,NIGHT_MOSTLY_CLOUDY,NIGHT_MOSTLY_CLOUDY,NIGHT_MOSTLY_CLOUDY,MIST,CLEAR","Onshore,Onshore,Cross-shore,Cross-shore,Onshore,Onshore,Onshore,Onshore,Cross-shore,Onshore",10
5842041f4e65fad6a77088f3,2024_04_08,33.58982984726977,-117.87713,Corona del Mar,1,0.180718,0.282368,15,15,"NIGHT_MIST,NIGHT_MIST,NIGHT_MIST,NIGHT_MIST,NIGHT_MOSTLY_CLEAR,NIGHT_MOSTLY_CLOUDY,NIGHT_MOSTLY_CLOUDY,NIGHT_MIST,MOSTLY_CLOUDY,CLEAR","Offshore,Offshore,Offshore,Offshore,Offshore,Offshore,Offshore,Offshore,Offshore,Offshore",10
5842041f4e65fad6a77088f7,2024_04_08,34.00750300824362,-118.4971783496269,Santa Monica Pier,2.7,0.46299999999999997,0.766,14,14,"NIGHT_CLEAR,NIGHT_CLEAR,NIGHT_CLEAR,NIGHT_MOSTLY_CLEAR,NIGHT_CLEAR,NIGHT_CLEAR,NIGHT_CLEAR,NIGHT_CLEAR,CLEAR,CLEAR","Offshore,Offshore,Offshore,Offshore,Offshore,Offshore,Offshore,Offshore,Offshore,Offshore",10
5842041f4e65fad6a77088ff,2024_04_08,33.94070283102945,-118.44321,Dockweiler Beach,3,0.977715,1.18568225,14,14,"NIGHT_CLEAR,NIGHT_MOSTLY_CLEAR,NIGHT_CLEAR,NIGHT_MIST,NIGHT_MOSTLY_CLEAR,NIGHT_CLEAR,NIGHT_CLEAR,NIGHT_MIST,CLEAR,CLEAR","Onshore,Onshore,Offshore,Cross-shore,Offshore,Offshore,Offshore,Offshore,Offshore,Offshore",10
5842041f4e65fad6a7708900,2024_04_08,33.9231846937237,-118.4341465777908,Shitpipe,3,0.8001233333333333,1.1069133333333334,14,14,"NIGHT_CLEAR,NIGHT_MOSTLY_CLEAR,NIGHT_MIST,NIGHT_MIST,NIGHT_CLEAR,NIGHT_MIST,NIGHT_MIST,NIGHT_MIST,CLEAR,CLEAR","Onshore,Onshore,Offshore,Cross-shore,Offshore,Offshore,Offshore,Offshore,Offshore,Offshore",10
5842041f4e65fad6a7708902,2024_04_08,33.9108528052242,-118.4279133138721,Hammerland,3,0.8251433333333333,1.1289333333333333,14,14,"NIGHT_CLEAR,NIGHT_MOSTLY_CLEAR,NIGHT_MIST,NIGHT_MIST,NIGHT_CLEAR,NIGHT_MIST,NIGHT_MIST,NIGHT_MIST,CLEAR,CLEAR","Onshore,Onshore,Offshore,Cross-shore,Offshore,Offshore,Offshore,Offshore,Offshore,Offshore",10
5842041f4e65fad6a7708904,2024_04_08,33.87201368173932,-118.40752,Hermosa Beach,3,0.81158,1.1130166666666668,14,14,"NIGHT_CLEAR,NIGHT_CLEAR,NIGHT_CLEAR,NIGHT_MIST,NIGHT_MIST,NIGHT_MIST,NIGHT_MIST,NIGHT_MIST,MOSTLY_CLEAR,MIST","Cross-shore,Cross-shore,Offshore,Offshore,Offshore,Offshore,Offshore,Offshore,Offshore,Offshore",10
5842041f4e65fad6a7708906,2024_04_08,33.90129336911256,-118.42184,El Porto,3,0.9477266666666666,1.2095166666666666,14,14,"NIGHT_CLEAR,NIGHT_MOSTLY_CLEAR,NIGHT_MIST,NIGHT_MIST,NIGHT_CLEAR,NIGHT_CLEAR,NIGHT_MIST,NIGHT_MIST,CLEAR,MIST","Onshore,Cross-shore,Offshore,Offshore,Offshore,Offshore,Offshore,Offshore,Offshore,Offshore",10
5842041f4e65fad6a7708907,2024_04_08,33.87963506431794,-118.41102,Manhattan Beach Pier,3,0.8084766666666666,1.0879133333333333,14,14,"NIGHT_CLEAR,NIGHT_MOSTLY_CLEAR,NIGHT_MIST,NIGHT_MIST,NIGHT_CLEAR,NIGHT_CLEAR,NIGHT_MIST,NIGHT_MIST,CLEAR,MIST","Onshore,Cross-shore,Offshore,Offshore,Offshore,Offshore,Offshore,Offshore,Offshore,Offshore",10
5842041f4e65fad6a7708914,2024_04_08,34.038053387863464,-118.5532,Sunset Point,2.5,0.307,0.61,14,14,"NIGHT_CLEAR,NIGHT_CLEAR,NIGHT_CLEAR,NIGHT_CLEAR,NIGHT_CLEAR,NIGHT_CLEAR,NIGHT_CLEAR,NIGHT_CLEAR,CLEAR,CLEAR","Offshore,Offshore,Cross-shore,Cross-shore,Cross-shore,Offshore,Offshore,Cross-shore,Offshore,Cross-shore",10
5842041f4e65fad6a7708920,2024_04_08,33.80930828074364,-118.3933198342649,Haggerty's,2,0.2436,0.4272,14.4,14.4,"NIGHT_CLEAR,NIGHT_CLEAR,NIGHT_MOSTLY_CLOUDY,NIGHT_MIST,NIGHT_CLEAR,NIGHT_CLEAR,NIGHT_CLEAR,NIGHT_CLEAR,CLEAR,CLEAR","Cross-shore,Offshore,Offshore,Cross-shore,Offshore,Offshore,Offshore,Offshore,Cross-shore,Offshore",10
5842041f4e65fad6a7708921,2024_04_08,33.85044519861206,-118.40048,Redondo Breakwater,3,0.8079999999999999,1.113,14.4,14.4,"NIGHT_CLEAR,NIGHT_CLEAR,NIGHT_CLEAR,NIGHT_MIST,NIGHT_MIST,NIGHT_MIST,NIGHT_MIST,NIGHT_MIST,MOSTLY_CLEAR,MIST","Cross-shore,Cross-shore,Offshore,Offshore,Offshore,Offshore,Offshore,Offshore,Offshore,Offshore",10
5842041f4e65fad6a7708927,2024_04_08,33.70877301002487,-118.2840112858389,Cabrillo Beach,2,0.152,0.459,14,14,"NIGHT_MIST,NIGHT_MIST,NIGHT_MIST,NIGHT_MIST,NIGHT_MOSTLY_CLEAR,NIGHT_MOSTLY_CLEAR,NIGHT_MOSTLY_CLOUDY,NIGHT_MOSTLY_CLOUDY,CLEAR,MOSTLY_CLOUDY","Cross-shore,Onshore,Onshore,Onshore,Onshore,Onshore,Onshore,Cross-shore,Onshore,Onshore",10
5842041f4e65fad6a770892c,2024_04_08,33.77209986806257,-118.4268428476672,Lunada Bay,2,0.846,1.15,14.4,14.4,"NIGHT_CLEAR,NIGHT_CLEAR,NIGHT_CLEAR,NIGHT_MOSTLY_CLOUDY,NIGHT_CLEAR,NIGHT_CLEAR,NIGHT_CLEAR,NIGHT_CLEAR,CLEAR,CLEAR","Onshore,Cross-shore,Offshore,Offshore,Cross-shore,Offshore,Offshore,Offshore,Offshore,Cross-shore",10
5842041f4e65fad6a770892d,2024_04_08,33.79294656286144,-118.4070316699825,PV Cove,3,0.816704,1.072003,14.4,14.4,"NIGHT_CLEAR,NIGHT_CLEAR,NIGHT_MOSTLY_CLOUDY,NIGHT_MIST,NIGHT_CLEAR,NIGHT_CLEAR,NIGHT_CLEAR,NIGHT_CLEAR,CLEAR,CLEAR","Offshore,Offshore,Cross-shore,Offshore,Offshore,Offshore,Offshore,Offshore,Offshore,Offshore",10
5842041f4e65fad6a7708930,2024_04_08,34.03944902292561,-118.57539,Chart House,2,0.173,0.478,14,14,"NIGHT_CLEAR,NIGHT_CLEAR,NIGHT_CLEAR,NIGHT_CLEAR,NIGHT_CLEAR,NIGHT_CLEAR,NIGHT_CLEAR,NIGHT_CLEAR,CLEAR,CLEAR","Offshore,Offshore,Cross-shore,Cross-shore,Cross-shore,Offshore,Offshore,Cross-shore,Offshore,Cross-shore",10
5842041f4e65fad6a7708936,2024_04_08,34.0016731994772,-118.80456,Point Dume,1.9,0.17245666666666667,0.47789333333333334,14,14,"NIGHT_CLEAR,NIGHT_MIST,NIGHT_CLEAR,NIGHT_CLEAR,NIGHT_CLEAR,NIGHT_CLEAR,NIGHT_CLEAR,NIGHT_CLEAR,CLEAR,CLEAR","Onshore,Cross-shore,Offshore,Offshore,Offshore,Offshore,Offshore,Offshore,Offshore,Offshore",10
5842041f4e65fad6a7708937,2024_04_08,34.02587527588963,-118.7554939066114,Latigo Point,2,0.185,0.488,14,14,"NIGHT_CLEAR,NIGHT_CLEAR,NIGHT_CLEAR,NIGHT_CLEAR,NIGHT_CLEAR,NIGHT_CLEAR,NIGHT_CLEAR,NIGHT_CLEAR,CLEAR,CLEAR","Offshore,Offshore,Offshore,Offshore,Offshore,Cross-shore,Offshore,Offshore,Offshore,Offshore",10
5842041f4e65fad6a770893f,2024_04_08,34.043762,-118.93294,Leo Carrillo,2.9,0.46429,0.76981,13,13,"NIGHT_CLEAR,NIGHT_CLEAR,NIGHT_CLEAR,NIGHT_CLEAR,NIGHT_CLEAR,NIGHT_CLEAR,NIGHT_CLEAR,NIGHT_CLEAR,CLEAR,CLEAR","Offshore,Offshore,Offshore,Offshore,Offshore,Offshore,Offshore,Offshore,Offshore,Offshore",10
5842041f4e65fad6a7708941,2024_04_08,36.69388179265737,-121.81289,Marina State Beach,2.5,1.485,1.756,13,13,"NIGHT_CLEAR,NIGHT_MOSTLY_CLEAR,NIGHT_MOSTLY_CLOUDY,NIGHT_MOSTLY_CLOUDY,NIGHT_MIST,NIGHT_MOSTLY_CLOUDY,NIGHT_MOSTLY_CLEAR,NIGHT_MIST,MIST,MIST","Onshore,Onshore,Onshore,Onshore,Onshore,Onshore,Onshore,Onshore,Onshore,Onshore",10
5842041f4e65fad6a7708944,2024_04_08,34.34145077331085,-119.416999352654,Stanley's,2.1,0.391,0.696,13,13,"NIGHT_CLEAR,NIGHT_CLEAR,NIGHT_CLEAR,NIGHT_CLEAR,NIGHT_CLEAR,NIGHT_CLEAR,NIGHT_CLEAR,NIGHT_CLEAR,CLEAR,CLEAR","Offshore,Offshore,Offshore,Offshore,Offshore,Offshore,Offshore,Offshore,Offshore,Cross-shore",10
5842041f4e65fad6a7708945,2024_04_08,34.35113017313915,-119.426921498899,Oil Piers,2.3,0.262,0.5660000000000001,13,13,"NIGHT_CLEAR,NIGHT_CLEAR,NIGHT_CLEAR,NIGHT_CLEAR,NIGHT_CLEAR,NIGHT_CLEAR,NIGHT_CLEAR,NIGHT_CLEAR,CLEAR,CLEAR","Offshore,Offshore,Offshore,Offshore,Offshore,Offshore,Offshore,Offshore,Offshore,Offshore",10
5842041f4e65fad6a770894c,2024_04_08,34.17876333306018,-119.2399483564372,Oxnard,3,0.607,0.91,13.6,13.6,"NIGHT_CLEAR,NIGHT_CLEAR,NIGHT_CLEAR,NIGHT_MIST,NIGHT_MIST,NIGHT_MIST,NIGHT_MIST,NIGHT_CLEAR,CLEAR,CLEAR","Cross-shore,Offshore,Offshore,Offshore,Offshore,Offshore,Offshore,Offshore,Offshore,Offshore",10
5842041f4e65fad6a7708957,2024_04_08,34.31720331100517,-119.3882324751725,Pitas Point,2.6,0.368,0.673,13,13,"NIGHT_CLEAR,NIGHT_CLEAR,NIGHT_CLEAR,NIGHT_CLEAR,NIGHT_CLEAR,NIGHT_CLEAR,NIGHT_CLEAR,NIGHT_CLEAR,CLEAR,CLEAR","Offshore,Offshore,Offshore,Offshore,Offshore,Offshore,Offshore,Offshore,Offshore,Offshore",10
5842041f4e65fad6a7708959,2024_04_08,34.27851754384724,-119.316202617226,Emma Wood,2.6,0.366,0.672,13,13,"NIGHT_CLEAR,NIGHT_CLEAR,NIGHT_CLEAR,NIGHT_CLEAR,NIGHT_CLEAR,NIGHT_CLEAR,NIGHT_CLEAR,NIGHT_CLEAR,CLEAR,CLEAR","Offshore,Offshore,Offshore,Offshore,Offshore,Offshore,Offshore,Offshore,Offshore,Offshore",10
5842041f4e65fad6a770895a,2024_04_08,34.35513640390276,-119.4400589884255,Mussel Shoals (aka Little Rincon),2.5,0.323,0.626,13,13,"NIGHT_CLEAR,NIGHT_CLEAR,NIGHT_CLEAR,NIGHT_CLEAR,NIGHT_CLEAR,NIGHT_CLEAR,NIGHT_CLEAR,NIGHT_CLEAR,CLEAR,CLEAR","Offshore,Offshore,Offshore,Offshore,Offshore,Offshore,Offshore,Offshore,Offshore,Offshore",10
5842041f4e65fad6a770895e,2024_04_08,34.28991757054902,-119.3366646794652,Summer Beach,2.3,0.253,0.56,13,13,"NIGHT_CLEAR,NIGHT_CLEAR,NIGHT_CLEAR,NIGHT_CLEAR,NIGHT_CLEAR,NIGHT_CLEAR,NIGHT_CLEAR,NIGHT_CLEAR,CLEAR,CLEAR","Cross-shore,Offshore,Offshore,Offshore,Offshore,Offshore,Offshore,Offshore,Offshore,Offshore",10
5842041f4e65fad6a770895f,2024_04_08,34.30897456105926,-119.3582501170116,Solimar,2.4,0.281,0.587,13,13,"NIGHT_CLEAR,NIGHT_CLEAR,NIGHT_CLEAR,NIGHT_CLEAR,NIGHT_CLEAR,NIGHT_CLEAR,NIGHT_CLEAR,NIGHT_CLEAR,CLEAR,CLEAR","Offshore,Offshore,Offshore,Offshore,Cross-shore,Offshore,Offshore,Offshore,Offshore,Offshore",10
5842041f4e65fad6a7708960,2024_04_08,34.39836265281686,-119.70213,Leadbetter Point,1.1,0.001,0.263,13,13,"NIGHT_CLEAR,NIGHT_CLEAR,NIGHT_CLEAR,NIGHT_CLEAR,NIGHT_CLEAR,NIGHT_CLEAR,NIGHT_CLEAR,NIGHT_CLEAR,CLEAR,CLEAR","Offshore,Offshore,Offshore,Cross-shore,Cross-shore,Cross-shore,Cross-shore,Cross-shore,Offshore,Offshore",10
5842041f4e65fad6a7708961,2024_04_08,34.46052293893899,-120.07328,Refugio,1,0,0.297,12.4,12.4,"NIGHT_CLEAR,NIGHT_CLEAR,NIGHT_CLEAR,NIGHT_CLEAR,NIGHT_CLEAR,NIGHT_CLEAR,NIGHT_CLEAR,NIGHT_CLEAR,CLEAR,CLEAR","Offshore,Offshore,Offshore,Offshore,Offshore,Offshore,Offshore,Offshore,Offshore,Offshore",10
5842041f4e65fad6a7708962,2024_04_08,34.40754276777778,-119.87639,Devereux,2,0.189,0.492,12.4,12.4,"NIGHT_CLEAR,NIGHT_CLEAR,NIGHT_CLEAR,NIGHT_CLEAR,NIGHT_CLEAR,NIGHT_CLEAR,NIGHT_CLEAR,NIGHT_CLEAR,CLEAR,CLEAR","Offshore,Offshore,Offshore,Offshore,Offshore,Offshore,Offshore,Offshore,Offshore,Offshore",10
5842041f4e65fad6a7708963,2024_04_08,34.27479983305182,-119.3133222656776,Ventura Overhead,2.6,0.378,0.681,13,13,"NIGHT_MIST,NIGHT_MIST,NIGHT_MIST,NIGHT_MIST,NIGHT_CLEAR,NIGHT_CLEAR,NIGHT_CLEAR,NIGHT_CLEAR,CLEAR,CLEAR","Cross-shore,Offshore,Offshore,Offshore,Offshore,Offshore,Offshore,Offshore,Offshore,Offshore",10
5842041f4e65fad6a7708964,2024_04_08,34.41023236011655,-119.88261,Sands,2,0.265,0.5680000000000001,12.4,12.4,"NIGHT_CLEAR,NIGHT_CLEAR,NIGHT_CLEAR,NIGHT_CLEAR,NIGHT_CLEAR,NIGHT_CLEAR,NIGHT_CLEAR,NIGHT_CLEAR,CLEAR,CLEAR","Cross-shore,Cross-shore,Offshore,Offshore,Cross-shore,Cross-shore,Offshore,Offshore,Onshore,Cross-shore",10
5842041f4e65fad6a7708966,2024_04_08,34.40450193869233,-119.68752,Sandspit,0.4,0,0.158,13,13,"NIGHT_CLEAR,NIGHT_CLEAR,NIGHT_CLEAR,NIGHT_CLEAR,NIGHT_CLEAR,NIGHT_CLEAR,NIGHT_CLEAR,NIGHT_CLEAR,CLEAR,CLEAR","Offshore,Offshore,Offshore,Offshore,Cross-shore,Cross-shore,Cross-shore,Cross-shore,Offshore,Offshore",10
5842041f4e65fad6a7708967,2024_04_08,34.41549098334453,-119.6375149840203,Hammond's,1.1,0.003,0.25,13,13,"NIGHT_CLEAR,NIGHT_CLEAR,NIGHT_CLEAR,NIGHT_CLEAR,NIGHT_CLEAR,NIGHT_CLEAR,NIGHT_CLEAR,NIGHT_CLEAR,CLEAR,CLEAR","Cross-shore,Cross-shore,Cross-shore,Offshore,Offshore,Offshore,Cross-shore,Cross-shore,Cross-shore,Cross-shore",10
5842041f4e65fad6a7708968,2024_04_08,34.45759322742309,-120.0220251867315,El Capitan,2,0.07200000000000001,0.375,12.4,12.4,"NIGHT_CLEAR,NIGHT_CLEAR,NIGHT_CLEAR,NIGHT_CLEAR,NIGHT_CLEAR,NIGHT_CLEAR,NIGHT_CLEAR,NIGHT_CLEAR,CLEAR,CLEAR","Offshore,Offshore,Offshore,Offshore,Offshore,Offshore,Offshore,Offshore,Offshore,Offshore",10
5842041f4e65fad6a770896c,2024_04_08,34.405117655616,-119.84317,Campus Point,2,0.066,0.37,13,13,"NIGHT_CLEAR,NIGHT_CLEAR,NIGHT_CLEAR,NIGHT_CLEAR,NIGHT_CLEAR,NIGHT_CLEAR,NIGHT_CLEAR,NIGHT_CLEAR,CLEAR,CLEAR","Offshore,Offshore,Offshore,Offshore,Offshore,Offshore,Cross-shore,Offshore,Offshore,Offshore",10
5842041f4e65fad6a770896e,2024_04_08,34.38935162233354,-119.51955,Carpinteria State Beach,2.2,0.203,0.508,13,13,"NIGHT_CLEAR,NIGHT_CLEAR,NIGHT_CLEAR,NIGHT_CLEAR,NIGHT_CLEAR,NIGHT_CLEAR,NIGHT_CLEAR,NIGHT_CLEAR,CLEAR,CLEAR","Onshore,Onshore,Onshore,Onshore,Onshore,Cross-shore,Onshore,Onshore,Onshore,Onshore",10
5842041f4e65fad6a770896f,2024_04_08,37.48296565175612,-122.4549300127824,Half Moon Bay,2.8,1.212,1.517,13,13,"NIGHT_MOSTLY_CLOUDY,NIGHT_MIST,NIGHT_MOSTLY_CLOUDY,NIGHT_MOSTLY_CLOUDY,NIGHT_CLEAR,NIGHT_CLEAR,NIGHT_CLEAR,NIGHT_CLEAR,CLEAR,CLEAR","Cross-shore,Cross-shore,Cross-shore,Cross-shore,Cross-shore,Cross-shore,Offshore,Offshore,Offshore,Offshore",10
5842041f4e65fad6a7708970,2024_04_08,37.499,-122.471,Princeton Jetty,2.8,0.992,1.298,13,13,"NIGHT_BRIEF_SHOWERS,NIGHT_MOSTLY_CLOUDY,NIGHT_BRIEF_SHOWERS,NIGHT_BRIEF_SHOWERS,NIGHT_MOSTLY_CLEAR,NIGHT_CLEAR,NIGHT_CLEAR,NIGHT_CLEAR,CLEAR,CLEAR","Offshore,Cross-shore,Offshore,Offshore,Offshore,Offshore,Offshore,Offshore,Offshore,Offshore",10
5842041f4e65fad6a7708972,2024_04_08,37.35699547365155,-122.4069534707252,Tunitas Creek,2.4,2.372,2.621,13,13,"NIGHT_MOSTLY_CLOUDY,NIGHT_MOSTLY_CLOUDY,NIGHT_MOSTLY_CLOUDY,NIGHT_MOSTLY_CLOUDY,NIGHT_CLEAR,NIGHT_MOSTLY_CLEAR,NIGHT_CLEAR,NIGHT_CLEAR,CLEAR,CLEAR","Cross-shore,Cross-shore,Cross-shore,Cross-shore,Cross-shore,Cross-shore,Offshore,Cross-shore,Cross-shore,Cross-shore",10
5842041f4e65fad6a7708974,2024_04_08,37.54735589428842,-122.5161090212687,Montara,1.3,1.912,2.217,13,13,"NIGHT_MOSTLY_CLOUDY,NIGHT_MIST,NIGHT_MIST,NIGHT_MIST,NIGHT_CLEAR,NIGHT_CLEAR,NIGHT_CLEAR,NIGHT_CLEAR,CLEAR,CLEAR","Onshore,Onshore,Onshore,Onshore,Onshore,Onshore,Onshore,Onshore,Onshore,Onshore",10
5842041f4e65fad6a7708975,2024_04_08,34.3869373724559,-119.5142334209018,Tarpits,2.1,0.189,0.493,13,13,"NIGHT_CLEAR,NIGHT_CLEAR,NIGHT_CLEAR,NIGHT_CLEAR,NIGHT_CLEAR,NIGHT_CLEAR,NIGHT_CLEAR,NIGHT_CLEAR,CLEAR,CLEAR","Onshore,Onshore,Onshore,Onshore,Onshore,Onshore,Onshore,Onshore,Onshore,Onshore",10
5842041f4e65fad6a7708976,2024_04_08,37.59881852720143,-122.50463,Pacifica / Linda Mar,2.267,0.6502933333333333,0.9534166666666667,14,14,"NIGHT_MOSTLY_CLOUDY,NIGHT_MOSTLY_CLOUDY,NIGHT_MOSTLY_CLOUDY,NIGHT_MOSTLY_CLOUDY,NIGHT_CLEAR,NIGHT_CLEAR,NIGHT_CLEAR,NIGHT_CLEAR,CLEAR,CLEAR","Onshore,Onshore,Onshore,Onshore,Onshore,Onshore,Onshore,Onshore,Onshore,Onshore",10
5842041f4e65fad6a7708978,2024_04_08,37.59883098461164,-122.5143843582282,Pedro Point,1.2,2.007,2.307,13,13,"NIGHT_MOSTLY_CLOUDY,NIGHT_MOSTLY_CLOUDY,NIGHT_MOSTLY_CLOUDY,NIGHT_MOSTLY_CLOUDY,NIGHT_CLEAR,NIGHT_CLEAR,NIGHT_CLEAR,NIGHT_CLEAR,CLEAR,CLEAR","Onshore,Onshore,Onshore,Onshore,Onshore,Onshore,Onshore,Onshore,Onshore,Onshore",10
5842041f4e65fad6a7708979,2024_04_08,37.61081996647663,-122.4973287570634,Rockaway,2.5,1.964,2.272,13,13,"NIGHT_MOSTLY_CLOUDY,NIGHT_MOSTLY_CLOUDY,NIGHT_MOSTLY_CLOUDY,NIGHT_MOSTLY_CLOUDY,NIGHT_CLEAR,NIGHT_CLEAR,NIGHT_CLEAR,NIGHT_CLEAR,CLEAR,CLEAR","Onshore,Cross-shore,Onshore,Onshore,Onshore,Onshore,Onshore,Onshore,Cross-shore,Onshore",10
5842041f4e65fad6a770897a,2024_04_08,37.809987384424446,-122.4751353263855,Fort Point,3,1.0030000000000001,1.31,13,13,"NIGHT_CLEAR,NIGHT_CLEAR,NIGHT_CLEAR,NIGHT_CLEAR,NIGHT_CLEAR,NIGHT_CLEAR,NIGHT_CLEAR,NIGHT_CLEAR,CLEAR,CLEAR","Offshore,Offshore,Offshore,Offshore,Offshore,Offshore,Offshore,Offshore,Offshore,Cross-shore",10
5842041f4e65fad6a770897c,2024_04_08,37.63422542967464,-122.4951,Sharp Park,2.4,2.104,2.407,13,13,"NIGHT_MOSTLY_CLOUDY,NIGHT_MOSTLY_CLOUDY,NIGHT_MOSTLY_CLOUDY,NIGHT_MOSTLY_CLEAR,NIGHT_CLEAR,NIGHT_CLEAR,NIGHT_CLEAR,NIGHT_CLEAR,CLEAR,CLEAR","Cross-shore,Cross-shore,Onshore,Onshore,Onshore,Onshore,Onshore,Onshore,Offshore,Cross-shore",10
5842041f4e65fad6a770897d,2024_04_08,37.27313605072472,-122.4127387912554,Pescadero,1.1,2.415,2.637,13,13,"NIGHT_CLOUDY,NIGHT_CLOUDY,NIGHT_CLOUDY,NIGHT_MIST,NIGHT_CLEAR,NIGHT_MOSTLY_CLOUDY,NIGHT_CLEAR,NIGHT_CLEAR,CLEAR,CLEAR","Onshore,Onshore,Cross-shore,Cross-shore,Cross-shore,Cross-shore,Cross-shore,Cross-shore,Cross-shore,Cross-shore",10
5842041f4e65fad6a770897e,2024_04_08,37.18140279972666,-122.3926685899327,Pigeon Point,3.2,2.241,2.407,12.6,12.6,"NIGHT_CLOUDY,NIGHT_MIST,NIGHT_MIST,NIGHT_MIST,NIGHT_MOSTLY_CLOUDY,NIGHT_CLEAR,NIGHT_MOSTLY_CLOUDY,NIGHT_CLEAR,CLEAR,CLEAR","Offshore,Offshore,Offshore,Offshore,Offshore,Offshore,Offshore,Offshore,Offshore,Offshore",10
5842041f4e65fad6a770897f,2024_04_08,37.11578956919415,-122.314699271291,Ano Nuevo,3.9,1.336,1.632,12.6,12.6,"NIGHT_MOSTLY_CLOUDY,NIGHT_MIST,NIGHT_BRIEF_SHOWERS,NIGHT_MIST,NIGHT_MOSTLY_CLOUDY,NIGHT_MOSTLY_CLOUDY,NIGHT_CLEAR,NIGHT_CLEAR,CLEAR,CLEAR","Offshore,Offshore,Offshore,Offshore,Offshore,Offshore,Offshore,Offshore,Offshore,Offshore",10
5842041f4e65fad6a7708980,2024_04_08,37.09520872681598,-122.2805474707768,Waddell Creek,3,1.559,1.85,12.6,12.6,"NIGHT_MOSTLY_CLOUDY,NIGHT_MOSTLY_CLOUDY,NIGHT_BRIEF_SHOWERS,NIGHT_MOSTLY_CLOUDY,NIGHT_CLEAR,NIGHT_MOSTLY_CLOUDY,NIGHT_CLEAR,NIGHT_CLEAR,CLEAR,CLEAR","Cross-shore,Cross-shore,Offshore,Cross-shore,Cross-shore,Offshore,Offshore,Offshore,Offshore,Onshore",10
5842041f4e65fad6a7708981,2024_04_08,36.96512852130351,-122.1252825495626,Four Mile,4,1.352,1.6239999999999999,12,12,"NIGHT_CLEAR,NIGHT_CLEAR,NIGHT_CLEAR,NIGHT_CLEAR,NIGHT_CLEAR,NIGHT_CLEAR,NIGHT_CLEAR,NIGHT_CLEAR,CLEAR,CLEAR","Offshore,Offshore,Offshore,Offshore,Offshore,Offshore,Cross-shore,Offshore,Offshore,Cross-shore",10
5842041f4e65fad6a7708982,2024_04_08,37.04122807048655,-122.2333684729756,Scott Creek,3,1.771,1.9809999999999999,12.6,12.6,"NIGHT_CLEAR,NIGHT_CLEAR,NIGHT_CLEAR,NIGHT_MOSTLY_CLOUDY,NIGHT_CLEAR,NIGHT_CLEAR,NIGHT_CLEAR,NIGHT_CLEAR,CLEAR,CLEAR","Cross-shore,Offshore,Offshore,Offshore,Offshore,Offshore,Offshore,Offshore,Offshore,Offshore",10
5842041f4e65fad6a7708983,2024_04_08,37.02350229387179,-122.21908,Davenport,3.4,1.562,1.869,12.6,12.6,"NIGHT_MOSTLY_CLOUDY,NIGHT_MOSTLY_CLOUDY,NIGHT_CLEAR,NIGHT_MOSTLY_CLOUDY,NIGHT_CLEAR,NIGHT_CLEAR,NIGHT_CLEAR,NIGHT_CLEAR,CLEAR,CLEAR","Cross-shore,Offshore,Offshore,Offshore,Offshore,Offshore,Offshore,Offshore,Offshore,Offshore",10
5842041f4e65fad6a7708986,2024_04_08,36.94905295955728,-122.0611823912244,Natural Bridges,3,1.387,1.656,12,12,"NIGHT_CLEAR,NIGHT_CLEAR,NIGHT_CLEAR,NIGHT_CLEAR,NIGHT_CLEAR,NIGHT_CLEAR,NIGHT_CLEAR,NIGHT_MIST,MIST,CLEAR","Offshore,Offshore,Offshore,Offshore,Offshore,Offshore,Cross-shore,Cross-shore,Cross-shore,Offshore",10
5842041f4e65fad6a7708987,2024_04_08,36.95154854910425,-122.04207,Mitchell's Cove,3,0.616,0.922,13,13,"NIGHT_CLEAR,NIGHT_CLEAR,NIGHT_CLEAR,NIGHT_CLEAR,NIGHT_CLEAR,NIGHT_CLEAR,NIGHT_MIST,NIGHT_MIST,CLEAR,CLEAR","Offshore,Offshore,Offshore,Offshore,Offshore,Cross-shore,Offshore,Cross-shore,Onshore,Offshore",10
5842041f4e65fad6a770898a,2024_04_08,36.9572312370203,-121.98177,26th Ave,2.9,0.807,1.048,13,13,"NIGHT_CLEAR,NIGHT_CLEAR,NIGHT_CLEAR,NIGHT_CLEAR,NIGHT_CLEAR,NIGHT_CLEAR,NIGHT_CLEAR,NIGHT_CLEAR,CLEAR,CLEAR","Cross-shore,Onshore,Cross-shore,Cross-shore,Offshore,Offshore,Cross-shore,Offshore,Cross-shore,Offshore",10
5842041f4e65fad6a770898e,2024_04_08,36.91899972819882,-121.85536,Manresa,3.4,1.163,1.41,13,13,"NIGHT_CLEAR,NIGHT_CLEAR,NIGHT_CLEAR,NIGHT_CLEAR,NIGHT_CLEAR,NIGHT_MIST,NIGHT_MIST,NIGHT_MIST,MIST,CLEAR","Cross-shore,Cross-shore,Offshore,Cross-shore,Cross-shore,Offshore,Offshore,Offshore,Offshore,Offshore",10
5842041f4e65fad6a7708990,2024_04_08,34.45747731928454,-120.34242,The Ranch,1,0.186,0.489,12,12,"NIGHT_CLEAR,NIGHT_CLEAR,NIGHT_CLEAR,NIGHT_CLEAR,NIGHT_CLEAR,NIGHT_CLEAR,NIGHT_CLEAR,NIGHT_CLEAR,CLEAR,CLEAR","Offshore,Offshore,Offshore,Offshore,Offshore,Offshore,Offshore,Offshore,Offshore,Offshore",10
5842041f4e65fad6a7708991,2024_04_08,34.50875036590315,-120.50348,Jalama,1.3,0.692,0.996,12,12,"NIGHT_CLEAR,NIGHT_CLEAR,NIGHT_CLEAR,NIGHT_CLEAR,NIGHT_CLEAR,NIGHT_CLEAR,NIGHT_CLEAR,NIGHT_CLEAR,CLEAR,CLEAR","Cross-shore,Offshore,Offshore,Offshore,Offshore,Offshore,Offshore,Offshore,Offshore,Offshore",10
5842041f4e65fad6a7708996,2024_04_08,34.68700870220497,-120.6111611019887,Surf Beach,1.6,2.095,2.432,12,12,"NIGHT_CLEAR,NIGHT_MOSTLY_CLEAR,NIGHT_CLEAR,NIGHT_CLEAR,NIGHT_CLEAR,NIGHT_CLEAR,NIGHT_CLEAR,NIGHT_CLEAR,CLEAR,CLEAR","Onshore,Onshore,Onshore,Cross-shore,Cross-shore,Cross-shore,Cross-shore,Cross-shore,Cross-shore,Cross-shore",10
5842041f4e65fad6a770899c,2024_04_08,35.5730538161116,-121.1143362345574,Moonstone,3,1.267,1.517,12,12,"NIGHT_CLEAR,NIGHT_CLEAR,NIGHT_CLEAR,NIGHT_CLEAR,NIGHT_CLEAR,NIGHT_CLEAR,NIGHT_CLEAR,NIGHT_CLEAR,CLEAR,CLEAR","Cross-shore,Cross-shore,Cross-shore,Cross-shore,Cross-shore,Offshore,Offshore,Offshore,Offshore,Onshore",10
5842041f4e65fad6a770899d,2024_04_08,35.61533716776573,-121.1502053073914,Pico Creek,2.8,1.339,1.4969999999999999,12,12,"NIGHT_CLEAR,NIGHT_CLEAR,NIGHT_CLEAR,NIGHT_CLEAR,NIGHT_CLEAR,NIGHT_CLEAR,NIGHT_CLEAR,NIGHT_CLEAR,CLEAR,CLEAR","Onshore,Onshore,Cross-shore,Cross-shore,Offshore,Cross-shore,Offshore,Offshore,Offshore,Cross-shore",10
5842041f4e65fad6a770899e,2024_04_08,35.56829031927379,-121.1120653023953,Santa Rosa Creek,3,1.267,1.517,12,12,"NIGHT_CLEAR,NIGHT_CLEAR,NIGHT_CLEAR,NIGHT_CLEAR,NIGHT_CLEAR,NIGHT_CLEAR,NIGHT_CLEAR,NIGHT_CLEAR,CLEAR,CLEAR","Offshore,Cross-shore,Cross-shore,Cross-shore,Cross-shore,Cross-shore,Cross-shore,Onshore,Cross-shore,Onshore",10
5842041f4e65fad6a77089a2,2024_04_08,35.44820114936284,-120.90715,"Cayucos Pier, Southside ",3,0.497,0.802,12,12,"NIGHT_CLEAR,NIGHT_CLEAR,NIGHT_CLEAR,NIGHT_CLEAR,NIGHT_CLEAR,NIGHT_CLEAR,NIGHT_CLEAR,NIGHT_CLEAR,CLEAR,CLEAR","Offshore,Offshore,Offshore,Offshore,Offshore,Offshore,Offshore,Offshore,Offshore,Offshore",10
5842041f4e65fad6a77089a4,2024_04_08,35.30143372628852,-120.877819239902,Cable Landing,3.3,2.383,2.61,12,12,"NIGHT_CLEAR,NIGHT_CLEAR,NIGHT_CLEAR,NIGHT_CLEAR,NIGHT_CLEAR,NIGHT_CLEAR,NIGHT_CLEAR,NIGHT_CLEAR,CLEAR,CLEAR","Cross-shore,Cross-shore,Cross-shore,Cross-shore,Offshore,Offshore,Offshore,Offshore,Offshore,Offshore",10
5842041f4e65fad6a77089a9,2024_04_08,35.61269103500222,-121.1480725356606,San Simeon,3,0.7301,0.9436,12,12,"NIGHT_CLEAR,NIGHT_CLEAR,NIGHT_CLEAR,NIGHT_CLEAR,NIGHT_CLEAR,NIGHT_CLEAR,NIGHT_CLEAR,NIGHT_CLEAR,CLEAR,CLEAR","Offshore,Offshore,Offshore,Offshore,Offshore,Offshore,Offshore,Offshore,Offshore,Offshore",10
5842041f4e65fad6a77089ab,2024_04_08,35.1775325966252,-120.7341125142258,Avila Beach,1,0,0.28400000000000003,12,12,"NIGHT_CLEAR,NIGHT_CLEAR,NIGHT_CLEAR,NIGHT_CLEAR,NIGHT_CLEAR,NIGHT_CLEAR,NIGHT_CLEAR,NIGHT_CLEAR,CLEAR,CLEAR","Offshore,Offshore,Offshore,Offshore,Offshore,Offshore,Offshore,Offshore,Onshore,Offshore",10
5842041f4e65fad6a77089ac,2024_04_08,35.13877877884115,-120.64535,Pismo Beach Pier,2.217,0.7127533333333333,1.0180666666666667,12,12,"NIGHT_MOSTLY_CLEAR,NIGHT_CLEAR,NIGHT_CLEAR,NIGHT_CLEAR,NIGHT_CLEAR,NIGHT_CLEAR,NIGHT_CLEAR,NIGHT_CLEAR,CLEAR,CLEAR","Onshore,Cross-shore,Onshore,Onshore,Cross-shore,Cross-shore,Cross-shore,Offshore,Cross-shore,Cross-shore",10
5842041f4e65fad6a77089ad,2024_04_08,46.8907710233147,-124.12964,Westport/Olympic Peninsula,2.1,1.375,1.6340000000000001,10.4,10.4,"NIGHT_MOSTLY_CLOUDY,NIGHT_MOSTLY_CLOUDY,NIGHT_DRIZZLE,NIGHT_BRIEF_SHOWERS,NIGHT_MOSTLY_CLOUDY,NIGHT_OVERCAST,NIGHT_DRIZZLE,NIGHT_OVERCAST,OVERCAST,LIGHT_RAIN","Onshore,Onshore,Onshore,Onshore,Onshore,Cross-shore,Onshore,Onshore,Cross-shore,Cross-shore",10
5842041f4e65fad6a77089ae,2024_04_08,46.35185177248545,-124.06747,Long Beach Peninsula,1.9,1.936,2.183,10.4,10.4,"NIGHT_CLOUDY,NIGHT_CLOUDY,NIGHT_MOSTLY_CLOUDY,NIGHT_MOSTLY_CLOUDY,NIGHT_MOSTLY_CLOUDY,NIGHT_OVERCAST,NIGHT_CLOUDY,NIGHT_OVERCAST,CLOUDY,CLOUDY","Onshore,Cross-shore,Cross-shore,Cross-shore,Cross-shore,Cross-shore,Cross-shore,Cross-shore,Cross-shore,Cross-shore",10
5842041f4e65fad6a77089af,2024_04_08,47.90649175554033,-124.6370864743483,La Push,2.5,1.715,1.972,10,10,"NIGHT_CLEAR,NIGHT_CLEAR,NIGHT_OVERCAST,NIGHT_LIGHT_RAIN,NIGHT_DRIZZLE,NIGHT_LIGHT_RAIN,NIGHT_DRIZZLE,NIGHT_LIGHT_RAIN,LIGHT_RAIN,LIGHT_RAIN","Onshore,Onshore,Cross-shore,Offshore,Offshore,Onshore,Cross-shore,Cross-shore,Cross-shore,Cross-shore",10
5842041f4e65fad6a77089b0,2024_04_08,42.04368239985442,-124.26828,Brookings Jetty,3,0.850363,1.328691,10,10,"NIGHT_CLEAR,NIGHT_CLEAR,NIGHT_CLEAR,NIGHT_CLEAR,NIGHT_CLEAR,NIGHT_CLEAR,NIGHT_CLEAR,NIGHT_CLEAR,CLEAR,CLEAR","Offshore,Offshore,Offshore,Offshore,Offshore,Offshore,Offshore,Offshore,Offshore,Offshore",10
5842041f4e65fad6a77089b1,2024_04_08,42.74071837900346,-124.4983727491047,Port Orford,3,0.99,1.226,11,11,"NIGHT_CLEAR,NIGHT_CLEAR,NIGHT_MOSTLY_CLOUDY,NIGHT_CLEAR,NIGHT_CLEAR,NIGHT_CLEAR,NIGHT_CLEAR,NIGHT_CLEAR,CLEAR,CLEAR","Offshore,Offshore,Offshore,Offshore,Offshore,Offshore,Offshore,Offshore,Cross-shore,Cross-shore",10
5842041f4e65fad6a77089b2,2024_04_08,44.01532689312291,-124.13865,Florence South Jetty,3,2.001,2.269,11,11,"NIGHT_MOSTLY_CLEAR,NIGHT_MOSTLY_CLEAR,NIGHT_CLEAR,NIGHT_CLEAR,NIGHT_CLEAR,NIGHT_MOSTLY_CLOUDY,NIGHT_MOSTLY_CLOUDY,NIGHT_MOSTLY_CLOUDY,MOSTLY_CLOUDY,MOSTLY_CLEAR","Onshore,Onshore,Onshore,Onshore,Onshore,Onshore,Onshore,Cross-shore,Cross-shore,Cross-shore",10
5842041f4e65fad6a77089b3,2024_04_08,42.41812540774362,-124.42945,Gold Beach South Jetty,4,1.537,1.789,10,10,"NIGHT_CLEAR,NIGHT_CLEAR,NIGHT_MOSTLY_CLEAR,NIGHT_MOSTLY_CLOUDY,NIGHT_CLEAR,NIGHT_CLEAR,NIGHT_CLEAR,NIGHT_CLEAR,CLEAR,CLEAR","Offshore,Offshore,Offshore,Offshore,Offshore,Offshore,Offshore,Offshore,Offshore,Offshore",10
5842041f4e65fad6a77089b4,2024_04_08,44.95857310226525,-124.0219017690976,Lincoln City,3,1.905,2.144,11,11,"NIGHT_MOSTLY_CLOUDY,NIGHT_BRIEF_SHOWERS,NIGHT_MOSTLY_CLOUDY,NIGHT_MOSTLY_CLOUDY,NIGHT_MOSTLY_CLOUDY,NIGHT_MOSTLY_CLOUDY,NIGHT_MOSTLY_CLOUDY,NIGHT_CLEAR,MOSTLY_CLEAR,CLEAR","Onshore,Onshore,Cross-shore,Cross-shore,Cross-shore,Cross-shore,Cross-shore,Cross-shore,Cross-shore,Cross-shore",10
5842041f4e65fad6a77089b5,2024_04_08,44.63792761362982,-124.0657,Newport,3,2.083,2.372,10.4,10.4,"NIGHT_MOSTLY_CLEAR,NIGHT_MOSTLY_CLEAR,NIGHT_MOSTLY_CLOUDY,NIGHT_CLEAR,NIGHT_MOSTLY_CLOUDY,NIGHT_MOSTLY_CLOUDY,NIGHT_FOG,NIGHT_MOSTLY_CLOUDY,CLEAR,MOSTLY_CLOUDY","Onshore,Onshore,Onshore,Onshore,Onshore,Onshore,Cross-shore,Onshore,Cross-shore,Offshore",10
5842041f4e65fad6a77089b6,2024_04_08,45.61468496266301,-123.94643,Rockaway Beach,3,1.955,2.213,10.4,10.4,"NIGHT_MOSTLY_CLOUDY,NIGHT_MOSTLY_CLOUDY,NIGHT_MOSTLY_CLOUDY,NIGHT_CLEAR,NIGHT_MOSTLY_CLOUDY,NIGHT_MOSTLY_CLOUDY,NIGHT_MOSTLY_CLOUDY,NIGHT_CLEAR,MOSTLY_CLOUDY,MOSTLY_CLOUDY","Cross-shore,Cross-shore,Cross-shore,Cross-shore,Cross-shore,Cross-shore,Cross-shore,Cross-shore,Cross-shore,Cross-shore",10
5842041f4e65fad6a77089b7,2024_04_08,45.20252914186085,-123.96975,Pacific City,3,1.6440000000000001,1.864,11,11,"NIGHT_CLEAR,NIGHT_MOSTLY_CLOUDY,NIGHT_MOSTLY_CLOUDY,NIGHT_MOSTLY_CLOUDY,NIGHT_MOSTLY_CLEAR,NIGHT_MOSTLY_CLOUDY,NIGHT_FOG,NIGHT_CLEAR,MOSTLY_CLEAR,CLEAR","Onshore,Onshore,Onshore,Onshore,Onshore,Cross-shore,Onshore,Onshore,Onshore,Cross-shore",10
5842041f4e65fad6a77089b8,2024_04_08,45.88179930310263,-123.96681,Cannon Beach,2.9,1.8439999999999999,2.084,10,10,"NIGHT_MIST,NIGHT_MOSTLY_CLOUDY,NIGHT_BRIEF_SHOWERS,NIGHT_MOSTLY_CLOUDY,NIGHT_CLEAR,NIGHT_MOSTLY_CLOUDY,NIGHT_CLEAR,NIGHT_MOSTLY_CLOUDY,MOSTLY_CLOUDY,CLEAR","Onshore,Onshore,Onshore,Onshore,Onshore,Onshore,Onshore,Onshore,Cross-shore,Onshore",10
5842041f4e65fad6a77089ba,2024_04_08,40.02528754746774,-124.06372,Shelter Cove,3,0.437307,0.68329,11,11,"NIGHT_CLEAR,NIGHT_CLEAR,NIGHT_CLEAR,NIGHT_CLEAR,NIGHT_CLEAR,NIGHT_CLEAR,NIGHT_CLEAR,NIGHT_CLEAR,CLEAR,CLEAR","Offshore,Offshore,Offshore,Offshore,Offshore,Offshore,Offshore,Offshore,Offshore,Offshore",10
5842041f4e65fad6a77089bb,2024_04_08,40.76816197136951,-124.24248,Humboldt Harbor Entrance,3,2.106,2.422,10.4,10.4,"NIGHT_OVERCAST,NIGHT_CLOUDY,NIGHT_CLOUDY,NIGHT_OVERCAST,NIGHT_OVERCAST,NIGHT_OVERCAST,NIGHT_OVERCAST,NIGHT_CLOUDY,CLOUDY,MOSTLY_CLOUDY","Cross-shore,Cross-shore,Cross-shore,Cross-shore,Cross-shore,Cross-shore,Cross-shore,Cross-shore,Cross-shore,Cross-shore",10
5842041f4e65fad6a77089bc,2024_04_08,40.76684246920174,-124.23107,North Jetty,2.9,2.971,3.398,10.4,10.4,"NIGHT_OVERCAST,NIGHT_OVERCAST,NIGHT_CLOUDY,NIGHT_OVERCAST,NIGHT_OVERCAST,NIGHT_OVERCAST,NIGHT_OVERCAST,NIGHT_OVERCAST,CLOUDY,CLEAR","Cross-shore,Cross-shore,Cross-shore,Cross-shore,Cross-shore,Cross-shore,Cross-shore,Cross-shore,Cross-shore,Cross-shore",10
5842041f4e65fad6a77089bd,2024_04_08,41.02731183893966,-124.1149972888982,Westhaven,3,3.145,3.597,10.4,10.4,"NIGHT_CLEAR,NIGHT_CLOUDY,NIGHT_CLOUDY,NIGHT_CLEAR,NIGHT_DRIZZLE,NIGHT_CLOUDY,NIGHT_CLOUDY,NIGHT_CLOUDY,MOSTLY_CLOUDY,CLEAR","Cross-shore,Cross-shore,Cross-shore,Cross-shore,Cross-shore,Cross-shore,Cross-shore,Cross-shore,Offshore,Offshore",10
5842041f4e65fad6a77089be,2024_04_08,41.13016238153297,-124.16466,Sue-meg,2,2.181,2.465,10.4,10.4,"NIGHT_CLOUDY,NIGHT_OVERCAST,NIGHT_OVERCAST,NIGHT_OVERCAST,NIGHT_CLOUDY,NIGHT_CLOUDY,NIGHT_CLOUDY,NIGHT_CLEAR,MOSTLY_CLOUDY,CLEAR","Cross-shore,Cross-shore,Cross-shore,Cross-shore,Cross-shore,Cross-shore,Cross-shore,Cross-shore,Cross-shore,Cross-shore",10
5842041f4e65fad6a77089bf,2024_04_08,37.8289474958188,-122.5376795097543,Fort Cronkite/Rodeo Beach,3.4,1.3330000000000002,1.596,13,13,"NIGHT_CLEAR,NIGHT_CLEAR,NIGHT_CLEAR,NIGHT_CLEAR,NIGHT_CLEAR,NIGHT_CLEAR,NIGHT_CLEAR,NIGHT_CLEAR,CLEAR,CLEAR","Offshore,Offshore,Offshore,Offshore,Offshore,Offshore,Offshore,Offshore,Offshore,Offshore",10
5842041f4e65fad6a77089c0,2024_04_08,41.74415759876137,-124.17717,South Beach CA,3,0.673,0.977,10,10,"NIGHT_CLEAR,NIGHT_MOSTLY_CLOUDY,NIGHT_CLEAR,NIGHT_MOSTLY_CLEAR,NIGHT_CLEAR,NIGHT_CLEAR,NIGHT_CLEAR,NIGHT_CLEAR,CLEAR,CLEAR","Offshore,Offshore,Offshore,Offshore,Offshore,Offshore,Offshore,Offshore,Offshore,Offshore",10
5842041f4e65fad6a77089c1,2024_04_08,37.89801283969752,-122.64519,Stinson Beach,3,0.507,0.812,12,12,"NIGHT_MOSTLY_CLEAR,NIGHT_CLEAR,NIGHT_CLEAR,NIGHT_CLEAR,NIGHT_CLEAR,NIGHT_CLEAR,NIGHT_CLEAR,NIGHT_CLEAR,CLEAR,CLEAR","Offshore,Offshore,Offshore,Offshore,Offshore,Offshore,Cross-shore,Onshore,Onshore,Cross-shore",10
5842041f4e65fad6a77089c2,2024_04_08,37.90514516176495,-122.68151,Bolinas,2,0.314589,0.491547,12,12,"NIGHT_CLEAR,NIGHT_CLEAR,NIGHT_CLEAR,NIGHT_CLEAR,NIGHT_CLEAR,NIGHT_CLEAR,NIGHT_CLEAR,NIGHT_CLEAR,CLEAR,CLEAR","Cross-shore,Cross-shore,Cross-shore,Cross-shore,Cross-shore,Cross-shore,Onshore,Onshore,Onshore,Cross-shore",10
5842041f4e65fad6a77089c3,2024_04_08,38.04892513158693,-122.9892494965416,Point Reyes (north),1,2.682,3.011,12,12,"NIGHT_MOSTLY_CLOUDY,NIGHT_CLEAR,NIGHT_CLEAR,NIGHT_CLEAR,NIGHT_CLEAR,NIGHT_CLEAR,NIGHT_CLEAR,NIGHT_CLEAR,CLEAR,CLEAR","Onshore,Onshore,Onshore,Onshore,Onshore,Onshore,Onshore,Onshore,Onshore,Onshore",10
5842041f4e65fad6a77089c6,2024_04_08,38.31088736605785,-123.0496777333731,Doran Beach,2,0.156,0.46,11,11,"NIGHT_CLEAR,NIGHT_CLEAR,NIGHT_CLEAR,NIGHT_CLEAR,NIGHT_CLEAR,NIGHT_CLEAR,NIGHT_CLEAR,NIGHT_CLEAR,CLEAR,CLEAR","Offshore,Offshore,Offshore,Offshore,Offshore,Offshore,Offshore,Offshore,Offshore,Offshore",10
5842041f4e65fad6a77089c7,2024_04_08,38.45077228660809,-123.13008,Russian Rivermouth,3.1,1.618,1.934,11,11,"NIGHT_CLEAR,NIGHT_CLEAR,NIGHT_CLEAR,NIGHT_CLEAR,NIGHT_CLEAR,NIGHT_CLEAR,NIGHT_CLEAR,NIGHT_CLEAR,CLEAR,CLEAR","Cross-shore,Cross-shore,Offshore,Offshore,Offshore,Offshore,Offshore,Offshore,Offshore,Offshore",10
5842041f4e65fad6a77089c8,2024_04_08,38.35329968518107,-123.06906,Salmon Creek,2.4,2.0869999999999997,2.4,11,11,"NIGHT_CLEAR,NIGHT_CLEAR,NIGHT_CLEAR,NIGHT_CLEAR,NIGHT_CLEAR,NIGHT_CLEAR,NIGHT_CLEAR,NIGHT_CLEAR,CLEAR,CLEAR","Onshore,Cross-shore,Cross-shore,Onshore,Onshore,Cross-shore,Onshore,Cross-shore,Cross-shore,Cross-shore",10
5842041f4e65fad6a77089c9,2024_04_08,38.6845180197959,-123.4322714291198,Black Point Beach,2,0.694,1,10.4,10.4,"NIGHT_CLEAR,NIGHT_CLEAR,NIGHT_CLEAR,NIGHT_CLEAR,NIGHT_CLEAR,NIGHT_CLEAR,NIGHT_CLEAR,NIGHT_CLEAR,CLEAR,CLEAR","Onshore,Onshore,Onshore,Onshore,Onshore,Onshore,Onshore,Onshore,Onshore,Onshore",10
5842041f4e65fad6a77089ca,2024_04_08,43.251076,-70.59144,Ogunquit,3.066,0.7361666666666666,1.0795,5,4,"NIGHT_CLEAR,NIGHT_CLEAR,NIGHT_CLEAR,NIGHT_CLEAR,NIGHT_CLEAR,CLEAR,CLEAR,CLEAR,CLEAR,CLEAR","Offshore,Offshore,Offshore,Offshore,Offshore,Offshore,Offshore,Offshore,Offshore,Cross-shore",10
5842041f4e65fad6a77089cb,2024_04_08,41.362631366305415,-71.48007,Point Judith,0.5,-0.019999999999999997,0.29913333333333336,6,5,"NIGHT_CLEAR,NIGHT_CLEAR,NIGHT_CLEAR,NIGHT_CLEAR,NIGHT_CLEAR,CLEAR,CLEAR,CLEAR,CLEAR,CLEAR","Offshore,Offshore,Offshore,Offshore,Offshore,Offshore,Offshore,Offshore,Cross-shore,Offshore",10
5842041f4e65fad6a77089cd,2024_04_08,41.422678090954726,-71.45413,Monahan's - Narragansett,1.3,0.172606,0.269697,6,6,"NIGHT_CLEAR,NIGHT_CLEAR,NIGHT_CLEAR,NIGHT_CLEAR,NIGHT_CLEAR,CLEAR,CLEAR,CLEAR,CLEAR,CLEAR","Offshore,Offshore,Offshore,Offshore,Offshore,Offshore,Offshore,Offshore,Offshore,Offshore",10
5842041f4e65fad6a77089ce,2024_04_08,41.469,-71.293,Ruggles - Newport,1.3,0.186694,0.291709,5.6,5.6,"NIGHT_CLEAR,NIGHT_CLEAR,NIGHT_CLEAR,NIGHT_CLEAR,NIGHT_CLEAR,CLEAR,CLEAR,CLEAR,CLEAR,CLEAR","Offshore,Offshore,Offshore,Offshore,Offshore,Offshore,Offshore,Offshore,Offshore,Cross-shore",10
5842041f4e65fad6a77089cf,2024_04_08,43.175394,-70.606351,Short Sands Beach,2.6,0.574,0.878,5,5,"NIGHT_CLEAR,NIGHT_CLEAR,NIGHT_CLEAR,NIGHT_CLEAR,NIGHT_CLEAR,CLEAR,CLEAR,CLEAR,CLEAR,CLEAR","Cross-shore,Offshore,Offshore,Offshore,Offshore,Offshore,Offshore,Offshore,Offshore,Offshore",10
5842041f4e65fad6a77089d0,2024_04_08,41.487408,-71.29017,First Beach,0.7,0.012,0.203,6,6,"NIGHT_CLEAR,NIGHT_CLEAR,NIGHT_CLEAR,NIGHT_CLEAR,NIGHT_CLEAR,CLEAR,CLEAR,CLEAR,CLEAR,CLEAR","Offshore,Offshore,Offshore,Offshore,Offshore,Offshore,Offshore,Offshore,Offshore,Cross-shore",10
5842041f4e65fad6a77089d1,2024_04_08,42.27916830233153,-70.86498,Nantasket Beach,2.5,0.6353333333333334,0.9818333333333333,6,4,"NIGHT_CLEAR,NIGHT_CLEAR,NIGHT_CLEAR,NIGHT_CLEAR,NIGHT_CLEAR,CLEAR,CLEAR,CLEAR,CLEAR,CLEAR","Cross-shore,Cross-shore,Cross-shore,Cross-shore,Cross-shore,Cross-shore,Cross-shore,Cross-shore,Offshore,Offshore",10
5842041f4e65fad6a77089d2,2024_04_08,41.817,-69.935,Cape Cod,3,0.818,1.122,5,5,"NIGHT_CLEAR,NIGHT_CLEAR,NIGHT_CLEAR,NIGHT_CLEAR,NIGHT_CLEAR,CLEAR,CLEAR,CLEAR,CLEAR,CLEAR","Offshore,Offshore,Offshore,Offshore,Offshore,Offshore,Offshore,Offshore,Offshore,Offshore",10
5842041f4e65fad6a77089d3,2024_04_08,42.22055448975661,-70.70634873403819,Egypt Beach,2.3,0.737,1.042,5,5,"NIGHT_CLEAR,NIGHT_CLEAR,NIGHT_CLEAR,NIGHT_CLEAR,NIGHT_CLEAR,CLEAR,CLEAR,CLEAR,CLEAR,CLEAR","Offshore,Offshore,Offshore,Offshore,Offshore,Offshore,Offshore,Offshore,Offshore,Offshore",10
5842041f4e65fad6a77089d4,2024_04_08,41.48739647744607,-71.25723,Second Beach,0.15,0.072681,0.17706266666666667,6,5,"NIGHT_CLEAR,NIGHT_CLEAR,NIGHT_CLEAR,NIGHT_CLEAR,NIGHT_CLEAR,CLEAR,CLEAR,CLEAR,CLEAR,CLEAR","Offshore,Offshore,Offshore,Offshore,Offshore,Offshore,Offshore,Offshore,Cross-shore,Cross-shore",10
5842041f4e65fad6a77089d5,2024_04_08,42.964,-70.769,Fox Hill,2.633,0.5406666666666667,0.8871666666666667,5,4,"NIGHT_CLEAR,NIGHT_CLEAR,NIGHT_CLEAR,NIGHT_CLEAR,NIGHT_CLEAR,CLEAR,CLEAR,CLEAR,CLEAR,CLEAR","Offshore,Offshore,Offshore,Offshore,Offshore,Offshore,Offshore,Offshore,Offshore,Cross-shore",10
5842041f4e65fad6a77089d6,2024_04_08,42.991359,-70.75149,Straws Point,3,0.5575,0.9228333333333333,5,4,"NIGHT_CLEAR,NIGHT_CLEAR,NIGHT_CLEAR,NIGHT_CLEAR,NIGHT_CLEAR,CLEAR,CLEAR,CLEAR,CLEAR,CLEAR","Offshore,Offshore,Offshore,Offshore,Offshore,Offshore,Offshore,Offshore,Offshore,Cross-shore",10
5842041f4e65fad6a77089d7,2024_04_08,42.946,-70.786,Plaice Cove,2.633,0.5406666666666667,0.8861666666666667,5,4,"NIGHT_CLEAR,NIGHT_CLEAR,NIGHT_CLEAR,NIGHT_CLEAR,NIGHT_CLEAR,CLEAR,CLEAR,CLEAR,CLEAR,CLEAR","Offshore,Offshore,Offshore,Offshore,Offshore,Offshore,Offshore,Offshore,Offshore,Offshore",10
5842041f4e65fad6a77089d9,2024_04_08,42.911574,-70.80831,The Main Beach,2.96,0.7020280000000001,1.0624368333333334,6,4,"NIGHT_CLEAR,NIGHT_CLEAR,NIGHT_CLEAR,NIGHT_CLEAR,NIGHT_CLEAR,CLEAR,CLEAR,CLEAR,CLEAR,CLEAR","Offshore,Offshore,Offshore,Offshore,Offshore,Offshore,Offshore,Offshore,Cross-shore,Onshore",10
5842041f4e65fad6a77089da,2024_04_08,42.97583846220203,-70.764,Sawyer's Beach,2.5,0.42983333333333335,0.8013333333333333,5,4,"NIGHT_CLEAR,NIGHT_CLEAR,NIGHT_CLEAR,NIGHT_CLEAR,NIGHT_CLEAR,CLEAR,CLEAR,CLEAR,CLEAR,CLEAR","Offshore,Offshore,Offshore,Offshore,Offshore,Offshore,Offshore,Offshore,Offshore,Cross-shore",10
5842041f4e65fad6a77089db,2024_04_08,42.97,-70.77,Rye on the Rocks / 5-0's,2.91,0.6423543333333334,1.0237548333333333,6,4,"NIGHT_CLEAR,NIGHT_CLEAR,NIGHT_CLEAR,NIGHT_CLEAR,NIGHT_CLEAR,CLEAR,CLEAR,CLEAR,CLEAR,CLEAR","Offshore,Offshore,Offshore,Offshore,Offshore,Offshore,Offshore,Offshore,Offshore,Cross-shore",10
5842041f4e65fad6a77089dc,2024_04_08,43.55902946610303,-70.27795,Higgins Beach,1.887,0.1604666666666667,0.46243333333333336,5,4,"NIGHT_CLEAR,NIGHT_CLEAR,NIGHT_CLEAR,NIGHT_CLEAR,NIGHT_CLEAR,CLEAR,CLEAR,CLEAR,CLEAR,CLEAR","Offshore,Offshore,Offshore,Offshore,Offshore,Offshore,Offshore,Offshore,Offshore,Cross-shore",10
5842041f4e65fad6a77089dd,2024_04_08,43.302676,-70.5652,Wells Beach,2.5,0.4766666666666667,0.8481666666666666,5,4,"NIGHT_CLEAR,NIGHT_CLEAR,NIGHT_CLEAR,NIGHT_CLEAR,NIGHT_CLEAR,CLEAR,CLEAR,CLEAR,CLEAR,CLEAR","Offshore,Offshore,Offshore,Offshore,Offshore,Offshore,Offshore,Offshore,Offshore,Cross-shore",10
5842041f4e65fad6a77089de,2024_04_08,43.545359,-70.30479,Scarborough Beach State Park,2.5,0.5642546666666667,0.9292699999999999,5,4,"NIGHT_CLEAR,NIGHT_CLEAR,NIGHT_CLEAR,NIGHT_CLEAR,NIGHT_CLEAR,CLEAR,CLEAR,CLEAR,CLEAR,CLEAR","Offshore,Offshore,Offshore,Offshore,Offshore,Offshore,Offshore,Offshore,Offshore,Cross-shore",10
5842041f4e65fad6a77089df,2024_04_08,43.514481,-70.372146,Old Orchard Beach,3,0.6578933333333333,1.0052466666666666,5,4,"NIGHT_CLEAR,NIGHT_CLEAR,NIGHT_CLEAR,NIGHT_CLEAR,NIGHT_CLEAR,CLEAR,CLEAR,CLEAR,CLEAR,CLEAR","Offshore,Offshore,Offshore,Offshore,Offshore,Offshore,Offshore,Offshore,Offshore,Onshore",10
5842041f4e65fad6a77089e0,2024_04_08,43.34711,-70.48165,Gooch's Beach,2,0.2723333333333333,0.5793333333333334,5,4,"NIGHT_CLEAR,NIGHT_CLEAR,NIGHT_CLEAR,NIGHT_CLEAR,NIGHT_CLEAR,CLEAR,CLEAR,CLEAR,CLEAR,CLEAR","Offshore,Offshore,Offshore,Offshore,Offshore,Offshore,Cross-shore,Offshore,Cross-shore,Onshore",10
5842041f4e65fad6a77089e2,2024_04_08,40.58433,-73.62953,Lido Beach,0,0,0.18034666666666668,8,7,"NIGHT_CLEAR,NIGHT_CLEAR,NIGHT_CLEAR,NIGHT_CLEAR,NIGHT_CLEAR,CLEAR,CLEAR,CLEAR,CLEAR,CLEAR","Cross-shore,Cross-shore,Onshore,Offshore,Cross-shore,Cross-shore,Onshore,Onshore,Onshore,Onshore",10
5842041f4e65fad6a77089e3,2024_04_08,43.163135,-70.61689,Long Sands Beach,3,0.6840848333333334,1.0422103333333332,5,4,"NIGHT_CLEAR,NIGHT_CLEAR,NIGHT_CLEAR,NIGHT_CLEAR,NIGHT_CLEAR,CLEAR,CLEAR,CLEAR,CLEAR,CLEAR","Offshore,Offshore,Offshore,Offshore,Offshore,Offshore,Offshore,Cross-shore,Cross-shore,Onshore",10
5842041f4e65fad6a77089e4,2024_04_08,40.61695351251805,-73.39376,Gilgo Beach,0.5,0,0.19683333333333333,8,7,"NIGHT_CLEAR,NIGHT_CLEAR,NIGHT_CLEAR,NIGHT_CLEAR,NIGHT_CLEAR,CLEAR,CLEAR,CLEAR,CLEAR,CLEAR","Cross-shore,Cross-shore,Offshore,Offshore,Offshore,Offshore,Offshore,Cross-shore,Cross-shore,Cross-shore",10
5842041f4e65fad6a77089e5,2024_04_08,40.62530081928036,-73.23827,Robert Moses,0.6,0,0.159,6,6,"NIGHT_CLEAR,NIGHT_CLEAR,NIGHT_CLEAR,NIGHT_CLEAR,NIGHT_CLEAR,CLEAR,CLEAR,CLEAR,CLEAR,CLEAR","Cross-shore,Offshore,Offshore,Offshore,Offshore,Offshore,Offshore,Cross-shore,Cross-shore,Cross-shore",10
5842041f4e65fad6a77089e6,2024_04_08,40.64313317632791,-73.15727,Fire Island,0.7,0,0.162,6,6,"NIGHT_CLEAR,NIGHT_CLEAR,NIGHT_CLEAR,NIGHT_CLEAR,NIGHT_CLEAR,CLEAR,CLEAR,CLEAR,CLEAR,CLEAR","Cross-shore,Offshore,Offshore,Offshore,Offshore,Offshore,Offshore,Cross-shore,Cross-shore,Cross-shore",10
5842041f4e65fad6a77089e8,2024_04_08,40.76653118828782,-72.74579619372713,Cupsogue,1,0,0.232,6,6,"NIGHT_CLEAR,NIGHT_CLEAR,NIGHT_CLEAR,NIGHT_CLEAR,NIGHT_CLEAR,CLEAR,CLEAR,CLEAR,CLEAR,CLEAR","Cross-shore,Cross-shore,Offshore,Offshore,Offshore,Offshore,Offshore,Cross-shore,Cross-shore,Cross-shore",10
5842041f4e65fad6a77089e9,2024_04_08,42.9376373334092,-70.79141,The Wall ,2.96,0.7024053333333333,1.0630266666666666,6,4,"NIGHT_CLEAR,NIGHT_CLEAR,NIGHT_CLEAR,NIGHT_CLEAR,NIGHT_CLEAR,CLEAR,CLEAR,CLEAR,CLEAR,CLEAR","Offshore,Offshore,Offshore,Offshore,Offshore,Offshore,Offshore,Offshore,Offshore,Offshore",10
5842041f4e65fad6a77089ea,2024_04_08,40.887088,-72.33856,Flys,1,0,0.231,6,6,"NIGHT_CLEAR,NIGHT_CLEAR,NIGHT_CLEAR,NIGHT_CLEAR,NIGHT_CLEAR,CLEAR,CLEAR,CLEAR,CLEAR,CLEAR","Cross-shore,Offshore,Cross-shore,Offshore,Offshore,Offshore,Offshore,Offshore,Cross-shore,Cross-shore",10
5842041f4e65fad6a77089eb,2024_04_08,41.0389266436591,-71.91068529316958,Trailer Park,0.816,0.06096,0.353308,8,7,"NIGHT_CLEAR,NIGHT_CLEAR,NIGHT_CLEAR,NIGHT_CLEAR,NIGHT_CLEAR,CLEAR,CLEAR,CLEAR,CLEAR,CLEAR","Offshore,Offshore,Offshore,Offshore,Cross-shore,Offshore,Offshore,Offshore,Cross-shore,Cross-shore",10
5842041f4e65fad6a77089ec,2024_04_08,41.039505402729105,-71.9142,Ditch Plains,1.5,0.215678,0.336996,6,6,"NIGHT_CLEAR,NIGHT_CLEAR,NIGHT_CLEAR,NIGHT_CLEAR,NIGHT_CLEAR,CLEAR,CLEAR,CLEAR,CLEAR,CLEAR","Offshore,Offshore,Offshore,Offshore,Offshore,Offshore,Offshore,Offshore,Offshore,Offshore",10
5842041f4e65fad6a77089ee,2024_04_08,40.57633275206492,-73.56895305108567,"West End, Jones Beach",0,0,0.21683333333333335,8,7,"NIGHT_CLEAR,NIGHT_CLEAR,NIGHT_CLEAR,NIGHT_CLEAR,NIGHT_CLEAR,CLEAR,CLEAR,CLEAR,CLEAR,CLEAR","Cross-shore,Cross-shore,Cross-shore,Offshore,Cross-shore,Cross-shore,Cross-shore,Cross-shore,Cross-shore,Cross-shore",10
5842041f4e65fad6a77089f1,2024_04_08,41.038286691230795,-71.91991567611694,Poles,0.863,0.06096,0.3568363333333333,8,7,"NIGHT_CLEAR,NIGHT_CLEAR,NIGHT_CLEAR,NIGHT_CLEAR,NIGHT_CLEAR,CLEAR,CLEAR,CLEAR,CLEAR,CLEAR","Offshore,Offshore,Offshore,Offshore,Offshore,Offshore,Offshore,Offshore,Cross-shore,Cross-shore",10
5842041f4e65fad6a77089f3,2024_04_08,40.84077769766295,-72.47989493724765,The Bowl,1,0,0.232,6,6,"NIGHT_CLEAR,NIGHT_CLEAR,NIGHT_CLEAR,NIGHT_CLEAR,NIGHT_CLEAR,CLEAR,CLEAR,CLEAR,CLEAR,CLEAR","Cross-shore,Cross-shore,Offshore,Offshore,Offshore,Offshore,Offshore,Offshore,Cross-shore,Cross-shore",10
5842041f4e65fad6a77089f4,2024_04_08,40.94235535243154,-72.19286,Main Beach,1,0.127,0.38433333333333336,14,13,"NIGHT_CLEAR,NIGHT_CLEAR,NIGHT_CLEAR,NIGHT_CLEAR,NIGHT_CLEAR,CLEAR,CLEAR,CLEAR,CLEAR,CLEAR","Cross-shore,Cross-shore,Cross-shore,Offshore,Cross-shore,Cross-shore,Cross-shore,Cross-shore,Cross-shore,Cross-shore",10
5842041f4e65fad6a77089f5,2024_04_08,40.58270702399518,-73.67251552079799,Laurelton Blvd.,0,0,0.1808661666666667,8,7,"NIGHT_CLEAR,NIGHT_CLEAR,NIGHT_CLEAR,NIGHT_CLEAR,NIGHT_CLEAR,CLEAR,CLEAR,CLEAR,CLEAR,CLEAR","Onshore,Cross-shore,Onshore,Cross-shore,Onshore,Cross-shore,Onshore,Onshore,Onshore,Onshore",10
5842041f4e65fad6a77089f6,2024_04_08,41.033752854071416,-71.93696,Terrace,0.896,0.03896,0.35226,8,7,"NIGHT_CLEAR,NIGHT_CLEAR,NIGHT_CLEAR,NIGHT_CLEAR,NIGHT_CLEAR,CLEAR,CLEAR,CLEAR,CLEAR,CLEAR","Cross-shore,Offshore,Offshore,Offshore,Cross-shore,Offshore,Offshore,Offshore,Cross-shore,Cross-shore",10
5842041f4e65fad6a77089f7,2024_04_08,40.83372943645748,-72.50426173210144,K Road,1,0,0.264,6,6,"NIGHT_CLEAR,NIGHT_CLEAR,NIGHT_CLEAR,NIGHT_CLEAR,NIGHT_CLEAR,CLEAR,CLEAR,CLEAR,CLEAR,CLEAR","Cross-shore,Offshore,Offshore,Offshore,Offshore,Offshore,Offshore,Offshore,Cross-shore,Cross-shore",10
5842041f4e65fad6a77089f8,2024_04_08,40.58456099581507,-73.80730032920837,84th Street,0,0,0.22710000000000002,8,7,"NIGHT_CLEAR,NIGHT_CLEAR,NIGHT_CLEAR,NIGHT_CLEAR,NIGHT_CLEAR,CLEAR,CLEAR,CLEAR,CLEAR,CLEAR","Cross-shore,Cross-shore,Offshore,Offshore,Offshore,Offshore,Offshore,Offshore,Cross-shore,Cross-shore",10
5842041f4e65fad6a77089fa,2024_04_08,40.1319,-74.02788,Sea Girt,1.284,0.061,0.36868,8,7,"NIGHT_CLEAR,NIGHT_CLEAR,NIGHT_CLEAR,NIGHT_CLEAR,NIGHT_CLEAR,CLEAR,CLEAR,CLEAR,CLEAR,CLEAR","Offshore,Offshore,Offshore,Offshore,Offshore,Offshore,Offshore,Offshore,Offshore,Onshore",10
5842041f4e65fad6a77089fb,2024_04_08,40.54698301868125,-73.9268,Breezy Point,0.8,0,0.164,7,7,"NIGHT_CLEAR,NIGHT_CLEAR,NIGHT_CLEAR,NIGHT_CLEAR,NIGHT_CLEAR,CLEAR,CLEAR,CLEAR,CLEAR,CLEAR","Cross-shore,Cross-shore,Cross-shore,Offshore,Cross-shore,Offshore,Offshore,Cross-shore,Cross-shore,Cross-shore",10
5842041f4e65fad6a77089fc,2024_04_08,40.152504,-74.021383,Spring Lake,1.3,0.057499999999999996,0.36043000000000003,8,7,"NIGHT_CLEAR,NIGHT_CLEAR,NIGHT_CLEAR,NIGHT_CLEAR,NIGHT_CLEAR,CLEAR,CLEAR,CLEAR,CLEAR,CLEAR","Offshore,Offshore,Offshore,Offshore,Offshore,Offshore,Offshore,Offshore,Offshore,Onshore",10
5842041f4e65fad6a77089fd,2024_04_08,40.591277,-73.770792,30th - 39th Streets,0.15,0,0.20350000000000001,8,7,"NIGHT_CLEAR,NIGHT_CLEAR,NIGHT_CLEAR,NIGHT_MIST,NIGHT_CLEAR,CLEAR,CLEAR,CLEAR,CLEAR,CLEAR","Cross-shore,Cross-shore,Offshore,Offshore,Offshore,Offshore,Offshore,Offshore,Cross-shore,Cross-shore",10
5842041f4e65fad6a77089fe,2024_04_08,40.18834955871439,-74.00860982500222,Avon,1.3,0.0845,0.38868,8,7,"NIGHT_CLEAR,NIGHT_CLEAR,NIGHT_CLEAR,NIGHT_CLEAR,NIGHT_CLEAR,CLEAR,CLEAR,CLEAR,CLEAR,CLEAR","Offshore,Offshore,Offshore,Offshore,Offshore,Offshore,Offshore,Offshore,Cross-shore,Onshore",10
5842041f4e65fad6a77089ff,2024_04_08,40.1974229100932,-74.00650533798255,Bradley Beach,1.3,0.071,0.37768,8,7,"NIGHT_CLEAR,NIGHT_CLEAR,NIGHT_CLEAR,NIGHT_CLEAR,NIGHT_CLEAR,CLEAR,CLEAR,CLEAR,CLEAR,CLEAR","Offshore,Offshore,Offshore,Offshore,Offshore,Offshore,Offshore,Offshore,Onshore,Onshore",10
5842041f4e65fad6a7708a01,2024_04_08,40.17202,-74.01503,"16th Ave., Belmar",0.626,0.047466666666666664,0.314,8,7,"NIGHT_CLEAR,NIGHT_CLEAR,NIGHT_CLEAR,NIGHT_CLEAR,NIGHT_CLEAR,CLEAR,CLEAR,CLEAR,CLEAR,CLEAR","Offshore,Offshore,Offshore,Offshore,Offshore,Offshore,Offshore,Offshore,Onshore,Onshore",10
5842041f4e65fad6a7708a02,2024_04_08,40.217443,-73.99982,Asbury Park,1.3,0.0395,0.34618,8,7,"NIGHT_CLEAR,NIGHT_CLEAR,NIGHT_CLEAR,NIGHT_CLEAR,NIGHT_CLEAR,CLEAR,CLEAR,CLEAR,CLEAR,CLEAR","Offshore,Offshore,Offshore,Offshore,Offshore,Offshore,Offshore,Offshore,Cross-shore,Onshore",10
5842041f4e65fad6a7708a03,2024_04_08,40.229841,-73.996782,Loch Arbour and Deal,1.3,0.039,0.34218000000000004,8,7,"NIGHT_CLEAR,NIGHT_CLEAR,NIGHT_CLEAR,NIGHT_CLEAR,NIGHT_CLEAR,CLEAR,CLEAR,CLEAR,CLEAR,CLEAR","Offshore,Offshore,Offshore,Offshore,Offshore,Offshore,Offshore,Offshore,Offshore,Offshore",10
5842041f4e65fad6a7708a05,2024_04_08,40.41754,-73.97935,Sandy Hook,0.1,0,0.14100000000000001,7,7,"NIGHT_CLEAR,NIGHT_CLEAR,NIGHT_CLEAR,NIGHT_CLEAR,NIGHT_CLEAR,CLEAR,CLEAR,CLEAR,CLEAR,CLEAR","Offshore,Offshore,Offshore,Offshore,Offshore,Offshore,Offshore,Offshore,Offshore,Offshore",10
5842041f4e65fad6a7708a06,2024_04_08,39.36353,-74.40873,Crystals,1,0.271725,0.471243,8,7,"NIGHT_CLEAR,NIGHT_CLEAR,NIGHT_CLEAR,NIGHT_CLEAR,NIGHT_CLEAR,CLEAR,CLEAR,CLEAR,CLEAR,CLEAR","Cross-shore,Cross-shore,Cross-shore,Cross-shore,Cross-shore,Cross-shore,Cross-shore,Cross-shore,Cross-shore,Cross-shore",10
5842041f4e65fad6a7708a07,2024_04_08,39.31443,-74.51863,32nd Street,1.875,0.2958871666666667,0.5956771666666667,8,7,"NIGHT_CLEAR,NIGHT_CLEAR,NIGHT_CLEAR,NIGHT_CLEAR,NIGHT_CLEAR,CLEAR,CLEAR,CLEAR,CLEAR,CLEAR","Cross-shore,Cross-shore,Cross-shore,Cross-shore,Cross-shore,Cross-shore,Cross-shore,Cross-shore,Cross-shore,Cross-shore",10
5842041f4e65fad6a7708a08,2024_04_08,39.327688,-74.49524,Margate Pier Northside,1.875,0.2958871666666667,0.5956771666666667,8,7,"NIGHT_CLEAR,NIGHT_CLEAR,NIGHT_CLEAR,NIGHT_CLEAR,NIGHT_CLEAR,CLEAR,CLEAR,CLEAR,CLEAR,CLEAR","Cross-shore,Cross-shore,Cross-shore,Cross-shore,Cross-shore,Cross-shore,Cross-shore,Cross-shore,Cross-shore,Cross-shore",10
5842041f4e65fad6a7708a09,2024_04_08,39.336276,-74.47782,Ventnor Pier,1,0.25634,0.447203,8,7,"NIGHT_CLEAR,NIGHT_CLEAR,NIGHT_CLEAR,NIGHT_CLEAR,NIGHT_CLEAR,CLEAR,CLEAR,CLEAR,CLEAR,CLEAR","Cross-shore,Cross-shore,Cross-shore,Cross-shore,Cross-shore,Cross-shore,Cross-shore,Cross-shore,Cross-shore,Cross-shore",10
5842041f4e65fad6a7708a0a,2024_04_08,39.35929751441085,-74.41683,States Avenue,1.3,0.271725,0.471243,8,7,"NIGHT_CLEAR,NIGHT_CLEAR,NIGHT_CLEAR,NIGHT_CLEAR,NIGHT_CLEAR,CLEAR,CLEAR,CLEAR,CLEAR,CLEAR","Cross-shore,Cross-shore,Cross-shore,Cross-shore,Cross-shore,Cross-shore,Cross-shore,Cross-shore,Cross-shore,Cross-shore",10
5842041f4e65fad6a7708a0b,2024_04_08,39.37274173278517,-74.40454,Brigantine Jetty,1,0.2125275,0.3787475,8,7,"NIGHT_CLEAR,NIGHT_CLEAR,NIGHT_CLEAR,NIGHT_CLEAR,NIGHT_CLEAR,CLEAR,CLEAR,CLEAR,CLEAR,CLEAR","Onshore,Cross-shore,Cross-shore,Cross-shore,Cross-shore,Cross-shore,Cross-shore,Cross-shore,Cross-shore,Onshore",10
5842041f4e65fad6a7708a0c,2024_04_08,39.356505,-74.42263,South Carolina Avenue,1,0.2125275,0.3787475,8,7,"NIGHT_CLEAR,NIGHT_CLEAR,NIGHT_CLEAR,NIGHT_CLEAR,NIGHT_CLEAR,CLEAR,CLEAR,CLEAR,CLEAR,CLEAR","Onshore,Cross-shore,Cross-shore,Cross-shore,Onshore,Cross-shore,Cross-shore,Cross-shore,Cross-shore,Onshore",10
5842041f4e65fad6a7708a0d,2024_04_08,39.413485,-74.35476,14th Street North,1.3,0.11368,0.41536,8,7,"NIGHT_CLEAR,NIGHT_CLEAR,NIGHT_CLEAR,NIGHT_CLEAR,NIGHT_CLEAR,CLEAR,CLEAR,CLEAR,CLEAR,CLEAR","Cross-shore,Cross-shore,Cross-shore,Offshore,Cross-shore,Offshore,Offshore,Offshore,Onshore,Offshore",10
5842041f4e65fad6a7708a0e,2024_04_08,39.531319,-74.263252,The Wooden Jetty,1.5,0.2306475,0.5398115,8,7,"NIGHT_CLEAR,NIGHT_CLEAR,NIGHT_CLEAR,NIGHT_CLEAR,NIGHT_CLEAR,CLEAR,CLEAR,CLEAR,CLEAR,CLEAR","Cross-shore,Cross-shore,Cross-shore,Offshore,Offshore,Offshore,Offshore,Offshore,Offshore,Cross-shore",10
5842041f4e65fad6a7708a0f,2024_04_08,39.552472,-74.24344,Holyoke,1.5,0.23792050000000003,0.5451026666666667,8,7,"NIGHT_CLEAR,NIGHT_CLEAR,NIGHT_CLEAR,NIGHT_CLEAR,NIGHT_CLEAR,CLEAR,CLEAR,CLEAR,CLEAR,CLEAR","Cross-shore,Cross-shore,Cross-shore,Offshore,Offshore,Offshore,Offshore,Offshore,Offshore,Cross-shore",10
5842041f4e65fad6a7708a10,2024_04_08,39.692364,-74.14068,Hudson Ave.,1.5,0.3090466666666667,0.6131800000000001,8,7,"NIGHT_CLEAR,NIGHT_CLEAR,NIGHT_CLEAR,NIGHT_CLEAR,NIGHT_CLEAR,CLEAR,CLEAR,CLEAR,CLEAR,CLEAR","Offshore,Offshore,Offshore,Offshore,Offshore,Offshore,Offshore,Offshore,Offshore,Offshore",10
5842041f4e65fad6a7708a11,2024_04_08,39.79614,-74.09248,Island Beach State Park,1.3,0.07150000000000001,0.37268,8,7,"NIGHT_CLEAR,NIGHT_CLEAR,NIGHT_CLEAR,NIGHT_CLEAR,NIGHT_CLEAR,CLEAR,CLEAR,CLEAR,CLEAR,CLEAR","Offshore,Offshore,Offshore,Offshore,Offshore,Offshore,Offshore,Offshore,Offshore,Offshore",10
5842041f4e65fad6a7708a12,2024_04_08,39.91813588078152,-74.07527,Seaside Park,1.3,0.0655,0.37418,8,7,"NIGHT_CLEAR,NIGHT_CLEAR,NIGHT_CLEAR,NIGHT_CLEAR,NIGHT_CLEAR,CLEAR,CLEAR,CLEAR,CLEAR,CLEAR","Offshore,Offshore,Offshore,Offshore,Offshore,Offshore,Offshore,Offshore,Offshore,Offshore",10
5842041f4e65fad6a7708a14,2024_04_08,39.946638,-74.06884,Seaside Heights,1.3,0.08900000000000001,0.39318000000000003,8,7,"NIGHT_CLEAR,NIGHT_CLEAR,NIGHT_CLEAR,NIGHT_CLEAR,NIGHT_CLEAR,CLEAR,CLEAR,CLEAR,CLEAR,CLEAR","Offshore,Offshore,Offshore,Offshore,Offshore,Offshore,Offshore,Offshore,Offshore,Offshore",10
5842041f4e65fad6a7708a15,2024_04_08,39.95745637606704,-74.06736,Ortley Beach,1.3,0.064,0.36718,8,7,"NIGHT_CLEAR,NIGHT_CLEAR,NIGHT_CLEAR,NIGHT_CLEAR,NIGHT_CLEAR,CLEAR,CLEAR,CLEAR,CLEAR,CLEAR","Offshore,Offshore,Offshore,Offshore,Offshore,Offshore,Offshore,Offshore,Offshore,Offshore",10
5842041f4e65fad6a7708a16,2024_04_08,39.98313468342945,-74.06265685577506,Lavallette,1.2,0.061,0.36868,8,7,"NIGHT_CLEAR,NIGHT_CLEAR,NIGHT_CLEAR,NIGHT_CLEAR,NIGHT_CLEAR,CLEAR,CLEAR,CLEAR,CLEAR,CLEAR","Offshore,Offshore,Offshore,Offshore,Offshore,Offshore,Offshore,Offshore,Offshore,Offshore",10
5842041f4e65fad6a7708a17,2024_04_08,40.0699319967757,-74.04144910856634,Bay Head,1.3,0.0655,0.37418,8,7,"NIGHT_CLEAR,NIGHT_CLEAR,NIGHT_CLEAR,NIGHT_CLEAR,NIGHT_CLEAR,CLEAR,CLEAR,CLEAR,CLEAR,CLEAR","Offshore,Offshore,Offshore,Offshore,Offshore,Offshore,Offshore,Offshore,Offshore,Cross-shore",10
5842041f4e65fad6a7708a18,2024_04_08,40.094041,-74.034859,Jenkinson's,1.3,0.039,0.34218000000000004,8,7,"NIGHT_CLEAR,NIGHT_CLEAR,NIGHT_CLEAR,NIGHT_CLEAR,NIGHT_CLEAR,CLEAR,CLEAR,CLEAR,CLEAR,CLEAR","Offshore,Offshore,Offshore,Offshore,Offshore,Offshore,Offshore,Offshore,Offshore,Onshore",10
5842041f4e65fad6a7708a1a,2024_04_08,38.148058,-75.17704,Assateague,1.6,0.37168,0.67736,8,7,"NIGHT_CLEAR,NIGHT_CLEAR,NIGHT_CLEAR,NIGHT_CLEAR,NIGHT_CLEAR,CLEAR,CLEAR,CLEAR,CLEAR,CLEAR","Cross-shore,Cross-shore,Cross-shore,Onshore,Onshore,Cross-shore,Cross-shore,Cross-shore,Cross-shore,Cross-shore",10
5842041f4e65fad6a7708a1b,2024_04_08,38.33889038664497,-75.08017670566352,North End to Ocean City Inlet,1.7,0.40268000000000004,0.7076100000000001,8,7,"NIGHT_CLEAR,NIGHT_CLEAR,NIGHT_CLEAR,NIGHT_CLEAR,NIGHT_CLEAR,CLEAR,MIST,MIST,CLEAR,CLEAR","Offshore,Cross-shore,Cross-shore,Cross-shore,Offshore,Offshore,Offshore,Offshore,Offshore,Offshore",10
5842041f4e65fad6a7708a1c,2024_04_08,38.603993,-75.06271,Indian River Inlet,1.633,0.35986225,0.60895875,8,7,"NIGHT_CLEAR,NIGHT_CLEAR,NIGHT_CLEAR,NIGHT_MIST,NIGHT_MIST,MIST,MIST,MIST,MIST,CLEAR","Onshore,Onshore,Cross-shore,Cross-shore,Cross-shore,Cross-shore,Cross-shore,Cross-shore,Offshore,Cross-shore",10
5842041f4e65fad6a7708a1d,2024_04_08,38.460477,-75.052069,Fenwick Island,1.6,0.22893,0.53586,8,7,"NIGHT_CLEAR,NIGHT_CLEAR,NIGHT_CLEAR,NIGHT_CLEAR,NIGHT_CLEAR,CLEAR,CLEAR,MIST,CLEAR,CLEAR","Offshore,Offshore,Offshore,Offshore,Offshore,Offshore,Offshore,Offshore,Offshore,Offshore",10
5842041f4e65fad6a7708a1e,2024_04_08,38.538767,-75.05619,Bethany Beach,1.6,0.36588975,0.61837375000000006,8,7,"NIGHT_CLEAR,NIGHT_CLEAR,NIGHT_CLEAR,NIGHT_CLEAR,NIGHT_CLEAR,MIST,MIST,MIST,MIST,CLEAR","Cross-shore,Cross-shore,Cross-shore,Cross-shore,Cross-shore,Cross-shore,Cross-shore,Offshore,Offshore,Cross-shore",10
5842041f4e65fad6a7708a1f,2024_04_08,38.697657,-75.075951,Dewey Beach,1.5,0.24968,0.5553600000000001,8,7,"NIGHT_CLEAR,NIGHT_CLEAR,NIGHT_CLEAR,NIGHT_MIST,NIGHT_MIST,MIST,CLEAR,CLEAR,CLEAR,CLEAR","Offshore,Offshore,Offshore,Offshore,Offshore,Offshore,Offshore,Offshore,Offshore,Offshore",10
5842041f4e65fad6a7708a20,2024_04_08,38.75034741676525,-75.08194,Gordons Pond,1,0.263193,0.4579115,8,7,"NIGHT_CLEAR,NIGHT_CLEAR,NIGHT_CLEAR,NIGHT_CLEAR,NIGHT_MIST,MIST,MIST,MIST,CLEAR,CLEAR","Cross-shore,Cross-shore,Cross-shore,Cross-shore,Cross-shore,Cross-shore,Cross-shore,Offshore,Offshore,Onshore",10
5842041f4e65fad6a7708a21,2024_04_08,38.767837,-75.082841,Naval Jetties,1.6,0.27843,0.58236,8,7,"NIGHT_CLEAR,NIGHT_CLEAR,NIGHT_CLEAR,NIGHT_CLEAR,NIGHT_MIST,MIST,MIST,MIST,CLEAR,CLEAR","Offshore,Offshore,Offshore,Offshore,Offshore,Offshore,Offshore,Offshore,Offshore,Onshore",10
5842041f4e65fad6a7708a22,2024_04_08,36.81735875786576,-75.96624,Camp Pendleton,1.496,0.2879,0.5917,10,9,"NIGHT_CLEAR,NIGHT_CLEAR,NIGHT_CLEAR,NIGHT_CLEAR,NIGHT_CLEAR,CLEAR,CLEAR,CLEAR,CLEAR,CLEAR","Offshore,Offshore,Offshore,Offshore,Offshore,Offshore,Offshore,Offshore,Offshore,Onshore",10
5842041f4e65fad6a7708a23,2024_04_08,36.9102212316428,-75.98732471466064,North End,0.996,0.2855666666666667,0.5937333333333333,10,9,"NIGHT_CLEAR,NIGHT_CLEAR,NIGHT_CLEAR,NIGHT_CLEAR,NIGHT_CLEAR,CLEAR,CLEAR,CLEAR,CLEAR,CLEAR","Offshore,Offshore,Offshore,Offshore,Offshore,Offshore,Offshore,Offshore,Offshore,Cross-shore",10
5842041f4e65fad6a7708a24,2024_04_08,36.737117517621314,-75.93924,Sandbridge Beach,2.083,0.31233333333333335,0.6186666666666667,10,9,"NIGHT_CLEAR,NIGHT_CLEAR,NIGHT_CLEAR,NIGHT_CLEAR,NIGHT_CLEAR,CLEAR,CLEAR,CLEAR,CLEAR,CLEAR","Offshore,Offshore,Offshore,Offshore,Offshore,Offshore,Offshore,Offshore,Offshore,Onshore",10
5842041f4e65fad6a7708a26,2024_04_08,36.818257440557794,-75.96666,Croatan to Pendleton,1.496,0.28490000000000004,0.5927,10,9,"NIGHT_CLEAR,NIGHT_CLEAR,NIGHT_CLEAR,NIGHT_CLEAR,NIGHT_CLEAR,CLEAR,CLEAR,CLEAR,CLEAR,CLEAR","Offshore,Offshore,Offshore,Offshore,Offshore,Offshore,Offshore,Offshore,Offshore,Onshore",10
5842041f4e65fad6a7708a27,2024_04_08,36.84318777204769,-75.9719,South End,1.583,0.254,0.56,10,9,"NIGHT_CLEAR,NIGHT_CLEAR,NIGHT_CLEAR,NIGHT_CLEAR,NIGHT_CLEAR,CLEAR,CLEAR,CLEAR,CLEAR,CLEAR","Offshore,Offshore,Offshore,Offshore,Offshore,Offshore,Offshore,Offshore,Offshore,Onshore",10
5842041f4e65fad6a7708a28,2024_04_08,37.08612627584661,-75.976121638199,Fishermans Island,0,0,0.0664,11,11,"NIGHT_CLEAR,NIGHT_CLEAR,NIGHT_CLEAR,NIGHT_CLEAR,NIGHT_CLEAR,CLEAR,CLEAR,CLEAR,CLEAR,CLEAR","Cross-shore,Cross-shore,Cross-shore,Cross-shore,Cross-shore,Cross-shore,Cross-shore,Cross-shore,Cross-shore,Onshore",10
5842041f4e65fad6a7708a38,2024_04_08,35.254619418229026,-75.52074,Cape Hatteras Lighthouse,2.816,0.7714176666666667,1.1102788333333333,16,14,"NIGHT_CLEAR,NIGHT_CLEAR,NIGHT_CLEAR,NIGHT_CLEAR,NIGHT_CLEAR,CLEAR,CLEAR,CLEAR,CLEAR,CLEAR","Offshore,Offshore,Offshore,Offshore,Offshore,Offshore,Offshore,Offshore,Offshore,Offshore",10
5842041f4e65fad6a7708a3a,2024_04_08,35.54572934093336,-75.46477,Waves and Salvo,2.85,0.7141666666666666,1.0846666666666667,15,13,"NIGHT_CLEAR,NIGHT_CLEAR,NIGHT_CLEAR,NIGHT_CLEAR,NIGHT_CLEAR,CLEAR,CLEAR,CLEAR,CLEAR,CLEAR","Offshore,Offshore,Offshore,Offshore,Offshore,Offshore,Offshore,Offshore,Offshore,Cross-shore",10
5842041f4e65fad6a7708a3b,2024_04_08,35.22565892751075,-75.63606,Frisco,0.9,0.127,0.3822666666666667,17,16,"NIGHT_CLEAR,NIGHT_CLEAR,NIGHT_CLEAR,NIGHT_CLEAR,NIGHT_CLEAR,CLEAR,CLEAR,CLEAR,CLEAR,CLEAR","Offshore,Offshore,Offshore,Cross-shore,Cross-shore,Onshore,Cross-shore,Cross-shore,Cross-shore,Cross-shore",10
5842041f4e65fad6a7708a3c,2024_04_08,35.13086,-75.90591,Ocracoke,1.9,0.231818,0.362216,14.6,14.6,"NIGHT_CLEAR,NIGHT_CLEAR,NIGHT_CLEAR,NIGHT_CLEAR,NIGHT_CLEAR,CLEAR,CLEAR,CLEAR,CLEAR,CLEAR","Onshore,Cross-shore,Onshore,Cross-shore,Onshore,Onshore,Cross-shore,Cross-shore,Cross-shore,Cross-shore",10
5842041f4e65fad6a7708a3d,2024_04_08,35.34721340158342,-75.50084,Avon Pier,2.816,0.8608333333333332,1.1969466666666668,16,14,"NIGHT_CLEAR,NIGHT_CLEAR,NIGHT_CLEAR,NIGHT_CLEAR,NIGHT_CLEAR,CLEAR,CLEAR,CLEAR,CLEAR,CLEAR","Offshore,Offshore,Offshore,Offshore,Offshore,Offshore,Offshore,Offshore,Offshore,Offshore",10
5842041f4e65fad6a7708a3f,2024_04_08,35.71680821253768,-75.49243,Pea Island,2.9,0.596,0.901,11.2,11.2,"NIGHT_CLEAR,NIGHT_CLEAR,NIGHT_CLEAR,NIGHT_CLEAR,NIGHT_CLEAR,CLEAR,CLEAR,CLEAR,CLEAR,CLEAR","Offshore,Offshore,Offshore,Offshore,Offshore,Offshore,Offshore,Offshore,Offshore,Offshore",10
5842041f4e65fad6a7708a40,2024_04_08,35.97427620657821,-75.62984,Nags Head Pier,2.092,0.5966166666666667,0.9826166666666667,12,10,"NIGHT_CLEAR,NIGHT_CLEAR,NIGHT_CLEAR,NIGHT_CLEAR,NIGHT_CLEAR,CLEAR,CLEAR,CLEAR,CLEAR,CLEAR","Offshore,Offshore,Offshore,Onshore,Offshore,Offshore,Offshore,Offshore,Offshore,Offshore",10
5842041f4e65fad6a7708a41,2024_04_08,36.0439998039079,-75.67288,Avalon Pier,2.5,0.6478200000000001,1.02006,12,10,"NIGHT_CLEAR,NIGHT_CLEAR,NIGHT_CLEAR,NIGHT_CLEAR,NIGHT_CLEAR,CLEAR,CLEAR,CLEAR,CLEAR,CLEAR","Offshore,Offshore,Offshore,Offshore,Offshore,Offshore,Offshore,Offshore,Offshore,Offshore",10
5842041f4e65fad6a7708a42,2024_04_08,36.03043116489792,-75.66413,First Street,2.816,0.54545,0.9919499999999999,12,10,"NIGHT_CLEAR,NIGHT_CLEAR,NIGHT_CLEAR,NIGHT_CLEAR,NIGHT_CLEAR,CLEAR,CLEAR,CLEAR,CLEAR,CLEAR","Offshore,Offshore,Offshore,Offshore,Offshore,Offshore,Offshore,Offshore,Offshore,Offshore",10
5842041f4e65fad6a7708a43,2024_04_08,36.06829910590498,-75.6899,Old Station/Laundromats,2.55,0.59182,0.96206,12,10,"NIGHT_CLEAR,NIGHT_CLEAR,NIGHT_CLEAR,NIGHT_CLEAR,NIGHT_CLEAR,CLEAR,CLEAR,CLEAR,CLEAR,CLEAR","Offshore,Offshore,Offshore,Offshore,Offshore,Offshore,Offshore,Offshore,Offshore,Offshore",10
5842041f4e65fad6a7708a44,2024_04_08,36.10126676607491,-75.71107,Kitty Hawk Pier,2.417,0.59345,0.9722,12,10,"NIGHT_CLEAR,NIGHT_CLEAR,NIGHT_CLEAR,NIGHT_CLEAR,NIGHT_CLEAR,CLEAR,CLEAR,CLEAR,CLEAR,CLEAR","Offshore,Offshore,Offshore,Offshore,Offshore,Offshore,Offshore,Offshore,Offshore,Offshore",10
5842041f4e65fad6a7708a45,2024_04_08,36.18220630068973,-75.75013580649097,Duck Pier,1.95,0.29116000000000003,0.6634,11,9,"NIGHT_CLEAR,NIGHT_CLEAR,NIGHT_CLEAR,NIGHT_CLEAR,NIGHT_CLEAR,CLEAR,CLEAR,CLEAR,CLEAR,CLEAR","Offshore,Offshore,Offshore,Offshore,Offshore,Offshore,Offshore,Offshore,Offshore,Offshore",10
5842041f4e65fad6a7708a46,2024_04_08,36.37660668125033,-75.82409701687456,Corolla,2.4,0.31966,0.6934,11,9,"NIGHT_CLEAR,NIGHT_CLEAR,NIGHT_CLEAR,NIGHT_CLEAR,NIGHT_CLEAR,CLEAR,CLEAR,CLEAR,CLEAR,CLEAR","Offshore,Offshore,Offshore,Offshore,Offshore,Offshore,Offshore,Offshore,Offshore,Cross-shore",10
5842041f4e65fad6a7708a47,2024_04_08,33.90373404124834,-78.08241431707907,Oak Island,0,0,0.14,16.6,16.6,"NIGHT_CLEAR,NIGHT_CLEAR,NIGHT_CLEAR,NIGHT_CLEAR,NIGHT_CLEAR,CLEAR,CLEAR,CLEAR,CLEAR,CLEAR","Onshore,Onshore,Onshore,Onshore,Onshore,Onshore,Onshore,Onshore,Onshore,Onshore",10
5842041f4e65fad6a7708a48,2024_04_08,33.91108837766468,-78.29653,South Brunswick Beaches,1,0.110632,0.17286200000000002,16,16,"NIGHT_CLEAR,NIGHT_CLEAR,NIGHT_CLEAR,NIGHT_CLEAR,NIGHT_CLEAR,CLEAR,CLEAR,CLEAR,CLEAR,CLEAR","Onshore,Onshore,Onshore,Onshore,Onshore,Onshore,Onshore,Onshore,Onshore,Onshore",10
