_id,date,lat,lon,name,daily_mean_swell_rating,daily_mean_wave_height_min,daily_mean_wave_height_max,daily_mean_water_temperature_max,daily_mean_water_temperature_min,weather_per_timestamp,wind_per_timestamp,n_samples_per_day
5842041f4e65fad6a77087f9,2024_02_13,37.741668,-122.51038,South Ocean Beach,3.0975,1.6533527777777777,2.051775,14,14,"MIST,NIGHT_CLEAR,NIGHT_CLEAR,NIGHT_MIST,NIGHT_MIST,NIGHT_MIST,NIGHT_MIST,NIGHT_MIST,NIGHT_MIST,CLOUDY,MIST,MIST","Onshore,Onshore,Onshore,Offshore,Offshore,Offshore,Offshore,Offshore,Offshore,Offshore,Onshore,Onshore",12
5842041f4e65fad6a7708801,2024_02_13,37.49142,-122.50428,Maverick's,NA,1.6752333333333334,1.9666000000000001,13,13,"CLEAR,NIGHT_MIST,NIGHT_MIST,NIGHT_CLEAR,NIGHT_CLEAR,NIGHT_CLEAR,NIGHT_CLEAR,NIGHT_MOSTLY_CLOUDY,NIGHT_MIST,MIST,MIST,MIST","Offshore,Offshore,Offshore,Offshore,Offshore,Offshore,Offshore,Offshore,Offshore,Offshore,Cross-shore,Onshore",12
5842041f4e65fad6a7708804,2024_02_13,44.997,-124.018,Roads End,3.75,1.915,2.1525,11,11,"MOSTLY_CLOUDY,NIGHT_CLEAR,NIGHT_CLEAR,NIGHT_CLEAR,NIGHT_CLEAR,NIGHT_CLEAR,NIGHT_CLEAR,NIGHT_CLEAR,NIGHT_CLEAR,CLEAR,CLEAR,CLEAR","Cross-shore,Offshore,Offshore,Offshore,Offshore,Offshore,Offshore,Offshore,Offshore,Offshore,Onshore,Onshore",12
5842041f4e65fad6a7708805,2024_02_13,36.95188851423011,-122.02522,Steamer Lane,3.444166666666667,1.1327416666666668,1.4280583333333334,14,14,"CLEAR,NIGHT_MIST,NIGHT_FOG,NIGHT_MOSTLY_CLOUDY,NIGHT_MOSTLY_CLOUDY,NIGHT_MOSTLY_CLOUDY,NIGHT_MIST,NIGHT_MIST,CLEAR,CLEAR,MOSTLY_CLEAR,CLEAR","Offshore,Offshore,Offshore,Offshore,Offshore,Offshore,Offshore,Offshore,Offshore,Offshore,Onshore,Offshore",12
5842041f4e65fad6a7708806,2024_02_13,36.95918781542251,-122.02489,Cowells,1.5833333333333333,0.06433333333333334,0.3461,14,14,"CLEAR,NIGHT_MIST,NIGHT_FOG,NIGHT_MOSTLY_CLOUDY,NIGHT_MOSTLY_CLOUDY,NIGHT_MOSTLY_CLOUDY,NIGHT_MIST,NIGHT_MIST,CLEAR,CLEAR,MOSTLY_CLEAR,CLEAR","Offshore,Cross-shore,Cross-shore,Cross-shore,Offshore,Offshore,Cross-shore,Offshore,Offshore,Cross-shore,Cross-shore,Offshore",12
5842041f4e65fad6a7708807,2024_02_13,36.95468082526536,-121.97234,Pleasure Point,3.4858333333333333,1.0431083333333333,1.4197916666666668,14,14,"CLEAR,NIGHT_FOG,NIGHT_FOG,NIGHT_MOSTLY_CLEAR,NIGHT_CLEAR,NIGHT_CLEAR,NIGHT_CLEAR,NIGHT_CLEAR,CLEAR,CLEAR,MIST,MOSTLY_CLEAR","Cross-shore,Onshore,Onshore,Offshore,Offshore,Offshore,Offshore,Offshore,Cross-shore,Offshore,Onshore,Onshore",12
5842041f4e65fad6a770880a,2024_02_13,35.37815414378748,-120.86589,Morro Bay,3.569166666666667,1.2003194444444445,1.5603,14,14,"CLEAR,NIGHT_CLEAR,NIGHT_CLEAR,NIGHT_CLEAR,NIGHT_CLEAR,NIGHT_CLEAR,NIGHT_CLEAR,NIGHT_CLEAR,CLEAR,CLEAR,CLEAR,CLEAR","Onshore,Offshore,Offshore,Offshore,Offshore,Offshore,Offshore,Offshore,Offshore,Offshore,Onshore,Onshore",12
5842041f4e65fad6a770880b,2024_02_13,36.95782765000708,-121.9672887511276,Jack's,2.694166666666667,0.39720833333333333,0.6821,14,14,"CLEAR,NIGHT_FOG,NIGHT_FOG,NIGHT_MOSTLY_CLEAR,NIGHT_CLEAR,NIGHT_CLEAR,NIGHT_CLEAR,NIGHT_CLEAR,CLEAR,CLEAR,MIST,MOSTLY_CLEAR","Cross-shore,Onshore,Onshore,Cross-shore,Offshore,Offshore,Offshore,Offshore,Onshore,Cross-shore,Cross-shore,Cross-shore",12
5842041f4e65fad6a770880d,2024_02_13,34.29982939936656,-119.3489016603669,Gold Coast Beachbreaks,2,0.11083333333333334,0.4125,14.416666666666666,14.416666666666666,"CLEAR,NIGHT_CLEAR,NIGHT_CLEAR,NIGHT_CLEAR,NIGHT_CLEAR,NIGHT_CLEAR,NIGHT_CLEAR,NIGHT_CLEAR,CLEAR,CLEAR,CLEAR,CLEAR","Onshore,Offshore,Cross-shore,Cross-shore,Cross-shore,Cross-shore,Cross-shore,Cross-shore,Offshore,Cross-shore,Cross-shore,Onshore",12
5842041f4e65fad6a7708811,2024_02_13,34.245076,-119.26799,Ventura Harbor,3,0.8254322222222222,1.117160486111111,14,14,"CLEAR,NIGHT_CLEAR,NIGHT_CLEAR,NIGHT_CLEAR,NIGHT_CLEAR,NIGHT_CLEAR,NIGHT_CLEAR,NIGHT_CLEAR,CLEAR,CLEAR,CLEAR,CLEAR","Onshore,Onshore,Cross-shore,Offshore,Cross-shore,Onshore,Cross-shore,Cross-shore,Offshore,Offshore,Onshore,Onshore",12
5842041f4e65fad6a7708813,2024_02_13,34.051,-118.964,County Line,2.555833333333333,0.4718777777777778,0.7747527777777777,15,15,"CLEAR,NIGHT_CLEAR,NIGHT_CLEAR,NIGHT_CLEAR,NIGHT_CLEAR,NIGHT_CLEAR,NIGHT_CLEAR,NIGHT_CLEAR,CLEAR,CLEAR,CLEAR,CLEAR","Onshore,Offshore,Offshore,Offshore,Offshore,Offshore,Offshore,Offshore,Offshore,Offshore,Cross-shore,Cross-shore",12
5842041f4e65fad6a7708814,2024_02_13,34.37256264378892,-119.47797,Rincon,2,0.17583333333333334,0.48333333333333334,15,15,"CLEAR,NIGHT_CLEAR,NIGHT_CLEAR,NIGHT_CLEAR,NIGHT_CLEAR,NIGHT_CLEAR,NIGHT_CLEAR,NIGHT_CLEAR,CLEAR,CLEAR,CLEAR,CLEAR","Cross-shore,Cross-shore,Onshore,Cross-shore,Onshore,Cross-shore,Onshore,Cross-shore,Cross-shore,Onshore,Onshore,Onshore",12
5842041f4e65fad6a7708817,2024_02_13,34.03096101876324,-118.68109,Malibu Third Point,2,0.22666666666666668,0.5316666666666667,15,15,"CLEAR,NIGHT_CLEAR,NIGHT_CLEAR,NIGHT_CLEAR,NIGHT_CLEAR,NIGHT_CLEAR,NIGHT_CLEAR,NIGHT_CLEAR,CLEAR,CLEAR,CLEAR,MOSTLY_CLOUDY","Cross-shore,Offshore,Offshore,Onshore,Cross-shore,Cross-shore,Cross-shore,Cross-shore,Offshore,Cross-shore,Onshore,Onshore",12
5842041f4e65fad6a7708819,2024_02_13,33.984079047970035,-118.47381591796875,Venice Beach,2.7358333333333333,0.5004666666666667,0.8042416666666666,14,14,"CLEAR,NIGHT_MIST,NIGHT_MIST,NIGHT_CLEAR,NIGHT_CLEAR,NIGHT_MIST,NIGHT_MIST,NIGHT_CLEAR,CLEAR,CLEAR,CLEAR,MIST","Onshore,Offshore,Offshore,Offshore,Offshore,Offshore,Offshore,Offshore,Offshore,Offshore,Onshore,Onshore",12
5842041f4e65fad6a770881e,2024_02_13,34.037508438646746,-118.58339846155594,Topanga Beach,1.9166666666666667,0.17643333333333333,0.4824333333333333,15,15,"CLEAR,NIGHT_CLEAR,NIGHT_CLEAR,NIGHT_CLEAR,NIGHT_CLEAR,NIGHT_CLEAR,NIGHT_CLEAR,NIGHT_CLEAR,CLEAR,CLEAR,CLEAR,MOSTLY_CLEAR","Onshore,Offshore,Offshore,Offshore,Offshore,Offshore,Offshore,Offshore,Offshore,Offshore,Onshore,Onshore",12
5842041f4e65fad6a7708820,2024_02_13,33.73954373690184,-118.11414,Seal Beach Jetty,1.9166666666666667,0.14583333333333334,0.45083333333333336,15,15,"CLEAR,NIGHT_CLEAR,NIGHT_MIST,NIGHT_MIST,NIGHT_CLEAR,NIGHT_CLEAR,NIGHT_CLEAR,NIGHT_MIST,CLEAR,MOSTLY_CLOUDY,MOSTLY_CLOUDY,MOSTLY_CLOUDY","Onshore,Offshore,Offshore,Offshore,Offshore,Offshore,Offshore,Offshore,Offshore,Offshore,Onshore,Onshore",12
5842041f4e65fad6a7708822,2024_02_13,33.72309983348433,-118.08078,Anderson Street,1.9166666666666667,0.15583333333333332,0.4575,15,15,"CLEAR,NIGHT_CLEAR,NIGHT_MIST,NIGHT_MIST,NIGHT_CLEAR,NIGHT_CLEAR,NIGHT_MIST,NIGHT_MIST,CLEAR,OVERCAST,MOSTLY_CLOUDY,MOSTLY_CLOUDY","Onshore,Offshore,Offshore,Offshore,Offshore,Offshore,Offshore,Offshore,Offshore,Offshore,Onshore,Onshore",12
5842041f4e65fad6a7708827,2024_02_13,33.65574085629463,-118.00397,Huntington Beach Pier Northside,2.930833333333333,0.7028472222222222,1.061388888888889,14,14,"CLEAR,NIGHT_CLEAR,NIGHT_MIST,NIGHT_MIST,NIGHT_CLEAR,NIGHT_CLEAR,NIGHT_CLEAR,NIGHT_MIST,CLEAR,MOSTLY_CLOUDY,MOSTLY_CLOUDY,MOSTLY_CLOUDY","Onshore,Offshore,Offshore,Offshore,Offshore,Offshore,Onshore,Offshore,Offshore,Offshore,Cross-shore,Cross-shore",12
5842041f4e65fad6a7708828,2024_02_13,34.272041739333,-119.2997646331,C St.,2.694166666666667,0.5032833333333333,0.8093027777777778,14,14,"CLEAR,NIGHT_MOSTLY_CLEAR,NIGHT_MOSTLY_CLEAR,NIGHT_CLEAR,NIGHT_CLEAR,NIGHT_CLEAR,NIGHT_CLEAR,NIGHT_CLEAR,CLEAR,CLEAR,CLEAR,CLEAR","Onshore,Offshore,Offshore,Offshore,Offshore,Offshore,Offshore,Offshore,Offshore,Offshore,Cross-shore,Cross-shore",12
5842041f4e65fad6a770882a,2024_02_13,33.61555743705257,-117.93676,Newport Lower Jetties,1.9166666666666667,0.3861111111111111,0.6886111111111111,15,15,"CLEAR,NIGHT_CLEAR,NIGHT_CLEAR,NIGHT_CLEAR,NIGHT_CLEAR,NIGHT_MOSTLY_CLEAR,NIGHT_CLEAR,NIGHT_CLEAR,CLEAR,MOSTLY_CLOUDY,MOSTLY_CLOUDY,MOSTLY_CLOUDY","Onshore,Offshore,Cross-shore,Offshore,Offshore,Cross-shore,Onshore,Offshore,Offshore,Offshore,Onshore,Onshore",12
5842041f4e65fad6a770882b,2024_02_13,33.5930302087,-117.88199,The Wedge,1.9166666666666667,0.21211,0.6376975,15,15,"CLEAR,NIGHT_CLEAR,NIGHT_MIST,NIGHT_CLEAR,NIGHT_CLEAR,NIGHT_MIST,NIGHT_CLEAR,NIGHT_MOSTLY_CLEAR,CLEAR,CLEAR,CLEAR,CLEAR","Onshore,Offshore,Offshore,Offshore,Offshore,Cross-shore,Offshore,Cross-shore,Offshore,Offshore,Onshore,Onshore",12
5842041f4e65fad6a770882c,2024_02_13,33.60577342582,-117.9315376281,Newport Beach Pier,1.9308333333333334,0.24569444444444444,0.5530555555555556,15,15,"CLEAR,NIGHT_CLEAR,NIGHT_CLEAR,NIGHT_CLEAR,NIGHT_CLEAR,NIGHT_CLEAR,NIGHT_CLEAR,NIGHT_CLEAR,CLEAR,MOSTLY_CLOUDY,CLEAR,CLEAR","Cross-shore,Cross-shore,Offshore,Cross-shore,Onshore,Onshore,Onshore,Onshore,Onshore,Cross-shore,Onshore,Onshore",12
5842041f4e65fad6a770882e,2024_02_13,33.475793399792984,-117.72291,Salt Creek,2.875,0.6843277777777778,1.045311111111111,14.666666666666666,14.666666666666666,"CLEAR,NIGHT_CLEAR,NIGHT_MIST,NIGHT_MIST,NIGHT_MIST,NIGHT_CLEAR,NIGHT_CLEAR,NIGHT_CLEAR,CLEAR,CLEAR,MOSTLY_CLOUDY,MIST","Onshore,Offshore,Offshore,Offshore,Offshore,Onshore,Onshore,Offshore,Offshore,Offshore,Onshore,Onshore",12
5842041f4e65fad6a7708830,2024_02_13,33.41800974113613,-117.61952,T-Street,2.930833333333333,0.6384944444444445,0.9452611111111112,15.333333333333334,15.333333333333334,"CLEAR,NIGHT_CLEAR,NIGHT_CLEAR,NIGHT_CLEAR,NIGHT_CLEAR,NIGHT_CLEAR,NIGHT_CLEAR,NIGHT_CLEAR,CLEAR,CLEAR,CLEAR,MIST","Cross-shore,Offshore,Offshore,Offshore,Offshore,Offshore,Offshore,Offshore,Offshore,Offshore,Onshore,Onshore",12
5842041f4e65fad6a7708832,2024_02_13,33.202391008646,-117.39475,Oceanside Harbor,2.68,0.6737277777777778,0.9786277777777778,15,15,"CLEAR,NIGHT_MIST,NIGHT_MIST,NIGHT_CLEAR,NIGHT_CLEAR,NIGHT_CLEAR,NIGHT_CLEAR,NIGHT_CLEAR,CLEAR,CLEAR,CLEAR,MIST","Onshore,Offshore,Offshore,Offshore,Offshore,Offshore,Offshore,Offshore,Offshore,Offshore,Onshore,Onshore",12
5842041f4e65fad6a7708835,2024_02_13,33.19477795952803,-117.38667,Oceanside Pier,2.694166666666667,0.5022305555555555,0.8577055555555555,15,15,"CLEAR,NIGHT_MIST,NIGHT_MIST,NIGHT_MIST,NIGHT_MIST,NIGHT_CLEAR,NIGHT_CLEAR,NIGHT_CLEAR,CLEAR,CLEAR,CLEAR,CLEAR","Onshore,Offshore,Offshore,Offshore,Offshore,Offshore,Offshore,Offshore,Offshore,Offshore,Onshore,Onshore",12
5842041f4e65fad6a7708837,2024_02_13,33.14948100706,-117.35029,Tamarack,1.9166666666666667,0.22333333333333333,0.5266666666666666,15,15,"CLEAR,NIGHT_MIST,NIGHT_MIST,NIGHT_MIST,NIGHT_MIST,NIGHT_MIST,NIGHT_CLEAR,NIGHT_CLEAR,CLEAR,CLEAR,CLEAR,MIST","Cross-shore,Offshore,Offshore,Offshore,Offshore,Offshore,Offshore,Offshore,Offshore,Offshore,Onshore,Onshore",12
5842041f4e65fad6a7708839,2024_02_13,32.865777159358856,-117.25614295356122,Scripps,2.819166666666667,0.7722222222222223,1.0797222222222222,14,14,"MIST,NIGHT_MIST,NIGHT_DRIZZLE,NIGHT_CLEAR,NIGHT_MIST,NIGHT_MIST,NIGHT_MIST,NIGHT_MIST,MIST,MOSTLY_CLOUDY,MOSTLY_CLEAR,MIST","Onshore,Onshore,Onshore,Offshore,Offshore,Offshore,Offshore,Offshore,Offshore,Offshore,Onshore,Onshore",12
5842041f4e65fad6a770883a,2024_02_13,32.813094,-117.27381,Birdrock,3,0.995,1.2091666666666667,15,15,"CLEAR,NIGHT_MIST,NIGHT_MIST,NIGHT_MIST,NIGHT_MIST,NIGHT_MIST,NIGHT_MIST,NIGHT_MIST,MIST,MOSTLY_CLOUDY,CLEAR,MOSTLY_CLEAR","Cross-shore,Offshore,Offshore,Offshore,Offshore,Offshore,Offshore,Offshore,Offshore,Offshore,Onshore,Onshore",12
5842041f4e65fad6a770883b,2024_02_13,32.877231,-117.25303,Blacks,3.6666666666666665,1.1190777777777778,1.4321777777777778,14,14,"MIST,NIGHT_MIST,NIGHT_DRIZZLE,NIGHT_CLEAR,NIGHT_MIST,NIGHT_MIST,NIGHT_MIST,NIGHT_MIST,MIST,MOSTLY_CLOUDY,MOSTLY_CLEAR,MIST","Onshore,Onshore,Onshore,Cross-shore,Offshore,Offshore,Offshore,Offshore,Offshore,Onshore,Onshore,Onshore",12
5842041f4e65fad6a770883c,2024_02_13,32.82978974229765,-117.28161740727381,Windansea,3,1.034861111111111,1.3578472222222222,14,14,"CLEAR,NIGHT_MIST,NIGHT_MIST,NIGHT_MIST,NIGHT_MIST,NIGHT_MIST,NIGHT_MIST,NIGHT_MIST,MIST,MOSTLY_CLOUDY,CLEAR,MOSTLY_CLOUDY","Onshore,Onshore,Onshore,Offshore,Offshore,Offshore,Offshore,Offshore,Offshore,Offshore,Onshore,Onshore",12
5842041f4e65fad6a770883d,2024_02_13,32.838278,-117.28396,Horseshoe,3.25,1.0708333333333333,1.3416666666666668,15,15,"CLEAR,NIGHT_MIST,NIGHT_MIST,NIGHT_MIST,NIGHT_MIST,NIGHT_MIST,NIGHT_MIST,NIGHT_MIST,MIST,MOSTLY_CLOUDY,CLEAR,MOSTLY_CLOUDY","Onshore,Offshore,Offshore,Offshore,Offshore,Offshore,Offshore,Offshore,Offshore,Offshore,Onshore,Onshore",12
5842041f4e65fad6a770883f,2024_02_13,32.75034717673179,-117.25337,Ocean Beach,3,1.0529166666666667,1.382386111111111,14,14,"CLEAR,NIGHT_MIST,NIGHT_MIST,NIGHT_MIST,NIGHT_MIST,NIGHT_MIST,NIGHT_MIST,NIGHT_MIST,MIST,MIST,MIST,MIST","Onshore,Onshore,Onshore,Offshore,Offshore,Offshore,Offshore,Offshore,Offshore,Offshore,Onshore,Onshore",12
5842041f4e65fad6a7708840,2024_02_13,32.73693,-117.25718,Sunset Cliffs,3,0.9975,1.2291666666666667,15,15,"CLEAR,NIGHT_MIST,NIGHT_MIST,NIGHT_MIST,NIGHT_MIST,NIGHT_MIST,NIGHT_MIST,NIGHT_MIST,CLEAR,MIST,CLEAR,MOSTLY_CLOUDY","Onshore,Onshore,Onshore,Offshore,Offshore,Offshore,Offshore,Offshore,Offshore,Offshore,Onshore,Onshore",12
5842041f4e65fad6a7708841,2024_02_13,32.796582258728826,-117.25779,Pacific Beach,3,0.9788194444444445,1.3115277777777778,14,14,"CLEAR,NIGHT_MIST,NIGHT_MIST,NIGHT_MIST,NIGHT_MIST,NIGHT_MIST,NIGHT_CLEAR,NIGHT_MIST,MIST,MOSTLY_CLOUDY,MOSTLY_CLEAR,MIST","Cross-shore,Offshore,Offshore,Offshore,Offshore,Offshore,Offshore,Offshore,Offshore,Offshore,Onshore,Onshore",12
5842041f4e65fad6a7708842,2024_02_13,32.776636,-117.25514,Mission Beach,2.9858333333333333,0.9920833333333333,1.3140277777777778,14,14,"CLEAR,NIGHT_MIST,NIGHT_MIST,NIGHT_MIST,NIGHT_MIST,NIGHT_MIST,NIGHT_CLEAR,NIGHT_MIST,MIST,MOSTLY_CLOUDY,MOSTLY_CLEAR,MIST","Onshore,Offshore,Offshore,Offshore,Offshore,Offshore,Offshore,Offshore,Offshore,Offshore,Onshore,Onshore",12
5842041f4e65fad6a7708844,2024_02_13,32.577195519016,-117.13475,Imperial Beach Pier,3,1.1116666666666666,1.3725,14.583333333333334,14.583333333333334,"CLEAR,NIGHT_MOSTLY_CLOUDY,NIGHT_DRIZZLE,NIGHT_MIST,NIGHT_MIST,NIGHT_CLEAR,NIGHT_CLEAR,NIGHT_MIST,MIST,MIST,CLEAR,CLEAR","Onshore,Cross-shore,Cross-shore,Offshore,Offshore,Offshore,Offshore,Offshore,Offshore,Offshore,Onshore,Onshore",12
5842041f4e65fad6a770884a,2024_02_13,42.88678181061,-70.80843,Seabrook,0.9158333333333334,0.448363125,0.7483268055555555,5,4,"NIGHT_CLEAR,NIGHT_MOSTLY_CLOUDY,NIGHT_MOSTLY_CLOUDY,NIGHT_MOSTLY_CLOUDY,NIGHT_OVERCAST,OVERCAST,OVERCAST,LIGHT_SNOW,OVERCAST,CLOUDY,CLEAR,CLEAR","Cross-shore,Onshore,Onshore,Onshore,Onshore,Onshore,Onshore,Cross-shore,Cross-shore,Cross-shore,Cross-shore,Cross-shore",12
5842041f4e65fad6a770884e,2024_02_13,41.434181432898335,-71.45312118111178,Narragansett,1.0966666666666667,0.07291666666666667,0.3791305555555556,7,6,"NIGHT_CLOUDY,NIGHT_CLEAR,NIGHT_CLOUDY,NIGHT_CLEAR,NIGHT_LIGHT_SNOW,SNOW,SNOW,LIGHT_RAIN,HEAVY_SNOW,HEAVY_SNOW,BRIEF_HEAVY_SNOW_SHOWERS,BRIEF_SNOW_SHOWERS","Cross-shore,Offshore,Offshore,Offshore,Offshore,Offshore,Offshore,Offshore,Offshore,Offshore,Offshore,Offshore",12
5842041f4e65fad6a7708850,2024_02_13,40.582703230722,-73.65247,Lincoln Blvd,0.8375,0.2775222222222222,0.5875638888888889,7,6,"NIGHT_CLEAR,NIGHT_BRIEF_SHOWERS,NIGHT_LIGHT_RAIN,NIGHT_DRIZZLE,NIGHT_LIGHT_RAIN,ICE_PELLETS,HEAVY_SNOW,BRIEF_HEAVY_SNOW_SHOWERS,BRIEF_HEAVY_SNOW_SHOWERS,BRIEF_HEAVY_SNOW_SHOWERS,CLEAR,CLEAR","Onshore,Offshore,Offshore,Offshore,Offshore,Offshore,Offshore,Offshore,Offshore,Offshore,Offshore,Offshore",12
5842041f4e65fad6a7708852,2024_02_13,40.58342841721757,-73.81182,Rockaways,1.4,0.3865527777777778,0.7171916666666667,7,6,"NIGHT_CLEAR,NIGHT_BRIEF_SHOWERS_POSSIBLE,NIGHT_DRIZZLE,NIGHT_DRIZZLE,NIGHT_LIGHT_RAIN,HEAVY_SNOW,BRIEF_HEAVY_SNOW_SHOWERS,BRIEF_HEAVY_SNOW_SHOWERS,BRIEF_HEAVY_SNOW_SHOWERS,BRIEF_HEAVY_SNOW_SHOWERS,CLEAR,CLEAR","Onshore,Offshore,Offshore,Offshore,Offshore,Offshore,Offshore,Offshore,Offshore,Offshore,Offshore,Offshore",12
5842041f4e65fad6a7708853,2024_02_13,40.330474,-73.9734,Monmouth Beach,0.8608333333333333,0.5716361111111111,0.8975861111111112,6,5,"NIGHT_OVERCAST,NIGHT_OVERCAST,NIGHT_DRIZZLE,NIGHT_DRIZZLE,NIGHT_DRIZZLE,ICE_PELLETS,HEAVY_SNOW,BRIEF_HEAVY_SNOW_SHOWERS,BRIEF_HEAVY_SNOW_SHOWERS,HEAVY_SNOW,CLEAR,CLEAR","Onshore,Onshore,Onshore,Cross-shore,Onshore,Cross-shore,Cross-shore,Cross-shore,Offshore,Offshore,Offshore,Offshore",12
5842041f4e65fad6a7708856,2024_02_13,40.113,-74.028,Manasquan Inlet,0.6708333333333333,0.9927944444444444,1.3928111111111112,6,5,"NIGHT_OVERCAST,NIGHT_OVERCAST,NIGHT_OVERCAST,NIGHT_LIGHT_RAIN,NIGHT_LIGHT_RAIN,RAIN,HEAVY_SNOW,BRIEF_HEAVY_SNOW_SHOWERS,BRIEF_HEAVY_SNOW_SHOWERS,SNOW,CLEAR,CLEAR","Onshore,Onshore,Onshore,Onshore,Onshore,Cross-shore,Cross-shore,Cross-shore,Cross-shore,Cross-shore,Offshore,Offshore",12
5842041f4e65fad6a7708857,2024_02_13,39.941519877445664,-74.06829,Casino Pier,1.035,1.0945333333333334,1.4778916666666666,6,5,"NIGHT_OVERCAST,NIGHT_DRIZZLE,NIGHT_OVERCAST,NIGHT_LIGHT_RAIN,NIGHT_DRIZZLE,HEAVY_RAIN,ICE_PELLETS,HEAVY_SNOW,BRIEF_HEAVY_SNOW_SHOWERS,SNOW,CLEAR,CLEAR","Onshore,Onshore,Onshore,Cross-shore,Onshore,Cross-shore,Cross-shore,Cross-shore,Cross-shore,Offshore,Offshore,Offshore",12
5842041f4e65fad6a7708858,2024_02_13,39.28223089949212,-74.55766,North End OC,1.4766666666666666,0.8051416666666666,1.291525,6,5,"NIGHT_OVERCAST,NIGHT_LIGHT_RAIN,NIGHT_LIGHT_RAIN,NIGHT_LIGHT_RAIN,NIGHT_RAIN,RAIN,RAIN,LIGHT_RAIN,RAIN,HEAVY_SNOW,CLEAR,CLEAR","Onshore,Onshore,Cross-shore,Onshore,Cross-shore,Cross-shore,Cross-shore,Offshore,Offshore,Offshore,Offshore,Offshore",12
5842041f4e65fad6a770885b,2024_02_13,39.65080599934257,-74.17146,Ship Bottom,1.5066666666666666,1.0891861111111112,1.4860777777777778,6,5,"NIGHT_OVERCAST,NIGHT_DRIZZLE,NIGHT_LIGHT_RAIN,NIGHT_RAIN,NIGHT_LIGHT_RAIN,RAIN,HEAVY_RAIN,RAIN,HEAVY_SNOW,OVERCAST,CLEAR,CLEAR","Onshore,Cross-shore,Cross-shore,Cross-shore,Cross-shore,Cross-shore,Cross-shore,Cross-shore,Offshore,Offshore,Offshore,Offshore",12
5842041f4e65fad6a7708863,2024_02_13,36.034151543144,-75.66791,Third Street,2,0.5470055555555556,0.8620833333333333,8,6,"NIGHT_LIGHT_RAIN,NIGHT_LIGHT_RAIN,NIGHT_MOSTLY_CLEAR,NIGHT_MIST,NIGHT_MIST,MIST,OVERCAST,CLEAR,CLEAR,CLEAR,CLEAR,CLEAR","Cross-shore,Cross-shore,Offshore,Offshore,Offshore,Offshore,Offshore,Offshore,Offshore,Offshore,Cross-shore,Cross-shore",12
5842041f4e65fad6a7708867,2024_02_13,35.605833221351425,-75.46303,S-Turns,1.6108333333333333,0.6872916666666666,1.180663888888889,9,8,"NIGHT_MIST,NIGHT_MIST,NIGHT_MIST,NIGHT_MIST,NIGHT_MIST,MIST,MIST,CLEAR,CLEAR,MOSTLY_CLOUDY,CLEAR,CLEAR","Cross-shore,Cross-shore,Offshore,Offshore,Offshore,Offshore,Offshore,Offshore,Offshore,Offshore,Offshore,Offshore",12
5842041f4e65fad6a770886d,2024_02_13,38.338461,-75.08117,Ocean City Boardwalk,1.7541666666666667,0.8447722222222223,1.2951027777777777,7,5,"NIGHT_CLOUDY,NIGHT_DRIZZLE,NIGHT_HEAVY_SHOWERS_POSSIBLE,NIGHT_OVERCAST,NIGHT_RAIN,RAIN,CLOUDY,LIGHT_RAIN,RAIN,SNOW,CLEAR,CLEAR","Onshore,Onshore,Onshore,Onshore,Onshore,Onshore,Onshore,Onshore,Cross-shore,Cross-shore,Offshore,Offshore",12
5842041f4e65fad6a770886f,2024_02_13,29.844757212379562,-81.26136,A St.,2.3333333333333335,0.305,0.6091666666666666,15,15,"CLEAR,NIGHT_CLEAR,NIGHT_CLEAR,NIGHT_CLOUDY,NIGHT_MOSTLY_CLOUDY,NIGHT_CLEAR,CLEAR,CLEAR,CLEAR,CLEAR,CLEAR,CLEAR","Cross-shore,Offshore,Offshore,Offshore,Offshore,Offshore,Offshore,Offshore,Offshore,Offshore,Offshore,Offshore",12
5842041f4e65fad6a7708871,2024_02_13,29.069417851135093,-80.90824,New Smyrna Beach,2.7916666666666665,0.6421444444444445,1.0773833333333334,17,16,"CLEAR,NIGHT_CLEAR,NIGHT_CLEAR,NIGHT_CLEAR,NIGHT_CLEAR,NIGHT_CLEAR,CLEAR,MOSTLY_CLOUDY,CLEAR,CLEAR,CLEAR,CLEAR","Offshore,Offshore,Offshore,Offshore,Offshore,Offshore,Offshore,Offshore,Offshore,Offshore,Cross-shore,Cross-shore",12
5842041f4e65fad6a7708872,2024_02_13,28.367707417566,-80.60171,Cocoa Beach Pier,1.5691666666666666,0.24945555555555557,0.5511305555555556,18,17,"MOSTLY_CLEAR,NIGHT_CLEAR,NIGHT_CLEAR,NIGHT_CLEAR,NIGHT_CLEAR,NIGHT_CLEAR,CLEAR,CLEAR,CLEAR,CLEAR,CLEAR,CLEAR","Offshore,Offshore,Offshore,Offshore,Offshore,Offshore,Offshore,Offshore,Offshore,Offshore,Offshore,Offshore",12
5842041f4e65fad6a7708873,2024_02_13,28.091782738658846,-80.56479,Indialantic,1.93,0.372275,0.6821416666666666,19,18,"CLEAR,NIGHT_CLEAR,NIGHT_CLEAR,NIGHT_CLEAR,NIGHT_CLEAR,NIGHT_CLEAR,CLEAR,CLEAR,CLEAR,CLEAR,CLEAR,CLEAR","Offshore,Offshore,Offshore,Offshore,Offshore,Offshore,Offshore,Offshore,Offshore,Offshore,Offshore,Offshore",12
5842041f4e65fad6a7708876,2024_02_13,27.25392904143517,-80.19455,Jensen Beach,1.9858333333333333,0.39463611111111113,0.6979777777777778,22,20,"CLEAR,NIGHT_MOSTLY_CLOUDY,NIGHT_OVERCAST,NIGHT_CLEAR,NIGHT_BRIEF_SHOWERS,MOSTLY_CLOUDY,MOSTLY_CLEAR,CLEAR,CLEAR,CLEAR,CLEAR,CLEAR","Offshore,Offshore,Offshore,Offshore,Offshore,Offshore,Offshore,Offshore,Offshore,Offshore,Cross-shore,Cross-shore",12
5842041f4e65fad6a7708879,2024_02_13,26.76346795333825,-80.0360655784607,Reef Road,0.625,0.07633888888888889,0.3333055555555556,24,22,"CLEAR,NIGHT_MOSTLY_CLOUDY,NIGHT_CLEAR,NIGHT_CLEAR,NIGHT_MOSTLY_CLEAR,MOSTLY_CLOUDY,CLEAR,CLEAR,CLEAR,CLEAR,CLEAR,CLEAR","Offshore,Cross-shore,Offshore,Offshore,Cross-shore,Offshore,Offshore,Offshore,Offshore,Offshore,Offshore,Offshore",12
5842041f4e65fad6a770887c,2024_02_13,26.336499228484,-80.06956100463,Boca Raton Inlet,0.625,0.106725,0.40784166666666666,24,22,"CLEAR,NIGHT_CLEAR,NIGHT_OVERCAST,NIGHT_CLEAR,NIGHT_CLEAR,MOSTLY_CLEAR,BRIEF_SHOWERS,CLEAR,MOSTLY_CLEAR,CLEAR,CLEAR,CLEAR","Cross-shore,Cross-shore,Offshore,Cross-shore,Cross-shore,Cross-shore,Offshore,Offshore,Offshore,Offshore,Offshore,Offshore",12
5842041f4e65fad6a770887d,2024_02_13,26.31719311695038,-80.07452525176168,Deerfield Beach Pier,0.08333333333333333,0.03663131944444445,0.2618013888888889,24,23,"CLEAR,NIGHT_CLEAR,NIGHT_LIGHT_RAIN,NIGHT_CLEAR,NIGHT_CLEAR,MOSTLY_CLEAR,BRIEF_SHOWERS,MOSTLY_CLEAR,MOSTLY_CLEAR,CLEAR,CLEAR,CLEAR","Cross-shore,Cross-shore,Offshore,Cross-shore,Cross-shore,Cross-shore,Offshore,Offshore,Offshore,Offshore,Offshore,Offshore",12
5842041f4e65fad6a7708881,2024_02_13,30.20276320866628,-85.85626528676136,"Spyglass Dr., Panama City",1.7358333333333333,0.8627727777777778,1.2030711111111112,17,16,"MOSTLY_CLOUDY,NIGHT_CLEAR,NIGHT_MOSTLY_CLOUDY,NIGHT_CLEAR,NIGHT_CLEAR,NIGHT_CLEAR,CLEAR,CLEAR,CLEAR,CLEAR,CLEAR,CLEAR","Onshore,Cross-shore,Cross-shore,Offshore,Offshore,Offshore,Offshore,Offshore,Offshore,Offshore,Offshore,Offshore",12
5842041f4e65fad6a7708884,2024_02_13,33.39000832738053,-117.59852,Cottons,3.0833333333333335,0.6036333333333334,0.963575,15.333333333333334,15.333333333333334,"CLEAR,NIGHT_CLEAR,NIGHT_CLEAR,NIGHT_CLEAR,NIGHT_CLEAR,NIGHT_CLEAR,NIGHT_CLEAR,NIGHT_CLEAR,CLEAR,CLEAR,CLEAR,MOSTLY_CLEAR","Onshore,Cross-shore,Cross-shore,Offshore,Cross-shore,Cross-shore,Cross-shore,Cross-shore,Cross-shore,Cross-shore,Onshore,Onshore",12
5842041f4e65fad6a7708885,2024_02_13,33.359416282661,-117.54167901405711,Trails,2.75,0.3408333333333333,0.6483333333333333,15,15,"CLEAR,NIGHT_CLEAR,NIGHT_CLEAR,NIGHT_CLEAR,NIGHT_CLEAR,NIGHT_CLEAR,NIGHT_CLEAR,NIGHT_CLEAR,CLEAR,CLEAR,CLEAR,CLEAR","Onshore,Offshore,Offshore,Offshore,Offshore,Offshore,Offshore,Offshore,Offshore,Offshore,Onshore,Onshore",12
5842041f4e65fad6a7708886,2024_02_13,33.38042605929805,-117.58332,Middles,2.8475,0.4798527777777778,0.7839805555555556,15.333333333333334,15.333333333333334,"CLEAR,NIGHT_CLEAR,NIGHT_CLEAR,NIGHT_CLEAR,NIGHT_CLEAR,NIGHT_CLEAR,NIGHT_CLEAR,NIGHT_CLEAR,CLEAR,CLEAR,CLEAR,MOSTLY_CLEAR","Onshore,Offshore,Offshore,Offshore,Offshore,Offshore,Cross-shore,Offshore,Offshore,Offshore,Onshore,Onshore",12
5842041f4e65fad6a7708887,2024_02_13,33.38445596302903,-117.59445,Upper Trestles,3.0275,0.6918972222222223,1.0527416666666667,15.333333333333334,15.333333333333334,"CLEAR,NIGHT_CLEAR,NIGHT_CLEAR,NIGHT_CLEAR,NIGHT_CLEAR,NIGHT_CLEAR,NIGHT_CLEAR,NIGHT_CLEAR,CLEAR,CLEAR,CLEAR,MOSTLY_CLEAR","Onshore,Offshore,Offshore,Offshore,Offshore,Offshore,Offshore,Offshore,Offshore,Offshore,Onshore,Onshore",12
5842041f4e65fad6a7708889,2024_02_13,28.944414,-95.28883,Surfside,1.75,0.33946333333333334,0.5304125,15.416666666666666,15.416666666666666,"CLEAR,NIGHT_CLEAR,NIGHT_CLEAR,NIGHT_CLEAR,NIGHT_CLEAR,NIGHT_CLEAR,NIGHT_CLEAR,CLEAR,CLEAR,CLEAR,CLEAR,CLEAR","Offshore,Offshore,Offshore,Offshore,Offshore,Offshore,Cross-shore,Cross-shore,Cross-shore,Cross-shore,Cross-shore,Onshore",12
5842041f4e65fad6a770888a,2024_02_13,33.38143999849023,-117.58843,Lower Trestles,2.8608333333333333,0.6853694444444445,0.9902611111111111,15.333333333333334,15.333333333333334,"CLEAR,NIGHT_CLEAR,NIGHT_CLEAR,NIGHT_CLEAR,NIGHT_CLEAR,NIGHT_CLEAR,NIGHT_CLEAR,NIGHT_CLEAR,CLEAR,CLEAR,CLEAR,MOSTLY_CLEAR","Onshore,Offshore,Offshore,Offshore,Offshore,Offshore,Offshore,Offshore,Offshore,Offshore,Onshore,Onshore",12
5842041f4e65fad6a770888b,2024_02_13,33.379622288757,-117.57894,Church,2.8475,0.4584638888888889,0.7660638888888889,15.333333333333334,15.333333333333334,"CLEAR,NIGHT_CLEAR,NIGHT_CLEAR,NIGHT_CLEAR,NIGHT_CLEAR,NIGHT_CLEAR,NIGHT_CLEAR,NIGHT_CLEAR,CLEAR,CLEAR,CLEAR,MOSTLY_CLEAR","Onshore,Cross-shore,Offshore,Offshore,Offshore,Offshore,Cross-shore,Cross-shore,Offshore,Offshore,Onshore,Onshore",12
5842041f4e65fad6a770888d,2024_02_13,21.679,-158.042,Sunset Beach,2.9025,0.8954083333333334,1.257411111111111,26,25,"CLEAR,NIGHT_CLEAR,NIGHT_MOSTLY_CLEAR,NIGHT_MOSTLY_CLOUDY,NIGHT_MOSTLY_CLOUDY,NIGHT_MOSTLY_CLOUDY,NIGHT_MOSTLY_CLOUDY,NIGHT_MOSTLY_CLOUDY,NIGHT_MOSTLY_CLOUDY,NIGHT_OVERCAST,CLEAR,CLEAR","Onshore,Offshore,Offshore,Offshore,Offshore,Onshore,Offshore,Offshore,Offshore,Offshore,Onshore,Onshore",12
5842041f4e65fad6a770888e,2024_02_13,21.670550036401,-158.0482,Rocky Point,2.930833333333333,0.8386722222222223,1.1768916666666667,26,25,"CLEAR,NIGHT_MOSTLY_CLEAR,NIGHT_MOSTLY_CLEAR,NIGHT_MOSTLY_CLOUDY,NIGHT_MOSTLY_CLOUDY,NIGHT_MOSTLY_CLOUDY,NIGHT_MOSTLY_CLOUDY,NIGHT_MOSTLY_CLOUDY,NIGHT_MOSTLY_CLOUDY,NIGHT_OVERCAST,CLEAR,CLEAR","Onshore,Offshore,Offshore,Offshore,Offshore,Onshore,Offshore,Offshore,Offshore,Offshore,Onshore,Onshore",12
5842041f4e65fad6a770888f,2024_02_13,21.668,-158.05,Chambers,2.9166666666666665,0.81,1.0558333333333334,24,24,"CLEAR,NIGHT_MOSTLY_CLEAR,NIGHT_MOSTLY_CLEAR,NIGHT_MOSTLY_CLOUDY,NIGHT_MOSTLY_CLOUDY,NIGHT_MOSTLY_CLOUDY,NIGHT_MOSTLY_CLOUDY,NIGHT_MOSTLY_CLOUDY,NIGHT_MOSTLY_CLOUDY,NIGHT_OVERCAST,CLEAR,CLEAR","Onshore,Offshore,Offshore,Offshore,Offshore,Cross-shore,Offshore,Offshore,Offshore,Offshore,Onshore,Onshore",12
5842041f4e65fad6a7708890,2024_02_13,21.66522,-158.0526,Pipeline,1.0833333333333333,0.721438888888889,1.0465111111111112,26,25,"CLEAR,NIGHT_MOSTLY_CLEAR,NIGHT_MOSTLY_CLEAR,NIGHT_MOSTLY_CLOUDY,NIGHT_MOSTLY_CLOUDY,NIGHT_MOSTLY_CLOUDY,NIGHT_MOSTLY_CLOUDY,NIGHT_MOSTLY_CLOUDY,NIGHT_MOSTLY_CLOUDY,NIGHT_OVERCAST,CLEAR,CLEAR","Onshore,Offshore,Offshore,Offshore,Offshore,Onshore,Offshore,Offshore,Offshore,Offshore,Onshore,Onshore",12
5842041f4e65fad6a7708891,2024_02_13,21.665,-158.054,Backdoor,2.805,0.721438888888889,1.0465111111111112,26,25,"CLEAR,NIGHT_MOSTLY_CLEAR,NIGHT_MOSTLY_CLEAR,NIGHT_MOSTLY_CLOUDY,NIGHT_MOSTLY_CLOUDY,NIGHT_MOSTLY_CLOUDY,NIGHT_MOSTLY_CLOUDY,NIGHT_MOSTLY_CLOUDY,NIGHT_MOSTLY_CLOUDY,NIGHT_OVERCAST,CLEAR,CLEAR","Onshore,Offshore,Offshore,Offshore,Offshore,Onshore,Offshore,Offshore,Offshore,Offshore,Onshore,Onshore",12
5842041f4e65fad6a7708892,2024_02_13,21.662,-158.057,Rockpile,2.9166666666666665,0.9133333333333333,1.1866666666666668,24,24,"CLEAR,NIGHT_MOSTLY_CLEAR,NIGHT_MOSTLY_CLEAR,NIGHT_MOSTLY_CLOUDY,NIGHT_MOSTLY_CLOUDY,NIGHT_MOSTLY_CLOUDY,NIGHT_MOSTLY_CLOUDY,NIGHT_MOSTLY_CLOUDY,NIGHT_MOSTLY_CLOUDY,NIGHT_OVERCAST,CLEAR,CLEAR","Onshore,Offshore,Offshore,Offshore,Offshore,Cross-shore,Offshore,Offshore,Offshore,Offshore,Onshore,Onshore",12
5842041f4e65fad6a7708893,2024_02_13,21.65870453806827,-158.06058,Log Cabins,2.75,0.6433333333333333,0.9491666666666667,24,24,"CLEAR,NIGHT_MOSTLY_CLEAR,NIGHT_MOSTLY_CLEAR,NIGHT_MOSTLY_CLOUDY,NIGHT_MOSTLY_CLOUDY,NIGHT_MOSTLY_CLOUDY,NIGHT_MOSTLY_CLOUDY,NIGHT_MOSTLY_CLOUDY,NIGHT_MOSTLY_CLOUDY,NIGHT_OVERCAST,CLEAR,CLEAR","Onshore,Offshore,Offshore,Offshore,Offshore,Onshore,Offshore,Offshore,Offshore,Offshore,Onshore,Onshore",12
5842041f4e65fad6a7708894,2024_02_13,21.66203493640557,-158.05495,Off-The-Wall,2.9166666666666665,0.8233333333333334,1.0791666666666666,24,24,"CLEAR,NIGHT_MOSTLY_CLEAR,NIGHT_MOSTLY_CLEAR,NIGHT_MOSTLY_CLOUDY,NIGHT_MOSTLY_CLOUDY,NIGHT_MOSTLY_CLOUDY,NIGHT_MOSTLY_CLOUDY,NIGHT_MOSTLY_CLOUDY,NIGHT_MOSTLY_CLOUDY,NIGHT_OVERCAST,CLEAR,CLEAR","Onshore,Offshore,Offshore,Offshore,Offshore,Cross-shore,Offshore,Offshore,Offshore,Offshore,Onshore,Onshore",12
5842041f4e65fad6a7708895,2024_02_13,21.643,-158.067,Waimea Bay,NA,0.8931166666666667,1.2516472222222221,26,25,"CLEAR,NIGHT_MOSTLY_CLEAR,NIGHT_MOSTLY_CLEAR,NIGHT_MOSTLY_CLOUDY,NIGHT_MOSTLY_CLOUDY,NIGHT_MOSTLY_CLOUDY,NIGHT_MOSTLY_CLOUDY,NIGHT_MOSTLY_CLOUDY,NIGHT_MOSTLY_CLOUDY,NIGHT_OVERCAST,CLEAR,CLEAR","Onshore,Offshore,Offshore,Offshore,Offshore,Onshore,Offshore,Offshore,Offshore,Offshore,Onshore,Onshore",12
5842041f4e65fad6a7708896,2024_02_13,21.622,-158.087,Hultin's,2.9166666666666665,0.7856166666666666,1.1329333333333333,26,25,"CLEAR,NIGHT_MOSTLY_CLEAR,NIGHT_MOSTLY_CLEAR,NIGHT_MOSTLY_CLOUDY,NIGHT_MOSTLY_CLOUDY,NIGHT_MOSTLY_CLOUDY,NIGHT_MOSTLY_CLOUDY,NIGHT_MOSTLY_CLOUDY,NIGHT_CLEAR,NIGHT_MOSTLY_CLOUDY,CLEAR,CLEAR","Onshore,Onshore,Onshore,Cross-shore,Cross-shore,Cross-shore,Cross-shore,Cross-shore,Offshore,Cross-shore,Cross-shore,Cross-shore",12
5842041f4e65fad6a7708897,2024_02_13,21.623,-158.085,Jocko's,3,0.6950000000000001,0.98,24,24,"CLEAR,NIGHT_MOSTLY_CLEAR,NIGHT_MOSTLY_CLEAR,NIGHT_MOSTLY_CLOUDY,NIGHT_MOSTLY_CLOUDY,NIGHT_MOSTLY_CLOUDY,NIGHT_MOSTLY_CLOUDY,NIGHT_MOSTLY_CLOUDY,NIGHT_CLEAR,NIGHT_MOSTLY_CLOUDY,CLEAR,CLEAR","Cross-shore,Cross-shore,Offshore,Onshore,Onshore,Onshore,Onshore,Onshore,Onshore,Onshore,Onshore,Onshore",12
5842041f4e65fad6a7708898,2024_02_13,21.62,-158.088,Laniakea,2.930833333333333,0.8234527777777778,1.1610527777777777,26,25,"CLEAR,NIGHT_MOSTLY_CLEAR,NIGHT_MOSTLY_CLEAR,NIGHT_MOSTLY_CLOUDY,NIGHT_MOSTLY_CLOUDY,NIGHT_MOSTLY_CLOUDY,NIGHT_MOSTLY_CLOUDY,NIGHT_MOSTLY_CLOUDY,NIGHT_CLEAR,NIGHT_MOSTLY_CLOUDY,CLEAR,CLEAR","Onshore,Onshore,Cross-shore,Onshore,Onshore,Onshore,Cross-shore,Cross-shore,Cross-shore,Cross-shore,Onshore,Onshore",12
5842041f4e65fad6a7708899,2024_02_13,21.625,-158.083,Chun's,2.9166666666666665,0.7408333333333333,1.0183333333333333,24,24,"CLEAR,NIGHT_MOSTLY_CLEAR,NIGHT_MOSTLY_CLEAR,NIGHT_MOSTLY_CLOUDY,NIGHT_MOSTLY_CLOUDY,NIGHT_MOSTLY_CLOUDY,NIGHT_MOSTLY_CLOUDY,NIGHT_MOSTLY_CLOUDY,NIGHT_CLEAR,NIGHT_MOSTLY_CLOUDY,CLEAR,CLEAR","Onshore,Onshore,Cross-shore,Onshore,Onshore,Cross-shore,Cross-shore,Cross-shore,Cross-shore,Cross-shore,Onshore,Onshore",12
5842041f4e65fad6a770889c,2024_02_13,21.286357895152136,-157.8515,South Shore - Ala Moana Park,2.25,0.2941666666666667,0.5991666666666666,25,25,"MOSTLY_CLEAR,NIGHT_CLEAR,NIGHT_CLEAR,NIGHT_MOSTLY_CLEAR,NIGHT_MOSTLY_CLEAR,NIGHT_CLEAR,NIGHT_CLEAR,NIGHT_CLEAR,NIGHT_CLEAR,NIGHT_CLEAR,MOSTLY_CLEAR,MOSTLY_CLEAR","Onshore,Offshore,Offshore,Offshore,Offshore,Offshore,Offshore,Offshore,Offshore,Offshore,Onshore,Onshore",12
5842041f4e65fad6a770889d,2024_02_13,19.606,-155.978,Banyans,2.7641666666666667,0.6454444444444445,0.9520777777777778,26,25,"CLEAR,NIGHT_CLEAR,NIGHT_CLEAR,NIGHT_CLEAR,NIGHT_CLEAR,NIGHT_CLEAR,NIGHT_CLEAR,NIGHT_CLEAR,NIGHT_CLEAR,NIGHT_CLEAR,CLEAR,CLEAR","Onshore,Cross-shore,Cross-shore,Cross-shore,Cross-shore,Cross-shore,Cross-shore,Cross-shore,Cross-shore,Offshore,Onshore,Onshore",12
5842041f4e65fad6a770889e,2024_02_13,20.029,-155.831,Kawaihae,2.8333333333333335,0.5939666666666666,0.9849766666666667,25,25,"CLEAR,NIGHT_CLEAR,NIGHT_CLEAR,NIGHT_CLEAR,NIGHT_CLEAR,NIGHT_CLEAR,NIGHT_CLEAR,NIGHT_CLEAR,NIGHT_CLEAR,NIGHT_CLEAR,CLEAR,CLEAR","Onshore,Offshore,Offshore,Offshore,Offshore,Offshore,Offshore,Offshore,Offshore,Offshore,Onshore,Onshore",12
5842041f4e65fad6a770889f,2024_02_13,33.07541383424675,-117.3105,Grandview,2.6666666666666665,0.4175,0.7233333333333333,15,15,"CLEAR,NIGHT_MOSTLY_CLOUDY,NIGHT_MOSTLY_CLOUDY,NIGHT_MIST,NIGHT_CLEAR,NIGHT_CLEAR,NIGHT_CLEAR,NIGHT_CLEAR,CLEAR,MOSTLY_CLOUDY,CLEAR,CLEAR","Onshore,Offshore,Offshore,Offshore,Offshore,Offshore,Offshore,Offshore,Offshore,Offshore,Onshore,Onshore",12
5842041f4e65fad6a77088a0,2024_02_13,33.065267421296596,-117.30577,Beacons,2.5833333333333335,0.4241666666666667,0.7283333333333333,15,15,"CLEAR,NIGHT_MOSTLY_CLOUDY,NIGHT_MOSTLY_CLOUDY,NIGHT_MIST,NIGHT_CLEAR,NIGHT_CLEAR,NIGHT_CLEAR,NIGHT_CLEAR,CLEAR,MOSTLY_CLOUDY,CLEAR,CLEAR","Onshore,Offshore,Offshore,Offshore,Offshore,Offshore,Offshore,Offshore,Offshore,Offshore,Onshore,Onshore",12
5842041f4e65fad6a77088a2,2024_02_13,21.252,-157.805,Diamond Head,2.2358333333333333,0.5667791666666667,0.8847599305555556,26,25,"CLEAR,NIGHT_CLEAR,NIGHT_CLEAR,NIGHT_MOSTLY_CLEAR,NIGHT_MOSTLY_CLEAR,NIGHT_CLEAR,NIGHT_CLEAR,NIGHT_CLEAR,NIGHT_CLEAR,NIGHT_CLEAR,CLEAR,CLEAR","Cross-shore,Offshore,Offshore,Offshore,Offshore,Offshore,Offshore,Offshore,Offshore,Offshore,Onshore,Onshore",12
5842041f4e65fad6a77088a3,2024_02_13,33.04694255008896,-117.29966,Moonlight State Beach,2.75,0.44833333333333336,0.7525,15,15,"CLEAR,NIGHT_CLEAR,NIGHT_MOSTLY_CLOUDY,NIGHT_CLEAR,NIGHT_CLEAR,NIGHT_CLEAR,NIGHT_CLEAR,NIGHT_CLEAR,CLEAR,CLEAR,CLEAR,CLEAR","Onshore,Offshore,Offshore,Offshore,Offshore,Offshore,Offshore,Offshore,Offshore,Offshore,Onshore,Onshore",12
5842041f4e65fad6a77088a5,2024_02_13,33.08685865930869,-117.31532,Ponto,2.6666666666666665,0.7183333333333333,1.0133333333333334,15,15,"CLEAR,NIGHT_MOSTLY_CLOUDY,NIGHT_MOSTLY_CLOUDY,NIGHT_MIST,NIGHT_CLEAR,NIGHT_CLEAR,NIGHT_CLEAR,NIGHT_CLEAR,CLEAR,MOSTLY_CLOUDY,CLEAR,CLEAR","Onshore,Offshore,Offshore,Offshore,Offshore,Offshore,Offshore,Offshore,Offshore,Offshore,Onshore,Onshore",12
5842041f4e65fad6a77088a6,2024_02_13,33.130343587871906,-117.33667796442558,Terra Mar Point,2.194166666666667,0.4677555555555556,0.7718916666666668,15,15,"CLEAR,NIGHT_MIST,NIGHT_MIST,NIGHT_MIST,NIGHT_MIST,NIGHT_CLEAR,NIGHT_CLEAR,NIGHT_CLEAR,CLEAR,CLEAR,CLEAR,CLEAR","Cross-shore,Offshore,Offshore,Offshore,Offshore,Offshore,Offshore,Offshore,Offshore,Offshore,Onshore,Onshore",12
5842041f4e65fad6a77088af,2024_02_13,32.95916304183685,-117.26963,Del Mar,2.9166666666666665,0.7975,1.0616666666666668,15,15,"CLEAR,NIGHT_MIST,NIGHT_MIST,NIGHT_MIST,NIGHT_MIST,NIGHT_MIST,NIGHT_MIST,NIGHT_MIST,MIST,MOSTLY_CLOUDY,MIST,MOSTLY_CLOUDY","Onshore,Offshore,Offshore,Offshore,Offshore,Offshore,Offshore,Offshore,Offshore,Offshore,Onshore,Onshore",12
5842041f4e65fad6a77088b0,2024_02_13,32.97527261243354,-117.2721061331305,Del Mar Rivermouth,2.8333333333333335,0.9158333333333333,1.1216666666666666,15,15,"CLEAR,NIGHT_MIST,NIGHT_MIST,NIGHT_MIST,NIGHT_MIST,NIGHT_MIST,NIGHT_MIST,NIGHT_CLEAR,MOSTLY_CLEAR,MOSTLY_CLOUDY,MOSTLY_CLEAR,CLEAR","Onshore,Offshore,Offshore,Offshore,Offshore,Offshore,Offshore,Offshore,Offshore,Offshore,Onshore,Onshore",12
5842041f4e65fad6a77088b1,2024_02_13,33.01352178146273,-117.28219,Cardiff Reef,2.8608333333333333,0.88345,1.1764944444444445,15,15,"CLEAR,NIGHT_MOSTLY_CLOUDY,NIGHT_MOSTLY_CLOUDY,NIGHT_CLEAR,NIGHT_CLEAR,NIGHT_CLEAR,NIGHT_CLEAR,NIGHT_CLEAR,CLEAR,MOSTLY_CLOUDY,CLEAR,CLEAR","Cross-shore,Onshore,Onshore,Offshore,Offshore,Offshore,Offshore,Offshore,Offshore,Offshore,Onshore,Onshore",12
5842041f4e65fad6a77088b3,2024_02_13,33.00211185876003,-117.2811,Seaside Reef,2.93,0.8764361111111111,1.1927444444444444,15,15,"CLEAR,NIGHT_MIST,NIGHT_MIST,NIGHT_CLEAR,NIGHT_CLEAR,NIGHT_CLEAR,NIGHT_CLEAR,NIGHT_CLEAR,CLEAR,MOSTLY_CLOUDY,MOSTLY_CLEAR,MOSTLY_CLOUDY","Cross-shore,Onshore,Onshore,Offshore,Offshore,Offshore,Offshore,Offshore,Offshore,Offshore,Onshore,Onshore",12
5842041f4e65fad6a77088b4,2024_02_13,33.0341859796287,-117.29552,Swami's,2.944166666666667,0.9006722222222222,1.1430722222222223,15,15,"CLEAR,NIGHT_MOSTLY_CLOUDY,NIGHT_MOSTLY_CLOUDY,NIGHT_CLEAR,NIGHT_CLEAR,NIGHT_CLEAR,NIGHT_CLEAR,NIGHT_CLEAR,CLEAR,MOSTLY_CLOUDY,CLEAR,CLEAR","Onshore,Offshore,Offshore,Offshore,Offshore,Offshore,Offshore,Offshore,Offshore,Offshore,Onshore,Onshore",12
5842041f4e65fad6a77088b7,2024_02_13,33.04569760260221,-117.2994,D Street,2.75,0.6058333333333333,0.9108333333333333,15,15,"CLEAR,NIGHT_CLEAR,NIGHT_MOSTLY_CLOUDY,NIGHT_CLEAR,NIGHT_CLEAR,NIGHT_CLEAR,NIGHT_CLEAR,NIGHT_CLEAR,CLEAR,CLEAR,CLEAR,CLEAR","Onshore,Offshore,Offshore,Offshore,Offshore,Offshore,Offshore,Offshore,Offshore,Offshore,Onshore,Onshore",12
5842041f4e65fad6a77088b8,2024_02_13,33.02090944350196,-117.28535,San Elijo State Beach,2.694166666666667,0.5506027777777778,0.9052444444444444,15,15,"CLEAR,NIGHT_MOSTLY_CLOUDY,NIGHT_MOSTLY_CLOUDY,NIGHT_CLEAR,NIGHT_CLEAR,NIGHT_CLEAR,NIGHT_CLEAR,NIGHT_CLEAR,CLEAR,MOSTLY_CLOUDY,CLEAR,CLEAR","Cross-shore,Onshore,Onshore,Offshore,Offshore,Offshore,Offshore,Offshore,Offshore,Offshore,Onshore,Onshore",12
5842041f4e65fad6a77088c2,2024_02_13,32.80662846492798,-117.2688764333725,PB Point,2.8333333333333335,0.925,1.135,14.583333333333334,14.583333333333334,"CLEAR,NIGHT_MIST,NIGHT_MIST,NIGHT_MIST,NIGHT_MIST,NIGHT_MIST,NIGHT_MIST,NIGHT_MIST,MIST,MOSTLY_CLOUDY,CLEAR,MOSTLY_CLEAR","Cross-shore,Cross-shore,Cross-shore,Offshore,Cross-shore,Offshore,Cross-shore,Offshore,Offshore,Cross-shore,Cross-shore,Cross-shore",12
5842041f4e65fad6a77088c4,2024_02_13,32.8060476681448,-117.26479,Old Man's at Tourmaline,2.75,0.5700000000000001,0.875,14.583333333333334,14.583333333333334,"CLEAR,NIGHT_MIST,NIGHT_MIST,NIGHT_MIST,NIGHT_MIST,NIGHT_MIST,NIGHT_MIST,NIGHT_MIST,MIST,MOSTLY_CLOUDY,CLEAR,MOSTLY_CLEAR","Cross-shore,Offshore,Cross-shore,Offshore,Cross-shore,Offshore,Cross-shore,Cross-shore,Offshore,Cross-shore,Cross-shore,Cross-shore",12
5842041f4e65fad6a77088cb,2024_02_13,32.557056711256,-117.1327445020322,Tijuana Slough,2.6666666666666665,0.38583333333333336,0.6866666666666666,14.583333333333334,14.583333333333334,"CLEAR,NIGHT_MIST,NIGHT_MIST,NIGHT_MOSTLY_CLEAR,NIGHT_MOSTLY_CLEAR,NIGHT_CLEAR,NIGHT_CLEAR,NIGHT_CLEAR,MIST,MOSTLY_CLEAR,CLEAR,CLEAR","Cross-shore,Offshore,Offshore,Offshore,Offshore,Offshore,Offshore,Offshore,Offshore,Offshore,Onshore,Onshore",12
5842041f4e65fad6a77088cc,2024_02_13,32.863,-117.257,La Jolla Shores,2.75,0.6041666666666666,0.9083333333333333,15,15,"MIST,NIGHT_MIST,NIGHT_DRIZZLE,NIGHT_CLEAR,NIGHT_MIST,NIGHT_MIST,NIGHT_MIST,NIGHT_MIST,MIST,MOSTLY_CLOUDY,MOSTLY_CLEAR,MIST","Onshore,Onshore,Onshore,Offshore,Offshore,Offshore,Offshore,Offshore,Offshore,Offshore,Onshore,Onshore",12
5842041f4e65fad6a77088ce,2024_02_13,32.67443657790586,-117.17421316238693,Coronado Beach,2.8333333333333335,0.6275,0.9233333333333333,14.583333333333334,14.583333333333334,"CLEAR,NIGHT_BRIEF_SHOWERS,NIGHT_OVERCAST,NIGHT_MOSTLY_CLOUDY,NIGHT_BRIEF_SHOWERS,NIGHT_MIST,NIGHT_CLEAR,NIGHT_CLEAR,CLEAR,CLEAR,CLEAR,CLEAR","Offshore,Offshore,Offshore,Cross-shore,Cross-shore,Cross-shore,Onshore,Cross-shore,Offshore,Cross-shore,Onshore,Cross-shore",12
5842041f4e65fad6a77088cf,2024_02_13,33.40484417640326,-117.60749,San Clemente State Beach,2.75,0.37,0.675,15,15,"CLEAR,NIGHT_CLEAR,NIGHT_CLEAR,NIGHT_CLEAR,NIGHT_CLEAR,NIGHT_CLEAR,NIGHT_CLEAR,NIGHT_CLEAR,CLEAR,CLEAR,CLEAR,CLEAR","Cross-shore,Offshore,Offshore,Offshore,Offshore,Offshore,Offshore,Offshore,Offshore,Offshore,Onshore,Onshore",12
5842041f4e65fad6a77088d5,2024_02_13,33.4663042002114,-117.7168352817103,Strands,2.875,0.6597444444444445,1.0192694444444443,14.666666666666666,14.666666666666666,"CLEAR,NIGHT_CLEAR,NIGHT_MIST,NIGHT_MIST,NIGHT_MIST,NIGHT_CLEAR,NIGHT_CLEAR,NIGHT_CLEAR,CLEAR,CLEAR,MOSTLY_CLOUDY,MIST","Onshore,Offshore,Offshore,Offshore,Offshore,Onshore,Cross-shore,Offshore,Offshore,Offshore,Onshore,Onshore",12
5842041f4e65fad6a77088d7,2024_02_13,33.4609858001748,-117.68535,Doheny State Beach,1.5833333333333333,0.11176666666666667,0.41360277777777776,15.333333333333334,15.333333333333334,"CLEAR,NIGHT_MIST,NIGHT_MIST,NIGHT_CLEAR,NIGHT_CLEAR,NIGHT_CLEAR,NIGHT_CLEAR,NIGHT_CLEAR,CLEAR,CLEAR,MOSTLY_CLOUDY,MOSTLY_CLEAR","Onshore,Offshore,Offshore,Offshore,Offshore,Offshore,Cross-shore,Offshore,Offshore,Offshore,Onshore,Onshore",12
5842041f4e65fad6a77088dc,2024_02_13,33.50894790083017,-117.75243,Aliso Creek,2,0.2325,0.5366666666666667,15,15,"CLEAR,NIGHT_CLEAR,NIGHT_MOSTLY_CLEAR,NIGHT_CLEAR,NIGHT_CLEAR,NIGHT_CLEAR,NIGHT_CLEAR,NIGHT_CLEAR,CLEAR,CLEAR,MIST,MIST","Onshore,Offshore,Offshore,Offshore,Offshore,Offshore,Offshore,Offshore,Cross-shore,Offshore,Onshore,Onshore",12
5842041f4e65fad6a77088dd,2024_02_13,33.5326591767067,-117.77764,Brooks Street,2,0.12833333333333333,0.43416666666666665,15,15,"CLEAR,NIGHT_CLEAR,NIGHT_MOSTLY_CLEAR,NIGHT_CLEAR,NIGHT_CLEAR,NIGHT_CLEAR,NIGHT_CLEAR,NIGHT_MIST,CLEAR,CLEAR,MIST,MIST","Cross-shore,Cross-shore,Offshore,Offshore,Offshore,Cross-shore,Onshore,Cross-shore,Onshore,Cross-shore,Onshore,Onshore",12
5842041f4e65fad6a77088de,2024_02_13,33.53561225884637,-117.7799,Thalia Street,2,0.15916666666666668,0.4633333333333333,15,15,"CLEAR,NIGHT_CLEAR,NIGHT_MOSTLY_CLEAR,NIGHT_CLEAR,NIGHT_CLEAR,NIGHT_CLEAR,NIGHT_CLEAR,NIGHT_MIST,CLEAR,CLEAR,MIST,MIST","Cross-shore,Cross-shore,Offshore,Offshore,Offshore,Cross-shore,Onshore,Cross-shore,Onshore,Cross-shore,Onshore,Onshore",12
5842041f4e65fad6a77088e3,2024_02_13,33.54268310353641,-117.7916,Rockpile,2.75,0.325,0.6325000000000001,15,15,"CLEAR,NIGHT_CLEAR,NIGHT_MOSTLY_CLEAR,NIGHT_CLEAR,NIGHT_CLEAR,NIGHT_CLEAR,NIGHT_CLEAR,NIGHT_MIST,CLEAR,CLEAR,MIST,MIST","Cross-shore,Offshore,Offshore,Offshore,Cross-shore,Cross-shore,Onshore,Cross-shore,Onshore,Cross-shore,Onshore,Onshore",12
5842041f4e65fad6a77088e4,2024_02_13,33.7368459504689,-118.10342,"Seal Beach Pier, Southside",1,0,0.295,15,15,"CLEAR,NIGHT_CLEAR,NIGHT_MIST,NIGHT_MIST,NIGHT_CLEAR,NIGHT_CLEAR,NIGHT_CLEAR,NIGHT_MIST,CLEAR,CLOUDY,MIST,MIST","Onshore,Offshore,Offshore,Offshore,Offshore,Offshore,Offshore,Offshore,Offshore,Offshore,Onshore,Onshore",12
5842041f4e65fad6a77088e5,2024_02_13,33.73933701820233,-118.117,Ray Bay,1.75,0.009166666666666667,0.31166666666666665,15,15,"CLEAR,NIGHT_CLEAR,NIGHT_MIST,NIGHT_MIST,NIGHT_CLEAR,NIGHT_CLEAR,NIGHT_CLEAR,NIGHT_MIST,CLEAR,MOSTLY_CLOUDY,MOSTLY_CLOUDY,MOSTLY_CLOUDY","Onshore,Offshore,Offshore,Offshore,Offshore,Offshore,Offshore,Offshore,Offshore,Offshore,Onshore,Onshore",12
5842041f4e65fad6a77088e7,2024_02_13,33.728733,-118.08982,Surfside,1.9166666666666667,0.19333333333333333,0.4975,15,15,"CLEAR,NIGHT_CLEAR,NIGHT_MIST,NIGHT_MIST,NIGHT_CLEAR,NIGHT_CLEAR,NIGHT_MIST,NIGHT_MIST,CLEAR,OVERCAST,MOSTLY_CLOUDY,MOSTLY_CLOUDY","Onshore,Offshore,Offshore,Offshore,Offshore,Offshore,Offshore,Offshore,Offshore,Offshore,Onshore,Onshore",12
5842041f4e65fad6a77088e8,2024_02_13,33.68760321488161,-118.04236,Bolsa Chica State Beach,2.8608333333333333,0.6215277777777778,0.9279861111111112,14,14,"CLEAR,NIGHT_CLEAR,NIGHT_MIST,NIGHT_MIST,NIGHT_CLEAR,NIGHT_CLEAR,NIGHT_MIST,NIGHT_MIST,CLEAR,MOSTLY_CLOUDY,MOSTLY_CLOUDY,MOSTLY_CLOUDY","Onshore,Offshore,Offshore,Offshore,Offshore,Offshore,Offshore,Offshore,Cross-shore,Offshore,Onshore,Onshore",12
5842041f4e65fad6a77088ea,2024_02_13,33.66704400178788,-118.0192,North HB Streets,2.8608333333333333,0.6473611111111112,1.0051388888888888,14,14,"CLEAR,NIGHT_CLEAR,NIGHT_CLEAR,NIGHT_MIST,NIGHT_CLEAR,NIGHT_CLEAR,NIGHT_CLEAR,NIGHT_MIST,CLEAR,MOSTLY_CLOUDY,MIST,MIST","Onshore,Cross-shore,Offshore,Cross-shore,Onshore,Onshore,Cross-shore,Cross-shore,Onshore,Offshore,Onshore,Onshore",12
5842041f4e65fad6a77088ed,2024_02_13,33.65475101379567,-118.00291,Huntington Beach Pier Southside,2.7641666666666667,0.644375,1.0020833333333332,14,14,"CLEAR,NIGHT_CLEAR,NIGHT_MIST,NIGHT_MIST,NIGHT_CLEAR,NIGHT_CLEAR,NIGHT_CLEAR,NIGHT_MIST,CLEAR,MOSTLY_CLOUDY,MOSTLY_CLOUDY,MOSTLY_CLOUDY","Onshore,Offshore,Offshore,Offshore,Offshore,Offshore,Onshore,Offshore,Offshore,Offshore,Cross-shore,Cross-shore",12
5842041f4e65fad6a77088ee,2024_02_13,33.62778647706099,-117.95939,River Jetties,2.1666666666666665,0.4640277777777778,0.8211805555555555,15,15,"CLEAR,NIGHT_CLEAR,NIGHT_CLEAR,NIGHT_CLEAR,NIGHT_CLEAR,NIGHT_MOSTLY_CLEAR,NIGHT_CLEAR,NIGHT_CLEAR,CLEAR,MOSTLY_CLOUDY,MOSTLY_CLOUDY,MOSTLY_CLOUDY","Onshore,Offshore,Cross-shore,Offshore,Offshore,Cross-shore,Cross-shore,Offshore,Offshore,Offshore,Onshore,Onshore",12
5842041f4e65fad6a77088f2,2024_02_13,33.605165797643664,-117.92500376701355,Newport Point,2.75,0.3925,0.6983333333333333,15,15,"CLEAR,NIGHT_CLEAR,NIGHT_CLEAR,NIGHT_CLEAR,NIGHT_CLEAR,NIGHT_CLEAR,NIGHT_CLEAR,NIGHT_CLEAR,CLEAR,MOSTLY_CLOUDY,CLEAR,CLEAR","Cross-shore,Cross-shore,Offshore,Cross-shore,Onshore,Onshore,Onshore,Onshore,Onshore,Cross-shore,Onshore,Onshore",12
5842041f4e65fad6a77088f3,2024_02_13,33.58982984726977,-117.87713,Corona del Mar,1,0.16223166666666666,0.2534866666666667,15,15,"CLEAR,NIGHT_CLEAR,NIGHT_CLEAR,NIGHT_CLEAR,NIGHT_CLEAR,NIGHT_CLEAR,NIGHT_MIST,NIGHT_MIST,MIST,CLEAR,MIST,MIST","Onshore,Offshore,Offshore,Offshore,Offshore,Cross-shore,Offshore,Offshore,Offshore,Offshore,Onshore,Onshore",12
5842041f4e65fad6a77088f7,2024_02_13,34.00750300824362,-118.4971783496269,Santa Monica Pier,1.9166666666666667,0.09583333333333334,0.40166666666666667,15,15,"CLEAR,NIGHT_MIST,NIGHT_CLEAR,NIGHT_CLEAR,NIGHT_CLEAR,NIGHT_CLEAR,NIGHT_CLEAR,NIGHT_CLEAR,CLEAR,CLEAR,CLEAR,CLEAR","Onshore,Offshore,Offshore,Offshore,Offshore,Offshore,Offshore,Offshore,Offshore,Offshore,Onshore,Onshore",12
5842041f4e65fad6a77088ff,2024_02_13,33.94070283102945,-118.44321,Dockweiler Beach,2.6108333333333333,0.6813697916666667,0.9796152777777778,14,14,"CLEAR,NIGHT_CLEAR,NIGHT_CLEAR,NIGHT_CLEAR,NIGHT_MIST,NIGHT_MIST,NIGHT_MIST,NIGHT_MIST,MIST,MIST,CLEAR,MIST","Onshore,Offshore,Offshore,Offshore,Offshore,Offshore,Offshore,Offshore,Offshore,Offshore,Onshore,Onshore",12
5842041f4e65fad6a7708900,2024_02_13,33.9231846937237,-118.4341465777908,Shitpipe,2.0966666666666667,0.40602222222222223,0.7700527777777777,14,14,"CLEAR,NIGHT_CLEAR,NIGHT_CLEAR,NIGHT_CLEAR,NIGHT_MIST,NIGHT_MIST,NIGHT_MIST,NIGHT_MIST,MIST,MIST,CLEAR,MIST","Onshore,Onshore,Offshore,Offshore,Offshore,Offshore,Offshore,Offshore,Offshore,Offshore,Onshore,Onshore",12
5842041f4e65fad6a7708902,2024_02_13,33.9108528052242,-118.4279133138721,Hammerland,2.8891666666666667,0.5586861111111111,0.9243833333333333,14,14,"CLEAR,NIGHT_CLEAR,NIGHT_CLEAR,NIGHT_CLEAR,NIGHT_MIST,NIGHT_MIST,NIGHT_MIST,NIGHT_MIST,MIST,MIST,CLEAR,MIST","Onshore,Onshore,Offshore,Offshore,Offshore,Offshore,Offshore,Offshore,Offshore,Offshore,Onshore,Onshore",12
5842041f4e65fad6a7708904,2024_02_13,33.87201368173932,-118.4075151286262,Hermosa Beach,2.194166666666667,0.3123166666666667,0.6166472222222222,14,14,"CLEAR,NIGHT_CLEAR,NIGHT_CLEAR,NIGHT_CLEAR,NIGHT_CLEAR,NIGHT_MIST,NIGHT_CLEAR,NIGHT_CLEAR,MOSTLY_CLOUDY,MIST,MOSTLY_CLOUDY,MIST","Onshore,Onshore,Onshore,Offshore,Offshore,Offshore,Offshore,Offshore,Offshore,Offshore,Onshore,Onshore",12
5842041f4e65fad6a7708906,2024_02_13,33.90129336911256,-118.42184,El Porto,3,0.792575,1.1464666666666665,14,14,"MIST,NIGHT_CLEAR,NIGHT_CLEAR,NIGHT_CLEAR,NIGHT_MIST,NIGHT_MIST,NIGHT_MIST,NIGHT_MIST,MIST,MIST,MIST,MIST","Onshore,Onshore,Onshore,Offshore,Offshore,Offshore,Offshore,Offshore,Offshore,Offshore,Onshore,Onshore",12
5842041f4e65fad6a7708907,2024_02_13,33.87963506431794,-118.41102,Manhattan Beach Pier,2.944166666666667,0.7795888888888889,1.0740583333333333,14,14,"MIST,NIGHT_CLEAR,NIGHT_CLEAR,NIGHT_CLEAR,NIGHT_MIST,NIGHT_MIST,NIGHT_MIST,NIGHT_MIST,MIST,MIST,MIST,MIST","Onshore,Onshore,Onshore,Offshore,Offshore,Offshore,Offshore,Offshore,Offshore,Offshore,Onshore,Onshore",12
5842041f4e65fad6a7708914,2024_02_13,34.038053387863464,-118.5532,Sunset Point,1.8333333333333333,0.024166666666666666,0.3283333333333333,15,15,"CLEAR,NIGHT_CLEAR,NIGHT_CLEAR,NIGHT_CLEAR,NIGHT_CLEAR,NIGHT_CLEAR,NIGHT_CLEAR,NIGHT_CLEAR,CLEAR,CLEAR,CLEAR,MIST","Onshore,Offshore,Offshore,Cross-shore,Offshore,Offshore,Offshore,Offshore,Offshore,Offshore,Onshore,Cross-shore",12
5842041f4e65fad6a7708920,2024_02_13,33.80930828074364,-118.3933198342649,Haggerty's,1.6666666666666667,0.124,0.3075,15,15,"CLEAR,NIGHT_CLEAR,NIGHT_CLEAR,NIGHT_CLEAR,NIGHT_CLEAR,NIGHT_CLEAR,NIGHT_CLEAR,NIGHT_CLEAR,MIST,CLEAR,CLEAR,CLEAR","Onshore,Onshore,Onshore,Offshore,Offshore,Offshore,Offshore,Offshore,Cross-shore,Offshore,Onshore,Onshore",12
5842041f4e65fad6a7708921,2024_02_13,33.85044519861206,-118.40048,Redondo Breakwater,2.75,0.48166666666666663,0.7875,15,15,"CLEAR,NIGHT_CLEAR,NIGHT_CLEAR,NIGHT_CLEAR,NIGHT_CLEAR,NIGHT_MIST,NIGHT_CLEAR,NIGHT_CLEAR,MOSTLY_CLOUDY,MIST,MOSTLY_CLOUDY,MIST","Onshore,Onshore,Onshore,Offshore,Offshore,Offshore,Offshore,Offshore,Offshore,Offshore,Onshore,Onshore",12
5842041f4e65fad6a7708927,2024_02_13,33.70877301002487,-118.2840112858389,Cabrillo Beach,1,0,0.26666666666666666,15,15,"CLEAR,NIGHT_CLEAR,NIGHT_CLEAR,NIGHT_CLEAR,NIGHT_CLEAR,NIGHT_CLEAR,NIGHT_CLEAR,NIGHT_CLEAR,MOSTLY_CLOUDY,MOSTLY_CLOUDY,MOSTLY_CLOUDY,MIST","Offshore,Offshore,Offshore,Onshore,Offshore,Offshore,Offshore,Onshore,Cross-shore,Cross-shore,Onshore,Onshore",12
5842041f4e65fad6a770892c,2024_02_13,33.77209986806257,-118.4268428476672,Lunada Bay,1.5,0.34500000000000003,0.6516666666666667,15,15,"CLEAR,NIGHT_CLEAR,NIGHT_CLEAR,NIGHT_CLEAR,NIGHT_CLEAR,NIGHT_CLEAR,NIGHT_CLEAR,NIGHT_MOSTLY_CLEAR,MIST,CLEAR,MIST,MIST","Onshore,Onshore,Onshore,Onshore,Onshore,Onshore,Onshore,Onshore,Onshore,Cross-shore,Onshore,Onshore",12
5842041f4e65fad6a770892d,2024_02_13,33.79294656286144,-118.4070316699825,PV Cove,2.0833333333333335,0.4976466666666667,0.7512841666666666,15,15,"CLEAR,NIGHT_CLEAR,NIGHT_CLEAR,NIGHT_CLEAR,NIGHT_CLEAR,NIGHT_CLEAR,NIGHT_CLEAR,NIGHT_CLEAR,MIST,CLEAR,CLEAR,CLEAR","Onshore,Onshore,Onshore,Offshore,Offshore,Offshore,Offshore,Offshore,Cross-shore,Offshore,Onshore,Onshore",12
5842041f4e65fad6a7708930,2024_02_13,34.03944902292561,-118.57539,Chart House,0.5,0,0.15583333333333332,15,15,"CLEAR,NIGHT_CLEAR,NIGHT_CLEAR,NIGHT_CLEAR,NIGHT_CLEAR,NIGHT_CLEAR,NIGHT_CLEAR,NIGHT_CLEAR,CLEAR,CLEAR,CLEAR,MOSTLY_CLEAR","Onshore,Offshore,Offshore,Offshore,Offshore,Offshore,Offshore,Offshore,Offshore,Offshore,Onshore,Cross-shore",12
5842041f4e65fad6a7708936,2024_02_13,34.0016731994772,-118.80456,Point Dume,1.9725,0.18561944444444445,0.4895361111111111,15,15,"CLEAR,NIGHT_CLEAR,NIGHT_CLEAR,NIGHT_CLEAR,NIGHT_CLEAR,NIGHT_CLEAR,NIGHT_CLEAR,NIGHT_CLEAR,CLEAR,CLEAR,MIST,MIST","Cross-shore,Offshore,Offshore,Cross-shore,Cross-shore,Cross-shore,Cross-shore,Cross-shore,Cross-shore,Cross-shore,Onshore,Onshore",12
5842041f4e65fad6a7708937,2024_02_13,34.02587527588963,-118.7554939066114,Latigo Point,2,0.20500000000000002,0.5108333333333334,15,15,"CLEAR,NIGHT_CLEAR,NIGHT_CLEAR,NIGHT_CLEAR,NIGHT_CLEAR,NIGHT_CLEAR,NIGHT_CLEAR,NIGHT_CLEAR,CLEAR,CLEAR,CLEAR,MIST","Cross-shore,Offshore,Offshore,Offshore,Cross-shore,Cross-shore,Offshore,Offshore,Offshore,Offshore,Onshore,Onshore",12
5842041f4e65fad6a770893f,2024_02_13,34.043762,-118.93294,Leo Carrillo,2.3608333333333333,0.42986388888888893,0.7333638888888889,15,15,"CLEAR,NIGHT_CLEAR,NIGHT_CLEAR,NIGHT_CLEAR,NIGHT_CLEAR,NIGHT_CLEAR,NIGHT_CLEAR,NIGHT_CLEAR,CLEAR,CLEAR,CLEAR,MIST","Cross-shore,Offshore,Offshore,Offshore,Offshore,Offshore,Offshore,Offshore,Offshore,Offshore,Onshore,Onshore",12
5842041f4e65fad6a7708941,2024_02_13,36.69388179265737,-121.81289,Marina State Beach,3.4166666666666665,1.4641666666666666,1.7341666666666666,13,13,"CLEAR,NIGHT_MIST,NIGHT_MOSTLY_CLOUDY,NIGHT_CLEAR,NIGHT_MOSTLY_CLEAR,NIGHT_CLEAR,NIGHT_MIST,NIGHT_MIST,MIST,CLEAR,CLEAR,CLEAR","Onshore,Cross-shore,Cross-shore,Offshore,Offshore,Offshore,Offshore,Offshore,Offshore,Offshore,Onshore,Onshore",12
5842041f4e65fad6a7708944,2024_02_13,34.34145077331085,-119.416999352654,Stanley's,2,0.105,0.4091666666666667,14.416666666666666,14.416666666666666,"CLEAR,NIGHT_CLEAR,NIGHT_CLEAR,NIGHT_CLEAR,NIGHT_CLEAR,NIGHT_CLEAR,NIGHT_CLEAR,NIGHT_CLEAR,CLEAR,CLEAR,CLEAR,CLEAR","Onshore,Offshore,Offshore,Offshore,Offshore,Offshore,Offshore,Cross-shore,Offshore,Offshore,Onshore,Onshore",12
5842041f4e65fad6a7708945,2024_02_13,34.35113017313915,-119.426921498899,Oil Piers,2,0.11583333333333333,0.41916666666666663,14.416666666666666,14.416666666666666,"CLEAR,NIGHT_CLEAR,NIGHT_CLEAR,NIGHT_CLEAR,NIGHT_CLEAR,NIGHT_CLEAR,NIGHT_CLEAR,NIGHT_CLEAR,CLEAR,CLEAR,CLEAR,CLEAR","Onshore,Offshore,Offshore,Offshore,Offshore,Offshore,Offshore,Offshore,Offshore,Offshore,Onshore,Onshore",12
5842041f4e65fad6a770894c,2024_02_13,34.17876333306018,-119.2399483564372,Oxnard,2.75,0.44666666666666666,0.7525,14.416666666666666,14.416666666666666,"CLEAR,NIGHT_MOSTLY_CLOUDY,NIGHT_MIST,NIGHT_MIST,NIGHT_CLEAR,NIGHT_MIST,NIGHT_CLEAR,NIGHT_CLEAR,MIST,CLEAR,CLEAR,CLEAR","Onshore,Offshore,Offshore,Offshore,Offshore,Offshore,Offshore,Offshore,Offshore,Offshore,Onshore,Onshore",12
5842041f4e65fad6a7708957,2024_02_13,34.31720331100517,-119.3882324751725,Pitas Point,2,0.13166666666666668,0.43583333333333335,14.416666666666666,14.416666666666666,"CLEAR,NIGHT_MOSTLY_CLEAR,NIGHT_CLEAR,NIGHT_CLEAR,NIGHT_CLEAR,NIGHT_CLEAR,NIGHT_CLEAR,NIGHT_CLEAR,CLEAR,CLEAR,CLEAR,CLEAR","Cross-shore,Offshore,Offshore,Offshore,Offshore,Offshore,Offshore,Offshore,Offshore,Offshore,Onshore,Onshore",12
5842041f4e65fad6a7708959,2024_02_13,34.27851754384724,-119.316202617226,Emma Wood,1.9166666666666667,0.1325,0.44083333333333335,14.416666666666666,14.416666666666666,"CLEAR,NIGHT_MOSTLY_CLEAR,NIGHT_MOSTLY_CLEAR,NIGHT_CLEAR,NIGHT_CLEAR,NIGHT_CLEAR,NIGHT_CLEAR,NIGHT_CLEAR,CLEAR,CLEAR,CLEAR,CLEAR","Onshore,Offshore,Offshore,Offshore,Offshore,Offshore,Offshore,Offshore,Offshore,Offshore,Onshore,Offshore",12
5842041f4e65fad6a770895a,2024_02_13,34.35513640390276,-119.4400589884255,Mussel Shoals (aka Little Rincon),2,0.16916666666666666,0.4716666666666667,14.416666666666666,14.416666666666666,"CLEAR,NIGHT_CLEAR,NIGHT_CLEAR,NIGHT_CLEAR,NIGHT_CLEAR,NIGHT_CLEAR,NIGHT_CLEAR,NIGHT_CLEAR,CLEAR,CLEAR,CLEAR,CLEAR","Cross-shore,Cross-shore,Cross-shore,Cross-shore,Cross-shore,Offshore,Offshore,Cross-shore,Offshore,Cross-shore,Onshore,Onshore",12
5842041f4e65fad6a770895e,2024_02_13,34.28991757054902,-119.3366646794652,Summer Beach,1.9166666666666667,0.10416666666666667,0.4091666666666667,15,15,"CLEAR,NIGHT_MOSTLY_CLEAR,NIGHT_MOSTLY_CLEAR,NIGHT_CLEAR,NIGHT_CLEAR,NIGHT_CLEAR,NIGHT_CLEAR,NIGHT_CLEAR,CLEAR,CLEAR,CLEAR,CLEAR","Onshore,Offshore,Offshore,Offshore,Offshore,Offshore,Offshore,Offshore,Offshore,Offshore,Onshore,Offshore",12
5842041f4e65fad6a770895f,2024_02_13,34.30897456105926,-119.3582501170116,Solimar,2,0.0875,0.39166666666666666,14.416666666666666,14.416666666666666,"CLEAR,NIGHT_MOSTLY_CLEAR,NIGHT_CLEAR,NIGHT_CLEAR,NIGHT_CLEAR,NIGHT_CLEAR,NIGHT_CLEAR,NIGHT_CLEAR,CLEAR,CLEAR,CLEAR,CLEAR","Cross-shore,Offshore,Offshore,Offshore,Offshore,Offshore,Offshore,Cross-shore,Offshore,Offshore,Onshore,Onshore",12
5842041f4e65fad6a7708960,2024_02_13,34.39836265281686,-119.70213,Leadbetter Point,1,0,0.21583333333333335,14.416666666666666,14.416666666666666,"CLEAR,NIGHT_CLEAR,NIGHT_CLEAR,NIGHT_CLEAR,NIGHT_CLEAR,NIGHT_CLEAR,NIGHT_CLEAR,NIGHT_CLEAR,CLEAR,CLEAR,CLEAR,CLEAR","Cross-shore,Offshore,Offshore,Cross-shore,Offshore,Offshore,Offshore,Offshore,Offshore,Offshore,Onshore,Cross-shore",12
5842041f4e65fad6a7708961,2024_02_13,34.46052293893899,-120.07328,Refugio,1.25,0.0016666666666666668,0.2891666666666667,14,14,"CLEAR,NIGHT_CLEAR,NIGHT_CLEAR,NIGHT_CLEAR,NIGHT_CLEAR,NIGHT_CLEAR,NIGHT_CLEAR,NIGHT_CLEAR,CLEAR,CLEAR,CLEAR,CLEAR","Cross-shore,Offshore,Offshore,Offshore,Offshore,Offshore,Cross-shore,Cross-shore,Onshore,Onshore,Onshore,Cross-shore",12
5842041f4e65fad6a7708962,2024_02_13,34.40754276777778,-119.87639,Devereux,2,0.1675,0.47250000000000003,14,14,"CLEAR,NIGHT_CLEAR,NIGHT_CLEAR,NIGHT_CLEAR,NIGHT_CLEAR,NIGHT_CLEAR,NIGHT_CLEAR,NIGHT_CLEAR,CLEAR,CLEAR,CLEAR,CLEAR","Cross-shore,Offshore,Offshore,Offshore,Offshore,Offshore,Offshore,Offshore,Cross-shore,Cross-shore,Onshore,Onshore",12
5842041f4e65fad6a7708963,2024_02_13,34.27479983305182,-119.3133222656776,Ventura Overhead,1.9166666666666667,0.15916666666666668,0.4625,14.416666666666666,14.416666666666666,"CLEAR,NIGHT_MOSTLY_CLEAR,NIGHT_MOSTLY_CLEAR,NIGHT_CLEAR,NIGHT_CLEAR,NIGHT_CLEAR,NIGHT_CLEAR,NIGHT_CLEAR,CLEAR,CLEAR,CLEAR,CLEAR","Onshore,Cross-shore,Offshore,Offshore,Offshore,Offshore,Offshore,Offshore,Offshore,Offshore,Onshore,Offshore",12
5842041f4e65fad6a7708964,2024_02_13,34.41023236011655,-119.88261,Sands,2,0.16833333333333333,0.47333333333333333,14,14,"CLEAR,NIGHT_CLEAR,NIGHT_CLEAR,NIGHT_CLEAR,NIGHT_CLEAR,NIGHT_CLEAR,NIGHT_CLEAR,NIGHT_CLEAR,CLEAR,CLEAR,CLEAR,CLEAR","Onshore,Offshore,Offshore,Offshore,Offshore,Offshore,Offshore,Offshore,Offshore,Offshore,Cross-shore,Onshore",12
5842041f4e65fad6a7708966,2024_02_13,34.40450193869233,-119.68752,Sandspit,0.75,0,0.14583333333333334,14.416666666666666,14.416666666666666,"CLEAR,NIGHT_CLEAR,NIGHT_CLEAR,NIGHT_CLEAR,NIGHT_CLEAR,NIGHT_CLEAR,NIGHT_CLEAR,NIGHT_CLEAR,CLEAR,CLEAR,CLEAR,CLEAR","Cross-shore,Offshore,Offshore,Offshore,Offshore,Offshore,Offshore,Offshore,Offshore,Offshore,Onshore,Cross-shore",12
5842041f4e65fad6a7708967,2024_02_13,34.41549098334453,-119.6375149840203,Hammond's,1,0,0.15666666666666668,14,14,"CLEAR,NIGHT_CLEAR,NIGHT_CLEAR,NIGHT_CLEAR,NIGHT_CLEAR,NIGHT_CLEAR,NIGHT_CLEAR,NIGHT_CLEAR,CLEAR,CLEAR,CLEAR,CLEAR","Cross-shore,Offshore,Offshore,Cross-shore,Offshore,Cross-shore,Offshore,Offshore,Offshore,Cross-shore,Onshore,Onshore",12
5842041f4e65fad6a7708968,2024_02_13,34.45759322742309,-120.0220251867315,El Capitan,1.75,0.02,0.32333333333333336,14,14,"CLEAR,NIGHT_CLEAR,NIGHT_CLEAR,NIGHT_CLEAR,NIGHT_CLEAR,NIGHT_CLEAR,NIGHT_CLEAR,NIGHT_CLEAR,CLEAR,CLEAR,CLEAR,CLEAR","Cross-shore,Offshore,Offshore,Offshore,Offshore,Offshore,Offshore,Cross-shore,Cross-shore,Cross-shore,Onshore,Onshore",12
5842041f4e65fad6a770896c,2024_02_13,34.405117655616,-119.84317,Campus Point,1,0,0.26083333333333336,14,14,"CLEAR,NIGHT_CLEAR,NIGHT_CLEAR,NIGHT_CLEAR,NIGHT_CLEAR,NIGHT_CLEAR,NIGHT_CLEAR,NIGHT_CLEAR,CLEAR,CLEAR,CLEAR,CLEAR","Cross-shore,Offshore,Offshore,Offshore,Offshore,Offshore,Offshore,Offshore,Cross-shore,Cross-shore,Onshore,Onshore",12
5842041f4e65fad6a770896e,2024_02_13,34.38935162233354,-119.51955,Carpinteria State Beach,2,0.051666666666666666,0.3566666666666667,15,15,"CLEAR,NIGHT_CLEAR,NIGHT_CLEAR,NIGHT_CLEAR,NIGHT_CLEAR,NIGHT_CLEAR,NIGHT_CLEAR,NIGHT_CLEAR,CLEAR,CLEAR,CLEAR,CLEAR","Onshore,Offshore,Offshore,Offshore,Offshore,Offshore,Offshore,Offshore,Offshore,Offshore,Onshore,Onshore",12
5842041f4e65fad6a770896f,2024_02_13,37.48296565175612,-122.4549300127824,Half Moon Bay,3,0.8491666666666667,1.0891666666666666,13,13,"CLEAR,NIGHT_CLEAR,NIGHT_CLEAR,NIGHT_CLEAR,NIGHT_CLEAR,NIGHT_CLEAR,NIGHT_CLEAR,NIGHT_CLEAR,NIGHT_CLEAR,MOSTLY_CLOUDY,MIST,MIST","Onshore,Offshore,Offshore,Offshore,Offshore,Offshore,Cross-shore,Cross-shore,Offshore,Cross-shore,Onshore,Onshore",12
5842041f4e65fad6a7708970,2024_02_13,37.499,-122.471,Princeton Jetty,3.0833333333333335,0.995,1.215,13,13,"CLEAR,NIGHT_CLEAR,NIGHT_CLEAR,NIGHT_CLEAR,NIGHT_CLEAR,NIGHT_CLEAR,NIGHT_CLEAR,NIGHT_CLEAR,NIGHT_CLEAR,MIST,MIST,MIST","Cross-shore,Offshore,Offshore,Offshore,Offshore,Offshore,Offshore,Cross-shore,Offshore,Cross-shore,Onshore,Onshore",12
5842041f4e65fad6a7708972,2024_02_13,37.35699547365155,-122.4069534707252,Tunitas Creek,3,1.74,2.0366666666666666,13,13,"CLEAR,NIGHT_CLEAR,NIGHT_CLEAR,NIGHT_CLEAR,NIGHT_CLEAR,NIGHT_CLOUDY,NIGHT_MOSTLY_CLOUDY,NIGHT_MOSTLY_CLOUDY,NIGHT_MOSTLY_CLOUDY,MOSTLY_CLOUDY,MIST,MIST","Cross-shore,Offshore,Offshore,Cross-shore,Cross-shore,Cross-shore,Cross-shore,Cross-shore,Offshore,Offshore,Onshore,Onshore",12
5842041f4e65fad6a7708974,2024_02_13,37.54735589428842,-122.5161090212687,Montara,3.0833333333333335,1.3316666666666668,1.5816666666666666,13,13,"MIST,NIGHT_MIST,NIGHT_CLEAR,NIGHT_BRIEF_SHOWERS,NIGHT_MOSTLY_CLOUDY,NIGHT_OVERCAST,NIGHT_CLOUDY,NIGHT_MOSTLY_CLOUDY,NIGHT_MOSTLY_CLOUDY,DRIZZLE,CLOUDY,MIST","Onshore,Cross-shore,Cross-shore,Onshore,Cross-shore,Cross-shore,Onshore,Onshore,Cross-shore,Onshore,Onshore,Onshore",12
5842041f4e65fad6a7708975,2024_02_13,34.3869373724559,-119.5142334209018,Tarpits,2,0.03833333333333333,0.3441666666666667,15,15,"CLEAR,NIGHT_CLEAR,NIGHT_CLEAR,NIGHT_CLEAR,NIGHT_CLEAR,NIGHT_CLEAR,NIGHT_CLEAR,NIGHT_CLEAR,CLEAR,CLEAR,CLEAR,CLEAR","Cross-shore,Offshore,Offshore,Offshore,Offshore,Offshore,Offshore,Cross-shore,Offshore,Cross-shore,Onshore,Onshore",12
5842041f4e65fad6a7708976,2024_02_13,37.59881852720143,-122.50463,Pacifica / Linda Mar,2.8333333333333335,0.46121666666666666,0.7770694444444445,14,14,"MIST,NIGHT_CLEAR,NIGHT_CLEAR,NIGHT_MOSTLY_CLOUDY,NIGHT_MOSTLY_CLOUDY,NIGHT_OVERCAST,NIGHT_OVERCAST,NIGHT_BRIEF_SHOWERS,NIGHT_MIST,MIST,CLOUDY,BRIEF_SHOWERS","Onshore,Cross-shore,Offshore,Onshore,Onshore,Onshore,Onshore,Onshore,Onshore,Onshore,Onshore,Onshore",12
5842041f4e65fad6a7708978,2024_02_13,37.59883098461164,-122.5143843582282,Pedro Point,3.1666666666666665,1.2983333333333333,1.5325,12.416666666666666,12.416666666666666,"MOSTLY_CLOUDY,NIGHT_CLEAR,NIGHT_CLEAR,NIGHT_MOSTLY_CLOUDY,NIGHT_MOSTLY_CLOUDY,NIGHT_OVERCAST,NIGHT_OVERCAST,NIGHT_MOSTLY_CLOUDY,NIGHT_MOSTLY_CLOUDY,DRIZZLE,OVERCAST,MIST","Onshore,Cross-shore,Cross-shore,Onshore,Onshore,Onshore,Onshore,Onshore,Onshore,Onshore,Cross-shore,Cross-shore",12
5842041f4e65fad6a7708979,2024_02_13,37.61081996647663,-122.4973287570634,Rockaway,3,1.285,1.5408333333333333,12.416666666666666,12.416666666666666,"MIST,NIGHT_CLEAR,NIGHT_CLEAR,NIGHT_MOSTLY_CLOUDY,NIGHT_MOSTLY_CLOUDY,NIGHT_OVERCAST,NIGHT_OVERCAST,NIGHT_BRIEF_SHOWERS,NIGHT_MIST,MIST,CLOUDY,BRIEF_SHOWERS","Onshore,Offshore,Offshore,Onshore,Onshore,Onshore,Onshore,Onshore,Onshore,Onshore,Onshore,Onshore",12
5842041f4e65fad6a770897a,2024_02_13,37.809987384424446,-122.4751353263855,Fort Point,2.9166666666666665,0.7058333333333333,0.9925,12.416666666666666,12.416666666666666,"MIST,NIGHT_CLEAR,NIGHT_CLEAR,NIGHT_CLEAR,NIGHT_MIST,NIGHT_MIST,NIGHT_MIST,NIGHT_MIST,NIGHT_MOSTLY_CLOUDY,MOSTLY_CLOUDY,CLOUDY,MIST","Cross-shore,Onshore,Cross-shore,Onshore,Onshore,Onshore,Onshore,Cross-shore,Cross-shore,Cross-shore,Onshore,Onshore",12
5842041f4e65fad6a770897c,2024_02_13,37.63422542967464,-122.4951,Sharp Park,3,1.4025,1.6824999999999999,12.416666666666666,12.416666666666666,"MIST,NIGHT_CLEAR,NIGHT_CLEAR,NIGHT_MIST,NIGHT_MOSTLY_CLOUDY,NIGHT_OVERCAST,NIGHT_OVERCAST,NIGHT_MIST,NIGHT_MIST,DRIZZLE,DRIZZLE,BRIEF_SHOWERS","Onshore,Offshore,Cross-shore,Onshore,Onshore,Onshore,Onshore,Onshore,Onshore,Onshore,Onshore,Onshore",12
5842041f4e65fad6a770897d,2024_02_13,37.27313605072472,-122.4127387912554,Pescadero,3,1.6941666666666666,1.9841666666666666,13,13,"CLEAR,NIGHT_MIST,NIGHT_CLEAR,NIGHT_CLEAR,NIGHT_CLEAR,NIGHT_MIST,NIGHT_BRIEF_SHOWERS,NIGHT_MIST,NIGHT_MIST,MOSTLY_CLOUDY,BRIEF_SHOWERS,BRIEF_SHOWERS","Onshore,Cross-shore,Cross-shore,Offshore,Offshore,Offshore,Cross-shore,Cross-shore,Offshore,Offshore,Cross-shore,Onshore",12
5842041f4e65fad6a770897e,2024_02_13,37.18140279972666,-122.3926685899327,Pigeon Point,4,1.6266666666666667,1.9116666666666666,13,13,"CLEAR,NIGHT_CLEAR,NIGHT_CLEAR,NIGHT_CLEAR,NIGHT_CLEAR,NIGHT_CLEAR,NIGHT_CLEAR,NIGHT_CLEAR,NIGHT_MIST,MOSTLY_CLOUDY,MIST,BRIEF_SHOWERS","Offshore,Offshore,Offshore,Offshore,Offshore,Offshore,Offshore,Offshore,Offshore,Offshore,Offshore,Offshore",12
5842041f4e65fad6a770897f,2024_02_13,37.11578956919415,-122.314699271291,Ano Nuevo,4,1.2941666666666667,1.5633333333333332,13,13,"MOSTLY_CLOUDY,NIGHT_CLEAR,NIGHT_CLEAR,NIGHT_CLEAR,NIGHT_CLEAR,NIGHT_CLEAR,NIGHT_CLEAR,NIGHT_CLEAR,CLEAR,CLEAR,MIST,MIST","Offshore,Offshore,Offshore,Cross-shore,Offshore,Offshore,Offshore,Offshore,Offshore,Offshore,Offshore,Offshore",12
5842041f4e65fad6a7708980,2024_02_13,37.09520872681598,-122.2805474707768,Waddell Creek,3.75,1.3175,1.59,13,13,"MOSTLY_CLEAR,NIGHT_CLEAR,NIGHT_CLEAR,NIGHT_CLEAR,NIGHT_CLEAR,NIGHT_CLEAR,NIGHT_CLEAR,NIGHT_CLEAR,CLEAR,CLEAR,CLEAR,CLEAR","Cross-shore,Offshore,Offshore,Offshore,Offshore,Offshore,Offshore,Offshore,Offshore,Offshore,Cross-shore,Cross-shore",12
5842041f4e65fad6a7708981,2024_02_13,36.96512852130351,-122.1252825495626,Four Mile,3.8333333333333335,1.3425,1.6091666666666666,13,13,"MIST,NIGHT_CLEAR,NIGHT_CLEAR,NIGHT_CLEAR,NIGHT_CLEAR,NIGHT_CLEAR,NIGHT_MOSTLY_CLOUDY,NIGHT_MIST,MIST,CLEAR,CLEAR,MIST","Offshore,Cross-shore,Offshore,Cross-shore,Offshore,Cross-shore,Cross-shore,Cross-shore,Offshore,Offshore,Cross-shore,Cross-shore",12
5842041f4e65fad6a7708982,2024_02_13,37.04122807048655,-122.2333684729756,Scott Creek,3.0833333333333335,1.3483333333333334,1.6308333333333334,13,13,"MIST,NIGHT_CLEAR,NIGHT_CLEAR,NIGHT_CLEAR,NIGHT_CLEAR,NIGHT_CLOUDY,NIGHT_MOSTLY_CLOUDY,NIGHT_CLEAR,CLEAR,CLEAR,CLEAR,CLEAR","Cross-shore,Offshore,Offshore,Offshore,Onshore,Onshore,Offshore,Offshore,Offshore,Offshore,Cross-shore,Cross-shore",12
5842041f4e65fad6a7708983,2024_02_13,37.02350229387179,-122.21908,Davenport,3.8333333333333335,1.4341666666666666,1.715,13,13,"MIST,NIGHT_CLEAR,NIGHT_CLEAR,NIGHT_CLEAR,NIGHT_CLEAR,NIGHT_CLOUDY,NIGHT_MOSTLY_CLOUDY,NIGHT_CLEAR,CLEAR,CLEAR,MIST,MIST","Cross-shore,Offshore,Offshore,Cross-shore,Onshore,Onshore,Cross-shore,Offshore,Offshore,Offshore,Cross-shore,Cross-shore",12
5842041f4e65fad6a7708986,2024_02_13,36.94905295955728,-122.0611823912244,Natural Bridges,3.0833333333333335,1.1341666666666668,1.3825,13,13,"CLEAR,NIGHT_MIST,NIGHT_FOG,NIGHT_MIST,NIGHT_MOSTLY_CLOUDY,NIGHT_MOSTLY_CLOUDY,NIGHT_CLOUDY,NIGHT_MIST,MOSTLY_CLEAR,CLEAR,CLEAR,CLEAR","Cross-shore,Offshore,Offshore,Offshore,Offshore,Offshore,Cross-shore,Cross-shore,Cross-shore,Offshore,Onshore,Onshore",12
5842041f4e65fad6a7708987,2024_02_13,36.95154854910425,-122.0420693940968,Mitchell's Cove,3.0833333333333335,0.7858333333333334,1.0566666666666666,13,13,"CLEAR,NIGHT_MIST,NIGHT_FOG,NIGHT_MOSTLY_CLOUDY,NIGHT_MOSTLY_CLOUDY,NIGHT_MOSTLY_CLOUDY,NIGHT_MIST,NIGHT_MIST,CLEAR,CLEAR,MOSTLY_CLEAR,CLEAR","Cross-shore,Cross-shore,Cross-shore,Cross-shore,Offshore,Offshore,Offshore,Offshore,Offshore,Offshore,Onshore,Onshore",12
5842041f4e65fad6a770898a,2024_02_13,36.9572312370203,-121.98177,26th Ave,3.6666666666666665,1.2008333333333332,1.4525,13,13,"CLEAR,NIGHT_MIST,NIGHT_FOG,NIGHT_MOSTLY_CLEAR,NIGHT_MOSTLY_CLEAR,NIGHT_MOSTLY_CLOUDY,NIGHT_CLEAR,NIGHT_CLEAR,CLEAR,CLEAR,MOSTLY_CLEAR,CLEAR","Onshore,Offshore,Cross-shore,Offshore,Cross-shore,Cross-shore,Cross-shore,Cross-shore,Offshore,Offshore,Onshore,Onshore",12
5842041f4e65fad6a770898e,2024_02_13,36.91899972819882,-121.85536,Manresa,3.4166666666666665,1.225,1.4775,13,13,"MIST,NIGHT_MIST,NIGHT_MOSTLY_CLOUDY,NIGHT_MIST,NIGHT_MIST,NIGHT_MOSTLY_CLEAR,NIGHT_CLOUDY,NIGHT_MOSTLY_CLOUDY,MOSTLY_CLOUDY,CLEAR,CLEAR,CLEAR","Onshore,Cross-shore,Cross-shore,Offshore,Offshore,Offshore,Offshore,Onshore,Onshore,Cross-shore,Onshore,Onshore",12
5842041f4e65fad6a7708990,2024_02_13,34.45747731928454,-120.34242,The Ranch,1.6666666666666667,0.26916666666666667,0.5741666666666667,14,14,"CLEAR,NIGHT_CLEAR,NIGHT_CLEAR,NIGHT_CLEAR,NIGHT_CLEAR,NIGHT_CLEAR,NIGHT_CLEAR,NIGHT_CLEAR,CLEAR,CLEAR,CLEAR,CLEAR","Cross-shore,Offshore,Offshore,Offshore,Offshore,Offshore,Offshore,Offshore,Offshore,Offshore,Onshore,Cross-shore",12
5842041f4e65fad6a7708991,2024_02_13,34.50875036590315,-120.50348,Jalama,2.8333333333333335,0.9641666666666666,1.18,14,14,"CLEAR,NIGHT_CLEAR,NIGHT_CLEAR,NIGHT_CLEAR,NIGHT_CLEAR,NIGHT_CLEAR,NIGHT_CLEAR,NIGHT_CLEAR,CLEAR,CLEAR,CLEAR,CLEAR","Onshore,Offshore,Offshore,Offshore,Offshore,Offshore,Offshore,Offshore,Offshore,Offshore,Cross-shore,Cross-shore",12
5842041f4e65fad6a7708996,2024_02_13,34.68700870220497,-120.6111611019887,Surf Beach,3,2.0341666666666667,2.415,14,14,"MIST,NIGHT_MIST,NIGHT_MIST,NIGHT_MIST,NIGHT_DRIZZLE,NIGHT_MIST,NIGHT_MIST,NIGHT_MIST,MIST,MIST,MIST,MIST","Onshore,Onshore,Cross-shore,Onshore,Cross-shore,Onshore,Onshore,Onshore,Onshore,Offshore,Onshore,Onshore",12
5842041f4e65fad6a770899c,2024_02_13,35.5730538161116,-121.1143362345574,Moonstone,3.6666666666666665,1.4483333333333333,1.7458333333333333,14,14,"CLEAR,NIGHT_CLEAR,NIGHT_CLEAR,NIGHT_CLEAR,NIGHT_CLEAR,NIGHT_CLEAR,NIGHT_CLEAR,NIGHT_CLEAR,CLEAR,CLEAR,CLEAR,CLEAR","Onshore,Offshore,Offshore,Offshore,Offshore,Offshore,Offshore,Offshore,Offshore,Onshore,Onshore,Onshore",12
5842041f4e65fad6a770899d,2024_02_13,35.61533716776573,-121.1502053073914,Pico Creek,2.8333333333333335,1.0883333333333334,1.3441666666666667,14,14,"CLEAR,NIGHT_CLEAR,NIGHT_CLEAR,NIGHT_CLEAR,NIGHT_CLEAR,NIGHT_CLEAR,NIGHT_CLEAR,NIGHT_CLEAR,CLEAR,CLEAR,CLEAR,CLEAR","Onshore,Offshore,Offshore,Offshore,Offshore,Offshore,Cross-shore,Offshore,Offshore,Onshore,Onshore,Onshore",12
5842041f4e65fad6a770899e,2024_02_13,35.56829031927379,-121.1120653023953,Santa Rosa Creek,3.6666666666666665,1.4483333333333333,1.7458333333333333,14,14,"MIST,NIGHT_CLEAR,NIGHT_CLEAR,NIGHT_CLEAR,NIGHT_CLEAR,NIGHT_CLEAR,NIGHT_CLEAR,NIGHT_CLEAR,CLEAR,CLEAR,CLEAR,CLEAR","Onshore,Offshore,Offshore,Offshore,Offshore,Offshore,Offshore,Offshore,Offshore,Offshore,Onshore,Onshore",12
5842041f4e65fad6a77089a2,2024_02_13,35.44820114936284,-120.90715,"Cayucos Pier, Southside ",2.5,0.565,0.8675,14,14,"CLEAR,NIGHT_CLEAR,NIGHT_CLEAR,NIGHT_CLEAR,NIGHT_CLEAR,NIGHT_CLEAR,NIGHT_CLEAR,NIGHT_CLEAR,CLEAR,CLEAR,CLEAR,CLEAR","Onshore,Offshore,Offshore,Offshore,Offshore,Offshore,Offshore,Offshore,Offshore,Offshore,Onshore,Onshore",12
5842041f4e65fad6a77089a4,2024_02_13,35.30143372628852,-120.877819239902,Cable Landing,3.4166666666666665,2.0825,2.4791666666666665,14,14,"BRIEF_SHOWERS,NIGHT_MOSTLY_CLOUDY,NIGHT_CLEAR,NIGHT_CLEAR,NIGHT_CLEAR,NIGHT_CLEAR,NIGHT_CLEAR,NIGHT_CLEAR,CLEAR,CLEAR,MIST,MIST","Onshore,Offshore,Offshore,Offshore,Offshore,Offshore,Offshore,Offshore,Offshore,Offshore,Onshore,Onshore",12
5842041f4e65fad6a77089a9,2024_02_13,35.61269103500222,-121.1480725356606,San Simeon,2.9166666666666665,0.7880833333333334,0.9654166666666666,14,14,"CLEAR,NIGHT_CLEAR,NIGHT_CLEAR,NIGHT_CLEAR,NIGHT_CLEAR,NIGHT_CLEAR,NIGHT_CLEAR,NIGHT_CLEAR,CLEAR,CLEAR,CLEAR,CLEAR","Onshore,Offshore,Offshore,Offshore,Offshore,Offshore,Offshore,Offshore,Offshore,Onshore,Onshore,Onshore",12
5842041f4e65fad6a77089ab,2024_02_13,35.1775325966252,-120.7341125142258,Avila Beach,2,0.07583333333333334,0.38083333333333336,14,14,"CLEAR,NIGHT_CLEAR,NIGHT_CLEAR,NIGHT_CLEAR,NIGHT_CLEAR,NIGHT_CLEAR,NIGHT_CLEAR,NIGHT_CLEAR,CLEAR,CLEAR,CLEAR,CLEAR","Onshore,Offshore,Offshore,Offshore,Offshore,Offshore,Offshore,Offshore,Cross-shore,Offshore,Onshore,Onshore",12
5842041f4e65fad6a77089ac,2024_02_13,35.13877877884115,-120.64535,Pismo Beach Pier,3,1.0877305555555554,1.416397222222222,14,14,"CLEAR,NIGHT_MIST,NIGHT_MIST,NIGHT_CLEAR,NIGHT_CLEAR,NIGHT_CLEAR,NIGHT_CLEAR,NIGHT_CLEAR,CLEAR,CLEAR,CLEAR,CLEAR","Cross-shore,Cross-shore,Cross-shore,Cross-shore,Cross-shore,Cross-shore,Cross-shore,Cross-shore,Cross-shore,Cross-shore,Cross-shore,Cross-shore",12
5842041f4e65fad6a77089ad,2024_02_13,46.8907710233147,-124.12964,Westport/Olympic Peninsula,3.75,1.3491666666666666,1.6,10.416666666666666,10.416666666666666,"MOSTLY_CLOUDY,NIGHT_MOSTLY_CLOUDY,NIGHT_MOSTLY_CLOUDY,NIGHT_MOSTLY_CLEAR,NIGHT_CLEAR,NIGHT_CLEAR,NIGHT_MOSTLY_CLOUDY,NIGHT_MOSTLY_CLOUDY,NIGHT_CLEAR,CLEAR,MOSTLY_CLOUDY,CLEAR","Cross-shore,Offshore,Offshore,Offshore,Offshore,Offshore,Offshore,Offshore,Offshore,Offshore,Offshore,Offshore",12
5842041f4e65fad6a77089ae,2024_02_13,46.35185177248545,-124.06747,Long Beach Peninsula,3.8333333333333335,1.9916666666666667,2.2316666666666665,10,10,"CLEAR,NIGHT_CLEAR,NIGHT_CLEAR,NIGHT_CLEAR,NIGHT_CLEAR,NIGHT_CLEAR,NIGHT_CLEAR,NIGHT_CLEAR,NIGHT_CLEAR,CLEAR,CLEAR,CLEAR","Onshore,Offshore,Offshore,Offshore,Offshore,Offshore,Offshore,Offshore,Offshore,Offshore,Offshore,Offshore",12
5842041f4e65fad6a77089af,2024_02_13,47.90649175554033,-124.6370864743483,La Push,3.8333333333333335,1.5941666666666667,1.8316666666666666,10,10,"MOSTLY_CLOUDY,NIGHT_FOG,NIGHT_MOSTLY_CLOUDY,NIGHT_MOSTLY_CLEAR,NIGHT_MOSTLY_CLEAR,NIGHT_MOSTLY_CLEAR,NIGHT_CLEAR,NIGHT_CLEAR,NIGHT_CLEAR,MOSTLY_CLOUDY,CLEAR,MOSTLY_CLEAR","Onshore,Cross-shore,Cross-shore,Offshore,Offshore,Offshore,Offshore,Offshore,Offshore,Offshore,Offshore,Offshore",12
5842041f4e65fad6a77089b0,2024_02_13,42.04368239985442,-124.26828,Brookings Jetty,3,0.8229299999999999,1.2858291666666666,12,12,"CLEAR,NIGHT_CLEAR,NIGHT_CLEAR,NIGHT_CLEAR,NIGHT_MOSTLY_CLEAR,NIGHT_MOSTLY_CLOUDY,NIGHT_MIST,NIGHT_MOSTLY_CLOUDY,NIGHT_CLEAR,CLEAR,CLEAR,MOSTLY_CLOUDY","Onshore,Offshore,Offshore,Cross-shore,Onshore,Onshore,Onshore,Onshore,Onshore,Offshore,Onshore,Onshore",12
5842041f4e65fad6a77089b1,2024_02_13,42.74071837900346,-124.4983727491047,Port Orford,3,0.95,1.2,11.583333333333334,11.583333333333334,"CLEAR,NIGHT_MOSTLY_CLOUDY,NIGHT_MOSTLY_CLOUDY,NIGHT_FOG,NIGHT_FOG,NIGHT_MOSTLY_CLEAR,NIGHT_FOG,NIGHT_CLEAR,NIGHT_MOSTLY_CLOUDY,SHOWERS,MIST,MIST","Offshore,Onshore,Onshore,Onshore,Onshore,Onshore,Onshore,Onshore,Onshore,Cross-shore,Cross-shore,Cross-shore",12
5842041f4e65fad6a77089b2,2024_02_13,44.01532689312291,-124.13865,Florence South Jetty,3.1666666666666665,1.9175,2.1658333333333335,11,11,"CLEAR,NIGHT_CLEAR,NIGHT_CLEAR,NIGHT_CLEAR,NIGHT_CLEAR,NIGHT_CLEAR,NIGHT_CLEAR,NIGHT_CLEAR,NIGHT_CLEAR,CLEAR,CLEAR,CLEAR","Cross-shore,Offshore,Offshore,Offshore,Offshore,Offshore,Offshore,Offshore,Offshore,Offshore,Offshore,Cross-shore",12
5842041f4e65fad6a77089b3,2024_02_13,42.41812540774362,-124.42945,Gold Beach South Jetty,3,1.35,1.6158333333333332,11.583333333333334,11.583333333333334,"CLEAR,NIGHT_CLEAR,NIGHT_MOSTLY_CLEAR,NIGHT_MOSTLY_CLOUDY,NIGHT_MOSTLY_CLOUDY,NIGHT_MOSTLY_CLOUDY,NIGHT_MIST,NIGHT_MIST,NIGHT_MIST,CLEAR,MIST,MIST","Offshore,Onshore,Onshore,Onshore,Onshore,Onshore,Onshore,Onshore,Onshore,Offshore,Cross-shore,Cross-shore",12
5842041f4e65fad6a77089b4,2024_02_13,44.95857310226525,-124.0219017690976,Lincoln City,3.75,1.9633333333333334,2.194166666666667,11,11,"MOSTLY_CLOUDY,NIGHT_MOSTLY_CLEAR,NIGHT_CLEAR,NIGHT_CLEAR,NIGHT_CLEAR,NIGHT_CLEAR,NIGHT_CLEAR,NIGHT_CLEAR,NIGHT_CLEAR,CLEAR,CLEAR,CLEAR","Cross-shore,Offshore,Offshore,Offshore,Offshore,Offshore,Offshore,Offshore,Offshore,Offshore,Onshore,Onshore",12
5842041f4e65fad6a77089b5,2024_02_13,44.63792761362982,-124.0657,Newport,3.8333333333333335,2.005,2.2666666666666666,11,11,"MOSTLY_CLOUDY,NIGHT_CLEAR,NIGHT_CLEAR,NIGHT_CLEAR,NIGHT_CLEAR,NIGHT_CLEAR,NIGHT_CLEAR,NIGHT_CLEAR,NIGHT_CLEAR,CLEAR,CLEAR,CLEAR","Cross-shore,Offshore,Offshore,Offshore,Offshore,Offshore,Offshore,Offshore,Offshore,Offshore,Offshore,Onshore",12
5842041f4e65fad6a77089b6,2024_02_13,45.61468496266301,-123.94643,Rockaway Beach,3.75,2.0175,2.2708333333333335,11,11,"MIST,NIGHT_CLEAR,NIGHT_CLEAR,NIGHT_CLEAR,NIGHT_CLEAR,NIGHT_CLEAR,NIGHT_CLEAR,NIGHT_CLEAR,NIGHT_CLEAR,CLEAR,CLEAR,CLEAR","Onshore,Offshore,Offshore,Offshore,Offshore,Offshore,Offshore,Offshore,Offshore,Offshore,Onshore,Onshore",12
5842041f4e65fad6a77089b7,2024_02_13,45.20252914186085,-123.96975,Pacific City,3.75,1.6166666666666667,1.8808333333333334,11,11,"MOSTLY_CLOUDY,NIGHT_CLEAR,NIGHT_CLEAR,NIGHT_CLEAR,NIGHT_CLEAR,NIGHT_CLEAR,NIGHT_CLEAR,NIGHT_CLEAR,NIGHT_CLEAR,CLEAR,CLEAR,CLEAR","Onshore,Offshore,Offshore,Offshore,Offshore,Offshore,Offshore,Offshore,Offshore,Offshore,Onshore,Onshore",12
5842041f4e65fad6a77089b8,2024_02_13,45.88179930310263,-123.96681,Cannon Beach,3.6666666666666665,1.9416666666666667,2.1841666666666666,10,10,"MOSTLY_CLOUDY,NIGHT_CLEAR,NIGHT_CLEAR,NIGHT_CLEAR,NIGHT_CLEAR,NIGHT_CLEAR,NIGHT_CLEAR,NIGHT_CLEAR,NIGHT_CLEAR,CLEAR,CLEAR,CLEAR","Onshore,Offshore,Offshore,Offshore,Offshore,Offshore,Offshore,Offshore,Offshore,Offshore,Onshore,Onshore",12
5842041f4e65fad6a77089ba,2024_02_13,40.02528754746774,-124.06372,Shelter Cove,2.75,0.47092833333333334,0.7358275000000001,12,12,"BRIEF_SHOWERS,NIGHT_MOSTLY_CLEAR,NIGHT_MOSTLY_CLEAR,NIGHT_CLEAR,NIGHT_CLEAR,NIGHT_CLEAR,NIGHT_CLEAR,NIGHT_MOSTLY_CLEAR,NIGHT_CLEAR,CLEAR,MOSTLY_CLEAR,MIST","Onshore,Onshore,Onshore,Onshore,Cross-shore,Offshore,Cross-shore,Cross-shore,Cross-shore,Onshore,Onshore,Onshore",12
5842041f4e65fad6a77089bb,2024_02_13,40.76816197136951,-124.24248,Humboldt Harbor Entrance,3,1.7816666666666667,2.1041666666666665,12,12,"MIST,NIGHT_FOG,NIGHT_MOSTLY_CLOUDY,NIGHT_CLEAR,NIGHT_MIST,NIGHT_MIST,NIGHT_CLEAR,NIGHT_CLEAR,NIGHT_CLEAR,MOSTLY_CLEAR,CLEAR,CLEAR","Onshore,Onshore,Onshore,Cross-shore,Onshore,Cross-shore,Cross-shore,Offshore,Offshore,Onshore,Onshore,Onshore",12
5842041f4e65fad6a77089bc,2024_02_13,40.76684246920174,-124.23107,North Jetty,3,2.1683333333333334,2.4208333333333334,12,12,"MOSTLY_CLOUDY,NIGHT_FOG,NIGHT_FOG,NIGHT_CLEAR,NIGHT_CLEAR,NIGHT_MOSTLY_CLEAR,NIGHT_CLEAR,NIGHT_CLEAR,NIGHT_CLEAR,MOSTLY_CLEAR,CLEAR,CLEAR","Onshore,Onshore,Onshore,Cross-shore,Cross-shore,Cross-shore,Offshore,Offshore,Offshore,Onshore,Onshore,Onshore",12
5842041f4e65fad6a77089bd,2024_02_13,41.02731183893966,-124.1149972888982,Westhaven,2.9166666666666665,2.3858333333333333,2.7108333333333334,12,12,"MOSTLY_CLOUDY,NIGHT_MIST,NIGHT_BRIEF_SHOWERS,NIGHT_MOSTLY_CLEAR,NIGHT_CLEAR,NIGHT_CLEAR,NIGHT_CLEAR,NIGHT_CLEAR,NIGHT_CLEAR,MOSTLY_CLEAR,CLEAR,MOSTLY_CLOUDY","Onshore,Offshore,Offshore,Cross-shore,Onshore,Cross-shore,Cross-shore,Offshore,Offshore,Cross-shore,Onshore,Onshore",12
5842041f4e65fad6a77089be,2024_02_13,41.13016238153297,-124.16466,Sue-meg,3.6666666666666665,1.7166666666666668,1.9808333333333332,12,12,"CLEAR,NIGHT_CLEAR,NIGHT_CLEAR,NIGHT_CLEAR,NIGHT_CLEAR,NIGHT_CLEAR,NIGHT_CLEAR,NIGHT_MOSTLY_CLEAR,NIGHT_CLEAR,MOSTLY_CLEAR,CLEAR,CLEAR","Onshore,Offshore,Cross-shore,Cross-shore,Cross-shore,Cross-shore,Cross-shore,Offshore,Offshore,Offshore,Cross-shore,Cross-shore",12
5842041f4e65fad6a77089bf,2024_02_13,37.8289474958188,-122.5376795097543,Fort Cronkite/Rodeo Beach,3.0833333333333335,1.3708333333333333,1.645,13,13,"MIST,NIGHT_CLEAR,NIGHT_CLEAR,NIGHT_CLEAR,NIGHT_CLEAR,NIGHT_CLEAR,NIGHT_CLEAR,NIGHT_CLEAR,NIGHT_MIST,CLEAR,MOSTLY_CLOUDY,MIST","Cross-shore,Cross-shore,Onshore,Cross-shore,Onshore,Cross-shore,Cross-shore,Cross-shore,Cross-shore,Offshore,Onshore,Onshore",12
5842041f4e65fad6a77089c0,2024_02_13,41.74415759876137,-124.1771718063073,South Beach CA,3,0.8308333333333333,1.08,12,12,"OVERCAST,NIGHT_CLEAR,NIGHT_CLEAR,NIGHT_MOSTLY_CLEAR,NIGHT_MOSTLY_CLOUDY,NIGHT_MOSTLY_CLOUDY,NIGHT_MOSTLY_CLOUDY,NIGHT_MOSTLY_CLOUDY,NIGHT_MOSTLY_CLOUDY,MOSTLY_CLEAR,MOSTLY_CLOUDY,MIST","Cross-shore,Onshore,Onshore,Offshore,Offshore,Offshore,Offshore,Offshore,Cross-shore,Offshore,Onshore,Onshore",12
5842041f4e65fad6a77089c1,2024_02_13,37.89801283969752,-122.64519,Stinson Beach,2.8333333333333335,0.4058333333333333,0.71,13,13,"MOSTLY_CLEAR,NIGHT_CLEAR,NIGHT_CLEAR,NIGHT_CLEAR,NIGHT_CLEAR,NIGHT_MIST,NIGHT_MIST,NIGHT_MIST,NIGHT_MIST,CLEAR,MOSTLY_CLOUDY,MOSTLY_CLOUDY","Offshore,Cross-shore,Offshore,Offshore,Cross-shore,Cross-shore,Cross-shore,Offshore,Onshore,Onshore,Cross-shore,Offshore",12
5842041f4e65fad6a77089c2,2024_02_13,37.90514516176495,-122.68151,Bolinas,2.8333333333333335,0.40489166666666665,0.6326425,13,13,"MOSTLY_CLEAR,NIGHT_CLEAR,NIGHT_CLEAR,NIGHT_CLEAR,NIGHT_CLEAR,NIGHT_CLEAR,NIGHT_CLEAR,NIGHT_OVERCAST,NIGHT_MIST,CLEAR,BRIEF_SHOWERS,BRIEF_SHOWERS","Offshore,Onshore,Cross-shore,Cross-shore,Cross-shore,Onshore,Cross-shore,Cross-shore,Onshore,Onshore,Offshore,Offshore",12
5842041f4e65fad6a77089c3,2024_02_13,38.04892513158693,-122.9892494965416,Point Reyes (north),3,1.9991666666666665,2.299166666666667,13,13,"CLEAR,NIGHT_MIST,NIGHT_CLOUDY,NIGHT_MIST,NIGHT_MIST,NIGHT_MIST,NIGHT_MIST,NIGHT_MIST,NIGHT_CLEAR,CLEAR,MOSTLY_CLOUDY,CLEAR","Onshore,Cross-shore,Onshore,Onshore,Onshore,Onshore,Onshore,Onshore,Onshore,Onshore,Onshore,Onshore",12
5842041f4e65fad6a77089c6,2024_02_13,38.31088736605785,-123.0496777333731,Doran Beach,2.0833333333333335,0.1325,0.4375,13,13,"MOSTLY_CLOUDY,NIGHT_MIST,NIGHT_CLEAR,NIGHT_CLEAR,NIGHT_MIST,NIGHT_MIST,NIGHT_MIST,NIGHT_MIST,NIGHT_MIST,MOSTLY_CLEAR,CLEAR,CLEAR","Offshore,Offshore,Offshore,Offshore,Offshore,Offshore,Offshore,Offshore,Offshore,Onshore,Offshore,Offshore",12
5842041f4e65fad6a77089c7,2024_02_13,38.45077228660809,-123.13008,Russian Rivermouth,3.5,1.4275,1.7091666666666667,12,12,"MOSTLY_CLOUDY,NIGHT_CLEAR,NIGHT_CLEAR,NIGHT_MOSTLY_CLOUDY,NIGHT_OVERCAST,NIGHT_CLEAR,NIGHT_CLEAR,NIGHT_MOSTLY_CLOUDY,NIGHT_CLEAR,CLEAR,CLEAR,CLEAR","Onshore,Cross-shore,Cross-shore,Cross-shore,Cross-shore,Offshore,Onshore,Onshore,Onshore,Offshore,Onshore,Onshore",12
5842041f4e65fad6a77089c8,2024_02_13,38.35329968518107,-123.06906,Salmon Creek,3,1.5958333333333334,1.8608333333333333,13,13,"CLEAR,NIGHT_MIST,NIGHT_MIST,NIGHT_CLEAR,NIGHT_CLEAR,NIGHT_CLEAR,NIGHT_CLOUDY,NIGHT_MOSTLY_CLOUDY,NIGHT_MIST,CLEAR,CLEAR,MIST","Onshore,Cross-shore,Cross-shore,Onshore,Onshore,Onshore,Onshore,Onshore,Onshore,Cross-shore,Onshore,Onshore",12
5842041f4e65fad6a77089c9,2024_02_13,38.6845180197959,-123.4322714291198,Black Point Beach,3.3333333333333335,0.845,1.13,12.416666666666666,12.416666666666666,"MIST,NIGHT_CLEAR,NIGHT_CLEAR,NIGHT_CLEAR,NIGHT_CLEAR,NIGHT_CLEAR,NIGHT_CLOUDY,NIGHT_CLEAR,NIGHT_CLEAR,CLEAR,MIST,MIST","Cross-shore,Cross-shore,Cross-shore,Offshore,Offshore,Offshore,Cross-shore,Offshore,Offshore,Offshore,Onshore,Onshore",12
5842041f4e65fad6a77089ca,2024_02_13,43.251076,-70.59144,Ogunquit,1.0691666666666666,0.4265,0.7519194444444445,5,4,"NIGHT_CLEAR,NIGHT_CLOUDY,NIGHT_OVERCAST,NIGHT_MOSTLY_CLOUDY,NIGHT_CLOUDY,CLOUDY,CLOUDY,OVERCAST,OVERCAST,CLEAR,CLEAR,CLEAR","Cross-shore,Cross-shore,Onshore,Cross-shore,Cross-shore,Cross-shore,Cross-shore,Cross-shore,Cross-shore,Cross-shore,Cross-shore,Cross-shore",12
5842041f4e65fad6a77089cb,2024_02_13,41.362631366305415,-71.48006772942608,Point Judith,0.975,0.30588030303030306,0.609715404040404,7,6,"NIGHT_CLOUDY,NIGHT_CLEAR,NIGHT_CLEAR,NIGHT_CLEAR,NIGHT_SNOW,LIGHT_SNOW,LIGHT_SNOW,LIGHT_RAIN,HEAVY_SNOW,HEAVY_SNOW,BRIEF_HEAVY_SNOW_SHOWERS,BRIEF_SNOW_SHOWERS","Cross-shore,Onshore,Onshore,Onshore,Onshore,Onshore,Onshore,Onshore,Onshore,Onshore,Cross-shore,Cross-shore",12
5842041f4e65fad6a77089cd,2024_02_13,41.422678090954726,-71.45413,Monahan's - Narragansett,0.75,0.23627833333333334,0.3691825,5,5,"NIGHT_OVERCAST,NIGHT_CLEAR,NIGHT_CLEAR,NIGHT_CLEAR,NIGHT_SNOW,LIGHT_SNOW,DRIZZLE,LIGHT_RAIN,HEAVY_SNOW,HEAVY_SNOW,BRIEF_HEAVY_SNOW_SHOWERS,BRIEF_SNOW_SHOWERS","Offshore,Cross-shore,Cross-shore,Cross-shore,Cross-shore,Cross-shore,Cross-shore,Cross-shore,Cross-shore,Cross-shore,Cross-shore,Cross-shore",12
5842041f4e65fad6a77089ce,2024_02_13,41.469,-71.293,Ruggles - Newport,1.75,0.4001725,0.6252708333333333,5,5,"NIGHT_CLOUDY,NIGHT_MOSTLY_CLOUDY,NIGHT_CLEAR,NIGHT_BRIEF_SHOWERS_POSSIBLE,NIGHT_DRIZZLE,DRIZZLE,LIGHT_RAIN,LIGHT_RAIN,HEAVY_SNOW,HEAVY_SNOW,BRIEF_HEAVY_SNOW_SHOWERS,BRIEF_SNOW_SHOWERS","Onshore,Offshore,Offshore,Offshore,Offshore,Offshore,Offshore,Offshore,Offshore,Offshore,Offshore,Offshore",12
5842041f4e65fad6a77089cf,2024_02_13,43.175394,-70.606351,Short Sands Beach,0.5833333333333334,0.39916666666666667,0.7033333333333334,4,4,"NIGHT_CLEAR,NIGHT_MOSTLY_CLOUDY,NIGHT_OVERCAST,NIGHT_MOSTLY_CLOUDY,NIGHT_OVERCAST,OVERCAST,OVERCAST,OVERCAST,OVERCAST,CLEAR,CLEAR,CLEAR","Cross-shore,Onshore,Onshore,Onshore,Onshore,Onshore,Onshore,Onshore,Onshore,Onshore,Cross-shore,Cross-shore",12
5842041f4e65fad6a77089d0,2024_02_13,41.487408,-71.29017,First Beach,1.4166666666666667,0.0475,0.3491666666666667,5,5,"NIGHT_CLEAR,NIGHT_MOSTLY_CLOUDY,NIGHT_CLEAR,NIGHT_CLEAR,NIGHT_DRIZZLE,DRIZZLE,SNOW,LIGHT_RAIN,HEAVY_SNOW,HEAVY_SNOW,BRIEF_HEAVY_SNOW_SHOWERS,BRIEF_SNOW_SHOWERS","Onshore,Offshore,Offshore,Offshore,Offshore,Offshore,Offshore,Offshore,Offshore,Offshore,Offshore,Offshore",12
5842041f4e65fad6a77089d1,2024_02_13,42.27916830233153,-70.86498,Nantasket Beach,0.9033333333333333,0.39740277777777777,0.7235861111111112,5,4,"NIGHT_CLEAR,NIGHT_CLOUDY,NIGHT_CLEAR,NIGHT_CLOUDY,NIGHT_CLOUDY,OVERCAST,DRIZZLE,LIGHT_SHOWERS_POSSIBLE,LIGHT_SHOWERS_POSSIBLE,BRIEF_HEAVY_SNOW_SHOWERS,BRIEF_SNOW_SHOWERS,BRIEF_SNOW_FLURRIES","Cross-shore,Onshore,Onshore,Onshore,Onshore,Onshore,Onshore,Onshore,Onshore,Onshore,Onshore,Onshore",12
5842041f4e65fad6a77089d2,2024_02_13,41.817,-69.935,Cape Cod,0.5,0.5016666666666667,0.8049999999999999,4,4,"NIGHT_CLEAR,NIGHT_MOSTLY_CLEAR,NIGHT_MOSTLY_CLOUDY,NIGHT_CLOUDY,NIGHT_CLOUDY,LIGHT_SHOWERS_POSSIBLE,LIGHT_RAIN,LIGHT_RAIN,LIGHT_RAIN,SNOW,BLIZZARD,BRIEF_HEAVY_SNOW_SHOWERS","Cross-shore,Onshore,Onshore,Onshore,Onshore,Onshore,Onshore,Onshore,Onshore,Onshore,Cross-shore,Cross-shore",12
5842041f4e65fad6a77089d3,2024_02_13,42.22055448975661,-70.70634873403819,Egypt Beach,0.6666666666666666,0.535,0.8241666666666666,4,4,"NIGHT_CLEAR,NIGHT_CLOUDY,NIGHT_CLEAR,NIGHT_CLOUDY,NIGHT_OVERCAST,OVERCAST,DRIZZLE,LIGHT_SHOWERS_POSSIBLE,BRIEF_SNOW_SHOWERS,BRIEF_HEAVY_SNOW_SHOWERS,BRIEF_HEAVY_SNOW_SHOWERS,BRIEF_SNOW_SHOWERS","Cross-shore,Onshore,Onshore,Onshore,Onshore,Onshore,Onshore,Onshore,Onshore,Onshore,Onshore,Onshore",12
5842041f4e65fad6a77089d4,2024_02_13,41.48739647744607,-71.25723,Second Beach,0.9441666666666667,0.1227225,0.3526180555555556,7,6,"NIGHT_CLEAR,NIGHT_MOSTLY_CLOUDY,NIGHT_CLEAR,NIGHT_DRIZZLE,NIGHT_DRIZZLE,OVERCAST,SNOW,LIGHT_RAIN,HEAVY_SNOW,HEAVY_SNOW,BRIEF_HEAVY_SNOW_SHOWERS,BRIEF_SNOW_SHOWERS","Onshore,Offshore,Offshore,Offshore,Offshore,Offshore,Offshore,Offshore,Offshore,Offshore,Offshore,Offshore",12
5842041f4e65fad6a77089d5,2024_02_13,42.964,-70.769,Fox Hill,1.125,0.2862222222222222,0.5898666666666667,5,4,"NIGHT_CLEAR,NIGHT_MOSTLY_CLOUDY,NIGHT_MOSTLY_CLOUDY,NIGHT_OVERCAST,NIGHT_LIGHT_SNOW,OVERCAST,LIGHT_SNOW,OVERCAST,LIGHT_SNOW,CLOUDY,CLEAR,CLEAR","Onshore,Cross-shore,Cross-shore,Cross-shore,Cross-shore,Cross-shore,Cross-shore,Cross-shore,Cross-shore,Cross-shore,Offshore,Offshore",12
5842041f4e65fad6a77089d6,2024_02_13,42.991359,-70.75149,Straws Point,1.2083333333333333,0.3583055555555556,0.6436861111111112,5,4,"NIGHT_CLEAR,NIGHT_CLEAR,NIGHT_MOSTLY_CLOUDY,NIGHT_MOSTLY_CLOUDY,NIGHT_OVERCAST,OVERCAST,LIGHT_SNOW,OVERCAST,LIGHT_SNOW,CLOUDY,CLEAR,CLEAR","Onshore,Cross-shore,Cross-shore,Cross-shore,Cross-shore,Cross-shore,Cross-shore,Cross-shore,Cross-shore,Cross-shore,Offshore,Offshore",12
5842041f4e65fad6a77089d7,2024_02_13,42.946,-70.786,Plaice Cove,0.9158333333333334,0.2862222222222222,0.5898666666666667,5,4,"NIGHT_CLEAR,NIGHT_CLEAR,NIGHT_MOSTLY_CLOUDY,NIGHT_OVERCAST,NIGHT_LIGHT_SNOW,OVERCAST,OVERCAST,LIGHT_SNOW,LIGHT_SNOW,CLOUDY,CLEAR,CLEAR","Cross-shore,Onshore,Onshore,Onshore,Onshore,Onshore,Cross-shore,Cross-shore,Cross-shore,Cross-shore,Cross-shore,Cross-shore",12
5842041f4e65fad6a77089d9,2024_02_13,42.911574,-70.80831,The Main Beach,0.925,0.5248586666666667,0.82485275,6,4,"NIGHT_CLEAR,NIGHT_CLEAR,NIGHT_MOSTLY_CLOUDY,NIGHT_MOSTLY_CLOUDY,NIGHT_OVERCAST,OVERCAST,OVERCAST,OVERCAST,LIGHT_SNOW,CLOUDY,CLEAR,CLEAR","Onshore,Cross-shore,Cross-shore,Cross-shore,Cross-shore,Cross-shore,Cross-shore,Cross-shore,Cross-shore,Offshore,Offshore,Offshore",12
5842041f4e65fad6a77089da,2024_02_13,42.97583846220203,-70.764,Sawyer's Beach,0.8325,0.3042777777777778,0.5727138888888889,5,4,"NIGHT_CLEAR,NIGHT_MOSTLY_CLOUDY,NIGHT_MOSTLY_CLOUDY,NIGHT_OVERCAST,NIGHT_LIGHT_SNOW,OVERCAST,LIGHT_SNOW,OVERCAST,LIGHT_SNOW,CLOUDY,CLEAR,CLEAR","Onshore,Onshore,Cross-shore,Cross-shore,Cross-shore,Cross-shore,Cross-shore,Cross-shore,Cross-shore,Cross-shore,Cross-shore,Offshore",12
5842041f4e65fad6a77089db,2024_02_13,42.97,-70.77,Rye on the Rocks / 5-0's,0.9358333333333333,0.5345757916666667,0.8313184722222222,6,4,"NIGHT_CLEAR,NIGHT_MOSTLY_CLOUDY,NIGHT_MOSTLY_CLOUDY,NIGHT_OVERCAST,NIGHT_LIGHT_SNOW,OVERCAST,LIGHT_SNOW,OVERCAST,LIGHT_SNOW,CLOUDY,CLEAR,CLEAR","Onshore,Cross-shore,Cross-shore,Cross-shore,Cross-shore,Cross-shore,Cross-shore,Cross-shore,Cross-shore,Cross-shore,Offshore,Offshore",12
5842041f4e65fad6a77089dc,2024_02_13,43.55902946610303,-70.27795,Higgins Beach,1.5083333333333333,0.18999696969696972,0.48373787878787883,5,4,"NIGHT_CLEAR,NIGHT_CLOUDY,NIGHT_CLOUDY,NIGHT_CLOUDY,NIGHT_CLOUDY,CLOUDY,CLOUDY,CLOUDY,CLEAR,CLOUDY,CLEAR,CLEAR","Onshore,Cross-shore,Offshore,Offshore,Offshore,Offshore,Offshore,Offshore,Offshore,Offshore,Offshore,Offshore",12
5842041f4e65fad6a77089dd,2024_02_13,43.302676,-70.5652,Wells Beach,1.0691666666666666,0.3074722222222222,0.6203222222222222,5,4,"NIGHT_CLEAR,NIGHT_CLOUDY,NIGHT_OVERCAST,NIGHT_CLOUDY,NIGHT_CLEAR,CLOUDY,CLOUDY,OVERCAST,CLOUDY,CLOUDY,CLEAR,CLEAR","Cross-shore,Onshore,Onshore,Cross-shore,Cross-shore,Cross-shore,Onshore,Cross-shore,Cross-shore,Cross-shore,Cross-shore,Cross-shore",12
5842041f4e65fad6a77089de,2024_02_13,43.545359,-70.30479,Scarborough Beach State Park,1.1391666666666667,0.3523278472222222,0.6183763194444445,5,4,"NIGHT_CLEAR,NIGHT_CLOUDY,NIGHT_CLOUDY,NIGHT_OVERCAST,NIGHT_CLOUDY,OVERCAST,MOSTLY_CLOUDY,CLOUDY,CLEAR,CLOUDY,CLEAR,CLEAR","Onshore,Cross-shore,Cross-shore,Cross-shore,Cross-shore,Cross-shore,Cross-shore,Cross-shore,Cross-shore,Cross-shore,Offshore,Offshore",12
5842041f4e65fad6a77089df,2024_02_13,43.514481,-70.372146,Old Orchard Beach,0.9833333333333333,0.4254666666666667,0.7744222222222222,5,4,"NIGHT_CLEAR,NIGHT_CLOUDY,NIGHT_CLOUDY,NIGHT_CLOUDY,NIGHT_CLOUDY,OVERCAST,CLEAR,CLOUDY,OVERCAST,CLOUDY,CLEAR,CLEAR","Onshore,Cross-shore,Cross-shore,Cross-shore,Cross-shore,Cross-shore,Cross-shore,Cross-shore,Cross-shore,Cross-shore,Offshore,Offshore",12
5842041f4e65fad6a77089e0,2024_02_13,43.34711,-70.48165,Gooch's Beach,1.25,0.13239444444444445,0.421525,5,4,"NIGHT_CLEAR,NIGHT_OVERCAST,NIGHT_OVERCAST,NIGHT_CLOUDY,NIGHT_OVERCAST,CLOUDY,CLOUDY,CLOUDY,CLOUDY,CLEAR,CLEAR,CLEAR","Onshore,Offshore,Offshore,Offshore,Offshore,Offshore,Offshore,Offshore,Offshore,Offshore,Offshore,Offshore",12
5842041f4e65fad6a77089e2,2024_02_13,40.58433,-73.62953,Lido Beach,1.9641666666666666,0.4010194444444445,0.7456083333333333,7,6,"NIGHT_CLEAR,NIGHT_MOSTLY_CLOUDY,NIGHT_DRIZZLE,NIGHT_DRIZZLE,NIGHT_LIGHT_RAIN,RAIN,HEAVY_SNOW,BRIEF_HEAVY_SNOW_SHOWERS,BRIEF_HEAVY_SNOW_SHOWERS,BRIEF_HEAVY_SNOW_SHOWERS,CLEAR,CLEAR","Onshore,Offshore,Offshore,Offshore,Offshore,Offshore,Offshore,Offshore,Offshore,Offshore,Offshore,Offshore",12
5842041f4e65fad6a77089e3,2024_02_13,43.163135,-70.61689,Long Sands Beach,0.8891666666666667,0.422519625,0.7602040833333333,5,4,"NIGHT_CLEAR,NIGHT_MOSTLY_CLOUDY,NIGHT_CLOUDY,NIGHT_MOSTLY_CLOUDY,NIGHT_OVERCAST,OVERCAST,CLEAR,OVERCAST,OVERCAST,CLOUDY,CLEAR,CLEAR","Onshore,Cross-shore,Cross-shore,Cross-shore,Cross-shore,Cross-shore,Cross-shore,Cross-shore,Cross-shore,Cross-shore,Offshore,Offshore",12
5842041f4e65fad6a77089e4,2024_02_13,40.61695351251805,-73.39376,Gilgo Beach,1.1533333333333333,0.19848055555555558,0.5036972222222222,8,6,"NIGHT_CLEAR,NIGHT_CLOUDY,NIGHT_LIGHT_RAIN,NIGHT_LIGHT_RAIN,NIGHT_LIGHT_RAIN,LIGHT_RAIN,HEAVY_SNOW,BRIEF_HEAVY_SNOW_SHOWERS,BRIEF_HEAVY_SNOW_SHOWERS,HEAVY_SNOW,CLEAR,CLEAR","Onshore,Offshore,Offshore,Offshore,Offshore,Offshore,Offshore,Offshore,Offshore,Offshore,Offshore,Offshore",12
5842041f4e65fad6a77089e5,2024_02_13,40.62530081928036,-73.23827,Robert Moses,1,0.12833333333333333,0.43416666666666665,5,5,"NIGHT_CLEAR,NIGHT_CLEAR,NIGHT_LIGHT_RAIN,NIGHT_LIGHT_RAIN,NIGHT_DRIZZLE,LIGHT_RAIN,HEAVY_SNOW,BRIEF_HEAVY_SNOW_SHOWERS,BRIEF_HEAVY_SNOW_SHOWERS,HEAVY_SNOW,CLEAR,CLEAR","Onshore,Offshore,Offshore,Offshore,Offshore,Offshore,Offshore,Offshore,Offshore,Offshore,Offshore,Offshore",12
5842041f4e65fad6a77089e6,2024_02_13,40.64313317632791,-73.15727,Fire Island,1.0833333333333333,0.14,0.4458333333333333,5,5,"NIGHT_CLEAR,NIGHT_DRIZZLE,NIGHT_LIGHT_RAIN,NIGHT_LIGHT_RAIN,NIGHT_LIGHT_RAIN,DRIZZLE,HEAVY_SNOW,BRIEF_HEAVY_SNOW_SHOWERS,BRIEF_HEAVY_SNOW_SHOWERS,HEAVY_SNOW,CLEAR,CLEAR","Onshore,Offshore,Offshore,Offshore,Offshore,Offshore,Offshore,Offshore,Offshore,Offshore,Offshore,Offshore",12
5842041f4e65fad6a77089e8,2024_02_13,40.76653118828782,-72.74579619372713,Cupsogue,1.75,0.3441666666666667,0.6491666666666667,5,5,"NIGHT_OVERCAST,NIGHT_LIGHT_RAIN,NIGHT_OVERCAST,NIGHT_LIGHT_RAIN,NIGHT_OVERCAST,LIGHT_RAIN,SNOW,HEAVY_SNOW,HEAVY_SNOW,HEAVY_SNOW,BRIEF_SNOW_SHOWERS,CLEAR","Cross-shore,Offshore,Offshore,Offshore,Offshore,Offshore,Offshore,Offshore,Offshore,Offshore,Offshore,Offshore",12
5842041f4e65fad6a77089e9,2024_02_13,42.9376373334092,-70.79141,The Wall ,0.9583333333333334,0.5355125833333333,0.8415013333333334,6,4,"NIGHT_CLEAR,NIGHT_CLEAR,NIGHT_MOSTLY_CLOUDY,NIGHT_MOSTLY_CLOUDY,NIGHT_OVERCAST,OVERCAST,OVERCAST,OVERCAST,LIGHT_SNOW,CLOUDY,CLEAR,CLEAR","Cross-shore,Onshore,Onshore,Onshore,Onshore,Onshore,Onshore,Onshore,Onshore,Onshore,Cross-shore,Cross-shore",12
5842041f4e65fad6a77089ea,2024_02_13,40.887088,-72.33856,Flys,1.75,0.3325,0.6358333333333334,5,5,"NIGHT_CLOUDY,NIGHT_CLEAR,NIGHT_OVERCAST,NIGHT_LIGHT_RAIN,NIGHT_LIGHT_RAIN,LIGHT_RAIN,SNOW,HEAVY_SNOW,HEAVY_SNOW,HEAVY_SNOW,BRIEF_SNOW_SHOWERS,CLEAR","Onshore,Offshore,Offshore,Offshore,Offshore,Offshore,Offshore,Offshore,Offshore,Offshore,Offshore,Offshore",12
5842041f4e65fad6a77089eb,2024_02_13,41.0389266436591,-71.91068529316958,Trailer Park,0.8724999999999999,0.5296995138888889,0.8485440277777778,8,6,"NIGHT_CLEAR,NIGHT_CLOUDY,NIGHT_BRIEF_SHOWERS_POSSIBLE,NIGHT_DRIZZLE,NIGHT_DRIZZLE,LIGHT_RAIN,SNOW,RAIN,HEAVY_SNOW,HEAVY_SNOW,BRIEF_HEAVY_SNOW_SHOWERS,BRIEF_SNOW_SHOWERS","Cross-shore,Offshore,Offshore,Offshore,Offshore,Offshore,Offshore,Offshore,Offshore,Offshore,Offshore,Offshore",12
5842041f4e65fad6a77089ec,2024_02_13,41.039505402729105,-71.9142,Ditch Plains,0.6666666666666666,0.4009358333333333,0.6264641666666667,5.583333333333333,5.583333333333333,"NIGHT_CLOUDY,NIGHT_CLOUDY,NIGHT_DRIZZLE,NIGHT_DRIZZLE,NIGHT_DRIZZLE,LIGHT_RAIN,DRIZZLE,HEAVY_SNOW,HEAVY_SNOW,HEAVY_SNOW,BRIEF_HEAVY_SNOW_SHOWERS,BRIEF_SNOW_SHOWERS","Offshore,Offshore,Cross-shore,Cross-shore,Cross-shore,Cross-shore,Cross-shore,Cross-shore,Offshore,Offshore,Offshore,Offshore",12
5842041f4e65fad6a77089ee,2024_02_13,40.57633275206492,-73.56895305108567,"West End, Jones Beach",1.0833333333333333,0.2263277777777778,0.527725,7,6,"NIGHT_CLEAR,NIGHT_OVERCAST,NIGHT_DRIZZLE,NIGHT_DRIZZLE,NIGHT_LIGHT_RAIN,LIGHT_RAIN,HEAVY_SNOW,BRIEF_HEAVY_SNOW_SHOWERS,BRIEF_HEAVY_SNOW_SHOWERS,BRIEF_HEAVY_SNOW_SHOWERS,CLEAR,CLEAR","Onshore,Offshore,Offshore,Offshore,Offshore,Offshore,Offshore,Offshore,Offshore,Offshore,Offshore,Offshore",12
5842041f4e65fad6a77089f1,2024_02_13,41.038286691230795,-71.91991567611694,Poles,0.8058333333333333,0.5265578472222222,0.8392986805555556,8,6,"NIGHT_CLEAR,NIGHT_CLOUDY,NIGHT_BRIEF_SHOWERS_POSSIBLE,NIGHT_DRIZZLE,NIGHT_DRIZZLE,LIGHT_RAIN,SNOW,RAIN,HEAVY_SNOW,HEAVY_SNOW,BRIEF_HEAVY_SNOW_SHOWERS,BRIEF_SNOW_SHOWERS","Cross-shore,Offshore,Offshore,Offshore,Offshore,Offshore,Offshore,Offshore,Offshore,Offshore,Offshore,Offshore",12
5842041f4e65fad6a77089f3,2024_02_13,40.84077769766295,-72.47989493724765,The Bowl,1.4166666666666667,0.295,0.6016666666666667,5,5,"NIGHT_CLOUDY,NIGHT_BRIEF_SHOWERS_POSSIBLE,NIGHT_CLEAR,NIGHT_LIGHT_RAIN,NIGHT_LIGHT_RAIN,LIGHT_RAIN,SNOW,HEAVY_SNOW,HEAVY_SNOW,HEAVY_SNOW,BRIEF_SNOW_SHOWERS,CLEAR","Cross-shore,Offshore,Offshore,Offshore,Offshore,Offshore,Offshore,Offshore,Offshore,Offshore,Offshore,Offshore",12
5842041f4e65fad6a77089f4,2024_02_13,40.94235535243154,-72.19286,Main Beach,1.2775,0.3958527777777778,0.6998194444444444,14,13,"NIGHT_CLOUDY,NIGHT_CLEAR,NIGHT_DRIZZLE,NIGHT_LIGHT_RAIN,NIGHT_SNOW,OVERCAST,LIGHT_RAIN,SNOW,HEAVY_SNOW,HEAVY_SNOW,BRIEF_SNOW_SHOWERS,CLEAR","Onshore,Offshore,Offshore,Offshore,Offshore,Offshore,Offshore,Offshore,Offshore,Offshore,Offshore,Offshore",12
5842041f4e65fad6a77089f5,2024_02_13,40.58270702399518,-73.67251552079799,Laurelton Blvd.,0.8516666666666667,0.2821209027777778,0.5887336805555556,7,6,"NIGHT_CLEAR,NIGHT_BRIEF_SHOWERS,NIGHT_LIGHT_RAIN,NIGHT_DRIZZLE,NIGHT_LIGHT_RAIN,ICE_PELLETS,HEAVY_SNOW,BRIEF_HEAVY_SNOW_SHOWERS,BRIEF_HEAVY_SNOW_SHOWERS,BRIEF_HEAVY_SNOW_SHOWERS,CLEAR,CLEAR","Onshore,Offshore,Offshore,Offshore,Offshore,Offshore,Offshore,Offshore,Offshore,Offshore,Offshore,Offshore",12
5842041f4e65fad6a77089f6,2024_02_13,41.033752854071416,-71.93695522488403,Terrace,0.7916666666666666,0.5353833333333333,0.8536111111111111,8,6,"NIGHT_CLEAR,NIGHT_CLOUDY,NIGHT_CLOUDY,NIGHT_DRIZZLE,NIGHT_LIGHT_SNOW,LIGHT_RAIN,SNOW,RAIN,HEAVY_SNOW,HEAVY_SNOW,BRIEF_SNOW_SHOWERS,BRIEF_SNOW_FLURRIES","Cross-shore,Offshore,Offshore,Offshore,Offshore,Offshore,Offshore,Offshore,Offshore,Offshore,Offshore,Offshore",12
5842041f4e65fad6a77089f7,2024_02_13,40.83372943645748,-72.50426173210144,K Road,1.75,0.35583333333333333,0.6625,5,5,"NIGHT_CLEAR,NIGHT_DRIZZLE,NIGHT_CLOUDY,NIGHT_LIGHT_RAIN,NIGHT_LIGHT_RAIN,LIGHT_RAIN,SNOW,HEAVY_SNOW,HEAVY_SNOW,HEAVY_SNOW,BRIEF_SNOW_SHOWERS,CLEAR","Cross-shore,Offshore,Offshore,Offshore,Offshore,Offshore,Offshore,Offshore,Offshore,Offshore,Offshore,Offshore",12
5842041f4e65fad6a77089f8,2024_02_13,40.58456099581507,-73.80730032920837,84th Street,1.3975,0.38009444444444446,0.7093444444444444,7,6,"NIGHT_CLEAR,NIGHT_BRIEF_SHOWERS_POSSIBLE,NIGHT_DRIZZLE,NIGHT_DRIZZLE,NIGHT_LIGHT_RAIN,HEAVY_SNOW,BRIEF_HEAVY_SNOW_SHOWERS,BRIEF_HEAVY_SNOW_SHOWERS,BRIEF_HEAVY_SNOW_SHOWERS,BRIEF_HEAVY_SNOW_SHOWERS,CLEAR,CLEAR","Onshore,Offshore,Offshore,Offshore,Offshore,Offshore,Offshore,Offshore,Offshore,Offshore,Offshore,Offshore",12
5842041f4e65fad6a77089fa,2024_02_13,40.1319,-74.02788,Sea Girt,0.875,0.610525,0.9601916666666666,6,5,"NIGHT_OVERCAST,NIGHT_LIGHT_RAIN,NIGHT_OVERCAST,NIGHT_DRIZZLE,NIGHT_LIGHT_RAIN,RAIN,HEAVY_SNOW,BRIEF_HEAVY_SNOW_SHOWERS,BRIEF_HEAVY_SNOW_SHOWERS,HEAVY_SNOW,CLEAR,CLEAR","Onshore,Onshore,Onshore,Onshore,Onshore,Onshore,Onshore,Cross-shore,Cross-shore,Offshore,Offshore,Offshore",12
5842041f4e65fad6a77089fb,2024_02_13,40.54698301868125,-73.9268,Breezy Point,1.0833333333333333,0.1366666666666667,0.44,5.416666666666667,5.416666666666667,"NIGHT_CLEAR,NIGHT_CLEAR,NIGHT_DRIZZLE,NIGHT_LIGHT_RAIN,NIGHT_LIGHT_RAIN,SNOW,HEAVY_SNOW,BRIEF_HEAVY_SNOW_SHOWERS,BRIEF_HEAVY_SNOW_SHOWERS,BRIEF_HEAVY_SNOW_SHOWERS,CLEAR,CLEAR","Onshore,Offshore,Offshore,Offshore,Offshore,Offshore,Offshore,Offshore,Offshore,Offshore,Offshore,Offshore",12
5842041f4e65fad6a77089fc,2024_02_13,40.152504,-74.021383,Spring Lake,0.9166666666666666,0.6069138888888889,0.9758555555555555,6,5,"NIGHT_OVERCAST,NIGHT_OVERCAST,NIGHT_OVERCAST,NIGHT_DRIZZLE,NIGHT_LIGHT_RAIN,RAIN,HEAVY_SNOW,BRIEF_HEAVY_SNOW_SHOWERS,BRIEF_HEAVY_SNOW_SHOWERS,HEAVY_SNOW,CLEAR,CLEAR","Onshore,Onshore,Onshore,Onshore,Onshore,Onshore,Onshore,Cross-shore,Cross-shore,Offshore,Offshore,Offshore",12
5842041f4e65fad6a77089fd,2024_02_13,40.591277,-73.770792,30th - 39th Streets,1.0833333333333333,0.15459166666666668,0.46126666666666666,7,6,"NIGHT_CLEAR,NIGHT_BRIEF_SHOWERS_POSSIBLE,NIGHT_LIGHT_RAIN,NIGHT_OVERCAST,NIGHT_ICE_PELLETS,HEAVY_SNOW,BRIEF_HEAVY_SNOW_SHOWERS,BRIEF_HEAVY_SNOW_SHOWERS,BRIEF_HEAVY_SNOW_SHOWERS,BRIEF_HEAVY_SNOW_SHOWERS,CLEAR,CLEAR","Onshore,Offshore,Offshore,Offshore,Offshore,Offshore,Offshore,Offshore,Offshore,Offshore,Offshore,Offshore",12
5842041f4e65fad6a77089fe,2024_02_13,40.18834955871439,-74.00860982500222,Avon,0.9166666666666666,0.6282333333333333,0.9989111111111111,6,5,"NIGHT_OVERCAST,NIGHT_OVERCAST,NIGHT_OVERCAST,NIGHT_DRIZZLE,NIGHT_LIGHT_RAIN,RAIN,HEAVY_SNOW,BRIEF_HEAVY_SNOW_SHOWERS,BRIEF_HEAVY_SNOW_SHOWERS,HEAVY_SNOW,CLEAR,CLEAR","Onshore,Onshore,Onshore,Onshore,Onshore,Onshore,Onshore,Cross-shore,Cross-shore,Cross-shore,Offshore,Offshore",12
5842041f4e65fad6a77089ff,2024_02_13,40.1974229100932,-74.00650533798255,Bradley Beach,0.9166666666666666,0.6229555555555556,0.9911333333333333,6,5,"NIGHT_OVERCAST,NIGHT_OVERCAST,NIGHT_OVERCAST,NIGHT_DRIZZLE,NIGHT_LIGHT_RAIN,RAIN,HEAVY_SNOW,BRIEF_HEAVY_SNOW_SHOWERS,BRIEF_HEAVY_SNOW_SHOWERS,HEAVY_SNOW,CLEAR,CLEAR","Onshore,Onshore,Onshore,Onshore,Onshore,Onshore,Onshore,Cross-shore,Cross-shore,Cross-shore,Offshore,Offshore",12
5842041f4e65fad6a7708a01,2024_02_13,40.17202,-74.01503,"16th Ave., Belmar",0.775,0.8170083333333333,1.3410055555555556,6,5,"NIGHT_OVERCAST,NIGHT_OVERCAST,NIGHT_OVERCAST,NIGHT_DRIZZLE,NIGHT_LIGHT_RAIN,RAIN,HEAVY_SNOW,BRIEF_HEAVY_SNOW_SHOWERS,BRIEF_HEAVY_SNOW_SHOWERS,HEAVY_SNOW,CLEAR,CLEAR","Onshore,Onshore,Onshore,Onshore,Onshore,Onshore,Onshore,Cross-shore,Cross-shore,Cross-shore,Offshore,Offshore",12
5842041f4e65fad6a7708a02,2024_02_13,40.217443,-73.99982,Asbury Park,0.9166666666666666,0.5960111111111112,0.9664111111111111,6,5,"NIGHT_OVERCAST,NIGHT_OVERCAST,NIGHT_DRIZZLE,NIGHT_DRIZZLE,NIGHT_LIGHT_RAIN,RAIN,HEAVY_SNOW,BRIEF_HEAVY_SNOW_SHOWERS,BRIEF_HEAVY_SNOW_SHOWERS,HEAVY_SNOW,CLEAR,CLEAR","Onshore,Onshore,Onshore,Onshore,Onshore,Onshore,Onshore,Cross-shore,Cross-shore,Cross-shore,Offshore,Offshore",12
5842041f4e65fad6a7708a03,2024_02_13,40.229841,-73.996782,Loch Arbour and Deal,0.8883333333333333,0.5953861111111112,0.9630777777777777,6,5,"NIGHT_OVERCAST,NIGHT_OVERCAST,NIGHT_DRIZZLE,NIGHT_LIGHT_RAIN,NIGHT_LIGHT_RAIN,RAIN,HEAVY_SNOW,BRIEF_HEAVY_SNOW_SHOWERS,BRIEF_HEAVY_SNOW_SHOWERS,HEAVY_SNOW,CLEAR,CLEAR","Onshore,Onshore,Onshore,Cross-shore,Onshore,Cross-shore,Cross-shore,Cross-shore,Cross-shore,Offshore,Offshore,Offshore",12
