_id,date,lat,lon,name,daily_mean_swell_rating,daily_mean_wave_height_min,daily_mean_wave_height_max,daily_mean_water_temperature_max,daily_mean_water_temperature_min,weather_per_timestamp,wind_per_timestamp,n_samples_per_day
5842041f4e65fad6a77087f9,2024_01_31,37.741668,-122.51038,South Ocean Beach,1.6333333333333333,1.9986822222222222,2.494228888888889,14,14,"NIGHT_CLEAR,NIGHT_OVERCAST,NIGHT_CLEAR,NIGHT_CLEAR,NIGHT_CLEAR,NIGHT_MOSTLY_CLOUDY,NIGHT_OVERCAST,NIGHT_MOSTLY_CLOUDY,CLOUDY,CLEAR,OVERCAST,BRIEF_SHOWERS_POSSIBLE,LIGHT_RAIN,DRIZZLE,LIGHT_RAIN","Cross-shore,Offshore,Offshore,Offshore,Offshore,Offshore,Cross-shore,Cross-shore,Cross-shore,Offshore,Offshore,Offshore,Offshore,Offshore,Offshore",15
5842041f4e65fad6a7708801,2024_01_31,37.49142,-122.50428,Maverick's,NA,1.3190555555555554,1.608108888888889,13,13,"NIGHT_CLEAR,NIGHT_CLEAR,NIGHT_CLEAR,NIGHT_MOSTLY_CLOUDY,NIGHT_CLEAR,NIGHT_MOSTLY_CLOUDY,NIGHT_MOSTLY_CLOUDY,NIGHT_MOSTLY_CLOUDY,BRIEF_SHOWERS,CLOUDY,OVERCAST,CLOUDY,DRIZZLE,LIGHT_RAIN,LIGHT_RAIN","Onshore,Onshore,Onshore,Onshore,Onshore,Onshore,Onshore,Onshore,Onshore,Onshore,Onshore,Onshore,Onshore,Onshore,Onshore",15
5842041f4e65fad6a7708804,2024_01_31,44.997,-124.018,Roads End,2.066666666666667,3.1553333333333335,3.4993333333333334,11,11,"NIGHT_DRIZZLE,NIGHT_RAIN,NIGHT_RAIN,NIGHT_CLEAR,NIGHT_LIGHT_RAIN,NIGHT_OVERCAST,NIGHT_LIGHT_RAIN,NIGHT_LIGHT_RAIN,LIGHT_RAIN,BRIEF_SHOWERS_POSSIBLE,CLEAR,LIGHT_RAIN,OVERCAST,CLOUDY,MOSTLY_CLOUDY","Offshore,Cross-shore,Cross-shore,Offshore,Cross-shore,Offshore,Cross-shore,Cross-shore,Offshore,Offshore,Cross-shore,Cross-shore,Cross-shore,Cross-shore,Offshore",15
5842041f4e65fad6a7708805,2024_01_31,36.95188851423011,-122.02522,Steamer Lane,1.4666666666666668,1.2694755555555557,1.7457733333333334,14,14,"NIGHT_MOSTLY_CLOUDY,NIGHT_OVERCAST,NIGHT_MIST,NIGHT_MIST,NIGHT_MIST,NIGHT_CLEAR,NIGHT_MOSTLY_CLOUDY,NIGHT_MOSTLY_CLOUDY,MOSTLY_CLOUDY,MOSTLY_CLOUDY,CLOUDY,OVERCAST,CLEAR,CLEAR,CLEAR","Offshore,Offshore,Offshore,Offshore,Onshore,Cross-shore,Cross-shore,Onshore,Onshore,Onshore,Onshore,Onshore,Onshore,Onshore,Onshore",15
5842041f4e65fad6a7708806,2024_01_31,36.95918781542251,-122.02489,Cowells,1.5886666666666667,0.39105555555555555,0.6951066666666667,14,14,"NIGHT_MOSTLY_CLOUDY,NIGHT_OVERCAST,NIGHT_MIST,NIGHT_MIST,NIGHT_MIST,NIGHT_CLEAR,NIGHT_MOSTLY_CLOUDY,NIGHT_MOSTLY_CLOUDY,MOSTLY_CLOUDY,MOSTLY_CLOUDY,CLOUDY,OVERCAST,CLEAR,CLEAR,CLEAR","Offshore,Offshore,Cross-shore,Offshore,Cross-shore,Offshore,Offshore,Cross-shore,Onshore,Cross-shore,Onshore,Onshore,Onshore,Onshore,Onshore",15
5842041f4e65fad6a7708807,2024_01_31,36.95468082526536,-121.97234,Pleasure Point,2.433333333333333,1.2785933333333335,1.582051111111111,14,14,"NIGHT_MOSTLY_CLOUDY,NIGHT_OVERCAST,NIGHT_CLOUDY,NIGHT_MOSTLY_CLOUDY,NIGHT_CLEAR,NIGHT_MOSTLY_CLOUDY,NIGHT_MOSTLY_CLEAR,NIGHT_CLEAR,CLEAR,MOSTLY_CLOUDY,CLOUDY,CLOUDY,CLOUDY,CLEAR,CLOUDY","Offshore,Offshore,Offshore,Cross-shore,Cross-shore,Onshore,Cross-shore,Offshore,Cross-shore,Onshore,Onshore,Onshore,Onshore,Onshore,Onshore",15
5842041f4e65fad6a770880a,2024_01_31,35.37815414378748,-120.86589,Morro Bay,3.2333333333333334,1.2598533333333333,1.7279022222222222,13,13,"NIGHT_CLEAR,NIGHT_CLEAR,NIGHT_CLEAR,NIGHT_CLEAR,NIGHT_CLEAR,NIGHT_MIST,NIGHT_MOSTLY_CLOUDY,NIGHT_MOSTLY_CLOUDY,CLEAR,CLEAR,CLEAR,CLEAR,CLEAR,CLEAR,MOSTLY_CLOUDY","Offshore,Offshore,Onshore,Cross-shore,Offshore,Offshore,Onshore,Offshore,Onshore,Offshore,Cross-shore,Offshore,Offshore,Cross-shore,Cross-shore",15
5842041f4e65fad6a770880b,2024_01_31,36.95782765000708,-121.9672887511276,Jack's,1.8,0.6088222222222223,0.9552066666666666,14,14,"NIGHT_MOSTLY_CLOUDY,NIGHT_OVERCAST,NIGHT_MIST,NIGHT_MOSTLY_CLOUDY,NIGHT_CLEAR,NIGHT_MOSTLY_CLOUDY,NIGHT_MOSTLY_CLEAR,NIGHT_CLEAR,CLEAR,MOSTLY_CLOUDY,CLOUDY,CLOUDY,CLOUDY,CLEAR,CLOUDY","Offshore,Cross-shore,Cross-shore,Onshore,Onshore,Onshore,Onshore,Offshore,Onshore,Onshore,Onshore,Onshore,Onshore,Onshore,Onshore",15
5842041f4e65fad6a770880d,2024_01_31,34.29982939936656,-119.3489016603669,Gold Coast Beachbreaks,2.066666666666667,0.296,0.6006666666666667,16,16,"NIGHT_CLEAR,NIGHT_CLEAR,NIGHT_CLEAR,NIGHT_CLEAR,NIGHT_CLEAR,NIGHT_MIST,NIGHT_CLEAR,CLEAR,CLEAR,CLEAR,CLEAR,CLEAR,CLEAR,BRIEF_SHOWERS,MOSTLY_CLEAR","Cross-shore,Cross-shore,Offshore,Offshore,Offshore,Offshore,Cross-shore,Cross-shore,Cross-shore,Cross-shore,Cross-shore,Cross-shore,Cross-shore,Cross-shore,Cross-shore",15
5842041f4e65fad6a7708811,2024_01_31,34.245076,-119.26799,Ventura Harbor,3.3666666666666667,1.3029533333333334,1.6623181666666667,14,14,"NIGHT_CLEAR,NIGHT_CLEAR,NIGHT_CLEAR,NIGHT_CLEAR,NIGHT_CLEAR,NIGHT_CLEAR,NIGHT_CLEAR,CLEAR,CLEAR,CLEAR,CLEAR,CLEAR,CLEAR,CLEAR,CLEAR","Offshore,Offshore,Offshore,Offshore,Offshore,Offshore,Offshore,Offshore,Offshore,Onshore,Onshore,Cross-shore,Onshore,Cross-shore,Cross-shore",15
5842041f4e65fad6a7708813,2024_01_31,34.051,-118.964,County Line,2.878,0.66184,1.03072,16,16,"NIGHT_CLEAR,NIGHT_CLEAR,NIGHT_CLEAR,NIGHT_CLEAR,NIGHT_CLEAR,NIGHT_MIST,NIGHT_MIST,MIST,MIST,CLEAR,CLEAR,CLEAR,CLEAR,CLEAR,MOSTLY_CLEAR","Offshore,Onshore,Offshore,Offshore,Offshore,Offshore,Offshore,Offshore,Offshore,Cross-shore,Offshore,Offshore,Offshore,Offshore,Offshore",15
5842041f4e65fad6a7708814,2024_01_31,34.37256264378892,-119.47797,Rincon,2.933333333333333,0.99,1.1013333333333333,16,16,"NIGHT_MIST,NIGHT_CLEAR,NIGHT_CLEAR,NIGHT_CLEAR,NIGHT_MOSTLY_CLEAR,NIGHT_MOSTLY_CLOUDY,NIGHT_CLEAR,CLEAR,CLEAR,MOSTLY_CLEAR,CLEAR,MIST,BRIEF_SHOWERS,BRIEF_SHOWERS,BRIEF_SHOWERS","Cross-shore,Onshore,Onshore,Onshore,Onshore,Onshore,Onshore,Onshore,Onshore,Onshore,Onshore,Onshore,Onshore,Onshore,Onshore",15
5842041f4e65fad6a7708817,2024_01_31,34.03096101876324,-118.68109,Malibu Third Point,2,0.10266666666666667,0.4093333333333333,16,16,"NIGHT_CLEAR,NIGHT_CLEAR,NIGHT_MIST,NIGHT_MIST,NIGHT_CLEAR,NIGHT_MIST,NIGHT_MIST,MIST,CLEAR,CLEAR,CLEAR,CLEAR,CLEAR,CLEAR,MOSTLY_CLEAR","Onshore,Onshore,Onshore,Onshore,Onshore,Onshore,Onshore,Onshore,Onshore,Onshore,Onshore,Onshore,Onshore,Onshore,Onshore",15
5842041f4e65fad6a7708819,2024_01_31,33.984079047970035,-118.47381591796875,Venice Beach,3,0.84458888888888894,1.169722222222222,15,15,"NIGHT_CLEAR,NIGHT_CLEAR,NIGHT_MIST,NIGHT_MIST,NIGHT_MIST,NIGHT_MIST,NIGHT_CLOUDY,OVERCAST,MIST,MIST,MIST,MIST,MIST,MIST,MIST","Onshore,Offshore,Offshore,Cross-shore,Offshore,Offshore,Offshore,Cross-shore,Offshore,Offshore,Offshore,Offshore,Onshore,Onshore,Onshore",15
5842041f4e65fad6a770881e,2024_01_31,34.037508438646746,-118.58339846155594,Topanga Beach,2.6666666666666665,0.42334,0.7266333333333334,16,16,"NIGHT_CLEAR,NIGHT_CLEAR,NIGHT_CLEAR,NIGHT_CLEAR,NIGHT_CLEAR,NIGHT_CLEAR,NIGHT_CLOUDY,MIST,CLEAR,CLEAR,CLEAR,CLEAR,CLEAR,MOSTLY_CLEAR,MOSTLY_CLEAR","Offshore,Cross-shore,Offshore,Offshore,Offshore,Offshore,Offshore,Onshore,Offshore,Onshore,Cross-shore,Onshore,Onshore,Onshore,Onshore",15
5842041f4e65fad6a7708820,2024_01_31,33.73954373690184,-118.11414,Seal Beach Jetty,2.6666666666666665,0.34199999999999997,0.646,16,16,"NIGHT_MIST,NIGHT_MIST,NIGHT_OVERCAST,NIGHT_OVERCAST,NIGHT_OVERCAST,NIGHT_OVERCAST,NIGHT_OVERCAST,OVERCAST,MOSTLY_CLEAR,MOSTLY_CLEAR,CLEAR,MOSTLY_CLEAR,CLEAR,CLEAR,CLEAR","Offshore,Offshore,Offshore,Offshore,Offshore,Offshore,Offshore,Offshore,Offshore,Cross-shore,Onshore,Onshore,Onshore,Onshore,Onshore",15
5842041f4e65fad6a7708822,2024_01_31,33.72309983348433,-118.08078,Anderson Street,2.6666666666666665,0.4866666666666667,0.792,16,16,"NIGHT_MIST,NIGHT_CLEAR,NIGHT_CLEAR,NIGHT_CLEAR,NIGHT_OVERCAST,NIGHT_OVERCAST,NIGHT_OVERCAST,OVERCAST,CLEAR,CLEAR,MOSTLY_CLOUDY,MOSTLY_CLEAR,CLEAR,CLEAR,MOSTLY_CLEAR","Offshore,Offshore,Offshore,Offshore,Offshore,Offshore,Offshore,Offshore,Offshore,Cross-shore,Onshore,Onshore,Onshore,Onshore,Onshore",15
5842041f4e65fad6a7708827,2024_01_31,33.65574085629463,-118.00397,Huntington Beach Pier Northside,3.0446666666666666,1.0817355555555557,1.5133711111111112,14,14,"NIGHT_CLEAR,NIGHT_CLEAR,NIGHT_OVERCAST,NIGHT_MOSTLY_CLOUDY,NIGHT_MOSTLY_CLOUDY,NIGHT_MOSTLY_CLOUDY,NIGHT_MOSTLY_CLOUDY,MOSTLY_CLOUDY,CLEAR,MOSTLY_CLEAR,MOSTLY_CLOUDY,CLEAR,CLEAR,CLEAR,CLEAR","Offshore,Offshore,Offshore,Offshore,Offshore,Offshore,Onshore,Offshore,Cross-shore,Cross-shore,Cross-shore,Cross-shore,Cross-shore,Cross-shore,Cross-shore",15
5842041f4e65fad6a7708828,2024_01_31,34.272041739333,-119.2997646331,C St.,3,0.8522755555555556,1.1843866666666667,14,14,"NIGHT_MIST,NIGHT_MIST,NIGHT_CLEAR,NIGHT_CLEAR,NIGHT_CLEAR,NIGHT_CLEAR,NIGHT_CLEAR,CLEAR,CLEAR,CLEAR,CLEAR,MIST,MIST,MIST,CLEAR","Cross-shore,Cross-shore,Offshore,Offshore,Offshore,Offshore,Offshore,Offshore,Offshore,Onshore,Onshore,Onshore,Onshore,Onshore,Onshore",15
5842041f4e65fad6a770882a,2024_01_31,33.61555743705257,-117.93676,Newport Lower Jetties,2.711333333333333,0.6706,0.9795333333333334,16,16,"NIGHT_CLEAR,NIGHT_CLEAR,NIGHT_OVERCAST,NIGHT_MOSTLY_CLOUDY,NIGHT_MOSTLY_CLOUDY,NIGHT_MOSTLY_CLOUDY,NIGHT_MOSTLY_CLOUDY,MOSTLY_CLOUDY,MOSTLY_CLEAR,MOSTLY_CLEAR,CLEAR,CLEAR,CLEAR,CLEAR,CLEAR","Offshore,Offshore,Offshore,Offshore,Cross-shore,Cross-shore,Cross-shore,Cross-shore,Cross-shore,Cross-shore,Onshore,Onshore,Onshore,Onshore,Onshore",15
5842041f4e65fad6a770882b,2024_01_31,33.5930302087,-117.88199,The Wedge,1,0.10425,0.531948,16,16,"NIGHT_CLEAR,NIGHT_MIST,NIGHT_CLEAR,NIGHT_CLEAR,NIGHT_CLEAR,NIGHT_CLEAR,NIGHT_CLEAR,MOSTLY_CLOUDY,CLEAR,CLEAR,CLEAR,CLEAR,CLEAR,CLEAR,CLEAR","Cross-shore,Offshore,Offshore,Cross-shore,Cross-shore,Offshore,Cross-shore,Cross-shore,Cross-shore,Cross-shore,Onshore,Onshore,Onshore,Onshore,Onshore",15
5842041f4e65fad6a770882c,2024_01_31,33.60577342582,-117.9315376281,Newport Beach Pier,2.7,0.8899888888888889,1.1414377777777778,16,16,"NIGHT_CLEAR,NIGHT_MIST,NIGHT_MIST,NIGHT_MIST,NIGHT_CLEAR,NIGHT_CLEAR,NIGHT_CLEAR,CLOUDY,MOSTLY_CLEAR,MOSTLY_CLEAR,CLEAR,CLEAR,MIST,BRIEF_SHOWERS,BRIEF_SHOWERS","Onshore,Cross-shore,Cross-shore,Onshore,Onshore,Cross-shore,Onshore,Cross-shore,Onshore,Onshore,Onshore,Onshore,Onshore,Onshore,Onshore",15
5842041f4e65fad6a770882e,2024_01_31,33.475793399792984,-117.72291,Salt Creek,3.6333333333333333,1.0557911111111111,1.3819244444444445,15,15,"NIGHT_CLEAR,NIGHT_MIST,NIGHT_MIST,NIGHT_MIST,NIGHT_CLEAR,NIGHT_CLEAR,NIGHT_CLEAR,MIST,CLEAR,CLEAR,CLEAR,CLEAR,CLEAR,CLEAR,MIST","Offshore,Offshore,Offshore,Offshore,Cross-shore,Cross-shore,Onshore,Onshore,Cross-shore,Cross-shore,Cross-shore,Cross-shore,Cross-shore,Cross-shore,Cross-shore",15
5842041f4e65fad6a7708830,2024_01_31,33.41800974113613,-117.61952,T-Street,3,0.9531,1.1919777777777778,16,16,"NIGHT_CLEAR,NIGHT_MIST,NIGHT_MIST,NIGHT_CLEAR,NIGHT_CLEAR,NIGHT_CLEAR,NIGHT_MIST,MIST,CLEAR,CLEAR,CLEAR,CLEAR,CLEAR,CLEAR,MIST","Offshore,Cross-shore,Offshore,Cross-shore,Offshore,Cross-shore,Onshore,Onshore,Cross-shore,Onshore,Onshore,Onshore,Onshore,Onshore,Onshore",15
5842041f4e65fad6a7708832,2024_01_31,33.202391008646,-117.39475,Oceanside Harbor,3.122,1.04394,1.3259444444444444,14.133333333333333,14.133333333333333,"NIGHT_CLEAR,NIGHT_MIST,NIGHT_MIST,NIGHT_MIST,NIGHT_CLEAR,NIGHT_CLEAR,NIGHT_CLEAR,CLEAR,CLEAR,CLEAR,CLEAR,CLEAR,CLEAR,MOSTLY_CLOUDY,MIST","Offshore,Offshore,Offshore,Offshore,Offshore,Offshore,Offshore,Offshore,Offshore,Offshore,Onshore,Onshore,Onshore,Onshore,Onshore",15
5842041f4e65fad6a7708835,2024_01_31,33.19477795952803,-117.38667,Oceanside Pier,3.244666666666667,0.8758911111111112,1.2916444444444446,14.133333333333333,14.133333333333333,"NIGHT_CLEAR,NIGHT_MIST,NIGHT_MIST,NIGHT_MIST,NIGHT_CLEAR,NIGHT_CLEAR,NIGHT_CLEAR,CLEAR,CLEAR,CLEAR,CLEAR,CLEAR,CLEAR,CLEAR,CLEAR","Offshore,Offshore,Offshore,Offshore,Offshore,Offshore,Offshore,Offshore,Offshore,Offshore,Onshore,Onshore,Onshore,Onshore,Onshore",15
5842041f4e65fad6a7708837,2024_01_31,33.14948100706,-117.35029,Tamarack,2,0.24066666666666667,0.5453333333333333,16,16,"NIGHT_CLEAR,NIGHT_CLEAR,NIGHT_MIST,NIGHT_MIST,NIGHT_MIST,NIGHT_MIST,NIGHT_CLEAR,CLEAR,CLEAR,CLEAR,CLEAR,CLEAR,CLEAR,BRIEF_SHOWERS,BRIEF_SHOWERS","Offshore,Offshore,Offshore,Offshore,Offshore,Offshore,Cross-shore,Onshore,Offshore,Cross-shore,Onshore,Onshore,Onshore,Onshore,Onshore",15
5842041f4e65fad6a7708839,2024_01_31,32.865777159358856,-117.25614295356122,Scripps,3,1.0261044444444445,1.297488888888889,14,14,"NIGHT_CLEAR,NIGHT_CLEAR,NIGHT_MIST,NIGHT_MIST,NIGHT_MIST,NIGHT_MIST,NIGHT_MIST,CLEAR,CLEAR,CLEAR,CLEAR,CLEAR,CLEAR,CLEAR,CLEAR","Offshore,Offshore,Offshore,Offshore,Offshore,Offshore,Offshore,Offshore,Offshore,Offshore,Cross-shore,Cross-shore,Cross-shore,Cross-shore,Cross-shore",15
5842041f4e65fad6a770883a,2024_01_31,32.813094,-117.27381,Birdrock,3,1.0573333333333332,1.3086666666666666,16,16,"NIGHT_CLEAR,NIGHT_CLEAR,NIGHT_MIST,NIGHT_MIST,NIGHT_MIST,NIGHT_MIST,NIGHT_MIST,MIST,CLEAR,CLEAR,CLEAR,CLEAR,CLEAR,CLEAR,CLEAR","Onshore,Offshore,Offshore,Cross-shore,Onshore,Offshore,Offshore,Onshore,Offshore,Offshore,Cross-shore,Onshore,Onshore,Onshore,Onshore",15
5842041f4e65fad6a770883b,2024_01_31,32.877231,-117.25303,Blacks,3.6666666666666665,1.352468888888889,1.8090644444444444,14,14,"NIGHT_CLEAR,NIGHT_CLEAR,NIGHT_MIST,NIGHT_MIST,NIGHT_MIST,NIGHT_MIST,NIGHT_MIST,CLEAR,CLEAR,CLEAR,CLEAR,CLEAR,CLEAR,CLEAR,CLEAR","Onshore,Onshore,Onshore,Onshore,Cross-shore,Offshore,Offshore,Cross-shore,Onshore,Onshore,Onshore,Onshore,Onshore,Onshore,Onshore",15
5842041f4e65fad6a770883c,2024_01_31,32.82978974229765,-117.28161740727381,Windansea,3,1.1948822222222222,1.595928888888889,14,14,"NIGHT_CLEAR,NIGHT_CLEAR,NIGHT_MIST,NIGHT_MIST,NIGHT_MIST,NIGHT_MIST,NIGHT_MIST,CLEAR,CLEAR,CLEAR,CLEAR,CLEAR,CLEAR,CLEAR,CLEAR","Offshore,Offshore,Offshore,Offshore,Offshore,Offshore,Offshore,Offshore,Offshore,Cross-shore,Cross-shore,Onshore,Onshore,Onshore,Onshore",15
5842041f4e65fad6a770883d,2024_01_31,32.838278,-117.28396,Horseshoe,3.4,1.1926666666666668,1.4353333333333333,16,16,"NIGHT_CLEAR,NIGHT_CLEAR,NIGHT_MIST,NIGHT_MIST,NIGHT_MIST,NIGHT_MIST,NIGHT_MIST,CLEAR,CLEAR,CLEAR,CLEAR,CLEAR,CLEAR,CLEAR,CLEAR","Cross-shore,Offshore,Offshore,Onshore,Offshore,Offshore,Offshore,Onshore,Offshore,Offshore,Offshore,Onshore,Onshore,Onshore,Onshore",15
5842041f4e65fad6a770883f,2024_01_31,32.75034717673179,-117.25337,Ocean Beach,3,1.2419822222222223,1.6322555555555556,14,14,"NIGHT_CLEAR,NIGHT_CLEAR,NIGHT_MIST,NIGHT_MIST,NIGHT_CLEAR,NIGHT_MIST,NIGHT_MIST,CLEAR,CLEAR,CLEAR,CLEAR,CLEAR,CLEAR,CLEAR,MIST","Offshore,Offshore,Offshore,Offshore,Offshore,Offshore,Offshore,Offshore,Offshore,Cross-shore,Onshore,Onshore,Onshore,Onshore,Onshore",15
5842041f4e65fad6a7708840,2024_01_31,32.73693,-117.25718,Sunset Cliffs,3,1.0586666666666666,1.3306666666666667,15.666666666666666,15.666666666666666,"NIGHT_CLEAR,NIGHT_CLEAR,NIGHT_MIST,NIGHT_MIST,NIGHT_CLEAR,NIGHT_MIST,NIGHT_MIST,CLEAR,CLEAR,CLEAR,CLEAR,CLEAR,CLEAR,CLEAR,CLEAR","Offshore,Offshore,Offshore,Offshore,Offshore,Offshore,Offshore,Offshore,Offshore,Cross-shore,Cross-shore,Onshore,Onshore,Onshore,Onshore",15
5842041f4e65fad6a7708841,2024_01_31,32.796582258728826,-117.25779,Pacific Beach,2.933333333333333,1.1587711111111112,1.454088888888889,14,14,"NIGHT_CLEAR,NIGHT_CLEAR,NIGHT_MIST,NIGHT_MIST,NIGHT_MIST,NIGHT_MIST,NIGHT_MIST,CLEAR,CLEAR,CLEAR,CLEAR,MIST,MIST,BRIEF_SHOWERS,BRIEF_SHOWERS","Onshore,Offshore,Cross-shore,Cross-shore,Onshore,Offshore,Offshore,Cross-shore,Offshore,Offshore,Cross-shore,Onshore,Onshore,Onshore,Onshore",15
5842041f4e65fad6a7708842,2024_01_31,32.776636,-117.25514,Mission Beach,2.922,1.1324377777777779,1.4357555555555557,14,14,"NIGHT_CLEAR,NIGHT_CLEAR,NIGHT_MIST,NIGHT_MIST,NIGHT_MIST,NIGHT_MIST,NIGHT_MIST,CLEAR,CLEAR,CLEAR,CLEAR,MIST,MIST,BRIEF_SHOWERS,BRIEF_SHOWERS","Cross-shore,Cross-shore,Offshore,Onshore,Cross-shore,Offshore,Offshore,Cross-shore,Offshore,Offshore,Offshore,Onshore,Onshore,Onshore,Onshore",15
5842041f4e65fad6a7708844,2024_01_31,32.577195519016,-117.13475,Imperial Beach Pier,3,1.2253333333333334,1.494,15.666666666666666,15.666666666666666,"NIGHT_CLEAR,NIGHT_CLEAR,NIGHT_CLEAR,NIGHT_CLEAR,NIGHT_MIST,NIGHT_MIST,NIGHT_MIST,MIST,CLEAR,CLEAR,CLEAR,CLEAR,CLEAR,MIST,BRIEF_SHOWERS","Offshore,Onshore,Offshore,Offshore,Offshore,Offshore,Offshore,Cross-shore,Offshore,Cross-shore,Onshore,Onshore,Onshore,Onshore,Onshore",15
5842041f4e65fad6a770884a,2024_01_31,42.88678181061,-70.80843,Seabrook,2.7,0.8892235555555555,1.357661,5,4,"NIGHT_MOSTLY_CLOUDY,NIGHT_MOSTLY_CLOUDY,NIGHT_CLEAR,NIGHT_CLEAR,NIGHT_CLEAR,CLEAR,CLEAR,MOSTLY_CLEAR,CLEAR,CLEAR,CLEAR,CLEAR,CLEAR,CLEAR,NIGHT_CLEAR","Offshore,Offshore,Offshore,Offshore,Offshore,Offshore,Cross-shore,Cross-shore,Cross-shore,Cross-shore,Cross-shore,Offshore,Offshore,Offshore,Offshore",15
5842041f4e65fad6a770884e,2024_01_31,41.434181432898335,-71.45312118111178,Narragansett,2.5553333333333335,0.4858888888888889,0.7911111111111111,7,6,"NIGHT_CLEAR,NIGHT_CLOUDY,NIGHT_CLEAR,NIGHT_CLEAR,NIGHT_CLEAR,CLEAR,CLEAR,CLEAR,CLEAR,CLEAR,CLEAR,CLEAR,CLEAR,CLEAR,NIGHT_CLEAR","Offshore,Offshore,Cross-shore,Cross-shore,Offshore,Offshore,Cross-shore,Onshore,Onshore,Onshore,Onshore,Onshore,Onshore,Cross-shore,Onshore",15
5842041f4e65fad6a7708850,2024_01_31,40.582703230722,-73.65247,Lincoln Blvd,1.0533333333333332,0.24171111111111113,0.5432777777777779,7,6,"NIGHT_CLEAR,NIGHT_CLOUDY,NIGHT_CLEAR,NIGHT_CLOUDY,NIGHT_OVERCAST,CLEAR,MOSTLY_CLOUDY,CLEAR,CLEAR,CLEAR,CLEAR,CLEAR,CLEAR,CLEAR,MOSTLY_CLEAR","Onshore,Onshore,Onshore,Offshore,Offshore,Offshore,Offshore,Onshore,Onshore,Onshore,Onshore,Cross-shore,Cross-shore,Onshore,Onshore",15
5842041f4e65fad6a7708852,2024_01_31,40.58342841721757,-73.81182,Rockaways,1.9366666666666668,0.5438666666666667,0.8508333333333333,7,6,"NIGHT_CLOUDY,NIGHT_CLOUDY,NIGHT_CLEAR,NIGHT_OVERCAST,NIGHT_OVERCAST,MOSTLY_CLOUDY,MOSTLY_CLOUDY,MOSTLY_CLOUDY,OVERCAST,MOSTLY_CLOUDY,MIST,MIST,CLEAR,CLEAR,CLEAR","Cross-shore,Cross-shore,Cross-shore,Cross-shore,Cross-shore,Cross-shore,Cross-shore,Cross-shore,Onshore,Onshore,Onshore,Onshore,Onshore,Onshore,Onshore",15
5842041f4e65fad6a7708853,2024_01_31,40.330474,-73.9734,Monmouth Beach,1.256,0.5861666666666667,0.9772222222222222,5,4,"NIGHT_CLOUDY,NIGHT_CLEAR,NIGHT_OVERCAST,NIGHT_CLOUDY,NIGHT_CLEAR,OVERCAST,OVERCAST,OVERCAST,CLEAR,CLOUDY,CLOUDY,CLOUDY,MOSTLY_CLOUDY,CLEAR,CLEAR","Onshore,Onshore,Onshore,Onshore,Onshore,Onshore,Onshore,Onshore,Onshore,Onshore,Onshore,Onshore,Onshore,Onshore,Onshore",15
5842041f4e65fad6a7708856,2024_01_31,40.113,-74.028,Manasquan Inlet,1.31,0.9095666666666666,1.2989777777777778,5,4,"NIGHT_CLOUDY,NIGHT_CLEAR,NIGHT_CLOUDY,NIGHT_OVERCAST,NIGHT_OVERCAST,CLOUDY,OVERCAST,OVERCAST,CLOUDY,CLOUDY,CLOUDY,CLOUDY,CLOUDY,CLOUDY,CLEAR","Onshore,Onshore,Onshore,Onshore,Onshore,Onshore,Onshore,Onshore,Onshore,Onshore,Onshore,Onshore,Onshore,Onshore,Onshore",15
5842041f4e65fad6a7708857,2024_01_31,39.941519877445664,-74.06829,Casino Pier,1.31,1.0319666666666667,1.4346222222222222,5,4,"NIGHT_MOSTLY_CLOUDY,NIGHT_CLEAR,NIGHT_CLOUDY,NIGHT_CLOUDY,NIGHT_CLOUDY,OVERCAST,MOSTLY_CLOUDY,CLEAR,CLOUDY,CLOUDY,CLOUDY,CLOUDY,CLOUDY,CLOUDY,MOSTLY_CLOUDY","Onshore,Onshore,Onshore,Onshore,Onshore,Onshore,Onshore,Onshore,Onshore,Onshore,Onshore,Onshore,Onshore,Cross-shore,Onshore",15
5842041f4e65fad6a7708858,2024_01_31,39.28223089949212,-74.55766,North End OC,1.2433333333333334,0.8072511111111111,1.167231111111111,5,4,"NIGHT_CLOUDY,NIGHT_OVERCAST,NIGHT_OVERCAST,NIGHT_OVERCAST,NIGHT_OVERCAST,OVERCAST,OVERCAST,CLOUDY,OVERCAST,MOSTLY_CLOUDY,CLEAR,MOSTLY_CLOUDY,MOSTLY_CLOUDY,MOSTLY_CLOUDY,MOSTLY_CLOUDY","Onshore,Onshore,Onshore,Onshore,Onshore,Onshore,Onshore,Onshore,Onshore,Onshore,Onshore,Onshore,Cross-shore,Onshore,Cross-shore",15
5842041f4e65fad6a770885b,2024_01_31,39.65080599934257,-74.17146,Ship Bottom,1.27,0.9236555555555556,1.4298666666666666,5,4,"NIGHT_MOSTLY_CLOUDY,NIGHT_MOSTLY_CLOUDY,NIGHT_OVERCAST,NIGHT_OVERCAST,NIGHT_OVERCAST,OVERCAST,CLOUDY,MOSTLY_CLOUDY,CLOUDY,CLOUDY,CLOUDY,CLOUDY,CLOUDY,CLOUDY,CLOUDY","Onshore,Onshore,Onshore,Onshore,Onshore,Onshore,Onshore,Onshore,Onshore,Onshore,Onshore,Cross-shore,Cross-shore,Cross-shore,Cross-shore",15
5842041f4e65fad6a7708863,2024_01_31,36.034151543144,-75.66791,Third Street,1.4553333333333334,1.233,1.7824444444444445,9,8,"NIGHT_CLEAR,NIGHT_CLEAR,NIGHT_CLEAR,NIGHT_CLEAR,NIGHT_CLEAR,CLEAR,CLEAR,CLEAR,CLEAR,CLEAR,CLEAR,DRIZZLE,CLOUDY,BRIEF_SHOWERS,CLOUDY","Onshore,Onshore,Onshore,Onshore,Onshore,Onshore,Onshore,Onshore,Cross-shore,Cross-shore,Cross-shore,Onshore,Onshore,Onshore,Onshore",15
5842041f4e65fad6a7708867,2024_01_31,35.605833221351425,-75.46303,S-Turns,0.6593333333333333,1.5456222222222222,2.2121844444444445,11,9,"NIGHT_CLEAR,NIGHT_CLEAR,NIGHT_CLEAR,NIGHT_CLEAR,NIGHT_MOSTLY_CLOUDY,CLEAR,CLEAR,CLEAR,MIST,MIST,CLOUDY,CLOUDY,DRIZZLE,RAIN,LIGHT_RAIN","Onshore,Onshore,Onshore,Onshore,Onshore,Onshore,Onshore,Cross-shore,Cross-shore,Cross-shore,Cross-shore,Cross-shore,Cross-shore,Cross-shore,Cross-shore",15
5842041f4e65fad6a770886d,2024_01_31,38.338461,-75.08117,Ocean City Boardwalk,1.1593333333333333,0.9161,1.442688888888889,7,5,"NIGHT_OVERCAST,NIGHT_OVERCAST,NIGHT_OVERCAST,NIGHT_OVERCAST,NIGHT_OVERCAST,DRIZZLE,DRIZZLE,DRIZZLE,CLOUDY,CLOUDY,CLEAR,MOSTLY_CLOUDY,MOSTLY_CLEAR,MOSTLY_CLOUDY,MOSTLY_CLOUDY","Onshore,Onshore,Cross-shore,Cross-shore,Cross-shore,Cross-shore,Onshore,Onshore,Onshore,Onshore,Onshore,Onshore,Onshore,Onshore,Onshore",15
5842041f4e65fad6a770886f,2024_01_31,29.844757212379562,-81.26136,A St.,1.8666666666666667,0.20333333333333334,0.5093333333333333,15.333333333333334,15.333333333333334,"NIGHT_CLEAR,NIGHT_CLEAR,NIGHT_CLEAR,NIGHT_CLEAR,NIGHT_CLEAR,CLEAR,CLEAR,CLEAR,CLEAR,CLEAR,CLEAR,CLEAR,CLEAR,CLEAR,CLEAR","Offshore,Offshore,Offshore,Offshore,Offshore,Offshore,Offshore,Offshore,Offshore,Offshore,Offshore,Offshore,Offshore,Offshore,Cross-shore",15
5842041f4e65fad6a7708871,2024_01_31,29.069417851135093,-80.90824,New Smyrna Beach,2.533333333333333,0.7997288888888889,1.163808888888889,17,14,"NIGHT_CLEAR,NIGHT_CLEAR,NIGHT_CLEAR,NIGHT_CLEAR,NIGHT_CLEAR,CLEAR,CLEAR,CLEAR,CLEAR,CLEAR,CLEAR,CLEAR,CLEAR,CLEAR,CLEAR","Offshore,Offshore,Offshore,Offshore,Offshore,Offshore,Offshore,Offshore,Offshore,Offshore,Offshore,Offshore,Offshore,Offshore,Cross-shore",15
5842041f4e65fad6a7708872,2024_01_31,28.367707417566,-80.60171,Cocoa Beach Pier,1.078,0.07544444444444444,0.3386,17,17,"NIGHT_CLEAR,NIGHT_CLEAR,NIGHT_CLEAR,NIGHT_CLEAR,NIGHT_CLEAR,CLEAR,CLEAR,CLEAR,CLEAR,CLEAR,CLEAR,CLEAR,CLOUDY,CLEAR,CLEAR","Offshore,Offshore,Offshore,Offshore,Offshore,Offshore,Offshore,Offshore,Offshore,Offshore,Offshore,Offshore,Offshore,Offshore,Offshore",15
5842041f4e65fad6a7708873,2024_01_31,28.091782738658846,-80.56479,Indialantic,1.9886666666666666,0.3611111111111111,0.6622222222222223,18,18,"NIGHT_CLEAR,NIGHT_CLEAR,NIGHT_CLEAR,NIGHT_CLEAR,NIGHT_CLEAR,CLEAR,CLEAR,CLEAR,CLEAR,CLEAR,CLEAR,CLEAR,OVERCAST,MOSTLY_CLEAR,CLEAR","Offshore,Offshore,Offshore,Offshore,Offshore,Offshore,Offshore,Offshore,Offshore,Offshore,Offshore,Offshore,Offshore,Offshore,Offshore",15
5842041f4e65fad6a7708876,2024_01_31,27.25392904143517,-80.19455,Jensen Beach,1.722,0.4588888888888889,0.7655555555555555,24,22,"NIGHT_CLEAR,NIGHT_CLEAR,NIGHT_CLEAR,NIGHT_CLEAR,NIGHT_CLEAR,CLEAR,CLEAR,CLEAR,CLEAR,CLEAR,CLEAR,CLEAR,CLEAR,CLEAR,CLEAR","Offshore,Offshore,Offshore,Offshore,Offshore,Offshore,Offshore,Offshore,Offshore,Offshore,Offshore,Offshore,Offshore,Offshore,Offshore",15
5842041f4e65fad6a7708879,2024_01_31,26.76346795333825,-80.0360655784607,Reef Road,1.4886666666666666,0.3426111111111111,0.6467222222222222,25,23,"NIGHT_CLEAR,NIGHT_CLEAR,NIGHT_CLEAR,NIGHT_CLEAR,NIGHT_CLEAR,CLEAR,CLEAR,CLEAR,CLEAR,CLEAR,CLEAR,CLEAR,CLEAR,CLEAR,MOSTLY_CLEAR","Offshore,Offshore,Offshore,Offshore,Offshore,Offshore,Offshore,Offshore,Offshore,Offshore,Offshore,Offshore,Offshore,Offshore,Offshore",15
5842041f4e65fad6a770887c,2024_01_31,26.336499228484,-80.06956100463,Boca Raton Inlet,0.7333333333333334,0.043333333333333335,0.3471111111111111,25,23,"NIGHT_CLEAR,NIGHT_CLEAR,NIGHT_CLEAR,NIGHT_CLEAR,NIGHT_CLEAR,CLEAR,CLEAR,CLEAR,CLEAR,CLEAR,CLEAR,CLEAR,CLEAR,CLEAR,CLEAR","Offshore,Offshore,Offshore,Offshore,Offshore,Offshore,Offshore,Offshore,Offshore,Offshore,Offshore,Offshore,Offshore,Offshore,Offshore",15
5842041f4e65fad6a770887d,2024_01_31,26.31719311695038,-80.07452525176168,Deerfield Beach Pier,0.12266666666666667,0.016190333333333338,0.3192392777777778,25,23,"NIGHT_CLEAR,NIGHT_CLEAR,NIGHT_CLEAR,NIGHT_CLEAR,NIGHT_CLEAR,CLEAR,CLEAR,CLEAR,CLEAR,CLEAR,CLEAR,CLEAR,CLEAR,CLEAR,CLEAR","Offshore,Offshore,Offshore,Offshore,Offshore,Offshore,Offshore,Offshore,Offshore,Offshore,Offshore,Offshore,Offshore,Offshore,Offshore",15
5842041f4e65fad6a7708881,2024_01_31,30.20276320866628,-85.85626528676136,"Spyglass Dr., Panama City",1.3553333333333333,0.4655,0.835,14,13,"NIGHT_CLEAR,NIGHT_CLEAR,NIGHT_CLEAR,NIGHT_CLEAR,NIGHT_CLEAR,CLEAR,CLEAR,CLEAR,CLEAR,CLEAR,CLEAR,CLEAR,CLEAR,CLEAR,CLEAR","Onshore,Cross-shore,Onshore,Cross-shore,Cross-shore,Offshore,Offshore,Offshore,Offshore,Offshore,Offshore,Offshore,Offshore,Offshore,Offshore",15
5842041f4e65fad6a7708884,2024_01_31,33.39000832738053,-117.59852,Cottons,3.244666666666667,0.9601244444444444,1.2753133333333333,16,16,"NIGHT_CLEAR,NIGHT_CLEAR,NIGHT_CLEAR,NIGHT_CLEAR,NIGHT_CLEAR,NIGHT_CLEAR,NIGHT_CLEAR,CLEAR,CLEAR,CLEAR,CLEAR,CLEAR,CLEAR,CLEAR,CLEAR","Cross-shore,Offshore,Onshore,Offshore,Cross-shore,Offshore,Offshore,Offshore,Offshore,Offshore,Offshore,Cross-shore,Cross-shore,Cross-shore,Cross-shore",15
5842041f4e65fad6a7708885,2024_01_31,33.359416282661,-117.54167901405711,Trails,2.6666666666666665,0.6206666666666667,0.926,16,16,"NIGHT_CLEAR,NIGHT_CLEAR,NIGHT_CLEAR,NIGHT_CLEAR,NIGHT_CLEAR,NIGHT_CLEAR,NIGHT_CLEAR,CLEAR,CLEAR,CLEAR,CLEAR,CLEAR,CLEAR,CLEAR,CLEAR","Offshore,Offshore,Offshore,Offshore,Offshore,Offshore,Offshore,Offshore,Offshore,Offshore,Onshore,Onshore,Onshore,Onshore,Onshore",15
5842041f4e65fad6a7708886,2024_01_31,33.38042605929805,-117.58332,Middles,2.566666666666667,0.47156444444444445,0.7791644444444444,16,16,"NIGHT_CLEAR,NIGHT_CLEAR,NIGHT_CLEAR,NIGHT_CLEAR,NIGHT_CLEAR,NIGHT_CLEAR,NIGHT_CLEAR,CLEAR,CLEAR,CLEAR,CLEAR,CLEAR,CLEAR,CLEAR,CLEAR","Offshore,Offshore,Offshore,Offshore,Offshore,Offshore,Offshore,Offshore,Offshore,Offshore,Cross-shore,Cross-shore,Cross-shore,Cross-shore,Cross-shore",15
5842041f4e65fad6a7708887,2024_01_31,33.38445596302903,-117.59445,Upper Trestles,3.2333333333333334,0.9319022222222222,1.2692022222222221,16,16,"NIGHT_CLEAR,NIGHT_CLEAR,NIGHT_CLEAR,NIGHT_CLEAR,NIGHT_CLEAR,NIGHT_CLEAR,NIGHT_CLEAR,CLEAR,CLEAR,CLEAR,CLEAR,CLEAR,CLEAR,CLEAR,CLEAR","Offshore,Offshore,Onshore,Offshore,Offshore,Offshore,Offshore,Offshore,Offshore,Offshore,Cross-shore,Cross-shore,Cross-shore,Cross-shore,Cross-shore",15
5842041f4e65fad6a7708889,2024_01_31,28.944414,-95.28883,Surfside,1,0.17259733333333332,0.2696826666666667,12.333333333333334,12.333333333333334,"NIGHT_CLEAR,NIGHT_CLEAR,NIGHT_CLEAR,NIGHT_CLEAR,NIGHT_CLEAR,NIGHT_CLEAR,CLEAR,CLEAR,CLEAR,CLEAR,CLEAR,CLEAR,CLEAR,CLEAR,CLEAR","Cross-shore,Offshore,Offshore,Offshore,Offshore,Offshore,Offshore,Offshore,Offshore,Offshore,Cross-shore,Onshore,Onshore,Onshore,Onshore",15
5842041f4e65fad6a770888a,2024_01_31,33.38143999849023,-117.58843,Lower Trestles,2.8113333333333332,0.9378777777777778,1.1743666666666668,16,16,"NIGHT_CLEAR,NIGHT_CLEAR,NIGHT_CLEAR,NIGHT_CLEAR,NIGHT_CLEAR,NIGHT_CLEAR,NIGHT_CLEAR,CLEAR,CLEAR,CLEAR,CLEAR,CLEAR,CLEAR,CLEAR,CLEAR","Offshore,Offshore,Offshore,Offshore,Offshore,Offshore,Offshore,Offshore,Offshore,Offshore,Cross-shore,Cross-shore,Cross-shore,Cross-shore,Cross-shore",15
5842041f4e65fad6a770888b,2024_01_31,33.379622288757,-117.57894,Church,2.566666666666667,0.5102866666666667,0.8200533333333333,16,16,"NIGHT_CLEAR,NIGHT_CLEAR,NIGHT_CLEAR,NIGHT_CLEAR,NIGHT_CLEAR,NIGHT_CLEAR,NIGHT_CLEAR,CLEAR,CLEAR,CLEAR,CLEAR,CLEAR,CLEAR,CLEAR,CLEAR","Cross-shore,Offshore,Offshore,Offshore,Offshore,Offshore,Offshore,Offshore,Offshore,Offshore,Cross-shore,Cross-shore,Cross-shore,Cross-shore,Cross-shore",15
5842041f4e65fad6a770888d,2024_01_31,21.679,-158.042,Sunset Beach,3.3333333333333335,3.0406400000000002,3.8432933333333335,26,25,"NIGHT_MOSTLY_CLEAR,NIGHT_MOSTLY_CLEAR,NIGHT_CLEAR,NIGHT_CLEAR,NIGHT_CLEAR,NIGHT_CLEAR,NIGHT_CLEAR,NIGHT_CLEAR,NIGHT_CLEAR,NIGHT_MOSTLY_CLEAR,CLEAR,CLEAR,CLEAR,CLEAR,CLEAR","Offshore,Offshore,Offshore,Offshore,Offshore,Offshore,Onshore,Offshore,Cross-shore,Offshore,Offshore,Offshore,Cross-shore,Onshore,Onshore",15
5842041f4e65fad6a770888e,2024_01_31,21.670550036401,-158.0482,Rocky Point,3.1886666666666668,2.914686666666667,3.7051133333333333,26,25,"NIGHT_MOSTLY_CLEAR,NIGHT_MOSTLY_CLEAR,NIGHT_CLEAR,NIGHT_CLEAR,NIGHT_CLEAR,NIGHT_CLEAR,NIGHT_CLEAR,NIGHT_CLEAR,NIGHT_MOSTLY_CLEAR,NIGHT_CLEAR,CLEAR,CLEAR,CLEAR,CLEAR,CLEAR","Offshore,Offshore,Offshore,Offshore,Offshore,Onshore,Offshore,Offshore,Onshore,Offshore,Offshore,Offshore,Offshore,Cross-shore,Onshore",15
5842041f4e65fad6a770888f,2024_01_31,21.668,-158.05,Chambers,3.3333333333333335,2.8633333333333333,3.4213333333333336,24,24,"NIGHT_MOSTLY_CLEAR,NIGHT_MOSTLY_CLEAR,NIGHT_CLEAR,NIGHT_CLEAR,NIGHT_CLEAR,NIGHT_CLEAR,NIGHT_CLEAR,NIGHT_CLEAR,NIGHT_MOSTLY_CLEAR,NIGHT_CLEAR,CLEAR,CLEAR,CLEAR,CLEAR,CLEAR","Offshore,Offshore,Offshore,Offshore,Offshore,Offshore,Cross-shore,Offshore,Cross-shore,Offshore,Offshore,Offshore,Cross-shore,Onshore,Onshore",15
5842041f4e65fad6a7708890,2024_01_31,21.66522,-158.0526,Pipeline,3.744666666666667,2.9076866666666668,3.6644466666666666,26,25,"NIGHT_MOSTLY_CLEAR,NIGHT_MOSTLY_CLEAR,NIGHT_CLEAR,NIGHT_CLEAR,NIGHT_CLEAR,NIGHT_CLEAR,NIGHT_CLEAR,NIGHT_CLEAR,NIGHT_MOSTLY_CLEAR,NIGHT_CLEAR,CLEAR,CLEAR,CLEAR,CLEAR,CLEAR","Offshore,Offshore,Offshore,Offshore,Offshore,Cross-shore,Offshore,Offshore,Onshore,Offshore,Offshore,Offshore,Offshore,Cross-shore,Onshore",15
5842041f4e65fad6a7708891,2024_01_31,21.665,-158.054,Backdoor,3.6666666666666665,3.0493333333333332,3.6053333333333333,24,24,"NIGHT_MOSTLY_CLEAR,NIGHT_MOSTLY_CLEAR,NIGHT_CLEAR,NIGHT_CLEAR,NIGHT_CLEAR,NIGHT_CLEAR,NIGHT_CLEAR,NIGHT_CLEAR,NIGHT_MOSTLY_CLEAR,NIGHT_CLEAR,CLEAR,CLEAR,CLEAR,CLEAR,CLEAR","Offshore,Offshore,Offshore,Offshore,Offshore,Offshore,Cross-shore,Offshore,Onshore,Cross-shore,Offshore,Offshore,Cross-shore,Onshore,Onshore",15
5842041f4e65fad6a7708892,2024_01_31,21.662,-158.057,Rockpile,3.2666666666666666,3.228,3.8593333333333333,24,24,"NIGHT_MOSTLY_CLEAR,NIGHT_MOSTLY_CLEAR,NIGHT_MOSTLY_CLEAR,NIGHT_CLEAR,NIGHT_CLEAR,NIGHT_CLEAR,NIGHT_CLEAR,NIGHT_CLEAR,NIGHT_MOSTLY_CLEAR,NIGHT_CLEAR,CLEAR,CLEAR,CLEAR,CLEAR,CLEAR","Offshore,Offshore,Offshore,Offshore,Offshore,Offshore,Offshore,Offshore,Onshore,Offshore,Offshore,Offshore,Offshore,Onshore,Onshore",15
5842041f4e65fad6a7708893,2024_01_31,21.65870453806827,-158.06058,Log Cabins,3,2.538666666666667,3.03,24,24,"NIGHT_MOSTLY_CLEAR,NIGHT_MOSTLY_CLEAR,NIGHT_CLEAR,NIGHT_CLEAR,NIGHT_CLEAR,NIGHT_CLEAR,NIGHT_CLEAR,NIGHT_CLEAR,NIGHT_MOSTLY_CLEAR,NIGHT_CLEAR,CLEAR,CLEAR,CLEAR,CLEAR,CLEAR","Offshore,Offshore,Offshore,Offshore,Offshore,Offshore,Cross-shore,Offshore,Onshore,Cross-shore,Offshore,Offshore,Offshore,Cross-shore,Onshore",15
5842041f4e65fad6a7708894,2024_01_31,21.66203493640557,-158.05495,Off-The-Wall,3.2,3.2106666666666666,3.8226666666666667,24,24,"NIGHT_MOSTLY_CLEAR,NIGHT_MOSTLY_CLEAR,NIGHT_MOSTLY_CLEAR,NIGHT_CLEAR,NIGHT_CLEAR,NIGHT_CLEAR,NIGHT_CLEAR,NIGHT_CLEAR,NIGHT_MOSTLY_CLEAR,NIGHT_CLEAR,CLEAR,CLEAR,CLEAR,CLEAR,CLEAR","Offshore,Offshore,Offshore,Offshore,Offshore,Onshore,Onshore,Offshore,Onshore,Cross-shore,Offshore,Offshore,Offshore,Cross-shore,Onshore",15
5842041f4e65fad6a7708895,2024_01_31,21.643,-158.067,Waimea Bay,NA,3.124188888888889,3.972922222222222,26,25,"NIGHT_MOSTLY_CLEAR,NIGHT_MOSTLY_CLEAR,NIGHT_MOSTLY_CLEAR,NIGHT_CLEAR,NIGHT_CLEAR,NIGHT_CLEAR,NIGHT_CLEAR,NIGHT_CLEAR,NIGHT_MOSTLY_CLEAR,NIGHT_CLEAR,CLEAR,CLEAR,CLEAR,CLEAR,CLEAR","Offshore,Offshore,Offshore,Offshore,Offshore,Onshore,Offshore,Offshore,Onshore,Offshore,Offshore,Offshore,Offshore,Onshore,Onshore",15
5842041f4e65fad6a7708896,2024_01_31,21.622,-158.087,Hultin's,3.255333333333333,3.0493533333333334,3.81178,26,25,"NIGHT_MOSTLY_CLEAR,NIGHT_MOSTLY_CLEAR,NIGHT_CLEAR,NIGHT_CLEAR,NIGHT_CLEAR,NIGHT_CLEAR,NIGHT_CLEAR,NIGHT_CLEAR,NIGHT_CLEAR,NIGHT_CLEAR,CLEAR,CLEAR,CLEAR,CLEAR,CLEAR","Offshore,Offshore,Offshore,Offshore,Offshore,Offshore,Offshore,Offshore,Offshore,Offshore,Offshore,Offshore,Offshore,Onshore,Onshore",15
5842041f4e65fad6a7708897,2024_01_31,21.623,-158.085,Jocko's,3.066666666666667,2.748666666666667,3.284666666666667,24,24,"NIGHT_MOSTLY_CLEAR,NIGHT_MOSTLY_CLEAR,NIGHT_CLEAR,NIGHT_CLEAR,NIGHT_CLEAR,NIGHT_CLEAR,NIGHT_CLEAR,NIGHT_CLEAR,NIGHT_CLEAR,NIGHT_CLEAR,CLEAR,CLEAR,CLEAR,CLEAR,CLEAR","Onshore,Onshore,Cross-shore,Cross-shore,Cross-shore,Cross-shore,Cross-shore,Cross-shore,Cross-shore,Cross-shore,Cross-shore,Cross-shore,Offshore,Cross-shore,Cross-shore",15
5842041f4e65fad6a7708898,2024_01_31,21.62,-158.088,Laniakea,3.0553333333333335,2.6583533333333333,3.2190666666666665,26,25,"NIGHT_MOSTLY_CLEAR,NIGHT_MOSTLY_CLEAR,NIGHT_MOSTLY_CLEAR,NIGHT_CLEAR,NIGHT_CLEAR,NIGHT_CLEAR,NIGHT_CLEAR,NIGHT_CLEAR,NIGHT_CLEAR,NIGHT_CLEAR,CLEAR,CLEAR,CLEAR,CLEAR,CLEAR","Cross-shore,Cross-shore,Cross-shore,Offshore,Offshore,Offshore,Offshore,Offshore,Offshore,Offshore,Offshore,Offshore,Offshore,Onshore,Onshore",15
5842041f4e65fad6a7708899,2024_01_31,21.625,-158.083,Chun's,3.4,2.8846666666666665,3.446,24,24,"NIGHT_MOSTLY_CLEAR,NIGHT_MOSTLY_CLEAR,NIGHT_CLEAR,NIGHT_CLEAR,NIGHT_CLEAR,NIGHT_CLEAR,NIGHT_CLEAR,NIGHT_CLEAR,NIGHT_CLEAR,NIGHT_CLEAR,CLEAR,CLEAR,CLEAR,CLEAR,CLEAR","Offshore,Offshore,Offshore,Offshore,Offshore,Offshore,Offshore,Offshore,Offshore,Offshore,Offshore,Offshore,Offshore,Onshore,Onshore",15
5842041f4e65fad6a770889c,2024_01_31,21.286357895152136,-157.8515,South Shore - Ala Moana Park,3,0.666,0.972,24.333333333333332,24.333333333333332,"NIGHT_OVERCAST,NIGHT_MOSTLY_CLOUDY,NIGHT_CLEAR,NIGHT_CLEAR,NIGHT_CLEAR,NIGHT_CLEAR,NIGHT_CLEAR,NIGHT_CLEAR,NIGHT_MOSTLY_CLEAR,NIGHT_CLEAR,CLEAR,CLEAR,MOSTLY_CLOUDY,CLEAR,CLEAR","Offshore,Offshore,Offshore,Offshore,Offshore,Offshore,Offshore,Offshore,Offshore,Offshore,Offshore,Offshore,Offshore,Offshore,Onshore",15
5842041f4e65fad6a770889d,2024_01_31,19.606,-155.978,Banyans,3.8666666666666667,2.053,2.5846666666666667,26,25,"NIGHT_MOSTLY_CLOUDY,NIGHT_FOG,NIGHT_FOG,NIGHT_CLEAR,NIGHT_CLEAR,NIGHT_MOSTLY_CLEAR,NIGHT_MOSTLY_CLEAR,NIGHT_CLEAR,NIGHT_CLEAR,CLEAR,CLEAR,CLEAR,CLEAR,CLEAR,CLEAR","Cross-shore,Onshore,Onshore,Offshore,Cross-shore,Offshore,Offshore,Cross-shore,Offshore,Offshore,Cross-shore,Onshore,Onshore,Onshore,Onshore",15
5842041f4e65fad6a770889e,2024_01_31,20.029,-155.831,Kawaihae,3.8,2.0357893333333332,2.298172,25,25,"NIGHT_CLEAR,NIGHT_CLEAR,NIGHT_MOSTLY_CLOUDY,NIGHT_MOSTLY_CLOUDY,NIGHT_CLEAR,NIGHT_MOSTLY_CLEAR,NIGHT_MOSTLY_CLEAR,NIGHT_CLEAR,NIGHT_CLEAR,CLEAR,CLEAR,CLEAR,CLEAR,MOSTLY_CLEAR,CLEAR","Offshore,Cross-shore,Offshore,Onshore,Offshore,Offshore,Offshore,Offshore,Offshore,Offshore,Cross-shore,Onshore,Onshore,Onshore,Onshore",15
5842041f4e65fad6a770889f,2024_01_31,33.07541383424675,-117.3105,Grandview,3,0.9766666666666667,1.1973333333333334,16,16,"NIGHT_CLEAR,NIGHT_MIST,NIGHT_CLEAR,NIGHT_CLEAR,NIGHT_CLEAR,NIGHT_CLEAR,NIGHT_CLEAR,CLEAR,CLEAR,CLEAR,CLEAR,CLEAR,MOSTLY_CLEAR,BRIEF_SHOWERS,MIST","Cross-shore,Offshore,Offshore,Onshore,Onshore,Offshore,Offshore,Onshore,Offshore,Offshore,Onshore,Onshore,Onshore,Onshore,Onshore",15
5842041f4e65fad6a77088a0,2024_01_31,33.065267421296596,-117.30577,Beacons,3,0.9486666666666667,1.1646666666666667,16,16,"NIGHT_CLEAR,NIGHT_MIST,NIGHT_CLEAR,NIGHT_CLEAR,NIGHT_CLEAR,NIGHT_CLEAR,NIGHT_CLEAR,CLEAR,CLEAR,CLEAR,CLEAR,CLEAR,MOSTLY_CLEAR,BRIEF_SHOWERS,MIST","Cross-shore,Offshore,Offshore,Onshore,Onshore,Offshore,Offshore,Onshore,Offshore,Offshore,Onshore,Onshore,Onshore,Onshore,Onshore",15
5842041f4e65fad6a77088a2,2024_01_31,21.252,-157.805,Diamond Head,2.566666666666667,0.5753495555555556,0.932008,26,25,"NIGHT_MOSTLY_CLOUDY,NIGHT_MOSTLY_CLOUDY,NIGHT_MOSTLY_CLOUDY,NIGHT_CLEAR,NIGHT_CLEAR,NIGHT_CLEAR,NIGHT_CLEAR,NIGHT_CLEAR,NIGHT_MOSTLY_CLEAR,NIGHT_MOSTLY_CLEAR,CLEAR,MOSTLY_CLOUDY,MOSTLY_CLOUDY,CLEAR,CLEAR","Offshore,Offshore,Offshore,Offshore,Offshore,Offshore,Offshore,Cross-shore,Offshore,Offshore,Offshore,Cross-shore,Cross-shore,Cross-shore,Cross-shore",15
5842041f4e65fad6a77088a3,2024_01_31,33.04694255008896,-117.29966,Moonlight State Beach,3,0.9706666666666667,1.1926666666666668,16,16,"NIGHT_CLEAR,NIGHT_MIST,NIGHT_CLEAR,NIGHT_CLEAR,NIGHT_CLEAR,NIGHT_CLEAR,NIGHT_CLEAR,CLEAR,CLEAR,CLEAR,CLEAR,CLEAR,MIST,BRIEF_SHOWERS,BRIEF_SHOWERS","Offshore,Offshore,Offshore,Cross-shore,Cross-shore,Offshore,Offshore,Offshore,Offshore,Cross-shore,Onshore,Onshore,Onshore,Onshore,Onshore",15
5842041f4e65fad6a77088a5,2024_01_31,33.08685865930869,-117.31532,Ponto,3.3333333333333335,1.2,1.466,16,16,"NIGHT_CLEAR,NIGHT_MIST,NIGHT_CLEAR,NIGHT_CLEAR,NIGHT_CLEAR,NIGHT_CLEAR,NIGHT_CLEAR,CLEAR,CLEAR,CLEAR,CLEAR,CLEAR,MOSTLY_CLEAR,BRIEF_SHOWERS,MIST","Onshore,Offshore,Offshore,Offshore,Offshore,Offshore,Offshore,Offshore,Offshore,Offshore,Onshore,Onshore,Onshore,Cross-shore,Cross-shore",15
5842041f4e65fad6a77088a6,2024_01_31,33.130343587871906,-117.33667796442558,Terra Mar Point,3.0553333333333335,0.8241622222222222,1.2723822222222223,14.133333333333333,14.133333333333333,"NIGHT_CLEAR,NIGHT_CLEAR,NIGHT_MIST,NIGHT_MIST,NIGHT_MIST,NIGHT_CLEAR,NIGHT_CLEAR,CLEAR,CLEAR,CLEAR,CLEAR,CLEAR,CLEAR,CLEAR,CLEAR","Offshore,Cross-shore,Offshore,Offshore,Offshore,Cross-shore,Cross-shore,Onshore,Offshore,Cross-shore,Onshore,Onshore,Onshore,Onshore,Onshore",15
5842041f4e65fad6a77088af,2024_01_31,32.95916304183685,-117.26963,Del Mar,3.2666666666666666,1.016,1.2746666666666666,16,16,"NIGHT_CLEAR,NIGHT_CLEAR,NIGHT_MIST,NIGHT_MIST,NIGHT_CLEAR,NIGHT_MIST,NIGHT_CLEAR,CLEAR,CLEAR,CLEAR,CLEAR,CLEAR,MIST,BRIEF_SHOWERS,BRIEF_SHOWERS","Offshore,Offshore,Offshore,Offshore,Offshore,Offshore,Offshore,Cross-shore,Offshore,Cross-shore,Offshore,Offshore,Onshore,Onshore,Onshore",15
5842041f4e65fad6a77088b0,2024_01_31,32.97527261243354,-117.2721061331305,Del Mar Rivermouth,3.533333333333333,1.1653333333333333,1.396,16,16,"NIGHT_CLEAR,NIGHT_CLEAR,NIGHT_MIST,NIGHT_CLEAR,NIGHT_CLEAR,NIGHT_CLEAR,NIGHT_CLEAR,CLEAR,CLEAR,CLEAR,CLEAR,CLEAR,BRIEF_SHOWERS,BRIEF_SHOWERS,BRIEF_SHOWERS","Offshore,Offshore,Offshore,Offshore,Offshore,Offshore,Offshore,Offshore,Offshore,Cross-shore,Offshore,Offshore,Onshore,Onshore,Onshore",15
5842041f4e65fad6a77088b1,2024_01_31,33.01352178146273,-117.28219,Cardiff Reef,3.533333333333333,1.2043844444444445,1.6307155555555555,14.133333333333333,14.133333333333333,"NIGHT_CLEAR,NIGHT_CLEAR,NIGHT_CLEAR,NIGHT_CLEAR,NIGHT_CLEAR,NIGHT_CLEAR,NIGHT_CLEAR,CLEAR,CLEAR,CLEAR,CLEAR,CLEAR,BRIEF_SHOWERS,BRIEF_SHOWERS,BRIEF_SHOWERS","Offshore,Offshore,Offshore,Offshore,Offshore,Offshore,Offshore,Offshore,Offshore,Cross-shore,Onshore,Onshore,Onshore,Onshore,Onshore",15
5842041f4e65fad6a77088b3,2024_01_31,33.00211185876003,-117.2811,Seaside Reef,3.533333333333333,1.231551111111111,1.6632155555555554,14.133333333333333,14.133333333333333,"NIGHT_CLEAR,NIGHT_CLEAR,NIGHT_CLEAR,NIGHT_CLEAR,NIGHT_CLEAR,NIGHT_CLEAR,NIGHT_CLEAR,CLEAR,CLEAR,CLEAR,CLEAR,CLEAR,BRIEF_SHOWERS,MIST,BRIEF_SHOWERS","Offshore,Offshore,Offshore,Offshore,Offshore,Offshore,Offshore,Offshore,Offshore,Cross-shore,Onshore,Onshore,Onshore,Onshore,Onshore",15
5842041f4e65fad6a77088b4,2024_01_31,33.0341859796287,-117.29552,Swami's,3.3666666666666667,1.16994,1.6127711111111112,14.133333333333333,14.133333333333333,"NIGHT_CLEAR,NIGHT_CLEAR,NIGHT_CLEAR,NIGHT_CLEAR,NIGHT_CLEAR,NIGHT_CLEAR,NIGHT_CLEAR,CLEAR,CLEAR,CLEAR,CLEAR,CLEAR,BRIEF_SHOWERS,BRIEF_SHOWERS,BRIEF_SHOWERS","Cross-shore,Cross-shore,Cross-shore,Cross-shore,Cross-shore,Offshore,Offshore,Offshore,Offshore,Cross-shore,Onshore,Onshore,Onshore,Onshore,Onshore",15
5842041f4e65fad6a77088b7,2024_01_31,33.04569760260221,-117.2994,D Street,3.3333333333333335,1.1266666666666667,1.3426666666666667,16,16,"NIGHT_CLEAR,NIGHT_MIST,NIGHT_CLEAR,NIGHT_CLEAR,NIGHT_CLEAR,NIGHT_CLEAR,NIGHT_CLEAR,CLEAR,CLEAR,CLEAR,CLEAR,CLEAR,MIST,BRIEF_SHOWERS,BRIEF_SHOWERS","Offshore,Cross-shore,Offshore,Cross-shore,Cross-shore,Offshore,Offshore,Offshore,Offshore,Cross-shore,Onshore,Onshore,Onshore,Onshore,Onshore",15
5842041f4e65fad6a77088b8,2024_01_31,33.02090944350196,-117.28535,San Elijo State Beach,3.1666666666666665,0.97194,1.4067711111111112,14.133333333333333,14.133333333333333,"NIGHT_CLEAR,NIGHT_CLEAR,NIGHT_CLEAR,NIGHT_CLEAR,NIGHT_CLEAR,NIGHT_CLEAR,NIGHT_CLEAR,CLEAR,CLEAR,CLEAR,CLEAR,CLEAR,BRIEF_SHOWERS,BRIEF_SHOWERS,BRIEF_SHOWERS","Offshore,Offshore,Offshore,Offshore,Offshore,Offshore,Offshore,Offshore,Offshore,Cross-shore,Onshore,Onshore,Onshore,Onshore,Onshore",15
5842041f4e65fad6a77088c2,2024_01_31,32.80662846492798,-117.2688764333725,PB Point,3,1.004,1.1766666666666665,15.666666666666666,15.666666666666666,"NIGHT_CLEAR,NIGHT_CLEAR,NIGHT_MIST,NIGHT_MIST,NIGHT_MIST,NIGHT_MIST,NIGHT_MIST,MIST,CLEAR,CLEAR,CLEAR,CLEAR,CLEAR,CLEAR,CLEAR","Onshore,Cross-shore,Offshore,Offshore,Offshore,Cross-shore,Cross-shore,Cross-shore,Offshore,Cross-shore,Cross-shore,Onshore,Onshore,Onshore,Onshore",15
5842041f4e65fad6a77088c4,2024_01_31,32.8060476681448,-117.26479,Old Man's at Tourmaline,2.933333333333333,0.5640000000000001,0.8686666666666667,15.666666666666666,15.666666666666666,"NIGHT_CLEAR,NIGHT_CLEAR,NIGHT_MIST,NIGHT_MIST,NIGHT_MIST,NIGHT_MIST,NIGHT_MIST,MIST,CLEAR,CLEAR,CLEAR,CLEAR,CLEAR,CLEAR,CLEAR","Onshore,Offshore,Cross-shore,Offshore,Onshore,Cross-shore,Cross-shore,Onshore,Offshore,Cross-shore,Cross-shore,Onshore,Onshore,Onshore,Onshore",15
5842041f4e65fad6a77088cb,2024_01_31,32.557056711256,-117.1327445020322,Tijuana Slough,2.6666666666666665,0.5266666666666666,0.8313333333333334,15.666666666666666,15.666666666666666,"NIGHT_CLEAR,NIGHT_CLEAR,NIGHT_CLEAR,NIGHT_CLEAR,NIGHT_MIST,NIGHT_MIST,NIGHT_CLEAR,CLEAR,CLEAR,CLEAR,CLEAR,CLEAR,MIST,BRIEF_SHOWERS,BRIEF_SHOWERS","Offshore,Onshore,Offshore,Offshore,Offshore,Offshore,Cross-shore,Cross-shore,Cross-shore,Onshore,Onshore,Onshore,Onshore,Onshore,Onshore",15
5842041f4e65fad6a77088cc,2024_01_31,32.863,-117.257,La Jolla Shores,3,0.846,1.072,16,16,"NIGHT_CLEAR,NIGHT_CLEAR,NIGHT_MIST,NIGHT_MIST,NIGHT_MIST,NIGHT_MIST,NIGHT_MIST,CLEAR,CLEAR,CLEAR,CLEAR,CLEAR,CLEAR,CLEAR,CLEAR","Offshore,Offshore,Offshore,Offshore,Offshore,Offshore,Offshore,Offshore,Offshore,Offshore,Cross-shore,Cross-shore,Cross-shore,Cross-shore,Cross-shore",15
5842041f4e65fad6a77088ce,2024_01_31,32.67443657790586,-117.17421316238693,Coronado Beach,2.7333333333333334,0.4266666666666667,0.732,15.666666666666666,15.666666666666666,"NIGHT_CLEAR,NIGHT_CLEAR,NIGHT_CLEAR,NIGHT_MIST,NIGHT_CLEAR,NIGHT_CLEAR,NIGHT_CLEAR,CLEAR,CLEAR,CLEAR,CLEAR,CLEAR,CLEAR,MIST,MIST","Offshore,Offshore,Cross-shore,Offshore,Offshore,Cross-shore,Cross-shore,Onshore,Onshore,Onshore,Onshore,Onshore,Onshore,Onshore,Onshore",15
5842041f4e65fad6a77088cf,2024_01_31,33.40484417640326,-117.60749,San Clemente State Beach,2.8666666666666667,0.844,1.074,16,16,"NIGHT_CLEAR,NIGHT_CLEAR,NIGHT_CLEAR,NIGHT_CLEAR,NIGHT_CLEAR,NIGHT_CLEAR,NIGHT_CLEAR,MIST,CLEAR,CLEAR,CLEAR,CLEAR,CLEAR,CLEAR,CLEAR","Cross-shore,Cross-shore,Cross-shore,Offshore,Offshore,Offshore,Onshore,Onshore,Cross-shore,Onshore,Onshore,Onshore,Onshore,Onshore,Onshore",15
5842041f4e65fad6a77088d5,2024_01_31,33.4663042002114,-117.7168352817103,Strands,3.5886666666666667,1.0535688888888888,1.374868888888889,15,15,"NIGHT_CLEAR,NIGHT_MIST,NIGHT_MIST,NIGHT_MIST,NIGHT_CLEAR,NIGHT_CLEAR,NIGHT_CLEAR,MIST,CLEAR,CLEAR,CLEAR,CLEAR,CLEAR,CLEAR,MIST","Offshore,Offshore,Offshore,Offshore,Cross-shore,Offshore,Onshore,Onshore,Cross-shore,Cross-shore,Cross-shore,Onshore,Onshore,Onshore,Cross-shore",15
5842041f4e65fad6a77088d7,2024_01_31,33.4609858001748,-117.68535,Doheny State Beach,2,0.14614666666666667,0.45337333333333335,16,16,"NIGHT_CLEAR,NIGHT_MIST,NIGHT_MIST,NIGHT_CLEAR,NIGHT_CLEAR,NIGHT_CLEAR,NIGHT_CLEAR,MIST,CLEAR,CLEAR,CLEAR,CLEAR,CLEAR,CLEAR,MOSTLY_CLEAR","Offshore,Offshore,Offshore,Offshore,Offshore,Offshore,Onshore,Onshore,Cross-shore,Onshore,Cross-shore,Onshore,Onshore,Onshore,Onshore",15
5842041f4e65fad6a77088dc,2024_01_31,33.50894790083017,-117.75243,Aliso Creek,2.6,0.4266666666666667,0.7306666666666667,16,16,"NIGHT_CLEAR,NIGHT_MIST,NIGHT_MIST,NIGHT_MIST,NIGHT_MIST,NIGHT_MIST,NIGHT_MOSTLY_CLOUDY,MOSTLY_CLOUDY,CLEAR,CLEAR,CLEAR,CLEAR,CLEAR,CLEAR,MIST","Offshore,Offshore,Cross-shore,Offshore,Offshore,Offshore,Offshore,Cross-shore,Cross-shore,Onshore,Onshore,Onshore,Onshore,Onshore,Onshore",15
5842041f4e65fad6a77088dd,2024_01_31,33.5326591767067,-117.77764,Brooks Street,1.7333333333333334,0.27466666666666667,0.5793333333333334,16,16,"NIGHT_CLEAR,NIGHT_MIST,NIGHT_MIST,NIGHT_MIST,NIGHT_MIST,NIGHT_MIST,NIGHT_MIST,MIST,CLEAR,CLEAR,CLEAR,CLEAR,MIST,MIST,MIST","Cross-shore,Cross-shore,Offshore,Offshore,Offshore,Offshore,Offshore,Offshore,Onshore,Onshore,Onshore,Onshore,Onshore,Onshore,Onshore",15
5842041f4e65fad6a77088de,2024_01_31,33.53561225884637,-117.7799,Thalia Street,1.9333333333333333,0.29533333333333334,0.602,16,16,"NIGHT_CLEAR,NIGHT_MIST,NIGHT_MIST,NIGHT_MIST,NIGHT_MIST,NIGHT_MIST,NIGHT_MIST,MIST,CLEAR,CLEAR,CLEAR,CLEAR,MIST,MIST,MIST","Cross-shore,Cross-shore,Offshore,Offshore,Offshore,Offshore,Offshore,Cross-shore,Onshore,Onshore,Onshore,Onshore,Onshore,Onshore,Onshore",15
5842041f4e65fad6a77088e3,2024_01_31,33.54268310353641,-117.7916,Rockpile,2.6666666666666665,0.3373333333333333,0.6433333333333333,16,16,"NIGHT_CLEAR,NIGHT_MIST,NIGHT_MIST,NIGHT_MIST,NIGHT_MIST,NIGHT_MIST,NIGHT_MIST,MIST,CLEAR,CLEAR,CLEAR,CLEAR,MIST,MIST,MIST","Cross-shore,Cross-shore,Cross-shore,Offshore,Offshore,Offshore,Offshore,Cross-shore,Onshore,Onshore,Onshore,Onshore,Onshore,Onshore,Onshore",15
5842041f4e65fad6a77088e4,2024_01_31,33.7368459504689,-118.10342,"Seal Beach Pier, Southside",1.8,0.18333333333333332,0.48933333333333334,16,16,"NIGHT_MIST,NIGHT_MIST,NIGHT_MIST,NIGHT_CLOUDY,NIGHT_CLOUDY,NIGHT_CLOUDY,NIGHT_OVERCAST,OVERCAST,MOSTLY_CLEAR,CLEAR,CLEAR,MIST,MIST,BRIEF_SHOWERS,BRIEF_SHOWERS","Offshore,Offshore,Offshore,Offshore,Offshore,Offshore,Offshore,Offshore,Offshore,Cross-shore,Onshore,Onshore,Onshore,Onshore,Onshore",15
5842041f4e65fad6a77088e5,2024_01_31,33.73933701820233,-118.117,Ray Bay,1.8,0.10733333333333334,0.41133333333333333,16,16,"NIGHT_MIST,NIGHT_MIST,NIGHT_OVERCAST,NIGHT_OVERCAST,NIGHT_OVERCAST,NIGHT_OVERCAST,NIGHT_OVERCAST,OVERCAST,MOSTLY_CLEAR,MOSTLY_CLEAR,CLEAR,MOSTLY_CLEAR,CLEAR,CLEAR,CLEAR","Offshore,Offshore,Offshore,Offshore,Offshore,Offshore,Offshore,Offshore,Offshore,Cross-shore,Onshore,Onshore,Onshore,Onshore,Onshore",15
5842041f4e65fad6a77088e7,2024_01_31,33.728733,-118.08982,Surfside,2.6666666666666665,0.45799999999999996,0.7633333333333333,16,16,"NIGHT_MIST,NIGHT_CLEAR,NIGHT_CLEAR,NIGHT_CLEAR,NIGHT_OVERCAST,NIGHT_OVERCAST,NIGHT_OVERCAST,OVERCAST,CLEAR,CLEAR,MOSTLY_CLOUDY,MOSTLY_CLEAR,CLEAR,CLEAR,MOSTLY_CLEAR","Offshore,Offshore,Offshore,Offshore,Offshore,Offshore,Offshore,Offshore,Offshore,Cross-shore,Onshore,Onshore,Onshore,Onshore,Onshore",15
5842041f4e65fad6a77088e8,2024_01_31,33.68760321488161,-118.04236,Bolsa Chica State Beach,3.1553333333333335,1.0979577777777778,1.3921466666666666,14,14,"NIGHT_MIST,NIGHT_CLEAR,NIGHT_MIST,NIGHT_OVERCAST,NIGHT_OVERCAST,NIGHT_OVERCAST,NIGHT_OVERCAST,OVERCAST,CLEAR,MOSTLY_CLEAR,MOSTLY_CLOUDY,CLEAR,CLEAR,CLEAR,CLEAR","Onshore,Cross-shore,Offshore,Offshore,Onshore,Offshore,Onshore,Cross-shore,Offshore,Cross-shore,Onshore,Onshore,Onshore,Onshore,Onshore",15
5842041f4e65fad6a77088ea,2024_01_31,33.66704400178788,-118.0192,North HB Streets,3.0773333333333333,1.0919577777777778,1.4506088888888888,14,14,"NIGHT_MIST,NIGHT_CLEAR,NIGHT_CLEAR,NIGHT_CLOUDY,NIGHT_CLOUDY,NIGHT_CLOUDY,NIGHT_OVERCAST,OVERCAST,CLEAR,MIST,MIST,CLEAR,MIST,BRIEF_SHOWERS,MIST","Onshore,Cross-shore,Cross-shore,Cross-shore,Onshore,Cross-shore,Onshore,Cross-shore,Cross-shore,Cross-shore,Onshore,Onshore,Onshore,Onshore,Onshore",15
5842041f4e65fad6a77088ed,2024_01_31,33.65475101379567,-118.00291,Huntington Beach Pier Southside,3,1.1442711111111112,1.3942444444444444,14,14,"NIGHT_CLEAR,NIGHT_CLEAR,NIGHT_OVERCAST,NIGHT_MOSTLY_CLOUDY,NIGHT_MOSTLY_CLOUDY,NIGHT_MOSTLY_CLOUDY,NIGHT_MOSTLY_CLOUDY,MOSTLY_CLOUDY,CLEAR,MOSTLY_CLEAR,MOSTLY_CLOUDY,CLEAR,CLEAR,CLEAR,CLEAR","Offshore,Offshore,Offshore,Offshore,Offshore,Offshore,Onshore,Offshore,Cross-shore,Cross-shore,Cross-shore,Cross-shore,Cross-shore,Cross-shore,Cross-shore",15
5842041f4e65fad6a77088ee,2024_01_31,33.62778647706099,-117.95939,River Jetties,2.4553333333333334,0.8034333333333333,1.1080333333333334,16,16,"NIGHT_CLEAR,NIGHT_CLEAR,NIGHT_OVERCAST,NIGHT_MOSTLY_CLOUDY,NIGHT_MOSTLY_CLOUDY,NIGHT_MOSTLY_CLOUDY,NIGHT_MOSTLY_CLOUDY,MOSTLY_CLOUDY,MOSTLY_CLEAR,MOSTLY_CLEAR,CLEAR,CLEAR,CLEAR,CLEAR,CLEAR","Offshore,Offshore,Offshore,Offshore,Cross-shore,Offshore,Onshore,Cross-shore,Offshore,Cross-shore,Cross-shore,Cross-shore,Cross-shore,Cross-shore,Cross-shore",15
5842041f4e65fad6a77088f2,2024_01_31,33.605165797643664,-117.92500376701355,Newport Point,1.7333333333333334,0.232,0.5386666666666667,16,16,"NIGHT_CLEAR,NIGHT_MIST,NIGHT_MIST,NIGHT_MIST,NIGHT_CLEAR,NIGHT_CLEAR,NIGHT_CLEAR,CLOUDY,MOSTLY_CLEAR,MOSTLY_CLEAR,CLEAR,CLEAR,MIST,BRIEF_SHOWERS,BRIEF_SHOWERS","Onshore,Cross-shore,Cross-shore,Onshore,Onshore,Cross-shore,Onshore,Cross-shore,Onshore,Onshore,Onshore,Onshore,Onshore,Onshore,Onshore",15
5842041f4e65fad6a77088f3,2024_01_31,33.58982984726977,-117.87713,Corona del Mar,0.8666666666666667,0.150226,0.23472866666666667,16,16,"NIGHT_CLEAR,NIGHT_MIST,NIGHT_MIST,NIGHT_MIST,NIGHT_MOSTLY_CLOUDY,NIGHT_MOSTLY_CLOUDY,NIGHT_MOSTLY_CLOUDY,MIST,CLEAR,CLEAR,CLEAR,CLEAR,MIST,BRIEF_SHOWERS,MIST","Offshore,Offshore,Offshore,Offshore,Cross-shore,Offshore,Cross-shore,Offshore,Cross-shore,Cross-shore,Cross-shore,Cross-shore,Cross-shore,Cross-shore,Cross-shore",15
5842041f4e65fad6a77088f7,2024_01_31,34.00750300824362,-118.4971783496269,Santa Monica Pier,2,0.19066666666666668,0.49533333333333335,16,16,"NIGHT_CLEAR,NIGHT_CLEAR,NIGHT_MIST,NIGHT_MIST,NIGHT_MIST,NIGHT_MIST,NIGHT_OVERCAST,OVERCAST,CLEAR,CLEAR,CLEAR,CLEAR,CLEAR,CLEAR,CLEAR","Offshore,Offshore,Offshore,Offshore,Offshore,Offshore,Offshore,Offshore,Offshore,Offshore,Offshore,Offshore,Cross-shore,Onshore,Onshore",15
5842041f4e65fad6a77088ff,2024_01_31,33.94070283102945,-118.44321,Dockweiler Beach,3,0.9280782222222222,1.1676120555555556,15,15,"NIGHT_CLEAR,NIGHT_MOSTLY_CLOUDY,NIGHT_MOSTLY_CLOUDY,NIGHT_MIST,NIGHT_MIST,NIGHT_MOSTLY_CLOUDY,NIGHT_MOSTLY_CLOUDY,CLOUDY,MIST,MIST,MIST,CLEAR,CLEAR,CLEAR,CLEAR","Cross-shore,Offshore,Offshore,Offshore,Offshore,Offshore,Offshore,Offshore,Offshore,Offshore,Offshore,Cross-shore,Cross-shore,Onshore,Onshore",15
5842041f4e65fad6a7708900,2024_01_31,33.9231846937237,-118.4341465777908,Shitpipe,3,0.7613466666666666,1.0708355555555555,15,15,"NIGHT_CLEAR,NIGHT_CLEAR,NIGHT_MIST,NIGHT_MIST,NIGHT_MIST,NIGHT_OVERCAST,NIGHT_CLOUDY,OVERCAST,MIST,MIST,MIST,CLEAR,CLEAR,CLEAR,CLEAR","Cross-shore,Cross-shore,Offshore,Offshore,Offshore,Offshore,Offshore,Offshore,Offshore,Offshore,Offshore,Cross-shore,Cross-shore,Onshore,Onshore",15
5842041f4e65fad6a7708902,2024_01_31,33.9108528052242,-118.4279133138721,Hammerland,2.922,0.7435133333333334,1.1902599999999999,15,15,"NIGHT_CLEAR,NIGHT_CLEAR,NIGHT_MIST,NIGHT_MIST,NIGHT_MIST,NIGHT_OVERCAST,NIGHT_CLOUDY,OVERCAST,MIST,MIST,MIST,CLEAR,CLEAR,CLEAR,CLEAR","Cross-shore,Cross-shore,Offshore,Offshore,Offshore,Offshore,Offshore,Offshore,Offshore,Offshore,Offshore,Cross-shore,Cross-shore,Onshore,Onshore",15
5842041f4e65fad6a7708904,2024_01_31,33.87201368173932,-118.4075151286262,Hermosa Beach,3,0.753211111111111,1.0574777777777777,15,15,"NIGHT_CLEAR,NIGHT_MOSTLY_CLOUDY,NIGHT_MIST,NIGHT_MIST,NIGHT_MIST,NIGHT_OVERCAST,NIGHT_CLOUDY,OVERCAST,MIST,MIST,CLEAR,CLEAR,CLEAR,CLEAR,CLEAR","Onshore,Cross-shore,Offshore,Offshore,Offshore,Offshore,Offshore,Offshore,Offshore,Offshore,Offshore,Offshore,Cross-shore,Onshore,Cross-shore",15
5842041f4e65fad6a7708906,2024_01_31,33.90129336911256,-118.42184,El Porto,3.2,1.1715688888888889,1.5724822222222221,15,15,"NIGHT_CLEAR,NIGHT_MOSTLY_CLOUDY,NIGHT_MIST,NIGHT_MIST,NIGHT_MIST,NIGHT_OVERCAST,NIGHT_CLOUDY,OVERCAST,MIST,MIST,MIST,MIST,MIST,MIST,CLEAR","Onshore,Cross-shore,Offshore,Offshore,Offshore,Offshore,Offshore,Offshore,Offshore,Offshore,Offshore,Offshore,Cross-shore,Onshore,Cross-shore",15
5842041f4e65fad6a7708907,2024_01_31,33.87963506431794,-118.41102,Manhattan Beach Pier,3.066666666666667,1.1536244444444446,1.4936488888888888,15,15,"NIGHT_CLEAR,NIGHT_MOSTLY_CLOUDY,NIGHT_CLOUDY,NIGHT_MIST,NIGHT_MIST,NIGHT_OVERCAST,NIGHT_CLOUDY,OVERCAST,MIST,MIST,MIST,MIST,MIST,MIST,CLEAR","Onshore,Cross-shore,Offshore,Offshore,Offshore,Offshore,Offshore,Offshore,Offshore,Offshore,Offshore,Offshore,Cross-shore,Onshore,Cross-shore",15
5842041f4e65fad6a7708914,2024_01_31,34.038053387863464,-118.5532,Sunset Point,2,0.12666666666666668,0.43266666666666664,16,16,"NIGHT_MIST,NIGHT_MIST,NIGHT_CLEAR,NIGHT_CLEAR,NIGHT_CLEAR,NIGHT_CLEAR,NIGHT_CLOUDY,CLEAR,CLEAR,CLEAR,CLEAR,CLEAR,CLEAR,MIST,MOSTLY_CLEAR","Offshore,Onshore,Cross-shore,Onshore,Cross-shore,Offshore,Cross-shore,Onshore,Cross-shore,Onshore,Onshore,Onshore,Cross-shore,Cross-shore,Onshore",15
5842041f4e65fad6a7708920,2024_01_31,33.80930828074364,-118.3933198342649,Haggerty's,2,0.2804,0.4636,16.666666666666668,16.666666666666668,"NIGHT_MOSTLY_CLOUDY,NIGHT_CLEAR,NIGHT_MIST,NIGHT_CLEAR,NIGHT_CLOUDY,NIGHT_CLOUDY,NIGHT_CLOUDY,CLOUDY,CLEAR,CLEAR,CLEAR,CLEAR,CLEAR,CLEAR,CLEAR","Offshore,Offshore,Offshore,Offshore,Offshore,Onshore,Onshore,Offshore,Offshore,Offshore,Offshore,Offshore,Offshore,Onshore,Offshore",15
5842041f4e65fad6a7708921,2024_01_31,33.85044519861206,-118.40048,Redondo Breakwater,3,0.972,1.226,16.666666666666668,16.666666666666668,"NIGHT_CLEAR,NIGHT_MOSTLY_CLOUDY,NIGHT_MIST,NIGHT_MIST,NIGHT_MIST,NIGHT_OVERCAST,NIGHT_CLOUDY,OVERCAST,MIST,MIST,CLEAR,CLEAR,CLEAR,CLEAR,CLEAR","Onshore,Cross-shore,Offshore,Offshore,Offshore,Offshore,Offshore,Offshore,Offshore,Offshore,Offshore,Offshore,Cross-shore,Onshore,Cross-shore",15
5842041f4e65fad6a7708927,2024_01_31,33.70877301002487,-118.2840112858389,Cabrillo Beach,1.9333333333333333,0.11133333333333334,0.41733333333333333,16,16,"NIGHT_CLEAR,NIGHT_CLEAR,NIGHT_MIST,NIGHT_MIST,NIGHT_OVERCAST,NIGHT_OVERCAST,NIGHT_OVERCAST,OVERCAST,MOSTLY_CLEAR,MIST,MIST,MIST,MOSTLY_CLOUDY,MOSTLY_CLOUDY,MOSTLY_CLOUDY","Onshore,Onshore,Cross-shore,Cross-shore,Onshore,Onshore,Onshore,Onshore,Onshore,Onshore,Onshore,Onshore,Onshore,Onshore,Onshore",15
5842041f4e65fad6a770892c,2024_01_31,33.77209986806257,-118.4268428476672,Lunada Bay,2.8,1.22,1.4606666666666668,16.666666666666668,16.666666666666668,"NIGHT_MOSTLY_CLOUDY,NIGHT_CLOUDY,NIGHT_MIST,NIGHT_CLOUDY,NIGHT_CLOUDY,NIGHT_CLOUDY,NIGHT_CLOUDY,OVERCAST,CLEAR,CLEAR,CLEAR,CLEAR,CLEAR,CLEAR,CLEAR","Onshore,Cross-shore,Cross-shore,Onshore,Onshore,Onshore,Cross-shore,Cross-shore,Cross-shore,Offshore,Cross-shore,Cross-shore,Cross-shore,Cross-shore,Cross-shore",15
5842041f4e65fad6a770892d,2024_01_31,33.79294656286144,-118.4070316699825,PV Cove,3,0.774292,1.0287606666666667,16.666666666666668,16.666666666666668,"NIGHT_MOSTLY_CLOUDY,NIGHT_CLEAR,NIGHT_MIST,NIGHT_CLEAR,NIGHT_CLOUDY,NIGHT_CLOUDY,NIGHT_CLOUDY,CLOUDY,CLEAR,CLEAR,CLEAR,CLEAR,CLEAR,CLEAR,CLEAR","Offshore,Offshore,Offshore,Offshore,Offshore,Onshore,Onshore,Offshore,Offshore,Offshore,Offshore,Offshore,Offshore,Onshore,Offshore",15
5842041f4e65fad6a7708930,2024_01_31,34.03944902292561,-118.57539,Chart House,1,0,0.25133333333333335,16,16,"NIGHT_CLEAR,NIGHT_CLEAR,NIGHT_CLEAR,NIGHT_CLEAR,NIGHT_CLEAR,NIGHT_CLEAR,NIGHT_CLOUDY,CLOUDY,CLEAR,CLEAR,CLEAR,CLEAR,CLEAR,MOSTLY_CLEAR,CLEAR","Offshore,Onshore,Cross-shore,Offshore,Cross-shore,Offshore,Cross-shore,Onshore,Offshore,Onshore,Onshore,Onshore,Cross-shore,Cross-shore,Cross-shore",15
5842041f4e65fad6a7708936,2024_01_31,34.0016731994772,-118.80456,Point Dume,2,0.18433333333333335,0.4927533333333333,16,16,"NIGHT_CLEAR,NIGHT_CLEAR,NIGHT_MIST,NIGHT_CLEAR,NIGHT_CLEAR,NIGHT_MOSTLY_CLOUDY,NIGHT_MOSTLY_CLOUDY,MIST,CLEAR,CLEAR,CLEAR,CLEAR,MIST,MIST,BRIEF_SHOWERS","Cross-shore,Cross-shore,Cross-shore,Cross-shore,Cross-shore,Cross-shore,Cross-shore,Cross-shore,Cross-shore,Cross-shore,Onshore,Onshore,Onshore,Onshore,Onshore",15
5842041f4e65fad6a7708937,2024_01_31,34.02587527588963,-118.7554939066114,Latigo Point,2,0.028666666666666667,0.332,16,16,"NIGHT_CLEAR,NIGHT_CLEAR,NIGHT_CLEAR,NIGHT_CLEAR,NIGHT_CLEAR,NIGHT_CLEAR,NIGHT_MOSTLY_CLOUDY,MIST,CLEAR,CLEAR,MOSTLY_CLEAR,CLEAR,MIST,MIST,MIST","Cross-shore,Cross-shore,Cross-shore,Cross-shore,Cross-shore,Cross-shore,Cross-shore,Cross-shore,Cross-shore,Onshore,Onshore,Onshore,Onshore,Onshore,Onshore",15
5842041f4e65fad6a770893f,2024_01_31,34.043762,-118.93294,Leo Carrillo,2,0.39434,0.7618866666666666,16,16,"NIGHT_CLEAR,NIGHT_CLEAR,NIGHT_CLEAR,NIGHT_CLEAR,NIGHT_CLEAR,NIGHT_MOSTLY_CLOUDY,NIGHT_MOSTLY_CLOUDY,MOSTLY_CLOUDY,CLEAR,CLEAR,CLEAR,CLEAR,CLEAR,CLEAR,MIST","Offshore,Offshore,Offshore,Offshore,Offshore,Offshore,Offshore,Offshore,Offshore,Onshore,Onshore,Onshore,Onshore,Cross-shore,Cross-shore",15
5842041f4e65fad6a7708941,2024_01_31,36.69388179265737,-121.81289,Marina State Beach,3.7333333333333334,1.7153333333333334,1.9966666666666666,14,14,"NIGHT_CLEAR,NIGHT_CLEAR,NIGHT_CLEAR,NIGHT_MIST,NIGHT_MIST,NIGHT_CLEAR,NIGHT_MIST,NIGHT_MOSTLY_CLOUDY,MOSTLY_CLOUDY,MOSTLY_CLOUDY,CLEAR,CLEAR,OVERCAST,CLEAR,OVERCAST","Onshore,Offshore,Cross-shore,Offshore,Offshore,Offshore,Offshore,Offshore,Offshore,Offshore,Offshore,Offshore,Cross-shore,Cross-shore,Cross-shore",15
5842041f4e65fad6a7708944,2024_01_31,34.34145077331085,-119.416999352654,Stanley's,2.7333333333333334,0.4013333333333333,0.706,16,16,"NIGHT_CLEAR,NIGHT_CLEAR,NIGHT_CLEAR,NIGHT_CLEAR,NIGHT_MOSTLY_CLEAR,NIGHT_MOSTLY_CLOUDY,NIGHT_CLEAR,CLEAR,CLEAR,MOSTLY_CLEAR,CLEAR,CLEAR,CLEAR,CLEAR,BRIEF_SHOWERS_POSSIBLE","Offshore,Offshore,Offshore,Offshore,Offshore,Offshore,Offshore,Offshore,Offshore,Offshore,Cross-shore,Cross-shore,Onshore,Cross-shore,Cross-shore",15
5842041f4e65fad6a7708945,2024_01_31,34.35113017313915,-119.426921498899,Oil Piers,2.6666666666666665,0.43733333333333335,0.742,16,16,"NIGHT_CLEAR,NIGHT_CLEAR,NIGHT_CLEAR,NIGHT_CLEAR,NIGHT_MOSTLY_CLEAR,NIGHT_MOSTLY_CLOUDY,NIGHT_CLEAR,CLEAR,CLEAR,MOSTLY_CLEAR,CLEAR,CLEAR,CLEAR,CLEAR,BRIEF_SHOWERS_POSSIBLE","Offshore,Offshore,Offshore,Offshore,Cross-shore,Offshore,Offshore,Offshore,Offshore,Offshore,Cross-shore,Cross-shore,Onshore,Onshore,Onshore",15
5842041f4e65fad6a770894c,2024_01_31,34.17876333306018,-119.2399483564372,Oxnard,2.6,0.9013333333333333,1.1053333333333333,16,16,"NIGHT_MIST,NIGHT_CLEAR,NIGHT_CLEAR,NIGHT_MIST,NIGHT_MIST,NIGHT_MIST,NIGHT_MIST,MIST,MIST,MIST,MOSTLY_CLOUDY,CLEAR,CLEAR,CLEAR,CLEAR","Offshore,Offshore,Offshore,Offshore,Cross-shore,Cross-shore,Cross-shore,Cross-shore,Cross-shore,Cross-shore,Cross-shore,Onshore,Onshore,Onshore,Onshore",15
5842041f4e65fad6a7708957,2024_01_31,34.31720331100517,-119.3882324751725,Pitas Point,2.466666666666667,0.4613333333333333,0.7646666666666667,16,16,"NIGHT_CLEAR,NIGHT_CLEAR,NIGHT_CLEAR,NIGHT_CLEAR,NIGHT_CLEAR,NIGHT_CLEAR,NIGHT_CLEAR,MOSTLY_CLOUDY,CLEAR,CLEAR,CLEAR,MIST,BRIEF_SHOWERS,BRIEF_SHOWERS,MIST","Offshore,Offshore,Offshore,Offshore,Offshore,Offshore,Cross-shore,Offshore,Offshore,Cross-shore,Cross-shore,Onshore,Cross-shore,Cross-shore,Cross-shore",15
5842041f4e65fad6a7708959,2024_01_31,34.27851754384724,-119.316202617226,Emma Wood,3,0.37666666666666665,0.6826666666666666,15.666666666666666,15.666666666666666,"NIGHT_MIST,NIGHT_CLEAR,NIGHT_CLEAR,NIGHT_CLEAR,NIGHT_CLEAR,NIGHT_MOSTLY_CLOUDY,NIGHT_CLEAR,CLEAR,CLEAR,CLEAR,CLEAR,MIST,BRIEF_SHOWERS,MIST,MIST","Offshore,Offshore,Offshore,Offshore,Offshore,Offshore,Onshore,Offshore,Offshore,Cross-shore,Cross-shore,Cross-shore,Cross-shore,Cross-shore,Cross-shore",15
5842041f4e65fad6a770895a,2024_01_31,34.35513640390276,-119.4400589884255,Mussel Shoals (aka Little Rincon),2.2666666666666666,0.706,1.0106666666666666,16,16,"NIGHT_MIST,NIGHT_CLEAR,NIGHT_CLEAR,NIGHT_CLEAR,NIGHT_MOSTLY_CLEAR,NIGHT_MOSTLY_CLOUDY,NIGHT_CLEAR,CLEAR,CLEAR,CLEAR,CLEAR,CLEAR,BRIEF_SHOWERS,BRIEF_SHOWERS,BRIEF_SHOWERS","Cross-shore,Cross-shore,Offshore,Cross-shore,Cross-shore,Cross-shore,Cross-shore,Cross-shore,Cross-shore,Cross-shore,Cross-shore,Onshore,Onshore,Onshore,Onshore",15
5842041f4e65fad6a770895e,2024_01_31,34.28991757054902,-119.3366646794652,Summer Beach,2,0.22733333333333333,0.5313333333333333,16,16,"NIGHT_MIST,NIGHT_CLEAR,NIGHT_CLEAR,NIGHT_CLEAR,NIGHT_CLEAR,NIGHT_MOSTLY_CLOUDY,NIGHT_CLEAR,CLEAR,CLEAR,CLEAR,CLEAR,MIST,BRIEF_SHOWERS,MIST,MIST","Offshore,Offshore,Offshore,Offshore,Offshore,Offshore,Cross-shore,Offshore,Offshore,Offshore,Offshore,Offshore,Cross-shore,Offshore,Cross-shore",15
5842041f4e65fad6a770895f,2024_01_31,34.30897456105926,-119.3582501170116,Solimar,1.7333333333333334,0.26533333333333337,0.5693333333333334,16,16,"NIGHT_CLEAR,NIGHT_CLEAR,NIGHT_CLEAR,NIGHT_CLEAR,NIGHT_CLEAR,NIGHT_CLEAR,NIGHT_CLEAR,MOSTLY_CLOUDY,CLEAR,CLEAR,CLEAR,MIST,BRIEF_SHOWERS,BRIEF_SHOWERS,MIST","Offshore,Offshore,Offshore,Offshore,Offshore,Offshore,Cross-shore,Offshore,Offshore,Cross-shore,Cross-shore,Onshore,Cross-shore,Cross-shore,Onshore",15
5842041f4e65fad6a7708960,2024_01_31,34.39836265281686,-119.70213,Leadbetter Point,1.7333333333333334,0.03333333333333333,0.338,16,16,"NIGHT_MIST,NIGHT_CLEAR,NIGHT_MIST,NIGHT_MIST,NIGHT_MOSTLY_CLOUDY,NIGHT_MOSTLY_CLOUDY,NIGHT_MIST,MIST,MIST,MOSTLY_CLOUDY,MOSTLY_CLEAR,CLEAR,CLEAR,MOSTLY_CLOUDY,CLEAR","Offshore,Offshore,Offshore,Offshore,Offshore,Offshore,Cross-shore,Offshore,Offshore,Cross-shore,Onshore,Onshore,Onshore,Onshore,Onshore",15
5842041f4e65fad6a7708961,2024_01_31,34.46052293893899,-120.07328,Refugio,1,0,0.298,16,16,"NIGHT_CLEAR,NIGHT_MIST,NIGHT_CLEAR,NIGHT_MIST,NIGHT_MIST,NIGHT_MOSTLY_CLOUDY,NIGHT_OVERCAST,MOSTLY_CLOUDY,BRIEF_SHOWERS,BRIEF_SHOWERS,BRIEF_SHOWERS,BRIEF_SHOWERS,BRIEF_SHOWERS,BRIEF_SHOWERS,CLEAR","Onshore,Onshore,Onshore,Onshore,Onshore,Onshore,Onshore,Onshore,Onshore,Onshore,Onshore,Onshore,Onshore,Onshore,Onshore",15
5842041f4e65fad6a7708962,2024_01_31,34.40754276777778,-119.87639,Devereux,2,0.43733333333333335,0.7426666666666667,15,15,"NIGHT_MIST,NIGHT_CLEAR,NIGHT_CLEAR,NIGHT_MIST,NIGHT_MIST,NIGHT_MIST,NIGHT_MIST,MIST,CLEAR,MIST,MOSTLY_CLOUDY,MIST,BRIEF_SHOWERS,BRIEF_SHOWERS,CLEAR","Cross-shore,Cross-shore,Cross-shore,Cross-shore,Cross-shore,Cross-shore,Onshore,Onshore,Onshore,Onshore,Onshore,Onshore,Onshore,Onshore,Onshore",15
5842041f4e65fad6a7708963,2024_01_31,34.27479983305182,-119.3133222656776,Ventura Overhead,3,0.42933333333333334,0.7333333333333333,15.666666666666666,15.666666666666666,"NIGHT_MIST,NIGHT_MIST,NIGHT_CLEAR,NIGHT_CLEAR,NIGHT_CLEAR,NIGHT_CLEAR,NIGHT_CLEAR,CLEAR,CLEAR,CLEAR,CLEAR,MIST,MIST,MIST,CLEAR","Offshore,Offshore,Offshore,Offshore,Offshore,Offshore,Onshore,Offshore,Offshore,Offshore,Offshore,Cross-shore,Cross-shore,Offshore,Cross-shore",15
5842041f4e65fad6a7708964,2024_01_31,34.41023236011655,-119.88261,Sands,2.4,0.538,0.8426666666666667,15,15,"NIGHT_MIST,NIGHT_CLEAR,NIGHT_MIST,NIGHT_MIST,NIGHT_MIST,NIGHT_MIST,NIGHT_MIST,MIST,CLEAR,MIST,MOSTLY_CLOUDY,MIST,BRIEF_SHOWERS,BRIEF_SHOWERS,CLEAR","Offshore,Offshore,Offshore,Offshore,Offshore,Offshore,Offshore,Offshore,Offshore,Offshore,Offshore,Cross-shore,Cross-shore,Offshore,Offshore",15
5842041f4e65fad6a7708966,2024_01_31,34.40450193869233,-119.68752,Sandspit,1,0,0.238,16,16,"NIGHT_CLEAR,NIGHT_MIST,NIGHT_MIST,NIGHT_MIST,NIGHT_CLEAR,NIGHT_MOSTLY_CLOUDY,NIGHT_MIST,MIST,MOSTLY_CLEAR,MOSTLY_CLEAR,MOSTLY_CLEAR,MOSTLY_CLOUDY,BRIEF_SHOWERS,MOSTLY_CLOUDY,MOSTLY_CLOUDY","Offshore,Offshore,Offshore,Offshore,Offshore,Offshore,Offshore,Offshore,Offshore,Cross-shore,Onshore,Onshore,Cross-shore,Onshore,Onshore",15
5842041f4e65fad6a7708967,2024_01_31,34.41549098334453,-119.6375149840203,Hammond's,2,0.136,0.442,16,16,"NIGHT_MOSTLY_CLEAR,NIGHT_MOSTLY_CLEAR,NIGHT_MOSTLY_CLEAR,NIGHT_MOSTLY_CLEAR,NIGHT_CLEAR,NIGHT_MOSTLY_CLOUDY,NIGHT_CLEAR,MOSTLY_CLOUDY,MOSTLY_CLEAR,CLEAR,MOSTLY_CLEAR,MOSTLY_CLEAR,BRIEF_SHOWERS,BRIEF_SHOWERS,BRIEF_SHOWERS","Cross-shore,Cross-shore,Cross-shore,Cross-shore,Cross-shore,Cross-shore,Cross-shore,Cross-shore,Cross-shore,Onshore,Onshore,Onshore,Onshore,Onshore,Onshore",15
5842041f4e65fad6a7708968,2024_01_31,34.45759322742309,-120.0220251867315,El Capitan,1.4,0.08533333333333333,0.38933333333333336,16,16,"NIGHT_CLEAR,NIGHT_CLEAR,NIGHT_CLEAR,NIGHT_MIST,NIGHT_CLEAR,NIGHT_CLEAR,NIGHT_OVERCAST,CLEAR,BRIEF_SHOWERS,BRIEF_SHOWERS,BRIEF_SHOWERS,MOSTLY_CLOUDY,MOSTLY_CLOUDY,MOSTLY_CLOUDY,CLEAR","Onshore,Onshore,Onshore,Onshore,Onshore,Onshore,Onshore,Onshore,Onshore,Onshore,Onshore,Onshore,Onshore,Onshore,Onshore",15
5842041f4e65fad6a770896c,2024_01_31,34.405117655616,-119.84317,Campus Point,1.6666666666666667,0.162,0.4686666666666667,15,15,"NIGHT_MIST,NIGHT_CLEAR,NIGHT_CLEAR,NIGHT_MIST,NIGHT_MIST,NIGHT_MIST,NIGHT_OVERCAST,MOSTLY_CLOUDY,MOSTLY_CLOUDY,MOSTLY_CLOUDY,MOSTLY_CLOUDY,MOSTLY_CLOUDY,MOSTLY_CLOUDY,MOSTLY_CLOUDY,CLEAR","Cross-shore,Cross-shore,Cross-shore,Cross-shore,Onshore,Onshore,Onshore,Onshore,Onshore,Onshore,Onshore,Onshore,Onshore,Onshore,Onshore",15
5842041f4e65fad6a770896e,2024_01_31,34.38935162233354,-119.51955,Carpinteria State Beach,1.8,0.22666666666666666,0.532,16,16,"NIGHT_MIST,NIGHT_CLEAR,NIGHT_CLEAR,NIGHT_CLEAR,NIGHT_MIST,NIGHT_MIST,NIGHT_MIST,CLEAR,CLEAR,CLEAR,MOSTLY_CLEAR,CLEAR,MIST,MIST,MIST","Offshore,Offshore,Offshore,Offshore,Onshore,Offshore,Offshore,Offshore,Offshore,Cross-shore,Cross-shore,Cross-shore,Cross-shore,Cross-shore,Cross-shore",15
5842041f4e65fad6a770896f,2024_01_31,37.48296565175612,-122.4549300127824,Half Moon Bay,0.6666666666666666,1.8373333333333333,2.195333333333333,14,14,"NIGHT_CLEAR,NIGHT_CLEAR,NIGHT_CLEAR,NIGHT_CLEAR,NIGHT_MOSTLY_CLEAR,NIGHT_MOSTLY_CLOUDY,NIGHT_MOSTLY_CLOUDY,NIGHT_MIST,MOSTLY_CLOUDY,CLOUDY,CLOUDY,OVERCAST,DRIZZLE,LIGHT_RAIN,LIGHT_RAIN","Onshore,Onshore,Cross-shore,Onshore,Onshore,Onshore,Onshore,Onshore,Onshore,Cross-shore,Cross-shore,Cross-shore,Onshore,Cross-shore,Cross-shore",15
5842041f4e65fad6a7708970,2024_01_31,37.499,-122.471,Princeton Jetty,0.6,1.598,1.9106666666666667,14,14,"NIGHT_CLOUDY,NIGHT_OVERCAST,NIGHT_OVERCAST,NIGHT_MOSTLY_CLOUDY,NIGHT_SHOWERS,NIGHT_MOSTLY_CLOUDY,NIGHT_MOSTLY_CLOUDY,NIGHT_MOSTLY_CLOUDY,MIST,MIST,MIST,MIST,LIGHT_RAIN,LIGHT_RAIN,LIGHT_RAIN","Onshore,Onshore,Onshore,Onshore,Onshore,Onshore,Onshore,Onshore,Onshore,Onshore,Onshore,Onshore,Onshore,Onshore,Onshore",15
5842041f4e65fad6a7708972,2024_01_31,37.35699547365155,-122.4069534707252,Tunitas Creek,0.8,2.1926666666666668,2.478666666666667,14,14,"NIGHT_CLEAR,NIGHT_CLEAR,NIGHT_CLOUDY,NIGHT_CLEAR,NIGHT_MOSTLY_CLEAR,NIGHT_MOSTLY_CLOUDY,NIGHT_MOSTLY_CLOUDY,NIGHT_BRIEF_SHOWERS,MOSTLY_CLOUDY,CLOUDY,OVERCAST,OVERCAST,LIGHT_RAIN,LIGHT_SHOWERS_POSSIBLE,LIGHT_SHOWERS_POSSIBLE","Cross-shore,Cross-shore,Cross-shore,Cross-shore,Cross-shore,Cross-shore,Cross-shore,Onshore,Cross-shore,Cross-shore,Cross-shore,Cross-shore,Cross-shore,Cross-shore,Cross-shore",15
5842041f4e65fad6a7708974,2024_01_31,37.54735589428842,-122.5161090212687,Montara,2.3333333333333335,1.966,2.246,14,14,"NIGHT_CLEAR,NIGHT_CLEAR,NIGHT_CLOUDY,NIGHT_MOSTLY_CLOUDY,NIGHT_MOSTLY_CLOUDY,NIGHT_MOSTLY_CLOUDY,NIGHT_MOSTLY_CLOUDY,NIGHT_MOSTLY_CLOUDY,BRIEF_SHOWERS,DRIZZLE,OVERCAST,OVERCAST,DRIZZLE,LIGHT_SHOWERS_POSSIBLE,LIGHT_RAIN","Offshore,Offshore,Offshore,Offshore,Offshore,Offshore,Offshore,Offshore,Offshore,Offshore,Offshore,Offshore,Offshore,Offshore,Offshore",15
5842041f4e65fad6a7708975,2024_01_31,34.3869373724559,-119.5142334209018,Tarpits,1.8,0.26333333333333336,0.57,16,16,"NIGHT_CLEAR,NIGHT_CLEAR,NIGHT_CLEAR,NIGHT_MIST,NIGHT_MIST,NIGHT_MIST,NIGHT_CLEAR,MOSTLY_CLOUDY,CLEAR,CLEAR,CLEAR,MOSTLY_CLEAR,CLEAR,CLEAR,CLEAR","Offshore,Cross-shore,Offshore,Cross-shore,Cross-shore,Offshore,Offshore,Offshore,Offshore,Onshore,Onshore,Onshore,Onshore,Onshore,Onshore",15
5842041f4e65fad6a7708976,2024_01_31,37.59881852720143,-122.50463,Pacifica / Linda Mar,2.033333333333333,0.51154,0.8371755555555556,14,14,"NIGHT_CLOUDY,NIGHT_CLOUDY,NIGHT_OVERCAST,NIGHT_CLEAR,NIGHT_CLEAR,NIGHT_OVERCAST,NIGHT_MOSTLY_CLOUDY,NIGHT_MOSTLY_CLOUDY,MOSTLY_CLOUDY,CLOUDY,OVERCAST,CLEAR,BRIEF_SHOWERS_POSSIBLE,BRIEF_SHOWERS_POSSIBLE,LIGHT_RAIN","Offshore,Offshore,Offshore,Offshore,Offshore,Offshore,Offshore,Cross-shore,Offshore,Offshore,Offshore,Offshore,Offshore,Offshore,Offshore",15
5842041f4e65fad6a7708978,2024_01_31,37.59883098461164,-122.5143843582282,Pedro Point,2.3333333333333335,1.8306666666666667,2.0893333333333333,14,14,"NIGHT_CLEAR,NIGHT_CLEAR,NIGHT_CLOUDY,NIGHT_BRIEF_SHOWERS,NIGHT_BRIEF_SHOWERS,NIGHT_MOSTLY_CLOUDY,NIGHT_BRIEF_SHOWERS,NIGHT_MOSTLY_CLOUDY,BRIEF_SHOWERS,DRIZZLE,DRIZZLE,DRIZZLE,LIGHT_SHOWERS_POSSIBLE,LIGHT_RAIN,LIGHT_RAIN","Offshore,Offshore,Offshore,Offshore,Offshore,Offshore,Offshore,Offshore,Offshore,Offshore,Offshore,Offshore,Offshore,Offshore,Offshore",15
5842041f4e65fad6a7708979,2024_01_31,37.61081996647663,-122.4973287570634,Rockaway,2.4,1.9753333333333334,2.1706666666666665,14,14,"NIGHT_CLOUDY,NIGHT_CLOUDY,NIGHT_OVERCAST,NIGHT_CLEAR,NIGHT_CLEAR,NIGHT_OVERCAST,NIGHT_MOSTLY_CLOUDY,NIGHT_MOSTLY_CLOUDY,MOSTLY_CLOUDY,CLOUDY,OVERCAST,CLEAR,BRIEF_SHOWERS_POSSIBLE,BRIEF_SHOWERS_POSSIBLE,LIGHT_RAIN","Cross-shore,Cross-shore,Cross-shore,Cross-shore,Offshore,Cross-shore,Cross-shore,Cross-shore,Cross-shore,Offshore,Offshore,Cross-shore,Cross-shore,Offshore,Offshore",15
5842041f4e65fad6a770897a,2024_01_31,37.809987384424446,-122.4751353263855,Fort Point,2.533333333333333,1.1453333333333333,1.4186666666666667,13,13,"NIGHT_OVERCAST,NIGHT_CLEAR,NIGHT_CLOUDY,NIGHT_CLEAR,NIGHT_CLEAR,NIGHT_CLOUDY,NIGHT_MOSTLY_CLOUDY,NIGHT_MOSTLY_CLOUDY,DRIZZLE,OVERCAST,OVERCAST,CLEAR,BRIEF_SHOWERS_POSSIBLE,BRIEF_SHOWERS_POSSIBLE,LIGHT_RAIN","Onshore,Onshore,Onshore,Onshore,Onshore,Onshore,Onshore,Onshore,Onshore,Onshore,Onshore,Onshore,Onshore,Onshore,Onshore",15
5842041f4e65fad6a770897c,2024_01_31,37.63422542967464,-122.4951,Sharp Park,1.8666666666666667,2.1593333333333335,2.458,14,14,"NIGHT_CLOUDY,NIGHT_CLEAR,NIGHT_OVERCAST,NIGHT_CLEAR,NIGHT_CLEAR,NIGHT_CLOUDY,NIGHT_MOSTLY_CLOUDY,NIGHT_MOSTLY_CLOUDY,MOSTLY_CLOUDY,CLOUDY,OVERCAST,CLEAR,BRIEF_SHOWERS_POSSIBLE,BRIEF_SHOWERS_POSSIBLE,LIGHT_RAIN","Cross-shore,Cross-shore,Cross-shore,Cross-shore,Cross-shore,Cross-shore,Cross-shore,Cross-shore,Cross-shore,Cross-shore,Cross-shore,Cross-shore,Cross-shore,Cross-shore,Offshore",15
5842041f4e65fad6a770897d,2024_01_31,37.27313605072472,-122.4127387912554,Pescadero,1.2666666666666666,2.048,2.3093333333333335,14,14,"NIGHT_CLEAR,NIGHT_CLEAR,NIGHT_CLOUDY,NIGHT_MOSTLY_CLOUDY,NIGHT_MOSTLY_CLOUDY,NIGHT_BRIEF_SHOWERS,NIGHT_BRIEF_SHOWERS,NIGHT_MOSTLY_CLOUDY,BRIEF_SHOWERS,BRIEF_SHOWERS,LIGHT_RAIN,MIST,LIGHT_RAIN,LIGHT_RAIN,LIGHT_SHOWERS_POSSIBLE","Cross-shore,Offshore,Cross-shore,Cross-shore,Cross-shore,Cross-shore,Cross-shore,Cross-shore,Cross-shore,Cross-shore,Cross-shore,Cross-shore,Cross-shore,Cross-shore,Offshore",15
5842041f4e65fad6a770897e,2024_01_31,37.18140279972666,-122.3926685899327,Pigeon Point,0.3333333333333333,2.1013333333333333,2.508,14.666666666666666,14.666666666666666,"NIGHT_CLEAR,NIGHT_CLEAR,NIGHT_DRIZZLE,NIGHT_MIST,NIGHT_MOSTLY_CLOUDY,NIGHT_MOSTLY_CLOUDY,NIGHT_MOSTLY_CLOUDY,NIGHT_MIST,MOSTLY_CLOUDY,MOSTLY_CLOUDY,OVERCAST,CLOUDY,LIGHT_RAIN,DRIZZLE,RAIN","Onshore,Onshore,Onshore,Onshore,Onshore,Onshore,Onshore,Onshore,Onshore,Onshore,Onshore,Onshore,Onshore,Onshore,Onshore",15
5842041f4e65fad6a770897f,2024_01_31,37.11578956919415,-122.314699271291,Ano Nuevo,0.6,1.8893333333333333,2.2573333333333334,14.666666666666666,14.666666666666666,"NIGHT_MOSTLY_CLOUDY,NIGHT_CLOUDY,NIGHT_CLEAR,NIGHT_CLEAR,NIGHT_CLEAR,NIGHT_MOSTLY_CLOUDY,NIGHT_MOSTLY_CLOUDY,NIGHT_MOSTLY_CLOUDY,MOSTLY_CLOUDY,MOSTLY_CLOUDY,OVERCAST,CLOUDY,DRIZZLE,DRIZZLE,LIGHT_RAIN","Onshore,Onshore,Onshore,Onshore,Onshore,Onshore,Onshore,Onshore,Onshore,Onshore,Onshore,Onshore,Onshore,Onshore,Onshore",15
5842041f4e65fad6a7708980,2024_01_31,37.09520872681598,-122.2805474707768,Waddell Creek,0.9333333333333333,1.7606666666666666,2.1013333333333333,14.666666666666666,14.666666666666666,"NIGHT_CLEAR,NIGHT_CLOUDY,NIGHT_CLEAR,NIGHT_MOSTLY_CLOUDY,NIGHT_MOSTLY_CLOUDY,NIGHT_MOSTLY_CLOUDY,NIGHT_MOSTLY_CLOUDY,NIGHT_MIST,OVERCAST,DRIZZLE,OVERCAST,CLOUDY,CLOUDY,DRIZZLE,LIGHT_RAIN","Cross-shore,Cross-shore,Cross-shore,Cross-shore,Cross-shore,Cross-shore,Onshore,Onshore,Onshore,Onshore,Onshore,Onshore,Onshore,Onshore,Cross-shore",15
5842041f4e65fad6a7708981,2024_01_31,36.96512852130351,-122.1252825495626,Four Mile,2.2666666666666666,1.77,2.0866666666666664,14.666666666666666,14.666666666666666,"NIGHT_MIST,NIGHT_MIST,NIGHT_MIST,NIGHT_MIST,NIGHT_MOSTLY_CLOUDY,NIGHT_MOSTLY_CLOUDY,NIGHT_BRIEF_SHOWERS,NIGHT_MOSTLY_CLOUDY,MOSTLY_CLOUDY,MOSTLY_CLOUDY,OVERCAST,CLEAR,CLEAR,CLOUDY,CLOUDY","Cross-shore,Onshore,Cross-shore,Onshore,Cross-shore,Onshore,Onshore,Onshore,Onshore,Onshore,Onshore,Onshore,Onshore,Onshore,Onshore",15
5842041f4e65fad6a7708982,2024_01_31,37.04122807048655,-122.2333684729756,Scott Creek,1.1333333333333333,1.59,1.8980000000000001,15,15,"NIGHT_MOSTLY_CLOUDY,NIGHT_LIGHT_RAIN,NIGHT_CLOUDY,NIGHT_MIST,NIGHT_MOSTLY_CLOUDY,NIGHT_MOSTLY_CLOUDY,NIGHT_OVERCAST,NIGHT_MIST,MOSTLY_CLOUDY,OVERCAST,OVERCAST,CLOUDY,CLOUDY,BRIEF_SHOWERS_POSSIBLE,LIGHT_RAIN","Cross-shore,Cross-shore,Cross-shore,Cross-shore,Cross-shore,Cross-shore,Cross-shore,Onshore,Onshore,Cross-shore,Cross-shore,Cross-shore,Cross-shore,Cross-shore,Cross-shore",15
5842041f4e65fad6a7708983,2024_01_31,37.02350229387179,-122.21908,Davenport,1.1333333333333333,1.7786666666666666,2.124,14.666666666666666,14.666666666666666,"NIGHT_MIST,NIGHT_MIST,NIGHT_CLEAR,NIGHT_CLEAR,NIGHT_MOSTLY_CLOUDY,NIGHT_MOSTLY_CLOUDY,NIGHT_OVERCAST,NIGHT_CLOUDY,MOSTLY_CLOUDY,OVERCAST,OVERCAST,CLOUDY,CLOUDY,CLOUDY,LIGHT_SHOWERS_POSSIBLE","Cross-shore,Cross-shore,Cross-shore,Cross-shore,Cross-shore,Cross-shore,Cross-shore,Onshore,Onshore,Cross-shore,Cross-shore,Cross-shore,Cross-shore,Onshore,Cross-shore",15
5842041f4e65fad6a7708986,2024_01_31,36.94905295955728,-122.0611823912244,Natural Bridges,3,1.748,2.09,14,14,"NIGHT_MOSTLY_CLOUDY,NIGHT_OVERCAST,NIGHT_CLOUDY,NIGHT_MOSTLY_CLOUDY,NIGHT_MIST,NIGHT_MOSTLY_CLOUDY,NIGHT_MOSTLY_CLOUDY,NIGHT_MOSTLY_CLOUDY,MOSTLY_CLOUDY,MOSTLY_CLOUDY,OVERCAST,OVERCAST,OVERCAST,CLEAR,DRIZZLE","Offshore,Cross-shore,Offshore,Offshore,Offshore,Cross-shore,Onshore,Onshore,Onshore,Cross-shore,Cross-shore,Cross-shore,Onshore,Onshore,Onshore",15
5842041f4e65fad6a7708987,2024_01_31,36.95154854910425,-122.0420693940968,Mitchell's Cove,2.8,1.1466666666666667,1.374,14,14,"NIGHT_MOSTLY_CLOUDY,NIGHT_OVERCAST,NIGHT_MIST,NIGHT_MIST,NIGHT_MIST,NIGHT_CLEAR,NIGHT_MOSTLY_CLOUDY,NIGHT_MOSTLY_CLOUDY,MOSTLY_CLOUDY,MOSTLY_CLOUDY,CLOUDY,OVERCAST,CLEAR,CLEAR,CLEAR","Cross-shore,Offshore,Offshore,Offshore,Cross-shore,Cross-shore,Offshore,Offshore,Offshore,Cross-shore,Onshore,Onshore,Onshore,Onshore,Onshore",15
5842041f4e65fad6a770898a,2024_01_31,36.9572312370203,-121.98177,26th Ave,3.2666666666666666,1.3840000000000001,1.6313333333333333,14,14,"NIGHT_MOSTLY_CLOUDY,NIGHT_OVERCAST,NIGHT_CLOUDY,NIGHT_MIST,NIGHT_CLEAR,NIGHT_MOSTLY_CLOUDY,NIGHT_CLEAR,NIGHT_CLEAR,CLEAR,CLEAR,CLOUDY,OVERCAST,CLEAR,CLEAR,CLOUDY","Onshore,Cross-shore,Offshore,Offshore,Offshore,Offshore,Offshore,Cross-shore,Offshore,Offshore,Offshore,Cross-shore,Cross-shore,Cross-shore,Onshore",15
5842041f4e65fad6a770898e,2024_01_31,36.91899972819882,-121.85536,Manresa,3.533333333333333,1.6213333333333333,1.908,14,14,"NIGHT_CLEAR,NIGHT_CLEAR,NIGHT_CLEAR,NIGHT_CLEAR,NIGHT_CLEAR,NIGHT_MOSTLY_CLOUDY,NIGHT_CLEAR,NIGHT_CLEAR,MOSTLY_CLOUDY,MOSTLY_CLOUDY,CLOUDY,OVERCAST,CLEAR,CLEAR,CLOUDY","Cross-shore,Cross-shore,Offshore,Offshore,Offshore,Offshore,Offshore,Offshore,Offshore,Offshore,Cross-shore,Cross-shore,Cross-shore,Cross-shore,Onshore",15
5842041f4e65fad6a7708990,2024_01_31,34.45747731928454,-120.34242,The Ranch,1.8,0.5146666666666667,0.82,15.666666666666666,15.666666666666666,"NIGHT_CLEAR,NIGHT_CLEAR,NIGHT_MIST,NIGHT_MIST,NIGHT_BRIEF_SHOWERS,NIGHT_DRIZZLE,NIGHT_MIST,BRIEF_SHOWERS,MIST,MIST,MIST,MOSTLY_CLOUDY,MIST,MIST,MOSTLY_CLOUDY","Onshore,Onshore,Onshore,Onshore,Onshore,Onshore,Onshore,Onshore,Onshore,Onshore,Onshore,Onshore,Onshore,Onshore,Onshore",15
5842041f4e65fad6a7708991,2024_01_31,34.50875036590315,-120.50348,Jalama,2.2666666666666666,1.1893333333333334,1.4233333333333333,15,15,"NIGHT_CLEAR,NIGHT_MIST,NIGHT_BRIEF_SHOWERS,NIGHT_BRIEF_SHOWERS,NIGHT_MIST,NIGHT_OVERCAST,NIGHT_CLEAR,NIGHT_MOSTLY_CLOUDY,BRIEF_SHOWERS,BRIEF_SHOWERS,BRIEF_SHOWERS,MIST,MIST,MIST,MIST","Cross-shore,Cross-shore,Cross-shore,Cross-shore,Cross-shore,Cross-shore,Cross-shore,Cross-shore,Cross-shore,Cross-shore,Cross-shore,Cross-shore,Cross-shore,Cross-shore,Cross-shore",15
5842041f4e65fad6a7708996,2024_01_31,34.68700870220497,-120.6111611019887,Surf Beach,3.533333333333333,1.8679999999999999,2.1726666666666667,15,15,"NIGHT_MIST,NIGHT_MIST,NIGHT_CLEAR,NIGHT_MOSTLY_CLOUDY,NIGHT_MOSTLY_CLOUDY,NIGHT_MOSTLY_CLOUDY,NIGHT_MOSTLY_CLOUDY,NIGHT_CLEAR,CLEAR,CLEAR,CLEAR,MOSTLY_CLEAR,CLEAR,CLEAR,CLEAR","Offshore,Onshore,Cross-shore,Offshore,Offshore,Offshore,Offshore,Offshore,Offshore,Offshore,Offshore,Offshore,Offshore,Offshore,Offshore",15
5842041f4e65fad6a770899c,2024_01_31,35.5730538161116,-121.1143362345574,Moonstone,3.533333333333333,1.6353333333333333,1.8753333333333333,15,15,"NIGHT_CLEAR,NIGHT_CLEAR,NIGHT_CLEAR,NIGHT_CLEAR,NIGHT_MOSTLY_CLOUDY,NIGHT_MOSTLY_CLOUDY,NIGHT_BRIEF_SHOWERS,NIGHT_BRIEF_SHOWERS,CLEAR,MOSTLY_CLOUDY,BRIEF_SHOWERS,MIST,MIST,MIST,MOSTLY_CLOUDY","Offshore,Offshore,Offshore,Offshore,Offshore,Offshore,Offshore,Offshore,Offshore,Offshore,Cross-shore,Cross-shore,Cross-shore,Cross-shore,Cross-shore",15
5842041f4e65fad6a770899d,2024_01_31,35.61533716776573,-121.1502053073914,Pico Creek,3.2,1.35,1.5673333333333332,14.666666666666666,14.666666666666666,"NIGHT_CLEAR,NIGHT_CLEAR,NIGHT_CLEAR,NIGHT_CLEAR,NIGHT_MOSTLY_CLOUDY,NIGHT_MOSTLY_CLOUDY,NIGHT_BRIEF_SHOWERS,NIGHT_BRIEF_SHOWERS,MOSTLY_CLOUDY,MOSTLY_CLOUDY,BRIEF_SHOWERS,BRIEF_SHOWERS,BRIEF_SHOWERS,MIST,MOSTLY_CLOUDY","Offshore,Offshore,Offshore,Offshore,Offshore,Offshore,Offshore,Offshore,Offshore,Offshore,Offshore,Cross-shore,Cross-shore,Cross-shore,Cross-shore",15
5842041f4e65fad6a770899e,2024_01_31,35.56829031927379,-121.1120653023953,Santa Rosa Creek,3.066666666666667,1.638,1.8786666666666667,15,15,"NIGHT_CLEAR,NIGHT_CLEAR,NIGHT_CLEAR,NIGHT_CLEAR,NIGHT_CLEAR,NIGHT_MIST,NIGHT_MOSTLY_CLOUDY,NIGHT_MOSTLY_CLOUDY,BRIEF_SHOWERS,BRIEF_SHOWERS,MOSTLY_CLOUDY,MIST,MIST,MIST,CLEAR","Offshore,Offshore,Offshore,Offshore,Offshore,Cross-shore,Cross-shore,Cross-shore,Cross-shore,Cross-shore,Cross-shore,Cross-shore,Cross-shore,Cross-shore,Onshore",15
5842041f4e65fad6a77089a2,2024_01_31,35.44820114936284,-120.90715,"Cayucos Pier, Southside ",2.4,0.6713333333333333,0.976,14,14,"NIGHT_CLEAR,NIGHT_CLEAR,NIGHT_CLEAR,NIGHT_CLEAR,NIGHT_CLEAR,NIGHT_CLEAR,NIGHT_MOSTLY_CLOUDY,NIGHT_MOSTLY_CLOUDY,CLEAR,CLEAR,CLEAR,CLEAR,CLEAR,CLEAR,CLEAR","Cross-shore,Cross-shore,Cross-shore,Onshore,Onshore,Cross-shore,Cross-shore,Cross-shore,Cross-shore,Onshore,Onshore,Onshore,Onshore,Onshore,Onshore",15
5842041f4e65fad6a77089a4,2024_01_31,35.30143372628852,-120.877819239902,Cable Landing,3.3333333333333335,2.025333333333333,2.284666666666667,14,14,"NIGHT_CLEAR,NIGHT_CLEAR,NIGHT_CLEAR,NIGHT_CLEAR,NIGHT_CLEAR,NIGHT_MOSTLY_CLOUDY,NIGHT_CLEAR,NIGHT_MOSTLY_CLOUDY,MOSTLY_CLOUDY,CLEAR,CLEAR,MOSTLY_CLEAR,CLEAR,MOSTLY_CLEAR,CLEAR","Offshore,Offshore,Offshore,Offshore,Offshore,Offshore,Offshore,Offshore,Offshore,Offshore,Cross-shore,Cross-shore,Cross-shore,Cross-shore,Cross-shore",15
5842041f4e65fad6a77089a9,2024_01_31,35.61269103500222,-121.1480725356606,San Simeon,2.2,0.9314666666666667,1.0896666666666666,14.666666666666666,14.666666666666666,"NIGHT_CLEAR,NIGHT_CLEAR,NIGHT_CLEAR,NIGHT_CLEAR,NIGHT_MOSTLY_CLOUDY,NIGHT_MOSTLY_CLOUDY,NIGHT_MOSTLY_CLOUDY,NIGHT_MOSTLY_CLOUDY,BRIEF_SHOWERS,MOSTLY_CLOUDY,MIST,BRIEF_SHOWERS,BRIEF_SHOWERS,MIST,MOSTLY_CLOUDY","Cross-shore,Offshore,Offshore,Cross-shore,Cross-shore,Cross-shore,Cross-shore,Cross-shore,Cross-shore,Cross-shore,Cross-shore,Cross-shore,Onshore,Onshore,Onshore",15
5842041f4e65fad6a77089ab,2024_01_31,35.1775325966252,-120.7341125142258,Avila Beach,1.0666666666666667,0.074,0.3666666666666667,14,14,"NIGHT_CLEAR,NIGHT_CLEAR,NIGHT_CLEAR,NIGHT_CLEAR,NIGHT_MIST,NIGHT_MIST,NIGHT_MOSTLY_CLOUDY,NIGHT_MOSTLY_CLOUDY,CLEAR,CLEAR,CLEAR,MOSTLY_CLOUDY,CLEAR,CLEAR,CLEAR","Cross-shore,Cross-shore,Cross-shore,Onshore,Onshore,Onshore,Onshore,Offshore,Cross-shore,Onshore,Onshore,Onshore,Onshore,Onshore,Onshore",15
5842041f4e65fad6a77089ac,2024_01_31,35.13877877884115,-120.64535,Pismo Beach Pier,2.612,1.15094,1.4274,13,13,"NIGHT_CLEAR,NIGHT_CLEAR,NIGHT_CLEAR,NIGHT_CLEAR,NIGHT_MIST,NIGHT_MOSTLY_CLOUDY,NIGHT_MIST,NIGHT_MOSTLY_CLOUDY,MOSTLY_CLOUDY,CLEAR,CLEAR,MOSTLY_CLOUDY,CLEAR,CLEAR,CLEAR","Offshore,Offshore,Offshore,Offshore,Offshore,Cross-shore,Cross-shore,Offshore,Offshore,Offshore,Onshore,Onshore,Onshore,Cross-shore,Cross-shore",15
5842041f4e65fad6a77089ad,2024_01_31,46.8907710233147,-124.12964,Westport/Olympic Peninsula,2.1333333333333333,3.482,3.9286666666666665,10,10,"NIGHT_DRIZZLE,NIGHT_DRIZZLE,NIGHT_RAIN,NIGHT_LIGHT_RAIN,NIGHT_OVERCAST,NIGHT_BRIEF_SHOWERS,NIGHT_OVERCAST,NIGHT_OVERCAST,CLOUDY,DRIZZLE,CLOUDY,OVERCAST,OVERCAST,LIGHT_RAIN,CLOUDY","Offshore,Offshore,Cross-shore,Offshore,Cross-shore,Cross-shore,Cross-shore,Cross-shore,Cross-shore,Cross-shore,Cross-shore,Cross-shore,Cross-shore,Cross-shore,Cross-shore",15
5842041f4e65fad6a77089ae,2024_01_31,46.35185177248545,-124.06747,Long Beach Peninsula,2.4,3.2306666666666666,3.708,10.666666666666666,10.666666666666666,"NIGHT_LIGHT_SHOWERS_POSSIBLE,NIGHT_LIGHT_RAIN,NIGHT_HEAVY_RAIN,NIGHT_LIGHT_RAIN,NIGHT_DRIZZLE,NIGHT_OVERCAST,NIGHT_LIGHT_RAIN,NIGHT_LIGHT_RAIN,LIGHT_RAIN,CLOUDY,LIGHT_RAIN,OVERCAST,OVERCAST,LIGHT_RAIN,MOSTLY_CLOUDY","Offshore,Offshore,Offshore,Offshore,Offshore,Offshore,Offshore,Offshore,Offshore,Offshore,Offshore,Offshore,Offshore,Offshore,Offshore",15
5842041f4e65fad6a77089af,2024_01_31,47.90649175554033,-124.6370864743483,La Push,0.13333333333333333,3.2986666666666666,3.5546666666666664,9,9,"NIGHT_LIGHT_RAIN,NIGHT_LIGHT_RAIN,NIGHT_OVERCAST,NIGHT_CLEAR,NIGHT_DRIZZLE,NIGHT_CLOUDY,NIGHT_CLEAR,NIGHT_BRIEF_SHOWERS,LIGHT_RAIN,OVERCAST,LIGHT_RAIN,LIGHT_RAIN,LIGHT_RAIN,DRIZZLE,DRIZZLE","Cross-shore,Cross-shore,Cross-shore,Cross-shore,Cross-shore,Cross-shore,Cross-shore,Cross-shore,Cross-shore,Cross-shore,Cross-shore,Cross-shore,Cross-shore,Cross-shore,Onshore",15
5842041f4e65fad6a77089b0,2024_01_31,42.04368239985442,-124.26828,Brookings Jetty,0.4,2.07387,3.2404206666666666,12,12,"NIGHT_DRIZZLE,NIGHT_DRIZZLE,NIGHT_HEAVY_RAIN,NIGHT_LIGHT_RAIN,NIGHT_OVERCAST,NIGHT_LIGHT_RAIN,NIGHT_RAIN,NIGHT_LIGHT_RAIN,RAIN,RAIN,RAIN,RAIN,RAIN,RAIN,LIGHT_RAIN","Cross-shore,Onshore,Onshore,Onshore,Onshore,Onshore,Onshore,Onshore,Onshore,Onshore,Onshore,Onshore,Onshore,Onshore,Onshore",15
5842041f4e65fad6a77089b1,2024_01_31,42.74071837900346,-124.4983727491047,Port Orford,0,4.827333333333334,5.107333333333333,12,12,"NIGHT_LIGHT_RAIN,NIGHT_DRIZZLE,NIGHT_DRIZZLE,NIGHT_LIGHT_RAIN,NIGHT_RAIN,NIGHT_RAIN,NIGHT_LIGHT_RAIN,NIGHT_LIGHT_RAIN,LIGHT_RAIN,HEAVY_RAIN,DRIZZLE,LIGHT_SHOWERS_POSSIBLE,LIGHT_SHOWERS_POSSIBLE,CLOUDY,LIGHT_RAIN","Onshore,Onshore,Onshore,Onshore,Onshore,Onshore,Onshore,Onshore,Onshore,Onshore,Onshore,Onshore,Onshore,Onshore,Onshore",15
5842041f4e65fad6a77089b2,2024_01_31,44.01532689312291,-124.13865,Florence South Jetty,2.3333333333333335,3.3273333333333333,3.7046666666666668,12,12,"NIGHT_DRIZZLE,NIGHT_OVERCAST,NIGHT_LIGHT_RAIN,NIGHT_LIGHT_RAIN,NIGHT_DRIZZLE,NIGHT_LIGHT_RAIN,NIGHT_LIGHT_RAIN,NIGHT_LIGHT_RAIN,LIGHT_RAIN,BRIEF_SHOWERS_POSSIBLE,RAIN,CLEAR,LIGHT_SHOWERS_POSSIBLE,LIGHT_SHOWERS_POSSIBLE,LIGHT_SHOWERS_POSSIBLE","Offshore,Offshore,Cross-shore,Cross-shore,Cross-shore,Offshore,Offshore,Offshore,Offshore,Offshore,Offshore,Cross-shore,Cross-shore,Cross-shore,Offshore",15
5842041f4e65fad6a77089b3,2024_01_31,42.41812540774362,-124.42945,Gold Beach South Jetty,0,4.324666666666666,4.75,12,12,"NIGHT_BRIEF_SHOWERS,NIGHT_DRIZZLE,NIGHT_LIGHT_SHOWERS_POSSIBLE,NIGHT_DRIZZLE,NIGHT_LIGHT_RAIN,NIGHT_LIGHT_RAIN,NIGHT_LIGHT_SHOWERS_POSSIBLE,NIGHT_LIGHT_SHOWERS_POSSIBLE,LIGHT_SHOWERS_POSSIBLE,LIGHT_RAIN,RAIN,RAIN,CLEAR,CLOUDY,LIGHT_SHOWERS_POSSIBLE","Onshore,Onshore,Onshore,Onshore,Onshore,Onshore,Onshore,Onshore,Onshore,Onshore,Onshore,Onshore,Onshore,Onshore,Onshore",15
5842041f4e65fad6a77089b4,2024_01_31,44.95857310226525,-124.0219017690976,Lincoln City,2.066666666666667,3.0273333333333334,3.3966666666666665,11,11,"NIGHT_DRIZZLE,NIGHT_RAIN,NIGHT_LIGHT_RAIN,NIGHT_BRIEF_SHOWERS_POSSIBLE,NIGHT_LIGHT_RAIN,NIGHT_DRIZZLE,NIGHT_RAIN,NIGHT_LIGHT_RAIN,LIGHT_SHOWERS_POSSIBLE,LIGHT_RAIN,DRIZZLE,LIGHT_RAIN,BRIEF_SHOWERS,CLEAR,CLEAR","Offshore,Cross-shore,Cross-shore,Offshore,Cross-shore,Offshore,Cross-shore,Cross-shore,Offshore,Offshore,Cross-shore,Cross-shore,Cross-shore,Cross-shore,Offshore",15
5842041f4e65fad6a77089b5,2024_01_31,44.63792761362982,-124.0657,Newport,2.066666666666667,3.3633333333333333,3.9346666666666668,11,11,"NIGHT_DRIZZLE,NIGHT_LIGHT_RAIN,NIGHT_LIGHT_RAIN,NIGHT_DRIZZLE,NIGHT_CLOUDY,NIGHT_OVERCAST,NIGHT_LIGHT_RAIN,NIGHT_BRIEF_SHOWERS_POSSIBLE,LIGHT_SHOWERS_POSSIBLE,CLEAR,BRIEF_SHOWERS_POSSIBLE,LIGHT_RAIN,LIGHT_RAIN,LIGHT_RAIN,CLOUDY","Cross-shore,Cross-shore,Cross-shore,Cross-shore,Cross-shore,Cross-shore,Cross-shore,Cross-shore,Cross-shore,Cross-shore,Cross-shore,Cross-shore,Cross-shore,Cross-shore,Offshore",15
5842041f4e65fad6a77089b6,2024_01_31,45.61468496266301,-123.94643,Rockaway Beach,2.4,3.002666666666667,3.398,11,11,"NIGHT_LIGHT_SHOWERS_POSSIBLE,NIGHT_DRIZZLE,NIGHT_RAIN,NIGHT_LIGHT_RAIN,NIGHT_LIGHT_RAIN,NIGHT_BRIEF_SHOWERS_POSSIBLE,NIGHT_LIGHT_RAIN,NIGHT_LIGHT_RAIN,RAIN,RAIN,DRIZZLE,OVERCAST,CLOUDY,OVERCAST,CLEAR","Offshore,Offshore,Offshore,Offshore,Offshore,Offshore,Offshore,Offshore,Offshore,Offshore,Offshore,Cross-shore,Offshore,Offshore,Cross-shore",15
5842041f4e65fad6a77089b7,2024_01_31,45.20252914186085,-123.96975,Pacific City,2,3.028,3.4406666666666665,11,11,"NIGHT_LIGHT_RAIN,NIGHT_RAIN,NIGHT_LIGHT_RAIN,NIGHT_BRIEF_SHOWERS,NIGHT_LIGHT_RAIN,NIGHT_OVERCAST,NIGHT_LIGHT_RAIN,NIGHT_LIGHT_RAIN,CLOUDY,DRIZZLE,OVERCAST,OVERCAST,OVERCAST,OVERCAST,MOSTLY_CLOUDY","Cross-shore,Cross-shore,Cross-shore,Cross-shore,Cross-shore,Cross-shore,Cross-shore,Cross-shore,Cross-shore,Cross-shore,Cross-shore,Cross-shore,Cross-shore,Cross-shore,Cross-shore",15
5842041f4e65fad6a77089b8,2024_01_31,45.88179930310263,-123.96681,Cannon Beach,2.1333333333333333,3.2653333333333334,3.6253333333333333,11,11,"NIGHT_BRIEF_SHOWERS_POSSIBLE,NIGHT_LIGHT_RAIN,NIGHT_RAIN,NIGHT_LIGHT_RAIN,NIGHT_MOSTLY_CLOUDY,NIGHT_OVERCAST,NIGHT_LIGHT_RAIN,NIGHT_LIGHT_RAIN,LIGHT_RAIN,DRIZZLE,BRIEF_SHOWERS_POSSIBLE,LIGHT_RAIN,DRIZZLE,RAIN,CLEAR","Offshore,Offshore,Offshore,Cross-shore,Cross-shore,Cross-shore,Cross-shore,Cross-shore,Cross-shore,Cross-shore,Cross-shore,Cross-shore,Cross-shore,Cross-shore,Cross-shore",15
5842041f4e65fad6a77089ba,2024_01_31,40.02528754746774,-124.06372,Shelter Cove,0.06666666666666667,1.270072,1.9844893333333333,13,13,"NIGHT_LIGHT_RAIN,NIGHT_OVERCAST,NIGHT_RAIN,NIGHT_OVERCAST,NIGHT_LIGHT_RAIN,NIGHT_LIGHT_RAIN,NIGHT_RAIN,NIGHT_HEAVY_RAIN,RAIN,RAIN,RAIN,HEAVY_RAIN,HEAVY_RAIN,RAIN,LIGHT_RAIN","Onshore,Onshore,Onshore,Onshore,Onshore,Onshore,Onshore,Onshore,Onshore,Onshore,Onshore,Onshore,Onshore,Onshore,Onshore",15
5842041f4e65fad6a77089bb,2024_01_31,40.76816197136951,-124.24248,Humboldt Harbor Entrance,0.9333333333333333,2.4046666666666665,2.876,13,13,"NIGHT_CLOUDY,NIGHT_OVERCAST,NIGHT_LIGHT_RAIN,NIGHT_BRIEF_SHOWERS,NIGHT_OVERCAST,NIGHT_RAIN,NIGHT_HEAVY_RAIN,NIGHT_RAIN,LIGHT_RAIN,LIGHT_SHOWERS_POSSIBLE,LIGHT_SHOWERS_POSSIBLE,LIGHT_SHOWERS_POSSIBLE,LIGHT_SHOWERS_POSSIBLE,LIGHT_RAIN,HEAVY_RAIN","Cross-shore,Cross-shore,Cross-shore,Offshore,Offshore,Cross-shore,Cross-shore,Offshore,Cross-shore,Cross-shore,Cross-shore,Cross-shore,Cross-shore,Cross-shore,Cross-shore",15
5842041f4e65fad6a77089bc,2024_01_31,40.76684246920174,-124.23107,North Jetty,1.3333333333333333,2.259333333333333,2.658,13,13,"NIGHT_BRIEF_SHOWERS_POSSIBLE,NIGHT_OVERCAST,NIGHT_LIGHT_SHOWERS_POSSIBLE,NIGHT_MOSTLY_CLOUDY,NIGHT_MOSTLY_CLOUDY,NIGHT_DRIZZLE,NIGHT_RAIN,NIGHT_RAIN,LIGHT_RAIN,RAIN,LIGHT_SHOWERS_POSSIBLE,RAIN,LIGHT_SHOWERS_POSSIBLE,RAIN,RAIN","Offshore,Offshore,Offshore,Offshore,Offshore,Offshore,Offshore,Offshore,Offshore,Cross-shore,Cross-shore,Cross-shore,Offshore,Cross-shore,Cross-shore",15
5842041f4e65fad6a77089bd,2024_01_31,41.02731183893966,-124.1149972888982,Westhaven,0.7333333333333333,2.934,3.348,13,13,"NIGHT_OVERCAST,NIGHT_OVERCAST,NIGHT_CLOUDY,NIGHT_OVERCAST,NIGHT_OVERCAST,NIGHT_OVERCAST,NIGHT_LIGHT_RAIN,NIGHT_LIGHT_RAIN,RAIN,RAIN,LIGHT_RAIN,RAIN,RAIN,RAIN,LIGHT_RAIN","Cross-shore,Cross-shore,Cross-shore,Cross-shore,Cross-shore,Cross-shore,Cross-shore,Cross-shore,Cross-shore,Cross-shore,Cross-shore,Cross-shore,Cross-shore,Cross-shore,Cross-shore",15
5842041f4e65fad6a77089be,2024_01_31,41.13016238153297,-124.16466,Sue-meg,1.5333333333333334,2.7813333333333334,3.1406666666666667,13,13,"NIGHT_CLEAR,NIGHT_OVERCAST,NIGHT_LIGHT_RAIN,NIGHT_OVERCAST,NIGHT_OVERCAST,NIGHT_RAIN,NIGHT_HEAVY_RAIN,NIGHT_LIGHT_SHOWERS_POSSIBLE,RAIN,RAIN,RAIN,RAIN,LIGHT_SHOWERS_POSSIBLE,LIGHT_SHOWERS_POSSIBLE,HEAVY_RAIN","Offshore,Offshore,Offshore,Offshore,Offshore,Offshore,Offshore,Offshore,Offshore,Offshore,Offshore,Offshore,Offshore,Offshore,Offshore",15
5842041f4e65fad6a77089bf,2024_01_31,37.8289474958188,-122.5376795097543,Fort Cronkite/Rodeo Beach,1.4,2.31,2.7053333333333334,13.666666666666666,13.666666666666666,"NIGHT_CLEAR,NIGHT_OVERCAST,NIGHT_CLEAR,NIGHT_CLEAR,NIGHT_MOSTLY_CLEAR,NIGHT_CLOUDY,NIGHT_OVERCAST,NIGHT_OVERCAST,OVERCAST,MOSTLY_CLOUDY,OVERCAST,BRIEF_SHOWERS_POSSIBLE,DRIZZLE,LIGHT_RAIN,LIGHT_RAIN","Onshore,Onshore,Onshore,Onshore,Onshore,Onshore,Onshore,Onshore,Onshore,Onshore,Onshore,Onshore,Onshore,Onshore,Onshore",15
5842041f4e65fad6a77089c0,2024_01_31,41.74415759876137,-124.1771718063073,South Beach CA,0.4666666666666667,3.904,4.301333333333333,12,12,"NIGHT_LIGHT_SHOWERS_POSSIBLE,NIGHT_LIGHT_SHOWERS_POSSIBLE,NIGHT_LIGHT_SHOWERS_POSSIBLE,NIGHT_RAIN,NIGHT_LIGHT_RAIN,NIGHT_RAIN,NIGHT_RAIN,NIGHT_LIGHT_SHOWERS_POSSIBLE,RAIN,RAIN,LIGHT_SHOWERS_POSSIBLE,RAIN,RAIN,LIGHT_SHOWERS_POSSIBLE,LIGHT_SHOWERS_POSSIBLE","Onshore,Onshore,Onshore,Onshore,Onshore,Onshore,Onshore,Onshore,Onshore,Onshore,Onshore,Onshore,Onshore,Onshore,Onshore",15
5842041f4e65fad6a77089c1,2024_01_31,37.89801283969752,-122.64519,Stinson Beach,1.8666666666666667,1.2066666666666668,1.482,14,14,"NIGHT_LIGHT_RAIN,NIGHT_DRIZZLE,NIGHT_OVERCAST,NIGHT_MOSTLY_CLOUDY,NIGHT_MOSTLY_CLOUDY,NIGHT_BRIEF_SHOWERS,NIGHT_LIGHT_RAIN,NIGHT_OVERCAST,OVERCAST,MIST,MIST,LIGHT_RAIN,LIGHT_RAIN,LIGHT_RAIN,RAIN","Onshore,Onshore,Onshore,Onshore,Onshore,Onshore,Onshore,Onshore,Onshore,Onshore,Onshore,Onshore,Onshore,Onshore,Onshore",15
5842041f4e65fad6a77089c2,2024_01_31,37.90514516176495,-122.68151,Bolinas,2.6,1.236982,1.9327853333333334,14,14,"NIGHT_OVERCAST,NIGHT_OVERCAST,NIGHT_OVERCAST,NIGHT_MOSTLY_CLOUDY,NIGHT_MOSTLY_CLOUDY,NIGHT_MOSTLY_CLOUDY,NIGHT_OVERCAST,NIGHT_OVERCAST,OVERCAST,MOSTLY_CLOUDY,MIST,LIGHT_RAIN,LIGHT_RAIN,LIGHT_RAIN,RAIN","Onshore,Onshore,Onshore,Onshore,Cross-shore,Onshore,Onshore,Onshore,Cross-shore,Cross-shore,Cross-shore,Cross-shore,Onshore,Cross-shore,Onshore",15
5842041f4e65fad6a77089c3,2024_01_31,38.04892513158693,-122.9892494965416,Point Reyes (north),2.4,2.434,2.7226666666666666,14,14,"NIGHT_MIST,NIGHT_MIST,NIGHT_MIST,NIGHT_MIST,NIGHT_MIST,NIGHT_MIST,NIGHT_DRIZZLE,NIGHT_OVERCAST,OVERCAST,OVERCAST,OVERCAST,LIGHT_RAIN,RAIN,LIGHT_RAIN,RAIN","Offshore,Offshore,Offshore,Offshore,Offshore,Offshore,Offshore,Offshore,Offshore,Offshore,Offshore,Offshore,Offshore,Offshore,Offshore",15
5842041f4e65fad6a77089c6,2024_01_31,38.31088736605785,-123.0496777333731,Doran Beach,1.0666666666666667,0.758,1.0353333333333334,14,14,"NIGHT_OVERCAST,NIGHT_CLOUDY,NIGHT_OVERCAST,NIGHT_OVERCAST,NIGHT_OVERCAST,NIGHT_OVERCAST,NIGHT_OVERCAST,NIGHT_DRIZZLE,OVERCAST,OVERCAST,LIGHT_RAIN,RAIN,HEAVY_RAIN,LIGHT_RAIN,RAIN","Onshore,Onshore,Onshore,Onshore,Onshore,Onshore,Onshore,Onshore,Onshore,Onshore,Onshore,Onshore,Onshore,Onshore,Onshore",15
5842041f4e65fad6a77089c7,2024_01_31,38.45077228660809,-123.13008,Russian Rivermouth,2,2.35,2.7986666666666666,13,13,"NIGHT_CLOUDY,NIGHT_CLOUDY,NIGHT_OVERCAST,NIGHT_OVERCAST,NIGHT_OVERCAST,NIGHT_OVERCAST,NIGHT_OVERCAST,NIGHT_LIGHT_RAIN,DRIZZLE,OVERCAST,LIGHT_RAIN,RAIN,HEAVY_RAIN,RAIN,RAIN","Cross-shore,Cross-shore,Cross-shore,Cross-shore,Cross-shore,Cross-shore,Cross-shore,Cross-shore,Cross-shore,Cross-shore,Cross-shore,Cross-shore,Cross-shore,Cross-shore,Cross-shore",15
5842041f4e65fad6a77089c8,2024_01_31,38.35329968518107,-123.06906,Salmon Creek,2.1333333333333333,2.365333333333333,2.6453333333333333,14,14,"NIGHT_CLOUDY,NIGHT_CLOUDY,NIGHT_OVERCAST,NIGHT_OVERCAST,NIGHT_OVERCAST,NIGHT_LIGHT_RAIN,NIGHT_DRIZZLE,NIGHT_OVERCAST,OVERCAST,OVERCAST,LIGHT_RAIN,HEAVY_RAIN,RAIN,LIGHT_RAIN,RAIN","Cross-shore,Offshore,Offshore,Cross-shore,Cross-shore,Cross-shore,Cross-shore,Cross-shore,Cross-shore,Cross-shore,Cross-shore,Cross-shore,Cross-shore,Cross-shore,Cross-shore",15
5842041f4e65fad6a77089c9,2024_01_31,38.6845180197959,-123.4322714291198,Black Point Beach,2.466666666666667,2.6093333333333333,3.0986666666666665,13,13,"NIGHT_CLEAR,NIGHT_CLOUDY,NIGHT_OVERCAST,NIGHT_MIST,NIGHT_OVERCAST,NIGHT_MIST,NIGHT_DRIZZLE,NIGHT_HEAVY_RAIN,RAIN,RAIN,LIGHT_RAIN,RAIN,RAIN,RAIN,RAIN","Offshore,Offshore,Offshore,Offshore,Offshore,Offshore,Offshore,Offshore,Offshore,Offshore,Offshore,Offshore,Offshore,Offshore,Offshore",15
5842041f4e65fad6a77089ca,2024_01_31,43.251076,-70.59144,Ogunquit,2.6553333333333335,0.8676666666666666,1.2973333333333334,5,4,"NIGHT_CLEAR,NIGHT_CLEAR,NIGHT_CLEAR,NIGHT_CLEAR,NIGHT_CLEAR,CLEAR,MOSTLY_CLEAR,CLEAR,CLEAR,CLEAR,CLEAR,CLEAR,CLEAR,CLEAR,NIGHT_CLEAR","Offshore,Offshore,Offshore,Offshore,Offshore,Offshore,Cross-shore,Cross-shore,Cross-shore,Cross-shore,Cross-shore,Cross-shore,Cross-shore,Offshore,Offshore",15
5842041f4e65fad6a77089cb,2024_01_31,41.362631366305415,-71.48006772942608,Point Judith,2.2106666666666666,0.40395555555555557,0.7157777777777778,7,6,"NIGHT_CLEAR,NIGHT_CLEAR,NIGHT_CLEAR,NIGHT_CLEAR,NIGHT_CLEAR,CLEAR,CLEAR,CLEAR,CLEAR,CLEAR,CLEAR,CLEAR,CLEAR,CLEAR,NIGHT_CLEAR","Onshore,Cross-shore,Cross-shore,Onshore,Onshore,Cross-shore,Onshore,Onshore,Onshore,Cross-shore,Onshore,Offshore,Offshore,Offshore,Offshore",15
5842041f4e65fad6a77089cd,2024_01_31,41.422678090954726,-71.45413,Monahan's - Narragansett,1.6666666666666667,0.33481466666666665,0.5231486666666667,6,6,"NIGHT_CLEAR,NIGHT_CLEAR,NIGHT_CLEAR,NIGHT_CLEAR,NIGHT_CLEAR,CLEAR,CLEAR,CLEAR,CLEAR,CLEAR,CLEAR,CLEAR,CLEAR,CLEAR,NIGHT_CLEAR","Cross-shore,Cross-shore,Onshore,Onshore,Cross-shore,Cross-shore,Onshore,Onshore,Onshore,Onshore,Cross-shore,Cross-shore,Cross-shore,Offshore,Cross-shore",15
5842041f4e65fad6a77089ce,2024_01_31,41.469,-71.293,Ruggles - Newport,1.8666666666666667,0.381318,0.5958073333333334,6,6,"NIGHT_CLEAR,NIGHT_CLEAR,NIGHT_CLEAR,NIGHT_CLEAR,NIGHT_CLEAR,CLEAR,CLEAR,CLEAR,CLEAR,CLEAR,CLEAR,CLEAR,CLEAR,CLEAR,NIGHT_CLEAR","Offshore,Offshore,Cross-shore,Offshore,Offshore,Offshore,Offshore,Onshore,Onshore,Onshore,Onshore,Onshore,Onshore,Onshore,Onshore",15
5842041f4e65fad6a77089cf,2024_01_31,43.175394,-70.606351,Short Sands Beach,3,0.7786666666666667,1.066,4,4,"NIGHT_MOSTLY_CLOUDY,NIGHT_CLEAR,NIGHT_CLEAR,NIGHT_CLEAR,NIGHT_CLEAR,CLEAR,CLEAR,MOSTLY_CLEAR,CLEAR,CLEAR,CLEAR,CLEAR,CLEAR,CLEAR,NIGHT_CLEAR","Cross-shore,Cross-shore,Cross-shore,Cross-shore,Cross-shore,Offshore,Offshore,Offshore,Offshore,Offshore,Offshore,Offshore,Offshore,Offshore,Offshore",15
5842041f4e65fad6a77089d0,2024_01_31,41.487408,-71.29017,First Beach,1.9333333333333333,0.112,0.418,6,6,"NIGHT_CLEAR,NIGHT_CLEAR,NIGHT_CLEAR,NIGHT_CLEAR,NIGHT_CLEAR,CLEAR,CLEAR,CLEAR,CLEAR,CLEAR,CLEAR,CLEAR,CLEAR,CLEAR,NIGHT_CLEAR","Offshore,Offshore,Cross-shore,Offshore,Offshore,Offshore,Cross-shore,Onshore,Onshore,Onshore,Onshore,Onshore,Onshore,Onshore,Onshore",15
5842041f4e65fad6a77089d1,2024_01_31,42.27916830233153,-70.86498,Nantasket Beach,3.2333333333333334,0.9197777777777778,1.2254444444444446,5,4,"NIGHT_CLOUDY,NIGHT_MOSTLY_CLOUDY,NIGHT_CLEAR,NIGHT_CLEAR,NIGHT_CLEAR,CLEAR,CLEAR,CLEAR,CLEAR,CLEAR,CLEAR,CLEAR,CLEAR,CLEAR,NIGHT_CLEAR","Onshore,Cross-shore,Onshore,Onshore,Onshore,Offshore,Offshore,Offshore,Offshore,Offshore,Offshore,Offshore,Offshore,Offshore,Offshore",15
5842041f4e65fad6a77089d2,2024_01_31,41.817,-69.935,Cape Cod,2.933333333333333,0.9,1.144,5,5,"NIGHT_CLEAR,NIGHT_FOG,NIGHT_CLEAR,NIGHT_CLEAR,NIGHT_CLEAR,CLEAR,CLEAR,CLEAR,CLEAR,CLEAR,CLEAR,CLEAR,CLEAR,CLEAR,NIGHT_CLEAR","Cross-shore,Cross-shore,Cross-shore,Cross-shore,Cross-shore,Onshore,Onshore,Cross-shore,Cross-shore,Cross-shore,Cross-shore,Offshore,Offshore,Offshore,Cross-shore",15
5842041f4e65fad6a77089d3,2024_01_31,42.22055448975661,-70.70634873403819,Egypt Beach,3,0.9946666666666667,1.2993333333333332,5,5,"NIGHT_OVERCAST,NIGHT_OVERCAST,NIGHT_CLEAR,NIGHT_CLEAR,NIGHT_CLEAR,CLEAR,CLEAR,CLEAR,CLEAR,CLEAR,CLEAR,CLEAR,CLEAR,CLEAR,NIGHT_CLEAR","Onshore,Cross-shore,Onshore,Onshore,Onshore,Cross-shore,Cross-shore,Offshore,Offshore,Offshore,Cross-shore,Offshore,Offshore,Offshore,Offshore",15
5842041f4e65fad6a77089d4,2024_01_31,41.48739647744607,-71.25723,Second Beach,1.6333333333333333,0.19076766666666667,0.4197822222222222,7,6,"NIGHT_CLEAR,NIGHT_CLEAR,NIGHT_CLEAR,NIGHT_CLEAR,NIGHT_CLEAR,CLEAR,CLEAR,CLEAR,CLEAR,CLEAR,CLEAR,CLEAR,CLEAR,CLEAR,NIGHT_CLEAR","Offshore,Offshore,Offshore,Offshore,Offshore,Offshore,Offshore,Onshore,Onshore,Onshore,Onshore,Onshore,Onshore,Onshore,Onshore",15
5842041f4e65fad6a77089d5,2024_01_31,42.964,-70.769,Fox Hill,2.622,0.8248888888888889,1.2501111111111112,5,4,"NIGHT_MOSTLY_CLOUDY,NIGHT_CLEAR,NIGHT_CLEAR,NIGHT_CLEAR,NIGHT_CLEAR,CLEAR,CLEAR,MOSTLY_CLOUDY,CLEAR,CLEAR,CLEAR,CLEAR,CLEAR,CLEAR,NIGHT_CLEAR","Offshore,Offshore,Offshore,Offshore,Offshore,Offshore,Cross-shore,Cross-shore,Cross-shore,Cross-shore,Cross-shore,Cross-shore,Cross-shore,Cross-shore,Cross-shore",15
5842041f4e65fad6a77089d6,2024_01_31,42.991359,-70.75149,Straws Point,2.477333333333333,0.739111111111111,1.1235555555555556,5,4,"NIGHT_MOSTLY_CLOUDY,NIGHT_CLEAR,NIGHT_CLEAR,NIGHT_CLEAR,NIGHT_CLEAR,CLEAR,CLEAR,MOSTLY_CLOUDY,CLEAR,CLEAR,CLEAR,CLEAR,CLEAR,CLEAR,NIGHT_CLEAR","Offshore,Offshore,Offshore,Offshore,Offshore,Cross-shore,Cross-shore,Cross-shore,Cross-shore,Onshore,Onshore,Cross-shore,Cross-shore,Cross-shore,Cross-shore",15
5842041f4e65fad6a77089d7,2024_01_31,42.946,-70.786,Plaice Cove,2.7,0.8248888888888889,1.2501111111111112,5,4,"NIGHT_MOSTLY_CLOUDY,NIGHT_CLEAR,NIGHT_CLEAR,NIGHT_CLEAR,NIGHT_CLEAR,CLEAR,CLEAR,MOSTLY_CLEAR,CLEAR,CLEAR,CLEAR,CLEAR,CLEAR,CLEAR,NIGHT_CLEAR","Offshore,Offshore,Offshore,Offshore,Offshore,Offshore,Cross-shore,Cross-shore,Cross-shore,Cross-shore,Cross-shore,Offshore,Offshore,Offshore,Offshore",15
5842041f4e65fad6a77089d9,2024_01_31,42.911574,-70.80831,The Main Beach,3.12,0.9340227333333334,1.3927380222222223,6,4,"NIGHT_MOSTLY_CLOUDY,NIGHT_MOSTLY_CLOUDY,NIGHT_CLEAR,NIGHT_CLEAR,NIGHT_CLEAR,CLEAR,CLEAR,CLEAR,CLEAR,CLEAR,CLEAR,CLEAR,CLEAR,CLEAR,NIGHT_CLEAR","Offshore,Offshore,Offshore,Offshore,Offshore,Cross-shore,Cross-shore,Onshore,Cross-shore,Onshore,Onshore,Cross-shore,Cross-shore,Cross-shore,Cross-shore",15
5842041f4e65fad6a77089da,2024_01_31,42.97583846220203,-70.764,Sawyer's Beach,2.578,0.6718888888888889,1.0606666666666666,5,4,"NIGHT_MOSTLY_CLOUDY,NIGHT_CLEAR,NIGHT_CLEAR,NIGHT_CLEAR,NIGHT_CLEAR,CLEAR,CLEAR,MOSTLY_CLOUDY,CLEAR,CLEAR,CLEAR,CLEAR,CLEAR,CLEAR,NIGHT_CLEAR","Offshore,Offshore,Offshore,Offshore,Offshore,Offshore,Cross-shore,Cross-shore,Cross-shore,Cross-shore,Cross-shore,Cross-shore,Offshore,Offshore,Cross-shore",15
5842041f4e65fad6a77089db,2024_01_31,42.97,-70.77,Rye on the Rocks / 5-0's,3.0366666666666666,0.9304002444444445,1.3875831111111112,6,4,"NIGHT_MOSTLY_CLOUDY,NIGHT_CLEAR,NIGHT_CLEAR,NIGHT_CLEAR,NIGHT_CLEAR,CLEAR,CLEAR,MOSTLY_CLOUDY,CLEAR,CLEAR,CLEAR,CLEAR,CLEAR,CLEAR,NIGHT_CLEAR","Offshore,Offshore,Offshore,Offshore,Offshore,Offshore,Cross-shore,Cross-shore,Cross-shore,Cross-shore,Cross-shore,Cross-shore,Cross-shore,Cross-shore,Cross-shore",15
