_id,date,lat,lon,name,daily_mean_swell_rating,daily_mean_wave_height_min,daily_mean_wave_height_max,daily_mean_water_temperature_max,daily_mean_water_temperature_min,weather_per_timestamp,wind_per_timestamp,n_samples_per_day
5842041f4e65fad6a77087f9,2024_02_17,37.741668,-122.51038,South Ocean Beach,3.1063636363636364,1.0498181818181818,1.4680757575757577,14,14,"CLEAR,CLEAR,CLEAR,NIGHT_CLEAR,NIGHT_CLEAR,NIGHT_CLEAR,NIGHT_CLEAR,NIGHT_CLEAR,NIGHT_CLOUDY,NIGHT_CLOUDY,NIGHT_CLOUDY","Offshore,Cross-shore,Cross-shore,Offshore,Offshore,Offshore,Offshore,Offshore,Offshore,Offshore,Offshore",11
5842041f4e65fad6a7708801,2024_02_17,37.49142,-122.50428,Maverick's,NA,1.2645454545454546,1.479090909090909,13,13,"MIST,CLEAR,MIST,NIGHT_CLEAR,NIGHT_CLEAR,NIGHT_CLEAR,NIGHT_CLOUDY,NIGHT_CLOUDY,NIGHT_CLOUDY,NIGHT_OVERCAST,NIGHT_MOSTLY_CLOUDY","Onshore,Onshore,Onshore,Cross-shore,Onshore,Onshore,Onshore,Onshore,Onshore,Onshore,Onshore",11
5842041f4e65fad6a7708804,2024_02_17,44.997,-124.018,Roads End,3.6363636363636362,1.7263636363636363,2.050909090909091,11,11,"CLEAR,CLEAR,CLEAR,NIGHT_CLEAR,NIGHT_OVERCAST,NIGHT_CLOUDY,NIGHT_CLEAR,NIGHT_CLEAR,NIGHT_CLEAR,NIGHT_CLEAR,NIGHT_CLEAR","Offshore,Offshore,Offshore,Offshore,Offshore,Offshore,Offshore,Offshore,Offshore,Offshore,Offshore",11
5842041f4e65fad6a7708805,2024_02_17,36.95188851423011,-122.02522,Steamer Lane,3.1672727272727275,0.8209545454545455,1.176590909090909,14,14,"CLEAR,CLEAR,CLEAR,NIGHT_MIST,NIGHT_CLEAR,NIGHT_CLEAR,NIGHT_MIST,NIGHT_MIST,NIGHT_OVERCAST,NIGHT_MOSTLY_CLOUDY,NIGHT_MIST","Onshore,Cross-shore,Onshore,Onshore,Offshore,Cross-shore,Cross-shore,Cross-shore,Offshore,Offshore,Offshore",11
5842041f4e65fad6a7708806,2024_02_17,36.95918781542251,-122.02489,Cowells,1.3490909090909091,0.011287878787878788,0.2835151515151515,14,14,"CLEAR,CLEAR,CLEAR,NIGHT_MIST,NIGHT_CLEAR,NIGHT_CLEAR,NIGHT_MIST,NIGHT_MIST,NIGHT_OVERCAST,NIGHT_MOSTLY_CLOUDY,NIGHT_MIST","Cross-shore,Cross-shore,Cross-shore,Cross-shore,Cross-shore,Onshore,Offshore,Cross-shore,Cross-shore,Cross-shore,Offshore",11
5842041f4e65fad6a7708807,2024_02_17,36.95468082526536,-121.97234,Pleasure Point,3.1672727272727275,0.6548636363636364,1.1242424242424243,14,14,"CLEAR,CLEAR,CLEAR,NIGHT_CLEAR,NIGHT_CLEAR,NIGHT_CLEAR,NIGHT_CLEAR,NIGHT_MIST,NIGHT_CLEAR,NIGHT_MOSTLY_CLOUDY,NIGHT_MOSTLY_CLOUDY","Cross-shore,Cross-shore,Onshore,Onshore,Offshore,Offshore,Onshore,Onshore,Onshore,Onshore,Cross-shore",11
5842041f4e65fad6a770880a,2024_02_17,35.37815414378748,-120.86589,Morro Bay,3,0.7977818181818183,1.2655363636363637,14,14,"CLEAR,CLEAR,CLEAR,NIGHT_CLEAR,NIGHT_MIST,NIGHT_MOSTLY_CLOUDY,NIGHT_MOSTLY_CLOUDY,NIGHT_MOSTLY_CLOUDY,NIGHT_MIST,NIGHT_MOSTLY_CLOUDY,NIGHT_MOSTLY_CLOUDY","Onshore,Onshore,Onshore,Onshore,Cross-shore,Onshore,Offshore,Offshore,Offshore,Offshore,Offshore",11
5842041f4e65fad6a770880b,2024_02_17,36.95782765000708,-121.9672887511276,Jack's,2.090909090909091,0.24684848484848487,0.5524848484848485,14,14,"CLEAR,CLEAR,CLEAR,NIGHT_CLEAR,NIGHT_CLEAR,NIGHT_CLEAR,NIGHT_CLEAR,NIGHT_MIST,NIGHT_CLEAR,NIGHT_MOSTLY_CLOUDY,NIGHT_MOSTLY_CLOUDY","Cross-shore,Cross-shore,Onshore,Onshore,Offshore,Cross-shore,Onshore,Onshore,Onshore,Onshore,Onshore",11
5842041f4e65fad6a770880d,2024_02_17,34.29982939936656,-119.3489016603669,Gold Coast Beachbreaks,2,0.22818181818181818,0.5318181818181819,15,15,"MOSTLY_CLEAR,OVERCAST,MIST,NIGHT_MIST,NIGHT_MIST,NIGHT_MIST,NIGHT_MIST,NIGHT_MOSTLY_CLOUDY,NIGHT_MOSTLY_CLOUDY,NIGHT_OVERCAST,NIGHT_OVERCAST","Onshore,Onshore,Onshore,Cross-shore,Cross-shore,Cross-shore,Cross-shore,Cross-shore,Cross-shore,Offshore,Offshore",11
5842041f4e65fad6a7708811,2024_02_17,34.245076,-119.26799,Ventura Harbor,2.7572727272727273,0.934000909090909,1.3714477272727272,14,14,"CLEAR,OVERCAST,MOSTLY_CLOUDY,NIGHT_MIST,NIGHT_MIST,NIGHT_MIST,NIGHT_MIST,NIGHT_MOSTLY_CLOUDY,NIGHT_MOSTLY_CLOUDY,NIGHT_OVERCAST,NIGHT_OVERCAST","Onshore,Onshore,Onshore,Onshore,Onshore,Onshore,Cross-shore,Offshore,Offshore,Offshore,Offshore",11
5842041f4e65fad6a7708813,2024_02_17,34.051,-118.964,County Line,2.4545454545454546,0.4934363636363637,0.7994727272727272,15,15,"MOSTLY_CLOUDY,MOSTLY_CLOUDY,CLEAR,NIGHT_CLEAR,NIGHT_CLEAR,NIGHT_CLEAR,NIGHT_CLEAR,NIGHT_CLEAR,NIGHT_CLEAR,NIGHT_CLEAR,NIGHT_MOSTLY_CLOUDY","Onshore,Onshore,Onshore,Onshore,Onshore,Offshore,Offshore,Offshore,Cross-shore,Offshore,Offshore",11
5842041f4e65fad6a7708814,2024_02_17,34.37256264378892,-119.47797,Rincon,2,0.22727272727272727,0.5318181818181819,15,15,"CLEAR,CLEAR,CLEAR,NIGHT_MIST,NIGHT_MOSTLY_CLEAR,NIGHT_MOSTLY_CLOUDY,NIGHT_MIST,NIGHT_MOSTLY_CLOUDY,NIGHT_MOSTLY_CLOUDY,NIGHT_MOSTLY_CLOUDY,NIGHT_MOSTLY_CLOUDY","Cross-shore,Cross-shore,Cross-shore,Cross-shore,Cross-shore,Cross-shore,Cross-shore,Cross-shore,Onshore,Onshore,Onshore",11
5842041f4e65fad6a7708817,2024_02_17,34.03096101876324,-118.68109,Malibu Third Point,2,0.26545454545454544,0.5709090909090909,15,15,"MOSTLY_CLEAR,MOSTLY_CLOUDY,CLEAR,NIGHT_CLEAR,NIGHT_CLEAR,NIGHT_CLEAR,NIGHT_CLEAR,NIGHT_CLEAR,NIGHT_CLEAR,NIGHT_CLEAR,NIGHT_MOSTLY_CLOUDY","Cross-shore,Offshore,Offshore,Offshore,Offshore,Offshore,Cross-shore,Cross-shore,Cross-shore,Cross-shore,Cross-shore",11
5842041f4e65fad6a7708819,2024_02_17,33.984079047970035,-118.47381591796875,Venice Beach,2.3636363636363638,0.6531090909090909,1.0100545454545455,14,14,"BRIEF_SHOWERS_POSSIBLE,MIST,MIST,NIGHT_CLEAR,NIGHT_CLEAR,NIGHT_MIST,NIGHT_MIST,NIGHT_MIST,NIGHT_BRIEF_SHOWERS,NIGHT_BRIEF_SHOWERS,NIGHT_DRIZZLE","Onshore,Onshore,Onshore,Onshore,Onshore,Onshore,Onshore,Onshore,Onshore,Onshore,Onshore",11
5842041f4e65fad6a770881e,2024_02_17,34.037508438646746,-118.58339846155594,Topanga Beach,2,0.2705818181818182,0.5761636363636363,15,15,"MOSTLY_CLEAR,MOSTLY_CLOUDY,CLEAR,NIGHT_MIST,NIGHT_CLEAR,NIGHT_CLEAR,NIGHT_CLEAR,NIGHT_MIST,NIGHT_CLEAR,NIGHT_CLEAR,NIGHT_MOSTLY_CLOUDY","Onshore,Onshore,Onshore,Onshore,Offshore,Offshore,Offshore,Offshore,Offshore,Offshore,Offshore",11
5842041f4e65fad6a7708820,2024_02_17,33.73954373690184,-118.11414,Seal Beach Jetty,1.9090909090909092,0.2409090909090909,0.5454545454545454,15,15,"CLEAR,CLEAR,CLEAR,NIGHT_CLEAR,NIGHT_MOSTLY_CLOUDY,NIGHT_CLOUDY,NIGHT_OVERCAST,NIGHT_MIST,NIGHT_MIST,NIGHT_OVERCAST,NIGHT_OVERCAST","Onshore,Onshore,Onshore,Onshore,Onshore,Cross-shore,Cross-shore,Cross-shore,Cross-shore,Offshore,Offshore",11
5842041f4e65fad6a7708822,2024_02_17,33.72309983348433,-118.08078,Anderson Street,1.6363636363636365,0.25545454545454543,0.5609090909090909,15,15,"MOSTLY_CLEAR,MOSTLY_CLEAR,CLEAR,NIGHT_CLEAR,NIGHT_MOSTLY_CLOUDY,NIGHT_MOSTLY_CLOUDY,NIGHT_OVERCAST,NIGHT_OVERCAST,NIGHT_OVERCAST,NIGHT_OVERCAST,NIGHT_OVERCAST","Onshore,Onshore,Onshore,Onshore,Onshore,Cross-shore,Cross-shore,Cross-shore,Offshore,Offshore,Offshore",11
5842041f4e65fad6a7708827,2024_02_17,33.65574085629463,-118.00397,Huntington Beach Pier Northside,2.4545454545454546,0.7790303030303031,1.0954393939393938,14,14,"MOSTLY_CLOUDY,MOSTLY_CLOUDY,MOSTLY_CLEAR,NIGHT_MOSTLY_CLOUDY,NIGHT_MOSTLY_CLOUDY,NIGHT_MOSTLY_CLOUDY,NIGHT_MOSTLY_CLOUDY,NIGHT_OVERCAST,NIGHT_OVERCAST,NIGHT_OVERCAST,NIGHT_OVERCAST","Onshore,Onshore,Onshore,Onshore,Onshore,Onshore,Onshore,Cross-shore,Cross-shore,Cross-shore,Cross-shore",11
5842041f4e65fad6a7708828,2024_02_17,34.272041739333,-119.2997646331,C St.,3,0.6344727272727273,0.9646000000000001,14,14,"CLEAR,CLOUDY,MOSTLY_CLOUDY,NIGHT_MOSTLY_CLOUDY,NIGHT_MIST,NIGHT_CLEAR,NIGHT_MOSTLY_CLOUDY,NIGHT_MOSTLY_CLOUDY,NIGHT_MOSTLY_CLOUDY,NIGHT_MIST,NIGHT_MIST","Onshore,Offshore,Onshore,Cross-shore,Cross-shore,Cross-shore,Cross-shore,Offshore,Cross-shore,Cross-shore,Cross-shore",11
5842041f4e65fad6a770882a,2024_02_17,33.61555743705257,-117.93676,Newport Lower Jetties,2.272727272727273,0.42309090909090913,0.788060606060606,15,15,"MOSTLY_CLOUDY,MOSTLY_CLOUDY,MOSTLY_CLOUDY,NIGHT_MOSTLY_CLOUDY,NIGHT_MOSTLY_CLOUDY,NIGHT_MIST,NIGHT_MOSTLY_CLOUDY,NIGHT_MIST,NIGHT_OVERCAST,NIGHT_OVERCAST,NIGHT_OVERCAST","Onshore,Onshore,Onshore,Cross-shore,Cross-shore,Cross-shore,Cross-shore,Offshore,Offshore,Offshore,Cross-shore",11
5842041f4e65fad6a770882b,2024_02_17,33.5930302087,-117.88199,The Wedge,2,0.3945809090909091,0.8243254545454546,15,15,"MOSTLY_CLOUDY,MOSTLY_CLEAR,MOSTLY_CLOUDY,NIGHT_BRIEF_SHOWERS,NIGHT_MIST,NIGHT_MIST,NIGHT_MIST,NIGHT_MIST,NIGHT_MIST,NIGHT_MIST,NIGHT_MIST","Onshore,Onshore,Onshore,Cross-shore,Cross-shore,Cross-shore,Cross-shore,Offshore,Offshore,Offshore,Offshore",11
5842041f4e65fad6a770882c,2024_02_17,33.60577342582,-117.9315376281,Newport Beach Pier,2,0.4077878787878788,0.7101666666666666,15,15,"CLEAR,CLEAR,MIST,NIGHT_MIST,NIGHT_MOSTLY_CLOUDY,NIGHT_MIST,NIGHT_MOSTLY_CLOUDY,NIGHT_MIST,NIGHT_MIST,NIGHT_CLOUDY,NIGHT_CLOUDY","Cross-shore,Cross-shore,Cross-shore,Cross-shore,Cross-shore,Cross-shore,Cross-shore,Cross-shore,Cross-shore,Cross-shore,Cross-shore",11
5842041f4e65fad6a770882e,2024_02_17,33.475793399792984,-117.72291,Salt Creek,3,0.7455909090909091,1.0378333333333332,14,14,"CLEAR,CLEAR,CLEAR,NIGHT_CLEAR,NIGHT_CLEAR,NIGHT_DRIZZLE,NIGHT_MIST,NIGHT_MIST,NIGHT_MIST,NIGHT_MIST,NIGHT_MIST","Onshore,Onshore,Onshore,Onshore,Onshore,Onshore,Onshore,Onshore,Onshore,Onshore,Onshore",11
5842041f4e65fad6a7708830,2024_02_17,33.41800974113613,-117.61952,T-Street,2,0.6177878787878788,0.9753333333333333,14,14,"MOSTLY_CLOUDY,CLEAR,CLEAR,NIGHT_BRIEF_SHOWERS,NIGHT_MIST,NIGHT_MIST,NIGHT_MIST,NIGHT_MIST,NIGHT_MIST,NIGHT_OVERCAST,NIGHT_MIST","Cross-shore,Cross-shore,Cross-shore,Cross-shore,Cross-shore,Cross-shore,Cross-shore,Cross-shore,Cross-shore,Cross-shore,Cross-shore",11
5842041f4e65fad6a7708832,2024_02_17,33.202391008646,-117.39475,Oceanside Harbor,2.5454545454545454,0.6050151515151515,1.0716666666666668,15,15,"CLEAR,MOSTLY_CLOUDY,MOSTLY_CLOUDY,NIGHT_MOSTLY_CLOUDY,NIGHT_CLOUDY,NIGHT_CLOUDY,NIGHT_MIST,NIGHT_MIST,NIGHT_MIST,NIGHT_MIST,NIGHT_MIST","Onshore,Onshore,Onshore,Onshore,Onshore,Onshore,Onshore,Onshore,Onshore,Cross-shore,Cross-shore",11
5842041f4e65fad6a7708835,2024_02_17,33.19477795952803,-117.38667,Oceanside Pier,2.6363636363636362,0.5598636363636363,0.9826363636363635,15,15,"CLEAR,MOSTLY_CLOUDY,MOSTLY_CLOUDY,NIGHT_MOSTLY_CLOUDY,NIGHT_MIST,NIGHT_OVERCAST,NIGHT_MIST,NIGHT_OVERCAST,NIGHT_MIST,NIGHT_OVERCAST,NIGHT_OVERCAST","Onshore,Onshore,Onshore,Onshore,Onshore,Onshore,Onshore,Onshore,Onshore,Cross-shore,Cross-shore",11
5842041f4e65fad6a7708837,2024_02_17,33.14948100706,-117.35029,Tamarack,2.6363636363636362,0.4081818181818182,0.7118181818181818,15,15,"CLEAR,CLEAR,CLOUDY,NIGHT_OVERCAST,NIGHT_MIST,NIGHT_MIST,NIGHT_MIST,NIGHT_MIST,NIGHT_MIST,NIGHT_MIST,NIGHT_MIST","Onshore,Onshore,Onshore,Cross-shore,Onshore,Onshore,Onshore,Cross-shore,Cross-shore,Cross-shore,Cross-shore",11
5842041f4e65fad6a7708839,2024_02_17,32.865777159358856,-117.25614295356122,Scripps,2.7427272727272727,0.8780909090909091,1.1295000000000002,14,14,"MIST,MIST,OVERCAST,NIGHT_OVERCAST,NIGHT_MIST,NIGHT_MIST,NIGHT_MIST,NIGHT_MIST,NIGHT_MIST,NIGHT_MIST,NIGHT_MIST","Onshore,Onshore,Onshore,Onshore,Onshore,Onshore,Onshore,Onshore,Onshore,Onshore,Onshore",11
5842041f4e65fad6a770883a,2024_02_17,32.813094,-117.27381,Birdrock,3,1.0709090909090908,1.3009090909090908,15,15,"MOSTLY_CLOUDY,MOSTLY_CLOUDY,MIST,NIGHT_MIST,NIGHT_OVERCAST,NIGHT_MIST,NIGHT_OVERCAST,NIGHT_MIST,NIGHT_MIST,NIGHT_MIST,NIGHT_MIST","Cross-shore,Cross-shore,Cross-shore,Cross-shore,Cross-shore,Cross-shore,Onshore,Onshore,Onshore,Offshore,Offshore",11
5842041f4e65fad6a770883b,2024_02_17,32.877231,-117.25303,Blacks,3.1063636363636364,1.122,1.5005,14,14,"MIST,MIST,OVERCAST,NIGHT_OVERCAST,NIGHT_MIST,NIGHT_MIST,NIGHT_MIST,NIGHT_MIST,NIGHT_MIST,NIGHT_MIST,NIGHT_MIST","Onshore,Onshore,Onshore,Onshore,Onshore,Onshore,Onshore,Onshore,Onshore,Onshore,Onshore",11
5842041f4e65fad6a770883c,2024_02_17,32.82978974229765,-117.28161740727381,Windansea,3,1.0246818181818182,1.330090909090909,14,14,"MOSTLY_CLOUDY,MIST,MIST,NIGHT_MIST,NIGHT_MIST,NIGHT_MIST,NIGHT_MIST,NIGHT_MIST,NIGHT_MIST,NIGHT_MIST,NIGHT_MIST","Onshore,Onshore,Onshore,Onshore,Onshore,Cross-shore,Cross-shore,Cross-shore,Cross-shore,Cross-shore,Cross-shore",11
5842041f4e65fad6a770883d,2024_02_17,32.838278,-117.28396,Horseshoe,3,1.18,1.4318181818181819,15,15,"MOSTLY_CLOUDY,MIST,MIST,NIGHT_MIST,NIGHT_MIST,NIGHT_MIST,NIGHT_MIST,NIGHT_MIST,NIGHT_MIST,NIGHT_MIST,NIGHT_MIST","Onshore,Onshore,Onshore,Onshore,Cross-shore,Onshore,Onshore,Onshore,Onshore,Offshore,Onshore",11
5842041f4e65fad6a770883f,2024_02_17,32.75034717673179,-117.25337,Ocean Beach,2.97,1.1735909090909091,1.4493181818181817,14,14,"MOSTLY_CLOUDY,MOSTLY_CLOUDY,OVERCAST,NIGHT_MIST,NIGHT_MIST,NIGHT_MIST,NIGHT_MIST,NIGHT_CLOUDY,NIGHT_CLOUDY,NIGHT_MIST,NIGHT_MIST","Onshore,Onshore,Onshore,Onshore,Cross-shore,Cross-shore,Cross-shore,Cross-shore,Cross-shore,Onshore,Cross-shore",11
5842041f4e65fad6a7708840,2024_02_17,32.73693,-117.25718,Sunset Cliffs,3,1.1009090909090908,1.3218181818181818,15,15,"MOSTLY_CLOUDY,MOSTLY_CLOUDY,MIST,NIGHT_MIST,NIGHT_MIST,NIGHT_MIST,NIGHT_MIST,NIGHT_MIST,NIGHT_MIST,NIGHT_MIST,NIGHT_MIST","Onshore,Onshore,Onshore,Onshore,Cross-shore,Cross-shore,Cross-shore,Cross-shore,Cross-shore,Onshore,Cross-shore",11
5842041f4e65fad6a7708841,2024_02_17,32.796582258728826,-117.25779,Pacific Beach,3,0.9435454545454546,1.2516818181818181,14,14,"MOSTLY_CLOUDY,MOSTLY_CLOUDY,MIST,NIGHT_MIST,NIGHT_MIST,NIGHT_MIST,NIGHT_OVERCAST,NIGHT_OVERCAST,NIGHT_OVERCAST,NIGHT_MIST,NIGHT_MIST","Cross-shore,Cross-shore,Cross-shore,Cross-shore,Cross-shore,Onshore,Onshore,Onshore,Onshore,Offshore,Cross-shore",11
5842041f4e65fad6a7708842,2024_02_17,32.776636,-117.25514,Mission Beach,3,0.9730909090909091,1.2848636363636363,14,14,"MOSTLY_CLOUDY,MOSTLY_CLOUDY,MIST,NIGHT_MIST,NIGHT_MIST,NIGHT_MIST,NIGHT_OVERCAST,NIGHT_OVERCAST,NIGHT_OVERCAST,NIGHT_MIST,NIGHT_MIST","Onshore,Onshore,Onshore,Onshore,Cross-shore,Onshore,Onshore,Onshore,Onshore,Cross-shore,Onshore",11
5842041f4e65fad6a7708844,2024_02_17,32.577195519016,-117.13475,Imperial Beach Pier,2.727272727272727,1.1381818181818182,1.3790909090909091,15,15,"MOSTLY_CLOUDY,MOSTLY_CLOUDY,OVERCAST,NIGHT_OVERCAST,NIGHT_MIST,NIGHT_MIST,NIGHT_MIST,NIGHT_MIST,NIGHT_MIST,NIGHT_MIST,NIGHT_MIST","Onshore,Onshore,Onshore,Onshore,Onshore,Onshore,Cross-shore,Cross-shore,Onshore,Onshore,Onshore",11
5842041f4e65fad6a770884a,2024_02_17,42.88678181061,-70.80843,Seabrook,0.9845454545454545,0.10256333333333334,0.2249078787878788,4,3,"NIGHT_CLEAR,NIGHT_CLEAR,NIGHT_CLEAR,NIGHT_CLEAR,NIGHT_CLEAR,NIGHT_CLEAR,NIGHT_CLEAR,NIGHT_CLEAR,NIGHT_CLEAR,NIGHT_CLEAR,NIGHT_CLEAR","Offshore,Offshore,Offshore,Offshore,Offshore,Offshore,Offshore,Offshore,Offshore,Offshore,Offshore",11
5842041f4e65fad6a770884e,2024_02_17,41.434181432898335,-71.45312118111178,Narragansett,1,0,0.26954242424242425,5,4,"NIGHT_CLEAR,NIGHT_CLEAR,NIGHT_CLEAR,NIGHT_CLEAR,NIGHT_CLEAR,NIGHT_CLEAR,NIGHT_CLEAR,NIGHT_CLEAR,NIGHT_CLEAR,NIGHT_CLEAR,NIGHT_CLEAR","Offshore,Offshore,Offshore,Offshore,Offshore,Offshore,Offshore,Offshore,Offshore,Offshore,Cross-shore",11
5842041f4e65fad6a7708850,2024_02_17,40.582703230722,-73.65247,Lincoln Blvd,1,-0.022727272727272717,0.2787848484848485,5,4,"NIGHT_CLEAR,NIGHT_CLEAR,NIGHT_CLEAR,NIGHT_CLEAR,NIGHT_CLEAR,NIGHT_CLEAR,NIGHT_CLEAR,NIGHT_CLEAR,NIGHT_BRIEF_SNOW_SHOWERS,NIGHT_BRIEF_SNOW_SHOWERS,NIGHT_BRIEF_SNOW_SHOWERS","Onshore,Onshore,Offshore,Offshore,Offshore,Offshore,Offshore,Onshore,Offshore,Offshore,Offshore",11
5842041f4e65fad6a7708852,2024_02_17,40.58342841721757,-73.81182,Rockaways,0.6663636363636364,-0.03090909090909091,0.26370909090909095,5,4,"NIGHT_CLEAR,NIGHT_CLEAR,NIGHT_CLEAR,NIGHT_CLEAR,NIGHT_CLEAR,NIGHT_CLEAR,NIGHT_CLEAR,NIGHT_CLEAR,NIGHT_BRIEF_SNOW_SHOWERS,NIGHT_BRIEF_SNOW_SHOWERS,NIGHT_BRIEF_SNOW_SHOWERS","Offshore,Offshore,Offshore,Offshore,Offshore,Offshore,Offshore,Cross-shore,Offshore,Offshore,Cross-shore",11
5842041f4e65fad6a7708853,2024_02_17,40.330474,-73.9734,Monmouth Beach,0.8181818181818182,-0.03803030303030303,0.20444848484848482,6,5,"NIGHT_CLEAR,NIGHT_CLEAR,NIGHT_CLEAR,NIGHT_CLEAR,NIGHT_CLEAR,NIGHT_CLEAR,NIGHT_CLEAR,NIGHT_CLEAR,NIGHT_SNOW,NIGHT_BRIEF_SNOW_SHOWERS,NIGHT_BRIEF_SNOW_SHOWERS","Offshore,Offshore,Offshore,Offshore,Cross-shore,Onshore,Onshore,Onshore,Onshore,Onshore,Onshore",11
5842041f4e65fad6a7708856,2024_02_17,40.113,-74.028,Manasquan Inlet,1,0,0.23189090909090912,6,5,"NIGHT_CLEAR,NIGHT_CLEAR,NIGHT_CLEAR,NIGHT_CLEAR,NIGHT_CLEAR,NIGHT_CLEAR,NIGHT_CLEAR,NIGHT_CLOUDY,NIGHT_OVERCAST,NIGHT_CLEAR,NIGHT_BRIEF_SNOW_FLURRIES","Offshore,Offshore,Offshore,Offshore,Offshore,Onshore,Onshore,Onshore,Onshore,Onshore,Onshore",11
5842041f4e65fad6a7708857,2024_02_17,39.941519877445664,-74.06829,Casino Pier,0.3936363636363636,-0.009848484848484848,0.23295151515151516,6,5,"NIGHT_CLEAR,NIGHT_CLEAR,NIGHT_CLEAR,NIGHT_CLEAR,NIGHT_CLEAR,NIGHT_CLEAR,NIGHT_OVERCAST,NIGHT_CLEAR,NIGHT_OVERCAST,NIGHT_CLEAR,NIGHT_BRIEF_SNOW_FLURRIES","Offshore,Offshore,Offshore,Offshore,Offshore,Onshore,Onshore,Onshore,Cross-shore,Onshore,Onshore",11
5842041f4e65fad6a7708858,2024_02_17,39.28223089949212,-74.55766,North End OC,0.6663636363636364,0.03159090909090909,0.30901212121212124,6,5,"NIGHT_CLEAR,NIGHT_CLEAR,NIGHT_CLEAR,NIGHT_CLEAR,NIGHT_CLEAR,NIGHT_CLEAR,NIGHT_CLEAR,NIGHT_CLOUDY,NIGHT_OVERCAST,NIGHT_SNOW,NIGHT_HEAVY_SNOW","Offshore,Offshore,Offshore,Offshore,Onshore,Onshore,Onshore,Onshore,Onshore,Onshore,Cross-shore",11
5842041f4e65fad6a770885b,2024_02_17,39.65080599934257,-74.17146,Ship Bottom,1,-0.013863636363636364,0.2462090909090909,6,5,"NIGHT_CLEAR,NIGHT_CLEAR,NIGHT_CLEAR,NIGHT_CLEAR,NIGHT_CLEAR,NIGHT_CLEAR,NIGHT_CLEAR,NIGHT_CLEAR,NIGHT_OVERCAST,NIGHT_CLEAR,NIGHT_BRIEF_SNOW_SHOWERS","Offshore,Offshore,Offshore,Offshore,Offshore,Onshore,Onshore,Onshore,Onshore,Onshore,Onshore",11
5842041f4e65fad6a7708863,2024_02_17,36.034151543144,-75.66791,Third Street,1,0.25303030303030305,0.5573818181818182,7,6,"NIGHT_CLEAR,NIGHT_OVERCAST,NIGHT_CLEAR,NIGHT_CLEAR,NIGHT_CLEAR,NIGHT_CLEAR,NIGHT_CLEAR,NIGHT_CLEAR,NIGHT_CLOUDY,NIGHT_CLEAR,NIGHT_CLEAR","Onshore,Onshore,Onshore,Onshore,Cross-shore,Cross-shore,Cross-shore,Cross-shore,Cross-shore,Cross-shore,Offshore",11
5842041f4e65fad6a7708867,2024_02_17,35.605833221351425,-75.46303,S-Turns,1,0.31495757575757577,0.622339393939394,9,8,"NIGHT_CLEAR,NIGHT_CLOUDY,NIGHT_CLOUDY,NIGHT_CLEAR,NIGHT_CLEAR,NIGHT_CLEAR,NIGHT_CLEAR,NIGHT_CLEAR,NIGHT_CLEAR,NIGHT_CLEAR,NIGHT_CLEAR","Onshore,Onshore,Onshore,Onshore,Onshore,Onshore,Onshore,Onshore,Cross-shore,Cross-shore,Cross-shore",11
5842041f4e65fad6a770886d,2024_02_17,38.338461,-75.08117,Ocean City Boardwalk,0.22727272727272727,-0.1852272727272727,0.09048181818181822,7,5,"NIGHT_CLEAR,NIGHT_CLEAR,NIGHT_CLEAR,NIGHT_CLEAR,NIGHT_CLEAR,NIGHT_MOSTLY_CLOUDY,NIGHT_CLEAR,NIGHT_OVERCAST,NIGHT_OVERCAST,NIGHT_OVERCAST,NIGHT_OVERCAST","Offshore,Offshore,Onshore,Onshore,Onshore,Onshore,Onshore,Onshore,Onshore,Onshore,Onshore",11
5842041f4e65fad6a770886f,2024_02_17,29.844757212379562,-81.26136,A St.,1,0.0027272727272727275,0.28545454545454546,16,16,"MIST,NIGHT_OVERCAST,NIGHT_CLEAR,NIGHT_CLEAR,NIGHT_CLEAR,NIGHT_CLEAR,NIGHT_CLEAR,NIGHT_CLOUDY,NIGHT_CLEAR,NIGHT_CLEAR,NIGHT_MOSTLY_CLOUDY","Onshore,Onshore,Cross-shore,Offshore,Offshore,Offshore,Offshore,Offshore,Offshore,Offshore,Offshore",11
5842041f4e65fad6a7708871,2024_02_17,29.069417851135093,-80.90824,New Smyrna Beach,2,0.7776272727272727,1.1709484848484848,17,16,"OVERCAST,NIGHT_OVERCAST,NIGHT_MOSTLY_CLOUDY,NIGHT_CLEAR,NIGHT_CLEAR,NIGHT_CLEAR,NIGHT_CLEAR,NIGHT_CLEAR,NIGHT_CLEAR,NIGHT_CLEAR,NIGHT_CLEAR","Offshore,Offshore,Offshore,Offshore,Offshore,Offshore,Offshore,Offshore,Offshore,Offshore,Offshore",11
5842041f4e65fad6a7708872,2024_02_17,28.367707417566,-80.60171,Cocoa Beach Pier,1.4090909090909092,0.17022424242424244,0.47552424242424246,18,17,"CLEAR,NIGHT_CLEAR,NIGHT_CLEAR,NIGHT_CLEAR,NIGHT_CLEAR,NIGHT_CLEAR,NIGHT_CLEAR,NIGHT_CLEAR,NIGHT_CLEAR,NIGHT_CLEAR,NIGHT_CLEAR","Onshore,Cross-shore,Cross-shore,Cross-shore,Cross-shore,Offshore,Offshore,Offshore,Offshore,Offshore,Offshore",11
5842041f4e65fad6a7708873,2024_02_17,28.091782738658846,-80.56479,Indialantic,1.9090909090909092,0.2580727272727273,0.6073090909090909,19,18,"CLEAR,NIGHT_MOSTLY_CLOUDY,NIGHT_OVERCAST,NIGHT_CLEAR,NIGHT_CLEAR,NIGHT_CLEAR,NIGHT_CLEAR,NIGHT_CLOUDY,NIGHT_CLEAR,NIGHT_CLEAR,NIGHT_CLEAR","Onshore,Onshore,Onshore,Cross-shore,Offshore,Offshore,Offshore,Offshore,Offshore,Offshore,Offshore",11
5842041f4e65fad6a7708876,2024_02_17,27.25392904143517,-80.19455,Jensen Beach,1.8481818181818181,0.3189818181818182,0.667309090909091,22,20,"MOSTLY_CLEAR,NIGHT_CLEAR,NIGHT_CLEAR,NIGHT_OVERCAST,NIGHT_CLEAR,NIGHT_CLEAR,NIGHT_CLEAR,NIGHT_CLEAR,NIGHT_CLEAR,NIGHT_CLEAR,NIGHT_CLEAR","Onshore,Cross-shore,Cross-shore,Cross-shore,Offshore,Offshore,Offshore,Offshore,Offshore,Offshore,Offshore",11
5842041f4e65fad6a7708879,2024_02_17,26.76346795333825,-80.0360655784607,Reef Road,1.6363636363636365,0.3113090909090909,0.6144363636363637,23,22,"CLEAR,NIGHT_CLEAR,NIGHT_CLEAR,NIGHT_CLEAR,NIGHT_CLEAR,NIGHT_CLEAR,NIGHT_CLEAR,NIGHT_CLEAR,NIGHT_CLEAR,NIGHT_CLEAR,NIGHT_CLEAR","Cross-shore,Cross-shore,Cross-shore,Cross-shore,Cross-shore,Offshore,Offshore,Offshore,Offshore,Offshore,Offshore",11
5842041f4e65fad6a770887c,2024_02_17,26.336499228484,-80.06956100463,Boca Raton Inlet,0.9390909090909091,0.02636363636363636,0.3331272727272727,24,22,"CLEAR,NIGHT_CLEAR,NIGHT_CLEAR,NIGHT_CLEAR,NIGHT_CLEAR,NIGHT_CLEAR,NIGHT_OVERCAST,NIGHT_CLEAR,NIGHT_CLEAR,NIGHT_CLEAR,NIGHT_CLEAR","Onshore,Onshore,Cross-shore,Cross-shore,Cross-shore,Cross-shore,Cross-shore,Cross-shore,Offshore,Offshore,Offshore",11
5842041f4e65fad6a770887d,2024_02_17,26.31719311695038,-80.07452525176168,Deerfield Beach Pier,0,0.0034328030303030273,0.15453189393939393,24,23,"CLEAR,NIGHT_CLEAR,NIGHT_CLEAR,NIGHT_CLEAR,NIGHT_CLEAR,NIGHT_CLEAR,NIGHT_CLOUDY,NIGHT_CLEAR,NIGHT_CLEAR,NIGHT_CLEAR,NIGHT_CLEAR","Onshore,Onshore,Cross-shore,Cross-shore,Cross-shore,Cross-shore,Cross-shore,Offshore,Offshore,Offshore,Offshore",11
5842041f4e65fad6a7708881,2024_02_17,30.20276320866628,-85.85626528676136,"Spyglass Dr., Panama City",0,0,0.04732727272727273,16,15,"CLEAR,NIGHT_CLEAR,NIGHT_LIGHT_RAIN,NIGHT_BRIEF_SHOWERS_POSSIBLE,NIGHT_OVERCAST,NIGHT_CLEAR,NIGHT_CLEAR,NIGHT_CLOUDY,NIGHT_LIGHT_SHOWERS_POSSIBLE,NIGHT_OVERCAST,NIGHT_LIGHT_RAIN","Cross-shore,Offshore,Offshore,Cross-shore,Onshore,Onshore,Onshore,Onshore,Onshore,Onshore,Onshore",11
5842041f4e65fad6a7708884,2024_02_17,33.39000832738053,-117.59852,Cottons,3,0.7494090909090909,1.0561060606060606,14,14,"MOSTLY_CLOUDY,MOSTLY_CLEAR,MOSTLY_CLEAR,NIGHT_MOSTLY_CLOUDY,NIGHT_MOSTLY_CLOUDY,NIGHT_MIST,NIGHT_MIST,NIGHT_MIST,NIGHT_MIST,NIGHT_MIST,NIGHT_MIST","Onshore,Onshore,Onshore,Onshore,Onshore,Offshore,Cross-shore,Cross-shore,Offshore,Cross-shore,Cross-shore",11
5842041f4e65fad6a7708885,2024_02_17,33.359416282661,-117.54167901405711,Trails,2.727272727272727,0.5590909090909091,0.8636363636363636,15,15,"MOSTLY_CLOUDY,MOSTLY_CLEAR,MOSTLY_CLOUDY,NIGHT_MOSTLY_CLOUDY,NIGHT_MOSTLY_CLOUDY,NIGHT_MIST,NIGHT_MIST,NIGHT_MIST,NIGHT_MIST,NIGHT_MIST,NIGHT_MIST","Onshore,Onshore,Onshore,Onshore,Cross-shore,Onshore,Offshore,Offshore,Offshore,Offshore,Offshore",11
5842041f4e65fad6a7708886,2024_02_17,33.38042605929805,-117.58332,Middles,2.879090909090909,0.5152121212121212,0.8244848484848485,14,14,"MOSTLY_CLOUDY,MOSTLY_CLEAR,MOSTLY_CLEAR,NIGHT_MOSTLY_CLOUDY,NIGHT_MIST,NIGHT_MIST,NIGHT_MIST,NIGHT_MIST,NIGHT_MIST,NIGHT_MIST,NIGHT_MIST","Onshore,Onshore,Onshore,Onshore,Onshore,Offshore,Onshore,Cross-shore,Offshore,Offshore,Offshore",11
5842041f4e65fad6a7708887,2024_02_17,33.38445596302903,-117.59445,Upper Trestles,3,0.8494848484848485,1.1284545454545456,14,14,"MOSTLY_CLOUDY,MOSTLY_CLEAR,MOSTLY_CLEAR,NIGHT_MOSTLY_CLOUDY,NIGHT_MIST,NIGHT_MIST,NIGHT_MIST,NIGHT_MIST,NIGHT_MIST,NIGHT_MIST,NIGHT_MIST","Onshore,Onshore,Onshore,Onshore,Onshore,Offshore,Onshore,Offshore,Offshore,Offshore,Offshore",11
5842041f4e65fad6a7708889,2024_02_17,28.944414,-95.28883,Surfside,1,0.18030000000000002,0.28171636363636365,15,15,"OVERCAST,OVERCAST,NIGHT_FOG,NIGHT_MIST,NIGHT_MIST,NIGHT_MIST,NIGHT_CLOUDY,NIGHT_MIST,NIGHT_MIST,NIGHT_MIST,NIGHT_OVERCAST","Offshore,Offshore,Cross-shore,Onshore,Onshore,Onshore,Offshore,Offshore,Offshore,Offshore,Offshore",11
5842041f4e65fad6a770888a,2024_02_17,33.38143999849023,-117.58843,Lower Trestles,3,0.8511515151515151,1.094969696969697,14,14,"MOSTLY_CLOUDY,MOSTLY_CLEAR,MOSTLY_CLEAR,NIGHT_MOSTLY_CLOUDY,NIGHT_MIST,NIGHT_MIST,NIGHT_MIST,NIGHT_MIST,NIGHT_MIST,NIGHT_MIST,NIGHT_MIST","Onshore,Onshore,Onshore,Onshore,Onshore,Offshore,Onshore,Offshore,Offshore,Offshore,Offshore",11
5842041f4e65fad6a770888b,2024_02_17,33.379622288757,-117.57894,Church,2.94,0.5636212121212122,0.898348484848485,14,14,"MOSTLY_CLOUDY,MOSTLY_CLEAR,MOSTLY_CLEAR,NIGHT_MOSTLY_CLOUDY,NIGHT_MOSTLY_CLOUDY,NIGHT_MIST,NIGHT_MIST,NIGHT_MIST,NIGHT_MIST,NIGHT_MIST,NIGHT_MIST","Onshore,Onshore,Onshore,Onshore,Onshore,Cross-shore,Onshore,Offshore,Offshore,Cross-shore,Cross-shore",11
5842041f4e65fad6a770888d,2024_02_17,21.679,-158.042,Sunset Beach,2.3636363636363638,4.73430303030303,5.708181818181818,26,25,"MOSTLY_CLEAR,CLEAR,MOSTLY_CLEAR,MOSTLY_CLOUDY,MOSTLY_CLEAR,MOSTLY_CLOUDY,NIGHT_MOSTLY_CLOUDY,NIGHT_MOSTLY_CLEAR,NIGHT_MOSTLY_CLEAR,NIGHT_MOSTLY_CLOUDY,NIGHT_CLEAR","Cross-shore,Cross-shore,Cross-shore,Cross-shore,Cross-shore,Cross-shore,Offshore,Offshore,Cross-shore,Cross-shore,Cross-shore",11
5842041f4e65fad6a770888e,2024_02_17,21.670550036401,-158.0482,Rocky Point,2.348181818181818,4.488848484848485,5.4381818181818184,26,25,"MOSTLY_CLEAR,MOSTLY_CLEAR,MOSTLY_CLEAR,MOSTLY_CLEAR,MOSTLY_CLEAR,MOSTLY_CLOUDY,NIGHT_MOSTLY_CLOUDY,NIGHT_CLEAR,NIGHT_CLEAR,NIGHT_MOSTLY_CLOUDY,NIGHT_CLEAR","Onshore,Cross-shore,Cross-shore,Cross-shore,Cross-shore,Cross-shore,Cross-shore,Cross-shore,Cross-shore,Cross-shore,Cross-shore",11
5842041f4e65fad6a770888f,2024_02_17,21.668,-158.05,Chambers,2,4.206363636363636,5.027272727272727,24,24,"MOSTLY_CLEAR,MOSTLY_CLEAR,MOSTLY_CLEAR,MOSTLY_CLEAR,MOSTLY_CLEAR,MOSTLY_CLOUDY,NIGHT_MOSTLY_CLOUDY,NIGHT_CLEAR,NIGHT_CLEAR,NIGHT_MOSTLY_CLOUDY,NIGHT_CLEAR","Onshore,Onshore,Cross-shore,Onshore,Cross-shore,Cross-shore,Cross-shore,Cross-shore,Cross-shore,Cross-shore,Cross-shore",11
5842041f4e65fad6a7708890,2024_02_17,21.66522,-158.0526,Pipeline,2.6063636363636364,4.238545454545455,5.135454545454546,26,25,"MOSTLY_CLEAR,MOSTLY_CLEAR,MOSTLY_CLEAR,MOSTLY_CLEAR,MOSTLY_CLEAR,MOSTLY_CLOUDY,NIGHT_MOSTLY_CLOUDY,NIGHT_CLEAR,NIGHT_CLEAR,NIGHT_MOSTLY_CLOUDY,NIGHT_CLEAR","Onshore,Cross-shore,Cross-shore,Cross-shore,Cross-shore,Cross-shore,Cross-shore,Cross-shore,Cross-shore,Cross-shore,Cross-shore",11
5842041f4e65fad6a7708891,2024_02_17,21.665,-158.054,Backdoor,2.348181818181818,4.227636363636364,5.122727272727273,26,25,"MOSTLY_CLEAR,MOSTLY_CLEAR,MOSTLY_CLEAR,MOSTLY_CLEAR,CLEAR,MOSTLY_CLOUDY,NIGHT_MOSTLY_CLOUDY,NIGHT_CLEAR,NIGHT_CLEAR,NIGHT_MOSTLY_CLOUDY,NIGHT_CLEAR","Onshore,Cross-shore,Cross-shore,Cross-shore,Cross-shore,Cross-shore,Cross-shore,Cross-shore,Cross-shore,Cross-shore,Cross-shore",11
5842041f4e65fad6a7708892,2024_02_17,21.662,-158.057,Rockpile,1.9090909090909092,4.672727272727273,5.584545454545455,24,24,"MOSTLY_CLEAR,MOSTLY_CLEAR,MOSTLY_CLEAR,MOSTLY_CLEAR,MOSTLY_CLEAR,MOSTLY_CLOUDY,NIGHT_MOSTLY_CLOUDY,NIGHT_CLEAR,NIGHT_CLEAR,NIGHT_MOSTLY_CLOUDY,NIGHT_CLEAR","Onshore,Onshore,Cross-shore,Cross-shore,Cross-shore,Cross-shore,Cross-shore,Cross-shore,Cross-shore,Cross-shore,Cross-shore",11
5842041f4e65fad6a7708893,2024_02_17,21.65870453806827,-158.06058,Log Cabins,2.4545454545454546,3.6827272727272726,4.400909090909091,24,24,"MOSTLY_CLEAR,MOSTLY_CLEAR,MOSTLY_CLEAR,MOSTLY_CLEAR,CLEAR,MOSTLY_CLOUDY,NIGHT_MOSTLY_CLOUDY,NIGHT_CLEAR,NIGHT_CLEAR,NIGHT_MOSTLY_CLOUDY,NIGHT_CLEAR","Onshore,Cross-shore,Cross-shore,Cross-shore,Cross-shore,Cross-shore,Cross-shore,Offshore,Cross-shore,Cross-shore,Cross-shore",11
5842041f4e65fad6a7708894,2024_02_17,21.66203493640557,-158.05495,Off-The-Wall,2,4.737272727272727,5.653636363636363,24,24,"MOSTLY_CLEAR,MOSTLY_CLEAR,MOSTLY_CLEAR,MOSTLY_CLEAR,MOSTLY_CLEAR,MOSTLY_CLOUDY,NIGHT_MOSTLY_CLOUDY,NIGHT_CLEAR,NIGHT_CLEAR,NIGHT_MOSTLY_CLOUDY,NIGHT_CLEAR","Onshore,Cross-shore,Cross-shore,Onshore,Cross-shore,Cross-shore,Cross-shore,Cross-shore,Cross-shore,Cross-shore,Cross-shore",11
5842041f4e65fad6a7708895,2024_02_17,21.643,-158.067,Waimea Bay,NA,4.726272727272727,5.683787878787879,26,25,"MOSTLY_CLEAR,MOSTLY_CLEAR,MOSTLY_CLEAR,MOSTLY_CLEAR,MOSTLY_CLEAR,MOSTLY_CLOUDY,NIGHT_MOSTLY_CLOUDY,NIGHT_CLEAR,NIGHT_CLEAR,NIGHT_MOSTLY_CLOUDY,NIGHT_CLEAR","Cross-shore,Cross-shore,Cross-shore,Cross-shore,Cross-shore,Cross-shore,Offshore,Offshore,Offshore,Cross-shore,Cross-shore",11
5842041f4e65fad6a7708896,2024_02_17,21.622,-158.087,Hultin's,1.9845454545454546,4.832484848484849,5.768030303030303,26,25,"CLEAR,CLEAR,CLEAR,CLEAR,CLEAR,CLEAR,NIGHT_CLEAR,NIGHT_CLEAR,NIGHT_CLEAR,NIGHT_CLEAR,NIGHT_CLEAR","Cross-shore,Cross-shore,Cross-shore,Cross-shore,Cross-shore,Cross-shore,Cross-shore,Cross-shore,Cross-shore,Cross-shore,Cross-shore",11
5842041f4e65fad6a7708897,2024_02_17,21.623,-158.085,Jocko's,1.7272727272727273,3.7936363636363635,4.509090909090909,24,24,"CLEAR,CLEAR,CLEAR,CLEAR,CLEAR,CLEAR,NIGHT_CLEAR,NIGHT_CLEAR,NIGHT_CLEAR,NIGHT_CLEAR,NIGHT_CLEAR","Onshore,Onshore,Onshore,Onshore,Onshore,Onshore,Onshore,Onshore,Onshore,Onshore,Onshore",11
5842041f4e65fad6a7708898,2024_02_17,21.62,-158.088,Laniakea,1.9845454545454546,3.80769696969697,4.556660606060606,26,25,"CLEAR,CLEAR,CLEAR,CLEAR,CLEAR,CLEAR,NIGHT_CLEAR,NIGHT_CLEAR,NIGHT_CLEAR,NIGHT_CLEAR,NIGHT_CLEAR","Cross-shore,Cross-shore,Cross-shore,Cross-shore,Cross-shore,Cross-shore,Cross-shore,Cross-shore,Cross-shore,Cross-shore,Cross-shore",11
5842041f4e65fad6a7708899,2024_02_17,21.625,-158.083,Chun's,2,3.810909090909091,4.553636363636364,24,24,"CLEAR,CLEAR,CLEAR,CLEAR,CLEAR,CLEAR,NIGHT_CLEAR,NIGHT_CLEAR,NIGHT_CLEAR,NIGHT_CLEAR,NIGHT_CLEAR","Cross-shore,Cross-shore,Cross-shore,Cross-shore,Cross-shore,Cross-shore,Cross-shore,Cross-shore,Cross-shore,Cross-shore,Cross-shore",11
5842041f4e65fad6a770889c,2024_02_17,21.286357895152136,-157.8515,South Shore - Ala Moana Park,2,0.46545454545454545,0.7709090909090909,24,24,"CLEAR,CLEAR,CLEAR,LIGHT_SHOWERS_POSSIBLE,CLEAR,BRIEF_SHOWERS_POSSIBLE,NIGHT_CLEAR,NIGHT_SHOWERS,NIGHT_CLEAR,NIGHT_CLEAR,NIGHT_CLEAR","Offshore,Offshore,Offshore,Offshore,Offshore,Offshore,Offshore,Offshore,Offshore,Offshore,Offshore",11
5842041f4e65fad6a770889d,2024_02_17,19.606,-155.978,Banyans,3.6972727272727273,1.9978545454545455,2.4577454545454547,26,25,"CLEAR,CLEAR,CLEAR,CLEAR,CLEAR,CLEAR,NIGHT_CLEAR,NIGHT_CLEAR,NIGHT_CLEAR,NIGHT_CLEAR,NIGHT_CLEAR","Onshore,Onshore,Cross-shore,Onshore,Cross-shore,Cross-shore,Cross-shore,Cross-shore,Cross-shore,Cross-shore,Cross-shore",11
5842041f4e65fad6a770889e,2024_02_17,20.029,-155.831,Kawaihae,3,0.9758472727272728,1.36744,25,25,"MOSTLY_CLEAR,CLEAR,MOSTLY_CLEAR,MOSTLY_CLEAR,MOSTLY_CLEAR,MOSTLY_CLEAR,NIGHT_MOSTLY_CLEAR,NIGHT_CLEAR,NIGHT_CLEAR,NIGHT_CLEAR,NIGHT_CLEAR","Offshore,Offshore,Offshore,Offshore,Offshore,Offshore,Offshore,Offshore,Offshore,Offshore,Offshore",11
5842041f4e65fad6a770889f,2024_02_17,33.07541383424675,-117.3105,Grandview,2.6363636363636362,0.8227272727272728,1.0636363636363637,15,15,"MOSTLY_CLOUDY,CLEAR,CLEAR,NIGHT_CLOUDY,NIGHT_MIST,NIGHT_MIST,NIGHT_MIST,NIGHT_MIST,NIGHT_MIST,NIGHT_MIST,NIGHT_MIST","Onshore,Onshore,Onshore,Onshore,Offshore,Onshore,Onshore,Onshore,Onshore,Cross-shore,Cross-shore",11
5842041f4e65fad6a77088a0,2024_02_17,33.065267421296596,-117.30577,Beacons,2.909090909090909,0.7618181818181818,1.0236363636363637,15,15,"MOSTLY_CLOUDY,CLEAR,CLEAR,NIGHT_CLOUDY,NIGHT_MIST,NIGHT_MIST,NIGHT_MIST,NIGHT_MIST,NIGHT_MIST,NIGHT_MIST,NIGHT_MIST","Onshore,Onshore,Onshore,Onshore,Offshore,Onshore,Onshore,Onshore,Onshore,Cross-shore,Cross-shore",11
5842041f4e65fad6a77088a2,2024_02_17,21.252,-157.805,Diamond Head,3,0.6989651515151515,1.0506160606060606,26,25,"CLEAR,CLEAR,CLEAR,CLEAR,CLEAR,CLEAR,NIGHT_CLEAR,NIGHT_CLEAR,NIGHT_CLEAR,NIGHT_CLEAR,NIGHT_CLEAR","Offshore,Offshore,Offshore,Offshore,Offshore,Offshore,Offshore,Offshore,Offshore,Offshore,Offshore",11
5842041f4e65fad6a77088a3,2024_02_17,33.04694255008896,-117.29966,Moonlight State Beach,2.727272727272727,0.7981818181818182,1.048181818181818,15,15,"MOSTLY_CLOUDY,CLOUDY,CLEAR,NIGHT_CLOUDY,NIGHT_MIST,NIGHT_MIST,NIGHT_MIST,NIGHT_CLOUDY,NIGHT_OVERCAST,NIGHT_MIST,NIGHT_MIST","Onshore,Onshore,Onshore,Onshore,Onshore,Onshore,Onshore,Onshore,Cross-shore,Onshore,Cross-shore",11
5842041f4e65fad6a77088a5,2024_02_17,33.08685865930869,-117.31532,Ponto,2.6363636363636362,1.0427272727272727,1.2863636363636364,15,15,"MOSTLY_CLOUDY,CLEAR,CLEAR,NIGHT_CLOUDY,NIGHT_MIST,NIGHT_MIST,NIGHT_MIST,NIGHT_MIST,NIGHT_MIST,NIGHT_MIST,NIGHT_MIST","Onshore,Onshore,Onshore,Onshore,Onshore,Onshore,Onshore,Onshore,Onshore,Onshore,Cross-shore",11
5842041f4e65fad6a77088a6,2024_02_17,33.130343587871906,-117.33667796442558,Terra Mar Point,3,0.5897121212121212,1.02,15,15,"MOSTLY_CLOUDY,OVERCAST,OVERCAST,NIGHT_OVERCAST,NIGHT_MIST,NIGHT_MIST,NIGHT_MIST,NIGHT_OVERCAST,NIGHT_MIST,NIGHT_MIST,NIGHT_MIST","Onshore,Onshore,Onshore,Cross-shore,Onshore,Onshore,Onshore,Onshore,Onshore,Onshore,Cross-shore",11
5842041f4e65fad6a77088af,2024_02_17,32.95916304183685,-117.26963,Del Mar,3,1.0254545454545454,1.2463636363636363,15,15,"CLOUDY,CLOUDY,CLOUDY,NIGHT_CLOUDY,NIGHT_MIST,NIGHT_MIST,NIGHT_CLOUDY,NIGHT_CLOUDY,NIGHT_CLOUDY,NIGHT_MIST,NIGHT_MIST","Onshore,Onshore,Onshore,Onshore,Cross-shore,Cross-shore,Cross-shore,Onshore,Onshore,Onshore,Onshore",11
5842041f4e65fad6a77088b0,2024_02_17,32.97527261243354,-117.2721061331305,Del Mar Rivermouth,3,1.1009090909090908,1.3263636363636364,15,15,"CLOUDY,CLOUDY,CLOUDY,NIGHT_CLOUDY,NIGHT_MIST,NIGHT_OVERCAST,NIGHT_CLOUDY,NIGHT_OVERCAST,NIGHT_OVERCAST,NIGHT_OVERCAST,NIGHT_OVERCAST","Onshore,Onshore,Onshore,Onshore,Cross-shore,Cross-shore,Cross-shore,Onshore,Onshore,Onshore,Onshore",11
5842041f4e65fad6a77088b1,2024_02_17,33.01352178146273,-117.28219,Cardiff Reef,3,0.8486515151515152,1.1780151515151516,15,15,"CLOUDY,CLOUDY,CLOUDY,NIGHT_CLOUDY,NIGHT_MIST,NIGHT_MIST,NIGHT_MIST,NIGHT_MIST,NIGHT_MIST,NIGHT_MIST,NIGHT_MIST","Onshore,Onshore,Onshore,Cross-shore,Cross-shore,Onshore,Cross-shore,Cross-shore,Cross-shore,Cross-shore,Cross-shore",11
5842041f4e65fad6a77088b3,2024_02_17,33.00211185876003,-117.2811,Seaside Reef,3,0.9091818181818181,1.2304393939393938,15,15,"CLOUDY,CLOUDY,CLOUDY,NIGHT_CLOUDY,NIGHT_CLOUDY,NIGHT_MIST,NIGHT_CLOUDY,NIGHT_MIST,NIGHT_MIST,NIGHT_MIST,NIGHT_MIST","Onshore,Onshore,Onshore,Cross-shore,Cross-shore,Onshore,Cross-shore,Cross-shore,Cross-shore,Cross-shore,Cross-shore",11
5842041f4e65fad6a77088b4,2024_02_17,33.0341859796287,-117.29552,Swami's,2.94,0.8411515151515151,1.1674848484848483,15,15,"CLOUDY,CLOUDY,CLOUDY,NIGHT_CLOUDY,NIGHT_MIST,NIGHT_MIST,NIGHT_MIST,NIGHT_MIST,NIGHT_MIST,NIGHT_MIST,NIGHT_MIST","Onshore,Onshore,Onshore,Onshore,Onshore,Onshore,Onshore,Onshore,Cross-shore,Onshore,Cross-shore",11
5842041f4e65fad6a77088b7,2024_02_17,33.04569760260221,-117.2994,D Street,2.727272727272727,0.9154545454545454,1.1763636363636363,15,15,"MOSTLY_CLOUDY,CLOUDY,CLEAR,NIGHT_CLOUDY,NIGHT_MIST,NIGHT_MIST,NIGHT_MIST,NIGHT_CLOUDY,NIGHT_OVERCAST,NIGHT_MIST,NIGHT_MIST","Onshore,Onshore,Onshore,Onshore,Onshore,Onshore,Onshore,Onshore,Cross-shore,Onshore,Cross-shore",11
5842041f4e65fad6a77088b8,2024_02_17,33.02090944350196,-117.28535,San Elijo State Beach,3,0.6306969696969696,1.0007424242424243,15,15,"CLOUDY,CLOUDY,CLOUDY,NIGHT_CLOUDY,NIGHT_OVERCAST,NIGHT_MIST,NIGHT_MIST,NIGHT_MIST,NIGHT_MIST,NIGHT_MIST,NIGHT_MIST","Onshore,Onshore,Onshore,Cross-shore,Cross-shore,Onshore,Cross-shore,Cross-shore,Cross-shore,Cross-shore,Cross-shore",11
5842041f4e65fad6a77088c2,2024_02_17,32.80662846492798,-117.2688764333725,PB Point,3,1.0081818181818183,1.2427272727272727,15,15,"MOSTLY_CLOUDY,MOSTLY_CLOUDY,MIST,NIGHT_MIST,NIGHT_MIST,NIGHT_MIST,NIGHT_OVERCAST,NIGHT_MIST,NIGHT_MIST,NIGHT_MIST,NIGHT_MIST","Cross-shore,Offshore,Cross-shore,Cross-shore,Offshore,Cross-shore,Cross-shore,Onshore,Cross-shore,Cross-shore,Cross-shore",11
5842041f4e65fad6a77088c4,2024_02_17,32.8060476681448,-117.26479,Old Man's at Tourmaline,2.8181818181818183,0.6581818181818182,0.9590909090909091,15,15,"MOSTLY_CLOUDY,MOSTLY_CLOUDY,MIST,NIGHT_MIST,NIGHT_OVERCAST,NIGHT_MIST,NIGHT_OVERCAST,NIGHT_MIST,NIGHT_MIST,NIGHT_MIST,NIGHT_MIST","Cross-shore,Cross-shore,Cross-shore,Cross-shore,Offshore,Cross-shore,Cross-shore,Onshore,Cross-shore,Offshore,Cross-shore",11
5842041f4e65fad6a77088cb,2024_02_17,32.557056711256,-117.1327445020322,Tijuana Slough,2,0.5927272727272728,0.8972727272727273,15,15,"MOSTLY_CLOUDY,MOSTLY_CLOUDY,OVERCAST,NIGHT_OVERCAST,NIGHT_MIST,NIGHT_MIST,NIGHT_MIST,NIGHT_MIST,NIGHT_MIST,NIGHT_MIST,NIGHT_MIST","Onshore,Onshore,Onshore,Onshore,Cross-shore,Cross-shore,Cross-shore,Cross-shore,Cross-shore,Cross-shore,Cross-shore",11
5842041f4e65fad6a77088cc,2024_02_17,32.863,-117.257,La Jolla Shores,2.727272727272727,0.8272727272727273,1.0654545454545454,15,15,"MIST,MIST,OVERCAST,NIGHT_OVERCAST,NIGHT_MIST,NIGHT_MIST,NIGHT_MIST,NIGHT_MIST,NIGHT_MIST,NIGHT_MIST,NIGHT_MIST","Onshore,Onshore,Onshore,Onshore,Onshore,Onshore,Onshore,Onshore,Onshore,Onshore,Onshore",11
5842041f4e65fad6a77088ce,2024_02_17,32.67443657790586,-117.17421316238693,Coronado Beach,2.909090909090909,0.509090909090909,0.8136363636363636,15,15,"MOSTLY_CLOUDY,CLOUDY,CLOUDY,NIGHT_CLOUDY,NIGHT_MIST,NIGHT_MIST,NIGHT_MIST,NIGHT_MIST,NIGHT_MIST,NIGHT_MIST,NIGHT_MIST","Cross-shore,Cross-shore,Cross-shore,Offshore,Offshore,Offshore,Offshore,Offshore,Offshore,Offshore,Offshore",11
5842041f4e65fad6a77088cf,2024_02_17,33.40484417640326,-117.60749,San Clemente State Beach,2.6363636363636362,0.6281818181818182,0.9209090909090909,15,15,"MOSTLY_CLOUDY,CLEAR,MOSTLY_CLEAR,NIGHT_MOSTLY_CLOUDY,NIGHT_MOSTLY_CLOUDY,NIGHT_MIST,NIGHT_MIST,NIGHT_DRIZZLE,NIGHT_MIST,NIGHT_MIST,NIGHT_MIST","Onshore,Cross-shore,Cross-shore,Cross-shore,Cross-shore,Cross-shore,Onshore,Onshore,Onshore,Onshore,Cross-shore",11
5842041f4e65fad6a77088d5,2024_02_17,33.4663042002114,-117.7168352817103,Strands,2.5454545454545454,0.7230151515151516,1.0622272727272728,14,14,"CLEAR,CLEAR,CLEAR,NIGHT_CLEAR,NIGHT_MOSTLY_CLOUDY,NIGHT_DRIZZLE,NIGHT_MIST,NIGHT_MIST,NIGHT_MIST,NIGHT_MIST,NIGHT_MIST","Onshore,Onshore,Cross-shore,Cross-shore,Cross-shore,Cross-shore,Onshore,Onshore,Onshore,Onshore,Onshore",11
5842041f4e65fad6a77088d7,2024_02_17,33.4609858001748,-117.68535,Doheny State Beach,2,0.07780303030303029,0.37927272727272726,14,14,"CLEAR,CLEAR,CLEAR,NIGHT_MIST,NIGHT_MIST,NIGHT_MIST,NIGHT_MIST,NIGHT_DRIZZLE,NIGHT_DRIZZLE,NIGHT_MIST,NIGHT_MIST","Onshore,Onshore,Onshore,Cross-shore,Cross-shore,Cross-shore,Offshore,Offshore,Offshore,Offshore,Offshore",11
5842041f4e65fad6a77088dc,2024_02_17,33.50894790083017,-117.75243,Aliso Creek,2,0.4109090909090909,0.7163636363636364,15,15,"CLEAR,CLEAR,CLEAR,NIGHT_MOSTLY_CLOUDY,NIGHT_CLOUDY,NIGHT_MIST,NIGHT_MIST,NIGHT_MIST,NIGHT_MIST,NIGHT_MIST,NIGHT_MIST","Cross-shore,Cross-shore,Cross-shore,Cross-shore,Cross-shore,Cross-shore,Cross-shore,Cross-shore,Cross-shore,Cross-shore,Cross-shore",11
5842041f4e65fad6a77088dd,2024_02_17,33.5326591767067,-117.77764,Brooks Street,2,0.2381818181818182,0.5436363636363637,15,15,"CLEAR,CLEAR,MIST,NIGHT_MIST,NIGHT_OVERCAST,NIGHT_MIST,NIGHT_MIST,NIGHT_MIST,NIGHT_MIST,NIGHT_MIST,NIGHT_MIST","Cross-shore,Cross-shore,Cross-shore,Cross-shore,Cross-shore,Cross-shore,Cross-shore,Cross-shore,Cross-shore,Cross-shore,Cross-shore",11
5842041f4e65fad6a77088de,2024_02_17,33.53561225884637,-117.7799,Thalia Street,2,0.29454545454545455,0.6018181818181818,15,15,"CLEAR,CLEAR,MIST,NIGHT_MIST,NIGHT_OVERCAST,NIGHT_MIST,NIGHT_MIST,NIGHT_MIST,NIGHT_MIST,NIGHT_MIST,NIGHT_MIST","Cross-shore,Cross-shore,Cross-shore,Cross-shore,Cross-shore,Cross-shore,Cross-shore,Cross-shore,Cross-shore,Cross-shore,Cross-shore",11
5842041f4e65fad6a77088e3,2024_02_17,33.54268310353641,-117.7916,Rockpile,2,0.33454545454545453,0.6409090909090909,15,15,"CLEAR,CLEAR,MIST,NIGHT_MIST,NIGHT_OVERCAST,NIGHT_MIST,NIGHT_MIST,NIGHT_MIST,NIGHT_MIST,NIGHT_MIST,NIGHT_MIST","Cross-shore,Cross-shore,Cross-shore,Cross-shore,Cross-shore,Cross-shore,Cross-shore,Cross-shore,Cross-shore,Cross-shore,Cross-shore",11
5842041f4e65fad6a77088e4,2024_02_17,33.7368459504689,-118.10342,"Seal Beach Pier, Southside",1.6363636363636365,0.11,0.41545454545454547,15,15,"CLEAR,CLEAR,CLEAR,NIGHT_MOSTLY_CLOUDY,NIGHT_MOSTLY_CLOUDY,NIGHT_MOSTLY_CLOUDY,NIGHT_CLOUDY,NIGHT_OVERCAST,NIGHT_MIST,NIGHT_OVERCAST,NIGHT_OVERCAST","Onshore,Onshore,Onshore,Onshore,Onshore,Offshore,Cross-shore,Cross-shore,Offshore,Offshore,Offshore",11
5842041f4e65fad6a77088e5,2024_02_17,33.73933701820233,-118.117,Ray Bay,1.6363636363636365,0.1,0.40545454545454546,15,15,"CLEAR,CLEAR,CLEAR,NIGHT_CLEAR,NIGHT_MOSTLY_CLOUDY,NIGHT_CLOUDY,NIGHT_OVERCAST,NIGHT_MIST,NIGHT_MIST,NIGHT_OVERCAST,NIGHT_OVERCAST","Onshore,Onshore,Onshore,Onshore,Onshore,Cross-shore,Cross-shore,Cross-shore,Offshore,Offshore,Offshore",11
5842041f4e65fad6a77088e7,2024_02_17,33.728733,-118.08982,Surfside,1.5454545454545454,0.22545454545454546,0.5290909090909091,15,15,"MOSTLY_CLEAR,MOSTLY_CLEAR,CLEAR,NIGHT_CLEAR,NIGHT_MOSTLY_CLOUDY,NIGHT_MOSTLY_CLOUDY,NIGHT_OVERCAST,NIGHT_OVERCAST,NIGHT_OVERCAST,NIGHT_OVERCAST,NIGHT_OVERCAST","Onshore,Onshore,Onshore,Onshore,Onshore,Cross-shore,Cross-shore,Cross-shore,Offshore,Offshore,Offshore",11
5842041f4e65fad6a77088e8,2024_02_17,33.68760321488161,-118.04236,Bolsa Chica State Beach,2.727272727272727,0.48013636363636364,0.9019999999999999,14,14,"MOSTLY_CLOUDY,MOSTLY_CLOUDY,MOSTLY_CLEAR,NIGHT_MOSTLY_CLOUDY,NIGHT_MOSTLY_CLOUDY,NIGHT_MIST,NIGHT_MIST,NIGHT_MIST,NIGHT_MIST,NIGHT_MIST,NIGHT_MIST","Onshore,Onshore,Onshore,Onshore,Cross-shore,Cross-shore,Cross-shore,Cross-shore,Cross-shore,Cross-shore,Onshore",11
5842041f4e65fad6a77088ea,2024_02_17,33.66704400178788,-118.0192,North HB Streets,3,0.6528939393939394,1.0569545454545455,14,14,"CLEAR,CLEAR,CLEAR,NIGHT_MOSTLY_CLOUDY,NIGHT_MIST,NIGHT_MIST,NIGHT_MOSTLY_CLOUDY,NIGHT_OVERCAST,NIGHT_OVERCAST,NIGHT_OVERCAST,NIGHT_MIST","Onshore,Onshore,Onshore,Onshore,Cross-shore,Cross-shore,Cross-shore,Cross-shore,Cross-shore,Cross-shore,Cross-shore",11
5842041f4e65fad6a77088ed,2024_02_17,33.65475101379567,-118.00291,Huntington Beach Pier Southside,2.4545454545454546,0.6885757575757575,1.0977121212121213,14,14,"MOSTLY_CLOUDY,MOSTLY_CLOUDY,MOSTLY_CLEAR,NIGHT_MOSTLY_CLOUDY,NIGHT_MOSTLY_CLOUDY,NIGHT_MOSTLY_CLOUDY,NIGHT_MOSTLY_CLOUDY,NIGHT_OVERCAST,NIGHT_OVERCAST,NIGHT_OVERCAST,NIGHT_OVERCAST","Onshore,Onshore,Onshore,Onshore,Onshore,Onshore,Onshore,Cross-shore,Cross-shore,Cross-shore,Offshore",11
5842041f4e65fad6a77088ee,2024_02_17,33.62778647706099,-117.95939,River Jetties,2.5309090909090908,0.5638484848484849,0.9348030303030302,15,15,"MOSTLY_CLOUDY,MOSTLY_CLOUDY,MOSTLY_CLOUDY,NIGHT_MOSTLY_CLOUDY,NIGHT_MOSTLY_CLOUDY,NIGHT_MIST,NIGHT_MOSTLY_CLOUDY,NIGHT_MIST,NIGHT_OVERCAST,NIGHT_OVERCAST,NIGHT_OVERCAST","Onshore,Onshore,Onshore,Onshore,Onshore,Onshore,Onshore,Cross-shore,Offshore,Offshore,Offshore",11
5842041f4e65fad6a77088f2,2024_02_17,33.605165797643664,-117.92500376701355,Newport Point,2,0.39,0.6936363636363636,15,15,"CLEAR,CLEAR,MIST,NIGHT_MIST,NIGHT_MOSTLY_CLOUDY,NIGHT_MIST,NIGHT_MOSTLY_CLOUDY,NIGHT_MIST,NIGHT_MIST,NIGHT_CLOUDY,NIGHT_CLOUDY","Cross-shore,Cross-shore,Cross-shore,Cross-shore,Cross-shore,Cross-shore,Cross-shore,Cross-shore,Cross-shore,Cross-shore,Cross-shore",11
5842041f4e65fad6a77088f3,2024_02_17,33.58982984726977,-117.87713,Corona del Mar,1.3636363636363635,0.19158090909090908,0.29934272727272726,15,15,"CLEAR,CLEAR,MIST,NIGHT_MIST,NIGHT_MIST,NIGHT_MIST,NIGHT_MIST,NIGHT_MIST,NIGHT_MIST,NIGHT_MIST,NIGHT_MIST","Onshore,Onshore,Onshore,Onshore,Onshore,Onshore,Onshore,Offshore,Offshore,Offshore,Offshore",11
5842041f4e65fad6a77088f7,2024_02_17,34.00750300824362,-118.4971783496269,Santa Monica Pier,1.7272727272727273,0.2545454545454546,0.56,15,15,"CLEAR,CLEAR,CLEAR,NIGHT_CLEAR,NIGHT_MOSTLY_CLOUDY,NIGHT_MOSTLY_CLOUDY,NIGHT_BRIEF_SHOWERS,NIGHT_MIST,NIGHT_MIST,NIGHT_BRIEF_SHOWERS,NIGHT_BRIEF_SHOWERS","Onshore,Onshore,Onshore,Onshore,Onshore,Onshore,Onshore,Offshore,Offshore,Offshore,Offshore",11
5842041f4e65fad6a77088ff,2024_02_17,33.94070283102945,-118.44321,Dockweiler Beach,2.7572727272727273,0.8096922727272727,1.2122745454545454,14,14,"MIST,MIST,MIST,NIGHT_MOSTLY_CLOUDY,NIGHT_MIST,NIGHT_MIST,NIGHT_MIST,NIGHT_MIST,NIGHT_OVERCAST,NIGHT_CLOUDY,NIGHT_CLOUDY","Onshore,Onshore,Onshore,Onshore,Onshore,Onshore,Onshore,Onshore,Cross-shore,Cross-shore,Cross-shore",11
5842041f4e65fad6a7708900,2024_02_17,33.9231846937237,-118.4341465777908,Shitpipe,2.1818181818181817,0.5808363636363636,1.0383636363636364,14,14,"MIST,MOSTLY_CLOUDY,MIST,NIGHT_MOSTLY_CLOUDY,NIGHT_CLEAR,NIGHT_MIST,NIGHT_MIST,NIGHT_MOSTLY_CLOUDY,NIGHT_OVERCAST,NIGHT_OVERCAST,NIGHT_MIST","Onshore,Onshore,Onshore,Onshore,Onshore,Onshore,Onshore,Onshore,Onshore,Onshore,Cross-shore",11
5842041f4e65fad6a7708902,2024_02_17,33.9108528052242,-118.4279133138721,Hammerland,2.1663636363636365,0.7836909090909091,1.0924545454545453,14,14,"MIST,MOSTLY_CLOUDY,MIST,NIGHT_MOSTLY_CLOUDY,NIGHT_MIST,NIGHT_MIST,NIGHT_MIST,NIGHT_MOSTLY_CLOUDY,NIGHT_OVERCAST,NIGHT_OVERCAST,NIGHT_MIST","Onshore,Onshore,Onshore,Onshore,Onshore,Onshore,Onshore,Onshore,Onshore,Onshore,Cross-shore",11
5842041f4e65fad6a7708904,2024_02_17,33.87201368173932,-118.4075151286262,Hermosa Beach,2.0754545454545457,0.48752727272727275,0.8688545454545454,14,14,"MIST,MIST,MIST,NIGHT_MIST,NIGHT_MIST,NIGHT_MIST,NIGHT_MIST,NIGHT_MIST,NIGHT_CLOUDY,NIGHT_MIST,NIGHT_MIST","Onshore,Onshore,Onshore,Onshore,Onshore,Onshore,Onshore,Onshore,Onshore,Onshore,Onshore",11
5842041f4e65fad6a7708906,2024_02_17,33.90129336911256,-118.42184,El Porto,2.2572727272727273,0.9364181818181818,1.227,14,14,"MIST,MIST,MIST,NIGHT_MOSTLY_CLOUDY,NIGHT_MIST,NIGHT_MIST,NIGHT_MIST,NIGHT_MIST,NIGHT_MIST,NIGHT_MIST,NIGHT_MIST","Onshore,Onshore,Onshore,Onshore,Onshore,Onshore,Onshore,Onshore,Onshore,Onshore,Onshore",11
5842041f4e65fad6a7708907,2024_02_17,33.87963506431794,-118.41102,Manhattan Beach Pier,2.1663636363636365,0.7958363636363637,1.1558,14,14,"MIST,MIST,MIST,NIGHT_MOSTLY_CLOUDY,NIGHT_MIST,NIGHT_MIST,NIGHT_MIST,NIGHT_MIST,NIGHT_MIST,NIGHT_MIST,NIGHT_MIST","Onshore,Onshore,Onshore,Onshore,Onshore,Onshore,Onshore,Onshore,Onshore,Onshore,Onshore",11
5842041f4e65fad6a7708914,2024_02_17,34.038053387863464,-118.5532,Sunset Point,1.6363636363636365,0.1690909090909091,0.4727272727272727,15,15,"CLEAR,CLEAR,CLEAR,NIGHT_CLEAR,NIGHT_CLEAR,NIGHT_CLEAR,NIGHT_MIST,NIGHT_MIST,NIGHT_MIST,NIGHT_MIST,NIGHT_MIST","Onshore,Onshore,Onshore,Onshore,Onshore,Offshore,Offshore,Offshore,Offshore,Offshore,Offshore",11
5842041f4e65fad6a7708920,2024_02_17,33.80930828074364,-118.3933198342649,Haggerty's,2,0.19963636363636364,0.38181818181818183,15,15,"MIST,MIST,MIST,NIGHT_MIST,NIGHT_MOSTLY_CLOUDY,NIGHT_DRIZZLE,NIGHT_DRIZZLE,NIGHT_MIST,NIGHT_MIST,NIGHT_MIST,NIGHT_MIST","Onshore,Onshore,Onshore,Onshore,Onshore,Onshore,Onshore,Onshore,Onshore,Onshore,Onshore",11
5842041f4e65fad6a7708921,2024_02_17,33.85044519861206,-118.40048,Redondo Breakwater,2.5454545454545454,0.7263636363636363,0.9872727272727273,15,15,"MIST,MIST,MIST,NIGHT_MIST,NIGHT_MIST,NIGHT_MIST,NIGHT_MIST,NIGHT_MIST,NIGHT_CLOUDY,NIGHT_MIST,NIGHT_MIST","Onshore,Onshore,Onshore,Onshore,Onshore,Onshore,Onshore,Onshore,Onshore,Onshore,Onshore",11
5842041f4e65fad6a7708927,2024_02_17,33.70877301002487,-118.2840112858389,Cabrillo Beach,2,0.04,0.34454545454545454,15,15,"MOSTLY_CLOUDY,CLEAR,CLEAR,NIGHT_MIST,NIGHT_CLEAR,NIGHT_CLEAR,NIGHT_CLEAR,NIGHT_MIST,NIGHT_CLEAR,NIGHT_CLEAR,NIGHT_OVERCAST","Offshore,Offshore,Offshore,Offshore,Offshore,Offshore,Offshore,Offshore,Offshore,Cross-shore,Cross-shore",11
5842041f4e65fad6a770892c,2024_02_17,33.77209986806257,-118.4268428476672,Lunada Bay,1.6363636363636365,0.6409090909090909,0.9227272727272727,15,15,"MOSTLY_CLOUDY,MIST,MOSTLY_CLOUDY,NIGHT_MIST,NIGHT_CLEAR,NIGHT_MIST,NIGHT_MIST,NIGHT_MIST,NIGHT_MIST,NIGHT_MIST,NIGHT_MIST","Onshore,Cross-shore,Onshore,Onshore,Onshore,Onshore,Onshore,Onshore,Onshore,Onshore,Onshore",11
5842041f4e65fad6a770892d,2024_02_17,33.79294656286144,-118.4070316699825,PV Cove,2,0.6574136363636364,0.9129418181818182,15,15,"MIST,MIST,MIST,NIGHT_MIST,NIGHT_MOSTLY_CLOUDY,NIGHT_DRIZZLE,NIGHT_DRIZZLE,NIGHT_MIST,NIGHT_MIST,NIGHT_MIST,NIGHT_MIST","Onshore,Onshore,Onshore,Onshore,Onshore,Onshore,Onshore,Onshore,Onshore,Onshore,Onshore",11
5842041f4e65fad6a7708930,2024_02_17,34.03944902292561,-118.57539,Chart House,1,0.0018181818181818182,0.2890909090909091,15,15,"MOSTLY_CLEAR,CLEAR,CLEAR,NIGHT_CLEAR,NIGHT_CLEAR,NIGHT_MOSTLY_CLEAR,NIGHT_MOSTLY_CLEAR,NIGHT_MIST,NIGHT_MIST,NIGHT_MOSTLY_CLOUDY,NIGHT_MIST","Onshore,Cross-shore,Cross-shore,Cross-shore,Onshore,Offshore,Offshore,Cross-shore,Offshore,Offshore,Offshore",11
5842041f4e65fad6a7708936,2024_02_17,34.0016731994772,-118.80456,Point Dume,1.9090909090909092,0.07454545454545454,0.3814909090909091,15,15,"MOSTLY_CLEAR,CLEAR,CLEAR,NIGHT_CLEAR,NIGHT_CLEAR,NIGHT_CLEAR,NIGHT_CLEAR,NIGHT_CLEAR,NIGHT_CLEAR,NIGHT_CLEAR,NIGHT_MOSTLY_CLOUDY","Cross-shore,Cross-shore,Cross-shore,Offshore,Offshore,Offshore,Offshore,Cross-shore,Onshore,Onshore,Onshore",11
5842041f4e65fad6a7708937,2024_02_17,34.02587527588963,-118.7554939066114,Latigo Point,2,0.21272727272727274,0.5172727272727273,15,15,"CLEAR,CLEAR,CLEAR,NIGHT_CLEAR,NIGHT_CLEAR,NIGHT_CLEAR,NIGHT_CLEAR,NIGHT_CLEAR,NIGHT_CLEAR,NIGHT_CLEAR,NIGHT_CLEAR","Cross-shore,Cross-shore,Cross-shore,Offshore,Offshore,Offshore,Offshore,Offshore,Offshore,Cross-shore,Cross-shore",11
5842041f4e65fad6a770893f,2024_02_17,34.043762,-118.93294,Leo Carrillo,2.4545454545454546,0.46798181818181817,0.7699272727272727,15,15,"MOSTLY_CLEAR,CLEAR,CLEAR,NIGHT_CLEAR,NIGHT_CLEAR,NIGHT_CLEAR,NIGHT_CLEAR,NIGHT_CLEAR,NIGHT_CLEAR,NIGHT_CLEAR,NIGHT_CLEAR","Cross-shore,Cross-shore,Cross-shore,Cross-shore,Offshore,Offshore,Offshore,Offshore,Offshore,Offshore,Offshore",11
5842041f4e65fad6a7708941,2024_02_17,36.69388179265737,-121.81289,Marina State Beach,3,0.9645454545454546,1.1718181818181819,13,13,"CLEAR,CLEAR,CLEAR,NIGHT_MIST,NIGHT_MIST,NIGHT_MIST,NIGHT_MIST,NIGHT_MOSTLY_CLOUDY,NIGHT_MOSTLY_CLOUDY,NIGHT_MOSTLY_CLOUDY,NIGHT_MIST","Onshore,Onshore,Onshore,Offshore,Onshore,Onshore,Cross-shore,Offshore,Offshore,Offshore,Offshore",11
5842041f4e65fad6a7708944,2024_02_17,34.34145077331085,-119.416999352654,Stanley's,2,0.2018181818181818,0.5109090909090909,15,15,"BRIEF_SHOWERS,BRIEF_SHOWERS,MIST,NIGHT_MIST,NIGHT_MIST,NIGHT_MIST,NIGHT_MIST,NIGHT_MOSTLY_CLOUDY,NIGHT_MOSTLY_CLOUDY,NIGHT_MOSTLY_CLOUDY,NIGHT_MOSTLY_CLOUDY","Onshore,Onshore,Onshore,Onshore,Onshore,Onshore,Onshore,Cross-shore,Onshore,Onshore,Cross-shore",11
5842041f4e65fad6a7708945,2024_02_17,34.35113017313915,-119.426921498899,Oil Piers,2,0.2081818181818182,0.5127272727272727,15,15,"BRIEF_SHOWERS,BRIEF_SHOWERS,MIST,NIGHT_MIST,NIGHT_MIST,NIGHT_MIST,NIGHT_MIST,NIGHT_MOSTLY_CLOUDY,NIGHT_MOSTLY_CLOUDY,NIGHT_MOSTLY_CLOUDY,NIGHT_MOSTLY_CLOUDY","Cross-shore,Cross-shore,Cross-shore,Cross-shore,Cross-shore,Cross-shore,Cross-shore,Cross-shore,Onshore,Onshore,Cross-shore",11
5842041f4e65fad6a770894c,2024_02_17,34.17876333306018,-119.2399483564372,Oxnard,2.272727272727273,0.7427272727272727,1.0018181818181817,15,15,"CLEAR,CLEAR,MIST,NIGHT_MOSTLY_CLOUDY,NIGHT_OVERCAST,NIGHT_MIST,NIGHT_MIST,NIGHT_MIST,NIGHT_MIST,NIGHT_MIST,NIGHT_MIST","Onshore,Onshore,Onshore,Onshore,Onshore,Onshore,Onshore,Cross-shore,Onshore,Onshore,Onshore",11
5842041f4e65fad6a7708957,2024_02_17,34.31720331100517,-119.3882324751725,Pitas Point,2,0.23272727272727273,0.5409090909090909,15,15,"MIST,DRIZZLE,MOSTLY_CLEAR,NIGHT_MOSTLY_CLOUDY,NIGHT_MIST,NIGHT_BRIEF_SHOWERS,NIGHT_MIST,NIGHT_MIST,NIGHT_MOSTLY_CLOUDY,NIGHT_MIST,NIGHT_OVERCAST","Onshore,Onshore,Cross-shore,Cross-shore,Offshore,Offshore,Offshore,Offshore,Offshore,Offshore,Offshore",11
5842041f4e65fad6a7708959,2024_02_17,34.27851754384724,-119.316202617226,Emma Wood,2,0.22272727272727272,0.5272727272727272,15,15,"CLEAR,MIST,MIST,NIGHT_MOSTLY_CLOUDY,NIGHT_MIST,NIGHT_MIST,NIGHT_MOSTLY_CLOUDY,NIGHT_MIST,NIGHT_OVERCAST,NIGHT_MIST,NIGHT_OVERCAST","Onshore,Offshore,Onshore,Onshore,Onshore,Onshore,Onshore,Cross-shore,Onshore,Onshore,Onshore",11
5842041f4e65fad6a770895a,2024_02_17,34.35513640390276,-119.4400589884255,Mussel Shoals (aka Little Rincon),2,0.23,0.5363636363636364,15,15,"BRIEF_SHOWERS,MOSTLY_CLOUDY,MOSTLY_CLEAR,NIGHT_MIST,NIGHT_MIST,NIGHT_MIST,NIGHT_MIST,NIGHT_MOSTLY_CLOUDY,NIGHT_MOSTLY_CLOUDY,NIGHT_MOSTLY_CLOUDY,NIGHT_MOSTLY_CLOUDY","Cross-shore,Cross-shore,Cross-shore,Cross-shore,Cross-shore,Cross-shore,Cross-shore,Cross-shore,Onshore,Onshore,Onshore",11
5842041f4e65fad6a770895e,2024_02_17,34.28991757054902,-119.3366646794652,Summer Beach,2,0.18818181818181817,0.49272727272727274,15,15,"CLEAR,MIST,MIST,NIGHT_MOSTLY_CLOUDY,NIGHT_MIST,NIGHT_MIST,NIGHT_MOSTLY_CLOUDY,NIGHT_MIST,NIGHT_OVERCAST,NIGHT_MIST,NIGHT_OVERCAST","Cross-shore,Offshore,Onshore,Onshore,Onshore,Onshore,Onshore,Onshore,Onshore,Onshore,Onshore",11
5842041f4e65fad6a770895f,2024_02_17,34.30897456105926,-119.3582501170116,Solimar,2,0.16818181818181818,0.47363636363636363,15,15,"MIST,DRIZZLE,MOSTLY_CLEAR,NIGHT_MOSTLY_CLOUDY,NIGHT_MIST,NIGHT_BRIEF_SHOWERS,NIGHT_MIST,NIGHT_MIST,NIGHT_MOSTLY_CLOUDY,NIGHT_MIST,NIGHT_OVERCAST","Onshore,Onshore,Cross-shore,Cross-shore,Offshore,Offshore,Offshore,Offshore,Cross-shore,Offshore,Offshore",11
5842041f4e65fad6a7708960,2024_02_17,34.39836265281686,-119.70213,Leadbetter Point,1,0,0.24272727272727274,14,14,"MOSTLY_CLEAR,MOSTLY_CLEAR,MOSTLY_CLEAR,NIGHT_MOSTLY_CLOUDY,NIGHT_MOSTLY_CLOUDY,NIGHT_MIST,NIGHT_MOSTLY_CLOUDY,NIGHT_MOSTLY_CLOUDY,NIGHT_MOSTLY_CLOUDY,NIGHT_MOSTLY_CLOUDY,NIGHT_MIST","Cross-shore,Cross-shore,Cross-shore,Cross-shore,Offshore,Offshore,Offshore,Offshore,Offshore,Cross-shore,Cross-shore",11
5842041f4e65fad6a7708961,2024_02_17,34.46052293893899,-120.07328,Refugio,1.6363636363636365,0.010909090909090908,0.3145454545454546,14,14,"MOSTLY_CLOUDY,MOSTLY_CLEAR,CLEAR,NIGHT_CLEAR,NIGHT_CLEAR,NIGHT_CLEAR,NIGHT_CLEAR,NIGHT_CLEAR,NIGHT_CLEAR,NIGHT_CLEAR,NIGHT_CLEAR","Offshore,Offshore,Offshore,Offshore,Offshore,Offshore,Offshore,Offshore,Offshore,Offshore,Cross-shore",11
5842041f4e65fad6a7708962,2024_02_17,34.40754276777778,-119.87639,Devereux,1.7272727272727273,0.22545454545454546,0.5281818181818182,14,14,"MIST,MOSTLY_CLEAR,MOSTLY_CLOUDY,NIGHT_CLEAR,NIGHT_CLEAR,NIGHT_CLEAR,NIGHT_MOSTLY_CLEAR,NIGHT_MOSTLY_CLEAR,NIGHT_MIST,NIGHT_MIST,NIGHT_MIST","Cross-shore,Cross-shore,Cross-shore,Cross-shore,Cross-shore,Cross-shore,Onshore,Onshore,Onshore,Onshore,Onshore",11
5842041f4e65fad6a7708963,2024_02_17,34.27479983305182,-119.3133222656776,Ventura Overhead,2,0.24909090909090909,0.5518181818181819,15,15,"CLEAR,CLOUDY,MOSTLY_CLOUDY,NIGHT_MOSTLY_CLOUDY,NIGHT_MIST,NIGHT_CLEAR,NIGHT_MOSTLY_CLOUDY,NIGHT_MOSTLY_CLOUDY,NIGHT_MOSTLY_CLOUDY,NIGHT_MIST,NIGHT_MIST","Cross-shore,Offshore,Onshore,Onshore,Onshore,Onshore,Onshore,Onshore,Onshore,Onshore,Onshore",11
5842041f4e65fad6a7708964,2024_02_17,34.41023236011655,-119.88261,Sands,2,0.25272727272727274,0.5572727272727273,14,14,"MIST,MOSTLY_CLEAR,MOSTLY_CLOUDY,NIGHT_CLEAR,NIGHT_CLEAR,NIGHT_CLEAR,NIGHT_MOSTLY_CLEAR,NIGHT_MOSTLY_CLEAR,NIGHT_MIST,NIGHT_MIST,NIGHT_MIST","Onshore,Onshore,Onshore,Onshore,Onshore,Onshore,Cross-shore,Offshore,Offshore,Offshore,Offshore",11
5842041f4e65fad6a7708966,2024_02_17,34.40450193869233,-119.68752,Sandspit,1,0,0.1709090909090909,14,14,"MOSTLY_CLEAR,MOSTLY_CLOUDY,MOSTLY_CLEAR,NIGHT_MIST,NIGHT_MIST,NIGHT_MIST,NIGHT_MOSTLY_CLOUDY,NIGHT_MOSTLY_CLOUDY,NIGHT_MOSTLY_CLOUDY,NIGHT_MOSTLY_CLOUDY,NIGHT_BRIEF_SHOWERS","Cross-shore,Cross-shore,Cross-shore,Cross-shore,Offshore,Offshore,Offshore,Offshore,Offshore,Offshore,Cross-shore",11
5842041f4e65fad6a7708967,2024_02_17,34.41549098334453,-119.6375149840203,Hammond's,1.6363636363636365,0,0.2409090909090909,14,14,"MOSTLY_CLEAR,MOSTLY_CLOUDY,MOSTLY_CLEAR,NIGHT_MOSTLY_CLOUDY,NIGHT_MOSTLY_CLOUDY,NIGHT_MOSTLY_CLOUDY,NIGHT_MOSTLY_CLOUDY,NIGHT_MOSTLY_CLOUDY,NIGHT_BRIEF_SHOWERS,NIGHT_MOSTLY_CLOUDY,NIGHT_MOSTLY_CLOUDY","Onshore,Cross-shore,Cross-shore,Cross-shore,Cross-shore,Cross-shore,Onshore,Onshore,Onshore,Onshore,Onshore",11
5842041f4e65fad6a7708968,2024_02_17,34.45759322742309,-120.0220251867315,El Capitan,2,0.06272727272727273,0.36636363636363634,14,14,"MOSTLY_CLOUDY,MOSTLY_CLEAR,MOSTLY_CLOUDY,NIGHT_CLEAR,NIGHT_CLEAR,NIGHT_CLEAR,NIGHT_CLEAR,NIGHT_CLEAR,NIGHT_CLEAR,NIGHT_CLEAR,NIGHT_CLEAR","Cross-shore,Cross-shore,Cross-shore,Offshore,Offshore,Offshore,Offshore,Cross-shore,Cross-shore,Cross-shore,Cross-shore",11
5842041f4e65fad6a770896c,2024_02_17,34.405117655616,-119.84317,Campus Point,1.8181818181818181,0.022727272727272728,0.32545454545454544,14,14,"CLEAR,MOSTLY_CLEAR,MOSTLY_CLOUDY,NIGHT_MOSTLY_CLEAR,NIGHT_MOSTLY_CLOUDY,NIGHT_MIST,NIGHT_CLEAR,NIGHT_CLEAR,NIGHT_CLEAR,NIGHT_CLEAR,NIGHT_CLEAR","Cross-shore,Cross-shore,Cross-shore,Cross-shore,Cross-shore,Cross-shore,Onshore,Onshore,Onshore,Onshore,Onshore",11
5842041f4e65fad6a770896e,2024_02_17,34.38935162233354,-119.51955,Carpinteria State Beach,2,0.042727272727272725,0.3463636363636364,15,15,"MIST,MOSTLY_CLOUDY,MOSTLY_CLEAR,NIGHT_MOSTLY_CLOUDY,NIGHT_MOSTLY_CLEAR,NIGHT_MOSTLY_CLOUDY,NIGHT_CLEAR,NIGHT_MOSTLY_CLOUDY,NIGHT_MOSTLY_CLOUDY,NIGHT_MOSTLY_CLOUDY,NIGHT_MOSTLY_CLOUDY","Onshore,Onshore,Onshore,Onshore,Offshore,Offshore,Offshore,Offshore,Offshore,Offshore,Offshore",11
5842041f4e65fad6a770896f,2024_02_17,37.48296565175612,-122.4549300127824,Half Moon Bay,2.727272727272727,0.8099999999999999,1.0763636363636364,13,13,"MIST,MIST,MIST,NIGHT_MIST,NIGHT_CLEAR,NIGHT_CLEAR,NIGHT_CLOUDY,NIGHT_OVERCAST,NIGHT_OVERCAST,NIGHT_OVERCAST,NIGHT_MOSTLY_CLOUDY","Onshore,Onshore,Onshore,Offshore,Onshore,Cross-shore,Cross-shore,Cross-shore,Cross-shore,Onshore,Cross-shore",11
5842041f4e65fad6a7708970,2024_02_17,37.499,-122.471,Princeton Jetty,2.3636363636363638,0.6118181818181818,0.9054545454545454,13,13,"CLEAR,CLEAR,CLEAR,NIGHT_CLEAR,NIGHT_MIST,NIGHT_CLEAR,NIGHT_CLEAR,NIGHT_OVERCAST,NIGHT_OVERCAST,NIGHT_OVERCAST,NIGHT_CLEAR","Onshore,Onshore,Onshore,Offshore,Onshore,Onshore,Onshore,Onshore,Onshore,Onshore,Onshore",11
5842041f4e65fad6a7708972,2024_02_17,37.35699547365155,-122.4069534707252,Tunitas Creek,3,1.1772727272727272,1.42,13,13,"CLEAR,CLEAR,CLEAR,NIGHT_CLEAR,NIGHT_CLEAR,NIGHT_CLEAR,NIGHT_CLEAR,NIGHT_CLEAR,NIGHT_CLEAR,NIGHT_CLOUDY,NIGHT_MOSTLY_CLOUDY","Onshore,Onshore,Cross-shore,Cross-shore,Cross-shore,Cross-shore,Cross-shore,Cross-shore,Cross-shore,Cross-shore,Cross-shore",11
5842041f4e65fad6a7708974,2024_02_17,37.54735589428842,-122.5161090212687,Montara,3,1.0072727272727273,1.230909090909091,13,13,"CLEAR,CLEAR,CLEAR,NIGHT_CLEAR,NIGHT_CLEAR,NIGHT_CLEAR,NIGHT_OVERCAST,NIGHT_OVERCAST,NIGHT_CLOUDY,NIGHT_OVERCAST,NIGHT_OVERCAST","Cross-shore,Offshore,Offshore,Offshore,Offshore,Offshore,Offshore,Offshore,Offshore,Offshore,Offshore",11
5842041f4e65fad6a7708975,2024_02_17,34.3869373724559,-119.5142334209018,Tarpits,2,0.049090909090909095,0.3527272727272727,15,15,"CLEAR,CLEAR,MOSTLY_CLEAR,NIGHT_MOSTLY_CLOUDY,NIGHT_MIST,NIGHT_FOG,NIGHT_MOSTLY_CLOUDY,NIGHT_MOSTLY_CLOUDY,NIGHT_MOSTLY_CLOUDY,NIGHT_MOSTLY_CLOUDY,NIGHT_MOSTLY_CLOUDY","Onshore,Cross-shore,Cross-shore,Cross-shore,Offshore,Offshore,Offshore,Offshore,Offshore,Offshore,Offshore",11
5842041f4e65fad6a7708976,2024_02_17,37.59881852720143,-122.50463,Pacifica / Linda Mar,2.1672727272727275,0.23207575757575757,0.5388484848484848,14,14,"CLEAR,CLEAR,CLEAR,NIGHT_CLEAR,NIGHT_CLEAR,NIGHT_CLEAR,NIGHT_CLEAR,NIGHT_CLEAR,NIGHT_CLEAR,NIGHT_CLOUDY,NIGHT_CLEAR","Onshore,Cross-shore,Offshore,Offshore,Cross-shore,Offshore,Offshore,Offshore,Offshore,Offshore,Offshore",11
5842041f4e65fad6a7708978,2024_02_17,37.59883098461164,-122.5143843582282,Pedro Point,3.090909090909091,0.9854545454545455,1.1445454545454545,13,13,"CLEAR,CLEAR,CLEAR,NIGHT_CLEAR,NIGHT_CLEAR,NIGHT_CLEAR,NIGHT_CLEAR,NIGHT_CLEAR,NIGHT_CLOUDY,NIGHT_CLOUDY,NIGHT_CLOUDY","Cross-shore,Offshore,Offshore,Offshore,Offshore,Offshore,Offshore,Offshore,Offshore,Offshore,Offshore",11
5842041f4e65fad6a7708979,2024_02_17,37.61081996647663,-122.4973287570634,Rockaway,3,0.9736363636363636,1.1781818181818182,13,13,"CLEAR,CLEAR,CLEAR,NIGHT_CLEAR,NIGHT_CLEAR,NIGHT_CLEAR,NIGHT_CLEAR,NIGHT_CLEAR,NIGHT_CLEAR,NIGHT_CLOUDY,NIGHT_CLEAR","Onshore,Cross-shore,Offshore,Offshore,Cross-shore,Offshore,Offshore,Cross-shore,Offshore,Cross-shore,Offshore",11
5842041f4e65fad6a770897a,2024_02_17,37.809987384424446,-122.4751353263855,Fort Point,2.8181818181818183,0.5218181818181818,0.8254545454545454,13,13,"CLEAR,CLEAR,CLOUDY,NIGHT_CLEAR,NIGHT_CLEAR,NIGHT_CLEAR,NIGHT_CLEAR,NIGHT_CLEAR,NIGHT_CLEAR,NIGHT_OVERCAST,NIGHT_CLOUDY","Offshore,Cross-shore,Cross-shore,Offshore,Onshore,Onshore,Onshore,Onshore,Onshore,Onshore,Onshore",11
5842041f4e65fad6a770897c,2024_02_17,37.63422542967464,-122.4951,Sharp Park,3,1.0127272727272727,1.3109090909090908,13,13,"CLEAR,CLEAR,CLEAR,NIGHT_CLEAR,NIGHT_CLEAR,NIGHT_CLEAR,NIGHT_CLEAR,NIGHT_CLEAR,NIGHT_CLEAR,NIGHT_CLOUDY,NIGHT_CLEAR","Onshore,Onshore,Cross-shore,Offshore,Onshore,Cross-shore,Offshore,Cross-shore,Offshore,Cross-shore,Offshore",11
5842041f4e65fad6a770897d,2024_02_17,37.27313605072472,-122.4127387912554,Pescadero,3,1,1.2863636363636364,13,13,"CLEAR,CLEAR,CLEAR,NIGHT_CLEAR,NIGHT_CLEAR,NIGHT_CLEAR,NIGHT_OVERCAST,NIGHT_CLOUDY,NIGHT_CLEAR,NIGHT_CLEAR,NIGHT_MOSTLY_CLOUDY","Cross-shore,Cross-shore,Cross-shore,Cross-shore,Offshore,Offshore,Offshore,Offshore,Offshore,Offshore,Offshore",11
5842041f4e65fad6a770897e,2024_02_17,37.18140279972666,-122.3926685899327,Pigeon Point,2.8181818181818183,1.069090909090909,1.3418181818181818,13,13,"CLEAR,CLEAR,CLEAR,NIGHT_CLEAR,NIGHT_CLEAR,NIGHT_CLEAR,NIGHT_CLOUDY,NIGHT_CLOUDY,NIGHT_OVERCAST,NIGHT_CLOUDY,NIGHT_OVERCAST","Onshore,Onshore,Onshore,Onshore,Onshore,Onshore,Onshore,Onshore,Onshore,Onshore,Onshore",11
5842041f4e65fad6a770897f,2024_02_17,37.11578956919415,-122.314699271291,Ano Nuevo,2.1818181818181817,0.8409090909090909,1.0918181818181818,13,13,"CLEAR,CLEAR,CLEAR,NIGHT_CLEAR,NIGHT_CLEAR,NIGHT_CLEAR,NIGHT_CLOUDY,NIGHT_CLEAR,NIGHT_CLOUDY,NIGHT_MOSTLY_CLOUDY,NIGHT_OVERCAST","Onshore,Onshore,Onshore,Onshore,Onshore,Onshore,Onshore,Onshore,Onshore,Onshore,Onshore",11
5842041f4e65fad6a7708980,2024_02_17,37.09520872681598,-122.2805474707768,Waddell Creek,3,0.9527272727272728,1.1545454545454545,13,13,"CLEAR,CLEAR,CLEAR,NIGHT_CLEAR,NIGHT_CLEAR,NIGHT_CLEAR,NIGHT_OVERCAST,NIGHT_OVERCAST,NIGHT_OVERCAST,NIGHT_BRIEF_SHOWERS,NIGHT_OVERCAST","Onshore,Onshore,Cross-shore,Cross-shore,Cross-shore,Cross-shore,Cross-shore,Cross-shore,Cross-shore,Cross-shore,Cross-shore",11
5842041f4e65fad6a7708981,2024_02_17,36.96512852130351,-122.1252825495626,Four Mile,3,0.8009090909090909,1.0672727272727274,13,13,"CLEAR,CLEAR,CLEAR,NIGHT_CLEAR,NIGHT_CLEAR,NIGHT_CLEAR,NIGHT_CLEAR,NIGHT_CLOUDY,NIGHT_MIST,NIGHT_MIST,NIGHT_MIST","Onshore,Onshore,Onshore,Cross-shore,Offshore,Offshore,Cross-shore,Cross-shore,Cross-shore,Cross-shore,Cross-shore",11
5842041f4e65fad6a7708982,2024_02_17,37.04122807048655,-122.2333684729756,Scott Creek,3,0.9663636363636363,1.1663636363636363,13,13,"CLEAR,CLEAR,CLEAR,NIGHT_CLEAR,NIGHT_CLEAR,NIGHT_CLEAR,NIGHT_CLOUDY,NIGHT_OVERCAST,NIGHT_CLOUDY,NIGHT_DRIZZLE,NIGHT_OVERCAST","Onshore,Onshore,Cross-shore,Cross-shore,Offshore,Offshore,Cross-shore,Cross-shore,Cross-shore,Cross-shore,Offshore",11
5842041f4e65fad6a7708983,2024_02_17,37.02350229387179,-122.21908,Davenport,3,1.0254545454545454,1.2618181818181817,13,13,"CLEAR,CLEAR,CLEAR,NIGHT_CLEAR,NIGHT_CLEAR,NIGHT_CLEAR,NIGHT_CLOUDY,NIGHT_CLOUDY,NIGHT_OVERCAST,NIGHT_MOSTLY_CLOUDY,NIGHT_OVERCAST","Onshore,Onshore,Cross-shore,Cross-shore,Offshore,Offshore,Cross-shore,Cross-shore,Cross-shore,Cross-shore,Offshore",11
5842041f4e65fad6a7708986,2024_02_17,36.94905295955728,-122.0611823912244,Natural Bridges,3,0.8854545454545455,1.1018181818181818,13,13,"CLEAR,CLEAR,CLEAR,NIGHT_CLEAR,NIGHT_CLEAR,NIGHT_CLEAR,NIGHT_CLEAR,NIGHT_MIST,NIGHT_MIST,NIGHT_MIST,NIGHT_MIST","Onshore,Onshore,Onshore,Cross-shore,Cross-shore,Offshore,Cross-shore,Cross-shore,Cross-shore,Offshore,Offshore",11
5842041f4e65fad6a7708987,2024_02_17,36.95154854910425,-122.0420693940968,Mitchell's Cove,3,0.5618181818181819,0.8645454545454545,13,13,"CLEAR,CLEAR,CLEAR,NIGHT_MIST,NIGHT_CLEAR,NIGHT_CLEAR,NIGHT_MIST,NIGHT_MIST,NIGHT_OVERCAST,NIGHT_MOSTLY_CLOUDY,NIGHT_MIST","Onshore,Cross-shore,Onshore,Onshore,Onshore,Cross-shore,Onshore,Onshore,Onshore,Cross-shore,Cross-shore",11
5842041f4e65fad6a770898a,2024_02_17,36.9572312370203,-121.98177,26th Ave,3,0.9427272727272727,1.1272727272727272,13,13,"CLEAR,CLEAR,CLEAR,NIGHT_MIST,NIGHT_MOSTLY_CLOUDY,NIGHT_MOSTLY_CLOUDY,NIGHT_MOSTLY_CLOUDY,NIGHT_MIST,NIGHT_OVERCAST,NIGHT_MOSTLY_CLOUDY,NIGHT_MIST","Onshore,Onshore,Cross-shore,Offshore,Cross-shore,Offshore,Offshore,Cross-shore,Cross-shore,Offshore,Offshore",11
5842041f4e65fad6a770898e,2024_02_17,36.91899972819882,-121.85536,Manresa,3,1.01,1.2263636363636363,13,13,"CLEAR,CLEAR,CLEAR,NIGHT_CLEAR,NIGHT_CLEAR,NIGHT_MOSTLY_CLOUDY,NIGHT_MOSTLY_CLOUDY,NIGHT_MIST,NIGHT_MIST,NIGHT_MIST,NIGHT_CLEAR","Onshore,Onshore,Onshore,Offshore,Onshore,Cross-shore,Offshore,Cross-shore,Offshore,Offshore,Offshore",11
5842041f4e65fad6a7708990,2024_02_17,34.45747731928454,-120.34242,The Ranch,2.8181818181818183,0.3518181818181818,0.6581818181818182,14,14,"OVERCAST,CLEAR,CLEAR,NIGHT_CLEAR,NIGHT_CLEAR,NIGHT_CLEAR,NIGHT_CLEAR,NIGHT_CLEAR,NIGHT_CLEAR,NIGHT_CLEAR,NIGHT_CLEAR","Cross-shore,Cross-shore,Offshore,Offshore,Offshore,Offshore,Offshore,Offshore,Offshore,Offshore,Offshore",11
5842041f4e65fad6a7708991,2024_02_17,34.50875036590315,-120.50348,Jalama,3,0.8254545454545454,1.079090909090909,14,14,"CLEAR,CLEAR,CLEAR,NIGHT_CLEAR,NIGHT_CLEAR,NIGHT_CLEAR,NIGHT_CLEAR,NIGHT_CLEAR,NIGHT_CLEAR,NIGHT_CLEAR,NIGHT_CLEAR","Onshore,Onshore,Cross-shore,Cross-shore,Cross-shore,Offshore,Offshore,Offshore,Offshore,Offshore,Offshore",11
5842041f4e65fad6a7708996,2024_02_17,34.68700870220497,-120.6111611019887,Surf Beach,3,1.3536363636363637,1.6,14,14,"MIST,MIST,MIST,NIGHT_MIST,NIGHT_MIST,NIGHT_MIST,NIGHT_MIST,NIGHT_MIST,NIGHT_CLOUDY,NIGHT_OVERCAST,NIGHT_OVERCAST","Onshore,Onshore,Onshore,Onshore,Onshore,Onshore,Onshore,Cross-shore,Cross-shore,Offshore,Offshore",11
5842041f4e65fad6a770899c,2024_02_17,35.5730538161116,-121.1143362345574,Moonstone,3,0.9299999999999999,1.1763636363636363,14,14,"CLEAR,CLEAR,CLEAR,NIGHT_CLEAR,NIGHT_MIST,NIGHT_CLEAR,NIGHT_CLEAR,NIGHT_CLEAR,NIGHT_CLEAR,NIGHT_MOSTLY_CLOUDY,NIGHT_MOSTLY_CLOUDY","Onshore,Onshore,Onshore,Onshore,Onshore,Onshore,Offshore,Offshore,Offshore,Offshore,Offshore",11
5842041f4e65fad6a770899d,2024_02_17,35.61533716776573,-121.1502053073914,Pico Creek,3,0.8054545454545454,1.0545454545454545,14,14,"CLEAR,CLEAR,CLEAR,NIGHT_CLEAR,NIGHT_MIST,NIGHT_CLEAR,NIGHT_CLEAR,NIGHT_CLEAR,NIGHT_MIST,NIGHT_CLEAR,NIGHT_MOSTLY_CLOUDY","Onshore,Onshore,Onshore,Onshore,Onshore,Cross-shore,Onshore,Onshore,Offshore,Offshore,Offshore",11
5842041f4e65fad6a770899e,2024_02_17,35.56829031927379,-121.1120653023953,Santa Rosa Creek,3,0.9299999999999999,1.1763636363636363,14,14,"CLEAR,CLEAR,CLEAR,NIGHT_CLEAR,NIGHT_MIST,NIGHT_MOSTLY_CLOUDY,NIGHT_CLEAR,NIGHT_CLEAR,NIGHT_MIST,NIGHT_MOSTLY_CLOUDY,NIGHT_MOSTLY_CLOUDY","Onshore,Cross-shore,Cross-shore,Cross-shore,Onshore,Cross-shore,Cross-shore,Offshore,Offshore,Offshore,Offshore",11
5842041f4e65fad6a77089a2,2024_02_17,35.44820114936284,-120.90715,"Cayucos Pier, Southside ",2,0.3018181818181818,0.6090909090909091,14,14,"CLEAR,CLEAR,CLEAR,NIGHT_CLEAR,NIGHT_MIST,NIGHT_CLEAR,NIGHT_MOSTLY_CLOUDY,NIGHT_MOSTLY_CLOUDY,NIGHT_MIST,NIGHT_MIST,NIGHT_MIST","Cross-shore,Cross-shore,Cross-shore,Onshore,Onshore,Onshore,Cross-shore,Offshore,Offshore,Offshore,Offshore",11
5842041f4e65fad6a77089a4,2024_02_17,35.30143372628852,-120.877819239902,Cable Landing,3,1.3063636363636364,1.5354545454545454,14,14,"BRIEF_SHOWERS_POSSIBLE,BRIEF_SHOWERS_POSSIBLE,MIST,NIGHT_CLEAR,NIGHT_MIST,NIGHT_MOSTLY_CLOUDY,NIGHT_MOSTLY_CLOUDY,NIGHT_MOSTLY_CLOUDY,NIGHT_MIST,NIGHT_MIST,NIGHT_MIST","Onshore,Onshore,Onshore,Onshore,Onshore,Onshore,Onshore,Offshore,Offshore,Offshore,Offshore",11
5842041f4e65fad6a77089a9,2024_02_17,35.61269103500222,-121.1480725356606,San Simeon,2.8181818181818183,0.602,0.7649090909090909,14,14,"CLEAR,CLEAR,CLEAR,NIGHT_CLEAR,NIGHT_MIST,NIGHT_CLEAR,NIGHT_CLEAR,NIGHT_MOSTLY_CLOUDY,NIGHT_CLOUDY,NIGHT_MOSTLY_CLOUDY,NIGHT_MOSTLY_CLOUDY","Onshore,Cross-shore,Cross-shore,Cross-shore,Cross-shore,Cross-shore,Cross-shore,Cross-shore,Offshore,Offshore,Offshore",11
5842041f4e65fad6a77089ab,2024_02_17,35.1775325966252,-120.7341125142258,Avila Beach,2,0.022727272727272728,0.3281818181818182,14,14,"CLEAR,CLEAR,CLEAR,NIGHT_CLEAR,NIGHT_CLEAR,NIGHT_CLEAR,NIGHT_CLEAR,NIGHT_CLEAR,NIGHT_CLEAR,NIGHT_MOSTLY_CLOUDY,NIGHT_MOSTLY_CLOUDY","Onshore,Onshore,Offshore,Offshore,Offshore,Offshore,Offshore,Offshore,Offshore,Offshore,Offshore",11
5842041f4e65fad6a77089ac,2024_02_17,35.13877877884115,-120.64535,Pismo Beach Pier,3,0.7709636363636364,1.1357878787878788,14,14,"CLEAR,CLEAR,CLEAR,NIGHT_CLEAR,NIGHT_CLEAR,NIGHT_CLEAR,NIGHT_MIST,NIGHT_MIST,NIGHT_MOSTLY_CLOUDY,NIGHT_MOSTLY_CLOUDY,NIGHT_MOSTLY_CLOUDY","Cross-shore,Cross-shore,Cross-shore,Onshore,Cross-shore,Offshore,Cross-shore,Cross-shore,Cross-shore,Cross-shore,Cross-shore",11
5842041f4e65fad6a77089ad,2024_02_17,46.8907710233147,-124.12964,Westport/Olympic Peninsula,2.1818181818181817,1.3145454545454545,1.6409090909090909,10,10,"CLEAR,CLEAR,CLOUDY,NIGHT_CLEAR,NIGHT_CLEAR,NIGHT_CLEAR,NIGHT_CLEAR,NIGHT_CLEAR,NIGHT_CLEAR,NIGHT_CLEAR,NIGHT_CLEAR","Offshore,Offshore,Offshore,Offshore,Offshore,Offshore,Offshore,Offshore,Offshore,Offshore,Offshore",11
5842041f4e65fad6a77089ae,2024_02_17,46.35185177248545,-124.06747,Long Beach Peninsula,2.4545454545454546,1.6,1.940909090909091,10,10,"CLEAR,CLEAR,CLEAR,NIGHT_CLEAR,NIGHT_CLEAR,NIGHT_CLEAR,NIGHT_CLEAR,NIGHT_CLEAR,NIGHT_CLEAR,NIGHT_CLEAR,NIGHT_CLEAR","Offshore,Offshore,Offshore,Offshore,Offshore,Offshore,Offshore,Offshore,Offshore,Offshore,Offshore",11
5842041f4e65fad6a77089af,2024_02_17,47.90649175554033,-124.6370864743483,La Push,3.4545454545454546,1.23,1.5236363636363637,9,9,"CLEAR,CLEAR,CLEAR,NIGHT_CLEAR,NIGHT_CLEAR,NIGHT_CLEAR,NIGHT_CLEAR,NIGHT_CLEAR,NIGHT_CLEAR,NIGHT_CLEAR,NIGHT_CLEAR","Offshore,Offshore,Offshore,Offshore,Offshore,Offshore,Offshore,Offshore,Offshore,Offshore,Offshore",11
5842041f4e65fad6a77089b0,2024_02_17,42.04368239985442,-124.26828,Brookings Jetty,3,1.597229090909091,2.49567,11,11,"CLOUDY,CLOUDY,CLOUDY,NIGHT_CLEAR,NIGHT_CLEAR,NIGHT_OVERCAST,NIGHT_OVERCAST,NIGHT_OVERCAST,NIGHT_OVERCAST,NIGHT_CLOUDY,NIGHT_OVERCAST","Onshore,Cross-shore,Cross-shore,Cross-shore,Cross-shore,Cross-shore,Offshore,Offshore,Cross-shore,Cross-shore,Onshore",11
5842041f4e65fad6a77089b1,2024_02_17,42.74071837900346,-124.4983727491047,Port Orford,1.9090909090909092,2.6818181818181817,3.062727272727273,12,12,"CLEAR,CLEAR,CLOUDY,NIGHT_CLEAR,NIGHT_CLEAR,NIGHT_CLOUDY,NIGHT_OVERCAST,NIGHT_OVERCAST,NIGHT_CLOUDY,NIGHT_CLOUDY,NIGHT_LIGHT_SHOWERS_POSSIBLE","Onshore,Onshore,Onshore,Onshore,Onshore,Onshore,Onshore,Onshore,Onshore,Onshore,Onshore",11
5842041f4e65fad6a77089b2,2024_02_17,44.01532689312291,-124.13865,Florence South Jetty,3.4545454545454546,2.2827272727272727,2.688181818181818,11,11,"CLEAR,CLEAR,CLEAR,NIGHT_CLEAR,NIGHT_CLEAR,NIGHT_CLEAR,NIGHT_CLEAR,NIGHT_OVERCAST,NIGHT_CLEAR,NIGHT_CLEAR,NIGHT_CLEAR","Offshore,Offshore,Offshore,Offshore,Offshore,Offshore,Offshore,Offshore,Offshore,Offshore,Offshore",11
5842041f4e65fad6a77089b3,2024_02_17,42.41812540774362,-124.42945,Gold Beach South Jetty,1.7272727272727273,3.090909090909091,3.6054545454545455,12,12,"CLEAR,CLEAR,CLEAR,NIGHT_CLEAR,NIGHT_CLEAR,NIGHT_CLEAR,NIGHT_OVERCAST,NIGHT_OVERCAST,NIGHT_CLEAR,NIGHT_CLOUDY,NIGHT_CLEAR","Onshore,Onshore,Onshore,Onshore,Onshore,Onshore,Onshore,Onshore,Onshore,Onshore,Onshore",11
5842041f4e65fad6a77089b4,2024_02_17,44.95857310226525,-124.0219017690976,Lincoln City,3.727272727272727,1.6745454545454546,2.018181818181818,11,11,"CLEAR,CLEAR,CLEAR,NIGHT_CLEAR,NIGHT_CLEAR,NIGHT_CLOUDY,NIGHT_CLOUDY,NIGHT_CLEAR,NIGHT_CLEAR,NIGHT_CLEAR,NIGHT_CLEAR","Offshore,Offshore,Offshore,Offshore,Offshore,Offshore,Offshore,Offshore,Offshore,Offshore,Offshore",11
5842041f4e65fad6a77089b5,2024_02_17,44.63792761362982,-124.0657,Newport,3,2.227272727272727,2.669090909090909,11,11,"CLEAR,CLEAR,CLEAR,NIGHT_CLEAR,NIGHT_CLOUDY,NIGHT_CLEAR,NIGHT_CLEAR,NIGHT_BRIEF_SHOWERS_POSSIBLE,NIGHT_CLEAR,NIGHT_MOSTLY_CLOUDY,NIGHT_CLEAR","Offshore,Offshore,Offshore,Offshore,Offshore,Offshore,Offshore,Offshore,Offshore,Offshore,Offshore",11
5842041f4e65fad6a77089b6,2024_02_17,45.61468496266301,-123.94643,Rockaway Beach,2.727272727272727,1.7272727272727273,2.0927272727272728,11,11,"CLEAR,CLEAR,CLEAR,NIGHT_CLEAR,NIGHT_CLEAR,NIGHT_CLOUDY,NIGHT_CLOUDY,NIGHT_CLEAR,NIGHT_CLEAR,NIGHT_CLEAR,NIGHT_CLEAR","Offshore,Offshore,Offshore,Offshore,Offshore,Offshore,Offshore,Offshore,Offshore,Offshore,Offshore",11
5842041f4e65fad6a77089b7,2024_02_17,45.20252914186085,-123.96975,Pacific City,3,1.7563636363636363,2.0827272727272725,11,11,"CLEAR,CLEAR,CLOUDY,NIGHT_CLEAR,NIGHT_CLEAR,NIGHT_CLEAR,NIGHT_CLEAR,NIGHT_CLEAR,NIGHT_CLEAR,NIGHT_CLEAR,NIGHT_CLOUDY","Offshore,Offshore,Offshore,Offshore,Offshore,Offshore,Offshore,Offshore,Offshore,Offshore,Offshore",11
5842041f4e65fad6a77089b8,2024_02_17,45.88179930310263,-123.96681,Cannon Beach,1.8181818181818181,1.6618181818181819,2.0054545454545454,10,10,"CLEAR,CLEAR,CLOUDY,NIGHT_CLEAR,NIGHT_CLEAR,NIGHT_CLEAR,NIGHT_CLEAR,NIGHT_CLEAR,NIGHT_CLEAR,NIGHT_CLEAR,NIGHT_CLEAR","Offshore,Offshore,Offshore,Offshore,Offshore,Offshore,Offshore,Offshore,Offshore,Offshore,Offshore",11
5842041f4e65fad6a77089ba,2024_02_17,40.02528754746774,-124.06372,Shelter Cove,1.8181818181818181,0.8556663636363636,1.3369790909090908,12,12,"CLEAR,CLEAR,CLEAR,NIGHT_CLEAR,NIGHT_CLOUDY,NIGHT_CLEAR,NIGHT_MOSTLY_CLEAR,NIGHT_CLOUDY,NIGHT_OVERCAST,NIGHT_CLOUDY,NIGHT_LIGHT_RAIN","Onshore,Onshore,Onshore,Onshore,Onshore,Onshore,Onshore,Onshore,Onshore,Onshore,Onshore",11
5842041f4e65fad6a77089bb,2024_02_17,40.76816197136951,-124.24248,Humboldt Harbor Entrance,2.4545454545454546,1.929090909090909,2.299090909090909,12,12,"CLEAR,CLEAR,OVERCAST,NIGHT_CLOUDY,NIGHT_OVERCAST,NIGHT_CLEAR,NIGHT_CLOUDY,NIGHT_OVERCAST,NIGHT_MOSTLY_CLOUDY,NIGHT_MOSTLY_CLOUDY,NIGHT_LIGHT_RAIN","Onshore,Cross-shore,Cross-shore,Cross-shore,Cross-shore,Cross-shore,Offshore,Offshore,Cross-shore,Cross-shore,Cross-shore",11
5842041f4e65fad6a77089bc,2024_02_17,40.76684246920174,-124.23107,North Jetty,3,1.6263636363636365,1.9663636363636363,12,12,"CLEAR,CLEAR,CLEAR,NIGHT_CLOUDY,NIGHT_CLEAR,NIGHT_CLEAR,NIGHT_CLEAR,NIGHT_CLOUDY,NIGHT_MOSTLY_CLOUDY,NIGHT_MOSTLY_CLOUDY,NIGHT_LIGHT_SHOWERS_POSSIBLE","Cross-shore,Cross-shore,Cross-shore,Cross-shore,Cross-shore,Cross-shore,Offshore,Offshore,Offshore,Cross-shore,Cross-shore",11
5842041f4e65fad6a77089bd,2024_02_17,41.02731183893966,-124.1149972888982,Westhaven,2.909090909090909,2.3163636363636364,2.7427272727272727,12,12,"CLOUDY,CLEAR,CLEAR,NIGHT_CLEAR,NIGHT_CLEAR,NIGHT_CLEAR,NIGHT_CLEAR,NIGHT_OVERCAST,NIGHT_OVERCAST,NIGHT_OVERCAST,NIGHT_CLOUDY","Onshore,Cross-shore,Cross-shore,Offshore,Offshore,Cross-shore,Cross-shore,Cross-shore,Cross-shore,Cross-shore,Cross-shore",11
5842041f4e65fad6a77089be,2024_02_17,41.13016238153297,-124.16466,Sue-meg,3,2.2636363636363637,2.6654545454545455,12,12,"CLEAR,CLEAR,CLEAR,NIGHT_CLEAR,NIGHT_CLEAR,NIGHT_CLOUDY,NIGHT_CLEAR,NIGHT_CLOUDY,NIGHT_CLEAR,NIGHT_OVERCAST,NIGHT_CLOUDY","Cross-shore,Cross-shore,Cross-shore,Offshore,Cross-shore,Cross-shore,Offshore,Offshore,Offshore,Cross-shore,Offshore",11
5842041f4e65fad6a77089bf,2024_02_17,37.8289474958188,-122.5376795097543,Fort Cronkite/Rodeo Beach,3,1.0618181818181818,1.3427272727272728,13,13,"CLEAR,CLEAR,CLEAR,NIGHT_CLEAR,NIGHT_CLEAR,NIGHT_CLEAR,NIGHT_CLEAR,NIGHT_CLEAR,NIGHT_CLEAR,NIGHT_OVERCAST,NIGHT_CLEAR","Cross-shore,Onshore,Onshore,Offshore,Onshore,Onshore,Cross-shore,Onshore,Cross-shore,Onshore,Cross-shore",11
5842041f4e65fad6a77089c0,2024_02_17,41.74415759876137,-124.17717,South Beach CA,2.4545454545454546,2.4836363636363634,2.8718181818181816,12,12,"CLEAR,CLEAR,CLEAR,NIGHT_CLEAR,NIGHT_CLEAR,NIGHT_CLOUDY,NIGHT_CLOUDY,NIGHT_CLOUDY,NIGHT_DRIZZLE,NIGHT_OVERCAST,NIGHT_OVERCAST","Onshore,Onshore,Onshore,Offshore,Onshore,Onshore,Onshore,Onshore,Onshore,Onshore,Onshore",11
5842041f4e65fad6a77089c1,2024_02_17,37.89801283969752,-122.64519,Stinson Beach,3,0.4209090909090909,0.7254545454545455,13,13,"CLEAR,CLEAR,CLEAR,NIGHT_CLEAR,NIGHT_MIST,NIGHT_CLEAR,NIGHT_CLEAR,NIGHT_CLEAR,NIGHT_CLOUDY,NIGHT_OVERCAST,NIGHT_LIGHT_RAIN","Onshore,Onshore,Onshore,Onshore,Onshore,Onshore,Onshore,Onshore,Onshore,Onshore,Onshore",11
5842041f4e65fad6a77089c2,2024_02_17,37.90514516176495,-122.68151,Bolinas,3,0.47666636363636367,0.74479,13,13,"CLEAR,CLEAR,CLEAR,NIGHT_CLEAR,NIGHT_CLEAR,NIGHT_CLEAR,NIGHT_CLEAR,NIGHT_OVERCAST,NIGHT_OVERCAST,NIGHT_LIGHT_RAIN,NIGHT_LIGHT_RAIN","Cross-shore,Onshore,Cross-shore,Onshore,Offshore,Onshore,Onshore,Onshore,Onshore,Cross-shore,Cross-shore",11
5842041f4e65fad6a77089c3,2024_02_17,38.04892513158693,-122.9892494965416,Point Reyes (north),4,1.3809090909090909,1.6,13,13,"CLEAR,CLEAR,CLEAR,NIGHT_MOSTLY_CLOUDY,NIGHT_CLEAR,NIGHT_CLEAR,NIGHT_CLEAR,NIGHT_OVERCAST,NIGHT_MOSTLY_CLOUDY,NIGHT_CLOUDY,NIGHT_CLEAR","Offshore,Offshore,Offshore,Offshore,Offshore,Offshore,Offshore,Offshore,Offshore,Offshore,Offshore",11
5842041f4e65fad6a77089c6,2024_02_17,38.31088736605785,-123.0496777333731,Doran Beach,1.4545454545454546,0.1790909090909091,0.48454545454545456,13,13,"CLEAR,CLEAR,CLEAR,NIGHT_CLEAR,NIGHT_CLEAR,NIGHT_CLEAR,NIGHT_OVERCAST,NIGHT_CLOUDY,NIGHT_MOSTLY_CLOUDY,NIGHT_CLOUDY,NIGHT_OVERCAST","Onshore,Onshore,Onshore,Onshore,Onshore,Onshore,Onshore,Onshore,Onshore,Onshore,Onshore",11
5842041f4e65fad6a77089c7,2024_02_17,38.45077228660809,-123.13008,Russian Rivermouth,3,1.1654545454545455,1.4536363636363636,13,13,"CLEAR,CLEAR,CLEAR,NIGHT_CLEAR,NIGHT_CLEAR,NIGHT_CLEAR,NIGHT_MOSTLY_CLOUDY,NIGHT_OVERCAST,NIGHT_LIGHT_RAIN,NIGHT_OVERCAST,NIGHT_OVERCAST","Cross-shore,Cross-shore,Cross-shore,Offshore,Cross-shore,Offshore,Offshore,Cross-shore,Cross-shore,Offshore,Offshore",11
5842041f4e65fad6a77089c8,2024_02_17,38.35329968518107,-123.06906,Salmon Creek,3,1.14,1.4054545454545455,13,13,"CLEAR,CLEAR,CLEAR,NIGHT_CLEAR,NIGHT_CLOUDY,NIGHT_CLEAR,NIGHT_CLOUDY,NIGHT_OVERCAST,NIGHT_DRIZZLE,NIGHT_CLOUDY,NIGHT_CLOUDY","Cross-shore,Offshore,Offshore,Offshore,Offshore,Offshore,Offshore,Offshore,Offshore,Offshore,Offshore",11
5842041f4e65fad6a77089c9,2024_02_17,38.6845180197959,-123.4322714291198,Black Point Beach,3.5454545454545454,1.259090909090909,1.5281818181818183,12,12,"CLEAR,CLEAR,CLEAR,NIGHT_CLEAR,NIGHT_CLEAR,NIGHT_OVERCAST,NIGHT_CLEAR,NIGHT_CLOUDY,NIGHT_MOSTLY_CLOUDY,NIGHT_CLOUDY,NIGHT_OVERCAST","Offshore,Offshore,Offshore,Offshore,Offshore,Offshore,Offshore,Offshore,Offshore,Offshore,Offshore",11
5842041f4e65fad6a77089ca,2024_02_17,43.251076,-70.59144,Ogunquit,0.6209090909090909,0,0.18556363636363638,4,3,"NIGHT_CLEAR,NIGHT_CLEAR,NIGHT_CLEAR,NIGHT_CLEAR,NIGHT_CLEAR,NIGHT_CLEAR,NIGHT_CLEAR,NIGHT_CLEAR,NIGHT_CLEAR,NIGHT_CLEAR,NIGHT_CLEAR","Offshore,Offshore,Offshore,Offshore,Offshore,Offshore,Offshore,Offshore,Offshore,Offshore,Offshore",11
5842041f4e65fad6a77089cb,2024_02_17,41.362631366305415,-71.48006772942608,Point Judith,0.8181818181818182,0,0.21340606060606063,5,4,"NIGHT_CLEAR,NIGHT_CLEAR,NIGHT_CLEAR,NIGHT_CLEAR,NIGHT_CLEAR,NIGHT_CLEAR,NIGHT_CLEAR,NIGHT_CLEAR,NIGHT_CLEAR,NIGHT_CLEAR,NIGHT_CLEAR","Offshore,Offshore,Offshore,Offshore,Offshore,Offshore,Offshore,Offshore,Offshore,Offshore,Offshore",11
5842041f4e65fad6a77089cd,2024_02_17,41.422678090954726,-71.45413,Monahan's - Narragansett,0,0.017354545454545456,0.027116363636363636,5,5,"NIGHT_CLEAR,NIGHT_CLEAR,NIGHT_CLEAR,NIGHT_CLEAR,NIGHT_CLEAR,NIGHT_CLEAR,NIGHT_CLEAR,NIGHT_CLEAR,NIGHT_CLEAR,NIGHT_CLEAR,NIGHT_CLEAR","Offshore,Offshore,Offshore,Offshore,Offshore,Offshore,Offshore,Offshore,Offshore,Offshore,Offshore",11
5842041f4e65fad6a77089ce,2024_02_17,41.469,-71.293,Ruggles - Newport,1.0909090909090908,0.33979454545454546,0.5309272727272727,5,5,"NIGHT_CLEAR,NIGHT_CLEAR,NIGHT_CLEAR,NIGHT_CLEAR,NIGHT_CLEAR,NIGHT_CLEAR,NIGHT_CLEAR,NIGHT_CLEAR,NIGHT_CLEAR,NIGHT_CLEAR,NIGHT_CLEAR","Cross-shore,Cross-shore,Offshore,Offshore,Offshore,Offshore,Offshore,Offshore,Offshore,Offshore,Cross-shore",11
5842041f4e65fad6a77089cf,2024_02_17,43.175394,-70.606351,Short Sands Beach,0,0,0.13,4,4,"NIGHT_CLEAR,NIGHT_CLEAR,NIGHT_CLEAR,NIGHT_CLEAR,NIGHT_CLEAR,NIGHT_CLEAR,NIGHT_CLEAR,NIGHT_CLEAR,NIGHT_CLEAR,NIGHT_CLEAR,NIGHT_CLEAR","Offshore,Offshore,Offshore,Offshore,Offshore,Offshore,Offshore,Offshore,Offshore,Offshore,Offshore",11
5842041f4e65fad6a77089d0,2024_02_17,41.487408,-71.29017,First Beach,1,0,0.2081818181818182,5,5,"NIGHT_CLEAR,NIGHT_CLEAR,NIGHT_CLEAR,NIGHT_CLEAR,NIGHT_CLEAR,NIGHT_CLEAR,NIGHT_CLEAR,NIGHT_CLEAR,NIGHT_CLEAR,NIGHT_CLEAR,NIGHT_CLEAR","Offshore,Offshore,Offshore,Offshore,Offshore,Offshore,Offshore,Offshore,Offshore,Offshore,Cross-shore",11
5842041f4e65fad6a77089d1,2024_02_17,42.27916830233153,-70.86498,Nantasket Beach,0.6209090909090909,0,0.1867757575757576,4,3,"NIGHT_CLEAR,NIGHT_CLEAR,NIGHT_CLEAR,NIGHT_CLEAR,NIGHT_CLEAR,NIGHT_CLEAR,NIGHT_CLEAR,NIGHT_CLEAR,NIGHT_CLEAR,NIGHT_CLEAR,NIGHT_CLEAR","Cross-shore,Cross-shore,Cross-shore,Cross-shore,Cross-shore,Cross-shore,Cross-shore,Cross-shore,Cross-shore,Cross-shore,Offshore",11
5842041f4e65fad6a77089d2,2024_02_17,41.817,-69.935,Cape Cod,2,0.45545454545454545,0.76,4,4,"NIGHT_CLEAR,NIGHT_CLEAR,NIGHT_CLEAR,NIGHT_CLEAR,NIGHT_CLEAR,NIGHT_CLEAR,NIGHT_CLEAR,NIGHT_CLEAR,NIGHT_CLEAR,NIGHT_CLEAR,NIGHT_CLEAR","Offshore,Offshore,Offshore,Offshore,Offshore,Offshore,Offshore,Offshore,Offshore,Offshore,Offshore",11
5842041f4e65fad6a77089d3,2024_02_17,42.22055448975661,-70.70634873403819,Egypt Beach,1,0.03272727272727273,0.32636363636363636,4,4,"NIGHT_CLEAR,NIGHT_CLEAR,NIGHT_CLEAR,NIGHT_CLEAR,NIGHT_CLEAR,NIGHT_CLEAR,NIGHT_CLEAR,NIGHT_CLEAR,NIGHT_CLEAR,NIGHT_CLEAR,NIGHT_CLEAR","Offshore,Offshore,Offshore,Offshore,Offshore,Offshore,Offshore,Offshore,Offshore,Offshore,Offshore",11
5842041f4e65fad6a77089d4,2024_02_17,41.48739647744607,-71.25723,Second Beach,0.9845454545454545,0.1550460606060606,0.3069133333333333,5,4,"NIGHT_CLEAR,NIGHT_CLEAR,NIGHT_CLEAR,NIGHT_CLEAR,NIGHT_CLEAR,NIGHT_CLEAR,NIGHT_CLEAR,NIGHT_CLEAR,NIGHT_CLEAR,NIGHT_CLEAR,NIGHT_CLEAR","Cross-shore,Cross-shore,Cross-shore,Cross-shore,Cross-shore,Cross-shore,Cross-shore,Cross-shore,Cross-shore,Offshore,Cross-shore",11
5842041f4e65fad6a77089d5,2024_02_17,42.964,-70.769,Fox Hill,0.4390909090909091,0,0.14556363636363637,4,3,"NIGHT_CLEAR,NIGHT_CLEAR,NIGHT_CLEAR,NIGHT_CLEAR,NIGHT_CLEAR,NIGHT_CLEAR,NIGHT_CLEAR,NIGHT_CLEAR,NIGHT_CLEAR,NIGHT_CLEAR,NIGHT_CLEAR","Offshore,Offshore,Offshore,Offshore,Offshore,Offshore,Offshore,Offshore,Offshore,Offshore,Offshore",11
5842041f4e65fad6a77089d6,2024_02_17,42.991359,-70.75149,Straws Point,0.4390909090909091,-0.002575757575757576,0.15904848484848486,4,3,"NIGHT_CLEAR,NIGHT_CLEAR,NIGHT_CLEAR,NIGHT_CLEAR,NIGHT_CLEAR,NIGHT_CLEAR,NIGHT_CLEAR,NIGHT_CLEAR,NIGHT_CLEAR,NIGHT_CLEAR,NIGHT_CLEAR","Offshore,Offshore,Offshore,Offshore,Offshore,Offshore,Offshore,Offshore,Offshore,Offshore,Offshore",11
5842041f4e65fad6a77089d7,2024_02_17,42.946,-70.786,Plaice Cove,0.4390909090909091,0,0.14556363636363637,4,3,"NIGHT_CLEAR,NIGHT_CLEAR,NIGHT_CLEAR,NIGHT_CLEAR,NIGHT_CLEAR,NIGHT_CLEAR,NIGHT_CLEAR,NIGHT_CLEAR,NIGHT_CLEAR,NIGHT_CLEAR,NIGHT_CLEAR","Offshore,Offshore,Offshore,Offshore,Offshore,Offshore,Offshore,Offshore,Offshore,Offshore,Offshore",11
5842041f4e65fad6a77089d9,2024_02_17,42.911574,-70.80831,The Main Beach,0.6663636363636364,0.04381181818181818,0.1573585606060606,4,3,"NIGHT_CLEAR,NIGHT_CLEAR,NIGHT_CLEAR,NIGHT_CLEAR,NIGHT_CLEAR,NIGHT_CLEAR,NIGHT_CLEAR,NIGHT_CLEAR,NIGHT_CLEAR,NIGHT_CLEAR,NIGHT_CLEAR","Offshore,Offshore,Offshore,Offshore,Offshore,Offshore,Offshore,Offshore,Offshore,Offshore,Offshore",11
5842041f4e65fad6a77089da,2024_02_17,42.97583846220203,-70.764,Sawyer's Beach,0.3481818181818182,0,0.1329878787878788,4,3,"NIGHT_CLEAR,NIGHT_CLEAR,NIGHT_CLEAR,NIGHT_CLEAR,NIGHT_CLEAR,NIGHT_CLEAR,NIGHT_CLEAR,NIGHT_CLEAR,NIGHT_CLEAR,NIGHT_CLEAR,NIGHT_CLEAR","Offshore,Offshore,Offshore,Offshore,Offshore,Offshore,Offshore,Offshore,Offshore,Offshore,Offshore",11
5842041f4e65fad6a77089db,2024_02_17,42.97,-70.77,Rye on the Rocks / 5-0's,0.6663636363636364,0.07016666666666667,0.179427196969697,4,3,"NIGHT_CLEAR,NIGHT_CLEAR,NIGHT_CLEAR,NIGHT_CLEAR,NIGHT_CLEAR,NIGHT_CLEAR,NIGHT_CLEAR,NIGHT_CLEAR,NIGHT_CLEAR,NIGHT_CLEAR,NIGHT_CLEAR","Offshore,Offshore,Offshore,Offshore,Offshore,Offshore,Offshore,Offshore,Offshore,Offshore,Offshore",11
5842041f4e65fad6a77089dc,2024_02_17,43.55902946610303,-70.27795,Higgins Beach,0.9090909090909091,0,0.22636060606060607,4,3,"NIGHT_CLEAR,NIGHT_CLEAR,NIGHT_CLEAR,NIGHT_CLEAR,NIGHT_CLEAR,NIGHT_CLEAR,NIGHT_CLEAR,NIGHT_CLEAR,NIGHT_CLEAR,NIGHT_CLEAR,NIGHT_CLEAR","Offshore,Offshore,Offshore,Offshore,Offshore,Offshore,Cross-shore,Cross-shore,Offshore,Offshore,Offshore",11
5842041f4e65fad6a77089dd,2024_02_17,43.302676,-70.5652,Wells Beach,0.2727272727272727,0,0.14177575757575758,4,3,"NIGHT_CLEAR,NIGHT_CLEAR,NIGHT_CLEAR,NIGHT_CLEAR,NIGHT_CLEAR,NIGHT_CLEAR,NIGHT_CLEAR,NIGHT_CLEAR,NIGHT_CLEAR,NIGHT_CLEAR,NIGHT_CLEAR","Offshore,Offshore,Offshore,Offshore,Offshore,Offshore,Offshore,Offshore,Offshore,Offshore,Offshore",11
5842041f4e65fad6a77089de,2024_02_17,43.545359,-70.30479,Scarborough Beach State Park,0.9845454545454545,0.08343242424242424,0.1950181818181818,4,3,"NIGHT_CLEAR,NIGHT_CLEAR,NIGHT_CLEAR,NIGHT_CLEAR,NIGHT_CLEAR,NIGHT_CLEAR,NIGHT_CLEAR,NIGHT_CLEAR,NIGHT_CLEAR,NIGHT_CLEAR,NIGHT_CLEAR","Offshore,Offshore,Offshore,Offshore,Offshore,Offshore,Offshore,Offshore,Offshore,Offshore,Offshore",11
5842041f4e65fad6a77089df,2024_02_17,43.514481,-70.372146,Old Orchard Beach,0.3336363636363636,0,0.1001878787878788,4,3,"NIGHT_CLEAR,NIGHT_CLEAR,NIGHT_CLEAR,NIGHT_CLEAR,NIGHT_CLEAR,NIGHT_CLEAR,NIGHT_CLEAR,NIGHT_CLEAR,NIGHT_CLEAR,NIGHT_CLEAR,NIGHT_CLEAR","Offshore,Offshore,Offshore,Offshore,Offshore,Offshore,Offshore,Offshore,Offshore,Offshore,Offshore",11
5842041f4e65fad6a77089e0,2024_02_17,43.34711,-70.48165,Gooch's Beach,0.3481818181818182,0,0.13616969696969697,4,3,"NIGHT_CLEAR,NIGHT_CLEAR,NIGHT_CLEAR,NIGHT_CLEAR,NIGHT_CLEAR,NIGHT_CLEAR,NIGHT_CLEAR,NIGHT_CLEAR,NIGHT_CLEAR,NIGHT_CLEAR,NIGHT_CLEAR","Offshore,Cross-shore,Cross-shore,Offshore,Cross-shore,Cross-shore,Cross-shore,Cross-shore,Cross-shore,Cross-shore,Offshore",11
5842041f4e65fad6a77089e2,2024_02_17,40.58433,-73.62953,Lido Beach,0.6663636363636364,-0.02265151515151516,0.2837848484848485,5,4,"NIGHT_CLEAR,NIGHT_CLEAR,NIGHT_CLEAR,NIGHT_CLEAR,NIGHT_CLEAR,NIGHT_CLEAR,NIGHT_CLEAR,NIGHT_CLEAR,NIGHT_BRIEF_SNOW_SHOWERS,NIGHT_BRIEF_SNOW_SHOWERS,NIGHT_BRIEF_SNOW_SHOWERS","Onshore,Cross-shore,Offshore,Offshore,Cross-shore,Offshore,Offshore,Onshore,Offshore,Offshore,Offshore",11
5842041f4e65fad6a77089e3,2024_02_17,43.163135,-70.61689,Long Sands Beach,0.16636363636363635,0.034244848484848475,0.14240977272727273,4,3,"NIGHT_CLEAR,NIGHT_CLEAR,NIGHT_CLEAR,NIGHT_CLEAR,NIGHT_CLEAR,NIGHT_CLEAR,NIGHT_CLEAR,NIGHT_CLEAR,NIGHT_CLEAR,NIGHT_CLEAR,NIGHT_CLEAR","Offshore,Offshore,Offshore,Offshore,Offshore,Offshore,Offshore,Offshore,Offshore,Offshore,Offshore",11
5842041f4e65fad6a77089e4,2024_02_17,40.61695351251805,-73.39376,Gilgo Beach,0.9845454545454545,0.04727272727272727,0.35283636363636367,5,4,"NIGHT_CLEAR,NIGHT_CLEAR,NIGHT_CLEAR,NIGHT_CLEAR,NIGHT_CLEAR,NIGHT_CLEAR,NIGHT_CLEAR,NIGHT_CLEAR,NIGHT_BRIEF_SNOW_SHOWERS,NIGHT_BRIEF_SNOW_SHOWERS,NIGHT_BRIEF_SNOW_SHOWERS","Offshore,Offshore,Offshore,Offshore,Offshore,Offshore,Offshore,Cross-shore,Offshore,Offshore,Offshore",11
5842041f4e65fad6a77089e5,2024_02_17,40.62530081928036,-73.23827,Robert Moses,1,0.03636363636363636,0.33,5,5,"NIGHT_CLEAR,NIGHT_CLEAR,NIGHT_CLEAR,NIGHT_CLEAR,NIGHT_CLEAR,NIGHT_CLEAR,NIGHT_CLEAR,NIGHT_CLEAR,NIGHT_BRIEF_SNOW_FLURRIES,NIGHT_BRIEF_SNOW_SHOWERS,NIGHT_BRIEF_SNOW_SHOWERS","Offshore,Offshore,Offshore,Offshore,Offshore,Offshore,Cross-shore,Cross-shore,Offshore,Cross-shore,Cross-shore",11
5842041f4e65fad6a77089e6,2024_02_17,40.64313317632791,-73.15727,Fire Island,1,0.05545454545454546,0.3572727272727273,5,5,"NIGHT_CLEAR,NIGHT_CLEAR,NIGHT_CLEAR,NIGHT_CLEAR,NIGHT_CLEAR,NIGHT_CLEAR,NIGHT_CLEAR,NIGHT_CLEAR,NIGHT_BRIEF_SNOW_FLURRIES,NIGHT_BRIEF_SNOW_SHOWERS,NIGHT_BRIEF_SNOW_SHOWERS","Offshore,Offshore,Offshore,Offshore,Offshore,Offshore,Cross-shore,Cross-shore,Offshore,Cross-shore,Cross-shore",11
5842041f4e65fad6a77089e8,2024_02_17,40.76653118828782,-72.74579619372713,Cupsogue,2,0.2181818181818182,0.5218181818181818,5,5,"NIGHT_CLEAR,NIGHT_CLEAR,NIGHT_CLEAR,NIGHT_CLEAR,NIGHT_CLEAR,NIGHT_CLEAR,NIGHT_CLEAR,NIGHT_CLEAR,NIGHT_CLEAR,NIGHT_BRIEF_SNOW_SHOWERS,NIGHT_BRIEF_SNOW_SHOWERS","Offshore,Offshore,Offshore,Offshore,Offshore,Offshore,Offshore,Offshore,Offshore,Offshore,Cross-shore",11
5842041f4e65fad6a77089e9,2024_02_17,42.9376373334092,-70.79141,The Wall ,0.6663636363636364,0.051027196969696965,0.16863325757575756,4,3,"NIGHT_CLEAR,NIGHT_CLEAR,NIGHT_CLEAR,NIGHT_CLEAR,NIGHT_CLEAR,NIGHT_CLEAR,NIGHT_CLEAR,NIGHT_CLEAR,NIGHT_CLEAR,NIGHT_CLEAR,NIGHT_CLEAR","Offshore,Offshore,Offshore,Offshore,Offshore,Offshore,Offshore,Offshore,Offshore,Offshore,Offshore",11
5842041f4e65fad6a77089ea,2024_02_17,40.887088,-72.33856,Flys,1.6363636363636365,0.19363636363636363,0.5,5,5,"NIGHT_CLEAR,NIGHT_CLEAR,NIGHT_CLEAR,NIGHT_CLEAR,NIGHT_CLEAR,NIGHT_CLEAR,NIGHT_CLEAR,NIGHT_CLEAR,NIGHT_CLEAR,NIGHT_BRIEF_SNOW_FLURRIES,NIGHT_BRIEF_SNOW_SHOWERS","Cross-shore,Offshore,Offshore,Offshore,Offshore,Offshore,Offshore,Offshore,Offshore,Offshore,Offshore",11
5842041f4e65fad6a77089eb,2024_02_17,41.0389266436591,-71.91068529316958,Trailer Park,0.9545454545454546,0.43180575757575757,0.6244456060606061,5,4,"NIGHT_CLEAR,NIGHT_CLEAR,NIGHT_CLEAR,NIGHT_CLEAR,NIGHT_CLEAR,NIGHT_CLEAR,NIGHT_CLEAR,NIGHT_CLEAR,NIGHT_CLEAR,NIGHT_CLEAR,NIGHT_CLEAR","Offshore,Offshore,Offshore,Offshore,Offshore,Offshore,Offshore,Offshore,Offshore,Cross-shore,Offshore",11
5842041f4e65fad6a77089ec,2024_02_17,41.039505402729105,-71.9142,Ditch Plains,1.2727272727272727,0.26545454545454544,0.4147727272727273,5,5,"NIGHT_CLEAR,NIGHT_CLEAR,NIGHT_CLEAR,NIGHT_CLEAR,NIGHT_CLEAR,NIGHT_CLEAR,NIGHT_CLEAR,NIGHT_CLEAR,NIGHT_CLEAR,NIGHT_CLEAR,NIGHT_CLEAR","Offshore,Offshore,Offshore,Offshore,Offshore,Offshore,Offshore,Offshore,Offshore,Offshore,Offshore",11
5842041f4e65fad6a77089ee,2024_02_17,40.57633275206492,-73.56895305108567,"West End, Jones Beach",0.9845454545454545,0.05121212121212121,0.35586666666666666,5,4,"NIGHT_CLEAR,NIGHT_CLEAR,NIGHT_CLEAR,NIGHT_CLEAR,NIGHT_CLEAR,NIGHT_CLEAR,NIGHT_CLEAR,NIGHT_CLEAR,NIGHT_BRIEF_SNOW_SHOWERS,NIGHT_BRIEF_SNOW_SHOWERS,NIGHT_BRIEF_SNOW_SHOWERS","Cross-shore,Offshore,Offshore,Offshore,Offshore,Offshore,Offshore,Offshore,Offshore,Offshore,Offshore",11
5842041f4e65fad6a77089f1,2024_02_17,41.038286691230795,-71.91991567611694,Poles,0.6663636363636364,0.4215090909090909,0.5362530303030303,5,4,"NIGHT_CLEAR,NIGHT_CLEAR,NIGHT_CLEAR,NIGHT_CLEAR,NIGHT_CLEAR,NIGHT_CLEAR,NIGHT_CLEAR,NIGHT_CLEAR,NIGHT_CLEAR,NIGHT_CLEAR,NIGHT_CLEAR","Offshore,Offshore,Offshore,Offshore,Offshore,Offshore,Offshore,Offshore,Offshore,Cross-shore,Offshore",11
5842041f4e65fad6a77089f3,2024_02_17,40.84077769766295,-72.47989493724765,The Bowl,1.6363636363636365,0.21454545454545454,0.519090909090909,5,5,"NIGHT_CLEAR,NIGHT_CLEAR,NIGHT_CLEAR,NIGHT_CLEAR,NIGHT_CLEAR,NIGHT_CLEAR,NIGHT_CLEAR,NIGHT_CLEAR,NIGHT_CLEAR,NIGHT_BRIEF_SNOW_SHOWERS,NIGHT_BRIEF_SNOW_SHOWERS","Cross-shore,Offshore,Offshore,Offshore,Offshore,Offshore,Offshore,Offshore,Offshore,Offshore,Offshore",11
5842041f4e65fad6a77089f4,2024_02_17,40.94235535243154,-72.19286,Main Beach,1.6363636363636365,0.21276363636363638,0.5145424242424242,13,12,"NIGHT_CLEAR,NIGHT_CLEAR,NIGHT_CLEAR,NIGHT_CLEAR,NIGHT_CLEAR,NIGHT_CLEAR,NIGHT_CLEAR,NIGHT_CLEAR,NIGHT_CLEAR,NIGHT_CLEAR,NIGHT_BRIEF_SNOW_FLURRIES","Cross-shore,Cross-shore,Cross-shore,Cross-shore,Offshore,Offshore,Offshore,Offshore,Offshore,Onshore,Offshore",11
5842041f4e65fad6a77089f5,2024_02_17,40.58270702399518,-73.67251552079799,Laurelton Blvd.,1.5909090909090908,0.13506015151515152,0.38118515151515153,5,4,"NIGHT_CLEAR,NIGHT_CLEAR,NIGHT_CLEAR,NIGHT_CLEAR,NIGHT_CLEAR,NIGHT_CLEAR,NIGHT_CLEAR,NIGHT_CLEAR,NIGHT_BRIEF_SNOW_SHOWERS,NIGHT_BRIEF_SNOW_SHOWERS,NIGHT_BRIEF_SNOW_SHOWERS","Onshore,Onshore,Offshore,Offshore,Offshore,Offshore,Offshore,Onshore,Offshore,Offshore,Offshore",11
5842041f4e65fad6a77089f6,2024_02_17,41.033752854071416,-71.93695522488403,Terrace,0.6663636363636364,0.2057939393939394,0.511209090909091,5,4,"NIGHT_CLEAR,NIGHT_CLEAR,NIGHT_CLEAR,NIGHT_CLEAR,NIGHT_CLEAR,NIGHT_CLEAR,NIGHT_CLEAR,NIGHT_CLEAR,NIGHT_CLEAR,NIGHT_CLEAR,NIGHT_CLEAR","Offshore,Offshore,Offshore,Offshore,Offshore,Offshore,Offshore,Offshore,Offshore,Cross-shore,Offshore",11
5842041f4e65fad6a77089f7,2024_02_17,40.83372943645748,-72.50426173210144,K Road,2,0.27545454545454545,0.5809090909090909,5,5,"NIGHT_CLEAR,NIGHT_CLEAR,NIGHT_CLEAR,NIGHT_CLEAR,NIGHT_CLEAR,NIGHT_CLEAR,NIGHT_CLEAR,NIGHT_CLEAR,NIGHT_CLEAR,NIGHT_BRIEF_SNOW_SHOWERS,NIGHT_BRIEF_SNOW_SHOWERS","Offshore,Offshore,Offshore,Offshore,Offshore,Offshore,Offshore,Offshore,Offshore,Offshore,Cross-shore",11
5842041f4e65fad6a77089f8,2024_02_17,40.58456099581507,-73.80730032920837,84th Street,0.6663636363636364,-0.02833333333333334,0.26264848484848485,5,4,"NIGHT_CLEAR,NIGHT_CLEAR,NIGHT_CLEAR,NIGHT_CLEAR,NIGHT_CLEAR,NIGHT_CLEAR,NIGHT_CLEAR,NIGHT_CLEAR,NIGHT_BRIEF_SNOW_SHOWERS,NIGHT_BRIEF_SNOW_SHOWERS,NIGHT_BRIEF_SNOW_SHOWERS","Offshore,Offshore,Offshore,Offshore,Offshore,Offshore,Offshore,Cross-shore,Offshore,Offshore,Cross-shore",11
5842041f4e65fad6a77089fa,2024_02_17,40.1319,-74.02788,Sea Girt,0.7118181818181818,-0.004242424242424243,0.17647272727272728,6,5,"NIGHT_CLEAR,NIGHT_CLEAR,NIGHT_CLEAR,NIGHT_CLEAR,NIGHT_CLEAR,NIGHT_CLEAR,NIGHT_CLEAR,NIGHT_CLOUDY,NIGHT_OVERCAST,NIGHT_CLEAR,NIGHT_BRIEF_SNOW_SHOWERS","Offshore,Offshore,Offshore,Offshore,Offshore,Offshore,Offshore,Cross-shore,Onshore,Offshore,Onshore",11
5842041f4e65fad6a77089fb,2024_02_17,40.54698301868125,-73.9268,Breezy Point,1,0.0018181818181818182,0.2409090909090909,5,5,"NIGHT_CLEAR,NIGHT_CLEAR,NIGHT_CLEAR,NIGHT_CLEAR,NIGHT_CLEAR,NIGHT_CLEAR,NIGHT_CLEAR,NIGHT_CLEAR,NIGHT_BRIEF_SNOW_SHOWERS,NIGHT_BRIEF_SNOW_SHOWERS,NIGHT_BRIEF_SNOW_SHOWERS","Cross-shore,Offshore,Offshore,Offshore,Offshore,Cross-shore,Offshore,Cross-shore,Offshore,Offshore,Cross-shore",11
5842041f4e65fad6a77089fc,2024_02_17,40.152504,-74.021383,Spring Lake,0.8027272727272727,-0.004242424242424243,0.1792,6,5,"NIGHT_CLEAR,NIGHT_CLEAR,NIGHT_CLEAR,NIGHT_CLEAR,NIGHT_CLEAR,NIGHT_CLEAR,NIGHT_CLEAR,NIGHT_CLOUDY,NIGHT_OVERCAST,NIGHT_CLEAR,NIGHT_BRIEF_SNOW_SHOWERS","Offshore,Offshore,Offshore,Offshore,Offshore,Offshore,Offshore,Cross-shore,Onshore,Offshore,Onshore",11
5842041f4e65fad6a77089fd,2024_02_17,40.591277,-73.770792,30th - 39th Streets,0.9845454545454545,-0.009696969696969699,0.2385939393939394,5,4,"NIGHT_CLEAR,NIGHT_CLEAR,NIGHT_CLEAR,NIGHT_CLEAR,NIGHT_CLEAR,NIGHT_CLEAR,NIGHT_CLEAR,NIGHT_CLEAR,NIGHT_BRIEF_SNOW_SHOWERS,NIGHT_BRIEF_SNOW_SHOWERS,NIGHT_BRIEF_SNOW_SHOWERS","Offshore,Offshore,Offshore,Offshore,Offshore,Offshore,Offshore,Offshore,Offshore,Offshore,Cross-shore",11
5842041f4e65fad6a77089fe,2024_02_17,40.18834955871439,-74.00860982500222,Avon,0.8027272727272727,0,0.1792,6,5,"NIGHT_CLEAR,NIGHT_CLEAR,NIGHT_CLEAR,NIGHT_CLEAR,NIGHT_CLEAR,NIGHT_CLEAR,NIGHT_CLEAR,NIGHT_CLOUDY,NIGHT_OVERCAST,NIGHT_CLEAR,NIGHT_BRIEF_SNOW_SHOWERS","Offshore,Offshore,Offshore,Offshore,Offshore,Offshore,Offshore,Cross-shore,Onshore,Offshore,Onshore",11
5842041f4e65fad6a77089ff,2024_02_17,40.1974229100932,-74.00650533798255,Bradley Beach,0.9845454545454545,-0.006363636363636365,0.19556363636363636,6,5,"NIGHT_CLEAR,NIGHT_CLEAR,NIGHT_CLEAR,NIGHT_CLEAR,NIGHT_CLEAR,NIGHT_CLEAR,NIGHT_CLEAR,NIGHT_CLOUDY,NIGHT_OVERCAST,NIGHT_CLEAR,NIGHT_BRIEF_SNOW_SHOWERS","Offshore,Offshore,Offshore,Offshore,Offshore,Offshore,Offshore,Cross-shore,Onshore,Offshore,Onshore",11
5842041f4e65fad6a7708a01,2024_02_17,40.17202,-74.01503,"16th Ave., Belmar",1,0,0.2296939393939394,6,5,"NIGHT_CLEAR,NIGHT_CLEAR,NIGHT_CLEAR,NIGHT_CLEAR,NIGHT_CLEAR,NIGHT_CLEAR,NIGHT_CLEAR,NIGHT_CLOUDY,NIGHT_OVERCAST,NIGHT_CLEAR,NIGHT_BRIEF_SNOW_SHOWERS","Offshore,Offshore,Offshore,Offshore,Offshore,Offshore,Offshore,Cross-shore,Onshore,Offshore,Onshore",11
5842041f4e65fad6a7708a02,2024_02_17,40.217443,-73.99982,Asbury Park,0.8936363636363637,-0.008484848484848486,0.19223030303030303,6,5,"NIGHT_CLEAR,NIGHT_CLEAR,NIGHT_CLEAR,NIGHT_CLEAR,NIGHT_CLEAR,NIGHT_CLEAR,NIGHT_CLEAR,NIGHT_CLEAR,NIGHT_OVERCAST,NIGHT_BRIEF_SNOW_FLURRIES,NIGHT_BRIEF_SNOW_SHOWERS","Offshore,Offshore,Offshore,Offshore,Offshore,Offshore,Offshore,Cross-shore,Onshore,Offshore,Onshore",11
5842041f4e65fad6a7708a03,2024_02_17,40.229841,-73.996782,Loch Arbour and Deal,0.8936363636363637,-0.008484848484848486,0.19344242424242425,6,5,"NIGHT_CLEAR,NIGHT_CLEAR,NIGHT_CLEAR,NIGHT_CLEAR,NIGHT_CLEAR,NIGHT_CLEAR,NIGHT_CLEAR,NIGHT_CLEAR,NIGHT_OVERCAST,NIGHT_BRIEF_SNOW_FLURRIES,NIGHT_BRIEF_SNOW_SHOWERS","Offshore,Offshore,Offshore,Offshore,Offshore,Onshore,Onshore,Onshore,Onshore,Onshore,Onshore",11
5842041f4e65fad6a7708a05,2024_02_17,40.41754,-73.97935,Sandy Hook,0.18181818181818182,0,0.1290909090909091,5,5,"NIGHT_CLEAR,NIGHT_CLEAR,NIGHT_CLEAR,NIGHT_CLEAR,NIGHT_CLEAR,NIGHT_CLEAR,NIGHT_CLEAR,NIGHT_CLEAR,NIGHT_BRIEF_SNOW_SHOWERS,NIGHT_BRIEF_SNOW_SHOWERS,NIGHT_BRIEF_SNOW_SHOWERS","Offshore,Offshore,Offshore,Offshore,Onshore,Onshore,Onshore,Onshore,Onshore,Onshore,Onshore",11
5842041f4e65fad6a7708a06,2024_02_17,39.36353,-74.40873,Crystals,1,0.1795051515151515,0.345130606060606,6,5,"NIGHT_CLEAR,NIGHT_CLEAR,NIGHT_CLEAR,NIGHT_CLEAR,NIGHT_CLEAR,NIGHT_MOSTLY_CLOUDY,NIGHT_CLEAR,NIGHT_OVERCAST,NIGHT_OVERCAST,NIGHT_LIGHT_SNOW,NIGHT_HEAVY_SNOW","Offshore,Offshore,Offshore,Offshore,Cross-shore,Onshore,Onshore,Onshore,Onshore,Onshore,Onshore",11
5842041f4e65fad6a7708a07,2024_02_17,39.31443,-74.51863,32nd Street,0.5754545454545454,0.060290530303030304,0.27200454545454544,6,5,"NIGHT_CLEAR,NIGHT_CLEAR,NIGHT_CLEAR,NIGHT_CLEAR,NIGHT_CLEAR,NIGHT_CLEAR,NIGHT_CLEAR,NIGHT_CLOUDY,NIGHT_CLOUDY,NIGHT_SNOW,NIGHT_HEAVY_SNOW","Offshore,Offshore,Offshore,Offshore,Cross-shore,Onshore,Onshore,Onshore,Onshore,Onshore,Onshore",11
5842041f4e65fad6a7708a08,2024_02_17,39.327688,-74.49524,Margate Pier Northside,0.09090909090909091,0.060290530303030304,0.27200454545454544,6,5,"NIGHT_CLEAR,NIGHT_CLEAR,NIGHT_CLEAR,NIGHT_CLEAR,NIGHT_CLEAR,NIGHT_CLEAR,NIGHT_CLEAR,NIGHT_CLOUDY,NIGHT_CLOUDY,NIGHT_SNOW,NIGHT_HEAVY_SNOW","Offshore,Offshore,Offshore,Offshore,Cross-shore,Onshore,Onshore,Onshore,Onshore,Onshore,Onshore",11
5842041f4e65fad6a7708a09,2024_02_17,39.336276,-74.47782,Ventnor Pier,0.9090909090909091,0.1727739393939394,0.33461484848484846,6,5,"NIGHT_CLEAR,NIGHT_CLEAR,NIGHT_CLEAR,NIGHT_CLEAR,NIGHT_CLEAR,NIGHT_CLEAR,NIGHT_CLEAR,NIGHT_CLOUDY,NIGHT_CLOUDY,NIGHT_SNOW,NIGHT_HEAVY_SNOW","Offshore,Offshore,Offshore,Offshore,Cross-shore,Cross-shore,Onshore,Onshore,Onshore,Onshore,Onshore",11
5842041f4e65fad6a7708a0a,2024_02_17,39.35929751441085,-74.41683,States Avenue,1.53,0.1795051515151515,0.345130606060606,6,5,"NIGHT_CLEAR,NIGHT_CLEAR,NIGHT_CLEAR,NIGHT_CLEAR,NIGHT_CLEAR,NIGHT_MOSTLY_CLOUDY,NIGHT_CLEAR,NIGHT_OVERCAST,NIGHT_CLOUDY,NIGHT_SNOW,NIGHT_HEAVY_SNOW","Offshore,Offshore,Offshore,Offshore,Cross-shore,Onshore,Onshore,Onshore,Onshore,Onshore,Onshore",11
5842041f4e65fad6a7708a0b,2024_02_17,39.37274173278517,-74.40454,Brigantine Jetty,1,0.21019060606060608,0.3930751515151515,6,5,"NIGHT_CLEAR,NIGHT_CLEAR,NIGHT_CLEAR,NIGHT_CLEAR,NIGHT_CLEAR,NIGHT_MOSTLY_CLOUDY,NIGHT_CLEAR,NIGHT_OVERCAST,NIGHT_OVERCAST,NIGHT_LIGHT_SNOW,NIGHT_HEAVY_SNOW","Offshore,Offshore,Offshore,Offshore,Offshore,Cross-shore,Cross-shore,Onshore,Onshore,Onshore,Onshore",11
