_id,date,lat,lon,name,daily_mean_swell_rating,daily_mean_wave_height_min,daily_mean_wave_height_max,daily_mean_water_temperature_max,daily_mean_water_temperature_min,weather_per_timestamp,wind_per_timestamp,n_samples_per_day
5842041f4e65fad6a770884a,2024_11_13,42.88678181061,-70.80843,Seabrook,1.5,0.49835,0.81393,11,10,CLEAR,Cross-shore,1
5842041f4e65fad6a770884e,2024_11_13,41.434181432898335,-71.45312,Narragansett,0,0,0.30067,14,13,CLEAR,Offshore,1
5842041f4e65fad6a7708850,2024_11_13,40.582703230722,-73.65247,Lincoln Blvd,0,0,0.19367,15,14,CLEAR,Offshore,1
5842041f4e65fad6a7708852,2024_11_13,40.58342841721757,-73.81182,Rockaways,-0.5,0.30953,0.61467,15,14,CLEAR,Offshore,1
5842041f4e65fad6a7708853,2024_11_13,40.330474,-73.9734,Monmouth Beach,1,0.2994,0.6138,16,14,CLEAR,Cross-shore,1
5842041f4e65fad6a7708856,2024_11_13,40.113,-74.028,Manasquan Inlet,1,0.59297,0.8882,16,14,CLEAR,Onshore,1
5842041f4e65fad6a7708857,2024_11_13,39.941519877445664,-74.06829,Casino Pier,1.3333333333333333,0.59713,1.04207,16,14,CLEAR,Cross-shore,1
5842041f4e65fad6a7708858,2024_11_13,39.28223089949212,-74.55766,North End OC,1.4,0.58713,0.89237,16,14,CLEAR,Offshore,1
5842041f4e65fad6a770885b,2024_11_13,39.65080599934257,-74.17146,Ship Bottom,1,0.88332,1.21171,16,16,CLEAR,Cross-shore,1
5842041f4e65fad6a7708863,2024_11_13,36.034151543144,-75.66791,Third Street,0.5,1.23433,1.53167,19,18,MOSTLY_CLOUDY,Onshore,1
5842041f4e65fad6a7708867,2024_11_13,35.605833221351425,-75.46303,S-Turns,0.5,1.32933,1.67667,19,18,CLOUDY,Onshore,1
5842041f4e65fad6a770886d,2024_11_13,38.338461,-75.08117,Ocean City Boardwalk,0.6,0.61556,1.08134,17,16,MOSTLY_CLOUDY,Cross-shore,1
5842041f4e65fad6a770886f,2024_11_13,29.844757212379562,-81.26136,A St.,1,0.7,1,24,24,BRIEF_SHOWERS,Onshore,1
5842041f4e65fad6a7708871,2024_11_13,29.069417851135093,-80.90824,New Smyrna Beach,1,1.24767,1.90567,25,24,MOSTLY_CLEAR,Onshore,1
5842041f4e65fad6a7708872,2024_11_13,28.367707417566,-80.60171,Cocoa Beach Pier,1,0.73967,1.05367,25,25,MOSTLY_CLEAR,Onshore,1
5842041f4e65fad6a7708873,2024_11_13,28.091782738658846,-80.56479,Indialantic,1,0.747,1.061,25,25,MOSTLY_CLOUDY,Onshore,1
5842041f4e65fad6a7708876,2024_11_13,27.25392904143517,-80.19455,Jensen Beach,1,0.93033,1.24433,27,26,MOSTLY_CLOUDY,Onshore,1
5842041f4e65fad6a7708879,2024_11_13,26.76346795333825,-80.03607,Reef Road,1,0.80967,1.10533,27,27,MOSTLY_CLOUDY,Onshore,1
5842041f4e65fad6a770887c,2024_11_13,26.336499228484,-80.06956100463,Boca Raton Inlet,1,0.38733,0.693,27,27,MOSTLY_CLOUDY,Onshore,1
5842041f4e65fad6a770887d,2024_11_13,26.31719311695038,-80.07453,Deerfield Beach Pier,1,0.10115,0.37348,28,28,MOSTLY_CLOUDY,Onshore,1
5842041f4e65fad6a7708881,2024_11_13,30.20276320866628,-85.85626528676136,"Spyglass Dr., Panama City",1,0.01,0.34067,25,24,CLEAR,Offshore,1
5842041f4e65fad6a770888d,2024_11_13,21.679,-158.042,Sunset Beach,3,2.93,3.51,26,25,NIGHT_LIGHT_SHOWERS_POSSIBLE,Cross-shore,1
5842041f4e65fad6a770888e,2024_11_13,21.670550036401,-158.0482,Rocky Point,3,2.45567,2.99227,26,25,NIGHT_MOSTLY_CLOUDY,Cross-shore,1
5842041f4e65fad6a770888f,2024_11_13,21.668,-158.05,Chambers,3,3.25,3.89,26,26,NIGHT_MOSTLY_CLOUDY,Cross-shore,1
5842041f4e65fad6a7708890,2024_11_13,21.66522,-158.0526,Pipeline,4,2.60139,3.15883,26,25,NIGHT_MOSTLY_CLOUDY,Cross-shore,1
5842041f4e65fad6a7708891,2024_11_13,21.665,-158.054,Backdoor,3,2.63,3.15,26,25,NIGHT_MOSTLY_CLOUDY,Cross-shore,1
5842041f4e65fad6a7708892,2024_11_13,21.662,-158.057,Rockpile,3,2.64,3.16,26,26,NIGHT_MOSTLY_CLOUDY,Cross-shore,1
5842041f4e65fad6a7708893,2024_11_13,21.65870453806827,-158.06058,Log Cabins,3,2.25,2.69,26,26,NIGHT_MOSTLY_CLOUDY,Cross-shore,1
5842041f4e65fad6a7708894,2024_11_13,21.66203493640557,-158.05495,Off-The-Wall,3,2.71,3.24,26,26,NIGHT_MOSTLY_CLOUDY,Cross-shore,1
5842041f4e65fad6a7708895,2024_11_13,21.643,-158.067,Waimea Bay,NA,3.01,3.6,26,25,NIGHT_MOSTLY_CLOUDY,Cross-shore,1
5842041f4e65fad6a7708896,2024_11_13,21.622,-158.087,Hultin's,3,3.48,4.15,26,25,NIGHT_CLEAR,Offshore,1
5842041f4e65fad6a7708897,2024_11_13,21.623,-158.085,Jocko's,3,2.38172,2.91167,26,26,NIGHT_CLEAR,Onshore,1
5842041f4e65fad6a7708898,2024_11_13,21.62,-158.088,Laniakea,3,2.04,2.44,26,25,NIGHT_CLEAR,Cross-shore,1
5842041f4e65fad6a7708899,2024_11_13,21.625,-158.083,Chun's,3,2.45,2.93,26,26,NIGHT_CLEAR,Offshore,1
5842041f4e65fad6a770889c,2024_11_13,21.286357895152136,-157.8515,Ala Moana Beach Park,2,0.46,0.77,26,26,NIGHT_BRIEF_SHOWERS,Offshore,1
5842041f4e65fad6a770889d,2024_11_13,19.606,-155.978,Banyans,3,0.55,0.86,26,25,NIGHT_CLEAR,Offshore,1
5842041f4e65fad6a770889e,2024_11_13,20.029,-155.831,Kawaihae,2,0.4444,0.5726,26,26,NIGHT_CLEAR,Offshore,1
5842041f4e65fad6a77088a2,2024_11_13,21.252,-157.805,Diamond Head,3,0.66532,0.98008,26,25,NIGHT_MOSTLY_CLEAR,Cross-shore,1
5842041f4e65fad6a77089ad,2024_11_13,46.8907710233147,-124.12964,Westport/Olympic Peninsula,0,3.45,4.13,12,12,NIGHT_MOSTLY_CLOUDY,Onshore,1
5842041f4e65fad6a77089ae,2024_11_13,46.35185177248545,-124.06747,Long Beach Peninsula,0,4.21,5.03,13,13,NIGHT_MOSTLY_CLOUDY,Cross-shore,1
5842041f4e65fad6a77089af,2024_11_13,47.90649175554033,-124.63709,La Push,1,3.45,4.12,12,12,NIGHT_OVERCAST,Onshore,1
5842041f4e65fad6a77089b6,2024_11_13,45.61468496266301,-123.94643,Rockaway Beach,0,4.36,5.21,13,13,NIGHT_DRIZZLE,Cross-shore,1
5842041f4e65fad6a77089b7,2024_11_13,45.20252914186085,-123.96975,Pacific City,0,4.16,4.97,13,13,NIGHT_MOSTLY_CLOUDY,Onshore,1
5842041f4e65fad6a77089b8,2024_11_13,45.88179930310263,-123.96681,Cannon Beach,0,4.15,4.96,13,13,NIGHT_BRIEF_SHOWERS,Onshore,1
5842041f4e65fad6a77089ca,2024_11_13,43.251076,-70.59144,Ogunquit,1.5,0.55233,0.85633,11,10,CLEAR,Cross-shore,1
5842041f4e65fad6a77089cb,2024_11_13,41.362631366305415,-71.48007,Point Judith,0,0,0.31067,14,13,CLEAR,Onshore,1
5842041f4e65fad6a77089cd,2024_11_13,41.422678090954726,-71.45413,Monahan's - Narragansett,0,0,0.20567,15,15,CLEAR,Cross-shore,1
5842041f4e65fad6a77089ce,2024_11_13,41.469,-71.293,Ruggles - Newport,1,0,0.20603,15,15,CLEAR,Offshore,1
5842041f4e65fad6a77089cf,2024_11_13,43.175394,-70.606351,Short Sands Beach,1,0.77,1.08,10,10,CLEAR,Cross-shore,1
5842041f4e65fad6a77089d0,2024_11_13,41.487408,-71.29017,First Beach,1,0,0.16,14,14,CLEAR,Offshore,1
5842041f4e65fad6a77089d1,2024_11_13,42.27916830233153,-70.86498,Nantasket Beach,1,0.86367,1.43167,12,11,CLEAR,Onshore,1
5842041f4e65fad6a77089d2,2024_11_13,41.817,-69.935,Cape Cod,0,2.27,2.38,12,12,MOSTLY_CLOUDY,Cross-shore,1
5842041f4e65fad6a77089d3,2024_11_13,42.22055448975661,-70.70634873403819,Egypt Beach,0,1.73,2.03,12,12,CLEAR,Onshore,1
5842041f4e65fad6a77089d4,2024_11_13,41.48739647744607,-71.25723,Second Beach,0.5,0.25823,0.53584,14,13,CLEAR,Offshore,1
5842041f4e65fad6a77089d5,2024_11_13,42.964,-70.769,Fox Hill,1.5,0.32233,0.628,11,10,CLEAR,Offshore,1
5842041f4e65fad6a77089d6,2024_11_13,42.991359,-70.75149,Straws Point,2.5,0.399,0.70467,11,10,CLEAR,Offshore,1
5842041f4e65fad6a77089d7,2024_11_13,42.946,-70.786,Plaice Cove,1.5,0.32233,0.628,11,10,CLEAR,Cross-shore,1
5842041f4e65fad6a77089d9,2024_11_13,42.911574,-70.80831,The Main Beach,2,0.65396,0.97169,11,10,CLEAR,Offshore,1
5842041f4e65fad6a77089da,2024_11_13,42.97583846220203,-70.764,Sawyer's Beach,1.5,0.42567,0.72133,11,10,CLEAR,Cross-shore,1
5842041f4e65fad6a77089db,2024_11_13,42.97,-70.77,Rye on the Rocks / 5-0's,2,0.60856,0.89492,11,10,CLEAR,Offshore,1
5842041f4e65fad6a77089dc,2024_11_13,43.55902946610303,-70.27795,Higgins Beach,0,0,0.19033,11,10,CLEAR,Offshore,1
5842041f4e65fad6a77089dd,2024_11_13,43.302676,-70.5652,Wells Beach,1.5,0.36233,0.66633,11,10,CLEAR,Cross-shore,1
5842041f4e65fad6a77089de,2024_11_13,43.545359,-70.30479,Scarborough Beach State Park,2,0.33582,0.65169,11,10,CLEAR,Offshore,1
5842041f4e65fad6a77089df,2024_11_13,43.514481,-70.37215,Old Orchard Beach,1.5,0.254,0.58133,11,10,CLEAR,Offshore,1
5842041f4e65fad6a77089e0,2024_11_13,43.34711,-70.48165,Gooch's Beach,0.5,0.06833,0.374,11,10,CLEAR,Offshore,1
5842041f4e65fad6a77089e2,2024_11_13,40.58433,-73.62953,Lido Beach,0,0.05,0.36,15,14,CLEAR,Offshore,1
5842041f4e65fad6a77089e3,2024_11_13,43.163135,-70.61689,Long Sands Beach,1.5,0.3758,0.66521,11,10,CLEAR,Offshore,1
5842041f4e65fad6a77089e4,2024_11_13,40.61695351251805,-73.39376,Gilgo Beach,0.5,0,0.32067,15,14,CLEAR,Offshore,1
5842041f4e65fad6a77089e5,2024_11_13,40.62530081928036,-73.23827,Robert Moses,1,0,0.3,15,15,CLEAR,Offshore,1
5842041f4e65fad6a77089e6,2024_11_13,40.64313317632791,-73.15727,Fire Island,1,0,0.3,15,15,CLEAR,Offshore,1
5842041f4e65fad6a77089e8,2024_11_13,40.76653118828782,-72.7458,Cupsogue,1,0.1,0.4,15,15,CLEAR,Offshore,1
5842041f4e65fad6a77089e9,2024_11_13,42.9376373334092,-70.79141,The Wall,2,0.69087,1.14425,11,10,CLEAR,Cross-shore,1
5842041f4e65fad6a77089ea,2024_11_13,40.887088,-72.33856,Flys,1,0.07,0.37,15,15,CLEAR,Offshore,1
5842041f4e65fad6a77089eb,2024_11_13,41.0389266436591,-71.91068529316958,Trailer Park,0.5,-0.0159,0.29526,15,14,CLEAR,Offshore,1
5842041f4e65fad6a77089ec,2024_11_13,41.039505402729105,-71.9142,Ditch Plains,0,0.13461,0.47115,15,15,CLEAR,Offshore,1
5842041f4e65fad6a77089ee,2024_11_13,40.57633275206492,-73.56895305108567,"West End, Jones Beach",1,0,0.31,15,14,CLEAR,Offshore,1
5842041f4e65fad6a77089f1,2024_11_13,41.038286691230795,-71.91991567611694,Poles,0.5,0,0.31288,15,14,CLEAR,Offshore,1
5842041f4e65fad6a77089f3,2024_11_13,40.84077769766295,-72.47989493724765,The Bowl,1,0.05,0.36,15,15,CLEAR,Offshore,1
5842041f4e65fad6a77089f4,2024_11_13,40.94235535243154,-72.19286,Main Beach,1,0.29567,0.60967,18,17,CLEAR,Offshore,1
5842041f4e65fad6a77089f5,2024_11_13,40.58270702399518,-73.67251552079799,Laurelton Blvd.,0,0.06566,0.22897,15,14,CLEAR,Offshore,1
5842041f4e65fad6a77089f6,2024_11_13,41.033752854071416,-71.93696,Terrace,0.5,0.59153,0.90694,15,14,CLEAR,Offshore,1
5842041f4e65fad6a77089f7,2024_11_13,40.83372943645748,-72.50426173210144,K Road,1,0.09,0.4,15,15,CLEAR,Offshore,1
5842041f4e65fad6a77089f8,2024_11_13,40.58456099581507,-73.80730032920837,84th Street,0,0.03,0.334,15,14,CLEAR,Offshore,1
5842041f4e65fad6a77089fa,2024_11_13,40.1319,-74.02788,Sea Girt,1,0.30107,0.61547,16,14,CLEAR,Cross-shore,1
5842041f4e65fad6a77089fb,2024_11_13,40.54698301868125,-73.9268,Breezy Point,1,0.04,0.34,15,15,CLEAR,Offshore,1
5842041f4e65fad6a77089fc,2024_11_13,40.152504,-74.02138,Spring Lake,1,0.6,0.91,15,15,CLEAR,Cross-shore,1
5842041f4e65fad6a77089fd,2024_11_13,40.591277,-73.770792,30th - 39th Streets,0.5,0,0.319,15,14,CLEAR,Offshore,1
5842041f4e65fad6a77089fe,2024_11_13,40.18834955871439,-74.00860982500222,Avon,1,0.67,0.98,15,15,CLEAR,Cross-shore,1
5842041f4e65fad6a77089ff,2024_11_13,40.1974229100932,-74.00650533798255,Bradley Beach,1,0.63,0.93,15,15,CLEAR,Cross-shore,1
5842041f4e65fad6a7708a01,2024_11_13,40.17202,-74.01503,"16th Ave., Belmar",0.5,0.53,0.83,16,14,CLEAR,Cross-shore,1
5842041f4e65fad6a7708a02,2024_11_13,40.217443,-73.99982,Asbury Park,1,0.57,0.87,15,15,CLEAR,Cross-shore,1
5842041f4e65fad6a7708a03,2024_11_13,40.229841,-73.99678,Loch Arbour and Deal,1,0.58,0.89,15,15,CLEAR,Cross-shore,1
5842041f4e65fad6a7708a05,2024_11_13,40.41754,-73.97935,Sandy Hook,1,0.02,0.32,15,15,CLEAR,Cross-shore,1
5842041f4e65fad6a7708a06,2024_11_13,39.36353,-74.40873,Crystals,1,0.32103,0.61841,17,17,CLEAR,Offshore,1
5842041f4e65fad6a7708a07,2024_11_13,39.31443,-74.51863,32nd Street,2,0.58747,0.89654,16,14,CLEAR,Offshore,1
5842041f4e65fad6a7708a08,2024_11_13,39.327688,-74.49524,Margate Pier Northside,2,0.58747,0.89654,16,14,CLEAR,Offshore,1
5842041f4e65fad6a7708a09,2024_11_13,39.336276,-74.47782,Ventnor Pier,0.33333333333333326,0.30346,0.61418,17,17,CLEAR,Offshore,1
5842041f4e65fad6a7708a0a,2024_11_13,39.35929751441085,-74.41683,States Avenue,1,0.32103,0.61841,17,17,MOSTLY_CLEAR,Offshore,1
5842041f4e65fad6a7708a0b,2024_11_13,39.37274173278517,-74.40454,Brigantine Jetty,1,0.30003,0.61881,17,17,CLEAR,Offshore,1
5842041f4e65fad6a7708a0c,2024_11_13,39.356505,-74.42263,South Carolina Avenue,1,0.30003,0.61881,17,17,MOSTLY_CLEAR,Offshore,1
5842041f4e65fad6a7708a0d,2024_11_13,39.413485,-74.35476,14th Street North,1,0.3044,0.59963,17,17,CLEAR,Cross-shore,1
5842041f4e65fad6a7708a0e,2024_11_13,39.531319,-74.263252,The Wooden Jetty,0.5,0.63837,1.03039,16,16,CLEAR,Offshore,1
5842041f4e65fad6a7708a0f,2024_11_13,39.552472,-74.24344,Holyoke,1,0.64418,1.0749,16,16,CLEAR,Offshore,1
5842041f4e65fad6a7708a10,2024_11_13,39.692364,-74.14068,Hudson Ave.,1.6,0.6046,1.0643,16,14,CLEAR,Offshore,1
5842041f4e65fad6a7708a11,2024_11_13,39.79614,-74.09248,Island Beach State Park,0.6666666666666667,0.34107,0.776,17,17,CLEAR,Cross-shore,1
5842041f4e65fad6a7708a12,2024_11_13,39.91813588078152,-74.07527,Seaside Park,0.6666666666666667,0.59348,0.88782,17,17,CLEAR,Cross-shore,1
5842041f4e65fad6a7708a15,2024_11_13,39.95745637606704,-74.06736,Ortley Beach,0.6666666666666667,0.55892,0.98291,16,14,CLEAR,Cross-shore,1
5842041f4e65fad6a7708a16,2024_11_13,39.98313468342945,-74.06265685577506,Lavallette,0.6666666666666667,0.58713,0.89153,16,14,CLEAR,Cross-shore,1
5842041f4e65fad6a7708a17,2024_11_13,40.0699319967757,-74.04145,Bay Head,0.6666666666666667,0.5938,0.88903,16,14,CLEAR,Cross-shore,1
5842041f4e65fad6a7708a18,2024_11_13,40.094041,-74.034859,Jenkinson's,1,0.57963,0.89403,16,14,CLEAR,Cross-shore,1
5842041f4e65fad6a7708a1a,2024_11_13,38.148058,-75.17704,Assateague,1,0.60047,1.0354,16,15,MOSTLY_CLOUDY,Cross-shore,1
5842041f4e65fad6a7708a1b,2024_11_13,38.33889038664497,-75.08017670566352,North End to Ocean City Inlet,1,0.63047,1.0754,16,15,MOSTLY_CLOUDY,Onshore,1
5842041f4e65fad6a7708a1c,2024_11_13,38.603993,-75.06271,Indian River Inlet,1,0.76995,1.13715,17,17,MOSTLY_CLOUDY,Cross-shore,1
5842041f4e65fad6a7708a1d,2024_11_13,38.460477,-75.05207,Fenwick Island,1,0.7,1,17,17,MOSTLY_CLOUDY,Onshore,1
5842041f4e65fad6a7708a1e,2024_11_13,38.538767,-75.05619,Bethany Beach,1,0.76441,1.12898,17,17,MOSTLY_CLOUDY,Cross-shore,1
5842041f4e65fad6a7708a1f,2024_11_13,38.697657,-75.07595,Dewey Beach,1,0.75,1.05,17,17,CLEAR,Onshore,1
5842041f4e65fad6a7708a20,2024_11_13,38.75034741676525,-75.08194,Gordons Pond,1,0.41439,0.80289,16,16,CLEAR,Cross-shore,1
5842041f4e65fad6a7708a21,2024_11_13,38.767837,-75.08284,Naval Jetties,1,0.85,1.16,16,16,CLEAR,Onshore,1
5842041f4e65fad6a7708a22,2024_11_13,36.81735875786576,-75.96624,Camp Pendleton,1,0.95,1.26,18,18,BRIEF_SHOWERS,Cross-shore,1
5842041f4e65fad6a7708a23,2024_11_13,36.9102212316428,-75.98732471466064,North End,1,0.58467,1.01567,18,18,MOSTLY_CLEAR,Cross-shore,1
5842041f4e65fad6a7708a24,2024_11_13,36.737117517621314,-75.93924,Sandbridge Beach,1,0.897,1.328,18,18,MOSTLY_CLOUDY,Onshore,1
5842041f4e65fad6a7708a26,2024_11_13,36.818257440557794,-75.96666,Croatan to Pendleton,1,0.63136,0.9265,18,18,BRIEF_SHOWERS,Cross-shore,1
5842041f4e65fad6a7708a27,2024_11_13,36.84318777204769,-75.9719,South End,0.5,0.87367,1.18767,18,18,MOSTLY_CLOUDY,Cross-shore,1
5842041f4e65fad6a7708a28,2024_11_13,37.08612627584661,-75.976121638199,Fishermans Island,1,0.076,0.196,18,18,CLEAR,Offshore,1
5842041f4e65fad6a7708a38,2024_11_13,35.254619418229026,-75.52074,Cape Hatteras Lighthouse,0.5,0.93156,1.35915,20,19,CLOUDY,Cross-shore,1
5842041f4e65fad6a7708a3a,2024_11_13,35.54572934093336,-75.46477,Waves and Salvo,0.5,1.281,1.57667,19,18,OVERCAST,Cross-shore,1
5842041f4e65fad6a7708a3b,2024_11_13,35.22565892751075,-75.63606,Frisco,0.5,0.29,0.58533,21,19,DRIZZLE,Offshore,1
5842041f4e65fad6a7708a3c,2024_11_13,35.13086,-75.90591,Ocracoke,1,0.60115,0.95476,22,22,OVERCAST,Offshore,1
5842041f4e65fad6a7708a3d,2024_11_13,35.34721340158342,-75.50084,Avon Pier,0.5,1.411,1.715,19,19,CLOUDY,Cross-shore,1
5842041f4e65fad6a7708a3f,2024_11_13,35.71680821253768,-75.49243,Pea Island,0,1.4,1.71,19,19,OVERCAST,Onshore,1
5842041f4e65fad6a7708a40,2024_11_13,35.97427620657821,-75.62984,Nags Head Pier,1,1.12433,1.395,19,18,MOSTLY_CLOUDY,Onshore,1
5842041f4e65fad6a7708a41,2024_11_13,36.0439998039079,-75.67288,Avalon Pier,0,1.296,1.60167,19,18,MOSTLY_CLOUDY,Onshore,1
5842041f4e65fad6a7708a42,2024_11_13,36.03043116489792,-75.66413,First Street,0,1.40267,1.73167,19,18,MOSTLY_CLOUDY,Onshore,1
5842041f4e65fad6a7708a43,2024_11_13,36.06829910590498,-75.6899,Old Station/Laundromats,0,1.281,1.595,19,18,MOSTLY_CLOUDY,Onshore,1
5842041f4e65fad6a7708a44,2024_11_13,36.10126676607491,-75.71107,Kitty Hawk Pier,0.5,1.17433,1.44,19,18,MOSTLY_CLOUDY,Onshore,1
5842041f4e65fad6a7708a45,2024_11_13,36.18220630068973,-75.75014,Duck Pier,0,0.8,1.11,18,18,MOSTLY_CLOUDY,Onshore,1
5842041f4e65fad6a7708a46,2024_11_13,36.37660668125033,-75.8241,Corolla,0,0.96,1.26,18,18,CLOUDY,Onshore,1
5842041f4e65fad6a7708a47,2024_11_13,33.90373404124834,-78.08241431707907,Oak Island,1,0.25,0.55,21,21,CLEAR,Offshore,1
5842041f4e65fad6a7708a48,2024_11_13,33.91108837766468,-78.29653,South Brunswick Beaches,1,0.03838,0.42222,21,21,CLEAR,Offshore,1
5842041f4e65fad6a7708a49,2024_11_13,34.05683595651973,-77.88128,Carolina Beach Pier,0.5,0.61467,1.05567,20,20,CLEAR,Cross-shore,1
5842041f4e65fad6a7708a4a,2024_11_13,33.96841191816696,-77.9180242565498,Fort Fisher,0.5,0.76967,1.20233,20,20,CLEAR,Cross-shore,1
5842041f4e65fad6a7708a4b,2024_11_13,34.46776662988774,-77.47083,Topsail Beach,1.5,0.31233,0.735,20,19,CLEAR,Offshore,1
5842041f4e65fad6a7708a4c,2024_11_13,34.69270354752445,-76.82854854446575,Iron Steamer,1,0.27,0.58,21,19,MOSTLY_CLOUDY,Offshore,1
5842041f4e65fad6a7708a4f,2024_11_13,30.85132684893727,-81.42283496231143,Cumberland Island,0,1.11,1.42,24,24,MOSTLY_CLOUDY,Cross-shore,1
5842041f4e65fad6a7708a50,2024_11_13,34.686741128540874,-76.47516712138378,Cape Lookout National Seashore,0,0.64,0.94,21,21,CLEAR,Cross-shore,1
5842041f4e65fad6a7708a51,2024_11_13,31.10585419260024,-81.40422767604812,Jekyll Island,0,0.63,0.93,23,23,MOSTLY_CLOUDY,Onshore,1
5842041f4e65fad6a7708a52,2024_11_13,31.16212806376699,-81.32512426500224,Harbor Marker Buoys,0,1.05,1.07,24,24,MOSTLY_CLOUDY,Cross-shore,1
5842041f4e65fad6a7708a53,2024_11_13,31.20076299997009,-81.32629,Sea Island,0,0.89,1.19,24,24,MOSTLY_CLOUDY,Cross-shore,1
5842041f4e65fad6a7708a54,2024_11_13,31.13553222995767,-81.38457634790909,St. Simons Island,1,1.03,1.33,24,24,OVERCAST,Cross-shore,1
5842041f4e65fad6a7708a55,2024_11_13,31.33550077186516,-81.28383377408417,Wolf Island,0,0.67,0.98,24,24,MOSTLY_CLOUDY,Onshore,1
5842041f4e65fad6a7708a56,2024_11_13,31.2704493877174,-81.27324039152315,Little St. Simons Island,0,0.83,1.13,24,24,MOSTLY_CLOUDY,Onshore,1
5842041f4e65fad6a7708a57,2024_11_13,31.39261761368919,-81.26190520231917,Sapelo Island,1,0.7,1.01,24,24,OVERCAST,Cross-shore,1
5842041f4e65fad6a7708a58,2024_11_13,34.42458783809001,-77.54492,Surf City Pier,1.5,0.31567,0.73833,20,19,CLEAR,Offshore,1
5842041f4e65fad6a7708a59,2024_11_13,31.4231993614213,-81.24725340591522,Cabretta Island,1,0.7,1,24,24,OVERCAST,Cross-shore,1
5842041f4e65fad6a7708a5a,2024_11_13,31.46684389030369,-81.2100056410468,Blackbeard Island,0,0.7,1.01,23,23,OVERCAST,Cross-shore,1
5842041f4e65fad6a7708a5b,2024_11_13,31.85953587631629,-80.99031310336719,Wassaw Island/South End,0,0.39,0.69,23,23,MOSTLY_CLOUDY,Cross-shore,1
5842041f4e65fad6a7708a5c,2024_11_13,31.62535662342983,-81.13328352167974,St. Catherines Island,0,1.04,1.35,23,23,MOSTLY_CLOUDY,Onshore,1
5842041f4e65fad6a7708a5d,2024_11_13,31.76502169596568,-81.07655443806622,Ossabaw Island,0,0.85,1.15,23,23,MOSTLY_CLOUDY,Onshore,1
5842041f4e65fad6a7708a5e,2024_11_13,31.90593619092352,-80.93589231700857,Wassaw Island/North End,0,1,1.08,23,23,MOSTLY_CLOUDY,Cross-shore,1
5842041f4e65fad6a7708a5f,2024_11_13,31.96738675414547,-80.86977980706155,Little Tybee Island,0,1.05,1.36,23,23,MOSTLY_CLOUDY,Cross-shore,1
5842041f4e65fad6a7708a60,2024_11_13,31.9812255780179,-80.84773973467009,South Tybee Sandbars,0,0.82,1.12,23,23,MOSTLY_CLOUDY,Onshore,1
5842041f4e65fad6a7708a61,2024_11_13,32.01226,-80.83983,Sugar Shack,1,0.77,1.08,23,23,MOSTLY_CLOUDY,Onshore,1
5842041f4e65fad6a7708a62,2024_11_13,31.98722842396969,-80.84773,18th St. Jetty,0,0.98949,1.37777,23,23,MOSTLY_CLOUDY,Onshore,1
5842041f4e65fad6a7708a64,2024_11_13,34.013473721006676,-77.8991,"Alabama Ave., Kure Beach",1,0.73,1.03,20,20,CLEAR,Cross-shore,1
5842041f4e65fad6a7708a65,2024_11_13,34.20859853336924,-77.79293,"C Street, Wrightsville Beach",1,0.59967,1.02233,20,20,CLEAR,Cross-shore,1
5842041f4e65fad6a7708a66,2024_11_13,32.831,-79.71,Dewees Island,1,0.84,1.15,23,23,CLEAR,Cross-shore,1
5842041f4e65fad6a7708a67,2024_11_13,33.82924423172106,-78.62813,Cherry Grove Pier,1,0.29731,0.6024,21,21,CLEAR,Offshore,1
5842041f4e65fad6a7708a69,2024_11_13,34.27197439666496,-77.74050223196774,Figure Eight and Shell Islands,1,0.58133,1.014,20,20,CLEAR,Offshore,1
5842041f4e65fad6a7708a6b,2024_11_13,33.49041958261793,-79.07666070599386,North End,1,0.61,0.91,21,21,CLEAR,Cross-shore,1
5842041f4e65fad6a7708a6c,2024_11_13,33.39537062495087,-79.13835037835189,The South End,1,0.64,0.95,21,21,CLEAR,Cross-shore,1
5842041f4e65fad6a7708a6d,2024_11_13,33.29001727666697,-79.17190003352977,North Island,0,0.66,0.97,22,22,CLEAR,Cross-shore,1
5842041f4e65fad6a7708a6e,2024_11_13,32.90929771158952,-79.57810400297359,Bull Island,1,0.6,0.9,23,23,CLEAR,Cross-shore,1
5842041f4e65fad6a7708a6f,2024_11_13,31.99153112815895,-80.84543050470074,Tybee Island Pier,0,0.38,0.69,23,23,MOSTLY_CLOUDY,Onshore,1
5842041f4e65fad6a7708a70,2024_11_13,33.03478144356316,-79.35021028265125,Cape Romain,0,0.76,1.06,22,22,CLEAR,Cross-shore,1
5842041f4e65fad6a7708a71,2024_11_13,33.43231073271028,-79.11789,The Pier,1,0.53348,0.90567,21,21,CLEAR,Cross-shore,1
5842041f4e65fad6a7708a72,2024_11_13,33.45423621397969,-79.10497798178424,South Litchfield,1,0.65,0.95,21,21,CLEAR,Cross-shore,1
5842041f4e65fad6a7708a73,2024_11_13,34.19316590251396,-77.8045,Crystal Pier,1,0.55684,0.86187,20,20,CLEAR,Cross-shore,1
5842041f4e65fad6a7708a74,2024_11_13,33.68628680045124,-78.88346,Myrtle Beach,1,0.51,0.82,21,21,CLEAR,Offshore,1
5842041f4e65fad6a7708a75,2024_11_13,32.66166297145973,-79.91951806398808,10th Street,1,0.77,1.07,23,23,CLEAR,Cross-shore,1
5842041f4e65fad6a7708a76,2024_11_13,33.16729555197199,-79.19829236867845,South Island,0,0.7,1,22,22,CLEAR,Cross-shore,1
5842041f4e65fad6a7708a77,2024_11_13,32.595,-80.088,Kiawah Island/Seabrook Island,2,0.54,0.84,22,22,CLEAR,Offshore,1
5842041f4e65fad6a7708a78,2024_11_13,32.51356930575787,-80.28223,Edisto Beach,2,0.49087,0.90213,22,22,CLEAR,Offshore,1
5842041f4e65fad6a7708a79,2024_11_13,32.366270751262,-80.43911,Hunting Island,1,0.91633,1.28782,23,23,CLEAR,Onshore,1
5842041f4e65fad6a7708a7a,2024_11_13,32.65337734408365,-79.93983,Folly Beach Pier,2,0.38609,0.6919,23,23,CLEAR,Offshore,1
5842041f4e65fad6a7708a7b,2024_11_13,33.41209545530049,-79.13026341393126,South Jetty,1,0.64,0.95,21,21,CLEAR,Cross-shore,1
5842041f4e65fad6a7708a7c,2024_11_13,32.31115640606869,-80.48564,Fripp Island,1,0.62407,1.01411,22,22,MOSTLY_CLOUDY,Offshore,1
5842041f4e65fad6a7708a7d,2024_11_13,32.14365226036034,-80.74402,Hilton Head Island,1,0.12,0.42,22,22,MOSTLY_CLOUDY,Cross-shore,1
5842041f4e65fad6a7708a7e,2024_11_13,29.70405364733744,-81.22426,Matanzas Inlet,1,0.27996,0.58397,25,24,HEAVY_SHOWERS,Onshore,1
5842041f4e65fad6a7708a81,2024_11_13,29.76878537149042,-81.25109,Crescent Beach,1,0.65,0.95,24,24,SHOWERS,Onshore,1
5842041f4e65fad6a7708a82,2024_11_13,32.80251718689188,-79.73221919500764,Wild Dunes,1,0.62,0.93,23,23,CLEAR,Offshore,1
5842041f4e65fad6a7708a84,2024_11_13,32.75733539419244,-79.83258856064796,Bert's Bar,2,0.35,0.65,23,23,CLEAR,Offshore,1
5842041f4e65fad6a7708a85,2024_11_13,32.66829212943039,-79.90735,Washout,1.5,0.62133,1.06233,21,20,CLEAR,Cross-shore,1
5842041f4e65fad6a7708a86,2024_11_13,32.78452968219067,-79.7854,The Pier/Windjammer,2,0.75,1.05,23,23,CLEAR,Offshore,1
5842041f4e65fad6a7708a87,2024_11_13,29.86618162637438,-81.2662150259608,Anastasia Park (The Entrance),1,0.67,0.97,24,24,BRIEF_SHOWERS,Onshore,1
5842041f4e65fad6a7708a89,2024_11_13,29.89149785916623,-81.2723223244215,Blowholes,0.5,0.28567,0.59967,27,25,BRIEF_SHOWERS,Onshore,1
5842041f4e65fad6a7708a8a,2024_11_13,30.16227112983666,-81.35502907491218,Crossroads,0.5,0.45233,0.76633,27,25,CLEAR,Onshore,1
5842041f4e65fad6a7708a8b,2024_11_13,30.19308537587637,-81.36314247820911,Sawgrass,0.5,0.374,0.688,27,25,MOSTLY_CLOUDY,Onshore,1
5842041f4e65fad6a7708a8c,2024_11_13,30.34696027700899,-81.39451,18th Street,1,0.73869,1.05041,24,24,MOSTLY_CLOUDY,Onshore,1
5842041f4e65fad6a7708a8d,2024_11_13,30.381793,-81.39686,Mayport Poles,1,1.23,1.39,24,24,MOSTLY_CLOUDY,Onshore,1
5842041f4e65fad6a7708a8e,2024_11_13,30.390516,-81.395591,Blue Roofs,1,1.18,1.4,24,24,MOSTLY_CLOUDY,Onshore,1
5842041f4e65fad6a7708a8f,2024_11_13,30.40517712722211,-81.40074116169004,Huguenot Park (North Jetty),1,1.21,1.51,24,24,MOSTLY_CLOUDY,Onshore,1
5842041f4e65fad6a7708a90,2024_11_13,30.47788918872762,-81.41055821335078,Talbot Island,1,0.9548,1.23094,25,24,MOSTLY_CLOUDY,Onshore,1
5842041f4e65fad6a7708a91,2024_11_13,30.66753984549761,-81.42983,Main Beach,0,1.05,1.26,24,24,MOSTLY_CLOUDY,Onshore,1
5842041f4e65fad6a7708a92,2024_11_13,30.69983581209126,-81.42483,Ft. Clinch State Park,0,1.13,1.43,24,24,MOSTLY_CLOUDY,Onshore,1
5842041f4e65fad6a7708a93,2024_11_13,30.62059700777582,-81.437252942757425,Amelia Pier,1,0.96,1.27,24,24,MOSTLY_CLOUDY,Onshore,1
5842041f4e65fad6a7708a95,2024_11_13,28.95125170929067,-80.83837,Bethune Beach,1,0.68,0.98,25,25,MOSTLY_CLOUDY,Onshore,1
5842041f4e65fad6a7708a96,2024_11_13,29.03874288905362,-80.8933424949646,Flagler Ave.,1,0.89367,1.44333,26,25,CLEAR,Onshore,1
5842041f4e65fad6a7708a98,2024_11_13,30.332297686992757,-81.39319,Atlantic Beach,1,1.02466,1.41377,24,24,MOSTLY_CLOUDY,Onshore,1
5842041f4e65fad6a7708a99,2024_11_13,29.87530059952514,-81.26757958498874,Middles,0.5,0.38233,0.69633,27,25,BRIEF_SHOWERS,Onshore,1
5842041f4e65fad6a7708a9a,2024_11_13,29.146475528378218,-80.96347,Sunglow Pier,1,0.74,1.05,25,25,MOSTLY_CLOUDY,Onshore,1
5842041f4e65fad6a7708a9b,2024_11_13,30.02251238001095,-81.32183077344881,Gate Station,0.5,0.47567,0.78133,27,25,MOSTLY_CLOUDY,Onshore,1
5842041f4e65fad6a7708a9c,2024_11_13,29.33976495417899,-81.0606,Bicentennial Park,1,0.75,1.06,25,25,MOSTLY_CLEAR,Onshore,1
5842041f4e65fad6a7708a9d,2024_11_13,29.08257353385602,-80.92137,Ponce Inlet,1,1.097,1.52967,25,24,MOSTLY_CLEAR,Onshore,1
5842041f4e65fad6a7708a9f,2024_11_13,27.862962005874696,-80.44668,Sebastian Inlet,1,1.04183,1.31751,26,26,MOSTLY_CLOUDY,Onshore,1
5842041f4e65fad6a7708aa0,2024_11_13,30.292626880836885,-81.38579,Jacksonville Beach Pier,1,0.95367,1.26767,25,24,MOSTLY_CLOUDY,Cross-shore,1
5842041f4e65fad6a7708aa2,2024_11_13,29.21860397328164,-81.0019,Daytona Beach,1,0.74,1.04,25,25,MOSTLY_CLOUDY,Onshore,1
5842041f4e65fad6a7708aa3,2024_11_13,27.47531255634912,-80.28914,Ft. Pierce Inlet,1,0.94367,1.24767,27,26,CLEAR,Onshore,1
5842041f4e65fad6a7708aa4,2024_11_13,29.29239875585548,-81.0386,Ormond Beach,1,0.98,1.14,25,25,MOSTLY_CLEAR,Onshore,1
5842041f4e65fad6a7708aa5,2024_11_13,29.91629441498523,-81.28801,Vilano,1,0.69,1,24,24,CLEAR,Onshore,1
5842041f4e65fad6a7708aa6,2024_11_13,27.876230736320828,-80.4551,Spanish House,1,1.132,1.446,26,25,MOSTLY_CLOUDY,Onshore,1
5842041f4e65fad6a7708aa7,2024_11_13,28.64397251741012,-80.62329,Playalinda,1,0.76,1.06,25,25,CLEAR,Onshore,1
5842041f4e65fad6a7708aa8,2024_11_13,28.406142,-80.58886,Jetty Park,1,0.48,0.79,25,25,CLEAR,Onshore,1
5842041f4e65fad6a7708aa9,2024_11_13,28.49083243010974,-80.58001715986319,Kennedy Space Center,1,0.73,1.04,25,25,CLEAR,Onshore,1
5842041f4e65fad6a7708aab,2024_11_13,28.336757013024314,-80.60568,Lori Wilson Park,1,0.85367,1.15933,25,25,MOSTLY_CLEAR,Onshore,1
5842041f4e65fad6a7708aad,2024_11_13,27.76388821683801,-80.3962958234027,Wabasso,1,1.03,1.33,27,27,MOSTLY_CLOUDY,Onshore,1
5842041f4e65fad6a7708aae,2024_11_13,27.521583322459,-80.30987620353699,P.V. Martin's,1,1.15367,1.45767,26,26,MOSTLY_CLOUDY,Onshore,1
5842041f4e65fad6a7708aaf,2024_11_13,27.644996047720046,-80.35242676734924,Riomar,1,1.09367,1.38933,26,26,CLEAR,Onshore,1
5842041f4e65fad6a7708ab1,2024_11_13,27.670121806659253,-80.36026954650879,Vero Pier,0.5,1.15367,1.45933,26,26,MOSTLY_CLEAR,Onshore,1
5842041f4e65fad6a7708ab2,2024_11_13,28.047705032021486,-80.54680109024048,Spessard Holland,1,1.11678,1.42017,25,25,MOSTLY_CLOUDY,Onshore,1
5842041f4e65fad6a7708ab7,2024_11_13,28.135426226217064,-80.57895541191101,The Radisson,1,1.187,1.49267,25,25,BRIEF_SHOWERS,Onshore,1
5842041f4e65fad6a7708ab8,2024_11_13,28.26664623907351,-80.60448,Picnic Tables,1,1,1.19,25,25,MOSTLY_CLEAR,Onshore,1
5842041f4e65fad6a7708ab9,2024_11_13,28.200840983180232,-80.59493,Perkins,1,1,1.19,26,26,MOSTLY_CLEAR,Onshore,1
5842041f4e65fad6a7708aba,2024_11_13,28.185652556759443,-80.59154,RC's,1,0.9,1.2,26,26,MOSTLY_CLEAR,Onshore,1
5842041f4e65fad6a7708abc,2024_11_13,28.252541991968208,-80.60269,2nd Light,1,1,1.19,25,25,MOSTLY_CLEAR,Onshore,1
5842041f4e65fad6a7708abd,2024_11_13,27.901611308716447,-80.4697,Bonsteel Park,1,1.082,1.37767,26,25,MOSTLY_CLOUDY,Onshore,1
5842041f4e65fad6a7708abe,2024_11_13,28.2423394657007,-80.60104,Hangar's Beach,1,0.97,1.28,25,25,MOSTLY_CLEAR,Onshore,1
5842041f4e65fad6a7708abf,2024_11_13,27.34018197146798,-80.23278,Walton Rocks,1,1.017,1.31267,27,26,MOSTLY_CLOUDY,Onshore,1
5842041f4e65fad6a7708ac0,2024_11_13,25.80407401902198,-80.1222227290161,30th Street,1,0.18,0.49,28,28,CLOUDY,Onshore,1
5842041f4e65fad6a7708ac1,2024_11_13,25.76570280215999,-80.12983,South Beach,1,0.41067,0.70633,28,28,CLOUDY,Onshore,1
5842041f4e65fad6a7708ac2,2024_11_13,26.058022412197,-80.10873562327671,Dania Pier,1,0.33,0.64,28,28,MOSTLY_CLOUDY,Onshore,1
5842041f4e65fad6a7708ac3,2024_11_13,26.04825428257198,-80.11153150137932,Franklin Street,1,0.53,0.84,28,28,MOSTLY_CLOUDY,Onshore,1
5842041f4e65fad6a7708ac4,2024_11_13,26.09086461141498,-80.10728410144065,John Lloyd State Park,1,0.54,0.85,28,28,MOSTLY_CLOUDY,Onshore,1
5842041f4e65fad6a7708ac5,2024_11_13,26.0971397396683,-80.10298876028907,Spoils,0,0.34,0.64,28,28,MOSTLY_CLOUDY,Onshore,1
5842041f4e65fad6a7708ac6,2024_11_13,26.18920557475824,-80.09224,Commercial Pier,1,0.46,0.76,28,28,MOSTLY_CLOUDY,Onshore,1
5842041f4e65fad6a7708ac7,2024_11_13,28.289851576629342,-80.6063,16th St. South,0.5,0.32733,0.633,26,26,MOSTLY_CLEAR,Onshore,1
5842041f4e65fad6a7708ac8,2024_11_13,26.23467460139735,-80.0874,Pompano Pier,1,0.51,0.82,28,28,MOSTLY_CLOUDY,Onshore,1
5842041f4e65fad6a7708acb,2024_11_13,26.44179551370651,-80.05928855229453,Atlantic Dunes Park,1,0.36775,0.65128,27,27,MOSTLY_CLOUDY,Offshore,1
5842041f4e65fad6a7708acd,2024_11_13,26.62215707439298,-80.03599398392342,Hilton Hotel Backyard,1,0.75633,1.062,27,27,MOSTLY_CLOUDY,Onshore,1
5842041f4e65fad6a7708ace,2024_11_13,26.96418190555367,-80.07769168113562,Coral Cove Park,1,1.17033,1.47433,27,26,MOSTLY_CLOUDY,Onshore,1
5842041f4e65fad6a7708acf,2024_11_13,26.7029496416037,-80.03184,Palm Beach,1,0.79633,1.102,27,27,MOSTLY_CLOUDY,Onshore,1
5842041f4e65fad6a7708ad0,2024_11_13,26.97679878167375,-80.08141631388132,Blowing Rocks,1,1.09867,1.41267,27,26,BRIEF_SHOWERS,Onshore,1
5842041f4e65fad6a7708ad2,2024_11_13,26.45661880078336,-80.057,Delray Beach,1,0.49567,0.80133,27,27,MOSTLY_CLOUDY,Onshore,1
5842041f4e65fad6a7708ad3,2024_11_13,27.205685534312778,-80.16826629638672,Fletcher's,1,1.10533,1.401,27,26,MOSTLY_CLOUDY,Onshore,1
5842041f4e65fad6a7708ad5,2024_11_13,26.5848450388814,-80.03649735753257,Lantana Public Beach,1,0.57733,0.88133,27,27,CLEAR,Onshore,1
5842041f4e65fad6a7708ad6,2024_11_13,25.77468432731322,-80.12884045797499,5th Street,1,0.36,0.66,28,28,OVERCAST,Onshore,1
5842041f4e65fad6a7708ad7,2024_11_13,25.795157990715975,-80.12527585029602,21st Street,1,0.17,0.48,28,28,OVERCAST,Onshore,1
5842041f4e65fad6a7708ad8,2024_11_13,25.897806453088073,-80.1211827993393,Haulover Inlet (South Jetty),1,0.33,0.63,27,27,MOSTLY_CLOUDY,Onshore,1
5842041f4e65fad6a7708ad9,2024_11_13,25.90147392328634,-80.12110769748688,Haulover Inlet (North Jetty),1,0.48,0.78,27,27,MOSTLY_CLOUDY,Onshore,1
5842041f4e65fad6a7708ada,2024_11_13,25.87049374242476,-80.11828560342356,85th Street,1,0.4,0.7,28,28,MOSTLY_CLOUDY,Onshore,1
5842041f4e65fad6a7708adb,2024_11_13,26.25486382031396,-80.0805,Hillsboro Inlet,1,0.69051,1.01484,28,28,MOSTLY_CLOUDY,Onshore,1
5842041f4e65fad6a7708add,2024_11_13,26.29705672965111,-80.07612,Hillsboro Beach,1,0.48,0.78,28,28,MOSTLY_CLOUDY,Onshore,1
5842041f4e65fad6a7708ade,2024_11_13,26.36569956413266,-80.06717936869391,Red Reef Park,1,0.46067,0.75633,27,27,CLEAR,Onshore,1
5842041f4e65fad6a7708adf,2024_11_13,26.54593873498907,-80.04104359585143,Boynton Beach Inlet (Northside),1,0.404,0.718,27,27,MOSTLY_CLOUDY,Onshore,1
5842041f4e65fad6a7708ae0,2024_11_13,26.92746505629809,-80.06721138954163,Corners,1,1.02265,1.30167,27,27,MOSTLY_CLOUDY,Onshore,1
5842041f4e65fad6a7708ae1,2024_11_13,26.76983179886943,-80.03413481937037,The Cove,1,0.81133,1.107,27,27,MOSTLY_CLOUDY,Onshore,1
5842041f4e65fad6a7708ae3,2024_11_13,26.39224485175123,-80.0650461233983,Japanese Rock,1,0.404,0.70967,27,27,MOSTLY_CLOUDY,Onshore,1
5842041f4e65fad6a7708ae4,2024_11_13,29.94810928551321,-85.42545434612366,Mexico Beach,2,0.05,0.35,25,25,CLEAR,Offshore,1
5842041f4e65fad6a7708ae5,2024_11_13,30.11752500931267,-85.7306,Shell Island,1,0.09,0.39,25,25,CLEAR,Offshore,1
5842041f4e65fad6a7708ae7,2024_11_13,29.94901514702268,-85.43042978529013,D.J.'s,1,0.04,0.35,25,25,CLEAR,Cross-shore,1
5842041f4e65fad6a7708ae8,2024_11_13,30.12396111446713,-85.73637,St. Andrew's Park,1,0.05833,0.354,25,24,CLEAR,Offshore,1
5842041f4e65fad6a7708ae9,2024_11_13,30.16781531760227,-85.79604918824084,Spinnaker,1,0.05833,0.36233,25,24,CLEAR,Cross-shore,1
5842041f4e65fad6a7708aea,2024_11_13,30.18877050526983,-85.83243530466363,Wood Pier,1.5,0.33233,0.628,25,24,CLEAR,Offshore,1
5842041f4e65fad6a7708aeb,2024_11_13,30.2676205895555,-85.9938578144113,Inlet Beach Pier,1.5,0.344,0.658,25,24,MOSTLY_CLOUDY,Offshore,1
5842041f4e65fad6a7708aec,2024_11_13,30.31815542759119,-86.1383771867044,Bud and Alley's,1,0.369,0.67467,25,24,CLEAR,Cross-shore,1
5842041f4e65fad6a7708aed,2024_11_13,30.32686082481946,-86.16650590275447,Grayton Beach,1,0.40567,0.71967,25,24,CLEAR,Cross-shore,1
5842041f4e65fad6a7708aee,2024_11_13,30.33661488976303,-86.20094,Blue Mountain Beach,1,0.364,0.678,25,24,MOSTLY_CLEAR,Cross-shore,1
5842041f4e65fad6a7708aef,2024_11_13,30.37677202831587,-86.38513,Pompano Joe's,1,0.45567,0.89667,25,24,CLEAR,Cross-shore,1
5842041f4e65fad6a7708af0,2024_11_13,30.37429731725911,-86.36687,Seascape,1,0.404,0.845,25,24,CLEAR,Cross-shore,1
5842041f4e65fad6a7708af1,2024_11_13,30.382815988547186,-86.45839,The Back Porch,1,0.484,0.90667,25,24,MOSTLY_CLOUDY,Cross-shore,1
5842041f4e65fad6a7708af2,2024_11_13,30.21207176798612,-85.87989730830542,Panama City Pier,1.5,0.32733,0.633,25,24,CLEAR,Offshore,1
5842041f4e65fad6a7708af3,2024_11_13,30.37521499110326,-86.3717,Whale's Tail,1.5,0.419,0.85167,25,24,CLEAR,Offshore,1
5842041f4e65fad6a7708af4,2024_11_13,30.38120596658251,-86.43046,Old Crystal Pier,1,0.409,0.84,25,24,MOSTLY_CLOUDY,Cross-shore,1
5842041f4e65fad6a7708af5,2024_11_13,30.38090573159031,-86.50655,Jetty East,1,0.44733,0.87833,25,24,MOSTLY_CLOUDY,Cross-shore,1
5842041f4e65fad6a7708af6,2024_11_13,30.37584509640838,-86.50563,HMO's,1,0.44733,0.87,25,24,MOSTLY_CLOUDY,Cross-shore,1
5842041f4e65fad6a7708af7,2024_11_13,30.38124006131522,-86.50052,Two By Fours,1,0.449,0.88167,25,24,CLEAR,Cross-shore,1
5842041f4e65fad6a7708af8,2024_11_13,30.38250751017554,-86.45776,The Pumphouse,1,0.44067,0.88167,25,24,MOSTLY_CLOUDY,Cross-shore,1
5842041f4e65fad6a7708af9,2024_11_13,30.38655981578935,-86.52475,NCO Club,1,0.44733,0.87833,25,24,MOSTLY_CLOUDY,Cross-shore,1
5842041f4e65fad6a7708afa,2024_11_13,30.39024516541047,-86.59341,Okaloosa Pier,1,0.43733,0.87833,25,24,CLEAR,Cross-shore,1
5842041f4e65fad6a7708afb,2024_11_13,30.39281125722673,-86.59766,Dead Man's,1,0.514,0.93667,25,24,CLEAR,Cross-shore,1
5842041f4e65fad6a7708afc,2024_11_13,30.32703176167034,-87.14196,Pensacola Pier,0,0.88,1.18,25,25,MOSTLY_CLOUDY,Cross-shore,1
5842041f4e65fad6a7708afd,2024_11_13,30.37920054094992,-86.85583,Navarre Beach,1,0.65333,1.08233,25,24,CLEAR,Offshore,1
5842041f4e65fad6a7708afe,2024_11_13,30.39491626029151,-86.61248,Blue Horizon Motel,1,0.50233,0.935,25,24,CLEAR,Cross-shore,1
5842041f4e65fad6a7708aff,2024_11_13,30.29345899260828,-87.43547,First Parking Lot,0,0.83,1.13,24,24,CLEAR,Cross-shore,1
5842041f4e65fad6a7708b00,2024_11_13,30.29767401311303,-87.41362,Johnsons Beach,0,0.85,1.16,24,24,MOSTLY_CLOUDY,Cross-shore,1
5842041f4e65fad6a7708b01,2024_11_13,30.29513397370759,-87.42642,Sandy Key,0,0.83,1.14,24,24,CLEAR,Cross-shore,1
5842041f4e65fad6a7708b03,2024_11_13,30.377504907388026,-86.86444,Navarre Pier,0,0.76967,1.19233,25,24,CLEAR,Cross-shore,1
5842041f4e65fad6a7708b04,2024_11_13,30.31482647791307,-87.26164,Pickens Point Dunes,0,0.89,1.2,25,25,MOSTLY_CLOUDY,Cross-shore,1
5842041f4e65fad6a7708b05,2024_11_13,30.32632110836516,-87.16019503253068,Slabs,0,0.92,1.23,25,25,MOSTLY_CLOUDY,Onshore,1
5842041f4e65fad6a7708b06,2024_11_13,30.32739721382043,-87.30406515493348,Pickens Point,1,0.93,1.23,25,25,CLEAR,Offshore,1
5842041f4e65fad6a7708b07,2024_11_13,30.27406893266753,-87.54367,Bungalows,0,0.92,1.22,24,24,MOSTLY_CLOUDY,Onshore,1
5842041f4e65fad6a7708b08,2024_11_13,27.99627311846992,-82.82942,880,0,0,0.17621,26,26,CLEAR,Offshore,1
5842041f4e65fad6a7708b09,2024_11_13,27.97779860371595,-82.83246509090527,Pier 60,0,0,0.13,26,26,CLEAR,Offshore,1
5842041f4e65fad6a7708b0a,2024_11_13,27.96296387618043,-82.8332635965418,Sand Key,0,0,0.12,26,26,CLEAR,Offshore,1
5842041f4e65fad6a7708b0b,2024_11_13,27.92492619212885,-82.8449122845279,Belleair,0,0,0.12,26,26,CLEAR,Offshore,1
5842041f4e65fad6a7708b0c,2024_11_13,27.882,-82.854,Indian Rocks Beach,0,0,0.12,26,26,CLEAR,Offshore,1
5842041f4e65fad6a7708b0d,2024_11_13,27.83106104966094,-82.83550218771384,Redington Breakwater,0,0,0.12,26,26,CLEAR,Offshore,1
5842041f4e65fad6a7708b0e,2024_11_13,27.74369029906206,-82.76053473435867,Middle Jetty,0,0,0.12,26,26,CLEAR,Offshore,1
5842041f4e65fad6a7708b0f,2024_11_13,27.82174178852146,-82.83148664631841,Redington Pier,0,0,0.12,26,26,CLEAR,Offshore,1
5842041f4e65fad6a7708b10,2024_11_13,27.31496308261514,-82.5830466912004,Lido Beach,0,0,0.12,26,26,CLEAR,Offshore,1
5842041f4e65fad6a7708b11,2024_11_13,27.31122010159892,-82.57833234007632,Coolidge,0,0,0.12,26,26,CLEAR,Offshore,1
5842041f4e65fad6a7708b12,2024_11_13,27.26471672017615,-82.55464835167173,Siesta Key,0,0,0.12867,27,25,MOSTLY_CLEAR,Offshore,1
5842041f4e65fad6a7708b13,2024_11_13,27.24638693488133,-82.53809115716797,Stickney Point,0,0,0.13,26,26,MOSTLY_CLEAR,Offshore,1
5842041f4e65fad6a7708b14,2024_11_13,27.21907878229092,-82.51813937562073,Turtles,0,0,0.12,26,26,CLEAR,Offshore,1
5842041f4e65fad6a7708b15,2024_11_13,27.11375765852028,-82.47039,Venice Jetties North,0,0,0.09,27,25,CLEAR,Offshore,1
5842041f4e65fad6a7708b16,2024_11_13,27.111485758834025,-82.46757,Venice Jetties South,0,0,0.1,27,25,CLEAR,Offshore,1
5842041f4e65fad6a7708b17,2024_11_13,27.07249378831575,-82.4530285256104,Venice Pier,0,0,0.13,27,25,CLEAR,Offshore,1
5842041f4e65fad6a7708b19,2024_11_13,27.49680446426314,-82.7140145455959,Holmes Beach Pier,0,0,0.11,26,26,CLEAR,Offshore,1
5842041f4e65fad6a7708b1a,2024_11_13,27.7390348493064,-82.75763,Sunset Beach,0,0,0.12,26,26,CLEAR,Offshore,1
5842041f4e65fad6a7708b1b,2024_11_13,26.80347307599041,-82.28564775623539,Gasparilla Point,0,0,0.13,26,26,CLEAR,Offshore,1
5842041f4e65fad6a7708b1c,2024_11_13,27.45365831548911,-82.69609,Coquina Jetties,0,0,0.11,26,26,CLEAR,Offshore,1
5842041f4e65fad6a7708b1d,2024_11_13,27.46077315206043,-82.69924,Twin Piers,0,0,0.122,27,25,CLEAR,Offshore,1
5842041f4e65fad6a7708b1e,2024_11_13,26.91007316019612,-82.35352,Englewood,0,0,0.1,26,26,CLEAR,Offshore,1
5842041f4e65fad6a7708b1f,2024_11_13,26.88221101560038,-82.3359828282636,Knight's Point,0,0,0.12,26,26,CLEAR,Offshore,1
5842041f4e65fad6a7708b20,2024_11_13,26.51219285784982,-82.1928203289264,Tween Waters,0,0,0.13,26,26,CLEAR,Offshore,1
5842041f4e65fad6a7708b21,2024_11_13,26.55130241615096,-82.20222762415648,Redfish Pass,0,0,0.14,26,26,CLEAR,Offshore,1
5842041f4e65fad6a7708b22,2024_11_13,26.71713432926596,-82.26287777058234,Boca Grande,0,0,0.13,26,26,CLEAR,Offshore,1
5842041f4e65fad6a7708b23,2024_11_13,26.47856785808584,-82.181288592828,Blind Pass,0,0,0.14,26,26,CLEAR,Offshore,1
5842041f4e65fad6a7708b24,2024_11_13,26.25358330618783,-81.82429246081317,The Wall,0,0,0.11,26,26,CLEAR,Offshore,1
5842041f4e65fad6a7708b25,2024_11_13,26.17456407516186,-81.81588575623482,Doctor's Pass,0,0,0.11,26,26,CLEAR,Offshore,1
5842041f4e65fad6a7708b26,2024_11_13,27.427134501874612,-82.68110766159296,Whitney Beach,0,0,0.13,26,26,CLEAR,Offshore,1
5842041f4e65fad6a7708b27,2024_11_13,26.17300183052463,-81.81515842430267,Doctor's Pass (South Jetty),0,0,0.11,26,26,CLEAR,Offshore,1
5842041f4e65fad6a7708b28,2024_11_13,27.73496421495629,-82.75268962468695,Upham Beach Park,0,0,0.12,26,26,CLEAR,Offshore,1
5842041f4e65fad6a7708b29,2024_11_13,26.13144856766723,-81.8090395116521,Naples Pier,0,0,0.11,26,26,CLEAR,Offshore,1
5842041f4e65fad6a7708b2a,2024_11_13,20.63474,-156.45211,Little Beach,2,0.02,0.33,26,26,NIGHT_CLEAR,Cross-shore,1
5842041f4e65fad6a7708b2b,2024_11_13,20.613,-156.438,Dumps,2,0.05,0.36,26,26,NIGHT_CLEAR,Cross-shore,1
5842041f4e65fad6a7708b2c,2024_11_13,22.216,-159.502,Hanalei Bay,3,2.47,2.95,26,26,NIGHT_MOSTLY_CLEAR,Offshore,1
5842041f4e65fad6a7708b2d,2024_11_13,22.225,-159.567,Ha'Ena Bay (Cannons/Tunnels),1,3.09,3.69,26,26,NIGHT_CLEAR,Cross-shore,1
5842041f4e65fad6a7708b2f,2024_11_13,22.148,-159.301,Anahola Bay,1,1.17,1.47,26,26,NIGHT_MOSTLY_CLOUDY,Onshore,1
5842041f4e65fad6a7708b30,2024_11_13,21.872,-159.462,Poipu Outer Reef,2,0.51,0.82,26,26,NIGHT_MOSTLY_CLEAR,Offshore,1
5842041f4e65fad6a7708b31,2024_11_13,21.936,-159.652,Pakala,2,0.21,0.51,26,26,NIGHT_CLEAR,Offshore,1
5842041f4e65fad6a7708b32,2024_11_13,21.272,-157.832,Populars,1,0.2,0.51,26,25,NIGHT_MOSTLY_CLEAR,Offshore,1
5842041f4e65fad6a7708b33,2024_11_13,21.26841992117695,-157.82329,Publics,1,0.28,0.58,26,25,NIGHT_MOSTLY_CLEAR,Offshore,1
5842041f4e65fad6a7708b34,2024_11_13,21.25460513357954,-157.79432,Black Point,1,0.6429,0.96417,26,26,NIGHT_SHOWERS,Offshore,1
5842041f4e65fad6a7708b35,2024_11_13,21.27394674233747,-157.82777,Canoes,1,0.29,0.6,26,25,NIGHT_MOSTLY_CLEAR,Offshore,1
5842041f4e65fad6a7708b36,2024_11_13,21.273658410008455,-157.8263,Queen's,1,0.23,0.54,26,25,NIGHT_MOSTLY_CLEAR,Offshore,1
5842041f4e65fad6a7708b37,2024_11_13,20.869,-156.679,Lahaina Harbor - Breakwall,3,0.32,0.63,27,27,NIGHT_CLEAR,Offshore,1
5842041f4e65fad6a7708b38,2024_11_13,21.277,-157.841,Kaiser's,2,0.51,0.82,26,25,NIGHT_MOSTLY_CLEAR,Offshore,1
5842041f4e65fad6a7708b39,2024_11_13,21.280537020769913,-157.84107,Rockpiles,1,0.24383,0.54311,26,25,NIGHT_MOSTLY_CLEAR,Offshore,1
5842041f4e65fad6a7708b3a,2024_11_13,21.2745,-157.8395,Four's,2,0.48,0.78,26,26,NIGHT_MOSTLY_CLEAR,Offshore,1
5842041f4e65fad6a7708b3b,2024_11_13,21.576,-158.282,Kaena Point,2,2.79,3.34,26,26,NIGHT_CLEAR,Cross-shore,1
5842041f4e65fad6a7708b3c,2024_11_13,21.31110306220024,-157.6590697786346,Makapu'u,1,1.09,1.4,26,26,NIGHT_MOSTLY_CLEAR,Onshore,1
5842041f4e65fad6a7708b3d,2024_11_13,21.276618032562773,-157.83386,Three's,1,0.18551,0.49604,26,25,NIGHT_MOSTLY_CLEAR,Offshore,1
5842041f4e65fad6a7708b42,2024_11_13,21.281416779283845,-157.8457,Ala Moana Bowls,2,0.50038,0.82469,26,25,NIGHT_MOSTLY_CLEAR,Offshore,1
5842041f4e65fad6a7708b43,2024_11_13,15.846,-97.06,Puerto Escondido,3,1.06,1.27,30,30,CLEAR,Offshore,1
5842041f4e65fad6a7708b44,2024_11_13,11.44175,-86.08519,Santana,3,0.9,1.08,29,29,OVERCAST,Onshore,1
5842041f4e65fad6a7708b47,2024_11_13,18.46,-66.07383728027,San Juan,4,1.2192,1.8288,27,26,CLEAR,Cross-shore,1
5842041f4e65fad6a7708b48,2024_11_13,13.21526058417982,-59.52183,Soup Bowl,2,1.83,2.18,31,31,BRIEF_SHOWERS,Onshore,1
5842041f4e65fad6a7708b49,2024_11_13,18.371581,-67.25941,Puntas,4,1.1692,1.8288,28,27,CLEAR,Onshore,1
5842041f4e65fad6a7708b4b,2024_11_13,-8.814,115.089,Uluwatu,3,1.02,1.22,28,28,NIGHT_CLEAR,Offshore,1
5842041f4e65fad6a7708b4c,2024_11_13,-8.950192825865,115.12573242187,Kuta,2,1.31,1.61,30,30,NIGHT_CLEAR,Cross-shore,1
5842041f4e65fad6a7708b4d,2024_11_13,9.94,-85.668,Guiones,2,0.67,0.98,28,28,RAIN,Onshore,1
5842041f4e65fad6a7708b4e,2024_11_13,9.56516,-84.59148,Playa Hermosa South,3,0.7836,1.13566,28,28,OVERCAST,Offshore,1
5842041f4e65fad6a7708b4f,2024_11_13,9.526305556,-84.48822,Playa Esterillos,3,1.04,1.24,28,28,OVERCAST,Cross-shore,1
5842041f4e65fad6a7708b50,2024_11_13,9.576,-84.608,Playa Hermosa North,2,0.62,0.92,28,28,OVERCAST,Cross-shore,1
5842041f4e65fad6a7708b53,2024_11_13,-12.337,-76.839,Pico Alto,3,1.46962,1.6451,18,18,MOSTLY_CLOUDY,Onshore,1
5842041f4e65fad6a7708b55,2024_11_13,-12.17155,-77.08515,Peruazul,2,0.75,1.05,17,17,MOSTLY_CLOUDY,Cross-shore,1
5842041f4e65fad6a7708b56,2024_11_13,-12.133164,-77.03916,Makaha,3,1.47619,1.65115,17,17,MOSTLY_CLOUDY,Onshore,1
5842041f4e65fad6a7708b57,2024_11_13,43.29,-2.1708,Zarautz,2,0.5463,0.89912,18,18,CLEAR,Onshore,1
5842041f4e65fad6a7708b58,2024_11_13,54.27129984804951,-8.60171,Strandhill,4,0.98316,1.53618,12,12,MIST,Onshore,1
5842041f4e65fad6a7708b5b,2024_11_13,39.276101,-74.56709,7th Street,2,0.57753,0.89834,16,14,CLEAR,Offshore,1
5842041f4e65fad6a7708b5d,2024_11_13,39.321896,-74.506191,Sumner Avenue,1,0.2919,0.5963,17,17,CLEAR,Offshore,1
5842041f4e65fad6a7708b5e,2024_11_13,39.093673,-74.71653,26th to 30th Street Pier,2,0.58047,0.8757,16,14,MOSTLY_CLEAR,Offshore,1
5842041f4e65fad6a7708b5f,2024_11_13,39.039903,-74.76417,Nun's Beach,1,0.57462,0.89833,16,15,CLEAR,Offshore,1
5842041f4e65fad6a7708b60,2024_11_13,38.96768,-74.82565,Rambler Road,1.3333333333333333,0.5738,0.8782,16,15,CLEAR,Offshore,1
5842041f4e65fad6a7708b61,2024_11_13,38.99931,-74.78814,2nd St. to 10th St.,1,0.57547,0.8807,16,15,MOSTLY_CLEAR,Offshore,1
5842041f4e65fad6a7708b62,2024_11_13,38.929886,-74.91718,Stockton Avenue,1.3333333333333333,0.5588,0.8719,16,15,CLEAR,Cross-shore,1
5842041f4e65fad6a7708b63,2024_11_13,38.942988,-74.862452,The Rocks,1.3333333333333333,0.56713,0.87237,16,15,CLEAR,Offshore,1
5842041f4e65fad6a7708b64,2024_11_13,38.93036,-74.91257,Queen Street,1.3333333333333333,0.56797,0.8732,16,15,CLEAR,Offshore,1
5842041f4e65fad6a7708b65,2024_11_13,38.942757,-74.880791,Poverty Beach,1.3333333333333333,0.56297,0.86737,16,15,CLEAR,Offshore,1
5842041f4e65fad6a7708b66,2024_11_13,38.929441,-74.93129,Broadway Beach,1.3333333333333333,0.56547,0.86987,16,15,CLEAR,Offshore,1
5842041f4e65fad6a7708b67,2024_11_13,38.92870117926206,-74.92116,Grant Street Beach,1.3333333333333333,0.56797,0.87237,16,15,CLEAR,Offshore,1
5842041f4e65fad6a7708b68,2024_11_13,38.928934874358276,-74.93582,The Cove,2,0.2921,0.59587,16,16,CLEAR,Offshore,1
5842041f4e65fad6a7708b69,2024_11_13,26.775154329102108,-80.03124833106995,Pumphouse,1,0.97,1.27,28,28,MOSTLY_CLOUDY,Onshore,1
5842041f4e65fad6a7708b6a,2024_11_13,26.72114353296791,-80.03310374527736,Sunrise,1,0.76967,1.07533,27,27,MOSTLY_CLOUDY,Onshore,1
5842041f4e65fad6a7708b6b,2024_11_13,26.71306786153966,-80.03222170715443,Breakers,1,0.773,1.07867,27,27,MOSTLY_CLOUDY,Onshore,1
5842041f4e65fad6a7708b6c,2024_11_13,26.699075556703683,-80.03263235092163,Charlie's Crab,1,0.80633,1.11033,27,27,MOSTLY_CLOUDY,Onshore,1
5842041f4e65fad6a7708b6d,2024_11_13,26.79441490392914,-80.0306161110009,Ocean Reef Park,1,0.758,1.072,27,27,CLEAR,Onshore,1
5842041f4e65fad6a7708b6f,2024_11_13,26.93134670517399,-80.06760115579169,Civic Center,1,1.01065,1.29023,27,27,MOSTLY_CLOUDY,Onshore,1
5842041f4e65fad6a7708b70,2024_11_13,26.90524197396177,-80.0593609780092,Kite Beach,1,0.97514,1.26913,27,27,MOSTLY_CLOUDY,Onshore,1
5842041f4e65fad6a7708b71,2024_11_13,26.54279208054373,-80.04292130470276,Boynton Beach Inlet (Southside),0.5,0.404,0.718,27,27,MOSTLY_CLOUDY,Onshore,1
5842041f4e65fad6a7708b72,2024_11_13,26.613511029817357,-80.03534,Lake Worth Pier,1,0.64467,0.94033,27,27,BRIEF_SHOWERS,Onshore,1
5842041f4e65fad6a7708b73,2024_11_13,27.06670219261476,-80.11447191238403,Hobe Sound Public Beach,1,1.11533,1.421,27,26,MOSTLY_CLOUDY,Onshore,1
5842041f4e65fad6a7708b75,2024_11_13,27.21467611230439,-80.17308,Stuart Public Beach,0.5,1.12367,1.42933,27,26,MOSTLY_CLOUDY,Onshore,1
5842041f4e65fad6a7708b76,2024_11_13,27.36627923374593,-80.24622,Blind Creek Park,1,1.13033,1.426,27,26,MOSTLY_CLOUDY,Onshore,1
5842041f4e65fad6a7708b77,2024_11_13,26.94256932088346,-80.07057,Jupiter Inlet,1,1.067,1.381,27,26,MOSTLY_CLOUDY,Onshore,1
5842041f4e65fad6a7708b78,2024_11_13,26.89365359499372,-80.056,Juno Pier,1,0.96033,1.26433,27,27,MOSTLY_CLOUDY,Onshore,1
5842041f4e65fad6a7708b7a,2024_11_13,29.67671206577928,-85.3689474172784,Cape San Blas,2,0.48,0.79,25,25,CLEAR,Offshore,1
5842041f4e65fad6a7708b7b,2024_11_13,26.706551543472415,-80.03280401229858,Flagpole,1,0.75633,1.062,27,27,MOSTLY_CLOUDY,Onshore,1
5842041f4e65fad6a7708b7c,2024_11_13,29.94036477533054,-85.40953557392244,El Governor,2,0.02,0.33,25,25,CLEAR,Offshore,1
5842041f4e65fad6a7708b7d,2024_11_13,29.68231979841189,-85.30627194238092,Toilet Bowls,1,0.52,0.82,25,25,CLEAR,Cross-shore,1
5842041f4e65fad6a7708b7e,2024_11_13,29.6607153445246,-84.86361191991014,St. George Island,0,0.52,0.83,24,24,MOSTLY_CLOUDY,Cross-shore,1
5842041f4e65fad6a7708b7f,2024_11_13,29.77441172865639,-84.65942657000329,Dog Island,1,0.48,0.78,24,24,CLEAR,Cross-shore,1
5842041f4e65fad6a7708b98,2024_11_13,10.85099440725964,-85.79981,Ollie's Point,1,0.69,0.99,28,28,LIGHT_SHOWERS,Cross-shore,1
5842041f4e65fad6a7708b99,2024_11_13,10.79489213393012,-85.68066,Witches Rock,1,0.72,1.02,28,28,LIGHT_SHOWERS,Cross-shore,1
5842041f4e65fad6a7708b9a,2024_11_13,9.570222044864844,-85.14184,Mal Pais,2,1.03,1.24,28,28,THUNDER_SHOWERS,Onshore,1
5842041f4e65fad6a7708b9b,2024_11_13,10.29970304257365,-85.84398,Tamarindo,2,0.47,0.78,28,28,RAIN,Onshore,1
5842041f4e65fad6a7708b9c,2024_11_13,9.250593929300813,-83.86522,Dominical,3,0.9,1.08,28,28,RAIN,Offshore,1
5842041f4e65fad6a7708b9d,2024_11_13,9.48278011021258,-84.28883991550364,Bejuco,3,0.91,1.09,28,28,LIGHT_SHOWERS,Cross-shore,1
5842041f4e65fad6a7708ba1,2024_11_13,9.616940559391795,-84.63541,Playa Jaco,3,0.70868,1.04614,28,28,OVERCAST,Cross-shore,1
5842041f4e65fad6a7708ba3,2024_11_13,9.661646156842439,-84.67316883195207,Playa Escondida,3,0.62,0.93,28,28,LIGHT_SHOWERS,Offshore,1
5842041f4e65fad6a7708ba4,2024_11_13,9.635059578319176,-84.66159522794959,Herradura,3,0.65,0.95,28,28,LIGHT_SHOWERS,Offshore,1
5842041f4e65fad6a7708ba5,2024_11_13,9.958235741436532,-84.74122,Boca Barranca,3,0.62568,0.99164,28,28,LIGHT_RAIN,Cross-shore,1
5842041f4e65fad6a7708ba6,2024_11_13,9.922484732656224,-84.7158981889118,Caldera Jetty,3,0.58,0.89,28,28,LIGHT_RAIN,Offshore,1
5842041f4e65fad6a7708ba7,2024_11_13,9.661180947362254,-82.75273,Salsa Brava,1,0,0.25208,28,28,OVERCAST,Cross-shore,1
5842041f4e65fad6a7708ba8,2024_11_13,8.38230022212565,-83.28332,Matapalo,3,0.99,1.29,28,28,CLOUDY,Offshore,1
5842041f4e65fad6a7708ba9,2024_11_13,8.394937,-83.13952,Pavones,3,0.8,1.1,28,28,CLOUDY,Onshore,1
5842041f4e65fad6a7708baa,2024_11_13,13.47971255664387,-89.28610104791234,Playa San Diego,3,0.66,0.97,29,29,MOSTLY_CLOUDY,Offshore,1
5842041f4e65fad6a7708bab,2024_11_13,13.4834740494465,-89.32376,La Paz,3,0.34774,0.63753,29,29,MOSTLY_CLOUDY,Cross-shore,1
5842041f4e65fad6a7708bac,2024_11_13,13.48587874937462,-89.31998852531258,El Muelle (Pier),3,0.93,1.12,29,29,MOSTLY_CLOUDY,Offshore,1
5842041f4e65fad6a7708bad,2024_11_13,13.47973883183636,-89.32655,Punta Roca,3,0.93,1.11,29,29,MOSTLY_CLOUDY,Cross-shore,1
5842041f4e65fad6a7708bae,2024_11_13,13.491596878346689,-89.38104,La Bocana,3,0.66867,1.00848,29,29,CLOUDY,Cross-shore,1
5842041f4e65fad6a7708baf,2024_11_13,13.48324995683858,-89.33946,Playa Conchalio,3,0.64968,0.99693,29,29,MOSTLY_CLOUDY,Offshore,1
5842041f4e65fad6a7708bb0,2024_11_13,13.49167561061991,-89.39,Sunzal,3,0.424,0.672,29,29,CLOUDY,Cross-shore,1
5842041f4e65fad6a7708bbd,2024_11_13,38.945,-9.42,Foz de Lizandro,2,0.62544,0.93319,18,18,CLEAR,Cross-shore,1
5842041f4e65fad6a7708bc0,2024_11_13,38.67869246746279,-9.33685,Carcavelos,2,0.01024,0.31748,18,18,CLEAR,Offshore,1
5842041f4e65fad6a7708bc1,2024_11_13,38.983,-9.425,Reef,3,0.96,1.14,18,18,CLEAR,Cross-shore,1
5842041f4e65fad6a7708bc2,2024_11_13,38.988,-9.424,Ribeira D'Ilhas,3,0.4754,0.89112,18,18,CLEAR,Offshore,1
5842041f4e65fad6a7708bc3,2024_11_13,39.34167968424256,-9.36331,Supertubos,2,0.16,0.46,18,18,CLEAR,Offshore,1
5842041f4e65fad6a7708bc4,2024_11_13,39.001,-9.4284,Coxos,3,0.77706,1.10258,18,18,CLEAR,Offshore,1
5842041f4e65fad6a7708bc5,2024_11_13,40.13063921100635,-8.87044,Cabedelo,1,0.5925,0.90919,18,18,CLEAR,Offshore,1
5842041f4e65fad6a7708bc6,2024_11_13,39.37397686060677,-9.33235,Baleal,2,0.63,0.94,18,18,CLEAR,Onshore,1
5842041f4e65fad6a7708bc8,2024_11_13,43.68220203786759,-1.44167,Les Culs Nus,2,0.41392,0.7407,17,17,CLEAR,Offshore,1
5842041f4e65fad6a7708bca,2024_11_13,43.48469485823068,-1.56023,Biarritz,3,0.32257,0.62497,17,17,CLEAR,Offshore,1
5842041f4e65fad6a7708bcb,2024_11_13,39.0132,-9.424,Sao Lourenco,2,0.64121,0.94654,18,18,CLEAR,Cross-shore,1
5842041f4e65fad6a7708bcd,2024_11_13,43.64760422014503,-1.44721,Le Santocha,1,0.13874,0.37767,17,17,CLEAR,Offshore,1
5842041f4e65fad6a7708bce,2024_11_13,43.51401611768647,-1.53382,Anglet,2,0.28,0.58,17,17,CLEAR,Offshore,1
5842041f4e65fad6a7708bcf,2024_11_13,43.479,-1.569,La Cote des Basques,3,0.33086,0.64104,17,17,CLEAR,Offshore,1
5842041f4e65fad6a7708bdd,2024_11_13,4.307463458457968,73.57742,Jailbreaks,4,1.03,1.24,30,30,NIGHT_CLEAR,Offshore,1
5842041f4e65fad6a7708bde,2024_11_13,4.31216545719424,73.58368,Honky's,3,0.97762,1.14951,30,30,NIGHT_CLEAR,Offshore,1
5842041f4e65fad6a7708bdf,2024_11_13,4.313574269102099,73.58541879522511,Sultans,3,0.98078,1.15323,30,30,NIGHT_CLEAR,Offshore,1
5842041f4e65fad6a7708be0,2024_11_13,4.343204315364438,73.6136,Ninja's,3,0.97944,1.15165,30,30,NIGHT_CLEAR,Offshore,1
5842041f4e65fad6a7708be1,2024_11_13,4.348032688767217,73.621,Lohi's,3,1.03157,1.22499,30,30,NIGHT_CLEAR,Offshore,1
5842041f4e65fad6a7708be2,2024_11_13,4.31537277405848,73.59171,Pasta Point,2,0.54393,0.87456,30,30,NIGHT_CLEAR,Offshore,1
5842041f4e65fad6a7708be3,2024_11_13,-28.3344521240417,153.57739,Cabarita,3,0.554,0.93054,23,23,NIGHT_CLEAR,Cross-shore,1
5842041f4e65fad6a7708be4,2024_11_13,4.372896005883011,73.66323,Chickens,3,0.97741,1.14927,30,30,NIGHT_CLEAR,Offshore,1
5842041f4e65fad6a7708be5,2024_11_13,-28.16143481052803,153.55066,Snapper Rocks,2,0.35277,0.66136,23,23,NIGHT_CLEAR,Onshore,1
5842041f4e65fad6a7708be6,2024_11_13,4.370274672691539,73.65602,Colas,3,1.02738,1.23071,30,30,NIGHT_CLEAR,Offshore,1
5842041f4e65fad6a7708be8,2024_11_13,-28.08967141602908,153.45956,Burleigh Heads,2,0.50437,0.80244,23,23,NIGHT_CLEAR,Cross-shore,1
5842041f4e65fad6a7708be9,2024_11_13,-28.16436510036895,153.53589,Kirra,2,0.24337,0.54203,23,23,NIGHT_CLEAR,Onshore,1
5842041f4e65fad6a7708bea,2024_11_13,-26.809,153.136,Caloundra Bar,1,0.25707,0.55747,24,24,NIGHT_CLEAR,Cross-shore,1
5842041f4e65fad6a7708beb,2024_11_13,-27.4488954777054,153.5383894760102,North Stradbroke Island,3,1.01,1.12,25,25,NIGHT_CLEAR,Offshore,1
5842041f4e65fad6a7708bec,2024_11_13,-26.68680536290502,153.13793,Mooloolaba,1,0.1279,0.42747,24,24,NIGHT_CLEAR,Onshore,1
5842041f4e65fad6a7708bed,2024_11_13,40.028403115215,-74.04837,Mantoloking,0.6666666666666667,0.53993,0.8454,16,14,CLEAR,Cross-shore,1
5842041f4e65fad6a7708bee,2024_11_13,-26.38257,153.09668,Noosa Heads,2,0.00847,0.18316,24,24,NIGHT_CLEAR,Onshore,1
5842041f4e65fad6a7708bef,2024_11_13,-28.63764444,153.62803,"The Pass, Byron Bay",2,0.28982,0.58981,23,23,NIGHT_CLEAR,Onshore,1
5842041f4e65fad6a7708bf0,2024_11_13,-32.171,152.512,Tuncurry Breakwall,2,0.41,0.72,23,23,NIGHT_CLEAR,Cross-shore,1
5842041f4e65fad6a7708bf1,2024_11_13,-28.87513611,153.59244,Ballina North Wall,3,0.7,1.01,24,24,NIGHT_CLEAR,Cross-shore,1
5842041f4e65fad6a7708bf2,2024_11_13,-28.80011944,153.59755,Lennox Head,3,0.74,1.05,23,23,NIGHT_CLEAR,Offshore,1
5842041f4e65fad6a7708bf3,2024_11_13,-28.70581667,153.61983,Broken Head,3,0.65,0.96,24,24,NIGHT_MIST,Offshore,1
5842041f4e65fad6a7708bf4,2024_11_13,-29.44056667,153.3695194,Pippies/Yamba,3,0.65,0.95,23,23,NIGHT_LIGHT_SHOWERS_POSSIBLE,Cross-shore,1
5842041f4e65fad6a7708bf5,2024_11_13,-33.94857222,151.25722,Maroubra,3,0.75863,1.00811,20,20,NIGHT_CLEAR,Onshore,1
5842041f4e65fad6a7708bf6,2024_11_13,-34.05162704152385,151.15646,Cronulla,3,0.90233,1.22517,20,20,NIGHT_CLEAR,Onshore,1
5842041f4e65fad6a7708bf7,2024_11_13,-33.791855902720656,151.28878,Manly,3,1,1.31,20,20,NIGHT_CLEAR,Offshore,1
5842041f4e65fad6a7708bf8,2024_11_13,-33.892155707636114,151.27793,Bondi Beach,3,0.86103,1.15939,20,20,NIGHT_CLEAR,Onshore,1
5842041f4e65fad6a7708bf9,2024_11_13,-29.48278333,153.36727,Angourie,3,0.74,1.04,23,23,NIGHT_LIGHT_SHOWERS_POSSIBLE,Offshore,1
5842041f4e65fad6a7708bfa,2024_11_13,-33.75169106295242,151.29855,Dee Why,3,0.64925,0.88186,20,20,NIGHT_CLEAR,Offshore,1
5842041f4e65fad6a7708bfb,2024_11_13,-33.77330556,151.29331,Curl Curl,3,0.83819,1.08844,20,20,NIGHT_CLEAR,Offshore,1
5842041f4e65fad6a7708bfc,2024_11_13,-33.70960382813077,151.30361,Narrabeen,3,1.08444,1.32782,20,20,NIGHT_CLEAR,Offshore,1
5842041f4e65fad6a7708bfd,2024_11_13,-33.63539722,151.33297,Avalon,3,1.06,1.36,20,20,NIGHT_CLEAR,Offshore,1
5842041f4e65fad6a7708bfe,2024_11_13,-33.65150556,151.32512,Newport,3,0.95,1.25,20,20,NIGHT_CLEAR,Offshore,1
5842041f4e65fad6a7708bff,2024_11_13,-36.94544444,149.9151111,Pambula Rivermouth,2,0.58,0.88,19,19,NIGHT_CLEAR,Offshore,1
5842041f4e65fad6a7708c00,2024_11_13,-33.60841111,151.33339,Whale Beach,3,0.9,1.21,20,20,NIGHT_MIST,Offshore,1
5842041f4e65fad6a7708c01,2024_11_13,-36.89662778,149.92144,Merimbula Bar,1,0.07,0.38,19,19,NIGHT_CLEAR,Onshore,1
5842041f4e65fad6a7708c02,2024_11_13,-35.90458333,150.15191,Moruya,3,0.61,0.92,19,19,NIGHT_CLEAR,Cross-shore,1
5842041f4e65fad6a7708c03,2024_11_13,-35.36742222,150.48575,Ulladulla Bommie,1,0.41,0.72,20,20,NIGHT_MIST,Onshore,1
5842041f4e65fad6a7708c04,2024_11_13,-35.34604167,150.4773361,Golf Course Reef,3,0.72,1.02,20,20,NIGHT_MIST,Offshore,1
5842041f4e65fad6a7708c05,2024_11_13,-35.27280833,150.51393,Green Island,2,0.23,0.53,19,19,NIGHT_MIST,Cross-shore,1
5842041f4e65fad6a7708c06,2024_11_13,-35.17533333,150.6881667,Black Rock,1,0,0.2,20,20,NIGHT_BRIEF_SHOWERS,Onshore,1
5842041f4e65fad6a7708c07,2024_11_13,-34.74260833,150.8332833,Werri Beach,3,0.96,1.26,20,20,NIGHT_FOG,Offshore,1
5842041f4e65fad6a7708c08,2024_11_13,-34.54684722,150.8784167,Windang Island,2,0.72,1.02,20,20,NIGHT_LIGHT_SHOWERS,Cross-shore,1
5842041f4e65fad6a7708c09,2024_11_13,-28.64288889,153.63596,Tallows,3,0.76,1.07,24,24,NIGHT_CLEAR,Offshore,1
5842041f4e65fad6a7708c0a,2024_11_13,-34.32977,150.92931,Sandon Point,2,0.55,0.86,21,21,NIGHT_BRIEF_SHOWERS,Cross-shore,1
5842041f4e65fad6a7708c0b,2024_11_13,-38.347207621284134,144.31065,Jan Juc,1,0.62,0.93,17,17,NIGHT_CLEAR,Onshore,1
5842041f4e65fad6a7708c0c,2024_11_13,-38.2873,144.4652,13th Beach,1,0.69,1,17,17,NIGHT_CLEAR,Onshore,1
5842041f4e65fad6a7708c0d,2024_11_13,-38.76017222,143.37283,Johanna,2,1.7338,2.05758,16,16,NIGHT_CLEAR,Onshore,1
5842041f4e65fad6a7708c0e,2024_11_13,-38.44902778,144.85891,Gunnamatta,1,1.09382,1.44339,16,16,NIGHT_CLEAR,Onshore,1
5842041f4e65fad6a7708c0f,2024_11_13,-38.42897222,145.07755,Point Leo,1,0,0.26207,17,17,NIGHT_CLEAR,Onshore,1
5842041f4e65fad6a7708c10,2024_11_13,-38.55457222,145.33169,Woolamai,1,1.36,1.67,16,16,NIGHT_CLEAR,Onshore,1
5842041f4e65fad6a7708c11,2024_11_13,-28.16708333,153.55169,Duranbah,3,0.77133,1.08263,23,23,NIGHT_CLEAR,Offshore,1
5842041f4e65fad6a7708c12,2024_11_13,-38.368504,144.2871,Winkipop,1,0.65,0.95,17,17,NIGHT_CLEAR,Cross-shore,1
5842041f4e65fad6a7708c13,2024_11_13,-38.50596111,145.14044,Cat Bay,1,0.2762,0.43188,16,16,NIGHT_CLEAR,Cross-shore,1
5842041f4e65fad6a7708c14,2024_11_13,-28.87768889,153.58828,South Wall Ballina,3,0.68,0.98,24,24,NIGHT_CLEAR,Offshore,1
5842041f4e65fad6a7708c15,2024_11_13,-38.48777,144.97036,Mornington Peninsula,1,0.97,1.27,16,16,NIGHT_CLEAR,Onshore,1
5842041f4e65fad6a7708c17,2024_11_13,-28.93778889,113.9235722,Abrolhos Islands,0,2.5,2.99,21,21,NIGHT_CLEAR,Cross-shore,1
5842041f4e65fad6a7708c19,2024_11_13,-24.031,113.441,The Bluff,3,1.01,1.21,23,23,NIGHT_CLEAR,Offshore,1
5842041f4e65fad6a7708c1a,2024_11_13,-23.882,113.482,Tombstones,1,1,1.3,23,23,NIGHT_CLEAR,Cross-shore,1
5842041f4e65fad6a7708c1b,2024_11_13,-23.64909722,113.6129972,Warroora Station,2,1.43,1.68,23,23,NIGHT_CLEAR,Cross-shore,1
5842041f4e65fad6a7708c1c,2024_11_13,-38.62743889,142.9796,Two Mile/Easter Reef,2,2.23,2.48,16,16,NIGHT_CLEAR,Onshore,1
5842041f4e65fad6a7708c1e,2024_11_13,-31.89140556,115.75388,Scarborough,1,0.58,0.89,20,20,NIGHT_CLEAR,Cross-shore,1
5842041f4e65fad6a7708c1f,2024_11_13,-32.007275,115.75131,Cottesloe,1,0.05751,0.48882,20,20,NIGHT_CLEAR,Cross-shore,1
5842041f4e65fad6a7708c20,2024_11_13,-32.01661667,115.7511583,Cables,1,0.05673,0.49639,20,20,NIGHT_CLEAR,Cross-shore,1
5842041f4e65fad6a7708c21,2024_11_13,-33.65305556,115.018,Supertubes,3,1.03,1.33,19,19,NIGHT_CLEAR,Offshore,1
5842041f4e65fad6a7708c22,2024_11_13,-33.63875278,115.02247,Yallingup,2,1.383,1.9052,19,19,NIGHT_CLEAR,Offshore,1
5842041f4e65fad6a7708c23,2024_11_13,-32.01881111,115.48693,Strickland Bay/Rottnest Island,0,1.51,1.8,19,19,NIGHT_CLEAR,Onshore,1
5842041f4e65fad6a7708c24,2024_11_13,-33.69852222,114.98713,Injidup Carpark,2,0.46,0.76,19,19,NIGHT_CLEAR,Offshore,1
5842041f4e65fad6a7708c25,2024_11_13,-33.858925,114.98469,North Point,2,1.35,1.61,19,19,NIGHT_CLEAR,Cross-shore,1
5842041f4e65fad6a7708c26,2024_11_13,-33.65705556,115.01457,Smiths Beach,2,0.46,0.77,19,19,NIGHT_CLEAR,Offshore,1
5842041f4e65fad6a7708c27,2024_11_13,-33.86301667,114.9767861,South Point,3,2.2,2.63,19,19,NIGHT_CLEAR,Offshore,1
5842041f4e65fad6a7708c28,2024_11_13,-33.97649722,114.98311,Margaret River,2,2.3678,2.9295,19,19,NIGHT_CLEAR,Cross-shore,1
5842041f4e65fad6a7708c29,2024_11_13,-33.978325,114.9863667,Gas Bay,2,2.4,2.79,19,19,NIGHT_CLEAR,Cross-shore,1
5842041f4e65fad6a7708c2a,2024_11_13,-33.88036667,114.9803222,Lefthanders (Lefties),2,1.44,1.72,19,19,NIGHT_CLEAR,Cross-shore,1
5842041f4e65fad6a7708c2b,2024_11_13,-35.29171667,136.875225,Chinamans,2,1.16,1.47,17,17,NIGHT_CLEAR,Cross-shore,1
5842041f4e65fad6a7708c2c,2024_11_13,-32.14336389,133.108996,Cactus,2,1.66,1.88,18,18,NIGHT_CLEAR,Cross-shore,1
5842041f4e65fad6a7708c2d,2024_11_13,-35.86224722,137.74371,Pennington Bay,2,1.1095,1.45004,17,17,NIGHT_CLEAR,Onshore,1
5842041f4e65fad6a7708c2e,2024_11_13,-28.12496389,153.48648,Currumbin Alley,2,0.50152,0.80159,23,23,NIGHT_CLEAR,Cross-shore,1
5842041f4e65fad6a7708c2f,2024_11_13,-35.63450833,138.49829,Waitpinga,2,1.09283,1.44536,18,18,NIGHT_OVERCAST,Onshore,1
5842041f4e65fad6a7708c30,2024_11_13,-35.52,138.71,Middleton,3,1.30196,1.64692,18,18,NIGHT_MOSTLY_CLEAR,Onshore,1
5842041f4e65fad6a7708c33,2024_11_13,9.746222222,-82.85211111,Cahuita,2,0.03,0.34,28,28,OVERCAST,Offshore,1
5842041f4e65fad6a7708c35,2024_11_13,10.22975,-85.84058,Avellanas,3,0.7,1,28,28,LIGHT_RAIN,Onshore,1
5842041f4e65fad6a7708c36,2024_11_13,10.33328,-85.85069,Playa Grande,3,0.76,1.06,28,28,THUNDER_SHOWERS,Cross-shore,1
5842041f4e65fad6a7708c37,2024_11_13,9.389333333,-84.15386111,Manuel Antonio,3,1.06,1.26,28,28,LIGHT_SHOWERS,Cross-shore,1
5842041f4e65fad6a7708c38,2024_11_13,10.28630556,-85.85228,Playa Langosta,2,0.73,1.03,28,28,RAIN,Onshore,1
5842041f4e65fad6a7708c39,2024_11_13,54.55819760353214,-8.21518,Rossnowlagh,3,0.82815,1.29399,12,12,MIST,Onshore,1
5842041f4e65fad6a7708c3a,2024_11_13,54.4924,-8.2709,Tullan Strand,3,0.95058,1.48529,12,12,MIST,Onshore,1
5842041f4e65fad6a7708c3b,2024_11_13,54.47958088962024,-8.29256,Bundoran,3,0.9071,1.41734,12,12,MIST,Onshore,1
5842041f4e65fad6a7708c3c,2024_11_13,54.45887147557389,-8.434952849016696,Mullaghmore Strand,3,0.53342,0.83347,12,12,MIST,Onshore,1
5842041f4e65fad6a7708c3d,2024_11_13,54.29465584522581,-8.965232737720527,Easkey,3,0.75096,1.04739,12,12,MIST,Onshore,1
5842041f4e65fad6a7708c3e,2024_11_13,54.28521527547639,-9.223662106008305,Kilcummin Harbour,0,0,0,12,12,MIST,Offshore,1
5842041f4e65fad6a7708c3f,2024_11_13,54.4123841889832,-8.535520783992467,Streedagh Strand,2,0.61396,0.95932,12,12,MIST,Cross-shore,1
5842041f4e65fad6a7708c44,2024_11_13,54.266,-8.729,Dunmoran,0,0,0,12,12,MIST,Cross-shore,1
5842041f4e65fad6a7708c46,2024_11_13,20.934,-105.401,Costa Azul,2,0.28,0.59,29,29,CLEAR,Cross-shore,1
5842041f4e65fad6a7708c47,2024_11_13,18.51369499135283,-67.03911,Middles,3,1.54,1.84,30,30,CLEAR,Onshore,1
5842041f4e65fad6a7708c48,2024_11_13,18.515,-67.077,Jobos,3.6666666666666665,1.3092,1.8696,28,27,CLEAR,Onshore,1
5842041f4e65fad6a7708c49,2024_11_13,18.50659587388844,-67.14095,Surfer's Beach,3,1.43,1.68,30,30,CLEAR,Onshore,1
5842041f4e65fad6a7708c4a,2024_11_13,18.4724771991133,-67.16964903636637,Wishing Well,2,0.06,0.37,30,30,CLEAR,Onshore,1
5842041f4e65fad6a7708c4b,2024_11_13,18.48507943247522,-67.16805,Wilderness,3,2.38,2.65,30,30,CLEAR,Onshore,1
5842041f4e65fad6a7708c4c,2024_11_13,18.46090012303478,-67.16701,Chambers,1,0,0.19,29,29,CLEAR,Onshore,1
5842041f4e65fad6a7708c4d,2024_11_13,18.45734083137307,-67.16435,Crash Boat,1,0,0.17,30,30,CLEAR,Onshore,1
5842041f4e65fad6a7708c4f,2024_11_13,18.36085983178037,-67.27182288542944,Indicators,3,0.99,1.29,29,29,CLEAR,Cross-shore,1
5842041f4e65fad6a7708c50,2024_11_13,18.42530999756879,-67.15604263628627,Bridges,2,0,0.16,29,29,CLEAR,Onshore,1
5842041f4e65fad6a7708c51,2024_11_13,18.50806588732911,-67.1388404959542,Table Top,4,1.43,1.68,30,30,CLEAR,Onshore,1
5842041f4e65fad6a7708c53,2024_11_13,18.37335029722464,-67.25282708189441,Antonio's,3,1.36,1.66,29,29,CLEAR,Cross-shore,1
5842041f4e65fad6a7708c54,2024_11_13,18.3717999427746,-67.2592,Sandy Beach,4,1.2692,1.8538,28,27,CLEAR,Cross-shore,1
5842041f4e65fad6a7708c55,2024_11_13,18.36591901691329,-67.27131,Domes,3,1.22,1.43,29,29,CLEAR,Onshore,1
5842041f4e65fad6a7708c56,2024_11_13,18.37093775805671,-67.26124188960489,Pools,4,1.1514,1.84966,28,27,CLEAR,Onshore,1
5842041f4e65fad6a7708c58,2024_11_13,18.359052,-67.271765,The Point,3,1.05129,1.28973,29,29,CLEAR,Cross-shore,1
5842041f4e65fad6a7708c59,2024_11_13,18.343578,-67.26082,Little Malibu,3,0.58236,0.76472,29,29,CLEAR,Offshore,1
5842041f4e65fad6a7708c5a,2024_11_13,18.35046796998277,-67.26958496140767,Tres Palmas,2,1.29,1.54,29,29,CLEAR,Offshore,1
5842041f4e65fad6a7708c5c,2024_11_13,18.358457148373724,-67.27163,Maria's,3.8,1.23933,1.66733,28,27,CLEAR,Cross-shore,1
5842041f4e65fad6a7708c5d,2024_11_13,18.36436193914082,-65.67175850608821,La Selva,3,0.75,1.06,29,29,CLEAR,Offshore,1
5842041f4e65fad6a7708c5e,2024_11_13,18.377237,-65.714583,La Pared,3,0.92,1.22,29,29,CLEAR,Cross-shore,1
5842041f4e65fad6a7708c5f,2024_11_13,18.47587365739435,-66.73093579970327,Margara,3,1.48,1.72,29,29,CLEAR,Onshore,1
5842041f4e65fad6a7708c60,2024_11_13,18.49042886903135,-66.9558167601821,Guajataca,3,1.29,1.54,30,30,CLEAR,Onshore,1
5842041f4e65fad6a7708c61,2024_11_13,18.47273941014759,-66.44904622785756,Los Tubos,3,1.18,1.4,29,29,CLEAR,Cross-shore,1
5842041f4e65fad6a7708c62,2024_11_13,18.467168313149315,-66.09311,La Ocho,4,1.2092,1.8188,27,26,CLEAR,Cross-shore,1
5842041f4e65fad6a7708c63,2024_11_13,18.45529355651344,-65.96670584112921,Chatarra,3,1.77,2.12,29,29,CLEAR,Cross-shore,1
5842041f4e65fad6a7708c64,2024_11_13,18.452,-65.957871,Aviones,3,1.57,1.81,29,29,CLEAR,Cross-shore,1
5842041f4e65fad6a7708c65,2024_11_13,18.451764,-65.956416,Tocones,3,1.57,1.81,29,29,CLEAR,Cross-shore,1
5842041f4e65fad6a7708c66,2024_11_13,23.09289784805277,-82.49361057903533,Old Man's,1,0.39,0.7,29,29,CLEAR,Cross-shore,1
5842041f4e65fad6a7708c67,2024_11_13,17.97138086645092,-65.96246,Inches,2,0.17,0.48,29,29,MIST,Cross-shore,1
5842041f4e65fad6a7708c68,2024_11_13,21.18269590184542,-76.17425732522923,Gibara Coast,1,0.71,1.01,29,29,CLEAR,Onshore,1
5842041f4e65fad6a7708c69,2024_11_13,20.29935933410474,-74.38513580703325,Baracoa Coast,2,0.28,0.58,29,29,MIST,Onshore,1
5842041f4e65fad6a7708c6a,2024_11_13,17.90850736737134,-76.18979571186617,Ranch,1,1.1,1.41,29,29,HEAVY_THUNDER_STORMS,Onshore,1
5842041f4e65fad6a7708c6b,2024_11_13,20.062663,-74.4972,Cajo Babo,2,0.59,0.9,29,29,CLEAR,Cross-shore,1
5842041f4e65fad6a7708c6c,2024_11_13,17.869517,-76.582916,Makka,0,0.33,0.63,29,29,LIGHT_RAIN,Onshore,1
5842041f4e65fad6a7708c6d,2024_11_13,17.927946,-76.77929,Lighthouse,2,0.43,0.73,29,29,CLEAR,Cross-shore,1
5842041f4e65fad6a7708c6e,2024_11_13,17.945043,-76.717493,Zoo,2,0.4,0.7,29,29,CLEAR,Cross-shore,1
5842041f4e65fad6a7708c6f,2024_11_13,17.94222896363424,-76.69415558555534,Copa,2,0.38,0.68,29,29,CLEAR,Offshore,1
5842041f4e65fad6a7708c70,2024_11_13,18.1586,-76.3553,Boston Bay,0,0.13,0.44,29,29,LIGHT_RAIN,Cross-shore,1
5842041f4e65fad6a7708c71,2024_11_13,19.760009,-70.51905,Sosua,1,0.27,0.58,29,29,CLEAR,Offshore,1
5842041f4e65fad6a7708c72,2024_11_13,19.783,-70.45,Encuentro,3,1.14502,1.37634,29,29,MOSTLY_CLOUDY,Offshore,1
5842041f4e65fad6a7708c73,2024_11_13,18.229,-70.189,Patho Beach,2,0.22934,0.63405,29,29,CLEAR,Cross-shore,1
5842041f4e65fad6a7708c74,2024_11_13,18.433,-69.631,La Boya,2,0.22682,0.6271,29,29,CLEAR,Onshore,1
5842041f4e65fad6a7708c75,2024_11_13,18.420275,-70.01139,El Chinchorro,2,0.25547,0.65884,29,29,CLEAR,Onshore,1
5842041f4e65fad6a7708c76,2024_11_13,18.4469967022155,-64.59065,Josiah's Bay,4,1.03634,1.33244,29,29,CLEAR,Offshore,1
5842041f4e65fad6a7708c77,2024_11_13,17.988754,-71.16075,Bahoruco,3,0.27123,0.65869,30,30,CLEAR,Onshore,1
5842041f4e65fad6a7708c78,2024_11_13,18.40133856648012,-64.68076,Apple Bay,3,0.95,1.14,29,29,CLEAR,Offshore,1
5842041f4e65fad6a7708c79,2024_11_13,11.15033417501753,-60.84783,Airports,2,1.48085,1.7684,29,29,HEAVY_THUNDER_STORMS,Cross-shore,1
5842041f4e65fad6a7708c7b,2024_11_13,10.83550342228099,-60.920248032489326,Salybia Bay,2,1.06,1.27,30,30,SEVERE_THUNDER_STORMS,Cross-shore,1
5842041f4e65fad6a7708c7c,2024_11_13,10.717707,-60.98962,Balandra Bay,2,0.38,0.69,30,30,SEVERE_THUNDER_STORMS,Onshore,1
5842041f4e65fad6a7708c7d,2024_11_13,10.839254,-61.00207,Sans Souci Bay,3,0.78815,1.10964,30,30,SEVERE_THUNDER_STORMS,Cross-shore,1
5842041f4e65fad6a7708c7e,2024_11_13,13.21452297223763,-59.51781,Parlour,2,1.83232,2.18985,31,31,BRIEF_SHOWERS,Onshore,1
5842041f4e65fad6a7708c7f,2024_11_13,13.220009,-59.52954,Cattle Wash,2,1.69,2.02,31,31,BRIEF_SHOWERS,Onshore,1
5842041f4e65fad6a7708c80,2024_11_13,13.316799,-59.64713,Duppies,3,2,2.39,30,30,BRIEF_SHOWERS_POSSIBLE,Offshore,1
5842041f4e65fad6a7708c81,2024_11_13,13.07622829845154,-59.60844,Brandon's,2,1.09497,1.45996,30,30,BRIEF_SHOWERS_POSSIBLE,Offshore,1
5842041f4e65fad6a7708c82,2024_11_13,43.64083333,-8.113611111,Playa de Rodo,0,1.16,1.38,17,17,CLEAR,Cross-shore,1
5842041f4e65fad6a7708c83,2024_11_13,43.53583333,-5.38583,Rodiles,0,0.75778,1.0478,17,17,CLOUDY,Cross-shore,1
5842041f4e65fad6a7708c84,2024_11_13,43.44166667,-4.022777778,Playa de los Caballos,1,0.45,0.76,17,17,CLOUDY,Cross-shore,1
5842041f4e65fad6a7708c85,2024_11_13,43.46972222,-3.731388889,Isla de Santa Marina,2,0.33,0.64,17,17,CLOUDY,Offshore,1
5842041f4e65fad6a7708c86,2024_11_13,43.397,-2.98667,Menakoz,1,0.33697,0.67394,17,17,MOSTLY_CLOUDY,Offshore,1
5842041f4e65fad6a7708c87,2024_11_13,43.43388889,-2.80194,Bakio,1,0.7301,1.06196,17,17,CLEAR,Cross-shore,1
5842041f4e65fad6a7708c88,2024_11_13,43.40861111,-2.69472,Mundaka,1,0.50468,0.83756,17,17,CLEAR,Onshore,1
5842041f4e65fad6a7708c89,2024_11_13,43.30777778,-2.239444444,Roca Puta,2,0.15,0.45,18,18,CLEAR,Cross-shore,1
5842041f4e65fad6a7708c8b,2024_11_13,47.84083333,-4.35083,La Torche,0,0.24256,0.58436,15,15,CLEAR,Offshore,1
5842041f4e65fad6a7708c8c,2024_11_13,43.41611111,-1.62833,Lafitenia,1,0.481,0.82777,18,18,CLEAR,Offshore,1
5842041f4e65fad6a7708c8d,2024_11_13,45.00222222,-1.2025,Lacanau,2,0.29432,0.62133,17,17,CLEAR,Offshore,1
5842041f4e65fad6a7708c8e,2024_11_13,43.66388889,-1.44389,La Graviere,3,0.52006,0.94174,17,17,CLEAR,Offshore,1
5842041f4e65fad6a7708c8f,2024_11_13,43.5225,-1.52583,Les Cavaliers,2,0.40335,0.73039,17,17,CLEAR,Offshore,1
5842041f4e65fad6a7708c90,2024_11_13,53.01055556,-9.400277778,Doolin Point,4,1.10214,1.72209,13,13,CLEAR,Onshore,1
5842041f4e65fad6a7708c91,2024_11_13,53.01583333,-9.413055556,Crab Island,3,1.16771,1.82455,13,13,CLEAR,Onshore,1
5842041f4e65fad6a7708c92,2024_11_13,52.1425,-9.993055556,Inch Reef,4,1.56807,1.87,13,13,CLEAR,Offshore,1
5842041f4e65fad6a7708c93,2024_11_13,50.32127176553899,-5.20277738571167,Trevaunance Cove,1,0.40661,0.75514,14,14,CLEAR,Onshore,1
5842041f4e65fad6a7708c94,2024_11_13,50.34833333,-5.15889,Perranporth,1,0.40151,0.7277,14,14,CLEAR,Cross-shore,1
5842041f4e65fad6a7708c95,2024_11_13,50.224940120492306,-5.39939,Gwithian,2,0.59757,0.78929,14,14,CLEAR,Offshore,1
5842041f4e65fad6a7708c96,2024_11_13,50.2166643894,-5.48326,Porthmeor,1,0.56159,0.81029,14,14,CLEAR,Onshore,1
5842041f4e65fad6a7708c97,2024_11_13,50.082260215669976,-5.69518,Sennen,1,0.34587,0.61356,14,14,CLEAR,Offshore,1
5842041f4e65fad6a7708c98,2024_11_13,50.288859416902646,-5.24643,Porthtowan,1,0.45197,0.77394,14,14,CLEAR,Cross-shore,1
5842041f4e65fad6a7708c99,2024_11_13,54.58611111,-0.96667,Saltburn,2,0,0.37891,11,11,CLEAR,Offshore,1
5842041f4e65fad6a7708c9a,2024_11_13,50.10222222,-5.38833,Praa Sands,1,0.07629,0.36009,14,14,CLEAR,Offshore,1
5842041f4e65fad6a7708c9b,2024_11_13,50.08194444,-5.32111,Porthleven,2,0.18683,0.63235,14,14,CLEAR,Offshore,1
5842041f4e65fad6a7708c9c,2024_11_13,54.49861111,-0.65583,Sandsend,2,0,0.34602,12,12,CLEAR,Offshore,1
5842041f4e65fad6a7708c9d,2024_11_13,54.24472222,-0.35806,Cayton Bay,2,0.04819,0.42163,12,12,CLEAR,Offshore,1
5842041f4e65fad6a7708c9e,2024_11_13,55.3879,-1.60495,Alnmouth,1,0,0.23,11,11,CLEAR,Cross-shore,1
5842041f4e65fad6a7708c9f,2024_11_13,55.61055556,-1.698333333,Bamburgh,2,0,0.31176,11,11,CLEAR,Offshore,1
5842041f4e65fad6a7708ca0,2024_11_13,55.49944444,-1.613055556,Embleton Bay,1,0,0.26,11,11,CLEAR,Offshore,1
5842041f4e65fad6a7708ca1,2024_11_13,51.15111111,-4.22333,Putsborough,2,0.13993,0.487,14,14,CLEAR,Onshore,1
5842041f4e65fad6a7708ca2,2024_11_13,51.23472222,-3.82583,Lynmouth,1,0,0.30203,14,14,CLEAR,Onshore,1
5842041f4e65fad6a7708ca3,2024_11_13,58.49888889,-6.27417,Eoropie,1,3.46715,3.83488,11,11,CLEAR,Onshore,1
5842041f4e65fad6a7708ca4,2024_11_13,51.13027778,-4.24083,Croyde,2,0.32469,0.64938,14,14,CLEAR,Cross-shore,1
5842041f4e65fad6a7708ca5,2024_11_13,50.83565,-4.55516,Bude Crooklets,2,0.44223,0.73709,14,14,CLEAR,Offshore,1
5842041f4e65fad6a7708ca6,2024_11_13,50.444688234298745,-5.04622,Watergate Bay,1,0.5051,0.84183,14,14,CLEAR,Offshore,1
5842041f4e65fad6a7708ca8,2024_11_13,55.93307468035716,-2.33223,Pease Bay,1,0,0.19299,11,11,CLEAR,Offshore,1
5842041f4e65fad6a7708ca9,2024_11_13,58.52777778,-4.24028,Torrisdale,2,1.76344,2.10866,11,11,CLEAR,Cross-shore,1
5842041f4e65fad6a7708caa,2024_11_13,58.59555556,-3.05444,Skirza,0,0,0.02,11,11,CLEAR,Offshore,1
5842041f4e65fad6a7708cab,2024_11_13,58.65027778,-3.17056,Gills Bay,1,0.36,0.66,11,11,CLEAR,Offshore,1
5842041f4e65fad6a7708cac,2024_11_13,58.54027778,-5.05917,Sandwood Bay,2,1.92363,2.30424,11,11,CLEAR,Onshore,1
5842041f4e65fad6a7708cad,2024_11_13,58.56138889,-3.91111,Melvich,2,2.15611,2.57731,11,11,CLEAR,Onshore,1
5842041f4e65fad6a7708cae,2024_11_13,58.56861111,-3.79083,Sandside Bay,2,1.89139,2.25357,11,11,CLEAR,Onshore,1
5842041f4e65fad6a7708caf,2024_11_13,58.60166667,-3.51056,Thurso East,2,2.10453,2.5064,11,11,CLEAR,Onshore,1
5842041f4e65fad6a7708cb0,2024_11_13,51.58611111,-3.81333,Aberavon,2,0.07106,0.43821,13,13,CLEAR,Onshore,1
5842041f4e65fad6a7708cb1,2024_11_13,58.62277778,-3.65306,Brims Ness,0,2.33369,2.79415,11,11,CLEAR,Onshore,1
5842041f4e65fad6a7708cb2,2024_11_13,51.65611111,-5.06194,Freshwater West,2,0.41554,0.80511,14,14,CLEAR,Offshore,1
5842041f4e65fad6a7708cb3,2024_11_13,51.59277778,-4.29917,Llangennith,2,0.28598,0.65899,13,13,CLEAR,Cross-shore,1
5842041f4e65fad6a7708cb4,2024_11_13,51.56527778,-4.01028,Langland Bay,1,0,0.26844,13,13,CLEAR,Offshore,1
5842041f4e65fad6a7708cb5,2024_11_13,32.747742,-17.22032,Ponta Pequena,3,0.93,1.11,23,23,CLEAR,Offshore,1
5842041f4e65fad6a7708cb6,2024_11_13,32.73768,-17.2113,Jardim do Mar,1,0.23,0.53,23,23,CLEAR,Offshore,1
5842041f4e65fad6a7708cb7,2024_11_13,32.75611111,-17.23055556,Paul do Mar,2,0.39,0.69,23,23,CLEAR,Offshore,1
5842041f4e65fad6a7708cb8,2024_11_13,29.11027778,-13.6675,El Quemao,1,0.51,0.82,22,22,CLEAR,Onshore,1
5842041f4e65fad6a7708cb9,2024_11_13,28.75027778,-13.83528,Los Lobos,1,0.43779,0.74323,22,22,CLEAR,Onshore,1
5842041f4e65fad6a7708cba,2024_11_13,-34.423495820297,-72.04571,Punta De Lobos,3,2.13204,2.53431,13,13,CLEAR,Onshore,1
5842041f4e65fad6a7708cbb,2024_11_13,52.82166667,-4.58861,Porth Neigwl (Hells Mouth),1,0,0.22607,13,13,CLOUDY,Offshore,1
5842041f4e65fad6a7708cbc,2024_11_13,29.11694444,-13.66306,La Santa Right (Morro Negro),1,0.56763,0.88757,22,22,CLEAR,Onshore,1
5842041f4e65fad6a7708cbd,2024_11_13,-32.83471254202934,-71.52493,Ritoque,2,1.91557,2.13419,13,13,CLEAR,Cross-shore,1
5842041f4e65fad6a7708cbe,2024_11_13,-34.40005602954382,-72.02983,Infiernillo,3,1.76268,1.88858,13,13,CLEAR,Onshore,1
5842041f4e65fad6a7708cbf,2024_11_13,28.74416667,-13.94806,The Bubble (Hierro Right),2,0.48686,0.82225,22,22,CLEAR,Onshore,1
5842041f4e65fad6a7708cc0,2024_11_13,-34.08631568896031,-71.96406,Puertecillo,3,1,1.3,13,13,CLEAR,Offshore,1
5842041f4e65fad6a7708cc1,2024_11_13,-32.7797253656226,-71.54022,Papagayo,2,1.91557,2.13419,13,13,CLEAR,Cross-shore,1
5842041f4e65fad6a7708cc2,2024_11_13,-32.96650495157324,-71.54756,Renaca,3,2.02159,2.34463,13,13,CLEAR,Cross-shore,1
5842041f4e65fad6a7708cc3,2024_11_13,-33.9609330136559,-71.87877,Matanzas,2,1.72604,1.84324,12,12,CLEAR,Onshore,1
5842041f4e65fad6a7708cc4,2024_11_13,-34.3876776285385,-72.0253,Pichilemu,3,1.75218,1.84661,13,13,CLEAR,Onshore,1
5842041f4e65fad6a7708cc5,2024_11_13,-35.35833333,-72.46361,El Puerto,2,1.5,1.79,13,13,CLEAR,Cross-shore,1
5842041f4e65fad6a7708cc6,2024_11_13,-32.7134435173592,-71.48194,El Claron,2,1.91557,2.13419,13,13,CLEAR,Cross-shore,1
5842041f4e65fad6a7708cc7,2024_11_13,-18.48166667,-70.33333,El Gringo,3,1.73752,1.95471,20,20,CLEAR,Onshore,1
5842041f4e65fad6a7708cc8,2024_11_13,-18.45166667,-70.30528,Las Machas,3,1.73752,1.95471,20,20,CLEAR,Onshore,1
5842041f4e65fad6a7708ccb,2024_11_13,-35.47416667,-72.50611,Pellines,3,1.22,1.52,13,13,CLEAR,Cross-shore,1
5842041f4e65fad6a7708ccc,2024_11_13,-8.081944444,-79.12417,Punta Huanchaco,4,1.09632,1.43193,17,17,CLEAR,Onshore,1
5842041f4e65fad6a7708ccd,2024_11_13,-7.705555556,-79.45472,Chicama,2,0.49,0.8,17,17,CLEAR,Offshore,1
5842041f4e65fad6a7708cce,2024_11_13,-4.110833333,-81.06722,Mancora,2,0.51306,0.84441,23,23,CLEAR,Onshore,1
5842041f4e65fad6a7708ccf,2024_11_13,-7.411666667,-79.5875,Pacasmayo,3,1.14831,1.4906,17,17,CLEAR,Onshore,1
5842041f4e65fad6a7708cd0,2024_11_13,-13.02602,-76.49459,Cerro Azul,3,1.07379,1.42054,19,19,MOSTLY_CLOUDY,Cross-shore,1
5842041f4e65fad6a7708cd1,2024_11_13,-18.48861111,-70.33278,El Buey,3,2.21395,2.48231,20,20,CLEAR,Onshore,1
5842041f4e65fad6a7708cd2,2024_11_13,-4.248611111,-81.22861,Cabo Blanco,2,0.28497,0.61378,22,22,CLEAR,Cross-shore,1
5842041f4e65fad6a7708cd3,2024_11_13,-23.74138889,-70.44556,La Cupula,3,1.01268,1.21522,18,18,CLEAR,Onshore,1
5842041f4e65fad6a7708cd4,2024_11_13,-20.23333333,-70.155,La Bestia,3,1.98,2.14,19,19,CLEAR,Onshore,1
5842041f4e65fad6a7708cd5,2024_11_13,-20.22694444,-70.15028,El Colegio,3,1.39671,1.74309,19,19,CLEAR,Onshore,1
5842041f4e65fad6a7708cd6,2024_11_13,-12.44166667,-76.77861,Penascal,3,1.31,1.49,17,17,CLOUDY,Cross-shore,1
5842041f4e65fad6a7708cd7,2024_11_13,-12.341,-76.823,La Isla,3,1.41974,1.58876,18,18,MOSTLY_CLOUDY,Onshore,1
5842041f4e65fad6a7708cd8,2024_11_13,-12.354,-76.819,Punta Rocas,3,0.76846,1.0978,18,18,CLOUDY,Cross-shore,1
5842041f4e65fad6a7708cd9,2024_11_13,-12.18027778,-77.03806,Herradura,3,0.97357,1.15153,17,17,MOSTLY_CLOUDY,Cross-shore,1
5842041f4e65fad6a7708cda,2024_11_13,-38.01472222,-57.52611,El Cabo Corrientes,2,0.15,0.45,17,17,CLEAR,Cross-shore,1
5842041f4e65fad6a7708cdc,2024_11_13,-38.168776738575794,-57.62956,La Paloma,1,0.22405,0.52958,15,15,CLEAR,Cross-shore,1
5842041f4e65fad6a7708cdd,2024_11_13,-26.52,-70.704,Portofino,1,0.34,0.65,16,16,MOSTLY_CLOUDY,Onshore,1
5842041f4e65fad6a7708cde,2024_11_13,-37.97666667,-57.54028,Puerto Cardiel,2,0.16,0.46,17,17,CLEAR,Cross-shore,1
5842041f4e65fad6a7708cdf,2024_11_13,-23.01676944,-43.29781,Quebra-Mar,3,1.03,1.33,21,21,LIGHT_RAIN,Onshore,1
5842041f4e65fad6a7708ce0,2024_11_13,-23.01488611,-43.37222222,Barra da Tijuca,2,1.25,1.5,20,20,LIGHT_RAIN,Onshore,1
5842041f4e65fad6a7708ce1,2024_11_13,-23.04243333,-43.50372,Prainha,3,0.76099000000000006,1.09186,20,20,LIGHT_RAIN,Onshore,1
5842041f4e65fad6a7708ce2,2024_11_13,-23.03561389,-43.4769,Praia da Macumba,3,0.98272,1.34539,20,20,LIGHT_RAIN,Onshore,1
5842041f4e65fad6a7708ce3,2024_11_13,-38.03111111,-57.52666667,Playa Grande,1,0.22,0.52,16,16,CLEAR,Cross-shore,1
5842041f4e65fad6a7708ce4,2024_11_13,-22.999931,-43.25338,Pepino,2,0.608,0.848,21,21,LIGHT_RAIN,Onshore,1
5842041f4e65fad6a7708ce5,2024_11_13,-22.99111111,-43.20733,Praia de Ipanema,2,0.32,0.62,21,21,LIGHT_RAIN,Onshore,1
5842041f4e65fad6a7708ce6,2024_11_13,-22.99015,-43.1917,Arpoador,3,1.02775,1.37419,21,21,LIGHT_RAIN,Onshore,1
5842041f4e65fad6a7708ce7,2024_11_13,-22.99126667,-43.22505,Ponto do Leblon,2,0.608,0.848,21,21,LIGHT_RAIN,Onshore,1
5842041f4e65fad6a7708ce8,2024_11_13,-22.97852778,-43.18694,Copacabana,2,0.5,0.8,21,21,LIGHT_RAIN,Onshore,1
5842041f4e65fad6a7708ce9,2024_11_13,-22.93640833,-42.48141,Saquarema,1,0.936,1.206,21,21,LIGHT_RAIN,Onshore,1
5842041f4e65fad6a7708cea,2024_11_13,-22.78083611,-41.91111,Praia de Geriba,2,0.512,0.752,22,22,LIGHT_SHOWERS,Onshore,1
5842041f4e65fad6a7708ceb,2024_11_13,-27.63111944,-48.44852,Joaquina,1,0.69218,1.03278,23,23,CLEAR,Cross-shore,1
5842041f4e65fad6a7708cec,2024_11_13,-27.71779167,-48.50169,Morro das Pedras,1,0.60798,0.95065,22,22,CLEAR,Cross-shore,1
5842041f4e65fad6a7708ced,2024_11_13,-27.68897778,-48.47757778,Campeche,2,0.43,0.74,22,22,CLEAR,Onshore,1
5842041f4e65fad6a7708cee,2024_11_13,-27.51835,-48.39218,Mocambique,1,0.67045,1.02272,23,23,CLEAR,Cross-shore,1
5842041f4e65fad6a7708cef,2024_11_13,-28.25247222,-48.66185,Praia da Vila Imbituba,2,0.67167,1.002,22,22,CLEAR,Onshore,1
5842041f4e65fad6a7708cf0,2024_11_13,-28.07535,-48.62431,Ferrugem,1,0.49054,0.82847,22,22,CLEAR,Onshore,1
5842041f4e65fad6a7708cf1,2024_11_13,-27.60800556,-48.43142,Praia Mole,1,0.62224,0.95559,23,23,CLEAR,Cross-shore,1
5842041f4e65fad6a7708cf2,2024_11_13,-28.04470833,-48.60693,Silveira Garopaba,1,0.30988,0.63045,22,22,CLEAR,Cross-shore,1
5842041f4e65fad6a7708cf3,2024_11_13,30.62215833,-9.87905,Boilers,1,0,0.18524,20,20,CLEAR,Cross-shore,1
5842041f4e65fad6a7708cf4,2024_11_13,-27.59744167,-48.42205,Galhetas,1,0.496,0.736,23,23,CLEAR,Onshore,1
5842041f4e65fad6a7708cf5,2024_11_13,32.23053611,-9.259630556,The Money Wave,2,0.65,0.95,19,19,CLEAR,Onshore,1
5842041f4e65fad6a7708cf6,2024_11_13,33.53641111,-7.81752,Dar Bouazza,1,0.58941,0.92777,20,20,OVERCAST,Cross-shore,1
5842041f4e65fad6a7708cf7,2024_11_13,32.31853056,-9.25848,Safi,2,0.43978,0.75391,19,19,CLEAR,Onshore,1
5842041f4e65fad6a7708cf8,2024_11_13,-27.9078,-48.58476,Guarda do Emba,1,0.64869,0.9901,22,22,CLEAR,Cross-shore,1
5842041f4e65fad6a7708cf9,2024_11_13,30.545021,-9.715966,Mysteries,2,0.04,0.34,20,20,MOSTLY_CLEAR,Onshore,1
5842041f4e65fad6a7708cfa,2024_11_13,30.549671597798312,-9.73883,Killers,2,0.27453,0.61494,20,20,MOSTLY_CLEAR,Onshore,1
5842041f4e65fad6a7708cfb,2024_11_13,33.82546944,-7.1521,Bouznika Plage,1,0.56178,0.90326,20,20,CLEAR,Cross-shore,1
5842041f4e65fad6a7708cfc,2024_11_13,33.83184722,-7.12916,Oued Cherrat,1,0.51067,0.81707,20,20,CLEAR,Onshore,1
5842041f4e65fad6a7708cfd,2024_11_13,30.544006477861213,-9.72562,Anchor Point,2,0.2306,0.56004,20,20,MOSTLY_CLEAR,Cross-shore,1
5842041f4e65fad6a7708cfe,2024_11_13,34.03740833,-6.837330556,Doura,1,0.69,1,21,21,CLEAR,Onshore,1
5842041f4e65fad6a7708cff,2024_11_13,-30.82075556,30.40701,St Mikes,0,0.96227,1.29372,22,22,CLEAR,Cross-shore,1
5842041f4e65fad6a7708d00,2024_11_13,-29.85409444,31.04168056,Wedge,1,0.69,1,23,23,CLEAR,Cross-shore,1
5842041f4e65fad6a7708d01,2024_11_13,-29.85251389,31.04166667,New Pier,1,0.69,1,23,23,CLEAR,Offshore,1
5842041f4e65fad6a7708d02,2024_11_13,-29.8893,31.052,Cave Rock,0,1.11,1.41,23,23,CLEAR,Cross-shore,1
5842041f4e65fad6a7708d03,2024_11_13,-29.85001667,31.04041,North Beach,1,0.60033,0.92119,23,23,CLEAR,Cross-shore,1
5842041f4e65fad6a7708d04,2024_11_13,-29.59467222,31.17150278,Westbrook,0,0.9,1.21,22,22,CLEAR,Cross-shore,1
5842041f4e65fad6a7708d05,2024_11_13,-29.52800833,31.22666389,Sunrise,1,1,1.31,22,22,CLEAR,Cross-shore,1
5842041f4e65fad6a7708d06,2024_11_13,-34.09497222,18.35222222,The Hoek,2,1.87,2.18,16,16,CLEAR,Offshore,1
5842041f4e65fad6a7708d07,2024_11_13,-29.92498333,31.01995,Ansteys,1,1.29179,1.59693,23,23,CLEAR,Onshore,1
5842041f4e65fad6a7708d08,2024_11_13,-34.11648889,18.34814167,The Dunes,2,1.93,2.25,16,16,CLEAR,Offshore,1
5842041f4e65fad6a7708d09,2024_11_13,-34.061225,18.32679167,Dungeons,0,2.91,3.39,16,16,CLEAR,Cross-shore,1
5842041f4e65fad6a7708d0a,2024_11_13,-34.35976111,18.90847222,Bettys Bay,1,3.04,3.64,16,16,CLEAR,Onshore,1
5842041f4e65fad6a7708d0b,2024_11_13,-34.20904722,24.83816389,Seal Point,2,3.048,4.572,17,17,OVERCAST,Cross-shore,1
5842041f4e65fad6a7708d0c,2024_11_13,-34.16290833,24.83402,St Francis Bay,2,0.93,1.11,17,17,OVERCAST,Cross-shore,1
5842041f4e65fad6a7708d0d,2024_11_13,-32.99735556,27.95438611,Nahoon Reef,1,0.43,0.73,20,20,OVERCAST,Cross-shore,1
5842041f4e65fad6a7708d0e,2024_11_13,-34.12707778,18.33208056,Sunset Reef,2,2.2,2.63,16,16,CLEAR,Offshore,1
5842041f4e65fad6a7708d0f,2024_11_13,-34.03148611,24.93413,Jeffreys Bay (J-Bay),3,1.75189,2.05421,17,17,OVERCAST,Offshore,1
5842041f4e65fad6a7708d10,2024_11_13,-32.31417778,18.33111,Elands Bay,0,1.24755,1.48518,14,14,CLEAR,Cross-shore,1
5842041f4e65fad6a7708d11,2024_11_13,6.848160480780608,81.83246952024479,The Wedge,3,0.69,0.99,30,30,NIGHT_LIGHT_SHOWERS_POSSIBLE,Onshore,1
5842041f4e65fad6a7708d12,2024_11_13,-31.96770278,29.17035,Coffee Bay,0,1.05964,1.37549,22,22,CLOUDY,Onshore,1
5842041f4e65fad6a7708d13,2024_11_13,6.653724337034653,81.77549,Okanda,2,0.25211,0.5919,30,30,NIGHT_LIGHT_SHOWERS_POSSIBLE,Cross-shore,1
5842041f4e65fad6a7708d14,2024_11_13,6.898310320706186,81.84771522743048,Pottuvil Point,2,0.53,0.83,30,30,NIGHT_BRIEF_SHOWERS_POSSIBLE,Onshore,1
5842041f4e65fad6a7708d15,2024_11_13,-29.729,31.094,Flowrider,1,0.5,0.8,23,23,CLEAR,Cross-shore,1
5842041f4e65fad6a7708d16,2024_11_13,6.84047,81.83773,Arugam Bay,3,0.64677,0.72438,30,30,NIGHT_LIGHT_SHOWERS_POSSIBLE,Onshore,1
5842041f4e65fad6a7708d17,2024_11_13,10.54472350699684,92.42058,Kumari Point,1,0.49,0.79,29,29,NIGHT_THUNDER_SHOWERS,Onshore,1
5842041f4e65fad6a7708d18,2024_11_13,6.783602,81.82004,Peanut Farm,2,0.4,0.7,30,30,NIGHT_BRIEF_SHOWERS_POSSIBLE,Onshore,1
5842041f4e65fad6a7708d19,2024_11_13,10.55354686188,92.3912,Muddy's,3,1,1.2,29,29,NIGHT_THUNDER_SHOWERS,Offshore,1
5842041f4e65fad6a7708d1a,2024_11_13,8.384457657709262,76.97877909441098,Lighthouse Beach,2,0.45,0.75,29,29,NIGHT_CLEAR,Onshore,1
5842041f4e65fad6a7708d1c,2024_11_13,17.71984446971098,83.33749995502023,East Point Beachbreak,1,0.4,0.7,30,30,NIGHT_CLEAR,Cross-shore,1
5842041f4e65fad6a7708d1d,2024_11_13,17.72887810582831,83.3453,Lawson's Bay,1,0.75852,1.06192,30,30,NIGHT_CLEAR,Onshore,1
5842041f4e65fad6a7708d1e,2024_11_13,17.74774627234749,83.35148,The Park,1,0.69784,1.01136,30,30,NIGHT_CLEAR,Onshore,1
5842041f4e65fad6a7708d1f,2024_11_13,17.88882021794202,83.45597229139156,Bheemi Point,1,0.62,0.93,29,29,NIGHT_CLEAR,Onshore,1
5842041f4e65fad6a7708d20,2024_11_13,17.83626713394552,83.41471173357326,Malibupeta,0,0.02,0.33,29,29,NIGHT_CLEAR,Onshore,1
5842041f4e65fad6a7708d21,2024_11_13,10.6765444319323,92.58864,Jarawa Point,2,0.25,0.55,29,29,NIGHT_CLEAR,Cross-shore,1
5842041f4e65fad6a7708d22,2024_11_13,-20.52098796325116,57.52182,Souillac,1,0.784,0.936,25,25,MOSTLY_CLEAR,Cross-shore,1
5842041f4e65fad6a7708d24,2024_11_13,-20.44351989730472,57.30924564003858,Passe de L'Ambulante,2,0.47,0.77,26,26,CLEAR,Offshore,1
5842041f4e65fad6a7708d25,2024_11_13,-20.45668257533175,57.30537832585245,One Eye's,2,0.47,0.77,26,26,CLEAR,Offshore,1
5842041f4e65fad6a7708d26,2024_11_13,-20.3271474702646,57.37435,Tamarin Bay,2,0.33818,0.66579,26,26,MOSTLY_CLOUDY,Onshore,1
5842041f4e65fad6a7708d27,2024_11_13,-21.25570309437444,55.32619,Etang-Sale-les-Bains,4,1.23,1.47,26,26,MOSTLY_CLEAR,Offshore,1
5842041f4e65fad6a7708d28,2024_11_13,-21.19999157818955,55.28243,La Pointe au Sel,3,1.06,1.36,26,26,MOSTLY_CLEAR,Offshore,1
5842041f4e65fad6a7708d29,2024_11_13,-21.16474680139082,55.28607,St Leu,3,0.49595,0.82306,26,26,MOSTLY_CLEAR,Offshore,1
5842041f4e65fad6a7708d2a,2024_11_13,-21.11068076084916,55.25321,St. Gilles-les-Bains,3,1.02,1.32,26,26,BRIEF_SHOWERS,Onshore,1
5842041f4e65fad6a7708d2b,2024_11_13,-6.601088889,105.17275,Inside Lefts,2,0.36,0.66,30,30,NIGHT_LIGHT_SHOWERS_POSSIBLE,Offshore,1
5842041f4e65fad6a7708d2c,2024_11_13,-6.594725,105.1507639,Inside Rights,2,0.47,0.78,30,30,NIGHT_LIGHT_SHOWERS_POSSIBLE,Onshore,1
5842041f4e65fad6a7708d2d,2024_11_13,-6.655161111,105.1734,One Palm Point,3,0.928,1.112,30,30,NIGHT_THUNDER_STORMS,Onshore,1
5842041f4e65fad6a7708d2e,2024_11_13,-6.614741667,105.1336417,Panaitan Rights,2,0.39,0.69,30,30,NIGHT_LIGHT_SHOWERS_POSSIBLE,Cross-shore,1
5842041f4e65fad6a7708d2f,2024_11_13,-6.631141667,105.1167306,Bombies,3,1.46,1.74,30,30,NIGHT_THUNDER_STORMS,Onshore,1
5842041f4e65fad6a7708d30,2024_11_13,-8.7269,114.34882,G-land,3,0.93406,1.35988,30,30,NIGHT_CLEAR,Offshore,1
5842041f4e65fad6a7708d31,2024_11_13,-6.95835,106.2286083,Baya,4,1.19,1.43,30,30,NIGHT_CLEAR,Cross-shore,1
5842041f4e65fad6a7708d32,2024_11_13,-7.347966667,106.39863,Turtles,3,1.09589,1.3129,30,30,NIGHT_CLEAR,Offshore,1
5842041f4e65fad6a7708d33,2024_11_13,-6.962980556,106.48007,Cimaja,4,1.36592,1.6261,30,30,NIGHT_CLOUDY,Offshore,1
5842041f4e65fad6a7708d34,2024_11_13,-7.276458333,106.37126,Ombak Tujuh,3,0.7581,1.07568,30,30,NIGHT_THUNDER_SHOWERS,Offshore,1
5842041f4e65fad6a7708d35,2024_11_13,-3.054130556,100.1726,Thunders Mentawais,3,1.04,1.25,31,31,NIGHT_THUNDER_SHOWERS,Cross-shore,1
5842041f4e65fad6a7708d36,2024_11_13,-2.789,99.99,Macaronis,3,1.09966,1.31742,31,31,NIGHT_LIGHT_SHOWERS,Onshore,1
5842041f4e65fad6a7708d37,2024_11_13,-2.375641667,99.85916,Lances Right,4,1.22616,1.4672,31,31,NIGHT_THUNDER_SHOWERS,Offshore,1
5842041f4e65fad6a7708d38,2024_11_13,-2.066722222,99.54536,Telescopes,2,0.55243,0.88388,31,31,NIGHT_CLEAR,Onshore,1
5842041f4e65fad6a7708d39,2024_11_13,-2.372408333,99.833325,Lances Left,3,1.3,1.55,31,31,NIGHT_THUNDER_SHOWERS,Onshore,1
5842041f4e65fad6a7708d3a,2024_11_13,-8.794,115.12,Balangan,3,0.67,0.98,28,28,NIGHT_CLEAR,Offshore,1
5842041f4e65fad6a7708d3b,2024_11_13,-8.804,115.113,Bingin,2,0.35,0.66,28,28,NIGHT_CLEAR,Offshore,1
5842041f4e65fad6a7708d3c,2024_11_13,-8.798916667,115.11733,Dreamland,2,0.31,0.62,30,30,NIGHT_CLEAR,Offshore,1
5842041f4e65fad6a7708d3d,2024_11_13,-8.745,115.15,Airport Rights,4,1.17404,1.50948,30,30,NIGHT_CLEAR,Offshore,1
5842041f4e65fad6a7708d3e,2024_11_13,-8.715,115.165,Kuta Beach,2,0.49,0.79,28,28,NIGHT_CLEAR,Offshore,1
5842041f4e65fad6a7708d3f,2024_11_13,-8.731741667,115.1546,Kuta Reef,2,0.832,0.992,30,30,NIGHT_CLEAR,Offshore,1
5842041f4e65fad6a7708d40,2024_11_13,-8.656545939486934,115.12504,Canggu,3,1.03,1.17,28,28,NIGHT_CLEAR,Offshore,1
5842041f4e65fad6a7708d41,2024_11_13,-8.50559,114.96573,Balian,3,1.05,1.26,28,28,NIGHT_CLEAR,Offshore,1
5842041f4e65fad6a7708d42,2024_11_13,-8.807,115.108,Impossibles,3,0.69,1,28,28,NIGHT_CLEAR,Offshore,1
5842041f4e65fad6a7708d43,2024_11_13,-8.422647222,114.80458,Medewi,3,0.87679,1.26938,30,30,NIGHT_CLEAR,Offshore,1
5842041f4e65fad6a7708d44,2024_11_13,-8.810197222,115.10105,Padang Padang,1,0.25,0.55,28,28,NIGHT_CLEAR,Offshore,1
5842041f4e65fad6a7708d46,2024_11_13,-8.841166667,115.09185,Nyang Nyang,3,1.32,1.54,30,30,NIGHT_CLEAR,Cross-shore,1
5842041f4e65fad6a7708d47,2024_11_13,-8.820544444,115.23035,Nusa Dua,2,0.67207,0.9521,30,30,NIGHT_CLEAR,Onshore,1
5842041f4e65fad6a7708d48,2024_11_13,-8.851288889,115.1704,Green Ball,3,1.76,2.1,30,30,NIGHT_CLEAR,Onshore,1
5842041f4e65fad6a7708d49,2024_11_13,-8.742483333,115.24309,Serangan,2,0.64221,1.00418,30,30,NIGHT_CLEAR,Onshore,1
5842041f4e65fad6a7708d4a,2024_11_13,-8.788227778,115.23273,Sri Lanka,1,0.35191,0.6094,30,30,NIGHT_CLEAR,Onshore,1
5842041f4e65fad6a7708d4b,2024_11_13,-8.67685,115.27162,Sanur,2,0.35926,0.75702,30,30,NIGHT_CLEAR,Onshore,1
5842041f4e65fad6a7708d4c,2024_11_13,-8.715,115.272,Hyatt Reef,1,0.52,0.82,30,30,NIGHT_CLEAR,Cross-shore,1
5842041f4e65fad6a7708d4d,2024_11_13,-8.899444444,116.44222,Ekas,1,0.12,0.42,29,29,NIGHT_CLEAR,Offshore,1
5842041f4e65fad6a7708d4e,2024_11_13,-8.598583333,115.33908,Keramas,3,0.66,0.96,28,28,NIGHT_CLEAR,Offshore,1
5842041f4e65fad6a7708d4f,2024_11_13,-8.903055556,116.285,Kuta,1,0.776,1.016,29,29,NIGHT_CLEAR,Onshore,1
5842041f4e65fad6a7708d50,2024_11_13,-8.929166667,116.34889,Grupuk,2,1.66,1.96,29,29,NIGHT_CLEAR,Cross-shore,1
5842041f4e65fad6a7708d51,2024_11_13,-8.872222222,116.03167,Belongas Bay,2,1.22885,1.46636,29,29,NIGHT_CLEAR,Onshore,1
5842041f4e65fad6a7708d52,2024_11_13,-8.810277778,118.3825,Lakey Peak,3,1.11213,1.33455,29,29,NIGHT_CLEAR,Offshore,1
5842041f4e65fad6a7708d53,2024_11_13,-8.810277778,118.3825,Periscopes,3,0.98,1.15,29,29,NIGHT_CLEAR,Offshore,1
5842041f4e65fad6a7708d54,2024_11_13,-8.974722222,116.72972,Yo-Yos,3,1.32571,1.58194,29,29,NIGHT_CLEAR,Offshore,1
5842041f4e65fad6a7708d55,2024_11_13,-8.749722222,115.82417,Desert Point,3,0.93,1.24,29,29,NIGHT_CLEAR,Offshore,1
5842041f4e65fad6a7708d56,2024_11_13,-8.932222222,116.74,Supersuck,3,0.72189,1.07156,29,29,NIGHT_CLEAR,Offshore,1
5842041f4e65fad6a7708d57,2024_11_13,-8.854444444,116.75806,Scar Reef,2,0.20594,0.60496,29,29,NIGHT_CLEAR,Offshore,1
5842041f4e65fad6a7708d58,2024_11_13,-19.14611111,177.9677778,"King Kong Left, Nagigia Island",3,1.51,1.81,26,26,NIGHT_CLEAR,Offshore,1
5842041f4e65fad6a7708d59,2024_11_13,-10.88944444,122.81222,T-Land,2,0.5528,0.93362,29,29,NIGHT_BRIEF_SHOWERS_POSSIBLE,Offshore,1
5842041f4e65fad6a7708d5a,2024_11_13,-17.84527778,177.17806,Namotu Left,3,1.26,1.51,28,28,NIGHT_CLEAR,Offshore,1
5842041f4e65fad6a7708d5b,2024_11_13,-17.63333333,-149.6202778,Maraa,3,0.99,1.18,27,27,NIGHT_LIGHT_SHOWERS,Offshore,1
5842041f4e65fad6a7708d5c,2024_11_13,-17.84138889,177.17111,"Wilkes Pass, Namotu",3,1.26,1.51,28,28,NIGHT_CLEAR,Onshore,1
5842041f4e65fad6a7708d5d,2024_11_13,-17.847910543694947,177.18961,"Swimming Pools, Namotu",3,1.26,1.51,28,28,NIGHT_CLEAR,Onshore,1
5842041f4e65fad6a7708d5e,2024_11_13,-18.47111111,177.9294444,Frigate Pass,4,1.34,1.6,27,27,NIGHT_CLEAR,Offshore,1
5842041f4e65fad6a7708d5f,2024_11_13,-17.60305556,-149.6216667,Taapuna,3,0.97,1.16,27,27,NIGHT_CLOUDY,Offshore,1
5842041f4e65fad6a7708d60,2024_11_13,6.868611111,158.3663889,Napali,2,1.06,1.26,30,30,NIGHT_CLEAR,Onshore,1
5842041f4e65fad6a7708d61,2024_11_13,-17.51083333,-149.41972,Papenoo Rivermouth,1,0.39974,0.70954,27,27,NIGHT_CLOUDY,Cross-shore,1
5842041f4e65fad6a7708d62,2024_11_13,-17.76388889,-149.5016667,Papara,0,1.05,1.25,27,27,NIGHT_LIGHT_SHOWERS,Cross-shore,1
5842041f4e65fad6a7708d63,2024_11_13,-17.802,-149.313,Vairao,2,0.61,0.92,26,26,NIGHT_LIGHT_SHOWERS,Offshore,1
5842041f4e65fad6a7708d64,2024_11_13,7.005277778,158.1933333,Center Channel,3,1.37,1.64,30,30,NIGHT_BRIEF_SHOWERS_POSSIBLE,Cross-shore,1
5842041f4e65fad6a7708d65,2024_11_13,6.98,158.128,P-Pass,4,1.77,2.11,30,30,NIGHT_BRIEF_SHOWERS_POSSIBLE,Offshore,1
5842041f4e65fad6a7708d66,2024_11_13,7.018611111,158.2938889,Mwahnd Pass,3,1.44,1.72,30,30,NIGHT_BRIEF_SHOWERS_POSSIBLE,Cross-shore,1
5842041f4e65fad6a7708d67,2024_11_13,7.012777778,158.2075,Main Pass,3,1.03,1.23,30,30,NIGHT_BRIEF_SHOWERS_POSSIBLE,Offshore,1
5842041f4e65fad6a7708d68,2024_11_13,-2.610277778,150.7094444,Ral Island,1,0.14,0.45,31,31,NIGHT_BRIEF_SHOWERS_POSSIBLE,Onshore,1
5842041f4e65fad6a7708d69,2024_11_13,-2.583611111,150.7725,Nago,1,0.07,0.38,31,31,NIGHT_BRIEF_SHOWERS_POSSIBLE,Offshore,1
5842041f4e65fad6a7708d6a,2024_11_13,-2.573611111,150.7911111,Pikinini,1,0.07,0.38,31,31,NIGHT_BRIEF_SHOWERS_POSSIBLE,Cross-shore,1
5842041f4e65fad6a7708d6b,2024_11_13,-2.579093,150.773127,Long-Long,1,0.07,0.38,31,31,NIGHT_BRIEF_SHOWERS_POSSIBLE,Offshore,1
5842041f4e65fad6a7708d6c,2024_11_13,-2.569,150.786,Nusa Lefts,1,0.07,0.38,31,31,NIGHT_BRIEF_SHOWERS_POSSIBLE,Onshore,1
5842041f4e65fad6a7708d6d,2024_11_13,-22.35,166.24278,Dumbea Right,4,1.26,1.51,25,25,NIGHT_CLEAR,Offshore,1
5842041f4e65fad6a7708d6e,2024_11_13,-22.03194444,165.9597222,St. Vincent Pass,4,1.23,1.48,25,25,NIGHT_CLEAR,Offshore,1
5842041f4e65fad6a7708d6f,2024_11_13,-22.27111111,166.1777778,False Pass,4,1.26,1.5,24,24,NIGHT_CLEAR,Offshore,1
5842041f4e65fad6a7708d70,2024_11_13,-22.36361111,166.25611,Dumbea Left,4,1.26,1.51,25,25,NIGHT_CLEAR,Offshore,1
5842041f4e65fad6a7708d71,2024_11_13,-22.50805556,166.45139,Skate Park/Boulari Pass,4,1.31,1.57,24,24,NIGHT_CLEAR,Offshore,1
5842041f4e65fad6a7708d72,2024_11_13,15.76036390879049,121.5706105239452,Sabang Beach,3,1.56,1.82,28,28,NIGHT_CLEAR,Offshore,1
5842041f4e65fad6a7708d73,2024_11_13,10.963301877535,125.83113,ABC's,4,1.19,1.38,30,30,NIGHT_BRIEF_SHOWERS_POSSIBLE,Offshore,1
5842041f4e65fad6a7708d74,2024_11_13,13.69135695555075,124.39748,Puraran Bay,4,2.06972,2.22384,29,29,NIGHT_THUNDER_STORMS,Offshore,1
5842041f4e65fad6a7708d75,2024_11_13,16.63838828250304,120.3072334949006,Monaliza,3,0.68,0.98,28,28,NIGHT_CLEAR,Offshore,1
5842041f4e65fad6a7708d76,2024_11_13,14.91682557763743,120.0614576738771,San Antonio,2,0.36,0.67,29,29,NIGHT_THUNDER_SHOWERS,Cross-shore,1
5842041f4e65fad6a7708d77,2024_11_13,14.13765113457566,122.98349,Bagasbas Beach,3,2.14724,2.57909,29,29,NIGHT_THUNDER_STORMS,Cross-shore,1
5842041f4e65fad6a7708d78,2024_11_13,9.941562606378389,126.10398,Pacifico,3,1.17827,1.37465,30,30,NIGHT_CLEAR,Cross-shore,1
5842041f4e65fad6a7708d79,2024_11_13,17.92246394163839,120.4184790947462,Lefthanders,2,0.55,0.85,27,27,NIGHT_CLEAR,Onshore,1
5842041f4e65fad6a7708d7a,2024_11_13,9.813198912559244,126.16689,Cloud 9,3,0.82811,1.19485,29,29,NIGHT_CLEAR,Onshore,1
5842041f4e65fad6a7708d7b,2024_11_13,9.23365442900377,126.0565376095355,Lanuza Rivermouth,2,0.28,0.59,30,30,NIGHT_MOSTLY_CLEAR,Offshore,1
5842041f4e65fad6a7708d7c,2024_11_13,-36.954,174.463,Piha,4,1.8517,2.1514,17,16,NIGHT_CLOUDY,Offshore,1
5842041f4e65fad6a7708d7d,2024_11_13,9.839848176012513,126.1604561656053,Tuesday Rock,2,1.2,1.37,29,29,NIGHT_CLEAR,Cross-shore,1
5842041f4e65fad6a7708d7e,2024_11_13,-37.82125556,174.82311,Raglan,3,0.76338,1.1785,17,16,NIGHT_CLOUDY,Offshore,1
5842041f4e65fad6a7708d80,2024_11_13,-35.17075278,173.11178,Shipwreck Bay,1,0.41766,0.6766,18,18,NIGHT_CLEAR,Onshore,1
5842041f4e65fad6a7708d81,2024_11_13,-38.71196389,178.04773,The Island,1,0.29,0.6,17,17,NIGHT_CLEAR,Offshore,1
5842041f4e65fad6a7708d82,2024_11_13,-38.68472222,178.07714000000001,Wainui Beach,2,0.3,0.6,17,17,NIGHT_CLEAR,Offshore,1
5842041f4e65fad6a7708d83,2024_11_13,-35.12029167,173.98269,Taronui Bay,1,0.47,0.78,18,18,NIGHT_BRIEF_SHOWERS_POSSIBLE,Onshore,1
5842041f4e65fad6a7708d84,2024_11_13,-37.62986,176.18002,Mt Maunganui Main Beach,2,0.2,0.51,17,16,NIGHT_LIGHT_SHOWERS,Onshore,1
5842041f4e65fad6a7708d85,2024_11_13,-43.77655,173.10931,Hickory Bay,2,0.5636,0.85973,14,14,NIGHT_MIST,Cross-shore,1
5842041f4e65fad6a7708d86,2024_11_13,-43.06545,173.07883,Motunau Beach Island,3,0.67,0.97,13,13,NIGHT_CLEAR,Offshore,1
5842041f4e65fad6a7708d87,2024_11_13,-43.69395,173.06331,Stoney Beach,2,0.98,1.28,14,14,NIGHT_MIST,Onshore,1
5842041f4e65fad6a7708d88,2024_11_13,-42.32098056,173.74894,Mangamanu,3,0.50473,0.8269,13,13,NIGHT_CLEAR,Offshore,1
5842041f4e65fad6a7708d89,2024_11_13,-45.768975,170.70054,Aramoana,2,0.69,0.99,12,12,NIGHT_CLEAR,Onshore,1
5842041f4e65fad6a7708d8a,2024_11_13,-43.86468333,168.98889,Haast Beach,3,0.35,0.66,14,14,NIGHT_CLEAR,Offshore,1
5842041f4e65fad6a7708d8b,2024_11_13,-41.39026111,172.05691,Little Wanganui,4,1.16341,1.28646,15,15,NIGHT_LIGHT_RAIN,Offshore,1
5842041f4e65fad6a7708d8c,2024_11_13,-41.72833611,171.58669,Westport Breakwater,2,0.30832,0.55339,14,14,NIGHT_DRIZZLE,Cross-shore,1
5842041f4e65fad6a7708d8d,2024_11_13,-42.43810833,171.19298,Cobden,4,1.00155,1.32814,15,15,NIGHT_CLEAR,Offshore,1
5842041f4e65fad6a7708d8e,2024_11_13,-42.44171944,171.19194,Blaketown Wedge,4,1.63,1.81,15,15,NIGHT_CLEAR,Offshore,1
5842041f4e65fad6a7708d8f,2024_11_13,-39.2192001,173.7773,Stent Road,2,1.01,1.32,17,17,NIGHT_LIGHT_RAIN,Cross-shore,1
