_id,date,lat,lon,name,daily_mean_swell_rating,daily_mean_wave_height_min,daily_mean_wave_height_max,daily_mean_water_temperature_max,daily_mean_water_temperature_min,weather_per_timestamp,wind_per_timestamp,n_samples_per_day
5842041f4e65fad6a77087f9,2024_02_17,37.741668,-122.51038,South Ocean Beach,3.195,1.0553333333333335,1.574638888888889,14,14,"CLEAR,CLEAR,CLEAR,NIGHT_CLEAR,NIGHT_CLEAR,NIGHT_CLEAR","Offshore,Cross-shore,Cross-shore,Offshore,Offshore,Offshore",6
5842041f4e65fad6a7708801,2024_02_17,37.49142,-122.50428,Maverick's,NA,1.245,1.4483333333333333,13,13,"MIST,CLEAR,MIST,NIGHT_CLEAR,NIGHT_CLEAR,NIGHT_CLEAR","Onshore,Onshore,Onshore,Cross-shore,Onshore,Onshore",6
5842041f4e65fad6a7708804,2024_02_17,44.997,-124.018,Roads End,3.3333333333333335,1.2516666666666667,1.5433333333333334,11,11,"CLEAR,CLEAR,CLEAR,NIGHT_CLEAR,NIGHT_OVERCAST,NIGHT_CLOUDY","Offshore,Offshore,Offshore,Offshore,Offshore,Offshore",6
5842041f4e65fad6a7708805,2024_02_17,36.95188851423011,-122.02522,Steamer Lane,3.3066666666666666,0.8938055555555556,1.2751388888888888,14,14,"CLEAR,CLEAR,CLEAR,NIGHT_MIST,NIGHT_CLEAR,NIGHT_CLEAR","Onshore,Cross-shore,Onshore,Onshore,Offshore,Cross-shore",6
5842041f4e65fad6a7708806,2024_02_17,36.95918781542251,-122.02489,Cowells,1.3066666666666666,-0.00625,0.2568888888888889,14,14,"CLEAR,CLEAR,CLEAR,NIGHT_MIST,NIGHT_CLEAR,NIGHT_CLEAR","Cross-shore,Cross-shore,Cross-shore,Cross-shore,Cross-shore,Onshore",6
5842041f4e65fad6a7708807,2024_02_17,36.95468082526536,-121.97234,Pleasure Point,3.3066666666666666,0.6916388888888889,1.238888888888889,14,14,"CLEAR,CLEAR,CLEAR,NIGHT_CLEAR,NIGHT_CLEAR,NIGHT_CLEAR","Cross-shore,Cross-shore,Onshore,Onshore,Offshore,Offshore",6
5842041f4e65fad6a770880a,2024_02_17,35.37815414378748,-120.86589,Morro Bay,3,0.9286000000000001,1.4520666666666666,14,14,"CLEAR,CLEAR,CLEAR,NIGHT_CLEAR,NIGHT_MIST,NIGHT_MOSTLY_CLOUDY","Onshore,Onshore,Onshore,Onshore,Cross-shore,Onshore",6
5842041f4e65fad6a770880b,2024_02_17,36.95782765000708,-121.9672887511276,Jack's,2,0.23355555555555557,0.5398888888888889,14,14,"CLEAR,CLEAR,CLEAR,NIGHT_CLEAR,NIGHT_CLEAR,NIGHT_CLEAR","Cross-shore,Cross-shore,Onshore,Onshore,Offshore,Cross-shore",6
5842041f4e65fad6a770880d,2024_02_17,34.29982939936656,-119.3489016603669,Gold Coast Beachbreaks,2,0.25333333333333335,0.5583333333333333,15,15,"MOSTLY_CLEAR,OVERCAST,MIST,NIGHT_MIST,NIGHT_MIST,NIGHT_MIST","Onshore,Onshore,Onshore,Cross-shore,Cross-shore,Cross-shore",6
5842041f4e65fad6a7708811,2024_02_17,34.245076,-119.26799,Ventura Harbor,2.555,1.03207,1.53815625,14,14,"CLEAR,OVERCAST,MOSTLY_CLOUDY,NIGHT_MIST,NIGHT_MIST,NIGHT_MIST","Onshore,Onshore,Onshore,Onshore,Onshore,Onshore",6
5842041f4e65fad6a7708813,2024_02_17,34.051,-118.964,County Line,2,0.5305500000000001,0.83895,15,15,"MOSTLY_CLOUDY,MOSTLY_CLOUDY,CLEAR,NIGHT_CLEAR,NIGHT_CLEAR,NIGHT_CLEAR","Onshore,Onshore,Onshore,Onshore,Onshore,Offshore",6
5842041f4e65fad6a7708814,2024_02_17,34.37256264378892,-119.47797,Rincon,2,0.265,0.5683333333333334,15,15,"CLEAR,CLEAR,CLEAR,NIGHT_MIST,NIGHT_MOSTLY_CLEAR,NIGHT_MOSTLY_CLOUDY","Cross-shore,Cross-shore,Cross-shore,Cross-shore,Cross-shore,Cross-shore",6
5842041f4e65fad6a7708817,2024_02_17,34.03096101876324,-118.68109,Malibu Third Point,2,0.28,0.5866666666666667,15,15,"MOSTLY_CLEAR,MOSTLY_CLOUDY,CLEAR,NIGHT_CLEAR,NIGHT_CLEAR,NIGHT_CLEAR","Cross-shore,Offshore,Offshore,Offshore,Offshore,Offshore",6
5842041f4e65fad6a7708819,2024_02_17,33.984079047970035,-118.47381591796875,Venice Beach,2,0.7172833333333333,1.0890166666666667,14,14,"BRIEF_SHOWERS_POSSIBLE,MIST,MIST,NIGHT_CLEAR,NIGHT_CLEAR,NIGHT_MIST","Onshore,Onshore,Onshore,Onshore,Onshore,Onshore",6
5842041f4e65fad6a770881e,2024_02_17,34.037508438646746,-118.58339846155594,Topanga Beach,2,0.28173333333333334,0.58805,15,15,"MOSTLY_CLEAR,MOSTLY_CLOUDY,CLEAR,NIGHT_MIST,NIGHT_CLEAR,NIGHT_CLEAR","Onshore,Onshore,Onshore,Onshore,Offshore,Offshore",6
5842041f4e65fad6a7708820,2024_02_17,33.73954373690184,-118.11414,Seal Beach Jetty,1.8333333333333333,0.26666666666666666,0.5716666666666667,15,15,"CLEAR,CLEAR,CLEAR,NIGHT_CLEAR,NIGHT_MOSTLY_CLOUDY,NIGHT_CLOUDY","Onshore,Onshore,Onshore,Onshore,Onshore,Cross-shore",6
5842041f4e65fad6a7708822,2024_02_17,33.72309983348433,-118.08078,Anderson Street,1.3333333333333333,0.2916666666666667,0.595,15,15,"MOSTLY_CLEAR,MOSTLY_CLEAR,CLEAR,NIGHT_CLEAR,NIGHT_MOSTLY_CLOUDY,NIGHT_MOSTLY_CLOUDY","Onshore,Onshore,Onshore,Onshore,Onshore,Cross-shore",6
5842041f4e65fad6a7708827,2024_02_17,33.65574085629463,-118.00397,Huntington Beach Pier Northside,2.1666666666666665,0.8806666666666667,1.18725,14,14,"MOSTLY_CLOUDY,MOSTLY_CLOUDY,MOSTLY_CLEAR,NIGHT_MOSTLY_CLOUDY,NIGHT_MOSTLY_CLOUDY,NIGHT_MOSTLY_CLOUDY","Onshore,Onshore,Onshore,Onshore,Onshore,Onshore",6
5842041f4e65fad6a7708828,2024_02_17,34.272041739333,-119.2997646331,C St.,3,0.7560333333333333,1.0823500000000001,14,14,"CLEAR,CLOUDY,MOSTLY_CLOUDY,NIGHT_MOSTLY_CLOUDY,NIGHT_MIST,NIGHT_CLEAR","Onshore,Offshore,Onshore,Cross-shore,Cross-shore,Cross-shore",6
5842041f4e65fad6a770882a,2024_02_17,33.61555743705257,-117.93676,Newport Lower Jetties,2,0.48933333333333334,0.8846666666666666,15,15,"MOSTLY_CLOUDY,MOSTLY_CLOUDY,MOSTLY_CLOUDY,NIGHT_MOSTLY_CLOUDY,NIGHT_MOSTLY_CLOUDY,NIGHT_MIST","Onshore,Onshore,Onshore,Cross-shore,Cross-shore,Cross-shore",6
5842041f4e65fad6a770882b,2024_02_17,33.5930302087,-117.88199,The Wedge,2,0.4208,0.8522500000000001,15,15,"MOSTLY_CLOUDY,MOSTLY_CLEAR,MOSTLY_CLOUDY,NIGHT_BRIEF_SHOWERS,NIGHT_MIST,NIGHT_MIST","Onshore,Onshore,Onshore,Cross-shore,Cross-shore,Cross-shore",6
5842041f4e65fad6a770882c,2024_02_17,33.60577342582,-117.9315376281,Newport Beach Pier,2,0.44850000000000007,0.75025,15,15,"CLEAR,CLEAR,MIST,NIGHT_MIST,NIGHT_MOSTLY_CLOUDY,NIGHT_MIST","Cross-shore,Cross-shore,Cross-shore,Cross-shore,Cross-shore,Cross-shore",6
5842041f4e65fad6a770882e,2024_02_17,33.475793399792984,-117.72291,Salt Creek,3,0.7330833333333333,1.0584166666666666,14,14,"CLEAR,CLEAR,CLEAR,NIGHT_CLEAR,NIGHT_CLEAR,NIGHT_DRIZZLE","Onshore,Onshore,Onshore,Onshore,Onshore,Onshore",6
5842041f4e65fad6a7708830,2024_02_17,33.41800974113613,-117.61952,T-Street,2,0.6518333333333334,1.0163333333333333,14,14,"MOSTLY_CLOUDY,CLEAR,CLEAR,NIGHT_BRIEF_SHOWERS,NIGHT_MIST,NIGHT_MIST","Cross-shore,Cross-shore,Cross-shore,Cross-shore,Cross-shore,Cross-shore",6
5842041f4e65fad6a7708832,2024_02_17,33.202391008646,-117.39475,Oceanside Harbor,2.1666666666666665,0.6919166666666667,1.2358333333333333,15,15,"CLEAR,MOSTLY_CLOUDY,MOSTLY_CLOUDY,NIGHT_MOSTLY_CLOUDY,NIGHT_CLOUDY,NIGHT_CLOUDY","Onshore,Onshore,Onshore,Onshore,Onshore,Onshore",6
5842041f4e65fad6a7708835,2024_02_17,33.19477795952803,-117.38667,Oceanside Pier,2.3333333333333335,0.6419166666666667,1.1218333333333332,15,15,"CLEAR,MOSTLY_CLOUDY,MOSTLY_CLOUDY,NIGHT_MOSTLY_CLOUDY,NIGHT_MIST,NIGHT_OVERCAST","Onshore,Onshore,Onshore,Onshore,Onshore,Onshore",6
5842041f4e65fad6a7708837,2024_02_17,33.14948100706,-117.35029,Tamarack,2.3333333333333335,0.44,0.745,15,15,"CLEAR,CLEAR,CLOUDY,NIGHT_OVERCAST,NIGHT_MIST,NIGHT_MIST","Onshore,Onshore,Onshore,Cross-shore,Onshore,Onshore",6
5842041f4e65fad6a7708839,2024_02_17,32.865777159358856,-117.25614295356122,Scripps,2.5283333333333333,0.8336333333333333,1.1666500000000002,14,14,"MIST,MIST,OVERCAST,NIGHT_OVERCAST,NIGHT_MIST,NIGHT_MIST","Onshore,Onshore,Onshore,Onshore,Onshore,Onshore",6
5842041f4e65fad6a770883a,2024_02_17,32.813094,-117.27381,Birdrock,3,1.1416666666666666,1.4016666666666666,15,15,"MOSTLY_CLOUDY,MOSTLY_CLOUDY,MIST,NIGHT_MIST,NIGHT_OVERCAST,NIGHT_MIST","Cross-shore,Cross-shore,Cross-shore,Cross-shore,Cross-shore,Cross-shore",6
5842041f4e65fad6a770883b,2024_02_17,32.877231,-117.25303,Blacks,3.195,1.1804000000000001,1.6210166666666668,14,14,"MIST,MIST,OVERCAST,NIGHT_OVERCAST,NIGHT_MIST,NIGHT_MIST","Onshore,Onshore,Onshore,Onshore,Onshore,Onshore",6
5842041f4e65fad6a770883c,2024_02_17,32.82978974229765,-117.28161740727381,Windansea,3,1.04155,1.3783666666666667,14,14,"MOSTLY_CLOUDY,MIST,MIST,NIGHT_MIST,NIGHT_MIST,NIGHT_MIST","Onshore,Onshore,Onshore,Onshore,Onshore,Cross-shore",6
5842041f4e65fad6a770883d,2024_02_17,32.838278,-117.28396,Horseshoe,3,1.2883333333333333,1.54,15,15,"MOSTLY_CLOUDY,MIST,MIST,NIGHT_MIST,NIGHT_MIST,NIGHT_MIST","Onshore,Onshore,Onshore,Onshore,Cross-shore,Onshore",6
5842041f4e65fad6a770883f,2024_02_17,32.75034717673179,-117.25337,Ocean Beach,2.945,1.2291500000000002,1.5125833333333334,14,14,"MOSTLY_CLOUDY,MOSTLY_CLOUDY,OVERCAST,NIGHT_MIST,NIGHT_MIST,NIGHT_MIST","Onshore,Onshore,Onshore,Onshore,Cross-shore,Cross-shore",6
5842041f4e65fad6a7708840,2024_02_17,32.73693,-117.25718,Sunset Cliffs,3,1.1733333333333333,1.4166666666666665,15,15,"MOSTLY_CLOUDY,MOSTLY_CLOUDY,MIST,NIGHT_MIST,NIGHT_MIST,NIGHT_MIST","Onshore,Onshore,Onshore,Onshore,Cross-shore,Cross-shore",6
5842041f4e65fad6a7708841,2024_02_17,32.796582258728826,-117.25779,Pacific Beach,3,0.9269666666666666,1.2937833333333333,14,14,"MOSTLY_CLOUDY,MOSTLY_CLOUDY,MIST,NIGHT_MIST,NIGHT_MIST,NIGHT_MIST","Cross-shore,Cross-shore,Cross-shore,Cross-shore,Cross-shore,Onshore",6
5842041f4e65fad6a7708842,2024_02_17,32.776636,-117.25514,Mission Beach,3,0.9778,1.3329499999999999,14,14,"MOSTLY_CLOUDY,MOSTLY_CLOUDY,MIST,NIGHT_MIST,NIGHT_MIST,NIGHT_MIST","Onshore,Onshore,Onshore,Onshore,Cross-shore,Onshore",6
5842041f4e65fad6a7708844,2024_02_17,32.577195519016,-117.13475,Imperial Beach Pier,2.5,1.2333333333333334,1.4733333333333334,15,15,"MOSTLY_CLOUDY,MOSTLY_CLOUDY,OVERCAST,NIGHT_OVERCAST,NIGHT_MIST,NIGHT_MIST","Onshore,Onshore,Onshore,Onshore,Onshore,Onshore",6
5842041f4e65fad6a770884a,2024_02_17,42.88678181061,-70.80843,Seabrook,0.9716666666666667,0.08336875,0.24456166666666668,4,3,"NIGHT_CLEAR,NIGHT_CLEAR,NIGHT_CLEAR,NIGHT_CLEAR,NIGHT_CLEAR,NIGHT_CLEAR","Offshore,Offshore,Offshore,Offshore,Offshore,Offshore",6
5842041f4e65fad6a770884e,2024_02_17,41.434181432898335,-71.45312118111178,Narragansett,1,0,0.29005000000000003,5,4,"NIGHT_CLEAR,NIGHT_CLEAR,NIGHT_CLEAR,NIGHT_CLEAR,NIGHT_CLEAR,NIGHT_CLEAR","Offshore,Offshore,Offshore,Offshore,Offshore,Offshore",6
5842041f4e65fad6a7708850,2024_02_17,40.582703230722,-73.65247,Lincoln Blvd,1,-0.014999999999999994,0.2858833333333334,5,4,"NIGHT_CLEAR,NIGHT_CLEAR,NIGHT_CLEAR,NIGHT_CLEAR,NIGHT_CLEAR,NIGHT_CLEAR","Onshore,Onshore,Offshore,Offshore,Offshore,Offshore",6
5842041f4e65fad6a7708852,2024_02_17,40.58342841721757,-73.81182,Rockaways,0.3883333333333333,-0.025,0.2804666666666667,5,4,"NIGHT_CLEAR,NIGHT_CLEAR,NIGHT_CLEAR,NIGHT_CLEAR,NIGHT_CLEAR,NIGHT_CLEAR","Offshore,Offshore,Offshore,Offshore,Offshore,Offshore",6
5842041f4e65fad6a7708853,2024_02_17,40.330474,-73.9734,Monmouth Beach,0.6666666666666666,-0.06611111111111112,0.17214999999999997,6,5,"NIGHT_CLEAR,NIGHT_CLEAR,NIGHT_CLEAR,NIGHT_CLEAR,NIGHT_CLEAR,NIGHT_CLEAR","Offshore,Offshore,Offshore,Offshore,Cross-shore,Onshore",6
5842041f4e65fad6a7708856,2024_02_17,40.113,-74.028,Manasquan Inlet,1,0,0.2654666666666667,6,5,"NIGHT_CLEAR,NIGHT_CLEAR,NIGHT_CLEAR,NIGHT_CLEAR,NIGHT_CLEAR,NIGHT_CLEAR","Offshore,Offshore,Offshore,Offshore,Offshore,Onshore",6
5842041f4e65fad6a7708857,2024_02_17,39.941519877445664,-74.06829,Casino Pier,0.7216666666666667,-0.0125,0.26630000000000004,6,5,"NIGHT_CLEAR,NIGHT_CLEAR,NIGHT_CLEAR,NIGHT_CLEAR,NIGHT_CLEAR,NIGHT_CLEAR","Offshore,Offshore,Offshore,Offshore,Offshore,Onshore",6
5842041f4e65fad6a7708858,2024_02_17,39.28223089949212,-74.55766,North End OC,0.3883333333333333,-0.01875,0.2513,6,5,"NIGHT_CLEAR,NIGHT_CLEAR,NIGHT_CLEAR,NIGHT_CLEAR,NIGHT_CLEAR,NIGHT_CLEAR","Offshore,Offshore,Offshore,Offshore,Onshore,Onshore",6
5842041f4e65fad6a770885b,2024_02_17,39.65080599934257,-74.17146,Ship Bottom,1,-0.017083333333333332,0.2733833333333333,6,5,"NIGHT_CLEAR,NIGHT_CLEAR,NIGHT_CLEAR,NIGHT_CLEAR,NIGHT_CLEAR,NIGHT_CLEAR","Offshore,Offshore,Offshore,Offshore,Offshore,Onshore",6
5842041f4e65fad6a7708863,2024_02_17,36.034151543144,-75.66791,Third Street,1,0.32180555555555557,0.6265222222222222,7,6,"NIGHT_CLEAR,NIGHT_OVERCAST,NIGHT_CLEAR,NIGHT_CLEAR,NIGHT_CLEAR,NIGHT_CLEAR","Onshore,Onshore,Onshore,Onshore,Cross-shore,Cross-shore",6
5842041f4e65fad6a7708867,2024_02_17,35.605833221351425,-75.46303,S-Turns,1,0.37985555555555556,0.6883222222222222,9,8,"NIGHT_CLEAR,NIGHT_CLOUDY,NIGHT_CLOUDY,NIGHT_CLEAR,NIGHT_CLEAR,NIGHT_CLEAR","Onshore,Onshore,Onshore,Onshore,Onshore,Onshore",6
5842041f4e65fad6a770886d,2024_02_17,38.338461,-75.08117,Ocean City Boardwalk,0.4166666666666667,-0.10625,0.16188333333333335,7,5,"NIGHT_CLEAR,NIGHT_CLEAR,NIGHT_CLEAR,NIGHT_CLEAR,NIGHT_CLEAR,NIGHT_MOSTLY_CLOUDY","Offshore,Offshore,Onshore,Onshore,Onshore,Onshore",6
5842041f4e65fad6a770886f,2024_02_17,29.844757212379562,-81.26136,A St.,1,0.005,0.3,16,16,"MIST,NIGHT_OVERCAST,NIGHT_CLEAR,NIGHT_CLEAR,NIGHT_CLEAR,NIGHT_CLEAR","Onshore,Onshore,Cross-shore,Offshore,Offshore,Offshore",6
5842041f4e65fad6a7708871,2024_02_17,29.069417851135093,-80.90824,New Smyrna Beach,2,0.84465,1.2688499999999998,17,16,"OVERCAST,NIGHT_OVERCAST,NIGHT_MOSTLY_CLOUDY,NIGHT_CLEAR,NIGHT_CLEAR,NIGHT_CLEAR","Offshore,Offshore,Offshore,Offshore,Offshore,Offshore",6
5842041f4e65fad6a7708872,2024_02_17,28.367707417566,-80.60171,Cocoa Beach Pier,1.25,0.2451888888888889,0.5546833333333334,18,17,"CLEAR,NIGHT_CLEAR,NIGHT_CLEAR,NIGHT_CLEAR,NIGHT_CLEAR,NIGHT_CLEAR","Onshore,Cross-shore,Cross-shore,Cross-shore,Cross-shore,Offshore",6
5842041f4e65fad6a7708873,2024_02_17,28.091782738658846,-80.56479,Indialantic,1.8333333333333333,0.3523166666666667,0.7293666666666667,19,18,"CLEAR,NIGHT_MOSTLY_CLOUDY,NIGHT_OVERCAST,NIGHT_CLEAR,NIGHT_CLEAR,NIGHT_CLEAR","Onshore,Onshore,Onshore,Cross-shore,Offshore,Offshore",6
5842041f4e65fad6a7708876,2024_02_17,27.25392904143517,-80.19455,Jensen Beach,1.7216666666666667,0.40273333333333333,0.7797833333333334,22,20,"MOSTLY_CLEAR,NIGHT_CLEAR,NIGHT_CLEAR,NIGHT_OVERCAST,NIGHT_CLEAR,NIGHT_CLEAR","Onshore,Cross-shore,Cross-shore,Cross-shore,Offshore,Offshore",6
5842041f4e65fad6a7708879,2024_02_17,26.76346795333825,-80.0360655784607,Reef Road,1.3333333333333333,0.32886666666666664,0.6314833333333333,23,22,"CLEAR,NIGHT_CLEAR,NIGHT_CLEAR,NIGHT_CLEAR,NIGHT_CLEAR,NIGHT_CLEAR","Cross-shore,Cross-shore,Cross-shore,Cross-shore,Cross-shore,Offshore",6
5842041f4e65fad6a770887c,2024_02_17,26.336499228484,-80.06956100463,Boca Raton Inlet,0.8883333333333333,0.026666666666666665,0.3338666666666667,24,22,"CLEAR,NIGHT_CLEAR,NIGHT_CLEAR,NIGHT_CLEAR,NIGHT_CLEAR,NIGHT_CLEAR","Onshore,Onshore,Cross-shore,Cross-shore,Cross-shore,Cross-shore",6
5842041f4e65fad6a770887d,2024_02_17,26.31719311695038,-80.07452525176168,Deerfield Beach Pier,0,0.004581249999999995,0.1543534722222222,24,23,"CLEAR,NIGHT_CLEAR,NIGHT_CLEAR,NIGHT_CLEAR,NIGHT_CLEAR,NIGHT_CLEAR","Onshore,Onshore,Cross-shore,Cross-shore,Cross-shore,Cross-shore",6
5842041f4e65fad6a7708881,2024_02_17,30.20276320866628,-85.85626528676136,"Spyglass Dr., Panama City",0,0,0.0501,16,15,"CLEAR,NIGHT_CLEAR,NIGHT_LIGHT_RAIN,NIGHT_BRIEF_SHOWERS_POSSIBLE,NIGHT_OVERCAST,NIGHT_CLEAR","Cross-shore,Offshore,Offshore,Cross-shore,Onshore,Onshore",6
5842041f4e65fad6a7708884,2024_02_17,33.39000832738053,-117.59852,Cottons,3,0.8344166666666667,1.1288055555555556,14,14,"MOSTLY_CLOUDY,MOSTLY_CLEAR,MOSTLY_CLEAR,NIGHT_MOSTLY_CLOUDY,NIGHT_MOSTLY_CLOUDY,NIGHT_MIST","Onshore,Onshore,Onshore,Onshore,Onshore,Offshore",6
5842041f4e65fad6a7708885,2024_02_17,33.359416282661,-117.54167901405711,Trails,2.5,0.6516666666666666,0.9550000000000001,15,15,"MOSTLY_CLOUDY,MOSTLY_CLEAR,MOSTLY_CLOUDY,NIGHT_MOSTLY_CLOUDY,NIGHT_MOSTLY_CLOUDY,NIGHT_MIST","Onshore,Onshore,Onshore,Onshore,Cross-shore,Onshore",6
5842041f4e65fad6a7708886,2024_02_17,33.38042605929805,-117.58332,Middles,2.7783333333333333,0.5660000000000001,0.8756666666666666,14,14,"MOSTLY_CLOUDY,MOSTLY_CLEAR,MOSTLY_CLEAR,NIGHT_MOSTLY_CLOUDY,NIGHT_MIST,NIGHT_MIST","Onshore,Onshore,Onshore,Onshore,Onshore,Offshore",6
5842041f4e65fad6a7708887,2024_02_17,33.38445596302903,-117.59445,Upper Trestles,3,0.8698333333333335,1.1745,14,14,"MOSTLY_CLOUDY,MOSTLY_CLEAR,MOSTLY_CLEAR,NIGHT_MOSTLY_CLOUDY,NIGHT_MIST,NIGHT_MIST","Onshore,Onshore,Onshore,Onshore,Onshore,Offshore",6
5842041f4e65fad6a7708889,2024_02_17,28.944414,-95.28883,Surfside,1,0.17326666666666668,0.270725,15,15,"OVERCAST,OVERCAST,NIGHT_FOG,NIGHT_MIST,NIGHT_MIST,NIGHT_MIST","Offshore,Offshore,Cross-shore,Onshore,Onshore,Onshore",6
5842041f4e65fad6a770888a,2024_02_17,33.38143999849023,-117.58843,Lower Trestles,3,0.909,1.1453333333333333,14,14,"MOSTLY_CLOUDY,MOSTLY_CLEAR,MOSTLY_CLEAR,NIGHT_MOSTLY_CLOUDY,NIGHT_MIST,NIGHT_MIST","Onshore,Onshore,Onshore,Onshore,Onshore,Offshore",6
5842041f4e65fad6a770888b,2024_02_17,33.379622288757,-117.57894,Church,2.89,0.5705833333333334,0.9119166666666667,14,14,"MOSTLY_CLOUDY,MOSTLY_CLEAR,MOSTLY_CLEAR,NIGHT_MOSTLY_CLOUDY,NIGHT_MOSTLY_CLOUDY,NIGHT_MIST","Onshore,Onshore,Onshore,Onshore,Onshore,Cross-shore",6
5842041f4e65fad6a770888d,2024_02_17,21.679,-158.042,Sunset Beach,2,5.051972222222222,6.164305555555555,26,25,"MOSTLY_CLEAR,CLEAR,MOSTLY_CLEAR,MOSTLY_CLOUDY,MOSTLY_CLEAR,MOSTLY_CLOUDY","Cross-shore,Cross-shore,Cross-shore,Cross-shore,Cross-shore,Cross-shore",6
5842041f4e65fad6a770888e,2024_02_17,21.670550036401,-158.0482,Rocky Point,1.9716666666666667,4.854055555555556,5.930138888888889,26,25,"MOSTLY_CLEAR,MOSTLY_CLEAR,MOSTLY_CLEAR,MOSTLY_CLEAR,MOSTLY_CLEAR,MOSTLY_CLOUDY","Onshore,Cross-shore,Cross-shore,Cross-shore,Cross-shore,Cross-shore",6
5842041f4e65fad6a770888f,2024_02_17,21.668,-158.05,Chambers,2,4.5,5.38,24,24,"MOSTLY_CLEAR,MOSTLY_CLEAR,MOSTLY_CLEAR,MOSTLY_CLEAR,MOSTLY_CLEAR,MOSTLY_CLOUDY","Onshore,Onshore,Cross-shore,Onshore,Cross-shore,Cross-shore",6
5842041f4e65fad6a7708890,2024_02_17,21.66522,-158.0526,Pipeline,2.945,4.638083333333333,5.668333333333333,26,25,"MOSTLY_CLEAR,MOSTLY_CLEAR,MOSTLY_CLEAR,MOSTLY_CLEAR,MOSTLY_CLEAR,MOSTLY_CLOUDY","Onshore,Cross-shore,Cross-shore,Cross-shore,Cross-shore,Cross-shore",6
5842041f4e65fad6a7708891,2024_02_17,21.665,-158.054,Backdoor,1.9716666666666667,4.618083333333334,5.645,26,25,"MOSTLY_CLEAR,MOSTLY_CLEAR,MOSTLY_CLEAR,MOSTLY_CLEAR,CLEAR,MOSTLY_CLOUDY","Onshore,Cross-shore,Cross-shore,Cross-shore,Cross-shore,Cross-shore",6
5842041f4e65fad6a7708892,2024_02_17,21.662,-158.057,Rockpile,1.8333333333333333,4.991666666666666,5.965,24,24,"MOSTLY_CLEAR,MOSTLY_CLEAR,MOSTLY_CLEAR,MOSTLY_CLEAR,MOSTLY_CLEAR,MOSTLY_CLOUDY","Onshore,Onshore,Cross-shore,Cross-shore,Cross-shore,Cross-shore",6
5842041f4e65fad6a7708893,2024_02_17,21.65870453806827,-158.06058,Log Cabins,2,3.908333333333333,4.67,24,24,"MOSTLY_CLEAR,MOSTLY_CLEAR,MOSTLY_CLEAR,MOSTLY_CLEAR,CLEAR,MOSTLY_CLOUDY","Onshore,Cross-shore,Cross-shore,Cross-shore,Cross-shore,Cross-shore",6
5842041f4e65fad6a7708894,2024_02_17,21.66203493640557,-158.05495,Off-The-Wall,2,5.023333333333333,6.001666666666667,24,24,"MOSTLY_CLEAR,MOSTLY_CLEAR,MOSTLY_CLEAR,MOSTLY_CLEAR,MOSTLY_CLEAR,MOSTLY_CLOUDY","Onshore,Cross-shore,Cross-shore,Onshore,Cross-shore,Cross-shore",6
5842041f4e65fad6a7708895,2024_02_17,21.643,-158.067,Waimea Bay,NA,4.941694444444444,6.031527777777778,26,25,"MOSTLY_CLEAR,MOSTLY_CLEAR,MOSTLY_CLEAR,MOSTLY_CLEAR,MOSTLY_CLEAR,MOSTLY_CLOUDY","Cross-shore,Cross-shore,Cross-shore,Cross-shore,Cross-shore,Cross-shore",6
5842041f4e65fad6a7708896,2024_02_17,21.622,-158.087,Hultin's,1.9716666666666667,5.106416666666667,6.199722222222222,26,25,"CLEAR,CLEAR,CLEAR,CLEAR,CLEAR,CLEAR","Cross-shore,Cross-shore,Cross-shore,Cross-shore,Cross-shore,Cross-shore",6
5842041f4e65fad6a7708897,2024_02_17,21.623,-158.085,Jocko's,2,4.0216666666666665,4.81,24,24,"CLEAR,CLEAR,CLEAR,CLEAR,CLEAR,CLEAR","Onshore,Onshore,Onshore,Onshore,Onshore,Onshore",6
5842041f4e65fad6a7708898,2024_02_17,21.62,-158.088,Laniakea,1.9716666666666667,3.9653333333333336,4.748927777777777,26,25,"CLEAR,CLEAR,CLEAR,CLEAR,CLEAR,CLEAR","Cross-shore,Cross-shore,Cross-shore,Cross-shore,Cross-shore,Cross-shore",6
5842041f4e65fad6a7708899,2024_02_17,21.625,-158.083,Chun's,2,4.071666666666666,4.865,24,24,"CLEAR,CLEAR,CLEAR,CLEAR,CLEAR,CLEAR","Cross-shore,Cross-shore,Cross-shore,Cross-shore,Cross-shore,Cross-shore",6
5842041f4e65fad6a770889c,2024_02_17,21.286357895152136,-157.8515,South Shore - Ala Moana Park,2,0.46499999999999997,0.7716666666666667,24,24,"CLEAR,CLEAR,CLEAR,LIGHT_SHOWERS_POSSIBLE,CLEAR,BRIEF_SHOWERS_POSSIBLE","Offshore,Offshore,Offshore,Offshore,Offshore,Offshore",6
5842041f4e65fad6a770889d,2024_02_17,19.606,-155.978,Banyans,3.445,1.9948666666666668,2.5021833333333334,26,25,"CLEAR,CLEAR,CLEAR,CLEAR,CLEAR,CLEAR","Onshore,Onshore,Cross-shore,Onshore,Cross-shore,Cross-shore",6
5842041f4e65fad6a770889e,2024_02_17,20.029,-155.831,Kawaihae,3,1.0127533333333334,1.4037633333333335,25,25,"MOSTLY_CLEAR,CLEAR,MOSTLY_CLEAR,MOSTLY_CLEAR,MOSTLY_CLEAR,MOSTLY_CLEAR","Offshore,Offshore,Offshore,Offshore,Offshore,Offshore",6
5842041f4e65fad6a770889f,2024_02_17,33.07541383424675,-117.3105,Grandview,2.3333333333333335,0.9683333333333334,1.1533333333333333,15,15,"MOSTLY_CLOUDY,CLEAR,CLEAR,NIGHT_CLOUDY,NIGHT_MIST,NIGHT_MIST","Onshore,Onshore,Onshore,Onshore,Offshore,Onshore",6
5842041f4e65fad6a77088a0,2024_02_17,33.065267421296596,-117.30577,Beacons,2.8333333333333335,0.8766666666666667,1.1016666666666666,15,15,"MOSTLY_CLOUDY,CLEAR,CLEAR,NIGHT_CLOUDY,NIGHT_MIST,NIGHT_MIST","Onshore,Onshore,Onshore,Onshore,Offshore,Onshore",6
5842041f4e65fad6a77088a2,2024_02_17,21.252,-157.805,Diamond Head,3,0.6789604166666667,1.05587875,26,25,"CLEAR,CLEAR,CLEAR,CLEAR,CLEAR,CLEAR","Offshore,Offshore,Offshore,Offshore,Offshore,Offshore",6
5842041f4e65fad6a77088a3,2024_02_17,33.04694255008896,-117.29966,Moonlight State Beach,2.5,0.9316666666666666,1.1366666666666667,15,15,"MOSTLY_CLOUDY,CLOUDY,CLEAR,NIGHT_CLOUDY,NIGHT_MIST,NIGHT_MIST","Onshore,Onshore,Onshore,Onshore,Onshore,Onshore",6
5842041f4e65fad6a77088a5,2024_02_17,33.08685865930869,-117.31532,Ponto,2.3333333333333335,1.1033333333333333,1.3733333333333333,15,15,"MOSTLY_CLOUDY,CLEAR,CLEAR,NIGHT_CLOUDY,NIGHT_MIST,NIGHT_MIST","Onshore,Onshore,Onshore,Onshore,Onshore,Onshore",6
5842041f4e65fad6a77088a6,2024_02_17,33.130343587871906,-117.33667796442558,Terra Mar Point,3,0.7110833333333334,1.2066666666666666,15,15,"MOSTLY_CLOUDY,OVERCAST,OVERCAST,NIGHT_OVERCAST,NIGHT_MIST,NIGHT_MIST","Onshore,Onshore,Onshore,Cross-shore,Onshore,Onshore",6
5842041f4e65fad6a77088af,2024_02_17,32.95916304183685,-117.26963,Del Mar,3,1.08,1.3266666666666667,15,15,"CLOUDY,CLOUDY,CLOUDY,NIGHT_CLOUDY,NIGHT_MIST,NIGHT_MIST","Onshore,Onshore,Onshore,Onshore,Cross-shore,Cross-shore",6
5842041f4e65fad6a77088b0,2024_02_17,32.97527261243354,-117.2721061331305,Del Mar Rivermouth,3,1.185,1.435,15,15,"CLOUDY,CLOUDY,CLOUDY,NIGHT_CLOUDY,NIGHT_MIST,NIGHT_OVERCAST","Onshore,Onshore,Onshore,Onshore,Cross-shore,Cross-shore",6
5842041f4e65fad6a77088b1,2024_02_17,33.01352178146273,-117.28219,Cardiff Reef,3,0.8402499999999999,1.2514166666666666,15,15,"CLOUDY,CLOUDY,CLOUDY,NIGHT_CLOUDY,NIGHT_MIST,NIGHT_MIST","Onshore,Onshore,Onshore,Cross-shore,Cross-shore,Onshore",6
5842041f4e65fad6a77088b3,2024_02_17,33.00211185876003,-117.2811,Seaside Reef,3,0.8815,1.27975,15,15,"CLOUDY,CLOUDY,CLOUDY,NIGHT_CLOUDY,NIGHT_CLOUDY,NIGHT_MIST","Onshore,Onshore,Onshore,Cross-shore,Cross-shore,Onshore",6
5842041f4e65fad6a77088b4,2024_02_17,33.0341859796287,-117.29552,Swami's,2.89,0.8723333333333333,1.2501666666666666,15,15,"CLOUDY,CLOUDY,CLOUDY,NIGHT_CLOUDY,NIGHT_MIST,NIGHT_MIST","Onshore,Onshore,Onshore,Onshore,Onshore,Onshore",6
5842041f4e65fad6a77088b7,2024_02_17,33.04569760260221,-117.2994,D Street,2.5,1.0116666666666667,1.2766666666666666,15,15,"MOSTLY_CLOUDY,CLOUDY,CLEAR,NIGHT_CLOUDY,NIGHT_MIST,NIGHT_MIST","Onshore,Onshore,Onshore,Onshore,Onshore,Onshore",6
5842041f4e65fad6a77088b8,2024_02_17,33.02090944350196,-117.28535,San Elijo State Beach,3,0.7681666666666667,1.1714166666666666,15,15,"CLOUDY,CLOUDY,CLOUDY,NIGHT_CLOUDY,NIGHT_OVERCAST,NIGHT_MIST","Onshore,Onshore,Onshore,Cross-shore,Cross-shore,Onshore",6
5842041f4e65fad6a77088c2,2024_02_17,32.80662846492798,-117.2688764333725,PB Point,3,1.0383333333333333,1.3116666666666668,15,15,"MOSTLY_CLOUDY,MOSTLY_CLOUDY,MIST,NIGHT_MIST,NIGHT_MIST,NIGHT_MIST","Cross-shore,Offshore,Cross-shore,Cross-shore,Offshore,Cross-shore",6
5842041f4e65fad6a77088c4,2024_02_17,32.8060476681448,-117.26479,Old Man's at Tourmaline,2.6666666666666665,0.7083333333333334,1.01,15,15,"MOSTLY_CLOUDY,MOSTLY_CLOUDY,MIST,NIGHT_MIST,NIGHT_OVERCAST,NIGHT_MIST","Cross-shore,Cross-shore,Cross-shore,Cross-shore,Offshore,Cross-shore",6
5842041f4e65fad6a77088cb,2024_02_17,32.557056711256,-117.1327445020322,Tijuana Slough,2,0.6733333333333333,0.98,15,15,"MOSTLY_CLOUDY,MOSTLY_CLOUDY,OVERCAST,NIGHT_OVERCAST,NIGHT_MIST,NIGHT_MIST","Onshore,Onshore,Onshore,Onshore,Cross-shore,Cross-shore",6
5842041f4e65fad6a77088cc,2024_02_17,32.863,-117.257,La Jolla Shores,2.5,0.9566666666666667,1.14,15,15,"MIST,MIST,OVERCAST,NIGHT_OVERCAST,NIGHT_MIST,NIGHT_MIST","Onshore,Onshore,Onshore,Onshore,Onshore,Onshore",6
5842041f4e65fad6a77088ce,2024_02_17,32.67443657790586,-117.17421316238693,Coronado Beach,2.8333333333333335,0.5966666666666667,0.8983333333333333,15,15,"MOSTLY_CLOUDY,CLOUDY,CLOUDY,NIGHT_CLOUDY,NIGHT_MIST,NIGHT_MIST","Cross-shore,Cross-shore,Cross-shore,Offshore,Offshore,Offshore",6
5842041f4e65fad6a77088cf,2024_02_17,33.40484417640326,-117.60749,San Clemente State Beach,2.3333333333333335,0.7283333333333333,1.0133333333333334,15,15,"MOSTLY_CLOUDY,CLEAR,MOSTLY_CLEAR,NIGHT_MOSTLY_CLOUDY,NIGHT_MOSTLY_CLOUDY,NIGHT_MIST","Onshore,Cross-shore,Cross-shore,Cross-shore,Cross-shore,Cross-shore",6
5842041f4e65fad6a77088d5,2024_02_17,33.4663042002114,-117.7168352817103,Strands,3,0.6922500000000001,1.08925,14,14,"CLEAR,CLEAR,CLEAR,NIGHT_CLEAR,NIGHT_MOSTLY_CLOUDY,NIGHT_DRIZZLE","Onshore,Onshore,Cross-shore,Cross-shore,Cross-shore,Cross-shore",6
5842041f4e65fad6a77088d7,2024_02_17,33.4609858001748,-117.68535,Doheny State Beach,2,0.05124999999999999,0.3496666666666667,14,14,"CLEAR,CLEAR,CLEAR,NIGHT_MIST,NIGHT_MIST,NIGHT_MIST","Onshore,Onshore,Onshore,Cross-shore,Cross-shore,Cross-shore",6
5842041f4e65fad6a77088dc,2024_02_17,33.50894790083017,-117.75243,Aliso Creek,2,0.45,0.7533333333333333,15,15,"CLEAR,CLEAR,CLEAR,NIGHT_MOSTLY_CLOUDY,NIGHT_CLOUDY,NIGHT_MIST","Cross-shore,Cross-shore,Cross-shore,Cross-shore,Cross-shore,Cross-shore",6
5842041f4e65fad6a77088dd,2024_02_17,33.5326591767067,-117.77764,Brooks Street,2,0.26333333333333336,0.5700000000000001,15,15,"CLEAR,CLEAR,MIST,NIGHT_MIST,NIGHT_OVERCAST,NIGHT_MIST","Cross-shore,Cross-shore,Cross-shore,Cross-shore,Cross-shore,Cross-shore",6
5842041f4e65fad6a77088de,2024_02_17,33.53561225884637,-117.7799,Thalia Street,2,0.32166666666666666,0.6283333333333333,15,15,"CLEAR,CLEAR,MIST,NIGHT_MIST,NIGHT_OVERCAST,NIGHT_MIST","Cross-shore,Cross-shore,Cross-shore,Cross-shore,Cross-shore,Cross-shore",6
5842041f4e65fad6a77088e3,2024_02_17,33.54268310353641,-117.7916,Rockpile,2,0.35833333333333334,0.665,15,15,"CLEAR,CLEAR,MIST,NIGHT_MIST,NIGHT_OVERCAST,NIGHT_MIST","Cross-shore,Cross-shore,Cross-shore,Cross-shore,Cross-shore,Cross-shore",6
5842041f4e65fad6a77088e4,2024_02_17,33.7368459504689,-118.10342,"Seal Beach Pier, Southside",1.3333333333333333,0.125,0.43,15,15,"CLEAR,CLEAR,CLEAR,NIGHT_MOSTLY_CLOUDY,NIGHT_MOSTLY_CLOUDY,NIGHT_MOSTLY_CLOUDY","Onshore,Onshore,Onshore,Onshore,Onshore,Offshore",6
5842041f4e65fad6a77088e5,2024_02_17,33.73933701820233,-118.117,Ray Bay,1.3333333333333333,0.10666666666666667,0.4116666666666666,15,15,"CLEAR,CLEAR,CLEAR,NIGHT_CLEAR,NIGHT_MOSTLY_CLOUDY,NIGHT_CLOUDY","Onshore,Onshore,Onshore,Onshore,Onshore,Cross-shore",6
5842041f4e65fad6a77088e7,2024_02_17,33.728733,-118.08982,Surfside,1.1666666666666667,0.26,0.5616666666666666,15,15,"MOSTLY_CLEAR,MOSTLY_CLEAR,CLEAR,NIGHT_CLEAR,NIGHT_MOSTLY_CLOUDY,NIGHT_MOSTLY_CLOUDY","Onshore,Onshore,Onshore,Onshore,Onshore,Cross-shore",6
5842041f4e65fad6a77088e8,2024_02_17,33.68760321488161,-118.04236,Bolsa Chica State Beach,2.5,0.4630833333333333,0.943,14,14,"MOSTLY_CLOUDY,MOSTLY_CLOUDY,MOSTLY_CLEAR,NIGHT_MOSTLY_CLOUDY,NIGHT_MOSTLY_CLOUDY,NIGHT_MIST","Onshore,Onshore,Onshore,Onshore,Cross-shore,Cross-shore",6
5842041f4e65fad6a77088ea,2024_02_17,33.66704400178788,-118.0192,North HB Streets,3,0.6785833333333333,1.12725,14,14,"CLEAR,CLEAR,CLEAR,NIGHT_MOSTLY_CLOUDY,NIGHT_MIST,NIGHT_MIST","Onshore,Onshore,Onshore,Onshore,Cross-shore,Cross-shore",6
5842041f4e65fad6a77088ed,2024_02_17,33.65475101379567,-118.00291,Huntington Beach Pier Southside,2.1666666666666665,0.7115,1.1680833333333331,14,14,"MOSTLY_CLOUDY,MOSTLY_CLOUDY,MOSTLY_CLEAR,NIGHT_MOSTLY_CLOUDY,NIGHT_MOSTLY_CLOUDY,NIGHT_MOSTLY_CLOUDY","Onshore,Onshore,Onshore,Onshore,Onshore,Onshore",6
5842041f4e65fad6a77088ee,2024_02_17,33.62778647706099,-117.95939,River Jetties,2.3066666666666666,0.5701666666666667,0.9734166666666666,15,15,"MOSTLY_CLOUDY,MOSTLY_CLOUDY,MOSTLY_CLOUDY,NIGHT_MOSTLY_CLOUDY,NIGHT_MOSTLY_CLOUDY,NIGHT_MIST","Onshore,Onshore,Onshore,Onshore,Onshore,Onshore",6
5842041f4e65fad6a77088f2,2024_02_17,33.605165797643664,-117.92500376701355,Newport Point,2,0.39166666666666666,0.6966666666666667,15,15,"CLEAR,CLEAR,MIST,NIGHT_MIST,NIGHT_MOSTLY_CLOUDY,NIGHT_MIST","Cross-shore,Cross-shore,Cross-shore,Cross-shore,Cross-shore,Cross-shore",6
5842041f4e65fad6a77088f3,2024_02_17,33.58982984726977,-117.87713,Corona del Mar,1.6666666666666667,0.19798166666666667,0.3093433333333333,15,15,"CLEAR,CLEAR,MIST,NIGHT_MIST,NIGHT_MIST,NIGHT_MIST","Onshore,Onshore,Onshore,Onshore,Onshore,Onshore",6
5842041f4e65fad6a77088f7,2024_02_17,34.00750300824362,-118.4971783496269,Santa Monica Pier,1.5,0.27166666666666667,0.5783333333333334,15,15,"CLEAR,CLEAR,CLEAR,NIGHT_CLEAR,NIGHT_MOSTLY_CLOUDY,NIGHT_MOSTLY_CLOUDY","Onshore,Onshore,Onshore,Onshore,Onshore,Onshore",6
5842041f4e65fad6a77088ff,2024_02_17,33.94070283102945,-118.44321,Dockweiler Beach,2.555,0.8321354166666667,1.3214066666666666,14,14,"MIST,MIST,MIST,NIGHT_MOSTLY_CLOUDY,NIGHT_MIST,NIGHT_MIST","Onshore,Onshore,Onshore,Onshore,Onshore,Onshore",6
5842041f4e65fad6a7708900,2024_02_17,33.9231846937237,-118.4341465777908,Shitpipe,1.8333333333333333,0.6801999999999999,1.2011666666666667,14,14,"MIST,MOSTLY_CLOUDY,MIST,NIGHT_MOSTLY_CLOUDY,NIGHT_CLEAR,NIGHT_MIST","Onshore,Onshore,Onshore,Onshore,Onshore,Onshore",6
5842041f4e65fad6a7708902,2024_02_17,33.9108528052242,-118.4279133138721,Hammerland,1.9716666666666667,0.9590166666666667,1.27075,14,14,"MIST,MOSTLY_CLOUDY,MIST,NIGHT_MOSTLY_CLOUDY,NIGHT_MIST,NIGHT_MIST","Onshore,Onshore,Onshore,Onshore,Onshore,Onshore",6
5842041f4e65fad6a7708904,2024_02_17,33.87201368173932,-118.4075151286262,Hermosa Beach,1.9716666666666667,0.5276333333333334,0.94065,14,14,"MIST,MIST,MIST,NIGHT_MIST,NIGHT_MIST,NIGHT_MIST","Onshore,Onshore,Onshore,Onshore,Onshore,Onshore",6
5842041f4e65fad6a7708906,2024_02_17,33.90129336911256,-118.42184,El Porto,1.9716666666666667,1.0340166666666666,1.3365833333333335,14,14,"MIST,MIST,MIST,NIGHT_MOSTLY_CLOUDY,NIGHT_MIST,NIGHT_MIST","Onshore,Onshore,Onshore,Onshore,Onshore,Onshore",6
5842041f4e65fad6a7708907,2024_02_17,33.87963506431794,-118.41102,Manhattan Beach Pier,1.9716666666666667,0.8481166666666667,1.2457166666666666,14,14,"MIST,MIST,MIST,NIGHT_MOSTLY_CLOUDY,NIGHT_MIST,NIGHT_MIST","Onshore,Onshore,Onshore,Onshore,Onshore,Onshore",6
5842041f4e65fad6a7708914,2024_02_17,34.038053387863464,-118.5532,Sunset Point,1.3333333333333333,0.18666666666666668,0.48833333333333334,15,15,"CLEAR,CLEAR,CLEAR,NIGHT_CLEAR,NIGHT_CLEAR,NIGHT_CLEAR","Onshore,Onshore,Onshore,Onshore,Onshore,Offshore",6
5842041f4e65fad6a7708920,2024_02_17,33.80930828074364,-118.3933198342649,Haggerty's,2,0.223,0.405,15,15,"MIST,MIST,MIST,NIGHT_MIST,NIGHT_MOSTLY_CLOUDY,NIGHT_DRIZZLE","Onshore,Onshore,Onshore,Onshore,Onshore,Onshore",6
5842041f4e65fad6a7708921,2024_02_17,33.85044519861206,-118.40048,Redondo Breakwater,2.6666666666666665,0.8616666666666667,1.085,15,15,"MIST,MIST,MIST,NIGHT_MIST,NIGHT_MIST,NIGHT_MIST","Onshore,Onshore,Onshore,Onshore,Onshore,Onshore",6
5842041f4e65fad6a7708927,2024_02_17,33.70877301002487,-118.2840112858389,Cabrillo Beach,2,0.055,0.35833333333333334,15,15,"MOSTLY_CLOUDY,CLEAR,CLEAR,NIGHT_MIST,NIGHT_CLEAR,NIGHT_CLEAR","Offshore,Offshore,Offshore,Offshore,Offshore,Offshore",6
5842041f4e65fad6a770892c,2024_02_17,33.77209986806257,-118.4268428476672,Lunada Bay,1.6666666666666667,0.745,1.01,15,15,"MOSTLY_CLOUDY,MIST,MOSTLY_CLOUDY,NIGHT_MIST,NIGHT_CLEAR,NIGHT_MIST","Onshore,Cross-shore,Onshore,Onshore,Onshore,Onshore",6
5842041f4e65fad6a770892d,2024_02_17,33.79294656286144,-118.4070316699825,PV Cove,2,0.6875283333333333,0.9439383333333333,15,15,"MIST,MIST,MIST,NIGHT_MIST,NIGHT_MOSTLY_CLOUDY,NIGHT_DRIZZLE","Onshore,Onshore,Onshore,Onshore,Onshore,Onshore",6
5842041f4e65fad6a7708930,2024_02_17,34.03944902292561,-118.57539,Chart House,1,0.0033333333333333335,0.30333333333333334,15,15,"MOSTLY_CLEAR,CLEAR,CLEAR,NIGHT_CLEAR,NIGHT_CLEAR,NIGHT_MOSTLY_CLEAR","Onshore,Cross-shore,Cross-shore,Cross-shore,Onshore,Offshore",6
5842041f4e65fad6a7708936,2024_02_17,34.0016731994772,-118.80456,Point Dume,1.8333333333333333,0.03833333333333333,0.34673333333333334,15,15,"MOSTLY_CLEAR,CLEAR,CLEAR,NIGHT_CLEAR,NIGHT_CLEAR,NIGHT_CLEAR","Cross-shore,Cross-shore,Cross-shore,Offshore,Offshore,Offshore",6
5842041f4e65fad6a7708937,2024_02_17,34.02587527588963,-118.7554939066114,Latigo Point,2,0.22833333333333333,0.5333333333333333,15,15,"CLEAR,CLEAR,CLEAR,NIGHT_CLEAR,NIGHT_CLEAR,NIGHT_CLEAR","Cross-shore,Cross-shore,Cross-shore,Offshore,Offshore,Offshore",6
5842041f4e65fad6a770893f,2024_02_17,34.043762,-118.93294,Leo Carrillo,2,0.5213833333333333,0.8210333333333333,15,15,"MOSTLY_CLEAR,CLEAR,CLEAR,NIGHT_CLEAR,NIGHT_CLEAR,NIGHT_CLEAR","Cross-shore,Cross-shore,Cross-shore,Cross-shore,Offshore,Offshore",6
5842041f4e65fad6a7708941,2024_02_17,36.69388179265737,-121.81289,Marina State Beach,3,1.0166666666666666,1.25,13,13,"CLEAR,CLEAR,CLEAR,NIGHT_MIST,NIGHT_MIST,NIGHT_MIST","Onshore,Onshore,Onshore,Offshore,Onshore,Onshore",6
5842041f4e65fad6a7708944,2024_02_17,34.34145077331085,-119.416999352654,Stanley's,2,0.22833333333333333,0.5366666666666666,15,15,"BRIEF_SHOWERS,BRIEF_SHOWERS,MIST,NIGHT_MIST,NIGHT_MIST,NIGHT_MIST","Onshore,Onshore,Onshore,Onshore,Onshore,Onshore",6
5842041f4e65fad6a7708945,2024_02_17,34.35113017313915,-119.426921498899,Oil Piers,2,0.24,0.5433333333333333,15,15,"BRIEF_SHOWERS,BRIEF_SHOWERS,MIST,NIGHT_MIST,NIGHT_MIST,NIGHT_MIST","Cross-shore,Cross-shore,Cross-shore,Cross-shore,Cross-shore,Cross-shore",6
5842041f4e65fad6a770894c,2024_02_17,34.17876333306018,-119.2399483564372,Oxnard,2,0.8666666666666667,1.09,15,15,"CLEAR,CLEAR,MIST,NIGHT_MOSTLY_CLOUDY,NIGHT_OVERCAST,NIGHT_MIST","Onshore,Onshore,Onshore,Onshore,Onshore,Onshore",6
5842041f4e65fad6a7708957,2024_02_17,34.31720331100517,-119.3882324751725,Pitas Point,2,0.26,0.5666666666666667,15,15,"MIST,DRIZZLE,MOSTLY_CLEAR,NIGHT_MOSTLY_CLOUDY,NIGHT_MIST,NIGHT_BRIEF_SHOWERS","Onshore,Onshore,Cross-shore,Cross-shore,Offshore,Offshore",6
5842041f4e65fad6a7708959,2024_02_17,34.27851754384724,-119.316202617226,Emma Wood,2,0.25,0.5566666666666666,15,15,"CLEAR,MIST,MIST,NIGHT_MOSTLY_CLOUDY,NIGHT_MIST,NIGHT_MIST","Onshore,Offshore,Onshore,Onshore,Onshore,Onshore",6
5842041f4e65fad6a770895a,2024_02_17,34.35513640390276,-119.4400589884255,Mussel Shoals (aka Little Rincon),2,0.26666666666666666,0.575,15,15,"BRIEF_SHOWERS,MOSTLY_CLOUDY,MOSTLY_CLEAR,NIGHT_MIST,NIGHT_MIST,NIGHT_MIST","Cross-shore,Cross-shore,Cross-shore,Cross-shore,Cross-shore,Cross-shore",6
5842041f4e65fad6a770895e,2024_02_17,34.28991757054902,-119.3366646794652,Summer Beach,2,0.21,0.515,15,15,"CLEAR,MIST,MIST,NIGHT_MOSTLY_CLOUDY,NIGHT_MIST,NIGHT_MIST","Cross-shore,Offshore,Onshore,Onshore,Onshore,Onshore",6
5842041f4e65fad6a770895f,2024_02_17,34.30897456105926,-119.3582501170116,Solimar,2,0.18833333333333335,0.495,15,15,"MIST,DRIZZLE,MOSTLY_CLEAR,NIGHT_MOSTLY_CLOUDY,NIGHT_MIST,NIGHT_BRIEF_SHOWERS","Onshore,Onshore,Cross-shore,Cross-shore,Offshore,Offshore",6
5842041f4e65fad6a7708960,2024_02_17,34.39836265281686,-119.70213,Leadbetter Point,1,0,0.25333333333333335,14,14,"MOSTLY_CLEAR,MOSTLY_CLEAR,MOSTLY_CLEAR,NIGHT_MOSTLY_CLOUDY,NIGHT_MOSTLY_CLOUDY,NIGHT_MIST","Cross-shore,Cross-shore,Cross-shore,Cross-shore,Offshore,Offshore",6
5842041f4e65fad6a7708961,2024_02_17,34.46052293893899,-120.07328,Refugio,2,0.02,0.325,14,14,"MOSTLY_CLOUDY,MOSTLY_CLEAR,CLEAR,NIGHT_CLEAR,NIGHT_CLEAR,NIGHT_CLEAR","Offshore,Offshore,Offshore,Offshore,Offshore,Offshore",6
5842041f4e65fad6a7708962,2024_02_17,34.40754276777778,-119.87639,Devereux,1.5,0.25333333333333335,0.5566666666666666,14,14,"MIST,MOSTLY_CLEAR,MOSTLY_CLOUDY,NIGHT_CLEAR,NIGHT_CLEAR,NIGHT_CLEAR","Cross-shore,Cross-shore,Cross-shore,Cross-shore,Cross-shore,Cross-shore",6
5842041f4e65fad6a7708963,2024_02_17,34.27479983305182,-119.3133222656776,Ventura Overhead,2,0.28,0.5816666666666667,15,15,"CLEAR,CLOUDY,MOSTLY_CLOUDY,NIGHT_MOSTLY_CLOUDY,NIGHT_MIST,NIGHT_CLEAR","Cross-shore,Offshore,Onshore,Onshore,Onshore,Onshore",6
5842041f4e65fad6a7708964,2024_02_17,34.41023236011655,-119.88261,Sands,2,0.2816666666666667,0.5866666666666667,14,14,"MIST,MOSTLY_CLEAR,MOSTLY_CLOUDY,NIGHT_CLEAR,NIGHT_CLEAR,NIGHT_CLEAR","Onshore,Onshore,Onshore,Onshore,Onshore,Onshore",6
5842041f4e65fad6a7708966,2024_02_17,34.40450193869233,-119.68752,Sandspit,1,0,0.17833333333333334,14,14,"MOSTLY_CLEAR,MOSTLY_CLOUDY,MOSTLY_CLEAR,NIGHT_MIST,NIGHT_MIST,NIGHT_MIST","Cross-shore,Cross-shore,Cross-shore,Cross-shore,Offshore,Offshore",6
5842041f4e65fad6a7708967,2024_02_17,34.41549098334453,-119.6375149840203,Hammond's,1.3333333333333333,0,0.25833333333333336,14,14,"MOSTLY_CLEAR,MOSTLY_CLOUDY,MOSTLY_CLEAR,NIGHT_MOSTLY_CLOUDY,NIGHT_MOSTLY_CLOUDY,NIGHT_MOSTLY_CLOUDY","Onshore,Cross-shore,Cross-shore,Cross-shore,Cross-shore,Cross-shore",6
5842041f4e65fad6a7708968,2024_02_17,34.45759322742309,-120.0220251867315,El Capitan,2,0.075,0.37833333333333335,14,14,"MOSTLY_CLOUDY,MOSTLY_CLEAR,MOSTLY_CLOUDY,NIGHT_CLEAR,NIGHT_CLEAR,NIGHT_CLEAR","Cross-shore,Cross-shore,Cross-shore,Offshore,Offshore,Offshore",6
5842041f4e65fad6a770896c,2024_02_17,34.405117655616,-119.84317,Campus Point,2,0.03666666666666667,0.34,14,14,"CLEAR,MOSTLY_CLEAR,MOSTLY_CLOUDY,NIGHT_MOSTLY_CLEAR,NIGHT_MOSTLY_CLOUDY,NIGHT_MIST","Cross-shore,Cross-shore,Cross-shore,Cross-shore,Cross-shore,Cross-shore",6
5842041f4e65fad6a770896e,2024_02_17,34.38935162233354,-119.51955,Carpinteria State Beach,2,0.058333333333333334,0.36166666666666664,15,15,"MIST,MOSTLY_CLOUDY,MOSTLY_CLEAR,NIGHT_MOSTLY_CLOUDY,NIGHT_MOSTLY_CLEAR,NIGHT_MOSTLY_CLOUDY","Onshore,Onshore,Onshore,Onshore,Offshore,Offshore",6
5842041f4e65fad6a770896f,2024_02_17,37.48296565175612,-122.4549300127824,Half Moon Bay,2.6666666666666665,0.7166666666666667,1.0233333333333334,13,13,"MIST,MIST,MIST,NIGHT_MIST,NIGHT_CLEAR,NIGHT_CLEAR","Onshore,Onshore,Onshore,Offshore,Onshore,Cross-shore",6
5842041f4e65fad6a7708970,2024_02_17,37.499,-122.471,Princeton Jetty,2.6666666666666665,0.54,0.845,13,13,"CLEAR,CLEAR,CLEAR,NIGHT_CLEAR,NIGHT_MIST,NIGHT_CLEAR","Onshore,Onshore,Onshore,Offshore,Onshore,Onshore",6
5842041f4e65fad6a7708972,2024_02_17,37.35699547365155,-122.4069534707252,Tunitas Creek,3,1.1783333333333332,1.415,13,13,"CLEAR,CLEAR,CLEAR,NIGHT_CLEAR,NIGHT_CLEAR,NIGHT_CLEAR","Onshore,Onshore,Cross-shore,Cross-shore,Cross-shore,Cross-shore",6
5842041f4e65fad6a7708974,2024_02_17,37.54735589428842,-122.5161090212687,Montara,3,0.985,1.1816666666666666,13,13,"CLEAR,CLEAR,CLEAR,NIGHT_CLEAR,NIGHT_CLEAR,NIGHT_CLEAR","Cross-shore,Offshore,Offshore,Offshore,Offshore,Offshore",6
5842041f4e65fad6a7708975,2024_02_17,34.3869373724559,-119.5142334209018,Tarpits,2,0.06666666666666667,0.36833333333333335,15,15,"CLEAR,CLEAR,MOSTLY_CLEAR,NIGHT_MOSTLY_CLOUDY,NIGHT_MIST,NIGHT_FOG","Onshore,Cross-shore,Cross-shore,Cross-shore,Offshore,Offshore",6
5842041f4e65fad6a7708976,2024_02_17,37.59881852720143,-122.50463,Pacifica / Linda Mar,2.3066666666666666,0.22175,0.5315555555555556,14,14,"CLEAR,CLEAR,CLEAR,NIGHT_CLEAR,NIGHT_CLEAR,NIGHT_CLEAR","Onshore,Cross-shore,Offshore,Offshore,Cross-shore,Offshore",6
5842041f4e65fad6a7708978,2024_02_17,37.59883098461164,-122.5143843582282,Pedro Point,3,0.9450000000000001,1.085,13,13,"CLEAR,CLEAR,CLEAR,NIGHT_CLEAR,NIGHT_CLEAR,NIGHT_CLEAR","Cross-shore,Offshore,Offshore,Offshore,Offshore,Offshore",6
5842041f4e65fad6a7708979,2024_02_17,37.61081996647663,-122.4973287570634,Rockaway,3,0.9166666666666667,1.1133333333333333,13,13,"CLEAR,CLEAR,CLEAR,NIGHT_CLEAR,NIGHT_CLEAR,NIGHT_CLEAR","Onshore,Cross-shore,Offshore,Offshore,Cross-shore,Offshore",6
5842041f4e65fad6a770897a,2024_02_17,37.809987384424446,-122.4751353263855,Fort Point,2.6666666666666665,0.485,0.7883333333333333,13,13,"CLEAR,CLEAR,CLOUDY,NIGHT_CLEAR,NIGHT_CLEAR,NIGHT_CLEAR","Offshore,Cross-shore,Cross-shore,Offshore,Onshore,Onshore",6
5842041f4e65fad6a770897c,2024_02_17,37.63422542967464,-122.4951,Sharp Park,3,0.9116666666666666,1.2183333333333333,13,13,"CLEAR,CLEAR,CLEAR,NIGHT_CLEAR,NIGHT_CLEAR,NIGHT_CLEAR","Onshore,Onshore,Cross-shore,Offshore,Onshore,Cross-shore",6
5842041f4e65fad6a770897d,2024_02_17,37.27313605072472,-122.4127387912554,Pescadero,3,0.9816666666666667,1.26,13,13,"CLEAR,CLEAR,CLEAR,NIGHT_CLEAR,NIGHT_CLEAR,NIGHT_CLEAR","Cross-shore,Cross-shore,Cross-shore,Cross-shore,Offshore,Offshore",6
5842041f4e65fad6a770897e,2024_02_17,37.18140279972666,-122.3926685899327,Pigeon Point,3,1.0566666666666666,1.3333333333333333,13,13,"CLEAR,CLEAR,CLEAR,NIGHT_CLEAR,NIGHT_CLEAR,NIGHT_CLEAR","Onshore,Onshore,Onshore,Onshore,Onshore,Onshore",6
5842041f4e65fad6a770897f,2024_02_17,37.11578956919415,-122.314699271291,Ano Nuevo,2.3333333333333335,0.8616666666666667,1.0883333333333334,13,13,"CLEAR,CLEAR,CLEAR,NIGHT_CLEAR,NIGHT_CLEAR,NIGHT_CLEAR","Onshore,Onshore,Onshore,Onshore,Onshore,Onshore",6
5842041f4e65fad6a7708980,2024_02_17,37.09520872681598,-122.2805474707768,Waddell Creek,3,0.9616666666666667,1.1783333333333332,13,13,"CLEAR,CLEAR,CLEAR,NIGHT_CLEAR,NIGHT_CLEAR,NIGHT_CLEAR","Onshore,Onshore,Cross-shore,Cross-shore,Cross-shore,Cross-shore",6
5842041f4e65fad6a7708981,2024_02_17,36.96512852130351,-122.1252825495626,Four Mile,3,0.8049999999999999,1.0616666666666668,13,13,"CLEAR,CLEAR,CLEAR,NIGHT_CLEAR,NIGHT_CLEAR,NIGHT_CLEAR","Onshore,Onshore,Onshore,Cross-shore,Offshore,Offshore",6
5842041f4e65fad6a7708982,2024_02_17,37.04122807048655,-122.2333684729756,Scott Creek,3,0.9916666666666667,1.205,13,13,"CLEAR,CLEAR,CLEAR,NIGHT_CLEAR,NIGHT_CLEAR,NIGHT_CLEAR","Onshore,Onshore,Cross-shore,Cross-shore,Offshore,Offshore",6
5842041f4e65fad6a7708983,2024_02_17,37.02350229387179,-122.21908,Davenport,3,1.04,1.2933333333333334,13,13,"CLEAR,CLEAR,CLEAR,NIGHT_CLEAR,NIGHT_CLEAR,NIGHT_CLEAR","Onshore,Onshore,Cross-shore,Cross-shore,Offshore,Offshore",6
5842041f4e65fad6a7708986,2024_02_17,36.94905295955728,-122.0611823912244,Natural Bridges,3,0.9233333333333333,1.1316666666666666,13,13,"CLEAR,CLEAR,CLEAR,NIGHT_CLEAR,NIGHT_CLEAR,NIGHT_CLEAR","Onshore,Onshore,Onshore,Cross-shore,Cross-shore,Offshore",6
5842041f4e65fad6a7708987,2024_02_17,36.95154854910425,-122.0420693940968,Mitchell's Cove,3,0.5616666666666666,0.865,13,13,"CLEAR,CLEAR,CLEAR,NIGHT_MIST,NIGHT_CLEAR,NIGHT_CLEAR","Onshore,Cross-shore,Onshore,Onshore,Onshore,Cross-shore",6
5842041f4e65fad6a770898a,2024_02_17,36.9572312370203,-121.98177,26th Ave,3,0.9533333333333334,1.14,13,13,"CLEAR,CLEAR,CLEAR,NIGHT_MIST,NIGHT_MOSTLY_CLOUDY,NIGHT_MOSTLY_CLOUDY","Onshore,Onshore,Cross-shore,Offshore,Cross-shore,Offshore",6
5842041f4e65fad6a770898e,2024_02_17,36.91899972819882,-121.85536,Manresa,3,1.0116666666666667,1.2383333333333333,13,13,"CLEAR,CLEAR,CLEAR,NIGHT_CLEAR,NIGHT_CLEAR,NIGHT_MOSTLY_CLOUDY","Onshore,Onshore,Onshore,Offshore,Onshore,Cross-shore",6
5842041f4e65fad6a7708990,2024_02_17,34.45747731928454,-120.34242,The Ranch,3,0.3883333333333333,0.6933333333333334,14,14,"OVERCAST,CLEAR,CLEAR,NIGHT_CLEAR,NIGHT_CLEAR,NIGHT_CLEAR","Cross-shore,Cross-shore,Offshore,Offshore,Offshore,Offshore",6
5842041f4e65fad6a7708991,2024_02_17,34.50875036590315,-120.50348,Jalama,3,0.9383333333333334,1.1483333333333334,14,14,"CLEAR,CLEAR,CLEAR,NIGHT_CLEAR,NIGHT_CLEAR,NIGHT_CLEAR","Onshore,Onshore,Cross-shore,Cross-shore,Cross-shore,Offshore",6
5842041f4e65fad6a7708996,2024_02_17,34.68700870220497,-120.6111611019887,Surf Beach,3,1.495,1.7683333333333333,14,14,"MIST,MIST,MIST,NIGHT_MIST,NIGHT_MIST,NIGHT_MIST","Onshore,Onshore,Onshore,Onshore,Onshore,Onshore",6
5842041f4e65fad6a770899c,2024_02_17,35.5730538161116,-121.1143362345574,Moonstone,3,1.0366666666666666,1.2766666666666666,14,14,"CLEAR,CLEAR,CLEAR,NIGHT_CLEAR,NIGHT_MIST,NIGHT_CLEAR","Onshore,Onshore,Onshore,Onshore,Onshore,Onshore",6
5842041f4e65fad6a770899d,2024_02_17,35.61533716776573,-121.1502053073914,Pico Creek,3,0.9233333333333333,1.1283333333333334,14,14,"CLEAR,CLEAR,CLEAR,NIGHT_CLEAR,NIGHT_MIST,NIGHT_CLEAR","Onshore,Onshore,Onshore,Onshore,Onshore,Cross-shore",6
5842041f4e65fad6a770899e,2024_02_17,35.56829031927379,-121.1120653023953,Santa Rosa Creek,3,1.0366666666666666,1.2766666666666666,14,14,"CLEAR,CLEAR,CLEAR,NIGHT_CLEAR,NIGHT_MIST,NIGHT_MOSTLY_CLOUDY","Onshore,Cross-shore,Cross-shore,Cross-shore,Onshore,Cross-shore",6
5842041f4e65fad6a77089a2,2024_02_17,35.44820114936284,-120.90715,"Cayucos Pier, Southside ",2,0.34833333333333333,0.6583333333333333,14,14,"CLEAR,CLEAR,CLEAR,NIGHT_CLEAR,NIGHT_MIST,NIGHT_CLEAR","Cross-shore,Cross-shore,Cross-shore,Onshore,Onshore,Onshore",6
5842041f4e65fad6a77089a4,2024_02_17,35.30143372628852,-120.877819239902,Cable Landing,3,1.455,1.67,14,14,"BRIEF_SHOWERS_POSSIBLE,BRIEF_SHOWERS_POSSIBLE,MIST,NIGHT_CLEAR,NIGHT_MIST,NIGHT_MOSTLY_CLOUDY","Onshore,Onshore,Onshore,Onshore,Onshore,Onshore",6
5842041f4e65fad6a77089a9,2024_02_17,35.61269103500222,-121.1480725356606,San Simeon,2.6666666666666665,0.6813333333333333,0.8155,14,14,"CLEAR,CLEAR,CLEAR,NIGHT_CLEAR,NIGHT_MIST,NIGHT_CLEAR","Onshore,Cross-shore,Cross-shore,Cross-shore,Cross-shore,Cross-shore",6
5842041f4e65fad6a77089ab,2024_02_17,35.1775325966252,-120.7341125142258,Avila Beach,2,0.03,0.335,14,14,"CLEAR,CLEAR,CLEAR,NIGHT_CLEAR,NIGHT_CLEAR,NIGHT_CLEAR","Onshore,Onshore,Offshore,Offshore,Offshore,Offshore",6
5842041f4e65fad6a77089ac,2024_02_17,35.13877877884115,-120.64535,Pismo Beach Pier,3,0.89485,1.2847777777777778,14,14,"CLEAR,CLEAR,CLEAR,NIGHT_CLEAR,NIGHT_CLEAR,NIGHT_CLEAR","Cross-shore,Cross-shore,Cross-shore,Onshore,Cross-shore,Offshore",6
5842041f4e65fad6a77089ad,2024_02_17,46.8907710233147,-124.12964,Westport/Olympic Peninsula,1.5,0.74,1.0266666666666666,10,10,"CLEAR,CLEAR,CLOUDY,NIGHT_CLEAR,NIGHT_CLEAR,NIGHT_CLEAR","Offshore,Offshore,Offshore,Offshore,Offshore,Offshore",6
5842041f4e65fad6a77089ae,2024_02_17,46.35185177248545,-124.06747,Long Beach Peninsula,2,1.055,1.325,10,10,"CLEAR,CLEAR,CLEAR,NIGHT_CLEAR,NIGHT_CLEAR,NIGHT_CLEAR","Offshore,Offshore,Offshore,Offshore,Offshore,Offshore",6
5842041f4e65fad6a77089af,2024_02_17,47.90649175554033,-124.6370864743483,La Push,3,0.7816666666666667,1.0483333333333333,9,9,"CLEAR,CLEAR,CLEAR,NIGHT_CLEAR,NIGHT_CLEAR,NIGHT_CLEAR","Offshore,Offshore,Offshore,Offshore,Offshore,Offshore",6
5842041f4e65fad6a77089b0,2024_02_17,42.04368239985442,-124.26828,Brookings Jetty,3,1.3541583333333334,2.1158733333333335,11,11,"CLOUDY,CLOUDY,CLOUDY,NIGHT_CLEAR,NIGHT_CLEAR,NIGHT_OVERCAST","Onshore,Cross-shore,Cross-shore,Cross-shore,Cross-shore,Cross-shore",6
5842041f4e65fad6a77089b1,2024_02_17,42.74071837900346,-124.4983727491047,Port Orford,2,2.22,2.5566666666666666,12,12,"CLEAR,CLEAR,CLOUDY,NIGHT_CLEAR,NIGHT_CLEAR,NIGHT_CLOUDY","Onshore,Onshore,Onshore,Onshore,Onshore,Onshore",6
5842041f4e65fad6a77089b2,2024_02_17,44.01532689312291,-124.13865,Florence South Jetty,3.8333333333333335,1.7816666666666667,2.131666666666667,11,11,"CLEAR,CLEAR,CLEAR,NIGHT_CLEAR,NIGHT_CLEAR,NIGHT_CLEAR","Offshore,Offshore,Offshore,Offshore,Offshore,Offshore",6
5842041f4e65fad6a77089b3,2024_02_17,42.41812540774362,-124.42945,Gold Beach South Jetty,2,2.5683333333333334,2.9616666666666664,12,12,"CLEAR,CLEAR,CLEAR,NIGHT_CLEAR,NIGHT_CLEAR,NIGHT_CLEAR","Onshore,Onshore,Onshore,Onshore,Onshore,Onshore",6
5842041f4e65fad6a77089b4,2024_02_17,44.95857310226525,-124.0219017690976,Lincoln City,3.5,1.1583333333333334,1.4433333333333334,11,11,"CLEAR,CLEAR,CLEAR,NIGHT_CLEAR,NIGHT_CLEAR,NIGHT_CLOUDY","Offshore,Offshore,Offshore,Offshore,Offshore,Offshore",6
5842041f4e65fad6a77089b5,2024_02_17,44.63792761362982,-124.0657,Newport,3,1.6483333333333332,1.995,11,11,"CLEAR,CLEAR,CLEAR,NIGHT_CLEAR,NIGHT_CLOUDY,NIGHT_CLEAR","Offshore,Offshore,Offshore,Offshore,Offshore,Offshore",6
5842041f4e65fad6a77089b6,2024_02_17,45.61468496266301,-123.94643,Rockaway Beach,2.1666666666666665,1.1783333333333332,1.4716666666666667,11,11,"CLEAR,CLEAR,CLEAR,NIGHT_CLEAR,NIGHT_CLEAR,NIGHT_CLOUDY","Offshore,Offshore,Offshore,Offshore,Offshore,Offshore",6
5842041f4e65fad6a77089b7,2024_02_17,45.20252914186085,-123.96975,Pacific City,3,1.225,1.49,11,11,"CLEAR,CLEAR,CLOUDY,NIGHT_CLEAR,NIGHT_CLEAR,NIGHT_CLEAR","Offshore,Offshore,Offshore,Offshore,Offshore,Offshore",6
5842041f4e65fad6a77089b8,2024_02_17,45.88179930310263,-123.96681,Cannon Beach,1.6666666666666667,1.11,1.3616666666666668,10,10,"CLEAR,CLEAR,CLOUDY,NIGHT_CLEAR,NIGHT_CLEAR,NIGHT_CLEAR","Offshore,Offshore,Offshore,Offshore,Offshore,Offshore",6
5842041f4e65fad6a77089ba,2024_02_17,40.02528754746774,-124.06372,Shelter Cove,2,0.6990783333333334,1.0923116666666668,12,12,"CLEAR,CLEAR,CLEAR,NIGHT_CLEAR,NIGHT_CLOUDY,NIGHT_CLEAR","Onshore,Onshore,Onshore,Onshore,Onshore,Onshore",6
5842041f4e65fad6a77089bb,2024_02_17,40.76816197136951,-124.24248,Humboldt Harbor Entrance,2.5,1.6833333333333333,1.9983333333333333,12,12,"CLEAR,CLEAR,OVERCAST,NIGHT_CLOUDY,NIGHT_OVERCAST,NIGHT_CLEAR","Onshore,Cross-shore,Cross-shore,Cross-shore,Cross-shore,Cross-shore",6
5842041f4e65fad6a77089bc,2024_02_17,40.76684246920174,-124.23107,North Jetty,3,1.28,1.5733333333333333,12,12,"CLEAR,CLEAR,CLEAR,NIGHT_CLOUDY,NIGHT_CLEAR,NIGHT_CLEAR","Cross-shore,Cross-shore,Cross-shore,Cross-shore,Cross-shore,Cross-shore",6
5842041f4e65fad6a77089bd,2024_02_17,41.02731183893966,-124.1149972888982,Westhaven,3,1.9366666666666665,2.2683333333333335,12,12,"CLOUDY,CLEAR,CLEAR,NIGHT_CLEAR,NIGHT_CLEAR,NIGHT_CLEAR","Onshore,Cross-shore,Cross-shore,Offshore,Offshore,Cross-shore",6
5842041f4e65fad6a77089be,2024_02_17,41.13016238153297,-124.16466,Sue-meg,3,1.845,2.171666666666667,12,12,"CLEAR,CLEAR,CLEAR,NIGHT_CLEAR,NIGHT_CLEAR,NIGHT_CLOUDY","Cross-shore,Cross-shore,Cross-shore,Offshore,Cross-shore,Cross-shore",6
5842041f4e65fad6a77089bf,2024_02_17,37.8289474958188,-122.5376795097543,Fort Cronkite/Rodeo Beach,3,0.9183333333333333,1.2216666666666667,13,13,"CLEAR,CLEAR,CLEAR,NIGHT_CLEAR,NIGHT_CLEAR,NIGHT_CLEAR","Cross-shore,Onshore,Onshore,Offshore,Onshore,Onshore",6
5842041f4e65fad6a77089c0,2024_02_17,41.74415759876137,-124.17717,South Beach CA,2.8333333333333335,2.2,2.51,12,12,"CLEAR,CLEAR,CLEAR,NIGHT_CLEAR,NIGHT_CLEAR,NIGHT_CLOUDY","Onshore,Onshore,Onshore,Offshore,Onshore,Onshore",6
5842041f4e65fad6a77089c1,2024_02_17,37.89801283969752,-122.64519,Stinson Beach,3,0.38666666666666666,0.6933333333333334,13,13,"CLEAR,CLEAR,CLEAR,NIGHT_CLEAR,NIGHT_MIST,NIGHT_CLEAR","Onshore,Onshore,Onshore,Onshore,Onshore,Onshore",6
5842041f4e65fad6a77089c2,2024_02_17,37.90514516176495,-122.68151,Bolinas,3,0.43134,0.67397,13,13,"CLEAR,CLEAR,CLEAR,NIGHT_CLEAR,NIGHT_CLEAR,NIGHT_CLEAR","Cross-shore,Onshore,Cross-shore,Onshore,Offshore,Onshore",6
5842041f4e65fad6a77089c3,2024_02_17,38.04892513158693,-122.9892494965416,Point Reyes (north),4,1.2233333333333334,1.41,13,13,"CLEAR,CLEAR,CLEAR,NIGHT_MOSTLY_CLOUDY,NIGHT_CLEAR,NIGHT_CLEAR","Offshore,Offshore,Offshore,Offshore,Offshore,Offshore",6
5842041f4e65fad6a77089c6,2024_02_17,38.31088736605785,-123.0496777333731,Doran Beach,1,0.10166666666666667,0.4066666666666667,13,13,"CLEAR,CLEAR,CLEAR,NIGHT_CLEAR,NIGHT_CLEAR,NIGHT_CLEAR","Onshore,Onshore,Onshore,Onshore,Onshore,Onshore",6
5842041f4e65fad6a77089c7,2024_02_17,38.45077228660809,-123.13008,Russian Rivermouth,3,0.9450000000000001,1.2266666666666666,13,13,"CLEAR,CLEAR,CLEAR,NIGHT_CLEAR,NIGHT_CLEAR,NIGHT_CLEAR","Cross-shore,Cross-shore,Cross-shore,Offshore,Cross-shore,Offshore",6
5842041f4e65fad6a77089c8,2024_02_17,38.35329968518107,-123.06906,Salmon Creek,3,1.0333333333333332,1.28,13,13,"CLEAR,CLEAR,CLEAR,NIGHT_CLEAR,NIGHT_CLOUDY,NIGHT_CLEAR","Cross-shore,Offshore,Offshore,Offshore,Offshore,Offshore",6
5842041f4e65fad6a77089c9,2024_02_17,38.6845180197959,-123.4322714291198,Black Point Beach,3.1666666666666665,0.9316666666666666,1.1633333333333333,12,12,"CLEAR,CLEAR,CLEAR,NIGHT_CLEAR,NIGHT_CLEAR,NIGHT_OVERCAST","Offshore,Offshore,Offshore,Offshore,Offshore,Offshore",6
5842041f4e65fad6a77089ca,2024_02_17,43.251076,-70.59144,Ogunquit,0.9716666666666667,0,0.21471666666666667,4,3,"NIGHT_CLEAR,NIGHT_CLEAR,NIGHT_CLEAR,NIGHT_CLEAR,NIGHT_CLEAR,NIGHT_CLEAR","Offshore,Offshore,Offshore,Offshore,Offshore,Offshore",6
5842041f4e65fad6a77089cb,2024_02_17,41.362631366305415,-71.48006772942608,Point Judith,1,0,0.2538,5,4,"NIGHT_CLEAR,NIGHT_CLEAR,NIGHT_CLEAR,NIGHT_CLEAR,NIGHT_CLEAR,NIGHT_CLEAR","Offshore,Offshore,Offshore,Offshore,Offshore,Offshore",6
5842041f4e65fad6a77089cd,2024_02_17,41.422678090954726,-71.45413,Monahan's - Narragansett,0,0.021228333333333335,0.03317,5,5,"NIGHT_CLEAR,NIGHT_CLEAR,NIGHT_CLEAR,NIGHT_CLEAR,NIGHT_CLEAR,NIGHT_CLEAR","Offshore,Offshore,Offshore,Offshore,Offshore,Offshore",6
5842041f4e65fad6a77089ce,2024_02_17,41.469,-71.293,Ruggles - Newport,1,0.35067166666666666,0.5479233333333333,5,5,"NIGHT_CLEAR,NIGHT_CLEAR,NIGHT_CLEAR,NIGHT_CLEAR,NIGHT_CLEAR,NIGHT_CLEAR","Cross-shore,Cross-shore,Offshore,Offshore,Offshore,Offshore",6
5842041f4e65fad6a77089cf,2024_02_17,43.175394,-70.606351,Short Sands Beach,0,0,0.1366666666666667,4,4,"NIGHT_CLEAR,NIGHT_CLEAR,NIGHT_CLEAR,NIGHT_CLEAR,NIGHT_CLEAR,NIGHT_CLEAR","Offshore,Offshore,Offshore,Offshore,Offshore,Offshore",6
5842041f4e65fad6a77089d0,2024_02_17,41.487408,-71.29017,First Beach,1,0,0.21666666666666667,5,5,"NIGHT_CLEAR,NIGHT_CLEAR,NIGHT_CLEAR,NIGHT_CLEAR,NIGHT_CLEAR,NIGHT_CLEAR","Offshore,Offshore,Offshore,Offshore,Offshore,Offshore",6
5842041f4e65fad6a77089d1,2024_02_17,42.27916830233153,-70.86498,Nantasket Beach,0.9716666666666667,0,0.21721666666666667,4,3,"NIGHT_CLEAR,NIGHT_CLEAR,NIGHT_CLEAR,NIGHT_CLEAR,NIGHT_CLEAR,NIGHT_CLEAR","Cross-shore,Cross-shore,Cross-shore,Cross-shore,Cross-shore,Cross-shore",6
5842041f4e65fad6a77089d2,2024_02_17,41.817,-69.935,Cape Cod,2,0.5383333333333333,0.845,4,4,"NIGHT_CLEAR,NIGHT_CLEAR,NIGHT_CLEAR,NIGHT_CLEAR,NIGHT_CLEAR,NIGHT_CLEAR","Offshore,Offshore,Offshore,Offshore,Offshore,Offshore",6
5842041f4e65fad6a77089d3,2024_02_17,42.22055448975661,-70.70634873403819,Egypt Beach,1,0.05333333333333334,0.35833333333333334,4,4,"NIGHT_CLEAR,NIGHT_CLEAR,NIGHT_CLEAR,NIGHT_CLEAR,NIGHT_CLEAR,NIGHT_CLEAR","Offshore,Offshore,Offshore,Offshore,Offshore,Offshore",6
5842041f4e65fad6a77089d4,2024_02_17,41.48739647744607,-71.25723,Second Beach,0.9716666666666667,0.10901333333333334,0.2846329166666667,5,4,"NIGHT_CLEAR,NIGHT_CLEAR,NIGHT_CLEAR,NIGHT_CLEAR,NIGHT_CLEAR,NIGHT_CLEAR","Cross-shore,Cross-shore,Cross-shore,Cross-shore,Cross-shore,Cross-shore",6
5842041f4e65fad6a77089d5,2024_02_17,42.964,-70.769,Fox Hill,0.8049999999999999,0,0.18430000000000002,4,3,"NIGHT_CLEAR,NIGHT_CLEAR,NIGHT_CLEAR,NIGHT_CLEAR,NIGHT_CLEAR,NIGHT_CLEAR","Offshore,Offshore,Offshore,Offshore,Offshore,Offshore",6
5842041f4e65fad6a77089d6,2024_02_17,42.991359,-70.75149,Straws Point,0.8049999999999999,-0.0044444444444444444,0.1819388888888889,4,3,"NIGHT_CLEAR,NIGHT_CLEAR,NIGHT_CLEAR,NIGHT_CLEAR,NIGHT_CLEAR,NIGHT_CLEAR","Offshore,Offshore,Offshore,Offshore,Offshore,Offshore",6
5842041f4e65fad6a77089d7,2024_02_17,42.946,-70.786,Plaice Cove,0.8049999999999999,0,0.18430000000000002,4,3,"NIGHT_CLEAR,NIGHT_CLEAR,NIGHT_CLEAR,NIGHT_CLEAR,NIGHT_CLEAR,NIGHT_CLEAR","Offshore,Offshore,Offshore,Offshore,Offshore,Offshore",6
5842041f4e65fad6a77089d9,2024_02_17,42.911574,-70.80831,The Main Beach,0.3883333333333333,0.023688333333333336,0.15766791666666669,4,3,"NIGHT_CLEAR,NIGHT_CLEAR,NIGHT_CLEAR,NIGHT_CLEAR,NIGHT_CLEAR,NIGHT_CLEAR","Offshore,Offshore,Offshore,Offshore,Offshore,Offshore",6
5842041f4e65fad6a77089da,2024_02_17,42.97583846220203,-70.764,Sawyer's Beach,0.6383333333333333,0,0.16235555555555556,4,3,"NIGHT_CLEAR,NIGHT_CLEAR,NIGHT_CLEAR,NIGHT_CLEAR,NIGHT_CLEAR,NIGHT_CLEAR","Offshore,Offshore,Offshore,Offshore,Offshore,Offshore",6
5842041f4e65fad6a77089db,2024_02_17,42.97,-70.77,Rye on the Rocks / 5-0's,0.3883333333333333,0.035083333333333334,0.1628554166666667,4,3,"NIGHT_CLEAR,NIGHT_CLEAR,NIGHT_CLEAR,NIGHT_CLEAR,NIGHT_CLEAR,NIGHT_CLEAR","Offshore,Offshore,Offshore,Offshore,Offshore,Offshore",6
5842041f4e65fad6a77089dc,2024_02_17,43.55902946610303,-70.27795,Higgins Beach,1,0,0.27088333333333336,4,3,"NIGHT_CLEAR,NIGHT_CLEAR,NIGHT_CLEAR,NIGHT_CLEAR,NIGHT_CLEAR,NIGHT_CLEAR","Offshore,Offshore,Offshore,Offshore,Offshore,Offshore",6
5842041f4e65fad6a77089dd,2024_02_17,43.302676,-70.5652,Wells Beach,0.5,0,0.17943888888888887,4,3,"NIGHT_CLEAR,NIGHT_CLEAR,NIGHT_CLEAR,NIGHT_CLEAR,NIGHT_CLEAR,NIGHT_CLEAR","Offshore,Offshore,Offshore,Offshore,Offshore,Offshore",6
5842041f4e65fad6a77089de,2024_02_17,43.545359,-70.30479,Scarborough Beach State Park,0.9716666666666667,0.06740499999999999,0.21962041666666668,4,3,"NIGHT_CLEAR,NIGHT_CLEAR,NIGHT_CLEAR,NIGHT_CLEAR,NIGHT_CLEAR,NIGHT_CLEAR","Offshore,Offshore,Offshore,Offshore,Offshore,Offshore",6
5842041f4e65fad6a77089df,2024_02_17,43.514481,-70.372146,Old Orchard Beach,0.6116666666666667,0,0.12190000000000001,4,3,"NIGHT_CLEAR,NIGHT_CLEAR,NIGHT_CLEAR,NIGHT_CLEAR,NIGHT_CLEAR,NIGHT_CLEAR","Offshore,Offshore,Offshore,Offshore,Offshore,Offshore",6
5842041f4e65fad6a77089e0,2024_02_17,43.34711,-70.48165,Gooch's Beach,0.6383333333333333,0,0.17513333333333336,4,3,"NIGHT_CLEAR,NIGHT_CLEAR,NIGHT_CLEAR,NIGHT_CLEAR,NIGHT_CLEAR,NIGHT_CLEAR","Offshore,Cross-shore,Cross-shore,Offshore,Cross-shore,Cross-shore",6
5842041f4e65fad6a77089e2,2024_02_17,40.58433,-73.62953,Lido Beach,0.3883333333333333,-0.01375,0.29338333333333333,5,4,"NIGHT_CLEAR,NIGHT_CLEAR,NIGHT_CLEAR,NIGHT_CLEAR,NIGHT_CLEAR,NIGHT_CLEAR","Onshore,Cross-shore,Offshore,Offshore,Cross-shore,Offshore",6
5842041f4e65fad6a77089e3,2024_02_17,43.163135,-70.61689,Long Sands Beach,0.305,0.018548333333333323,0.14963291666666667,4,3,"NIGHT_CLEAR,NIGHT_CLEAR,NIGHT_CLEAR,NIGHT_CLEAR,NIGHT_CLEAR,NIGHT_CLEAR","Offshore,Offshore,Offshore,Offshore,Offshore,Offshore",6
5842041f4e65fad6a77089e4,2024_02_17,40.61695351251805,-73.39376,Gilgo Beach,0.9716666666666667,0.0475,0.35263333333333335,5,4,"NIGHT_CLEAR,NIGHT_CLEAR,NIGHT_CLEAR,NIGHT_CLEAR,NIGHT_CLEAR,NIGHT_CLEAR","Offshore,Offshore,Offshore,Offshore,Offshore,Offshore",6
5842041f4e65fad6a77089e5,2024_02_17,40.62530081928036,-73.23827,Robert Moses,1,0.06666666666666667,0.37,5,5,"NIGHT_CLEAR,NIGHT_CLEAR,NIGHT_CLEAR,NIGHT_CLEAR,NIGHT_CLEAR,NIGHT_CLEAR","Offshore,Offshore,Offshore,Offshore,Offshore,Offshore",6
5842041f4e65fad6a77089e6,2024_02_17,40.64313317632791,-73.15727,Fire Island,1,0.09166666666666667,0.395,5,5,"NIGHT_CLEAR,NIGHT_CLEAR,NIGHT_CLEAR,NIGHT_CLEAR,NIGHT_CLEAR,NIGHT_CLEAR","Offshore,Offshore,Offshore,Offshore,Offshore,Offshore",6
5842041f4e65fad6a77089e8,2024_02_17,40.76653118828782,-72.74579619372713,Cupsogue,2,0.2816666666666667,0.585,5,5,"NIGHT_CLEAR,NIGHT_CLEAR,NIGHT_CLEAR,NIGHT_CLEAR,NIGHT_CLEAR,NIGHT_CLEAR","Offshore,Offshore,Offshore,Offshore,Offshore,Offshore",6
5842041f4e65fad6a77089e9,2024_02_17,42.9376373334092,-70.79141,The Wall ,0.3883333333333333,0.027583749999999994,0.16375375,4,3,"NIGHT_CLEAR,NIGHT_CLEAR,NIGHT_CLEAR,NIGHT_CLEAR,NIGHT_CLEAR,NIGHT_CLEAR","Offshore,Offshore,Offshore,Offshore,Offshore,Offshore",6
5842041f4e65fad6a77089ea,2024_02_17,40.887088,-72.33856,Flys,1.3333333333333333,0.23833333333333334,0.5466666666666666,5,5,"NIGHT_CLEAR,NIGHT_CLEAR,NIGHT_CLEAR,NIGHT_CLEAR,NIGHT_CLEAR,NIGHT_CLEAR","Cross-shore,Offshore,Offshore,Offshore,Offshore,Offshore",6
5842041f4e65fad6a77089eb,2024_02_17,41.0389266436591,-71.91068529316958,Trailer Park,0.75,0.4306438888888889,0.6434019444444444,5,4,"NIGHT_CLEAR,NIGHT_CLEAR,NIGHT_CLEAR,NIGHT_CLEAR,NIGHT_CLEAR,NIGHT_CLEAR","Offshore,Offshore,Offshore,Offshore,Offshore,Offshore",6
5842041f4e65fad6a77089ec,2024_02_17,41.039505402729105,-71.9142,Ditch Plains,1,0.27206,0.425095,5,5,"NIGHT_CLEAR,NIGHT_CLEAR,NIGHT_CLEAR,NIGHT_CLEAR,NIGHT_CLEAR,NIGHT_CLEAR","Offshore,Offshore,Offshore,Offshore,Offshore,Offshore",6
5842041f4e65fad6a77089ee,2024_02_17,40.57633275206492,-73.56895305108567,"West End, Jones Beach",0.9716666666666667,0.049999999999999996,0.35513333333333336,5,4,"NIGHT_CLEAR,NIGHT_CLEAR,NIGHT_CLEAR,NIGHT_CLEAR,NIGHT_CLEAR,NIGHT_CLEAR","Cross-shore,Offshore,Offshore,Offshore,Offshore,Offshore",6
5842041f4e65fad6a77089f1,2024_02_17,41.038286691230795,-71.91991567611694,Poles,0.3883333333333333,0.4207666666666667,0.5469388888888889,5,4,"NIGHT_CLEAR,NIGHT_CLEAR,NIGHT_CLEAR,NIGHT_CLEAR,NIGHT_CLEAR,NIGHT_CLEAR","Offshore,Offshore,Offshore,Offshore,Offshore,Offshore",6
5842041f4e65fad6a77089f3,2024_02_17,40.84077769766295,-72.47989493724765,The Bowl,1.3333333333333333,0.27,0.575,5,5,"NIGHT_CLEAR,NIGHT_CLEAR,NIGHT_CLEAR,NIGHT_CLEAR,NIGHT_CLEAR,NIGHT_CLEAR","Cross-shore,Offshore,Offshore,Offshore,Offshore,Offshore",6
5842041f4e65fad6a77089f4,2024_02_17,40.94235535243154,-72.19286,Main Beach,1.3333333333333333,0.2634,0.5649944444444445,13,12,"NIGHT_CLEAR,NIGHT_CLEAR,NIGHT_CLEAR,NIGHT_CLEAR,NIGHT_CLEAR,NIGHT_CLEAR","Cross-shore,Cross-shore,Cross-shore,Cross-shore,Offshore,Offshore",6
5842041f4e65fad6a77089f5,2024_02_17,40.58270702399518,-73.67251552079799,Laurelton Blvd.,1.25,0.06505416666666666,0.33903333333333335,5,4,"NIGHT_CLEAR,NIGHT_CLEAR,NIGHT_CLEAR,NIGHT_CLEAR,NIGHT_CLEAR,NIGHT_CLEAR","Onshore,Onshore,Offshore,Offshore,Offshore,Offshore",6
5842041f4e65fad6a77089f6,2024_02_17,41.033752854071416,-71.93695522488403,Terrace,0.3883333333333333,0.22728888888888887,0.5338833333333334,5,4,"NIGHT_CLEAR,NIGHT_CLEAR,NIGHT_CLEAR,NIGHT_CLEAR,NIGHT_CLEAR,NIGHT_CLEAR","Offshore,Offshore,Offshore,Offshore,Offshore,Offshore",6
5842041f4e65fad6a77089f7,2024_02_17,40.83372943645748,-72.50426173210144,K Road,2,0.33666666666666667,0.6433333333333333,5,5,"NIGHT_CLEAR,NIGHT_CLEAR,NIGHT_CLEAR,NIGHT_CLEAR,NIGHT_CLEAR,NIGHT_CLEAR","Offshore,Offshore,Offshore,Offshore,Offshore,Offshore",6
5842041f4e65fad6a77089f8,2024_02_17,40.58456099581507,-73.80730032920837,84th Street,0.3883333333333333,-0.024166666666666673,0.28463333333333335,5,4,"NIGHT_CLEAR,NIGHT_CLEAR,NIGHT_CLEAR,NIGHT_CLEAR,NIGHT_CLEAR,NIGHT_CLEAR","Offshore,Offshore,Offshore,Offshore,Offshore,Offshore",6
5842041f4e65fad6a77089fa,2024_02_17,40.1319,-74.02788,Sea Girt,0.9716666666666667,-0.007500000000000001,0.19721666666666665,6,5,"NIGHT_CLEAR,NIGHT_CLEAR,NIGHT_CLEAR,NIGHT_CLEAR,NIGHT_CLEAR,NIGHT_CLEAR","Offshore,Offshore,Offshore,Offshore,Offshore,Offshore",6
5842041f4e65fad6a77089fb,2024_02_17,40.54698301868125,-73.9268,Breezy Point,1,0.0033333333333333335,0.28,5,5,"NIGHT_CLEAR,NIGHT_CLEAR,NIGHT_CLEAR,NIGHT_CLEAR,NIGHT_CLEAR,NIGHT_CLEAR","Cross-shore,Offshore,Offshore,Offshore,Offshore,Cross-shore",6
5842041f4e65fad6a77089fc,2024_02_17,40.152504,-74.021383,Spring Lake,0.9716666666666667,-0.007500000000000001,0.19721666666666665,6,5,"NIGHT_CLEAR,NIGHT_CLEAR,NIGHT_CLEAR,NIGHT_CLEAR,NIGHT_CLEAR,NIGHT_CLEAR","Offshore,Offshore,Offshore,Offshore,Offshore,Offshore",6
5842041f4e65fad6a77089fd,2024_02_17,40.591277,-73.770792,30th - 39th Streets,0.9716666666666667,-0.017083333333333336,0.25805,5,4,"NIGHT_CLEAR,NIGHT_CLEAR,NIGHT_CLEAR,NIGHT_CLEAR,NIGHT_CLEAR,NIGHT_CLEAR","Offshore,Offshore,Offshore,Offshore,Offshore,Offshore",6
5842041f4e65fad6a77089fe,2024_02_17,40.18834955871439,-74.00860982500222,Avon,0.9716666666666667,0,0.19846666666666668,6,5,"NIGHT_CLEAR,NIGHT_CLEAR,NIGHT_CLEAR,NIGHT_CLEAR,NIGHT_CLEAR,NIGHT_CLEAR","Offshore,Offshore,Offshore,Offshore,Offshore,Offshore",6
5842041f4e65fad6a77089ff,2024_02_17,40.1974229100932,-74.00650533798255,Bradley Beach,0.9716666666666667,-0.011250000000000001,0.21555,6,5,"NIGHT_CLEAR,NIGHT_CLEAR,NIGHT_CLEAR,NIGHT_CLEAR,NIGHT_CLEAR,NIGHT_CLEAR","Offshore,Offshore,Offshore,Offshore,Offshore,Offshore",6
5842041f4e65fad6a7708a01,2024_02_17,40.17202,-74.01503,"16th Ave., Belmar",1,0,0.26255,6,5,"NIGHT_CLEAR,NIGHT_CLEAR,NIGHT_CLEAR,NIGHT_CLEAR,NIGHT_CLEAR,NIGHT_CLEAR","Offshore,Offshore,Offshore,Offshore,Offshore,Offshore",6
5842041f4e65fad6a7708a02,2024_02_17,40.217443,-73.99982,Asbury Park,0.9716666666666667,-0.015000000000000001,0.21138333333333334,6,5,"NIGHT_CLEAR,NIGHT_CLEAR,NIGHT_CLEAR,NIGHT_CLEAR,NIGHT_CLEAR,NIGHT_CLEAR","Offshore,Offshore,Offshore,Offshore,Offshore,Offshore",6
5842041f4e65fad6a7708a03,2024_02_17,40.229841,-73.996782,Loch Arbour and Deal,0.9716666666666667,-0.015000000000000001,0.21346666666666667,6,5,"NIGHT_CLEAR,NIGHT_CLEAR,NIGHT_CLEAR,NIGHT_CLEAR,NIGHT_CLEAR,NIGHT_CLEAR","Offshore,Offshore,Offshore,Offshore,Offshore,Onshore",6
5842041f4e65fad6a7708a05,2024_02_17,40.41754,-73.97935,Sandy Hook,0.3333333333333333,0,0.14666666666666667,5,5,"NIGHT_CLEAR,NIGHT_CLEAR,NIGHT_CLEAR,NIGHT_CLEAR,NIGHT_CLEAR,NIGHT_CLEAR","Offshore,Offshore,Offshore,Offshore,Onshore,Onshore",6
5842041f4e65fad6a7708a06,2024_02_17,39.36353,-74.40873,Crystals,1,0.14878875,0.34678166666666665,6,5,"NIGHT_CLEAR,NIGHT_CLEAR,NIGHT_CLEAR,NIGHT_CLEAR,NIGHT_CLEAR,NIGHT_MOSTLY_CLOUDY","Offshore,Offshore,Offshore,Offshore,Cross-shore,Onshore",6
5842041f4e65fad6a7708a07,2024_02_17,39.31443,-74.51863,32nd Street,0.3883333333333333,0.026080416666666665,0.282055,6,5,"NIGHT_CLEAR,NIGHT_CLEAR,NIGHT_CLEAR,NIGHT_CLEAR,NIGHT_CLEAR,NIGHT_CLEAR","Offshore,Offshore,Offshore,Offshore,Cross-shore,Onshore",6
5842041f4e65fad6a7708a08,2024_02_17,39.327688,-74.49524,Margate Pier Northside,0.16666666666666669,0.026080416666666665,0.282055,6,5,"NIGHT_CLEAR,NIGHT_CLEAR,NIGHT_CLEAR,NIGHT_CLEAR,NIGHT_CLEAR,NIGHT_CLEAR","Offshore,Offshore,Offshore,Offshore,Cross-shore,Onshore",6
5842041f4e65fad6a7708a09,2024_02_17,39.336276,-74.47782,Ventnor Pier,1,0.14303375,0.33779375,6,5,"NIGHT_CLEAR,NIGHT_CLEAR,NIGHT_CLEAR,NIGHT_CLEAR,NIGHT_CLEAR,NIGHT_CLEAR","Offshore,Offshore,Offshore,Offshore,Cross-shore,Cross-shore",6
5842041f4e65fad6a7708a0a,2024_02_17,39.35929751441085,-74.41683,States Avenue,1.9716666666666667,0.14878875,0.34678166666666665,6,5,"NIGHT_CLEAR,NIGHT_CLEAR,NIGHT_CLEAR,NIGHT_CLEAR,NIGHT_CLEAR,NIGHT_MOSTLY_CLOUDY","Offshore,Offshore,Offshore,Offshore,Cross-shore,Onshore",6
5842041f4e65fad6a7708a0b,2024_02_17,39.37274173278517,-74.40454,Brigantine Jetty,1,0.1739391666666667,0.3860783333333333,6,5,"NIGHT_CLEAR,NIGHT_CLEAR,NIGHT_CLEAR,NIGHT_CLEAR,NIGHT_CLEAR,NIGHT_MOSTLY_CLOUDY","Offshore,Offshore,Offshore,Offshore,Offshore,Cross-shore",6
5842041f4e65fad6a7708a0c,2024_02_17,39.356505,-74.42263,South Carolina Avenue,1.1666666666666667,0.1739391666666667,0.3860783333333333,6,5,"NIGHT_CLEAR,NIGHT_CLEAR,NIGHT_CLEAR,NIGHT_CLEAR,NIGHT_CLEAR,NIGHT_MOSTLY_CLOUDY","Offshore,Offshore,Offshore,Offshore,Cross-shore,Cross-shore",6
5842041f4e65fad6a7708a0d,2024_02_17,39.413485,-74.35476,14th Street North,1,0,0.1943,6,5,"NIGHT_CLEAR,NIGHT_CLEAR,NIGHT_CLEAR,NIGHT_CLEAR,NIGHT_CLEAR,NIGHT_MOSTLY_CLOUDY","Offshore,Offshore,Offshore,Offshore,Cross-shore,Onshore",6
5842041f4e65fad6a7708a0e,2024_02_17,39.531319,-74.263252,The Wooden Jetty,1,0.05849999999999999,0.31708458333333334,6,5,"NIGHT_CLEAR,NIGHT_CLEAR,NIGHT_CLEAR,NIGHT_CLEAR,NIGHT_CLEAR,NIGHT_CLEAR","Offshore,Offshore,Offshore,Offshore,Offshore,Onshore",6
5842041f4e65fad6a7708a0f,2024_02_17,39.552472,-74.24344,Holyoke,1,0.024978750000000004,0.28033375,6,5,"NIGHT_CLEAR,NIGHT_CLEAR,NIGHT_CLEAR,NIGHT_CLEAR,NIGHT_CLEAR,NIGHT_CLEAR","Offshore,Offshore,Offshore,Offshore,Offshore,Onshore",6
5842041f4e65fad6a7708a10,2024_02_17,39.692364,-74.14068,Hudson Ave.,1,0,0.26338333333333336,6,5,"NIGHT_CLEAR,NIGHT_CLEAR,NIGHT_CLEAR,NIGHT_CLEAR,NIGHT_CLEAR,NIGHT_CLEAR","Offshore,Offshore,Offshore,Offshore,Onshore,Onshore",6
5842041f4e65fad6a7708a11,2024_02_17,39.79614,-74.09248,Island Beach State Park,0.9716666666666667,-0.030000000000000002,0.19638333333333333,6,5,"NIGHT_CLEAR,NIGHT_CLEAR,NIGHT_CLEAR,NIGHT_CLEAR,NIGHT_CLEAR,NIGHT_CLEAR","Offshore,Offshore,Offshore,Offshore,Offshore,Onshore",6
5842041f4e65fad6a7708a12,2024_02_17,39.91813588078152,-74.07527,Seaside Park,0.9716666666666667,0,0.18388333333333334,6,5,"NIGHT_CLEAR,NIGHT_CLEAR,NIGHT_CLEAR,NIGHT_CLEAR,NIGHT_CLEAR,NIGHT_CLEAR","Offshore,Offshore,Offshore,Offshore,Offshore,Onshore",6
5842041f4e65fad6a7708a14,2024_02_17,39.946638,-74.06884,Seaside Heights,0.8049999999999999,0,0.19346666666666668,6,5,"NIGHT_CLEAR,NIGHT_CLEAR,NIGHT_CLEAR,NIGHT_CLEAR,NIGHT_CLEAR,NIGHT_CLEAR","Offshore,Offshore,Offshore,Offshore,Offshore,Onshore",6
5842041f4e65fad6a7708a15,2024_02_17,39.95745637606704,-74.06736,Ortley Beach,0.9716666666666667,0,0.18596666666666667,6,5,"NIGHT_CLEAR,NIGHT_CLEAR,NIGHT_CLEAR,NIGHT_CLEAR,NIGHT_CLEAR,NIGHT_CLEAR","Offshore,Offshore,Offshore,Offshore,Offshore,Onshore",6
5842041f4e65fad6a7708a16,2024_02_17,39.98313468342945,-74.06265685577506,Lavallette,0.9716666666666667,0,0.19846666666666668,6,5,"NIGHT_CLEAR,NIGHT_CLEAR,NIGHT_CLEAR,NIGHT_CLEAR,NIGHT_CLEAR,NIGHT_CLEAR","Offshore,Offshore,Offshore,Offshore,Offshore,Onshore",6
5842041f4e65fad6a7708a17,2024_02_17,40.0699319967757,-74.04144910856634,Bay Head,0.9716666666666667,-0.007500000000000001,0.19721666666666665,6,5,"NIGHT_CLEAR,NIGHT_CLEAR,NIGHT_CLEAR,NIGHT_CLEAR,NIGHT_CLEAR,NIGHT_CLEAR","Offshore,Offshore,Offshore,Offshore,Offshore,Onshore",6
5842041f4e65fad6a7708a18,2024_02_17,40.094041,-74.034859,Jenkinson's,0.9716666666666667,-0.011250000000000001,0.20555,6,5,"NIGHT_CLEAR,NIGHT_CLEAR,NIGHT_CLEAR,NIGHT_CLEAR,NIGHT_CLEAR,NIGHT_CLEAR","Offshore,Offshore,Offshore,Offshore,Offshore,Onshore",6
5842041f4e65fad6a7708a1a,2024_02_17,38.148058,-75.17704,Assateague,1,0.05971666666666667,0.3594333333333333,6,5,"NIGHT_CLEAR,NIGHT_CLEAR,NIGHT_CLEAR,NIGHT_CLEAR,NIGHT_CLEAR,NIGHT_CLEAR","Offshore,Offshore,Cross-shore,Onshore,Onshore,Onshore",6
5842041f4e65fad6a7708a1b,2024_02_17,38.33889038664497,-75.08017670566352,North End to Ocean City Inlet,1,0.041383333333333334,0.3361,6,5,"NIGHT_CLEAR,NIGHT_CLEAR,NIGHT_CLEAR,NIGHT_CLEAR,NIGHT_CLEAR,NIGHT_MOSTLY_CLOUDY","Cross-shore,Offshore,Onshore,Onshore,Onshore,Onshore",6
5842041f4e65fad6a7708a1c,2024_02_17,38.603993,-75.06271,Indian River Inlet,1,0.16535333333333335,0.3083725,6,5,"NIGHT_CLEAR,NIGHT_CLEAR,NIGHT_CLEAR,NIGHT_CLEAR,NIGHT_CLEAR,NIGHT_CLEAR","Offshore,Offshore,Offshore,Cross-shore,Onshore,Onshore",6
5842041f4e65fad6a7708a1d,2024_02_17,38.460477,-75.052069,Fenwick Island,1,0.11055000000000001,0.35568333333333335,6,5,"NIGHT_CLEAR,NIGHT_CLEAR,NIGHT_CLEAR,NIGHT_CLEAR,NIGHT_CLEAR,NIGHT_CLEAR","Cross-shore,Offshore,Onshore,Onshore,Onshore,Onshore",6
5842041f4e65fad6a7708a1e,2024_02_17,38.538767,-75.05619,Bethany Beach,1,0.17312708333333335,0.32051541666666666,6,5,"NIGHT_CLEAR,NIGHT_CLEAR,NIGHT_CLEAR,NIGHT_CLEAR,NIGHT_CLEAR,NIGHT_CLEAR","Offshore,Offshore,Offshore,Cross-shore,Onshore,Onshore",6
5842041f4e65fad6a7708a1f,2024_02_17,38.697657,-75.075951,Dewey Beach,1,0.11430000000000001,0.3311,6,5,"NIGHT_CLEAR,NIGHT_CLEAR,NIGHT_CLEAR,NIGHT_CLEAR,NIGHT_CLEAR,NIGHT_MOSTLY_CLEAR","Offshore,Offshore,Cross-shore,Onshore,Onshore,Onshore",6
5842041f4e65fad6a7708a20,2024_02_17,38.75034741676525,-75.08194,Gordons Pond,1,0.1572125,0.29564583333333333,6,5,"NIGHT_CLEAR,NIGHT_CLEAR,NIGHT_CLEAR,NIGHT_CLEAR,NIGHT_CLEAR,NIGHT_CLEAR","Offshore,Offshore,Offshore,Cross-shore,Onshore,Onshore",6
5842041f4e65fad6a7708a21,2024_02_17,38.767837,-75.082841,Naval Jetties,1.5,0.11430000000000001,0.3026277777777778,6,5,"NIGHT_CLEAR,NIGHT_CLEAR,NIGHT_CLEAR,NIGHT_CLEAR,NIGHT_CLEAR,NIGHT_CLEAR","Cross-shore,Cross-shore,Cross-shore,Onshore,Onshore,Onshore",6
5842041f4e65fad6a7708a22,2024_02_17,36.81735875786576,-75.96624,Camp Pendleton,1,-0.001666666666666667,0.3064,7,6,"NIGHT_CLEAR,NIGHT_CLEAR,NIGHT_CLEAR,NIGHT_CLEAR,NIGHT_OVERCAST,NIGHT_CLEAR","Onshore,Onshore,Onshore,Onshore,Onshore,Onshore",6
5842041f4e65fad6a7708a23,2024_02_17,36.9102212316428,-75.98732471466064,North End,0,-0.008333333333333333,0.26463333333333333,7,6,"NIGHT_CLEAR,NIGHT_CLEAR,NIGHT_CLEAR,NIGHT_CLEAR,NIGHT_MOSTLY_CLOUDY,NIGHT_MOSTLY_CLOUDY","Onshore,Onshore,Onshore,Onshore,Onshore,Onshore",6
5842041f4e65fad6a7708a24,2024_02_17,36.737117517621314,-75.93923719853362,Sandbridge Beach,1,0.0016666666666666611,0.3114,7,6,"NIGHT_CLEAR,NIGHT_CLEAR,NIGHT_CLEAR,NIGHT_CLEAR,NIGHT_CLEAR,NIGHT_CLEAR","Onshore,Onshore,Onshore,Onshore,Onshore,Onshore",6
5842041f4e65fad6a7708a26,2024_02_17,36.818257440557794,-75.96666,Croatan to Pendleton,0.3333333333333333,-0.016249999999999983,0.29015,7,6,"NIGHT_CLEAR,NIGHT_CLEAR,NIGHT_CLEAR,NIGHT_CLEAR,NIGHT_CLEAR,NIGHT_CLEAR","Onshore,Onshore,Onshore,Onshore,Onshore,Onshore",6
5842041f4e65fad6a7708a27,2024_02_17,36.84318777204769,-75.9719,South End,0.16666666666666666,-0.032916666666666684,0.2622333333333333,7,6,"NIGHT_CLEAR,NIGHT_CLEAR,NIGHT_CLEAR,NIGHT_CLEAR,NIGHT_MOSTLY_CLOUDY,NIGHT_CLEAR","Onshore,Onshore,Onshore,Onshore,Onshore,Onshore",6
5842041f4e65fad6a7708a28,2024_02_17,37.08612627584661,-75.976121638199,Fishermans Island,0,0,0.06066666666666667,7,7,"NIGHT_CLEAR,NIGHT_CLEAR,NIGHT_CLEAR,NIGHT_CLOUDY,NIGHT_CLEAR,NIGHT_CLOUDY","Cross-shore,Onshore,Onshore,Onshore,Onshore,Onshore",6
5842041f4e65fad6a7708a38,2024_02_17,35.254619418229026,-75.52074,Cape Hatteras Lighthouse,1,0.3916673611111111,0.6619881944444445,11,9,"NIGHT_CLEAR,NIGHT_CLEAR,NIGHT_CLEAR,NIGHT_CLEAR,NIGHT_CLEAR,NIGHT_CLEAR","Onshore,Onshore,Onshore,Onshore,Onshore,Onshore",6
5842041f4e65fad6a7708a3a,2024_02_17,35.54572934093336,-75.46477,Waves and Salvo,1,0.4341611111111111,0.7392944444444445,9,8,"NIGHT_CLEAR,NIGHT_CLEAR,NIGHT_CLOUDY,NIGHT_CLEAR,NIGHT_CLEAR,NIGHT_CLEAR","Onshore,Onshore,Onshore,Onshore,Onshore,Onshore",6
5842041f4e65fad6a7708a3b,2024_02_17,35.22565892751075,-75.63606,Frisco,1,0.30693333333333334,0.5735666666666667,12,11,"NIGHT_CLEAR,NIGHT_CLEAR,NIGHT_CLEAR,NIGHT_CLEAR,NIGHT_CLEAR,NIGHT_CLEAR","Cross-shore,Cross-shore,Cross-shore,Cross-shore,Onshore,Onshore",6
5842041f4e65fad6a7708a3c,2024_02_17,35.13086,-75.90591,Ocracoke,1,0.24743333333333334,0.386615,10,10,"NIGHT_CLEAR,NIGHT_CLEAR,NIGHT_CLEAR,NIGHT_CLEAR,NIGHT_CLEAR,NIGHT_CLEAR","Cross-shore,Cross-shore,Cross-shore,Onshore,Onshore,Onshore",6
5842041f4e65fad6a7708a3d,2024_02_17,35.34721340158342,-75.50084,Avon Pier,1,0.5847444444444445,0.8840722222222223,9,8,"NIGHT_CLEAR,NIGHT_CLEAR,NIGHT_CLEAR,NIGHT_CLEAR,NIGHT_CLEAR,NIGHT_CLEAR","Onshore,Onshore,Onshore,Onshore,Onshore,Onshore",6
5842041f4e65fad6a7708a3f,2024_02_17,35.71680821253768,-75.49243,Pea Island,1,0.43,0.7333333333333334,8,8,"NIGHT_CLEAR,NIGHT_CLEAR,NIGHT_CLEAR,NIGHT_CLOUDY,NIGHT_CLEAR,NIGHT_CLEAR","Onshore,Onshore,Onshore,Onshore,Onshore,Onshore",6
5842041f4e65fad6a7708a40,2024_02_17,35.97427620657821,-75.62984,Nags Head Pier,1,0.09277777777777779,0.3929666666666667,8,6,"NIGHT_CLEAR,NIGHT_CLEAR,NIGHT_CLEAR,NIGHT_CLEAR,NIGHT_CLOUDY,NIGHT_CLEAR","Onshore,Onshore,Onshore,Onshore,Onshore,Onshore",6
5842041f4e65fad6a7708a41,2024_02_17,36.0439998039079,-75.67288,Avalon Pier,1,0.32263888888888886,0.6294388888888889,7,6,"NIGHT_CLEAR,NIGHT_OVERCAST,NIGHT_CLEAR,NIGHT_CLEAR,NIGHT_CLEAR,NIGHT_CLEAR","Onshore,Onshore,Onshore,Onshore,Cross-shore,Onshore",6
5842041f4e65fad6a7708a42,2024_02_17,36.03043116489792,-75.66413,First Street,1,0.059583333333333315,0.36588333333333334,7,6,"NIGHT_CLEAR,NIGHT_OVERCAST,NIGHT_CLEAR,NIGHT_CLEAR,NIGHT_CLEAR,NIGHT_CLEAR","Onshore,Onshore,Onshore,Onshore,Cross-shore,Cross-shore",6
5842041f4e65fad6a7708a43,2024_02_17,36.06829910590498,-75.6899,Old Station/Laundromats,1,0.35458333333333336,0.6606888888888889,7,6,"NIGHT_CLEAR,NIGHT_OVERCAST,NIGHT_CLEAR,NIGHT_CLEAR,NIGHT_CLEAR,NIGHT_CLEAR","Onshore,Onshore,Onshore,Onshore,Onshore,Onshore",6
5842041f4e65fad6a7708a44,2024_02_17,36.10126676607491,-75.71107462163894,Kitty Hawk Pier,1,0.06402777777777775,0.36755,7,6,"NIGHT_CLEAR,NIGHT_OVERCAST,NIGHT_CLEAR,NIGHT_CLOUDY,NIGHT_OVERCAST,NIGHT_CLEAR","Onshore,Onshore,Onshore,Onshore,Onshore,Onshore",6
5842041f4e65fad6a7708a45,2024_02_17,36.18220630068973,-75.75013580649097,Duck Pier,0.9716666666666667,0.11263888888888889,0.42249444444444445,7,6,"NIGHT_CLEAR,NIGHT_CLOUDY,NIGHT_CLEAR,NIGHT_CLOUDY,NIGHT_MOSTLY_CLOUDY,NIGHT_CLEAR","Onshore,Onshore,Onshore,Onshore,Onshore,Onshore",6
5842041f4e65fad6a7708a46,2024_02_17,36.37660668125033,-75.82409701687456,Corolla,0.9716666666666667,0.10652777777777778,0.4079111111111111,7,6,"NIGHT_CLEAR,NIGHT_CLEAR,NIGHT_CLEAR,NIGHT_CLEAR,NIGHT_CLEAR,NIGHT_CLEAR","Onshore,Onshore,Onshore,Onshore,Onshore,Onshore",6
5842041f4e65fad6a7708a47,2024_02_17,33.90373404124834,-78.08241431707907,Oak Island,1,0.04666666666666667,0.3516666666666667,12,12,"NIGHT_CLEAR,NIGHT_CLEAR,NIGHT_CLEAR,NIGHT_CLEAR,NIGHT_CLEAR,NIGHT_CLEAR","Cross-shore,Cross-shore,Cross-shore,Cross-shore,Cross-shore,Cross-shore",6
5842041f4e65fad6a7708a48,2024_02_17,33.91108837766468,-78.29653,South Brunswick Beaches,1,0.26678,0.41684166666666667,12,12,"NIGHT_CLEAR,NIGHT_CLEAR,NIGHT_CLEAR,NIGHT_CLEAR,NIGHT_MIST,NIGHT_MIST","Cross-shore,Cross-shore,Cross-shore,Cross-shore,Cross-shore,Cross-shore",6
5842041f4e65fad6a7708a49,2024_02_17,34.05683595651973,-77.88128,Carolina Beach Pier,0,0,0.22638333333333333,12,11,"NIGHT_CLEAR,NIGHT_CLEAR,NIGHT_CLEAR,NIGHT_CLEAR,NIGHT_MIST,NIGHT_CLEAR","Onshore,Onshore,Onshore,Onshore,Onshore,Onshore",6
5842041f4e65fad6a7708a4a,2024_02_17,33.96841191816696,-77.9180242565498,Fort Fisher,0.9716666666666667,-0.018333333333333337,0.28805000000000003,12,11,"NIGHT_CLEAR,NIGHT_CLEAR,NIGHT_CLEAR,NIGHT_CLEAR,NIGHT_MIST,NIGHT_MIST","Onshore,Onshore,Onshore,Onshore,Onshore,Onshore",6
5842041f4e65fad6a7708a4b,2024_02_17,34.46776662988774,-77.47083191635772,Topsail Beach,0.9716666666666667,0.1368,0.43818333333333337,12,11,"NIGHT_CLEAR,NIGHT_CLEAR,NIGHT_CLEAR,NIGHT_CLEAR,NIGHT_CLEAR,NIGHT_CLEAR","Cross-shore,Cross-shore,Cross-shore,Cross-shore,Onshore,Onshore",6
5842041f4e65fad6a7708a4c,2024_02_17,34.69270354752445,-76.82854854446575,Iron Steamer,1,0.2685166666666667,0.5692333333333334,12,11,"NIGHT_CLEAR,NIGHT_CLEAR,NIGHT_CLEAR,NIGHT_CLEAR,NIGHT_CLEAR,NIGHT_CLEAR","Cross-shore,Cross-shore,Cross-shore,Cross-shore,Cross-shore,Onshore",6
5842041f4e65fad6a7708a4f,2024_02_17,30.85132684893727,-81.42283496231143,Cumberland Island,1.6666666666666667,0.025,0.325,14,14,"CLOUDY,NIGHT_CLEAR,NIGHT_CLEAR,NIGHT_CLOUDY,NIGHT_CLEAR,NIGHT_CLEAR","Cross-shore,Onshore,Onshore,Cross-shore,Cross-shore,Cross-shore",6
5842041f4e65fad6a7708a50,2024_02_17,34.686741128540874,-76.47516712138378,Cape Lookout National Seashore,1,0.22166666666666668,0.525,10,10,"NIGHT_CLEAR,NIGHT_CLEAR,NIGHT_CLEAR,NIGHT_CLOUDY,NIGHT_CLEAR,NIGHT_CLEAR","Onshore,Onshore,Onshore,Onshore,Onshore,Onshore",6
5842041f4e65fad6a7708a51,2024_02_17,31.10585419260024,-81.40422767604812,Jekyll Island,1,0,0.18,14,14,"CLOUDY,NIGHT_CLOUDY,NIGHT_CLEAR,NIGHT_CLOUDY,NIGHT_CLEAR,NIGHT_CLEAR","Cross-shore,Cross-shore,Cross-shore,Offshore,Cross-shore,Cross-shore",6
5842041f4e65fad6a7708a52,2024_02_17,31.16212806376699,-81.32512426500224,Harbor Marker Buoys,1,0,0.25333333333333335,14,14,"CLOUDY,NIGHT_OVERCAST,NIGHT_CLEAR,NIGHT_CLOUDY,NIGHT_CLEAR,NIGHT_CLEAR","Cross-shore,Cross-shore,Cross-shore,Cross-shore,Cross-shore,Cross-shore",6
5842041f4e65fad6a7708a53,2024_02_17,31.20076299997009,-81.32629,Sea Island,0.6666666666666666,0,0.27166666666666667,14,14,"CLEAR,NIGHT_OVERCAST,NIGHT_CLOUDY,NIGHT_CLEAR,NIGHT_CLEAR,NIGHT_CLEAR","Onshore,Cross-shore,Onshore,Cross-shore,Cross-shore,Cross-shore",6
5842041f4e65fad6a7708a54,2024_02_17,31.13553222995767,-81.38457634790909,St. Simons Island,1,0.01,0.315,14,14,"CLEAR,NIGHT_CLOUDY,NIGHT_CLEAR,NIGHT_CLOUDY,NIGHT_CLEAR,NIGHT_CLEAR","Onshore,Onshore,Onshore,Cross-shore,Onshore,Onshore",6
5842041f4e65fad6a7708a55,2024_02_17,31.33550077186516,-81.28383377408417,Wolf Island,0.6666666666666666,0,0.27166666666666667,13,13,"CLEAR,NIGHT_CLOUDY,NIGHT_CLOUDY,NIGHT_CLEAR,NIGHT_CLEAR,NIGHT_CLEAR","Cross-shore,Cross-shore,Cross-shore,Offshore,Cross-shore,Cross-shore",6
5842041f4e65fad6a7708a56,2024_02_17,31.2704493877174,-81.27324039152315,Little St. Simons Island,0,0,0.2683333333333333,13,13,"CLOUDY,NIGHT_CLEAR,NIGHT_CLOUDY,NIGHT_CLOUDY,NIGHT_CLEAR,NIGHT_CLEAR","Cross-shore,Cross-shore,Cross-shore,Offshore,Cross-shore,Cross-shore",6
5842041f4e65fad6a7708a57,2024_02_17,31.39261761368919,-81.26190520231917,Sapelo Island,0.6666666666666666,0,0.26166666666666666,13,13,"OVERCAST,NIGHT_OVERCAST,NIGHT_CLEAR,NIGHT_CLEAR,NIGHT_CLEAR,NIGHT_CLEAR","Onshore,Cross-shore,Cross-shore,Cross-shore,Cross-shore,Cross-shore",6
5842041f4e65fad6a7708a58,2024_02_17,34.42458783809001,-77.54492,Surf City Pier,0.9716666666666667,0.13346666666666665,0.4402666666666667,12,11,"NIGHT_CLEAR,NIGHT_CLEAR,NIGHT_CLEAR,NIGHT_CLEAR,NIGHT_CLEAR,NIGHT_CLEAR","Onshore,Onshore,Onshore,Onshore,Onshore,Onshore",6
5842041f4e65fad6a7708a59,2024_02_17,31.4231993614213,-81.24725340591522,Cabretta Island,0.6666666666666666,0,0.25833333333333336,13,13,"OVERCAST,NIGHT_CLOUDY,NIGHT_CLEAR,NIGHT_CLEAR,NIGHT_CLEAR,NIGHT_CLEAR","Onshore,Cross-shore,Cross-shore,Cross-shore,Cross-shore,Cross-shore",6
5842041f4e65fad6a7708a5a,2024_02_17,31.46684389030369,-81.2100056410468,Blackbeard Island,0.6666666666666666,0,0.26166666666666666,13,13,"OVERCAST,NIGHT_OVERCAST,NIGHT_CLEAR,NIGHT_CLEAR,NIGHT_CLEAR,NIGHT_CLEAR","Onshore,Cross-shore,Cross-shore,Cross-shore,Cross-shore,Onshore",6
5842041f4e65fad6a7708a5b,2024_02_17,31.85953587631629,-80.99031310336719,Wassaw Island/South End,0.5,0,0.20833333333333334,13,13,"OVERCAST,NIGHT_CLEAR,NIGHT_CLEAR,NIGHT_CLEAR,NIGHT_CLEAR,NIGHT_CLEAR","Onshore,Cross-shore,Cross-shore,Onshore,Cross-shore,Onshore",6
5842041f4e65fad6a7708a5c,2024_02_17,31.62535662342983,-81.13328352167974,St. Catherines Island,0.3333333333333333,0,0.285,13,13,"OVERCAST,NIGHT_CLOUDY,NIGHT_CLOUDY,NIGHT_CLEAR,NIGHT_OVERCAST,NIGHT_CLOUDY","Cross-shore,Cross-shore,Cross-shore,Cross-shore,Cross-shore,Cross-shore",6
5842041f4e65fad6a7708a5d,2024_02_17,31.76502169596568,-81.07655443806622,Ossabaw Island,0.16666666666666666,0.0033333333333333335,0.29333333333333333,13,13,"OVERCAST,NIGHT_CLEAR,NIGHT_CLEAR,NIGHT_CLEAR,NIGHT_CLEAR,NIGHT_CLEAR","Cross-shore,Cross-shore,Cross-shore,Cross-shore,Cross-shore,Cross-shore",6
5842041f4e65fad6a7708a5e,2024_02_17,31.90593619092352,-80.93589231700857,Wassaw Island/North End,0.3333333333333333,0.006666666666666666,0.30166666666666664,13,13,"OVERCAST,NIGHT_CLEAR,NIGHT_CLEAR,NIGHT_CLOUDY,NIGHT_CLEAR,NIGHT_CLEAR","Onshore,Cross-shore,Onshore,Onshore,Cross-shore,Onshore",6
5842041f4e65fad6a7708a5f,2024_02_17,31.96738675414547,-80.86977980706155,Little Tybee Island,0.5,0.03833333333333333,0.3333333333333333,13,13,"OVERCAST,NIGHT_CLOUDY,NIGHT_CLEAR,NIGHT_CLOUDY,NIGHT_CLEAR,NIGHT_CLEAR","Onshore,Cross-shore,Cross-shore,Onshore,Cross-shore,Onshore",6
5842041f4e65fad6a7708a60,2024_02_17,31.9812255780179,-80.84773973467009,South Tybee Sandbars,0.5,0.04166666666666667,0.3433333333333333,13,13,"OVERCAST,NIGHT_CLOUDY,NIGHT_CLEAR,NIGHT_CLOUDY,NIGHT_CLEAR,NIGHT_CLEAR","Cross-shore,Cross-shore,Cross-shore,Cross-shore,Cross-shore,Cross-shore",6
5842041f4e65fad6a7708a61,2024_02_17,32.01226,-80.83983,Sugar Shack,1,0.03,0.33166666666666667,13,13,"OVERCAST,NIGHT_CLEAR,NIGHT_CLEAR,NIGHT_CLEAR,NIGHT_CLEAR,NIGHT_CLEAR","Offshore,Offshore,Offshore,Offshore,Offshore,Offshore",6
5842041f4e65fad6a7708a62,2024_02_17,31.98722842396969,-80.84773,18th St. Jetty,0,0.129695,0.20265,13,13,"OVERCAST,NIGHT_CLEAR,NIGHT_CLEAR,NIGHT_OVERCAST,NIGHT_CLEAR,NIGHT_CLEAR","Cross-shore,Cross-shore,Cross-shore,Cross-shore,Cross-shore,Cross-shore",6
5842041f4e65fad6a7708a64,2024_02_17,34.013473721006676,-77.8991,"Alabama Ave., Kure Beach",1,0,0.24666666666666667,11,11,"NIGHT_CLEAR,NIGHT_CLEAR,NIGHT_CLEAR,NIGHT_CLEAR,NIGHT_MIST,NIGHT_CLEAR","Onshore,Onshore,Cross-shore,Onshore,Cross-shore,Onshore",6
5842041f4e65fad6a7708a65,2024_02_17,34.20859853336924,-77.79293,"C Street, Wrightsville Beach",1,0,0.23638333333333333,12,11,"NIGHT_CLEAR,NIGHT_CLEAR,NIGHT_CLEAR,NIGHT_CLEAR,NIGHT_MIST,NIGHT_MIST","Onshore,Onshore,Onshore,Onshore,Onshore,Onshore",6
5842041f4e65fad6a7708a66,2024_02_17,32.831,-79.71,Dewees Island,0.3333333333333333,0.023333333333333334,0.2916666666666667,12,12,"CLEAR,NIGHT_CLEAR,NIGHT_CLEAR,NIGHT_CLEAR,NIGHT_CLEAR,NIGHT_CLEAR","Cross-shore,Cross-shore,Cross-shore,Cross-shore,Cross-shore,Cross-shore",6
5842041f4e65fad6a7708a67,2024_02_17,33.82924423172106,-78.62813,Cherry Grove Pier,0.6666666666666666,0.0033333333333333335,0.265,11,11,"NIGHT_CLEAR,NIGHT_CLEAR,NIGHT_CLEAR,NIGHT_CLEAR,NIGHT_MIST,NIGHT_CLEAR","Onshore,Onshore,Onshore,Onshore,Onshore,Onshore",6
5842041f4e65fad6a7708a69,2024_02_17,34.27197439666496,-77.74050223196774,Figure Eight and Shell Islands,1,-0.018749999999999992,0.2843,12,11,"NIGHT_CLEAR,NIGHT_CLEAR,NIGHT_CLEAR,NIGHT_CLEAR,NIGHT_CLEAR,NIGHT_CLEAR","Onshore,Onshore,Onshore,Onshore,Onshore,Onshore",6
5842041f4e65fad6a7708a6b,2024_02_17,33.49041958261793,-79.07666070599386,North End,1,0.018333333333333333,0.305,12,12,"NIGHT_CLEAR,NIGHT_CLEAR,NIGHT_CLEAR,NIGHT_CLEAR,NIGHT_CLEAR,NIGHT_CLEAR","Onshore,Onshore,Onshore,Onshore,Onshore,Onshore",6
5842041f4e65fad6a7708a6c,2024_02_17,33.39537062495087,-79.13835037835189,The South End,1,0,0.24833333333333335,12,12,"CLEAR,NIGHT_CLEAR,NIGHT_CLEAR,NIGHT_CLEAR,NIGHT_CLEAR,NIGHT_CLEAR","Onshore,Onshore,Onshore,Onshore,Onshore,Cross-shore",6
5842041f4e65fad6a7708a6d,2024_02_17,33.29001727666697,-79.17190003352977,North Island,1,0.013333333333333332,0.2916666666666667,12,12,"CLEAR,NIGHT_CLEAR,NIGHT_CLEAR,NIGHT_CLEAR,NIGHT_CLEAR,NIGHT_CLEAR","Onshore,Cross-shore,Cross-shore,Cross-shore,Cross-shore,Cross-shore",6
5842041f4e65fad6a7708a6e,2024_02_17,32.90929771158952,-79.57810400297359,Bull Island,0.5,0.06,0.3466666666666667,12,12,"CLEAR,NIGHT_CLEAR,NIGHT_CLEAR,NIGHT_CLEAR,NIGHT_CLEAR,NIGHT_CLOUDY","Cross-shore,Cross-shore,Cross-shore,Cross-shore,Cross-shore,Cross-shore",6
5842041f4e65fad6a7708a6f,2024_02_17,31.99153112815895,-80.84543050470074,Tybee Island Pier,0,0,0.17833333333333334,13,13,"OVERCAST,NIGHT_CLEAR,NIGHT_CLEAR,NIGHT_CLOUDY,NIGHT_CLEAR,NIGHT_CLEAR","Cross-shore,Cross-shore,Cross-shore,Cross-shore,Cross-shore,Cross-shore",6
5842041f4e65fad6a7708a70,2024_02_17,33.03478144356316,-79.35021028265125,Cape Romain,1,0.09333333333333334,0.39666666666666667,12,12,"CLEAR,NIGHT_CLEAR,NIGHT_CLEAR,NIGHT_CLEAR,NIGHT_CLEAR,NIGHT_CLEAR","Cross-shore,Cross-shore,Cross-shore,Cross-shore,Cross-shore,Cross-shore",6
5842041f4e65fad6a7708a71,2024_02_17,33.43231073271028,-79.11789,The Pier,0,0.13872333333333334,0.216755,12,12,"CLEAR,NIGHT_CLOUDY,NIGHT_CLEAR,NIGHT_CLEAR,NIGHT_CLEAR,NIGHT_CLEAR","Onshore,Onshore,Onshore,Onshore,Onshore,Cross-shore",6
5842041f4e65fad6a7708a72,2024_02_17,33.45423621397969,-79.10497798178424,South Litchfield,1,0,0.21833333333333335,12,12,"CLEAR,NIGHT_CLEAR,NIGHT_CLEAR,NIGHT_CLEAR,NIGHT_CLEAR,NIGHT_CLEAR","Onshore,Onshore,Onshore,Onshore,Onshore,Cross-shore",6
5842041f4e65fad6a7708a73,2024_02_17,34.19316590251396,-77.8045,Crystal Pier,0.9716666666666667,0,0.22513333333333332,12,11,"NIGHT_CLEAR,NIGHT_CLEAR,NIGHT_CLEAR,NIGHT_CLEAR,NIGHT_MIST,NIGHT_MIST","Onshore,Onshore,Onshore,Onshore,Onshore,Onshore",6
5842041f4e65fad6a7708a74,2024_02_17,33.68628680045124,-78.883460274301,Myrtle Beach,1,0.018333333333333333,0.315,11,11,"NIGHT_CLOUDY,NIGHT_CLEAR,NIGHT_CLEAR,NIGHT_CLEAR,NIGHT_CLEAR,NIGHT_CLEAR","Onshore,Onshore,Onshore,Onshore,Onshore,Onshore",6
5842041f4e65fad6a7708a75,2024_02_17,32.66166297145973,-79.91951806398808,10th Street,1,0.13833333333333334,0.43833333333333335,13,13,"CLEAR,NIGHT_CLEAR,NIGHT_CLEAR,NIGHT_CLEAR,NIGHT_CLEAR,NIGHT_CLEAR","Cross-shore,Cross-shore,Cross-shore,Cross-shore,Cross-shore,Cross-shore",6
5842041f4e65fad6a7708a76,2024_02_17,33.16729555197199,-79.19829236867845,South Island,1,0.19,0.495,12,12,"CLEAR,NIGHT_CLEAR,NIGHT_CLEAR,NIGHT_CLEAR,NIGHT_CLEAR,NIGHT_CLEAR","Cross-shore,Cross-shore,Cross-shore,Cross-shore,Cross-shore,Cross-shore",6
5842041f4e65fad6a7708a77,2024_02_17,32.595,-80.088,Kiawah Island/Seabrook Island,1,0.08499999999999999,0.3883333333333333,13,13,"CLEAR,NIGHT_CLEAR,NIGHT_CLEAR,NIGHT_CLEAR,NIGHT_CLEAR,NIGHT_CLOUDY","Onshore,Onshore,Onshore,Onshore,Onshore,Onshore",6
5842041f4e65fad6a7708a78,2024_02_17,32.51356930575787,-80.28223,Edisto Beach,0.3333333333333333,0.20372666666666667,0.31832499999999997,13,13,"OVERCAST,NIGHT_CLEAR,NIGHT_CLEAR,NIGHT_CLEAR,NIGHT_CLEAR,NIGHT_CLEAR","Onshore,Onshore,Onshore,Onshore,Onshore,Cross-shore",6
5842041f4e65fad6a7708a79,2024_02_17,32.366270751262,-80.43911,Hunting Island,0,0.13187333333333334,0.20605166666666666,13,13,"CLEAR,NIGHT_CLEAR,NIGHT_CLEAR,NIGHT_CLEAR,NIGHT_CLEAR,NIGHT_CLEAR","Cross-shore,Cross-shore,Cross-shore,Cross-shore,Cross-shore,Cross-shore",6
5842041f4e65fad6a7708a7a,2024_02_17,32.65337734408365,-79.93983,Folly Beach Pier,0.3616666666666667,0.03666666666666667,0.31971666666666665,13,12,"CLEAR,NIGHT_CLEAR,NIGHT_CLEAR,NIGHT_CLEAR,NIGHT_CLEAR,NIGHT_CLOUDY","Onshore,Onshore,Onshore,Onshore,Onshore,Onshore",6
5842041f4e65fad6a7708a7b,2024_02_17,33.41209545530049,-79.13026341393126,South Jetty,1,0,0.24833333333333335,12,12,"CLEAR,NIGHT_CLEAR,NIGHT_CLEAR,NIGHT_CLEAR,NIGHT_CLEAR,NIGHT_CLEAR","Onshore,Onshore,Onshore,Onshore,Onshore,Cross-shore",6
5842041f4e65fad6a7708a7c,2024_02_17,32.31115640606869,-80.48564,Fripp Island,0.3333333333333333,0.19331166666666666,0.30205166666666666,13,13,"CLOUDY,NIGHT_CLEAR,NIGHT_CLEAR,NIGHT_CLEAR,NIGHT_CLEAR,NIGHT_CLEAR","Onshore,Onshore,Onshore,Onshore,Onshore,Onshore",6
5842041f4e65fad6a7708a7d,2024_02_17,32.14365226036034,-80.74402,Hilton Head Island,0,0,0.10833333333333334,13,13,"CLOUDY,NIGHT_CLEAR,NIGHT_CLEAR,NIGHT_OVERCAST,NIGHT_CLEAR,NIGHT_CLEAR","Onshore,Cross-shore,Onshore,Onshore,Cross-shore,Onshore",6
5842041f4e65fad6a7708a7e,2024_02_17,29.70405364733744,-81.22426004725459,Matanzas Inlet,1,0,0.25,16,16,"OVERCAST,NIGHT_OVERCAST,NIGHT_CLOUDY,NIGHT_MOSTLY_CLOUDY,NIGHT_CLEAR,NIGHT_CLEAR","Onshore,Cross-shore,Cross-shore,Offshore,Offshore,Offshore",6
5842041f4e65fad6a7708a81,2024_02_17,29.76878537149042,-81.25109,Crescent Beach,1,0,0.26166666666666666,16,16,"OVERCAST,NIGHT_OVERCAST,NIGHT_OVERCAST,NIGHT_MOSTLY_CLOUDY,NIGHT_CLEAR,NIGHT_CLEAR","Onshore,Cross-shore,Cross-shore,Offshore,Offshore,Offshore",6
5842041f4e65fad6a7708a82,2024_02_17,32.80251718689188,-79.73221919500764,Wild Dunes,1,0.12,0.425,12,12,"CLEAR,NIGHT_CLEAR,NIGHT_CLEAR,NIGHT_CLEAR,NIGHT_CLEAR,NIGHT_CLEAR","Onshore,Onshore,Onshore,Onshore,Onshore,Cross-shore",6
5842041f4e65fad6a7708a84,2024_02_17,32.75733539419244,-79.83258856064796,Bert's Bar,0.16666666666666666,0.0033333333333333335,0.245,12,12,"CLEAR,NIGHT_CLEAR,NIGHT_CLEAR,NIGHT_CLEAR,NIGHT_CLEAR,NIGHT_CLEAR","Onshore,Onshore,Onshore,Onshore,Onshore,Cross-shore",6
5842041f4e65fad6a7708a85,2024_02_17,32.66829212943039,-79.90735,Washout,0.3616666666666667,0.03833333333333333,0.31471666666666664,13,12,"CLEAR,NIGHT_CLEAR,NIGHT_CLEAR,NIGHT_CLEAR,NIGHT_CLEAR,NIGHT_CLEAR","Cross-shore,Cross-shore,Cross-shore,Onshore,Onshore,Cross-shore",6
5842041f4e65fad6a7708a86,2024_02_17,32.78452968219067,-79.78540233488354,The Pier/Windjammer,1,0.11333333333333333,0.4166666666666667,12,12,"CLEAR,NIGHT_CLEAR,NIGHT_CLEAR,NIGHT_CLEAR,NIGHT_CLEAR,NIGHT_CLEAR","Onshore,Onshore,Onshore,Onshore,Onshore,Cross-shore",6
5842041f4e65fad6a7708a87,2024_02_17,29.86618162637438,-81.2662150259608,Anastasia Park (The Entrance),1,0,0.26166666666666666,16,16,"MIST,NIGHT_OVERCAST,NIGHT_CLEAR,NIGHT_CLEAR,NIGHT_CLEAR,NIGHT_CLEAR","Onshore,Cross-shore,Cross-shore,Offshore,Offshore,Offshore",6
5842041f4e65fad6a7708a89,2024_02_17,29.89149785916623,-81.2723223244215,Blowholes,1.25,0.1397,0.4613333333333334,22,20,"MIST,NIGHT_MIST,NIGHT_MIST,NIGHT_MOSTLY_CLEAR,NIGHT_CLEAR,NIGHT_CLEAR","Onshore,Cross-shore,Cross-shore,Offshore,Offshore,Offshore",6
5842041f4e65fad6a7708a8a,2024_02_17,30.16227112983666,-81.35502907491218,Crossroads,1.9166666666666667,0.13886666666666667,0.5063333333333333,22,20,"OVERCAST,NIGHT_OVERCAST,NIGHT_CLEAR,NIGHT_CLEAR,NIGHT_MIST,NIGHT_CLEAR","Cross-shore,Cross-shore,Cross-shore,Cross-shore,Cross-shore,Offshore",6
5842041f4e65fad6a7708a8b,2024_02_17,30.19308537587637,-81.36314247820911,Sawgrass,1.9166666666666667,0.13886666666666667,0.5063333333333333,22,20,"CLOUDY,NIGHT_OVERCAST,NIGHT_CLEAR,NIGHT_CLEAR,NIGHT_LIGHT_RAIN,NIGHT_CLEAR","Cross-shore,Cross-shore,Cross-shore,Cross-shore,Offshore,Offshore",6
5842041f4e65fad6a7708a8c,2024_02_17,30.34696027700899,-81.39451,18th Street,1,0.165665,0.2588533333333333,15,15,"CLEAR,NIGHT_CLOUDY,NIGHT_CLOUDY,NIGHT_DRIZZLE,NIGHT_CLOUDY,NIGHT_CLEAR","Onshore,Onshore,Offshore,Offshore,Cross-shore,Cross-shore",6
5842041f4e65fad6a7708a8d,2024_02_17,30.381793,-81.39686,Mayport Poles,1,0.011666666666666667,0.315,14,14,"DRIZZLE,NIGHT_CLEAR,NIGHT_OVERCAST,NIGHT_OVERCAST,NIGHT_DRIZZLE,NIGHT_CLEAR","Onshore,Onshore,Onshore,Offshore,Cross-shore,Cross-shore",6
5842041f4e65fad6a7708a8e,2024_02_17,30.390516,-81.395591,Blue Roofs,2,0.055,0.355,14,14,"DRIZZLE,NIGHT_CLEAR,NIGHT_OVERCAST,NIGHT_OVERCAST,NIGHT_CLEAR,NIGHT_CLEAR","Onshore,Onshore,Onshore,Offshore,Cross-shore,Cross-shore",6
5842041f4e65fad6a7708a8f,2024_02_17,30.40517712722211,-81.40074116169004,Huguenot Park (North Jetty),1,0,0.2783333333333333,14,14,"DRIZZLE,NIGHT_CLEAR,NIGHT_OVERCAST,NIGHT_OVERCAST,NIGHT_CLEAR,NIGHT_CLEAR","Cross-shore,Onshore,Onshore,Cross-shore,Cross-shore,Offshore",6
5842041f4e65fad6a7708a90,2024_02_17,30.47788918872762,-81.41055821335078,Talbot Island,2,0.5617370833333334,0.8320458333333333,15,14,"OVERCAST,NIGHT_CLEAR,NIGHT_CLEAR,NIGHT_RAIN,NIGHT_CLEAR,NIGHT_CLEAR","Onshore,Onshore,Onshore,Cross-shore,Cross-shore,Cross-shore",6
5842041f4e65fad6a7708a91,2024_02_17,30.66753984549761,-81.42983,Main Beach,1,0,0.2816666666666667,14,14,"OVERCAST,NIGHT_MIST,NIGHT_MIST,NIGHT_CLOUDY,NIGHT_BRIEF_SHOWERS_POSSIBLE,NIGHT_CLEAR","Onshore,Onshore,Onshore,Offshore,Cross-shore,Cross-shore",6
5842041f4e65fad6a7708a92,2024_02_17,30.69983581209126,-81.42483,Ft. Clinch State Park,1,0.0016666666666666668,0.295,14,14,"CLEAR,NIGHT_CLOUDY,NIGHT_CLOUDY,NIGHT_OVERCAST,NIGHT_CLEAR,NIGHT_CLEAR","Onshore,Onshore,Onshore,Offshore,Offshore,Cross-shore",6
5842041f4e65fad6a7708a93,2024_02_17,30.62059700777582,-81.437252942757425,Amelia Pier,1,0.015,0.31666666666666665,14,14,"OVERCAST,NIGHT_OVERCAST,NIGHT_OVERCAST,NIGHT_CLOUDY,NIGHT_CLEAR,NIGHT_CLOUDY","Onshore,Onshore,Onshore,Offshore,Cross-shore,Cross-shore",6
5842041f4e65fad6a7708a95,2024_02_17,28.95125170929067,-80.83837,Bethune Beach,1.1666666666666667,0.06333333333333334,0.3716666666666667,16,16,"OVERCAST,NIGHT_OVERCAST,NIGHT_CLOUDY,NIGHT_CLEAR,NIGHT_CLEAR,NIGHT_CLEAR","Offshore,Offshore,Offshore,Offshore,Offshore,Offshore",6
5842041f4e65fad6a7708a96,2024_02_17,29.03874288905362,-80.8933424949646,Flagler Ave.,2,0.27065000000000006,0.6476999999999999,22,21,"OVERCAST,NIGHT_OVERCAST,NIGHT_CLOUDY,NIGHT_CLEAR,NIGHT_CLEAR,NIGHT_CLEAR","Offshore,Offshore,Offshore,Offshore,Offshore,Offshore",6
5842041f4e65fad6a7708a98,2024_02_17,30.332297686992757,-81.39319,Atlantic Beach,1,0.14989,0.234205,15,15,"CLEAR,NIGHT_CLOUDY,NIGHT_CLOUDY,NIGHT_DRIZZLE,NIGHT_CLOUDY,NIGHT_CLEAR","Onshore,Onshore,Offshore,Offshore,Cross-shore,Cross-shore",6
5842041f4e65fad6a7708a99,2024_02_17,29.87530059952514,-81.26757958498874,Middles,1.25,0.1397,0.4671666666666667,22,20,"MIST,NIGHT_MIST,NIGHT_MIST,NIGHT_MOSTLY_CLEAR,NIGHT_CLEAR,NIGHT_CLEAR","Onshore,Cross-shore,Cross-shore,Offshore,Offshore,Offshore",6
5842041f4e65fad6a7708a9a,2024_02_17,29.146475528378218,-80.96347,Sunglow Pier,1,0.016666666666666666,0.32,16,16,"MOSTLY_CLOUDY,NIGHT_OVERCAST,NIGHT_CLOUDY,NIGHT_CLEAR,NIGHT_CLEAR,NIGHT_CLEAR","Offshore,Offshore,Offshore,Offshore,Offshore,Offshore",6
5842041f4e65fad6a7708a9b,2024_02_17,30.02251238001095,-81.32183077344881,Gate Station,1.25,0.1397,0.463,22,20,"CLOUDY,NIGHT_CLOUDY,NIGHT_CLEAR,NIGHT_CLEAR,NIGHT_MOSTLY_CLOUDY,NIGHT_CLEAR","Cross-shore,Cross-shore,Onshore,Cross-shore,Offshore,Offshore",6
5842041f4e65fad6a7708a9c,2024_02_17,29.33976495417899,-81.0606,Bicentennial Park,1,0.023333333333333334,0.32666666666666666,16,16,"MOSTLY_CLOUDY,NIGHT_OVERCAST,NIGHT_CLOUDY,NIGHT_CLEAR,NIGHT_CLEAR,NIGHT_CLEAR","Cross-shore,Offshore,Offshore,Offshore,Offshore,Offshore",6
5842041f4e65fad6a7708a9d,2024_02_17,29.08257353385602,-80.92136998257725,Ponce Inlet,2.4166666666666665,0.47982222222222226,0.9066333333333334,17,16,"MOSTLY_CLOUDY,NIGHT_OVERCAST,NIGHT_CLOUDY,NIGHT_CLEAR,NIGHT_MOSTLY_CLEAR,NIGHT_CLEAR","Offshore,Offshore,Offshore,Offshore,Offshore,Offshore",6
5842041f4e65fad6a7708a9f,2024_02_17,27.862962005874696,-80.44668,Sebastian Inlet,2.388333333333333,0.6493595833333333,0.9067679166666667,21,19,"CLEAR,NIGHT_CLEAR,NIGHT_CLEAR,NIGHT_CLEAR,NIGHT_CLEAR,NIGHT_CLEAR","Onshore,Onshore,Cross-shore,Offshore,Cross-shore,Offshore",6
5842041f4e65fad6a7708aa0,2024_02_17,30.292626880836885,-81.38579,Jacksonville Beach Pier,2,0.4751,0.7693166666666666,15,14,"CLOUDY,NIGHT_OVERCAST,NIGHT_OVERCAST,NIGHT_DRIZZLE,NIGHT_OVERCAST,NIGHT_CLEAR","Cross-shore,Cross-shore,Cross-shore,Offshore,Onshore,Cross-shore",6
5842041f4e65fad6a7708aa1,2024_02_17,29.22878213864532,-81.00551,Main Street North,1,0.34102,0.51057,16,16,"MOSTLY_CLOUDY,NIGHT_OVERCAST,NIGHT_CLOUDY,NIGHT_CLEAR,NIGHT_CLEAR,NIGHT_CLEAR","Cross-shore,Cross-shore,Cross-shore,Cross-shore,Offshore,Offshore",6
5842041f4e65fad6a7708aa2,2024_02_17,29.21860397328164,-81.0019,Daytona Beach,1.6666666666666667,0.02,0.325,16,16,"MOSTLY_CLOUDY,NIGHT_OVERCAST,NIGHT_CLOUDY,NIGHT_CLEAR,NIGHT_CLEAR,NIGHT_CLEAR","Cross-shore,Cross-shore,Cross-shore,Cross-shore,Offshore,Offshore",6
5842041f4e65fad6a7708aa3,2024_02_17,27.47531255634912,-80.28914,Ft. Pierce Inlet,2.0833333333333335,0.48885,0.9103833333333333,21,19,"CLEAR,NIGHT_OVERCAST,NIGHT_CLEAR,NIGHT_OVERCAST,NIGHT_CLEAR,NIGHT_CLEAR","Cross-shore,Cross-shore,Cross-shore,Offshore,Offshore,Offshore",6
5842041f4e65fad6a7708aa4,2024_02_17,29.29239875585548,-81.0386,Ormond Beach,1.1666666666666667,0.023333333333333334,0.325,16,16,"MOSTLY_CLOUDY,NIGHT_OVERCAST,NIGHT_CLOUDY,NIGHT_CLEAR,NIGHT_CLEAR,NIGHT_CLEAR","Offshore,Offshore,Offshore,Offshore,Offshore,Offshore",6
5842041f4e65fad6a7708aa5,2024_02_17,29.91629441498523,-81.28801,Vilano,1,0,0.24666666666666667,15,15,"OVERCAST,NIGHT_OVERCAST,NIGHT_CLEAR,NIGHT_MOSTLY_CLEAR,NIGHT_CLEAR,NIGHT_CLEAR","Onshore,Cross-shore,Cross-shore,Offshore,Offshore,Offshore",6
5842041f4e65fad6a7708aa6,2024_02_17,27.876230736320828,-80.4551,Spanish House,2.0833333333333335,0.5086833333333334,0.81755,20,19,"CLEAR,NIGHT_CLEAR,NIGHT_MOSTLY_CLOUDY,NIGHT_CLEAR,NIGHT_CLEAR,NIGHT_CLEAR","Onshore,Onshore,Cross-shore,Offshore,Cross-shore,Offshore",6
5842041f4e65fad6a7708aa7,2024_02_17,28.64397251741012,-80.62328519781694,Playalinda,1.3333333333333333,0.13166666666666668,0.435,17,17,"MOSTLY_CLOUDY,NIGHT_MOSTLY_CLOUDY,NIGHT_MOSTLY_CLOUDY,NIGHT_CLEAR,NIGHT_CLEAR,NIGHT_CLEAR","Cross-shore,Cross-shore,Cross-shore,Cross-shore,Offshore,Offshore",6
5842041f4e65fad6a7708aa8,2024_02_17,28.406142,-80.588858,Jetty Park,1.5,0.05666666666666667,0.365,17,17,"CLEAR,NIGHT_CLEAR,NIGHT_CLEAR,NIGHT_CLEAR,NIGHT_CLEAR,NIGHT_CLEAR","Cross-shore,Cross-shore,Onshore,Onshore,Cross-shore,Cross-shore",6
5842041f4e65fad6a7708aa9,2024_02_17,28.49083243010974,-80.58001715986319,Kennedy Space Center,1,0.14333333333333334,0.44999999999999996,17,17,"CLOUDY,NIGHT_CLEAR,NIGHT_MOSTLY_CLOUDY,NIGHT_CLEAR,NIGHT_CLEAR,NIGHT_CLEAR","Cross-shore,Cross-shore,Offshore,Offshore,Offshore,Offshore",6
5842041f4e65fad6a7708aab,2024_02_17,28.336757013024314,-80.60568,Lori Wilson Park,1,0.1638666666666667,0.47273333333333334,18,17,"CLEAR,NIGHT_CLEAR,NIGHT_CLEAR,NIGHT_CLEAR,NIGHT_CLEAR,NIGHT_CLEAR","Onshore,Onshore,Cross-shore,Cross-shore,Cross-shore,Offshore",6
5842041f4e65fad6a7708aad,2024_02_17,27.76388821683801,-80.3962958234027,Wabasso,1.3333333333333333,0.18833333333333332,0.49333333333333335,21,21,"CLEAR,NIGHT_CLEAR,NIGHT_CLEAR,NIGHT_CLEAR,NIGHT_CLEAR,NIGHT_CLEAR","Cross-shore,Cross-shore,Cross-shore,Offshore,Cross-shore,Offshore",6
