_id,date,lat,lon,name,daily_mean_swell_rating,daily_mean_wave_height_min,daily_mean_wave_height_max,daily_mean_water_temperature_max,daily_mean_water_temperature_min,weather_per_timestamp,wind_per_timestamp,n_samples_per_day
5842041f4e65fad6a77087f9,2024_12_15,37.741668,-122.51038,South Ocean Beach,1.7333333333333334,3.083948,3.910956,12,12,"CLEAR,NIGHT_CLEAR,NIGHT_CLEAR,NIGHT_MOSTLY_CLEAR,CLEAR","Onshore,Onshore,Cross-shore,Offshore,Offshore",5
5842041f4e65fad6a7708801,2024_12_15,37.49142,-122.50428,Maverick's,NA,3.1614999999999998,3.8065,12,12,"CLEAR,NIGHT_MOSTLY_CLOUDY,NIGHT_MOSTLY_CLOUDY,NIGHT_CLEAR,CLEAR","Cross-shore,Offshore,Offshore,Offshore,Offshore",5
5842041f4e65fad6a7708804,2024_12_15,44.997,-124.018,Roads End,1.4,4.032,4.57,11,11,"CLEAR,NIGHT_MOSTLY_CLOUDY,NIGHT_CLEAR,NIGHT_MOSTLY_CLOUDY,OVERCAST","Onshore,Onshore,Onshore,Onshore,Offshore",5
5842041f4e65fad6a7708805,2024_12_15,36.95188851423011,-122.02522,Steamer Lane,3.3,1.823712,2.407694,12,12,"CLEAR,NIGHT_CLEAR,NIGHT_MIST,NIGHT_CLEAR,CLEAR","Offshore,Offshore,Offshore,Offshore,Onshore",5
5842041f4e65fad6a7708806,2024_12_15,36.95918781542251,-122.02489,Cowells,2.2666666666666666,0.50675,0.838742,12,12,"CLEAR,NIGHT_CLEAR,NIGHT_MIST,NIGHT_CLEAR,CLEAR","Offshore,Cross-shore,Offshore,Cross-shore,Onshore",5
5842041f4e65fad6a7708807,2024_12_15,36.95468082526536,-121.97234,Pleasure Point,3.0666666666666664,1.70947,2.18128,12,12,"CLEAR,NIGHT_CLEAR,NIGHT_CLEAR,NIGHT_CLEAR,CLEAR","Offshore,Onshore,Offshore,Onshore,Offshore",5
5842041f4e65fad6a770880a,2024_12_15,35.37815414378748,-120.86589,Morro Bay,3.2333333333333334,1.805732,2.38156,12,12,"MIST,NIGHT_CLEAR,NIGHT_CLEAR,NIGHT_CLEAR,CLEAR","Onshore,Offshore,Onshore,Offshore,Offshore",5
5842041f4e65fad6a770880b,2024_12_15,36.95782765000708,-121.96729,Jack's,2.6,0.918066,1.2027860000000001,12,12,"CLEAR,NIGHT_CLEAR,NIGHT_CLEAR,NIGHT_CLEAR,CLEAR","Offshore,Onshore,Cross-shore,Cross-shore,Offshore",5
5842041f4e65fad6a770880d,2024_12_15,34.29982939936656,-119.3489016603669,Gold Coast Beachbreaks,2.4,0.294,0.6,14.6,14.6,"DRIZZLE,NIGHT_MIST,NIGHT_CLEAR,NIGHT_CLEAR,CLEAR","Offshore,Onshore,Offshore,Offshore,Onshore",5
5842041f4e65fad6a7708811,2024_12_15,34.245076,-119.26799,Ventura Harbor,3,1.453,1.7233,13,13,"MIST,NIGHT_MOSTLY_CLEAR,NIGHT_CLEAR,NIGHT_CLEAR,CLEAR","Onshore,Onshore,Cross-shore,Offshore,Onshore",5
5842041f4e65fad6a7708813,2024_12_15,34.051,-118.964,County Line,3,0.768354,1.07286,14,14,"OVERCAST,NIGHT_MOSTLY_CLEAR,NIGHT_MOSTLY_CLOUDY,NIGHT_MIST,CLEAR","Cross-shore,Cross-shore,Offshore,Offshore,Cross-shore",5
5842041f4e65fad6a7708814,2024_12_15,34.37256264378892,-119.47797,Rincon,2.8,0.772,1.018,14,14,"OVERCAST,NIGHT_MIST,NIGHT_CLEAR,NIGHT_MOSTLY_CLEAR,CLEAR","Cross-shore,Onshore,Offshore,Onshore,Cross-shore",5
5842041f4e65fad6a7708817,2024_12_15,34.03096101876324,-118.68109,Malibu Third Point,2,0.337644,0.638132,15,15,"MOSTLY_CLOUDY,NIGHT_CLEAR,NIGHT_CLEAR,NIGHT_CLEAR,CLEAR","Cross-shore,Offshore,Offshore,Offshore,Onshore",5
5842041f4e65fad6a7708819,2024_12_15,33.984079047970035,-118.47382,Venice Beach,3,0.828148,1.141094,14,14,"MIST,NIGHT_CLEAR,NIGHT_CLEAR,NIGHT_MIST,MIST","Onshore,Onshore,Cross-shore,Offshore,Offshore",5
5842041f4e65fad6a770881e,2024_12_15,34.037508438646746,-118.5834,Topanga Beach,3,0.44368,0.80794,14,14,"MOSTLY_CLOUDY,NIGHT_CLEAR,NIGHT_CLEAR,NIGHT_CLEAR,CLEAR","Onshore,Cross-shore,Offshore,Cross-shore,Onshore",5
5842041f4e65fad6a7708820,2024_12_15,33.73954373690184,-118.11414,Seal Beach Jetty,2.6,0.372,0.6759999999999999,14,14,"CLEAR,NIGHT_MOSTLY_CLOUDY,NIGHT_MOSTLY_CLEAR,NIGHT_OVERCAST,MOSTLY_CLOUDY","Onshore,Onshore,Offshore,Cross-shore,Cross-shore",5
5842041f4e65fad6a7708822,2024_12_15,33.72309983348433,-118.08078,Anderson Street,1.5,0.246804,0.48465199999999997,14,14,"CLEAR,NIGHT_MOSTLY_CLOUDY,NIGHT_MOSTLY_CLEAR,NIGHT_OVERCAST,BRIEF_SHOWERS","Onshore,Onshore,Offshore,Cross-shore,Onshore",5
5842041f4e65fad6a7708827,2024_12_15,33.65574085629463,-118.00397,Huntington Beach Pier Northside,2.966666666666667,0.927354,1.280272,14,14,"CLEAR,NIGHT_MOSTLY_CLOUDY,NIGHT_MOSTLY_CLOUDY,NIGHT_LIGHT_RAIN,MOSTLY_CLOUDY","Onshore,Onshore,Cross-shore,Offshore,Onshore",5
5842041f4e65fad6a7708828,2024_12_15,34.272041739333,-119.29976,C St.,2.933333333333333,0.974852,1.21233,13,13,"MIST,NIGHT_CLEAR,NIGHT_CLEAR,NIGHT_CLEAR,CLEAR","Onshore,Cross-shore,Offshore,Offshore,Onshore",5
5842041f4e65fad6a770882a,2024_12_15,33.61555743705257,-117.93676,Newport Lower Jetties,2.7,0.646064,1.00494,14,14,"CLEAR,NIGHT_MOSTLY_CLOUDY,NIGHT_MOSTLY_CLOUDY,NIGHT_OVERCAST,MOSTLY_CLOUDY","Onshore,Cross-shore,Offshore,Offshore,Onshore",5
5842041f4e65fad6a770882b,2024_12_15,33.5930302087,-117.88199,The Wedge,1.6,0.386,0.6900000000000001,14,14,"CLEAR,NIGHT_MOSTLY_CLOUDY,NIGHT_FOG,NIGHT_MOSTLY_CLOUDY,MOSTLY_CLOUDY","Onshore,Cross-shore,Offshore,Offshore,Onshore",5
5842041f4e65fad6a770882e,2024_12_15,33.475793399792984,-117.72291,Salt Creek,2.966666666666667,0.912224,1.268488,14,14,"MIST,NIGHT_CLEAR,NIGHT_FOG,NIGHT_BRIEF_SHOWERS,CLEAR","Onshore,Onshore,Onshore,Cross-shore,Onshore",5
5842041f4e65fad6a7708830,2024_12_15,33.41800974113613,-117.61952,T-Street,2.7666666666666666,0.612806,0.973152,14,14,"MIST,NIGHT_CLEAR,NIGHT_FOG,NIGHT_MOSTLY_CLOUDY,CLEAR","Onshore,Cross-shore,Offshore,Offshore,Onshore",5
5842041f4e65fad6a7708832,2024_12_15,33.202391008646,-117.39475,Oceanside Harbor,2.933333333333333,0.73589,1.078226,15,15,"CLEAR,NIGHT_CLEAR,NIGHT_FOG,NIGHT_CLEAR,CLEAR","Onshore,Offshore,Offshore,Offshore,Onshore",5
5842041f4e65fad6a7708835,2024_12_15,33.19477795952803,-117.38667,Oceanside Pier,3,0.643248,0.980344,15,15,"CLEAR,NIGHT_CLEAR,NIGHT_MOSTLY_CLOUDY,NIGHT_CLEAR,CLEAR","Onshore,Offshore,Offshore,Offshore,Onshore",5
5842041f4e65fad6a7708837,2024_12_15,33.14948100706,-117.35029,Tamarack,2.6,0.351864,0.712618,15.4,15.4,"CLEAR,NIGHT_CLEAR,NIGHT_FOG,NIGHT_CLEAR,CLEAR","Onshore,Offshore,Offshore,Offshore,Offshore",5
5842041f4e65fad6a7708839,2024_12_15,32.865777159358856,-117.25614,Scripps,2.8666666666666667,1.0493000000000001,1.419356,15,15,"BRIEF_SHOWERS_POSSIBLE,NIGHT_CLEAR,NIGHT_MIST,NIGHT_MOSTLY_CLOUDY,CLEAR","Onshore,Cross-shore,Offshore,Onshore,Onshore",5
5842041f4e65fad6a770883a,2024_12_15,32.813094,-117.27381,Birdrock,3.2,0.886,1.13,15,15,"CLEAR,NIGHT_MIST,NIGHT_FOG,NIGHT_CLEAR,CLEAR","Cross-shore,Offshore,Offshore,Offshore,Onshore",5
5842041f4e65fad6a770883b,2024_12_15,32.88338,-117.25571,Blacks,2.933333333333333,1.08168,1.44718,15,15,"BRIEF_SHOWERS_POSSIBLE,NIGHT_CLEAR,NIGHT_MIST,NIGHT_MOSTLY_CLOUDY,CLEAR","Onshore,Onshore,Onshore,Onshore,Onshore",5
5842041f4e65fad6a770883c,2024_12_15,32.82978974229765,-117.28162,Windansea,3.1333333333333333,1.01248,1.40158,15,15,"CLEAR,NIGHT_MOSTLY_CLOUDY,NIGHT_FOG,NIGHT_MOSTLY_CLOUDY,CLEAR","Onshore,Offshore,Offshore,Cross-shore,Onshore",5
5842041f4e65fad6a770883d,2024_12_15,32.838278,-117.28396,Horseshoe,2.8,0.9640000000000001,1.232,15,15,"CLEAR,NIGHT_MIST,NIGHT_FOG,NIGHT_MOSTLY_CLOUDY,CLEAR","Cross-shore,Offshore,Offshore,Cross-shore,Onshore",5
5842041f4e65fad6a770883f,2024_12_15,32.75034717673179,-117.25337,Ocean Beach,2.8666666666666667,1.16276,1.511976,15,15,"MIST,NIGHT_CLEAR,NIGHT_FOG,NIGHT_MOSTLY_CLOUDY,CLEAR","Onshore,Offshore,Offshore,Offshore,Onshore",5
5842041f4e65fad6a7708840,2024_12_15,32.73693,-117.25718,Sunset Cliffs,2.6,0.931956,1.209934,15,15,"CLEAR,NIGHT_MIST,NIGHT_MOSTLY_CLOUDY,NIGHT_MOSTLY_CLOUDY,CLEAR","Onshore,Cross-shore,Offshore,Offshore,Onshore",5
5842041f4e65fad6a7708841,2024_12_15,32.796582258728826,-117.25779,Pacific Beach,3,1.150042,1.425168,15,15,"CLEAR,NIGHT_CLEAR,NIGHT_FOG,NIGHT_MOSTLY_CLOUDY,CLEAR","Cross-shore,Offshore,Offshore,Offshore,Onshore",5
5842041f4e65fad6a7708842,2024_12_15,32.776636,-117.25514,Mission Beach,3.066666666666667,0.99498,1.2734,15,15,"CLEAR,NIGHT_CLEAR,NIGHT_FOG,NIGHT_MOSTLY_CLOUDY,CLEAR","Onshore,Offshore,Offshore,Offshore,Onshore",5
5842041f4e65fad6a7708844,2024_12_15,32.577195519016,-117.13475,Imperial Beach Pier,2.8,1.034,1.316,15,15,"CLEAR,NIGHT_MIST,NIGHT_MOSTLY_CLEAR,NIGHT_CLEAR,CLEAR","Onshore,Cross-shore,Offshore,Offshore,Onshore",5
5842041f4e65fad6a770884a,2024_12_15,42.88678181061,-70.80843,Seabrook,1.9333333333333333,0.180238,0.515514,8,7,"NIGHT_CLEAR,NIGHT_CLEAR,NIGHT_CLEAR,MOSTLY_CLOUDY,CLEAR","Offshore,Offshore,Cross-shore,Cross-shore,Offshore",5
5842041f4e65fad6a770884e,2024_12_15,41.434181432898335,-71.45312,Narragansett,1.2333333333333332,0.27528,0.58218,9,8,"NIGHT_CLEAR,NIGHT_CLEAR,NIGHT_CLEAR,CLEAR,CLEAR","Offshore,Offshore,Offshore,Offshore,Offshore",5
5842041f4e65fad6a7708850,2024_12_15,40.582703230722,-73.65247,Lincoln Blvd,1.1363636363636362,0.366124,0.668528,9,8,"NIGHT_CLEAR,NIGHT_CLEAR,NIGHT_CLEAR,MOSTLY_CLOUDY,MIST","Offshore,Offshore,Offshore,Offshore,Offshore",5
5842041f4e65fad6a7708852,2024_12_15,40.58342841721757,-73.81182,Rockaways,1.1133333333333333,0.476476,0.818438,9,8,"NIGHT_CLEAR,NIGHT_CLEAR,NIGHT_MOSTLY_CLEAR,MOSTLY_CLOUDY,CLOUDY","Offshore,Offshore,Offshore,Offshore,Cross-shore",5
5842041f4e65fad6a7708853,2024_12_15,40.330474,-73.9734,Monmouth Beach,1,0.27572,0.5789460000000001,7.8,7.2,"NIGHT_CLEAR,NIGHT_CLEAR,NIGHT_CLEAR,CLOUDY,CLOUDY","Cross-shore,Onshore,Onshore,Onshore,Onshore",5
5842041f4e65fad6a7708856,2024_12_15,40.113,-74.028,Manasquan Inlet,0.7999999999999999,0.32828599999999997,0.656946,7.8,7.2,"NIGHT_CLEAR,NIGHT_CLEAR,NIGHT_CLOUDY,OVERCAST,CLOUDY","Cross-shore,Onshore,Onshore,Cross-shore,Onshore",5
5842041f4e65fad6a7708857,2024_12_15,39.941519877445664,-74.06829,Casino Pier,0.9333333333333333,0.437908,0.749204,7.8,7.2,"NIGHT_CLEAR,NIGHT_CLEAR,NIGHT_CLOUDY,CLOUDY,CLOUDY","Cross-shore,Onshore,Onshore,Onshore,Onshore",5
5842041f4e65fad6a7708858,2024_12_15,39.28223089949212,-74.55766,North End OC,1.6333333333333333,0.31664,0.648354,8,7,"NIGHT_CLEAR,NIGHT_MOSTLY_CLOUDY,NIGHT_OVERCAST,CLEAR,CLEAR","Cross-shore,Offshore,Cross-shore,Offshore,Onshore",5
5842041f4e65fad6a770885b,2024_12_15,39.65080599934257,-74.17146,Ship Bottom,0.8333333333333333,0.428394,0.738484,10.2,10.2,"NIGHT_CLEAR,NIGHT_CLEAR,NIGHT_CLOUDY,MOSTLY_CLOUDY,CLEAR","Cross-shore,Cross-shore,Onshore,Onshore,Onshore",5
5842041f4e65fad6a7708863,2024_12_15,36.034151543144,-75.66791,Third Street,1,0.9877,1.455238,13,12,"NIGHT_OVERCAST,NIGHT_MOSTLY_CLOUDY,NIGHT_CLEAR,MOSTLY_CLOUDY,MOSTLY_CLOUDY","Onshore,Onshore,Onshore,Onshore,Onshore",5
5842041f4e65fad6a7708867,2024_12_15,35.605833221351425,-75.46303,S-Turns,0.33333333333333337,1.39752,1.81122,14,13,"NIGHT_CLEAR,NIGHT_MOSTLY_CLOUDY,NIGHT_DRIZZLE,CLOUDY,OVERCAST","Onshore,Onshore,Onshore,Onshore,Onshore",5
5842041f4e65fad6a770886d,2024_12_15,38.338461,-75.08117,Ocean City Boardwalk,0.9133333333333333,0.38469,0.749332,9,8,"NIGHT_CLOUDY,NIGHT_CLOUDY,NIGHT_OVERCAST,MOSTLY_CLOUDY,OVERCAST","Onshore,Onshore,Onshore,Onshore,Onshore",5
5842041f4e65fad6a770886f,2024_12_15,29.844757212379562,-81.26136,A St.,1.2,2.068,2.334,18,18,"NIGHT_CLOUDY,NIGHT_MOSTLY_CLEAR,NIGHT_BRIEF_SHOWERS,SHOWERS,MIST","Onshore,Onshore,Onshore,Onshore,Onshore",5
5842041f4e65fad6a7708871,2024_12_15,29.069417851135093,-80.90824,New Smyrna Beach,0.8333333333333333,2.150534,3.0522,21,19,"NIGHT_LIGHT_RAIN,NIGHT_MOSTLY_CLEAR,NIGHT_MOSTLY_CLOUDY,BRIEF_SHOWERS,MOSTLY_CLEAR","Onshore,Onshore,Onshore,Onshore,Onshore",5
5842041f4e65fad6a7708872,2024_12_15,28.367707417566,-80.60171,Cocoa Beach Pier,0.7999999999999999,1.929774,2.348066,19,18,"NIGHT_MOSTLY_CLOUDY,NIGHT_MOSTLY_CLEAR,NIGHT_MOSTLY_CLEAR,MOSTLY_CLOUDY,BRIEF_SHOWERS","Onshore,Onshore,Onshore,Onshore,Onshore",5
5842041f4e65fad6a7708873,2024_12_15,28.091782738658846,-80.56479,Indialantic,0.7333333333333333,2.404182,2.844142,21,19,"NIGHT_MOSTLY_CLOUDY,NIGHT_MOSTLY_CLOUDY,NIGHT_MOSTLY_CLOUDY,MOSTLY_CLEAR,MOSTLY_CLOUDY","Onshore,Onshore,Onshore,Onshore,Onshore",5
5842041f4e65fad6a7708876,2024_12_15,27.25392904143517,-80.19455,Jensen Beach,-0.06666666666666668,1.902564,2.918084,25,23,"NIGHT_MOSTLY_CLOUDY,NIGHT_CLEAR,NIGHT_CLEAR,MOSTLY_CLOUDY,CLEAR","Onshore,Onshore,Onshore,Onshore,Onshore",5
5842041f4e65fad6a7708879,2024_12_15,26.76346795333825,-80.03607,Reef Road,0.7466666666666667,1.345032,1.894732,25,23,"NIGHT_OVERCAST,NIGHT_OVERCAST,NIGHT_MOSTLY_CLOUDY,OVERCAST,OVERCAST","Onshore,Onshore,Onshore,Onshore,Onshore",5
5842041f4e65fad6a770887c,2024_12_15,26.336499228484,-80.06956100463,Boca Raton Inlet,0.7333333333333333,1.2347,1.601446,25,24,"NIGHT_MOSTLY_CLOUDY,NIGHT_MOSTLY_CLOUDY,NIGHT_MOSTLY_CLOUDY,OVERCAST,OVERCAST","Onshore,Onshore,Onshore,Onshore,Onshore",5
5842041f4e65fad6a770887d,2024_12_15,26.31719311695038,-80.07453,Deerfield Beach Pier,0.68,0.776794,1.19674,26,24,"NIGHT_MOSTLY_CLOUDY,NIGHT_MOSTLY_CLOUDY,NIGHT_OVERCAST,OVERCAST,OVERCAST","Onshore,Onshore,Onshore,Onshore,Onshore",5
5842041f4e65fad6a7708881,2024_12_15,30.20276320866628,-85.85626528676136,"Spyglass Dr., Panama City",0.43333333333333335,0,0.22544,18,18,"NIGHT_CLEAR,NIGHT_MOSTLY_CLEAR,NIGHT_CLEAR,CLEAR,MOSTLY_CLOUDY","Offshore,Offshore,Offshore,Offshore,Offshore",5
5842041f4e65fad6a7708884,2024_12_15,33.39000832738053,-117.59852,Cottons,2.4,0.589846,0.9381740000000001,14,14,"CLEAR,NIGHT_CLEAR,NIGHT_MOSTLY_CLOUDY,NIGHT_MOSTLY_CLOUDY,CLEAR","Onshore,Cross-shore,Offshore,Offshore,Onshore",5
5842041f4e65fad6a7708885,2024_12_15,33.359416282661,-117.54168,Trails,2.4,0.472,0.772,16,16,"CLEAR,NIGHT_CLEAR,NIGHT_MOSTLY_CLOUDY,NIGHT_MOSTLY_CLOUDY,CLEAR","Onshore,Offshore,Offshore,Cross-shore,Onshore",5
5842041f4e65fad6a7708886,2024_12_15,33.38042605929805,-117.58332,Middles,2.6,0.522,0.828,16,16,"CLEAR,NIGHT_CLEAR,NIGHT_MOSTLY_CLOUDY,NIGHT_MOSTLY_CLOUDY,CLEAR","Cross-shore,Offshore,Offshore,Offshore,Cross-shore",5
5842041f4e65fad6a7708887,2024_12_15,33.38445596302903,-117.59445,Upper Trestles,2.9,0.68618,0.97034,14,14,"CLEAR,NIGHT_MIST,NIGHT_MOSTLY_CLOUDY,NIGHT_MOSTLY_CLOUDY,CLEAR","Cross-shore,Offshore,Offshore,Offshore,Cross-shore",5
5842041f4e65fad6a7708889,2024_12_15,28.944414,-95.28883,Surfside,2.2,0.829898,1.1875740000000001,18.6,18.6,"MIST,NIGHT_MIST,NIGHT_MIST,MOSTLY_CLOUDY,MOSTLY_CLOUDY","Onshore,Onshore,Onshore,Onshore,Onshore",5
5842041f4e65fad6a770888a,2024_12_15,33.38143999849023,-117.58843,Lower Trestles,2.6333333333333333,0.635734,0.993936,14,14,"CLEAR,NIGHT_CLEAR,NIGHT_MOSTLY_CLOUDY,NIGHT_MOSTLY_CLOUDY,CLEAR","Cross-shore,Offshore,Offshore,Offshore,Cross-shore",5
5842041f4e65fad6a770888b,2024_12_15,33.379622288757,-117.57894,Church,2.6,0.530146,0.837986,14,14,"CLEAR,NIGHT_CLEAR,NIGHT_MOSTLY_CLOUDY,NIGHT_MOSTLY_CLOUDY,CLEAR","Onshore,Offshore,Offshore,Offshore,Onshore",5
5842041f4e65fad6a770888d,2024_12_15,21.679,-158.042,Sunset Beach,3.4,1.39004,1.788774,26,25,"CLEAR,NIGHT_BRIEF_SHOWERS,NIGHT_MOSTLY_CLOUDY,NIGHT_MOSTLY_CLEAR,CLEAR","Cross-shore,Cross-shore,Offshore,Cross-shore,Cross-shore",5
5842041f4e65fad6a770888e,2024_12_15,21.670550036401,-158.0482,Rocky Point,3.033333333333333,1.351624,1.819874,26,25,"MOSTLY_CLEAR,NIGHT_CLEAR,NIGHT_CLEAR,NIGHT_CLEAR,MOSTLY_CLEAR","Cross-shore,Cross-shore,Offshore,Cross-shore,Onshore",5
5842041f4e65fad6a770888f,2024_12_15,21.668,-158.05,Chambers,3.4,1.4122219999999999,1.97565,25,25,"MOSTLY_CLEAR,NIGHT_MOSTLY_CLEAR,NIGHT_CLEAR,NIGHT_CLEAR,MOSTLY_CLEAR","Cross-shore,Cross-shore,Offshore,Cross-shore,Onshore",5
5842041f4e65fad6a7708890,2024_12_15,21.66522,-158.0526,Pipeline,2.066666666666667,1.265286,1.73041,26,25,"MOSTLY_CLEAR,NIGHT_CLEAR,NIGHT_CLEAR,NIGHT_CLEAR,MOSTLY_CLEAR","Cross-shore,Cross-shore,Offshore,Cross-shore,Onshore",5
5842041f4e65fad6a7708891,2024_12_15,21.665,-158.054,Backdoor,3.466666666666667,1.301208,1.656954,26,25,"MOSTLY_CLEAR,NIGHT_MOSTLY_CLEAR,NIGHT_CLEAR,NIGHT_CLEAR,MOSTLY_CLEAR","Cross-shore,Cross-shore,Cross-shore,Cross-shore,Onshore",5
5842041f4e65fad6a7708892,2024_12_15,21.662,-158.057,Rockpile,3.2,1.494,1.754,25,25,"MOSTLY_CLEAR,NIGHT_CLEAR,NIGHT_CLEAR,NIGHT_CLEAR,MOSTLY_CLEAR","Cross-shore,Cross-shore,Offshore,Cross-shore,Onshore",5
5842041f4e65fad6a7708893,2024_12_15,21.65870453806827,-158.06058,Log Cabins,3,1.214,1.42,25,25,"MOSTLY_CLEAR,NIGHT_MOSTLY_CLEAR,NIGHT_CLEAR,NIGHT_CLEAR,MOSTLY_CLEAR","Cross-shore,Cross-shore,Cross-shore,Cross-shore,Onshore",5
5842041f4e65fad6a7708894,2024_12_15,21.66203493640557,-158.05495,Off The Wall,3.4,1.526,1.734,25,25,"MOSTLY_CLEAR,NIGHT_MOSTLY_CLEAR,NIGHT_CLEAR,NIGHT_CLEAR,MOSTLY_CLEAR","Cross-shore,Cross-shore,Cross-shore,Cross-shore,Onshore",5
5842041f4e65fad6a7708895,2024_12_15,21.643,-158.067,Waimea Bay,NA,1.3368740000000001,1.782772,26,25,"MOSTLY_CLEAR,NIGHT_MOSTLY_CLEAR,NIGHT_CLEAR,NIGHT_CLEAR,MOSTLY_CLEAR","Cross-shore,Cross-shore,Offshore,Offshore,Onshore",5
5842041f4e65fad6a7708896,2024_12_15,21.622,-158.087,Hultin's,3.5,1.404374,1.792774,26,25,"CLEAR,NIGHT_CLEAR,NIGHT_CLEAR,NIGHT_CLEAR,MOSTLY_CLEAR","Offshore,Offshore,Offshore,Offshore,Offshore",5
5842041f4e65fad6a7708897,2024_12_15,21.623,-158.085,Jocko's,3,1.262,1.542,25,25,"CLEAR,NIGHT_CLEAR,NIGHT_CLEAR,NIGHT_CLEAR,MOSTLY_CLEAR","Onshore,Onshore,Onshore,Cross-shore,Cross-shore",5
5842041f4e65fad6a7708898,2024_12_15,21.62,-158.088,Laniakea,3,1.218994,1.512906,26,25,"CLEAR,NIGHT_CLEAR,NIGHT_CLEAR,NIGHT_CLEAR,MOSTLY_CLEAR","Cross-shore,Cross-shore,Cross-shore,Offshore,Offshore",5
5842041f4e65fad6a7708899,2024_12_15,21.625,-158.083,Chun's,3.2,1.302,1.54,25,25,"CLEAR,NIGHT_CLEAR,NIGHT_CLEAR,NIGHT_CLEAR,MOSTLY_CLEAR","Offshore,Offshore,Offshore,Offshore,Offshore",5
5842041f4e65fad6a770889c,2024_12_15,21.286357895152136,-157.8515,Ala Moana Beach Park,1.4,0.292,0.596,26,26,"CLEAR,NIGHT_CLEAR,NIGHT_CLEAR,NIGHT_CLEAR,CLEAR","Offshore,Offshore,Offshore,Offshore,Offshore",5
5842041f4e65fad6a770889d,2024_12_15,19.606,-155.978,Banyans,2.7666666666666666,0.6116860000000001,0.917614,26,25,"CLEAR,NIGHT_CLEAR,NIGHT_CLEAR,NIGHT_CLEAR,CLEAR","Onshore,Cross-shore,Offshore,Cross-shore,Onshore",5
5842041f4e65fad6a770889e,2024_12_15,20.029,-155.831,Kawaihae,2,0.4444,0.693108,26,26,"CLEAR,NIGHT_FOG,NIGHT_CLEAR,NIGHT_CLEAR,CLEAR","Onshore,Cross-shore,Onshore,Offshore,Onshore",5
5842041f4e65fad6a770889f,2024_12_15,33.07541383424675,-117.3105,Grandview,3,0.771258,1.141416,15,15,"CLEAR,NIGHT_CLEAR,NIGHT_FOG,NIGHT_CLEAR,CLEAR","Onshore,Offshore,Offshore,Offshore,Onshore",5
5842041f4e65fad6a77088a0,2024_12_15,33.065267421296596,-117.30577,Beacons,3,0.809198,1.2271020000000001,15,15,"CLEAR,NIGHT_CLEAR,NIGHT_FOG,NIGHT_CLEAR,CLEAR","Onshore,Offshore,Offshore,Offshore,Onshore",5
5842041f4e65fad6a77088a2,2024_12_15,21.252,-157.805,Diamond Head,2.7333333333333334,0.614156,0.972696,26,25,"CLEAR,NIGHT_CLEAR,NIGHT_MOSTLY_CLOUDY,NIGHT_MOSTLY_CLEAR,CLEAR","Cross-shore,Offshore,Cross-shore,Cross-shore,Cross-shore",5
5842041f4e65fad6a77088a3,2024_12_15,33.04694255008896,-117.29966,Moonlight State Beach,3,0.582,0.86,15,15,"CLEAR,NIGHT_CLEAR,NIGHT_FOG,NIGHT_CLEAR,CLEAR","Onshore,Offshore,Offshore,Offshore,Onshore",5
5842041f4e65fad6a77088a5,2024_12_15,33.08685865930869,-117.31532,Ponto,3,0.899372,1.21779,15,15,"CLEAR,NIGHT_CLEAR,NIGHT_FOG,NIGHT_CLEAR,CLEAR","Onshore,Offshore,Offshore,Offshore,Onshore",5
5842041f4e65fad6a77088a6,2024_12_15,33.130343587871906,-117.33668,Terra Mar Point,2.3666666666666667,0.405214,0.74436,15,15,"CLEAR,NIGHT_CLEAR,NIGHT_BRIEF_SHOWERS,NIGHT_CLEAR,CLEAR","Onshore,Onshore,Offshore,Offshore,Onshore",5
5842041f4e65fad6a77088af,2024_12_15,32.95916304183685,-117.26963,Del Mar,3,0.772,1.022,15,15,"MIST,NIGHT_MIST,NIGHT_MIST,NIGHT_MOSTLY_CLEAR,CLEAR","Onshore,Offshore,Offshore,Offshore,Onshore",5
5842041f4e65fad6a77088b0,2024_12_15,32.97527261243354,-117.2721061331305,Del Mar Rivermouth,3,0.782,1.086,15,15,"MIST,NIGHT_CLEAR,NIGHT_FOG,NIGHT_MOSTLY_CLEAR,CLEAR","Onshore,Offshore,Offshore,Offshore,Onshore",5
5842041f4e65fad6a77088b1,2024_12_15,33.01352178146273,-117.28219,Cardiff Reef,2.9,0.76226,1.040432,15,15,"CLEAR,NIGHT_CLEAR,NIGHT_FOG,NIGHT_CLEAR,CLEAR","Onshore,Cross-shore,Offshore,Offshore,Onshore",5
5842041f4e65fad6a77088b3,2024_12_15,33.00211185876003,-117.2811,Seaside Reef,3.1333333333333333,0.85426,1.22414,15,15,"CLEAR,NIGHT_OVERCAST,NIGHT_MIST,NIGHT_MOSTLY_CLEAR,CLEAR","Onshore,Cross-shore,Offshore,Offshore,Onshore",5
5842041f4e65fad6a77088b4,2024_12_15,33.0341859796287,-117.29552,Swami's,3,0.801392,1.125602,15,15,"CLEAR,NIGHT_CLEAR,NIGHT_FOG,NIGHT_CLEAR,CLEAR","Onshore,Offshore,Offshore,Offshore,Onshore",5
5842041f4e65fad6a77088b7,2024_12_15,33.04569760260221,-117.2994,D Street,3,0.82219,1.113098,15,15,"CLEAR,NIGHT_CLEAR,NIGHT_FOG,NIGHT_CLEAR,CLEAR","Onshore,Offshore,Cross-shore,Offshore,Onshore",5
5842041f4e65fad6a77088b8,2024_12_15,33.02090944350196,-117.28535,San Elijo State Beach,2.7333333333333334,0.59512,0.890232,15,15,"CLEAR,NIGHT_CLEAR,NIGHT_FOG,NIGHT_CLEAR,CLEAR","Onshore,Cross-shore,Offshore,Offshore,Onshore",5
5842041f4e65fad6a77088c2,2024_12_15,32.80662846492798,-117.26888,PB Point,2.8,0.834,1.114,15,15,"CLEAR,NIGHT_MOSTLY_CLOUDY,NIGHT_FOG,NIGHT_CLEAR,CLEAR","Cross-shore,Cross-shore,Offshore,Cross-shore,Cross-shore",5
5842041f4e65fad6a77088c4,2024_12_15,32.8060476681448,-117.26479,Old Man's at Tourmaline,2.6,0.570096,0.846896,15,15,"CLEAR,NIGHT_MOSTLY_CLOUDY,NIGHT_FOG,NIGHT_CLEAR,CLEAR","Cross-shore,Cross-shore,Offshore,Cross-shore,Cross-shore",5
5842041f4e65fad6a77088cb,2024_12_15,32.557056711256,-117.1327445020322,Tijuana Slough,2.6,0.492,0.794,15,15,"CLEAR,NIGHT_CLEAR,NIGHT_MOSTLY_CLEAR,NIGHT_CLEAR,CLEAR","Onshore,Cross-shore,Offshore,Offshore,Onshore",5
5842041f4e65fad6a77088cc,2024_12_15,32.863,-117.257,La Jolla Shores,2.8,0.71,0.9420000000000001,15,15,"BRIEF_SHOWERS_POSSIBLE,NIGHT_MIST,NIGHT_MIST,NIGHT_MOSTLY_CLOUDY,CLEAR","Onshore,Cross-shore,Offshore,Onshore,Onshore",5
5842041f4e65fad6a77088ce,2024_12_15,32.67443657790586,-117.17421,Coronado Beach,2.2,0.23,0.536,15,15,"CLEAR,NIGHT_CLEAR,NIGHT_MOSTLY_CLOUDY,NIGHT_CLEAR,CLEAR","Offshore,Offshore,Onshore,Offshore,Cross-shore",5
5842041f4e65fad6a77088cf,2024_12_15,33.40484417640326,-117.60749,San Clemente State Beach,2.4,0.472,0.778,16,16,"CLEAR,NIGHT_MOSTLY_CLEAR,NIGHT_MOSTLY_CLOUDY,NIGHT_MOSTLY_CLOUDY,CLEAR","Onshore,Offshore,Offshore,Offshore,Onshore",5
5842041f4e65fad6a77088d5,2024_12_15,33.4663042002114,-117.7168352817103,Strands,2.6666666666666665,0.655454,0.924126,14,14,"MIST,NIGHT_CLEAR,NIGHT_FOG,NIGHT_BRIEF_SHOWERS,CLEAR","Onshore,Cross-shore,Onshore,Onshore,Onshore",5
5842041f4e65fad6a77088d7,2024_12_15,33.4609858001748,-117.68535,Doheny State Beach,2.1333333333333333,0.159736,0.460702,14,14,"CLEAR,NIGHT_CLEAR,NIGHT_FOG,NIGHT_MOSTLY_CLOUDY,CLEAR","Onshore,Cross-shore,Cross-shore,Cross-shore,Onshore",5
5842041f4e65fad6a77088dc,2024_12_15,33.50894790083017,-117.75243,Aliso Creek,2.4,0.28200000000000003,0.586,15.4,15.4,"MIST,NIGHT_MOSTLY_CLOUDY,NIGHT_FOG,NIGHT_MOSTLY_CLOUDY,CLEAR","Onshore,Cross-shore,Onshore,Onshore,Onshore",5
5842041f4e65fad6a77088dd,2024_12_15,33.5326591767067,-117.77764,Brooks Street,2,0.196,0.504,15.4,15.4,"MIST,NIGHT_MOSTLY_CLOUDY,NIGHT_MOSTLY_CLOUDY,NIGHT_MOSTLY_CLOUDY,CLEAR","Cross-shore,Cross-shore,Onshore,Onshore,Onshore",5
5842041f4e65fad6a77088de,2024_12_15,33.53561225884637,-117.7799,Thalia Street,2.4,0.222,0.528,15.4,15.4,"MIST,NIGHT_CLEAR,NIGHT_MOSTLY_CLOUDY,NIGHT_MOSTLY_CLOUDY,CLEAR","Cross-shore,Offshore,Onshore,Onshore,Onshore",5
5842041f4e65fad6a77088e3,2024_12_15,33.54268310353641,-117.7916,Rockpile,2.2,0.196,0.504,15.4,15.4,"MIST,NIGHT_CLEAR,NIGHT_MOSTLY_CLOUDY,NIGHT_MOSTLY_CLOUDY,CLEAR","Cross-shore,Offshore,Cross-shore,Onshore,Onshore",5
5842041f4e65fad6a77088e4,2024_12_15,33.7368459504689,-118.10342,"Seal Beach Pier, Southside",2.6,0.47400000000000003,0.782,15,15,"CLEAR,NIGHT_MOSTLY_CLOUDY,NIGHT_MOSTLY_CLOUDY,NIGHT_CLOUDY,MOSTLY_CLOUDY","Onshore,Onshore,Offshore,Cross-shore,Cross-shore",5
5842041f4e65fad6a77088e5,2024_12_15,33.73933701820233,-118.117,Ray Bay,2.6,0.398,0.704,15,15,"CLEAR,NIGHT_MOSTLY_CLOUDY,NIGHT_MOSTLY_CLEAR,NIGHT_OVERCAST,MOSTLY_CLOUDY","Onshore,Onshore,Offshore,Cross-shore,Onshore",5
5842041f4e65fad6a77088e7,2024_12_15,33.728733,-118.08982,Surfside,0.6,0,0.17600000000000002,15,15,"CLEAR,NIGHT_MOSTLY_CLEAR,NIGHT_MOSTLY_CLEAR,NIGHT_OVERCAST,BRIEF_SHOWERS","Onshore,Onshore,Offshore,Cross-shore,Onshore",5
5842041f4e65fad6a77088e8,2024_12_15,33.68760321488161,-118.04236,Bolsa Chica State Beach,2.7,0.744742,1.061332,14,14,"CLEAR,NIGHT_MOSTLY_CLOUDY,NIGHT_MIST,NIGHT_OVERCAST,MOSTLY_CLOUDY","Onshore,Onshore,Cross-shore,Cross-shore,Onshore",5
5842041f4e65fad6a77088ea,2024_12_15,33.66704400178788,-118.0192,North HB Streets,3.1666666666666665,1.166232,1.420236,14,14,"CLEAR,NIGHT_MOSTLY_CLOUDY,NIGHT_MOSTLY_CLOUDY,NIGHT_LIGHT_RAIN,MOSTLY_CLOUDY","Onshore,Onshore,Cross-shore,Offshore,Onshore",5
5842041f4e65fad6a77088ed,2024_12_15,33.65475101379567,-118.00291,Huntington Beach Pier Southside,2.9333333333333336,0.90052,1.239446,14,14,"CLEAR,NIGHT_MOSTLY_CLEAR,NIGHT_MOSTLY_CLOUDY,NIGHT_LIGHT_RAIN,MOSTLY_CLOUDY","Onshore,Onshore,Cross-shore,Offshore,Onshore",5
5842041f4e65fad6a77088ee,2024_12_15,33.62778647706099,-117.95939,River Jetties,2.6,0.599014,0.920674,14,14,"CLEAR,NIGHT_CLEAR,NIGHT_MOSTLY_CLOUDY,NIGHT_OVERCAST,MOSTLY_CLOUDY","Onshore,Onshore,Offshore,Offshore,Onshore",5
5842041f4e65fad6a77088f2,2024_12_15,33.605165797643664,-117.925,Newport Point,2,0.10200000000000001,0.40599999999999997,15,15,"CLEAR,NIGHT_MOSTLY_CLOUDY,NIGHT_MOSTLY_CLOUDY,NIGHT_MIST,MOSTLY_CLOUDY","Onshore,Cross-shore,Cross-shore,Onshore,Onshore",5
5842041f4e65fad6a77088f3,2024_12_15,33.58982984726977,-117.87713,Corona del Mar,2,0.13,0.434,15,15,"CLEAR,NIGHT_MOSTLY_CLOUDY,NIGHT_MIST,NIGHT_MIST,MOSTLY_CLOUDY","Onshore,Cross-shore,Offshore,Offshore,Onshore",5
5842041f4e65fad6a77088f7,2024_12_15,34.00750300824362,-118.49718,Santa Monica Pier,2.2,0.186,0.494,15,15,"CLEAR,NIGHT_CLEAR,NIGHT_CLEAR,NIGHT_MIST,CLEAR","Onshore,Onshore,Offshore,Offshore,Offshore",5
5842041f4e65fad6a77088ff,2024_12_15,33.94070283102945,-118.44321,Dockweiler Beach,3,1.257026,1.537186,14,14,"MIST,NIGHT_CLEAR,NIGHT_CLEAR,NIGHT_BRIEF_SHOWERS,CLEAR","Onshore,Onshore,Onshore,Offshore,Offshore",5
5842041f4e65fad6a7708900,2024_12_15,33.9231846937237,-118.4341465777908,Shitpipe,3,1.33736,1.639186,14,14,"MIST,NIGHT_MOSTLY_CLOUDY,NIGHT_CLEAR,NIGHT_MIST,CLEAR","Onshore,Onshore,Onshore,Offshore,Offshore",5
5842041f4e65fad6a7708902,2024_12_15,33.9108528052242,-118.4279133138721,Hammerland,3,1.33736,1.679826,14,14,"MIST,NIGHT_MOSTLY_CLOUDY,NIGHT_CLEAR,NIGHT_MIST,CLEAR","Onshore,Onshore,Onshore,Offshore,Offshore",5
5842041f4e65fad6a7708904,2024_12_15,33.87201368173932,-118.40752,Hermosa Beach,2.9,0.919256,1.234836,14,14,"BRIEF_SHOWERS,NIGHT_FOG,NIGHT_MIST,NIGHT_MOSTLY_CLOUDY,MOSTLY_CLOUDY","Onshore,Onshore,Onshore,Cross-shore,Onshore",5
5842041f4e65fad6a7708906,2024_12_15,33.90129336911256,-118.42184,El Porto,3,1.243748,1.644792,14,14,"MIST,NIGHT_FOG,NIGHT_MIST,NIGHT_MIST,CLEAR","Onshore,Onshore,Onshore,Cross-shore,Offshore",5
5842041f4e65fad6a7708907,2024_12_15,33.87963506431794,-118.41102,Manhattan Beach Pier,3,1.25204,1.518908,14,14,"MIST,NIGHT_CLEAR,NIGHT_MIST,NIGHT_MIST,CLEAR","Onshore,Onshore,Onshore,Cross-shore,Offshore",5
5842041f4e65fad6a7708914,2024_12_15,34.038053387863464,-118.5532,Sunset Point,1.8,0.13,0.436,15,15,"MOSTLY_CLOUDY,NIGHT_CLEAR,NIGHT_CLEAR,NIGHT_CLEAR,CLEAR","Onshore,Offshore,Offshore,Offshore,Onshore",5
5842041f4e65fad6a7708920,2024_12_15,33.80282,-118.39989,Haggerty's,2.6,0.36,0.6,15,15,"MOSTLY_CLOUDY,NIGHT_BRIEF_SHOWERS,NIGHT_CLEAR,NIGHT_MOSTLY_CLOUDY,MOSTLY_CLOUDY","Onshore,Onshore,Onshore,Offshore,Cross-shore",5
5842041f4e65fad6a7708921,2024_12_15,33.85044519861206,-118.40048,Redondo Breakwater,2.8,1.06058,1.28188,15,15,"BRIEF_SHOWERS,NIGHT_CLEAR,NIGHT_MIST,NIGHT_MOSTLY_CLOUDY,MOSTLY_CLOUDY","Onshore,Onshore,Onshore,Cross-shore,Onshore",5
5842041f4e65fad6a7708927,2024_12_15,33.70877301002487,-118.2840112858389,Cabrillo Beach,2.4,0.248,0.556,15,15,"CLEAR,NIGHT_CLEAR,NIGHT_MOSTLY_CLOUDY,NIGHT_CLOUDY,MOSTLY_CLOUDY","Cross-shore,Cross-shore,Offshore,Offshore,Offshore",5
5842041f4e65fad6a770892c,2024_12_15,33.77209986806257,-118.4268428476672,Lunada Bay,2.4,0.968,1.228,15,15,"MOSTLY_CLOUDY,NIGHT_MIST,NIGHT_CLEAR,NIGHT_MOSTLY_CLOUDY,MOSTLY_CLOUDY","Onshore,Onshore,Cross-shore,Onshore,Onshore",5
5842041f4e65fad6a770892d,2024_12_15,33.79294656286144,-118.40703,PV Cove,2.4,0.448,0.75,15,15,"MOSTLY_CLOUDY,NIGHT_FOG,NIGHT_CLEAR,NIGHT_MOSTLY_CLOUDY,MOSTLY_CLOUDY","Onshore,Onshore,Onshore,Offshore,Onshore",5
5842041f4e65fad6a7708930,2024_12_15,34.03944902292561,-118.57539,Chart House,0.6,0,0.17400000000000002,15,15,"MOSTLY_CLOUDY,NIGHT_CLEAR,NIGHT_CLEAR,NIGHT_CLEAR,CLEAR","Onshore,Offshore,Offshore,Offshore,Cross-shore",5
5842041f4e65fad6a7708936,2024_12_15,34.0016731994772,-118.80456,Point Dume,1.8,0.16084,0.461846,14,14,"OVERCAST,NIGHT_CLEAR,NIGHT_CLEAR,NIGHT_CLEAR,MIST","Cross-shore,Offshore,Offshore,Offshore,Onshore",5
5842041f4e65fad6a7708937,2024_12_15,34.02587527588963,-118.7554939066114,Latigo Point,1,0,0.258,15,15,"CLEAR,NIGHT_CLEAR,NIGHT_CLEAR,NIGHT_CLEAR,MIST","Onshore,Offshore,Offshore,Offshore,Onshore",5
5842041f4e65fad6a770893f,2024_12_15,34.043762,-118.93294,Leo Carrillo,3,0.77402,1.07986,14,14,"OVERCAST,NIGHT_CLEAR,NIGHT_CLEAR,NIGHT_CLEAR,CLEAR","Onshore,Offshore,Offshore,Offshore,Onshore",5
5842041f4e65fad6a7708941,2024_12_15,36.69388179265737,-121.81289,Marina State Beach,2.4,2.962,3.44,13,13,"MOSTLY_CLOUDY,NIGHT_CLEAR,NIGHT_MIST,NIGHT_CLEAR,CLEAR","Onshore,Onshore,Offshore,Offshore,Offshore",5
5842041f4e65fad6a7708944,2024_12_15,34.34145077331085,-119.416999352654,Stanley's,2.8,0.636,0.906,14,14,"RAIN,NIGHT_MIST,NIGHT_CLEAR,NIGHT_MOSTLY_CLEAR,CLEAR","Offshore,Onshore,Offshore,Onshore,Onshore",5
5842041f4e65fad6a7708945,2024_12_15,34.35113017313915,-119.426921498899,Oil Piers,2.6,0.636,0.906,14,14,"RAIN,NIGHT_MIST,NIGHT_CLEAR,NIGHT_MOSTLY_CLEAR,CLEAR","Offshore,Onshore,Offshore,Offshore,Onshore",5
5842041f4e65fad6a770894c,2024_12_15,34.17876333306018,-119.23995,Oxnard,2.8,0.782,1.016,15,15,"MIST,NIGHT_CLEAR,NIGHT_CLEAR,NIGHT_CLEAR,CLEAR","Offshore,Onshore,Offshore,Offshore,Cross-shore",5
5842041f4e65fad6a7708957,2024_12_15,34.31720331100517,-119.3882324751725,Pitas Point,2.6,0.494,0.798,14,14,"LIGHT_RAIN,NIGHT_MIST,NIGHT_CLEAR,NIGHT_CLEAR,CLEAR","Cross-shore,Onshore,Offshore,Cross-shore,Cross-shore",5
5842041f4e65fad6a7708959,2024_12_15,34.27851754384724,-119.3162,Emma Wood,2.8,0.864,1.074,14.6,14.6,"DRIZZLE,NIGHT_CLEAR,NIGHT_CLEAR,NIGHT_CLEAR,CLEAR","Onshore,Cross-shore,Offshore,Offshore,Onshore",5
5842041f4e65fad6a770895a,2024_12_15,34.35513640390276,-119.4400589884255,Mussel Shoals (aka Little Rincon),2.8,0.756,0.966,14,14,"MIST,NIGHT_MIST,NIGHT_CLEAR,NIGHT_CLEAR,CLEAR","Cross-shore,Onshore,Offshore,Offshore,Cross-shore",5
5842041f4e65fad6a770895e,2024_12_15,34.28991757054902,-119.3366646794652,Summer Beach,2.4,0.298,0.604,14.6,14.6,"DRIZZLE,NIGHT_MIST,NIGHT_CLEAR,NIGHT_CLEAR,CLEAR","Onshore,Onshore,Offshore,Offshore,Onshore",5
5842041f4e65fad6a770895f,2024_12_15,34.30897456105926,-119.3582501170116,Solimar,2.2,0.294,0.6,14.6,14.6,"LIGHT_RAIN,NIGHT_MOSTLY_CLEAR,NIGHT_CLEAR,NIGHT_CLEAR,CLEAR","Cross-shore,Cross-shore,Offshore,Cross-shore,Cross-shore",5
5842041f4e65fad6a7708960,2024_12_15,34.39836265281686,-119.70213,Leadbetter Point,1.4,0.004,0.266,14,14,"MIST,NIGHT_CLEAR,NIGHT_CLEAR,NIGHT_MIST,CLEAR","Onshore,Offshore,Offshore,Offshore,Offshore",5
5842041f4e65fad6a7708961,2024_12_15,34.46052293893899,-120.07328,Refugio,1.2,0.122,0.426,14,14,"MIST,NIGHT_CLEAR,NIGHT_CLEAR,NIGHT_CLEAR,CLEAR","Cross-shore,Offshore,Offshore,Offshore,Onshore",5
5842041f4e65fad6a7708962,2024_12_15,34.40754276777778,-119.87639,Devereux,2.6,0.278,0.58,14,14,"MIST,NIGHT_CLEAR,NIGHT_CLEAR,NIGHT_CLEAR,CLEAR","Onshore,Offshore,Offshore,Offshore,Onshore",5
5842041f4e65fad6a7708963,2024_12_15,34.27479983305182,-119.3133222656776,Ventura Overhead,3.2,0.87,1.082,14.6,14.6,"MIST,NIGHT_MIST,NIGHT_CLEAR,NIGHT_CLEAR,CLEAR","Onshore,Onshore,Offshore,Offshore,Onshore",5
5842041f4e65fad6a7708964,2024_12_15,34.41023236011655,-119.88261,Sands,2.4,0.264,0.57,14,14,"MIST,NIGHT_CLEAR,NIGHT_CLEAR,NIGHT_CLEAR,CLEAR","Offshore,Cross-shore,Offshore,Offshore,Offshore",5
5842041f4e65fad6a7708966,2024_12_15,34.40450193869233,-119.68752,Sandspit,1.2,0.004,0.266,14,14,"BRIEF_SHOWERS,NIGHT_CLEAR,NIGHT_CLEAR,NIGHT_CLEAR,CLEAR","Onshore,Offshore,Offshore,Offshore,Offshore",5
5842041f4e65fad6a7708967,2024_12_15,34.41549098334453,-119.6375149840203,Hammond's,2.6,0.268,0.574,14,14,"MOSTLY_CLOUDY,NIGHT_CLEAR,NIGHT_CLEAR,NIGHT_MIST,CLEAR","Onshore,Cross-shore,Offshore,Cross-shore,Cross-shore",5
5842041f4e65fad6a7708968,2024_12_15,34.45759322742309,-120.02203,El Capitan,2,0.146,0.448,14,14,"BRIEF_SHOWERS,NIGHT_CLEAR,NIGHT_CLEAR,NIGHT_CLEAR,CLEAR","Onshore,Offshore,Offshore,Offshore,Onshore",5
5842041f4e65fad6a770896c,2024_12_15,34.405117655616,-119.84317,Campus Point,2.4,0.264,0.57,14,14,"MOSTLY_CLOUDY,NIGHT_CLEAR,NIGHT_CLEAR,NIGHT_CLEAR,CLEAR","Onshore,Offshore,Cross-shore,Offshore,Onshore",5
5842041f4e65fad6a770896e,2024_12_15,34.38935162233354,-119.51955,Carpinteria State Beach,2.6,0.408,0.716,14,14,"MIST,NIGHT_MOSTLY_CLEAR,NIGHT_CLEAR,NIGHT_CLEAR,CLEAR","Onshore,Onshore,Offshore,Offshore,Onshore",5
5842041f4e65fad6a770896f,2024_12_15,37.48296565175612,-122.45493,Half Moon Bay,2.6,2.206,2.638,12,12,"CLEAR,NIGHT_CLEAR,NIGHT_CLEAR,NIGHT_CLEAR,CLEAR","Onshore,Cross-shore,Cross-shore,Offshore,Offshore",5
5842041f4e65fad6a7708970,2024_12_15,37.499,-122.471,Princeton Jetty,2.8,2.208,2.588,12,12,"CLEAR,NIGHT_MOSTLY_CLOUDY,NIGHT_BRIEF_SHOWERS,NIGHT_MOSTLY_CLEAR,CLEAR","Onshore,Offshore,Offshore,Offshore,Offshore",5
5842041f4e65fad6a7708972,2024_12_15,37.35699547365155,-122.4069534707252,Tunitas Creek,2.2,3.8080000000000003,4.4399999999999995,12,12,"BRIEF_SHOWERS,NIGHT_MOSTLY_CLOUDY,NIGHT_MOSTLY_CLOUDY,NIGHT_MOSTLY_CLEAR,CLEAR","Onshore,Offshore,Offshore,Offshore,Cross-shore",5
5842041f4e65fad6a7708974,2024_12_15,37.54735589428842,-122.51611,Montara,2,3.02,3.504,12,12,"MOSTLY_CLEAR,NIGHT_MOSTLY_CLOUDY,NIGHT_MOSTLY_CLOUDY,NIGHT_CLEAR,CLEAR","Onshore,Onshore,Onshore,Offshore,Cross-shore",5
5842041f4e65fad6a7708975,2024_12_15,34.3869373724559,-119.5142334209018,Tarpits,2.4,0.44,0.748,14,14,"OVERCAST,NIGHT_MOSTLY_CLEAR,NIGHT_CLEAR,NIGHT_CLEAR,CLEAR","Cross-shore,Cross-shore,Offshore,Offshore,Onshore",5
5842041f4e65fad6a7708976,2024_12_15,37.59881852720143,-122.50463,Linda Mar,2.8666666666666667,1.300694,1.684566,12,12,"CLEAR,NIGHT_CLEAR,NIGHT_MOSTLY_CLEAR,NIGHT_MOSTLY_CLEAR,MOSTLY_CLOUDY","Onshore,Onshore,Onshore,Offshore,Offshore",5
5842041f4e65fad6a7708978,2024_12_15,37.59883098461164,-122.5143843582282,Pedro Point,2.2,2.828,3.378,12,12,"CLEAR,NIGHT_MOSTLY_CLEAR,NIGHT_MOSTLY_CLOUDY,NIGHT_CLEAR,MOSTLY_CLEAR","Onshore,Onshore,Onshore,Offshore,Cross-shore",5
5842041f4e65fad6a7708979,2024_12_15,37.61081996647663,-122.49733,Rockaway,2.6,2.956,3.342,12,12,"CLEAR,NIGHT_MOSTLY_CLEAR,NIGHT_MOSTLY_CLEAR,NIGHT_MOSTLY_CLEAR,MOSTLY_CLOUDY","Onshore,Onshore,Cross-shore,Offshore,Offshore",5
5842041f4e65fad6a770897a,2024_12_15,37.809987384424446,-122.47514,Fort Point,3.4,1.8079999999999998,2.144,12,12,"CLEAR,NIGHT_CLEAR,NIGHT_CLEAR,NIGHT_CLEAR,MOSTLY_CLEAR","Cross-shore,Cross-shore,Cross-shore,Offshore,Offshore",5
5842041f4e65fad6a770897c,2024_12_15,37.63422542967464,-122.4951,Sharp Park,2.4,3.038,3.55,12,12,"CLEAR,NIGHT_CLEAR,NIGHT_CLEAR,NIGHT_MOSTLY_CLEAR,MOSTLY_CLOUDY","Onshore,Onshore,Cross-shore,Offshore,Offshore",5
5842041f4e65fad6a770897d,2024_12_15,37.27313605072472,-122.4127387912554,Pescadero,1.8,3.604,4.2299999999999995,12,12,"CLEAR,NIGHT_MOSTLY_CLOUDY,NIGHT_CLEAR,NIGHT_CLEAR,CLEAR","Onshore,Cross-shore,Cross-shore,Cross-shore,Onshore",5
5842041f4e65fad6a770897e,2024_12_15,37.18140279972666,-122.3926685899327,Pigeon Point,3.2,3.556,4.156,12,12,"MOSTLY_CLOUDY,NIGHT_MOSTLY_CLOUDY,NIGHT_CLEAR,NIGHT_MOSTLY_CLEAR,CLEAR","Cross-shore,Offshore,Offshore,Offshore,Offshore",5
5842041f4e65fad6a770897f,2024_12_15,37.11578956919415,-122.314699271291,Ano Nuevo,3.6,2.762,3.3000000000000003,12,12,"MOSTLY_CLOUDY,NIGHT_MOSTLY_CLOUDY,NIGHT_CLEAR,NIGHT_CLEAR,CLEAR","Offshore,Offshore,Offshore,Offshore,Offshore",5
5842041f4e65fad6a7708980,2024_12_15,37.09520872681598,-122.2805474707768,Waddell Creek,2.8,2.91,3.47,12,12,"MOSTLY_CLOUDY,NIGHT_CLEAR,NIGHT_CLEAR,NIGHT_CLEAR,CLEAR","Cross-shore,Offshore,Offshore,Offshore,Cross-shore",5
5842041f4e65fad6a7708981,2024_12_15,36.96512852130351,-122.1252825495626,Four Mile,3.6,2.944,3.496,12,12,"CLEAR,NIGHT_CLEAR,NIGHT_CLEAR,NIGHT_CLEAR,CLEAR","Cross-shore,Offshore,Offshore,Offshore,Onshore",5
5842041f4e65fad6a7708982,2024_12_15,37.04122807048655,-122.23337,Scott Creek,2.8,2.814,3.326,12,12,"MOSTLY_CLOUDY,NIGHT_CLEAR,NIGHT_CLEAR,NIGHT_CLEAR,CLEAR","Cross-shore,Offshore,Offshore,Offshore,Onshore",5
5842041f4e65fad6a7708983,2024_12_15,37.02350229387179,-122.21908,Davenport,3.4,3.06,3.622,12,12,"MOSTLY_CLOUDY,NIGHT_CLEAR,NIGHT_CLEAR,NIGHT_CLEAR,CLEAR","Cross-shore,Offshore,Offshore,Offshore,Onshore",5
5842041f4e65fad6a7708986,2024_12_15,36.94905295955728,-122.06118,Natural Bridges,3.2,2.646,3.166,12.6,12.6,"MOSTLY_CLOUDY,NIGHT_CLEAR,NIGHT_CLEAR,NIGHT_CLEAR,CLEAR","Cross-shore,Offshore,Offshore,Offshore,Cross-shore",5
5842041f4e65fad6a7708987,2024_12_15,36.95154854910425,-122.04207,Mitchell's Cove,3.6,1.764,2.112,12.6,12.6,"CLEAR,NIGHT_CLEAR,NIGHT_MIST,NIGHT_CLEAR,CLEAR","Cross-shore,Offshore,Offshore,Offshore,Offshore",5
5842041f4e65fad6a770898a,2024_12_15,36.9572312370203,-121.98177,26th Ave,2.8,2.248,2.6879999999999997,12.6,12.6,"MOSTLY_CLOUDY,NIGHT_CLEAR,NIGHT_CLEAR,NIGHT_CLEAR,CLEAR","Onshore,Offshore,Cross-shore,Offshore,Onshore",5
5842041f4e65fad6a770898e,2024_12_15,36.91899972819882,-121.85536,Manresa,2.8,2.778,3.074,13,13,"CLEAR,NIGHT_CLEAR,NIGHT_CLEAR,NIGHT_CLEAR,CLEAR","Onshore,Offshore,Offshore,Offshore,Cross-shore",5
5842041f4e65fad6a7708990,2024_12_15,34.45747731928454,-120.34242,The Ranch,3,0.832,1.066,14,14,"BRIEF_SHOWERS,NIGHT_CLEAR,NIGHT_CLEAR,NIGHT_CLEAR,CLEAR","Offshore,Offshore,Offshore,Offshore,Onshore",5
5842041f4e65fad6a7708991,2024_12_15,34.50875036590315,-120.50348,Jalama,3,1.754,2.0340000000000003,14,14,"CLEAR,NIGHT_CLEAR,NIGHT_CLEAR,NIGHT_CLEAR,CLEAR","Offshore,Offshore,Offshore,Offshore,Offshore",5
5842041f4e65fad6a7708996,2024_12_15,34.68700870220497,-120.6111611019887,Surf Beach,2,3.776,4.465999999999999,14,14,"MOSTLY_CLOUDY,NIGHT_MOSTLY_CLEAR,NIGHT_CLEAR,NIGHT_CLEAR,CLEAR","Onshore,Cross-shore,Cross-shore,Cross-shore,Cross-shore",5
5842041f4e65fad6a770899c,2024_12_15,35.5730538161116,-121.1143362345574,Moonstone,3.2,2.884,3.384,13.4,13.4,"MOSTLY_CLEAR,NIGHT_CLEAR,NIGHT_CLEAR,NIGHT_CLEAR,CLEAR","Onshore,Offshore,Offshore,Offshore,Onshore",5
5842041f4e65fad6a770899d,2024_12_15,35.61533716776573,-121.1502053073914,Pico Creek,3.2,2.35,2.794,13,13,"CLEAR,NIGHT_CLEAR,NIGHT_CLEAR,NIGHT_CLEAR,CLEAR","Onshore,Offshore,Offshore,Offshore,Offshore",5
5842041f4e65fad6a770899e,2024_12_15,35.56829031927379,-121.11207,Santa Rosa Creek,3.4,2.884,3.384,13.4,13.4,"MOSTLY_CLEAR,NIGHT_CLEAR,NIGHT_CLEAR,NIGHT_CLEAR,CLEAR","Cross-shore,Offshore,Offshore,Offshore,Offshore",5
5842041f4e65fad6a77089a2,2024_12_15,35.44820114936284,-120.90715,"Cayucos Pier, Southside",3.2,1.04416,1.325992,14,14,"MOSTLY_CLEAR,NIGHT_CLEAR,NIGHT_CLEAR,NIGHT_CLEAR,CLEAR","Cross-shore,Offshore,Offshore,Offshore,Offshore",5
5842041f4e65fad6a77089a4,2024_12_15,35.30143372628852,-120.877819239902,Cable Landing,3,4.156,4.776,14,14,"MOSTLY_CLOUDY,NIGHT_CLEAR,NIGHT_CLEAR,NIGHT_CLEAR,CLEAR","Onshore,Onshore,Offshore,Offshore,Offshore",5
5842041f4e65fad6a77089a9,2024_12_15,35.61269103500222,-121.14807,San Simeon,3.4,1.5316,1.8214000000000001,13,13,"MOSTLY_CLEAR,NIGHT_CLEAR,NIGHT_CLEAR,NIGHT_CLEAR,CLEAR","Cross-shore,Offshore,Offshore,Offshore,Offshore",5
5842041f4e65fad6a77089ab,2024_12_15,35.1775325966252,-120.73411,Avila Beach,1.6,0.066,0.354,14,14,"CLEAR,NIGHT_CLEAR,NIGHT_CLEAR,NIGHT_CLEAR,CLEAR","Cross-shore,Offshore,Offshore,Offshore,Offshore",5
5842041f4e65fad6a77089ac,2024_12_15,35.13877877884115,-120.64535,Pismo Beach Pier,3,1.666812,2.129012,12,12,"MOSTLY_CLOUDY,NIGHT_CLEAR,NIGHT_CLEAR,NIGHT_CLEAR,CLEAR","Onshore,Cross-shore,Offshore,Offshore,Onshore",5
5842041f4e65fad6a77089ad,2024_12_15,46.8907710233147,-124.12964,Westport/Olympic Peninsula,1.4,3.274,3.806,10,10,"CLEAR,NIGHT_BRIEF_SHOWERS,NIGHT_MOSTLY_CLOUDY,NIGHT_MOSTLY_CLEAR,MOSTLY_CLEAR","Onshore,Onshore,Onshore,Onshore,Cross-shore",5
5842041f4e65fad6a77089ae,2024_12_15,46.35185177248545,-124.06747,Long Beach Peninsula,0.6,4.48,5.036,10,10,"CLEAR,NIGHT_MOSTLY_CLOUDY,NIGHT_MOSTLY_CLOUDY,NIGHT_BRIEF_SHOWERS,MOSTLY_CLEAR","Onshore,Onshore,Onshore,Onshore,Offshore",5
5842041f4e65fad6a77089af,2024_12_15,47.90649175554033,-124.63709,La Push,1.6,3.678,4.25,10,10,"CLOUDY,NIGHT_MOSTLY_CLOUDY,NIGHT_MOSTLY_CLEAR,NIGHT_CLEAR,BRIEF_SHOWERS","Onshore,Onshore,Onshore,Offshore,Offshore",5
5842041f4e65fad6a77089b0,2024_12_15,42.04368239985442,-124.26828,Brookings Jetty,2.2,2.103246,2.440286,11,11,"CLEAR,NIGHT_FOG,NIGHT_MOSTLY_CLOUDY,NIGHT_CLEAR,CLEAR","Cross-shore,Onshore,Onshore,Cross-shore,Onshore",5
5842041f4e65fad6a77089b1,2024_12_15,42.74071837900346,-124.4983727491047,Port Orford,1.6,2.478,2.96,11,11,"BRIEF_SHOWERS,NIGHT_DRIZZLE,NIGHT_MOSTLY_CLEAR,NIGHT_CLEAR,CLEAR","Offshore,Onshore,Onshore,Onshore,Onshore",5
5842041f4e65fad6a77089b2,2024_12_15,44.01532689312291,-124.13865,Florence South Jetty,1.6,4.288,4.8660000000000005,11,11,"MOSTLY_CLOUDY,NIGHT_CLEAR,NIGHT_MOSTLY_CLOUDY,NIGHT_BRIEF_SHOWERS,CLEAR","Onshore,Onshore,Onshore,Cross-shore,Cross-shore",5
5842041f4e65fad6a77089b3,2024_12_15,42.41812540774362,-124.42945,Gold Beach South Jetty,1.6,3.42,3.92,11,11,"SHOWERS,NIGHT_MOSTLY_CLOUDY,NIGHT_SHOWERS,NIGHT_CLEAR,CLEAR","Cross-shore,Onshore,Onshore,Onshore,Onshore",5
5842041f4e65fad6a77089b4,2024_12_15,44.95857310226525,-124.0219,Lincoln City,1.4,4.2620000000000005,4.786,11,11,"CLEAR,NIGHT_LIGHT_SHOWERS_POSSIBLE,NIGHT_CLEAR,NIGHT_SHOWERS,CLOUDY","Onshore,Onshore,Onshore,Onshore,Offshore",5
5842041f4e65fad6a77089b5,2024_12_15,44.63792761362982,-124.0657,Newport,2.2,4.508,5.14,11,11,"CLOUDY,NIGHT_CLEAR,NIGHT_MOSTLY_CLOUDY,NIGHT_CLEAR,CLEAR","Onshore,Cross-shore,Onshore,Cross-shore,Offshore",5
5842041f4e65fad6a77089b6,2024_12_15,45.61468496266301,-123.94643,Rockaway Beach,1.6,4.388,4.978,11,11,"MOSTLY_CLOUDY,NIGHT_MOSTLY_CLOUDY,NIGHT_MOSTLY_CLOUDY,NIGHT_CLEAR,MOSTLY_CLOUDY","Onshore,Onshore,Onshore,Onshore,Offshore",5
5842041f4e65fad6a77089b7,2024_12_15,45.20252914186085,-123.96975,Pacific City,1.4,3.864,4.332,11,11,"MOSTLY_CLOUDY,NIGHT_MOSTLY_CLOUDY,NIGHT_MOSTLY_CLOUDY,NIGHT_MOSTLY_CLEAR,OVERCAST","Onshore,Onshore,Onshore,Onshore,Cross-shore",5
5842041f4e65fad6a77089b8,2024_12_15,45.88179930310263,-123.96681,Cannon Beach,1.4,4.374,4.91,10.4,10.4,"MOSTLY_CLOUDY,NIGHT_CLEAR,NIGHT_MOSTLY_CLOUDY,NIGHT_MOSTLY_CLOUDY,MOSTLY_CLEAR","Onshore,Onshore,Onshore,Onshore,Cross-shore",5
5842041f4e65fad6a77089ba,2024_12_15,40.02528754746774,-124.06372,Shelter Cove,2.8,1.104902,1.318756,12,12,"SHOWERS,NIGHT_BRIEF_SHOWERS,NIGHT_CLEAR,NIGHT_CLEAR,CLOUDY","Offshore,Offshore,Cross-shore,Offshore,Onshore",5
5842041f4e65fad6a77089bb,2024_12_15,40.76816197136951,-124.24248,Humboldt Harbor Entrance,3,3.996,4.688,12,12,"CLEAR,NIGHT_MOSTLY_CLEAR,NIGHT_MOSTLY_CLEAR,NIGHT_CLEAR,CLEAR","Onshore,Offshore,Offshore,Offshore,Offshore",5
5842041f4e65fad6a77089bc,2024_12_15,40.76684246920174,-124.23107,North Jetty,2.6,4.952,5.638,12,12,"MOSTLY_CLOUDY,NIGHT_CLEAR,NIGHT_CLEAR,NIGHT_CLEAR,CLEAR","Onshore,Offshore,Offshore,Offshore,Offshore",5
5842041f4e65fad6a77089be,2024_12_15,41.13016238153297,-124.16466,Sue-meg,2.6,3.982,4.636,11.4,11.4,"MOSTLY_CLOUDY,NIGHT_CLEAR,NIGHT_MOSTLY_CLEAR,NIGHT_CLEAR,CLEAR","Onshore,Onshore,Offshore,Offshore,Offshore",5
5842041f4e65fad6a77089bf,2024_12_15,37.8289474958188,-122.53768,Fort Cronkite/Rodeo Beach,2.4,3.058,3.638,12,12,"CLEAR,NIGHT_CLEAR,NIGHT_CLEAR,NIGHT_CLEAR,CLEAR","Cross-shore,Cross-shore,Offshore,Offshore,Cross-shore",5
5842041f4e65fad6a77089c0,2024_12_15,41.74415759876137,-124.17717,South Beach CA,2.6,2.04,2.436,11,11,"BRIEF_SHOWERS,NIGHT_CLEAR,NIGHT_MOSTLY_CLOUDY,NIGHT_CLEAR,CLEAR","Cross-shore,Onshore,Onshore,Onshore,Onshore",5
5842041f4e65fad6a77089c1,2024_12_15,37.89801283969752,-122.64519,Stinson Beach,3.6,1.236,1.478,12,12,"MIST,NIGHT_MIST,NIGHT_CLEAR,NIGHT_CLEAR,MOSTLY_CLEAR","Offshore,Offshore,Offshore,Offshore,Offshore",5
5842041f4e65fad6a77089c2,2024_12_15,37.90514516176495,-122.68151,Bolinas,3.8,1.049166,1.286712,12,12,"MOSTLY_CLEAR,NIGHT_CLEAR,NIGHT_CLEAR,NIGHT_CLEAR,CLEAR","Offshore,Offshore,Offshore,Offshore,Offshore",5
5842041f4e65fad6a77089c3,2024_12_15,38.04892513158693,-122.98925,Point Reyes (north),1.4,4.328,4.998,12,12,"CLEAR,NIGHT_CLEAR,NIGHT_CLEAR,NIGHT_CLEAR,MOSTLY_CLOUDY","Onshore,Onshore,Onshore,Offshore,Cross-shore",5
5842041f4e65fad6a77089c6,2024_12_15,38.31088736605785,-123.0496777333731,Doran Beach,2.8,0.908,1.1400000000000001,13,13,"MOSTLY_CLEAR,NIGHT_MOSTLY_CLEAR,NIGHT_CLEAR,NIGHT_CLEAR,CLEAR","Offshore,Offshore,Offshore,Cross-shore,Onshore",5
5842041f4e65fad6a77089c7,2024_12_15,38.45077228660809,-123.13008,Russian Rivermouth,2.8,3.134,3.696,13,13,"MOSTLY_CLEAR,NIGHT_CLEAR,NIGHT_CLEAR,NIGHT_CLEAR,MOSTLY_CLEAR","Onshore,Offshore,Offshore,Offshore,Offshore",5
5842041f4e65fad6a77089c8,2024_12_15,38.35329968518107,-123.06906,Salmon Creek,2.2,3.226,3.85,13,13,"BRIEF_SHOWERS_POSSIBLE,NIGHT_CLEAR,NIGHT_CLEAR,NIGHT_CLEAR,CLEAR","Onshore,Cross-shore,Cross-shore,Offshore,Onshore",5
5842041f4e65fad6a77089c9,2024_12_15,38.6845180197959,-123.4322714291198,Black Point Beach,2.6,2.094,2.48,13,13,"CLEAR,NIGHT_CLEAR,NIGHT_CLEAR,NIGHT_CLEAR,MOSTLY_CLOUDY","Onshore,Onshore,Cross-shore,Offshore,Offshore",5
5842041f4e65fad6a77089ca,2024_12_15,43.251076,-70.59144,Ogunquit,1.9333333333333333,0.268714,0.57336,8,7,"NIGHT_CLEAR,NIGHT_CLEAR,NIGHT_CLEAR,CLEAR,MOSTLY_CLOUDY","Offshore,Cross-shore,Cross-shore,Cross-shore,Cross-shore",5
5842041f4e65fad6a77089cb,2024_12_15,41.362631366305415,-71.48007,Point Judith,1.28,0.252518,0.556014,9,8,"NIGHT_CLEAR,NIGHT_CLEAR,NIGHT_CLEAR,CLEAR,CLEAR","Offshore,Cross-shore,Offshore,Cross-shore,Onshore",5
5842041f4e65fad6a77089cd,2024_12_15,41.422678090954726,-71.45413,Monahan's - Narragansett,1.2,0.11752800000000001,0.413306,9,9,"NIGHT_CLEAR,NIGHT_CLEAR,NIGHT_CLEAR,CLEAR,CLEAR","Cross-shore,Cross-shore,Cross-shore,Cross-shore,Cross-shore",5
5842041f4e65fad6a77089ce,2024_12_15,41.469,-71.293,Ruggles - Newport,2.4,0.194588,0.540268,9,9,"NIGHT_CLEAR,NIGHT_CLEAR,NIGHT_CLEAR,CLEAR,CLEAR","Offshore,Offshore,Offshore,Offshore,Cross-shore",5
5842041f4e65fad6a77089cf,2024_12_15,43.175394,-70.606351,Short Sands Beach,2.2,0.41600000000000004,0.722,7.6,7.6,"NIGHT_CLEAR,NIGHT_CLEAR,NIGHT_CLEAR,CLEAR,CLEAR","Offshore,Cross-shore,Cross-shore,Cross-shore,Cross-shore",5
5842041f4e65fad6a77089d0,2024_12_15,41.487408,-71.29017,First Beach,2,0.2,0.508,9,9,"NIGHT_CLEAR,NIGHT_CLEAR,NIGHT_CLEAR,CLEAR,CLEAR","Offshore,Offshore,Offshore,Offshore,Onshore",5
5842041f4e65fad6a77089d1,2024_12_15,42.27916830233153,-70.86498,Nantasket Beach,0.9333333333333333,0.002334,0.256708,9,8,"NIGHT_CLEAR,NIGHT_CLEAR,NIGHT_CLEAR,MOSTLY_CLOUDY,CLEAR","Onshore,Onshore,Onshore,Cross-shore,Offshore",5
5842041f4e65fad6a77089d2,2024_12_15,41.817,-69.935,Cape Cod,1.6,0.306,0.61,8.6,8.6,"NIGHT_MOSTLY_CLOUDY,NIGHT_MOSTLY_CLOUDY,NIGHT_CLEAR,CLOUDY,CLOUDY","Cross-shore,Cross-shore,Cross-shore,Onshore,Onshore",5
5842041f4e65fad6a77089d3,2024_12_15,42.22055448975661,-70.70634873403819,Egypt Beach,1.2,0.02,0.312,8,8,"NIGHT_CLEAR,NIGHT_CLEAR,NIGHT_MOSTLY_CLEAR,CLOUDY,CLEAR","Cross-shore,Cross-shore,Cross-shore,Onshore,Offshore",5
5842041f4e65fad6a77089d4,2024_12_15,41.48739647744607,-71.25723,Second Beach,1.6,0.217078,0.482902,9,8,"NIGHT_CLEAR,NIGHT_CLEAR,NIGHT_CLEAR,CLEAR,CLEAR","Offshore,Offshore,Offshore,Offshore,Cross-shore",5
5842041f4e65fad6a77089d5,2024_12_15,42.964,-70.769,Fox Hill,2.1333333333333333,0.218212,0.528692,8,7,"NIGHT_CLEAR,NIGHT_CLEAR,NIGHT_CLEAR,CLEAR,CLEAR","Offshore,Offshore,Cross-shore,Offshore,Offshore",5
5842041f4e65fad6a77089d6,2024_12_15,42.991359,-70.75149,Straws Point,2.1333333333333333,0.190712,0.502026,8,7,"NIGHT_CLEAR,NIGHT_CLEAR,NIGHT_CLEAR,CLEAR,CLEAR","Offshore,Offshore,Offshore,Offshore,Offshore",5
5842041f4e65fad6a77089d7,2024_12_15,42.946,-70.786,Plaice Cove,1.9333333333333333,0.218212,0.528692,8,7,"NIGHT_CLEAR,NIGHT_CLEAR,NIGHT_CLEAR,CLEAR,CLEAR","Offshore,Offshore,Cross-shore,Cross-shore,Cross-shore",5
5842041f4e65fad6a77089d9,2024_12_15,42.911574,-70.80831,The Main Beach,1.6466666666666667,0.20131,0.510566,8,7,"NIGHT_CLEAR,NIGHT_CLEAR,NIGHT_CLEAR,CLEAR,CLEAR","Offshore,Offshore,Offshore,Offshore,Offshore",5
5842041f4e65fad6a77089da,2024_12_15,42.97583846220203,-70.764,Sawyer's Beach,1.9333333333333333,0.239048,0.543528,8,7,"NIGHT_CLEAR,NIGHT_CLEAR,NIGHT_CLEAR,CLEAR,CLEAR","Offshore,Offshore,Cross-shore,Offshore,Offshore",5
5842041f4e65fad6a77089db,2024_12_15,42.97,-70.77,Rye on the Rocks / 5-0's,1.9133333333333333,0.232722,0.531504,8,7,"NIGHT_CLEAR,NIGHT_CLEAR,NIGHT_CLEAR,CLEAR,CLEAR","Offshore,Offshore,Cross-shore,Offshore,Offshore",5
5842041f4e65fad6a77089dc,2024_12_15,43.55902946610303,-70.27795,Higgins Beach,2,0.292634,0.597686,8,7,"NIGHT_CLEAR,NIGHT_CLEAR,NIGHT_CLEAR,CLEAR,CLEAR","Offshore,Offshore,Offshore,Offshore,Onshore",5
5842041f4e65fad6a77089dd,2024_12_15,43.302676,-70.5652,Wells Beach,1.9333333333333333,0.260214,0.565526,8,7,"NIGHT_CLEAR,NIGHT_CLEAR,NIGHT_CLEAR,CLEAR,MOSTLY_CLOUDY","Offshore,Cross-shore,Cross-shore,Cross-shore,Offshore",5
5842041f4e65fad6a77089de,2024_12_15,43.545359,-70.30479,Scarborough Beach State Park,2.1333333333333333,0.22231599999999999,0.560198,8,7,"NIGHT_CLEAR,NIGHT_CLEAR,NIGHT_CLEAR,CLEAR,CLEAR","Offshore,Offshore,Offshore,Offshore,Onshore",5
5842041f4e65fad6a77089df,2024_12_15,43.514481,-70.37215,Old Orchard Beach,1.6466666666666667,0.207316,0.510296,8,7,"NIGHT_CLEAR,NIGHT_CLEAR,NIGHT_CLEAR,CLEAR,CLEAR","Offshore,Offshore,Offshore,Offshore,Onshore",5
5842041f4e65fad6a77089e0,2024_12_15,43.34711,-70.48165,Gooch's Beach,2,0.251714,0.55486,8,7,"NIGHT_CLEAR,NIGHT_CLEAR,NIGHT_CLEAR,CLEAR,CLEAR","Offshore,Offshore,Offshore,Offshore,Onshore",5
5842041f4e65fad6a77089e2,2024_12_15,40.58433,-73.62953,Lido Beach,1.2466666666666666,0.37741399999999997,0.7158599999999999,9,8,"NIGHT_CLEAR,NIGHT_CLEAR,NIGHT_CLEAR,MOSTLY_CLOUDY,CLOUDY","Offshore,Offshore,Cross-shore,Cross-shore,Cross-shore",5
5842041f4e65fad6a77089e3,2024_12_15,43.163135,-70.61689,Long Sands Beach,1.6466666666666667,0.201844,0.5029239999999999,8,7,"NIGHT_CLEAR,NIGHT_CLEAR,NIGHT_CLEAR,CLEAR,MOSTLY_CLOUDY","Offshore,Offshore,Offshore,Offshore,Offshore",5
5842041f4e65fad6a77089e4,2024_12_15,40.61695351251805,-73.39376,Gilgo Beach,1.6,0.256974,0.555786,9,8,"NIGHT_CLEAR,NIGHT_CLEAR,NIGHT_CLEAR,CLEAR,CLOUDY","Offshore,Cross-shore,Offshore,Offshore,Cross-shore",5
5842041f4e65fad6a77089e5,2024_12_15,40.62530081928036,-73.23827,Robert Moses,1,0.248,0.55,9.6,9.6,"NIGHT_CLEAR,NIGHT_CLEAR,NIGHT_CLEAR,CLEAR,CLOUDY","Offshore,Offshore,Offshore,Cross-shore,Cross-shore",5
5842041f4e65fad6a77089e6,2024_12_15,40.64313317632791,-73.15727,Fire Island,1,0.242,0.546,9,9,"NIGHT_CLEAR,NIGHT_CLEAR,NIGHT_CLEAR,CLEAR,CLEAR","Offshore,Offshore,Offshore,Cross-shore,Cross-shore",5
5842041f4e65fad6a77089e8,2024_12_15,40.76653118828782,-72.7458,Cupsogue,2.6,0.728,0.994,9,9,"NIGHT_CLEAR,NIGHT_CLEAR,NIGHT_CLEAR,CLEAR,CLOUDY","Offshore,Offshore,Offshore,Cross-shore,Cross-shore",5
5842041f4e65fad6a77089e9,2024_12_15,42.9376373334092,-70.79141,The Wall,1.6333333333333333,0.42449400000000004,0.736144,8,7,"NIGHT_CLEAR,NIGHT_CLEAR,NIGHT_CLEAR,CLEAR,CLEAR","Offshore,Cross-shore,Onshore,Cross-shore,Cross-shore",5
5842041f4e65fad6a77089ea,2024_12_15,40.887088,-72.33856,Flys,2.4,0.638,0.906,9.6,9.6,"NIGHT_CLEAR,NIGHT_CLEAR,NIGHT_MOSTLY_CLOUDY,CLEAR,CLEAR","Offshore,Offshore,Offshore,Offshore,Offshore",5
5842041f4e65fad6a77089eb,2024_12_15,41.0389266436591,-71.91068529316958,Trailer Park,1.2866666666666666,0.300408,0.642072,9,8,"NIGHT_CLEAR,NIGHT_CLEAR,NIGHT_CLEAR,CLEAR,OVERCAST","Offshore,Offshore,Cross-shore,Cross-shore,Cross-shore",5
5842041f4e65fad6a77089ec,2024_12_15,41.039505402729105,-71.9142,Ditch Plains,1.2,0.410576,0.753842,9.6,9.6,"NIGHT_CLEAR,NIGHT_CLEAR,NIGHT_MOSTLY_CLOUDY,CLEAR,CLOUDY","Offshore,Cross-shore,Cross-shore,Cross-shore,Cross-shore",5
5842041f4e65fad6a77089ee,2024_12_15,40.57633275206492,-73.56895305108567,"West End, Jones Beach",1.5333333333333334,0.33814,0.670892,9,8,"NIGHT_CLEAR,NIGHT_CLEAR,NIGHT_CLEAR,MOSTLY_CLOUDY,CLOUDY","Offshore,Offshore,Offshore,Cross-shore,Cross-shore",5
5842041f4e65fad6a77089f1,2024_12_15,41.038286691230795,-71.91991567611694,Poles,1.3666666666666667,0.3109,0.653694,9,8,"NIGHT_CLEAR,NIGHT_CLEAR,NIGHT_CLEAR,CLEAR,OVERCAST","Offshore,Offshore,Cross-shore,Cross-shore,Cross-shore",5
5842041f4e65fad6a77089f3,2024_12_15,40.84077769766295,-72.47989493724765,The Bowl,2.6,0.79,1.026,9,9,"NIGHT_CLEAR,NIGHT_CLEAR,NIGHT_CLEAR,MOSTLY_CLOUDY,OVERCAST","Offshore,Offshore,Cross-shore,Offshore,Cross-shore",5
5842041f4e65fad6a77089f4,2024_12_15,40.94235535243154,-72.19286,Main Beach,1.9333333333333333,0.428026,0.736674,15,14,"NIGHT_CLEAR,NIGHT_CLEAR,NIGHT_MOSTLY_CLOUDY,MOSTLY_CLOUDY,MOSTLY_CLOUDY","Offshore,Offshore,Offshore,Offshore,Offshore",5
5842041f4e65fad6a77089f5,2024_12_15,40.58270702399518,-73.67251552079799,Laurelton Blvd.,1.0696969696969696,0.388026,0.687334,9,8,"NIGHT_CLEAR,NIGHT_CLEAR,NIGHT_CLEAR,MOSTLY_CLOUDY,MIST","Offshore,Offshore,Offshore,Offshore,Offshore",5
5842041f4e65fad6a77089f6,2024_12_15,41.033752854071416,-71.93696,Terrace,1.5333333333333332,0.441486,0.833038,9,8,"NIGHT_CLEAR,NIGHT_CLEAR,NIGHT_MOSTLY_CLOUDY,CLEAR,MIST","Offshore,Offshore,Cross-shore,Cross-shore,Cross-shore",5
5842041f4e65fad6a77089f7,2024_12_15,40.83372943645748,-72.50426173210144,K Road,2.8,0.886,1.124,9,9,"NIGHT_CLEAR,NIGHT_CLEAR,NIGHT_MOSTLY_CLOUDY,MOSTLY_CLOUDY,CLOUDY","Offshore,Offshore,Cross-shore,Cross-shore,Cross-shore",5
5842041f4e65fad6a77089f8,2024_12_15,40.58456099581507,-73.80730032920837,84th Street,1.18,0.36432000000000003,0.63824,9,8,"NIGHT_CLEAR,NIGHT_CLEAR,NIGHT_MOSTLY_CLEAR,MOSTLY_CLOUDY,CLOUDY","Offshore,Offshore,Offshore,Offshore,Cross-shore",5
5842041f4e65fad6a77089fa,2024_12_15,40.1319,-74.02788,Sea Girt,1.8333333333333333,0.495386,0.768386,7.8,7.2,"NIGHT_CLEAR,NIGHT_CLEAR,NIGHT_OVERCAST,DRIZZLE,CLOUDY","Cross-shore,Onshore,Cross-shore,Offshore,Onshore",5
5842041f4e65fad6a77089fb,2024_12_15,40.54698301868125,-73.9268,Breezy Point,2,0.20400000000000001,0.508,9.6,9.6,"NIGHT_CLEAR,NIGHT_CLEAR,NIGHT_CLEAR,CLOUDY,OVERCAST","Offshore,Offshore,Offshore,Offshore,Offshore",5
5842041f4e65fad6a77089fc,2024_12_15,40.152504,-74.02138,Spring Lake,1.6333333333333333,0.42522,0.7597200000000001,7.8,7.2,"NIGHT_CLEAR,NIGHT_CLEAR,NIGHT_CLOUDY,OVERCAST,CLOUDY","Offshore,Onshore,Onshore,Offshore,Onshore",5
5842041f4e65fad6a77089fd,2024_12_15,40.591277,-73.770792,30th - 39th Streets,1.9333333333333333,0.29314,0.599286,9,8,"NIGHT_MIST,NIGHT_CLEAR,NIGHT_CLEAR,MOSTLY_CLOUDY,MIST","Offshore,Offshore,Offshore,Offshore,Cross-shore",5
5842041f4e65fad6a77089fe,2024_12_15,40.18834955871439,-74.00860982500222,Avon,1.6333333333333333,0.423386,0.7565540000000001,7.8,7.2,"NIGHT_CLEAR,NIGHT_CLEAR,NIGHT_CLOUDY,OVERCAST,CLOUDY","Offshore,Onshore,Onshore,Offshore,Onshore",5
5842041f4e65fad6a77089ff,2024_12_15,40.1974229100932,-74.00650533798255,Bradley Beach,1.5666666666666667,0.347886,0.681386,7.8,7.2,"NIGHT_CLEAR,NIGHT_CLEAR,NIGHT_CLOUDY,OVERCAST,CLOUDY","Offshore,Onshore,Onshore,Offshore,Onshore",5
5842041f4e65fad6a7708a01,2024_12_15,40.17202,-74.01503,"16th Ave., Belmar",0.5166666666666666,0.35648,0.689376,7.8,7.2,"NIGHT_CLEAR,NIGHT_CLEAR,NIGHT_CLOUDY,OVERCAST,CLOUDY","Offshore,Onshore,Onshore,Offshore,Onshore",5
5842041f4e65fad6a7708a02,2024_12_15,40.217443,-73.99982,Asbury Park,1.4333333333333333,0.360886,0.730386,7.8,7.2,"NIGHT_CLEAR,NIGHT_CLEAR,NIGHT_CLOUDY,OVERCAST,CLOUDY","Offshore,Onshore,Onshore,Offshore,Onshore",5
5842041f4e65fad6a7708a03,2024_12_15,40.229841,-73.99678,Loch Arbour and Deal,1.2,0.417554,0.750054,7.8,7.2,"NIGHT_CLEAR,NIGHT_CLEAR,NIGHT_CLOUDY,OVERCAST,CLOUDY","Cross-shore,Onshore,Onshore,Onshore,Onshore",5
5842041f4e65fad6a7708a05,2024_12_15,40.41754,-73.97935,Sandy Hook,1,0.118,0.42,10,10,"NIGHT_CLEAR,NIGHT_CLEAR,NIGHT_CLEAR,CLOUDY,CLOUDY","Cross-shore,Onshore,Onshore,Onshore,Onshore",5
5842041f4e65fad6a7708a06,2024_12_15,39.36353,-74.40873,Crystals,1,0.298906,0.649142,13,13,"NIGHT_CLEAR,NIGHT_CLEAR,NIGHT_OVERCAST,MOSTLY_CLOUDY,CLOUDY","Offshore,Cross-shore,Cross-shore,Cross-shore,Cross-shore",5
5842041f4e65fad6a7708a07,2024_12_15,39.31443,-74.51863,32nd Street,1.2666666666666666,0.295582,0.645976,8,7,"NIGHT_CLEAR,NIGHT_MOSTLY_CLOUDY,NIGHT_OVERCAST,MOSTLY_CLOUDY,CLOUDY","Offshore,Cross-shore,Cross-shore,Cross-shore,Cross-shore",5
5842041f4e65fad6a7708a08,2024_12_15,39.327688,-74.49524,Margate Pier Northside,1.2666666666666666,0.295582,0.645976,8,7,"NIGHT_CLEAR,NIGHT_MOSTLY_CLOUDY,NIGHT_OVERCAST,MOSTLY_CLOUDY,CLOUDY","Offshore,Cross-shore,Cross-shore,Cross-shore,Cross-shore",5
5842041f4e65fad6a7708a09,2024_12_15,39.336276,-74.47782,Ventnor Pier,1,0.303848,0.663654,13,13,"NIGHT_CLEAR,NIGHT_MOSTLY_CLOUDY,NIGHT_OVERCAST,MOSTLY_CLOUDY,CLOUDY","Offshore,Cross-shore,Cross-shore,Cross-shore,Cross-shore",5
5842041f4e65fad6a7708a0a,2024_12_15,39.35929751441085,-74.41683,States Avenue,1,0.303826,0.6517919999999999,13,13,"NIGHT_CLEAR,NIGHT_MOSTLY_CLOUDY,NIGHT_OVERCAST,MOSTLY_CLOUDY,CLOUDY","Offshore,Cross-shore,Cross-shore,Cross-shore,Cross-shore",5
5842041f4e65fad6a7708a0b,2024_12_15,39.37274173278517,-74.40454,Brigantine Jetty,1,0.269278,0.620838,13,13,"NIGHT_CLEAR,NIGHT_MOSTLY_CLOUDY,NIGHT_OVERCAST,MOSTLY_CLOUDY,CLOUDY","Offshore,Cross-shore,Cross-shore,Cross-shore,Cross-shore",5
5842041f4e65fad6a7708a0c,2024_12_15,39.356505,-74.42263,South Carolina Avenue,1,0.266654,0.618212,13,13,"NIGHT_CLEAR,NIGHT_CLEAR,NIGHT_OVERCAST,MOSTLY_CLOUDY,CLOUDY","Offshore,Cross-shore,Cross-shore,Cross-shore,Cross-shore",5
5842041f4e65fad6a7708a0d,2024_12_15,39.413485,-74.35476,14th Street North,1.6666666666666667,0.511262,0.787346,13,13,"NIGHT_CLEAR,NIGHT_CLEAR,NIGHT_OVERCAST,MOSTLY_CLOUDY,CLEAR","Cross-shore,Offshore,Offshore,Onshore,Onshore",5
5842041f4e65fad6a7708a0e,2024_12_15,39.531319,-74.263252,The Wooden Jetty,0.7,0.3584,0.7188640000000001,10.2,10.2,"NIGHT_MOSTLY_CLEAR,NIGHT_CLOUDY,NIGHT_CLOUDY,CLEAR,MOSTLY_CLOUDY","Cross-shore,Cross-shore,Cross-shore,Cross-shore,Onshore",5
5842041f4e65fad6a7708a0f,2024_12_15,39.552472,-74.24344,Holyoke,0.8333333333333333,0.377164,0.733162,10.2,10.2,"NIGHT_MOSTLY_CLEAR,NIGHT_MOSTLY_CLOUDY,NIGHT_CLOUDY,CLEAR,MOSTLY_CLOUDY","Cross-shore,Cross-shore,Cross-shore,Cross-shore,Onshore",5
5842041f4e65fad6a7708a10,2024_12_15,39.692364,-74.14068,Hudson Ave.,0.8133333333333334,0.299922,0.69227,8,7,"NIGHT_CLEAR,NIGHT_CLEAR,NIGHT_CLOUDY,MOSTLY_CLOUDY,MOSTLY_CLOUDY","Cross-shore,Cross-shore,Cross-shore,Cross-shore,Onshore",5
5842041f4e65fad6a7708a11,2024_12_15,39.79614,-74.09248,Island Beach State Park,1,0.34467400000000004,0.648234,13.2,12.6,"NIGHT_CLEAR,NIGHT_CLOUDY,NIGHT_CLOUDY,MOSTLY_CLOUDY,MOSTLY_CLOUDY","Cross-shore,Onshore,Onshore,Onshore,Onshore",5
5842041f4e65fad6a7708a12,2024_12_15,39.91813588078152,-74.07527,Seaside Park,1.4333333333333333,0.52939,0.8612,13.2,12.6,"NIGHT_CLEAR,NIGHT_CLEAR,NIGHT_CLOUDY,CLOUDY,CLOUDY","Onshore,Cross-shore,Cross-shore,Cross-shore,Onshore",5
5842041f4e65fad6a7708a15,2024_12_15,39.95745637606704,-74.06736,Ortley Beach,1.3,0.520788,0.8522339999999999,7.8,7.2,"NIGHT_CLEAR,NIGHT_CLEAR,NIGHT_CLOUDY,CLOUDY,CLOUDY","Cross-shore,Onshore,Onshore,Onshore,Onshore",5
5842041f4e65fad6a7708a16,2024_12_15,39.98313468342945,-74.06265685577506,Lavallette,1.3666666666666667,0.424386,0.753054,7.8,7.2,"NIGHT_CLEAR,NIGHT_CLEAR,NIGHT_CLOUDY,CLOUDY,CLOUDY","Cross-shore,Onshore,Onshore,Onshore,Onshore",5
5842041f4e65fad6a7708a17,2024_12_15,40.0699319967757,-74.04145,Bay Head,1.3666666666666667,0.40621999999999997,0.73622,7.8,7.2,"NIGHT_CLEAR,NIGHT_CLEAR,NIGHT_CLOUDY,CLOUDY,CLOUDY","Cross-shore,Onshore,Onshore,Onshore,Onshore",5
5842041f4e65fad6a7708a18,2024_12_15,40.094041,-74.034859,Jenkinson's,1.4333333333333333,0.394554,0.729054,7.8,7.2,"NIGHT_CLEAR,NIGHT_CLEAR,NIGHT_CLOUDY,OVERCAST,CLOUDY","Offshore,Onshore,Cross-shore,Offshore,Onshore",5
5842041f4e65fad6a7708a1a,2024_12_15,38.148058,-75.17704,Assateague,1,0.5369740000000001,0.84206,8,7,"NIGHT_CLOUDY,NIGHT_CLOUDY,NIGHT_CLOUDY,MOSTLY_CLOUDY,MOSTLY_CLOUDY","Cross-shore,Onshore,Onshore,Onshore,Onshore",5
5842041f4e65fad6a7708a1b,2024_12_15,38.33889038664497,-75.08017670566352,North End to Ocean City Inlet,0.7333333333333333,0.49563999999999997,0.828726,8,7,"NIGHT_CLOUDY,NIGHT_CLOUDY,NIGHT_OVERCAST,MOSTLY_CLOUDY,OVERCAST","Onshore,Onshore,Onshore,Onshore,Onshore",5
5842041f4e65fad6a7708a1c,2024_12_15,38.603993,-75.06271,Indian River Inlet,1,0.570946,0.926306,10.8,10.8,"NIGHT_MOSTLY_CLOUDY,NIGHT_CLOUDY,NIGHT_OVERCAST,MOSTLY_CLOUDY,CLEAR","Onshore,Onshore,Onshore,Onshore,Onshore",5
5842041f4e65fad6a7708a1d,2024_12_15,38.460477,-75.05207,Fenwick Island,1,0.434,0.736,10.8,10.8,"NIGHT_CLEAR,NIGHT_OVERCAST,NIGHT_OVERCAST,MOSTLY_CLOUDY,LIGHT_RAIN","Onshore,Onshore,Onshore,Onshore,Onshore",5
5842041f4e65fad6a7708a1e,2024_12_15,38.538767,-75.05619,Bethany Beach,1,0.557434,0.9102399999999999,10.8,10.8,"NIGHT_CLOUDY,NIGHT_CLOUDY,NIGHT_OVERCAST,MOSTLY_CLOUDY,CLOUDY","Onshore,Onshore,Onshore,Onshore,Onshore",5
5842041f4e65fad6a7708a1f,2024_12_15,38.697657,-75.07595,Dewey Beach,1.4,0.896,1.146,10.4,10.4,"NIGHT_MOSTLY_CLOUDY,NIGHT_CLOUDY,NIGHT_CLOUDY,MOSTLY_CLOUDY,OVERCAST","Onshore,Onshore,Onshore,Onshore,Onshore",5
5842041f4e65fad6a7708a20,2024_12_15,38.75034741676525,-75.08194,Gordons Pond,1,0.295258,0.68893,10.4,10.4,"NIGHT_MOSTLY_CLEAR,NIGHT_MOSTLY_CLOUDY,NIGHT_OVERCAST,MOSTLY_CLOUDY,OVERCAST","Onshore,Onshore,Onshore,Onshore,Onshore",5
5842041f4e65fad6a7708a21,2024_12_15,38.767837,-75.08284,Naval Jetties,1.4,0.732,0.966,10.4,10.4,"NIGHT_MOSTLY_CLEAR,NIGHT_CLEAR,NIGHT_OVERCAST,MOSTLY_CLOUDY,OVERCAST","Onshore,Onshore,Onshore,Onshore,Onshore",5
5842041f4e65fad6a7708a22,2024_12_15,36.81735875786576,-75.96624,Camp Pendleton,1.2,0.619026,1.219594,13,13,"NIGHT_OVERCAST,NIGHT_MOSTLY_CLOUDY,NIGHT_CLEAR,MOSTLY_CLOUDY,CLEAR","Onshore,Onshore,Onshore,Onshore,Onshore",5
5842041f4e65fad6a7708a23,2024_12_15,36.9102212316428,-75.98732471466064,North End,0.9333333333333333,0.7672,1.132436,11,11,"NIGHT_OVERCAST,NIGHT_MOSTLY_CLOUDY,NIGHT_MOSTLY_CLOUDY,MOSTLY_CLOUDY,CLEAR","Onshore,Onshore,Onshore,Onshore,Onshore",5
5842041f4e65fad6a7708a24,2024_12_15,36.737117517621314,-75.93924,Sandbridge Beach,1.1333333333333333,0.692,1.05536,11,11,"NIGHT_OVERCAST,NIGHT_MOSTLY_CLOUDY,NIGHT_CLEAR,BRIEF_SHOWERS,CLEAR","Onshore,Onshore,Onshore,Onshore,Onshore",5
5842041f4e65fad6a7708a26,2024_12_15,36.818257440557794,-75.96666,Croatan to Pendleton,1.1466666666666667,0.75311,1.169416,11,11,"NIGHT_OVERCAST,NIGHT_OVERCAST,NIGHT_CLEAR,MOSTLY_CLOUDY,CLEAR","Onshore,Onshore,Onshore,Onshore,Onshore",5
5842041f4e65fad6a7708a27,2024_12_15,36.84318777204769,-75.9719,South End,1.0666666666666667,0.645834,0.950148,11,11,"NIGHT_OVERCAST,NIGHT_MOSTLY_CLOUDY,NIGHT_CLEAR,MOSTLY_CLOUDY,CLEAR","Onshore,Onshore,Onshore,Onshore,Onshore",5
5842041f4e65fad6a7708a28,2024_12_15,37.08612627584661,-75.976121638199,Fishermans Island,1,0.268,0.38,12.6,12.6,"NIGHT_OVERCAST,NIGHT_OVERCAST,NIGHT_CLEAR,MOSTLY_CLOUDY,CLEAR","Cross-shore,Cross-shore,Cross-shore,Cross-shore,Cross-shore",5
5842041f4e65fad6a7708a38,2024_12_15,35.254619418229026,-75.52074,Cape Hatteras Lighthouse,0.92,1.412044,2.192226,14,14,"NIGHT_BRIEF_SHOWERS,NIGHT_MOSTLY_CLOUDY,NIGHT_CLOUDY,CLOUDY,CLEAR","Cross-shore,Onshore,Cross-shore,Onshore,Onshore",5
5842041f4e65fad6a7708a3a,2024_12_15,35.54572934093336,-75.46477,Waves and Salvo,0.33333333333333337,1.396178,1.8157539999999999,14,13,"NIGHT_BRIEF_SHOWERS,NIGHT_CLEAR,NIGHT_CLOUDY,DRIZZLE,CLOUDY","Cross-shore,Onshore,Onshore,Onshore,Onshore",5
5842041f4e65fad6a7708a3b,2024_12_15,35.22565892751075,-75.63606,Frisco,1.9333333333333333,1.27396,1.578654,15,14,"NIGHT_CLEAR,NIGHT_MOSTLY_CLOUDY,NIGHT_OVERCAST,OVERCAST,CLEAR","Offshore,Offshore,Offshore,Cross-shore,Cross-shore",5
5842041f4e65fad6a7708a3c,2024_12_15,35.13086,-75.90591,Ocracoke,0,1.355528,1.661994,18,18,"NIGHT_BRIEF_SHOWERS,NIGHT_CLEAR,NIGHT_OVERCAST,CLEAR,MOSTLY_CLOUDY","Cross-shore,Cross-shore,Cross-shore,Cross-shore,Cross-shore",5
5842041f4e65fad6a7708a3d,2024_12_15,35.34721340158342,-75.50084,Avon Pier,0.4,1.434352,2.110334,14,14,"NIGHT_MOSTLY_CLOUDY,NIGHT_CLEAR,NIGHT_DRIZZLE,CLOUDY,CLEAR","Cross-shore,Onshore,Onshore,Onshore,Onshore",5
5842041f4e65fad6a7708a3f,2024_12_15,35.71680821253768,-75.49243,Pea Island,0.8,0.892,1.154,15.2,15.2,"NIGHT_MOSTLY_CLOUDY,NIGHT_MOSTLY_CLOUDY,NIGHT_OVERCAST,OVERCAST,OVERCAST","Onshore,Onshore,Onshore,Onshore,Onshore",5
5842041f4e65fad6a7708a40,2024_12_15,35.97427620657821,-75.62984,Nags Head Pier,0.9333333333333333,1.04972,1.63368,13,12,"NIGHT_CLOUDY,NIGHT_MOSTLY_CLOUDY,NIGHT_CLOUDY,OVERCAST,OVERCAST","Onshore,Onshore,Onshore,Onshore,Onshore",5
5842041f4e65fad6a7708a41,2024_12_15,36.0439998039079,-75.67288,Avalon Pier,1,1.0062,1.43324,13,12,"NIGHT_OVERCAST,NIGHT_BRIEF_SHOWERS,NIGHT_CLEAR,MOSTLY_CLOUDY,MOSTLY_CLOUDY","Onshore,Onshore,Onshore,Onshore,Onshore",5
5842041f4e65fad6a7708a42,2024_12_15,36.03043116489792,-75.66413,First Street,1,1.0042200000000001,1.6509800000000001,13,12,"NIGHT_OVERCAST,NIGHT_MOSTLY_CLOUDY,NIGHT_CLEAR,MOSTLY_CLOUDY,MOSTLY_CLOUDY","Onshore,Onshore,Onshore,Onshore,Onshore",5
5842041f4e65fad6a7708a43,2024_12_15,36.06829910590498,-75.6899,Old Station/Laundromats,1,1.098368,1.520406,13,12,"NIGHT_OVERCAST,NIGHT_BRIEF_SHOWERS,NIGHT_OVERCAST,MOSTLY_CLOUDY,MOSTLY_CLOUDY","Onshore,Onshore,Onshore,Onshore,Onshore",5
5842041f4e65fad6a7708a44,2024_12_15,36.10126676607491,-75.71107,Kitty Hawk Pier,1,1.10852,1.66278,13,12,"NIGHT_OVERCAST,NIGHT_BRIEF_SHOWERS,NIGHT_OVERCAST,MOSTLY_CLOUDY,MOSTLY_CLOUDY","Onshore,Onshore,Onshore,Onshore,Onshore",5
5842041f4e65fad6a7708a45,2024_12_15,36.18220630068973,-75.75014,Duck Pier,0.8,0.862,1.1219999999999999,13.6,13.6,"NIGHT_CLOUDY,NIGHT_MOSTLY_CLOUDY,NIGHT_MOSTLY_CLOUDY,CLEAR,MOSTLY_CLOUDY","Onshore,Onshore,Onshore,Onshore,Onshore",5
5842041f4e65fad6a7708a46,2024_12_15,36.37660668125033,-75.8241,Corolla,0.8,0.756,1.03,13,13,"NIGHT_CLOUDY,NIGHT_CLEAR,NIGHT_MOSTLY_CLOUDY,CLEAR,CLEAR","Onshore,Onshore,Onshore,Onshore,Onshore",5
5842041f4e65fad6a7708a47,2024_12_15,33.90373404124834,-78.08241431707907,Oak Island,2.8,0.838,1.066,13,13,"NIGHT_MOSTLY_CLOUDY,NIGHT_LIGHT_RAIN,NIGHT_CLEAR,CLEAR,MOSTLY_CLOUDY","Offshore,Offshore,Offshore,Offshore,Offshore",5
5842041f4e65fad6a7708a48,2024_12_15,33.91108837766468,-78.29653,South Brunswick Beaches,2.2,0.46572600000000003,0.8546779999999999,13,13,"NIGHT_CLEAR,NIGHT_MOSTLY_CLOUDY,NIGHT_CLEAR,MOSTLY_CLOUDY,CLEAR","Offshore,Offshore,Offshore,Offshore,Offshore",5
5842041f4e65fad6a7708a49,2024_12_15,34.05683595651973,-77.88128,Carolina Beach Pier,0.8,1.156426,1.567966,14,13,"NIGHT_MOSTLY_CLOUDY,NIGHT_OVERCAST,NIGHT_CLEAR,MOSTLY_CLOUDY,MOSTLY_CLOUDY","Cross-shore,Cross-shore,Cross-shore,Cross-shore,Cross-shore",5
5842041f4e65fad6a7708a4a,2024_12_15,33.96841191816696,-77.9180242565498,Fort Fisher,0.8,1.23026,1.637466,14,13,"NIGHT_CLEAR,NIGHT_CLOUDY,NIGHT_CLEAR,MOSTLY_CLOUDY,MOSTLY_CLOUDY","Cross-shore,Onshore,Cross-shore,Cross-shore,Cross-shore",5
5842041f4e65fad6a7708a4b,2024_12_15,34.46776662988774,-77.47083,Topsail Beach,2.3666666666666667,1.178146,1.601228,14,13,"NIGHT_MOSTLY_CLOUDY,NIGHT_CLEAR,NIGHT_CLEAR,MOSTLY_CLOUDY,MOSTLY_CLOUDY","Offshore,Offshore,Offshore,Offshore,Offshore",5
5842041f4e65fad6a7708a4c,2024_12_15,34.69270354752445,-76.82854854446575,Iron Steamer,2.3,0.661368,0.978388,14,13,"NIGHT_CLOUDY,NIGHT_MOSTLY_CLOUDY,NIGHT_CLEAR,MOSTLY_CLOUDY,MOSTLY_CLOUDY","Offshore,Offshore,Offshore,Offshore,Cross-shore",5
5842041f4e65fad6a7708a4f,2024_12_15,30.85132684893727,-81.42283496231143,Cumberland Island,1.2,1.964,2.336,16,16,"NIGHT_CLEAR,NIGHT_BRIEF_SHOWERS,NIGHT_MOSTLY_CLOUDY,MOSTLY_CLOUDY,MIST","Cross-shore,Cross-shore,Cross-shore,Onshore,Cross-shore",5
5842041f4e65fad6a7708a50,2024_12_15,34.686741128540874,-76.47516712138378,Cape Lookout National Seashore,0.2,1.956,2.272,16.8,16.8,"NIGHT_MOSTLY_CLOUDY,NIGHT_MOSTLY_CLOUDY,NIGHT_BRIEF_SHOWERS,BRIEF_SHOWERS,MOSTLY_CLEAR","Cross-shore,Cross-shore,Cross-shore,Cross-shore,Onshore",5
5842041f4e65fad6a7708a51,2024_12_15,31.10585419260024,-81.40422767604812,Jekyll Island,0.6,1.204,1.472,15,15,"NIGHT_MIST,NIGHT_LIGHT_RAIN,NIGHT_MOSTLY_CLOUDY,MIST,MOSTLY_CLOUDY","Onshore,Onshore,Onshore,Onshore,Cross-shore",5
5842041f4e65fad6a7708a52,2024_12_15,31.16212806376699,-81.32512426500224,Harbor Marker Buoys,1,1.698,2.004,15,15,"NIGHT_MIST,NIGHT_CLEAR,NIGHT_MIST,MIST,MOSTLY_CLOUDY","Cross-shore,Cross-shore,Cross-shore,Cross-shore,Cross-shore",5
5842041f4e65fad6a7708a53,2024_12_15,31.20076299997009,-81.32629,Sea Island,1.6,1.766,2.0220000000000002,15,15,"NIGHT_MIST,NIGHT_DRIZZLE,NIGHT_MOSTLY_CLOUDY,BRIEF_SHOWERS,MOSTLY_CLOUDY","Cross-shore,Cross-shore,Cross-shore,Cross-shore,Cross-shore",5
5842041f4e65fad6a7708a54,2024_12_15,31.13553222995767,-81.38457634790909,St. Simons Island,2.6,1.52,1.814,15,15,"NIGHT_BRIEF_SHOWERS,NIGHT_LIGHT_RAIN,NIGHT_CLEAR,MIST,MOSTLY_CLOUDY","Offshore,Offshore,Offshore,Offshore,Offshore",5
5842041f4e65fad6a7708a55,2024_12_15,31.33550077186516,-81.28383377408417,Wolf Island,1.2,1.466,1.744,14.4,14.4,"NIGHT_MOSTLY_CLOUDY,NIGHT_CLOUDY,NIGHT_MIST,MIST,CLOUDY","Cross-shore,Onshore,Cross-shore,Cross-shore,Cross-shore",5
5842041f4e65fad6a7708a56,2024_12_15,31.2704493877174,-81.27324039152315,Little St. Simons Island,0.8,1.894,2.202,15,15,"NIGHT_BRIEF_SHOWERS,NIGHT_CLOUDY,NIGHT_BRIEF_SHOWERS,MIST,CLEAR","Onshore,Onshore,Onshore,Cross-shore,Cross-shore",5
5842041f4e65fad6a7708a57,2024_12_15,31.39261761368919,-81.26190520231917,Sapelo Island,1.8,1.56,1.814,14.4,14.4,"NIGHT_BRIEF_SHOWERS,NIGHT_DRIZZLE,NIGHT_OVERCAST,MOSTLY_CLOUDY,OVERCAST","Cross-shore,Cross-shore,Cross-shore,Cross-shore,Cross-shore",5
5842041f4e65fad6a7708a58,2024_12_15,34.42458783809001,-77.54492,Surf City Pier,2.3666666666666667,1.199812,1.596226,14,13,"NIGHT_MOSTLY_CLOUDY,NIGHT_CLEAR,NIGHT_CLEAR,MOSTLY_CLOUDY,MOSTLY_CLOUDY","Offshore,Cross-shore,Offshore,Offshore,Offshore",5
5842041f4e65fad6a7708a59,2024_12_15,31.4231993614213,-81.24725340591522,Cabretta Island,2.4,1.8619999999999999,2.142,14.4,14.4,"NIGHT_MOSTLY_CLOUDY,NIGHT_MOSTLY_CLOUDY,NIGHT_OVERCAST,BRIEF_SHOWERS,OVERCAST","Cross-shore,Cross-shore,Cross-shore,Cross-shore,Cross-shore",5
5842041f4e65fad6a7708a5a,2024_12_15,31.46684389030369,-81.2100056410468,Blackbeard Island,1.4,1.56,1.814,15,15,"NIGHT_CLEAR,NIGHT_OVERCAST,NIGHT_OVERCAST,BRIEF_SHOWERS,MOSTLY_CLOUDY","Cross-shore,Cross-shore,Cross-shore,Cross-shore,Cross-shore",5
5842041f4e65fad6a7708a5b,2024_12_15,31.85953587631629,-80.99031310336719,Wassaw Island/South End,1.2,0.844,1.1159999999999999,15,15,"NIGHT_MOSTLY_CLOUDY,NIGHT_CLOUDY,NIGHT_CLOUDY,RAIN,MOSTLY_CLOUDY","Cross-shore,Cross-shore,Cross-shore,Cross-shore,Cross-shore",5
5842041f4e65fad6a7708a5c,2024_12_15,31.62535662342983,-81.13328352167974,St. Catherines Island,1.2,1.704,2.018,14.4,14.4,"NIGHT_MOSTLY_CLOUDY,NIGHT_MOSTLY_CLOUDY,NIGHT_MOSTLY_CLOUDY,OVERCAST,MOSTLY_CLOUDY","Cross-shore,Onshore,Cross-shore,Cross-shore,Cross-shore",5
5842041f4e65fad6a7708a5d,2024_12_15,31.76502169596568,-81.07655443806622,Ossabaw Island,1,1.306,1.57,14.4,14.4,"NIGHT_MOSTLY_CLOUDY,NIGHT_OVERCAST,NIGHT_MOSTLY_CLOUDY,OVERCAST,MOSTLY_CLOUDY","Cross-shore,Cross-shore,Cross-shore,Cross-shore,Cross-shore",5
5842041f4e65fad6a7708a5e,2024_12_15,31.90593619092352,-80.93589231700857,Wassaw Island/North End,1.2,2.06,2.274,15,15,"NIGHT_MOSTLY_CLEAR,NIGHT_CLOUDY,NIGHT_OVERCAST,DRIZZLE,MOSTLY_CLOUDY","Cross-shore,Cross-shore,Cross-shore,Cross-shore,Offshore",5
5842041f4e65fad6a7708a5f,2024_12_15,31.96738675414547,-80.86977980706155,Little Tybee Island,1,1.756,2.056,15,15,"NIGHT_MOSTLY_CLEAR,NIGHT_MOSTLY_CLOUDY,NIGHT_MOSTLY_CLOUDY,OVERCAST,MOSTLY_CLOUDY","Cross-shore,Cross-shore,Cross-shore,Cross-shore,Offshore",5
5842041f4e65fad6a7708a60,2024_12_15,31.9812255780179,-80.84773973467009,South Tybee Sandbars,1,1.3780000000000001,1.65,15,15,"NIGHT_MOSTLY_CLEAR,NIGHT_MOSTLY_CLOUDY,NIGHT_MOSTLY_CLOUDY,OVERCAST,MOSTLY_CLOUDY","Onshore,Onshore,Onshore,Cross-shore,Cross-shore",5
5842041f4e65fad6a7708a61,2024_12_15,32.01226,-80.83983,Sugar Shack,0.6,1.024,1.314,15,15,"NIGHT_CLEAR,NIGHT_MOSTLY_CLOUDY,NIGHT_MOSTLY_CLOUDY,MOSTLY_CLOUDY,MOSTLY_CLOUDY","Onshore,Onshore,Onshore,Onshore,Onshore",5
5842041f4e65fad6a7708a62,2024_12_15,31.98722842396969,-80.84773,18th St. Jetty,0.4,1.680878,1.976474,15,15,"NIGHT_MOSTLY_CLEAR,NIGHT_MOSTLY_CLOUDY,NIGHT_MOSTLY_CLOUDY,OVERCAST,OVERCAST","Onshore,Onshore,Onshore,Cross-shore,Cross-shore",5
5842041f4e65fad6a7708a64,2024_12_15,34.013473721006676,-77.8991,"Alabama Ave., Kure Beach",1.6,1.264,1.558,13,13,"NIGHT_MOSTLY_CLOUDY,NIGHT_DRIZZLE,NIGHT_CLEAR,MOSTLY_CLOUDY,MOSTLY_CLOUDY","Onshore,Onshore,Onshore,Onshore,Onshore",5
5842041f4e65fad6a7708a65,2024_12_15,34.20859853336924,-77.79293,"C Street, Wrightsville Beach",1.4333333333333333,1.230066,1.63515,14,13,"NIGHT_CLOUDY,NIGHT_MOSTLY_CLOUDY,NIGHT_CLEAR,BRIEF_SHOWERS,MOSTLY_CLOUDY","Cross-shore,Cross-shore,Cross-shore,Cross-shore,Cross-shore",5
5842041f4e65fad6a7708a66,2024_12_15,32.831,-79.71,Dewees Island,2,1.248,1.482,14,14,"NIGHT_CLEAR,NIGHT_MOSTLY_CLOUDY,NIGHT_MOSTLY_CLOUDY,MOSTLY_CLOUDY,MOSTLY_CLEAR","Onshore,Onshore,Onshore,Cross-shore,Cross-shore",5
5842041f4e65fad6a7708a67,2024_12_15,33.82924423172106,-78.62813,Cherry Grove Pier,2,0.687826,1.058284,13,13,"NIGHT_CLEAR,NIGHT_CLEAR,NIGHT_CLEAR,CLEAR,CLEAR","Offshore,Offshore,Offshore,Offshore,Offshore",5
5842041f4e65fad6a7708a69,2024_12_15,34.27197439666496,-77.74050223196774,Figure Eight and Shell Islands,1.6333333333333333,1.2355,1.655684,14,13,"NIGHT_MOSTLY_CLOUDY,NIGHT_MOSTLY_CLEAR,NIGHT_CLEAR,MOSTLY_CLOUDY,MOSTLY_CLOUDY","Offshore,Cross-shore,Offshore,Offshore,Offshore",5
5842041f4e65fad6a7708a6b,2024_12_15,33.49041958261793,-79.07666070599386,North End,1.8,0.908,1.158,13,13,"NIGHT_BRIEF_SHOWERS,NIGHT_MOSTLY_CLEAR,NIGHT_OVERCAST,MOSTLY_CLOUDY,MOSTLY_CLOUDY","Cross-shore,Cross-shore,Cross-shore,Offshore,Offshore",5
5842041f4e65fad6a7708a6c,2024_12_15,33.39537062495087,-79.13835037835189,The South End,0.8,0.98,1.176,13,13,"NIGHT_MOSTLY_CLOUDY,NIGHT_CLEAR,NIGHT_CLOUDY,CLOUDY,MOSTLY_CLOUDY","Cross-shore,Cross-shore,Cross-shore,Cross-shore,Cross-shore",5
5842041f4e65fad6a7708a6d,2024_12_15,33.29001727666697,-79.17190003352977,North Island,0.8,1.476,1.76,13,13,"NIGHT_MOSTLY_CLOUDY,NIGHT_OVERCAST,NIGHT_OVERCAST,OVERCAST,MOSTLY_CLOUDY","Onshore,Onshore,Onshore,Cross-shore,Cross-shore",5
5842041f4e65fad6a7708a6e,2024_12_15,32.90929771158952,-79.57810400297359,Bull Island,1.4,1.462,1.72,14,14,"NIGHT_MOSTLY_CLOUDY,NIGHT_CLEAR,NIGHT_SHOWERS,CLEAR,MOSTLY_CLOUDY","Cross-shore,Cross-shore,Cross-shore,Cross-shore,Offshore",5
5842041f4e65fad6a7708a6f,2024_12_15,31.99153112815895,-80.84543050470074,Tybee Island Pier,0.4,0.882,1.088,15,15,"NIGHT_CLEAR,NIGHT_MOSTLY_CLOUDY,NIGHT_MOSTLY_CLOUDY,MOSTLY_CLOUDY,MOSTLY_CLOUDY","Onshore,Onshore,Cross-shore,Cross-shore,Cross-shore",5
5842041f4e65fad6a7708a70,2024_12_15,33.03478144356316,-79.35021028265125,Cape Romain,1,1.634,1.952,13,13,"NIGHT_MOSTLY_CLOUDY,NIGHT_MOSTLY_CLOUDY,NIGHT_OVERCAST,BRIEF_SHOWERS,CLEAR","Cross-shore,Cross-shore,Cross-shore,Cross-shore,Cross-shore",5
5842041f4e65fad6a7708a71,2024_12_15,33.43231073271028,-79.11789,The Pier,0.6,0.9453739999999999,1.32005,13,13,"NIGHT_BRIEF_SHOWERS,NIGHT_CLEAR,NIGHT_CLOUDY,CLOUDY,MOSTLY_CLOUDY","Cross-shore,Cross-shore,Cross-shore,Cross-shore,Cross-shore",5
5842041f4e65fad6a7708a72,2024_12_15,33.45423621397969,-79.10497798178424,South Litchfield,2.2,1.206,1.51,13,13,"NIGHT_MOSTLY_CLOUDY,NIGHT_CLEAR,NIGHT_OVERCAST,CLOUDY,MOSTLY_CLOUDY","Cross-shore,Cross-shore,Cross-shore,Cross-shore,Cross-shore",5
5842041f4e65fad6a7708a73,2024_12_15,34.19316590251396,-77.8045,Crystal Pier,0.9333333333333333,1.028396,1.383078,14,13,"NIGHT_CLOUDY,NIGHT_MOSTLY_CLOUDY,NIGHT_CLEAR,BRIEF_SHOWERS,MOSTLY_CLOUDY","Cross-shore,Cross-shore,Cross-shore,Cross-shore,Cross-shore",5
5842041f4e65fad6a7708a74,2024_12_15,33.68628680045124,-78.88346,Myrtle Beach,2.4,0.96,1.266,13,13,"NIGHT_MOSTLY_CLEAR,NIGHT_CLEAR,NIGHT_OVERCAST,MOSTLY_CLOUDY,SHOWERS","Cross-shore,Cross-shore,Cross-shore,Offshore,Offshore",5
5842041f4e65fad6a7708a75,2024_12_15,32.66166297145973,-79.91951806398808,10th Street,2.6,1.66,1.942,14,14,"NIGHT_CLEAR,NIGHT_MOSTLY_CLOUDY,NIGHT_SHOWERS,MOSTLY_CLOUDY,MOSTLY_CLOUDY","Cross-shore,Cross-shore,Cross-shore,Offshore,Cross-shore",5
5842041f4e65fad6a7708a76,2024_12_15,33.16729555197199,-79.19829236867845,South Island,0.2,1.29,1.546,13,13,"NIGHT_CLEAR,NIGHT_MOSTLY_CLOUDY,NIGHT_DRIZZLE,CLOUDY,MOSTLY_CLOUDY","Cross-shore,Cross-shore,Onshore,Cross-shore,Cross-shore",5
5842041f4e65fad6a7708a77,2024_12_15,32.595,-80.088,Kiawah Island/Seabrook Island,3.2,1.148,1.3519999999999999,15,15,"NIGHT_MOSTLY_CLEAR,NIGHT_CLEAR,NIGHT_CLEAR,CLEAR,MOSTLY_CLOUDY","Offshore,Offshore,Offshore,Offshore,Offshore",5
5842041f4e65fad6a7708a78,2024_12_15,32.51356930575787,-80.28223,Edisto Beach,2.8,1.130316,1.464636,14.4,14.4,"NIGHT_BRIEF_SHOWERS,NIGHT_MOSTLY_CLOUDY,NIGHT_CLEAR,CLEAR,MOSTLY_CLOUDY","Cross-shore,Cross-shore,Offshore,Offshore,Offshore",5
5842041f4e65fad6a7708a79,2024_12_15,32.366270751262,-80.43911,Hunting Island,1.2,1.56767,1.889618,14.4,14.4,"NIGHT_MOSTLY_CLOUDY,NIGHT_CLOUDY,NIGHT_CLEAR,MOSTLY_CLOUDY,MOSTLY_CLOUDY","Onshore,Onshore,Onshore,Cross-shore,Cross-shore",5
5842041f4e65fad6a7708a7a,2024_12_15,32.65337734408365,-79.93983,Folly Beach Pier,2.0666666666666664,1.00455,1.34554,14,14,"NIGHT_CLEAR,NIGHT_MOSTLY_CLOUDY,NIGHT_BRIEF_SHOWERS,MOSTLY_CLOUDY,MOSTLY_CLOUDY","Offshore,Offshore,Offshore,Offshore,Offshore",5
5842041f4e65fad6a7708a7b,2024_12_15,33.41209545530049,-79.13026341393126,South Jetty,1.8,0.98,1.176,13,13,"NIGHT_MOSTLY_CLOUDY,NIGHT_MOSTLY_CLEAR,NIGHT_OVERCAST,OVERCAST,MOSTLY_CLOUDY","Cross-shore,Cross-shore,Cross-shore,Cross-shore,Cross-shore",5
5842041f4e65fad6a7708a7c,2024_12_15,32.31115640606869,-80.48564,Fripp Island,1.8,1.391146,1.72918,15,15,"NIGHT_BRIEF_SHOWERS,NIGHT_MOSTLY_CLOUDY,NIGHT_MOSTLY_CLOUDY,CLEAR,MOSTLY_CLOUDY","Offshore,Offshore,Offshore,Offshore,Offshore",5
5842041f4e65fad6a7708a7d,2024_12_15,32.14365226036034,-80.74402,Hilton Head Island,0.8,0.3,0.606,15,15,"NIGHT_MOSTLY_CLOUDY,NIGHT_MOSTLY_CLOUDY,NIGHT_MOSTLY_CLOUDY,MOSTLY_CLOUDY,OVERCAST","Cross-shore,Cross-shore,Cross-shore,Offshore,Offshore",5
5842041f4e65fad6a7708a7e,2024_12_15,29.70405364733744,-81.22426,Matanzas Inlet,1.1333333333333333,1.6426399999999999,2.165676,19,19,"NIGHT_CLOUDY,NIGHT_MOSTLY_CLOUDY,NIGHT_MOSTLY_CLOUDY,MOSTLY_CLOUDY,SHOWERS","Onshore,Onshore,Onshore,Onshore,Onshore",5
5842041f4e65fad6a7708a81,2024_12_15,29.76878537149042,-81.25109,Crescent Beach,1.4,1.8679999999999999,2.152,18,18,"NIGHT_OVERCAST,NIGHT_MOSTLY_CLEAR,NIGHT_MOSTLY_CLOUDY,MOSTLY_CLOUDY,CLEAR","Onshore,Onshore,Onshore,Onshore,Onshore",5
5842041f4e65fad6a7708a82,2024_12_15,32.80251718689188,-79.73221919500764,Wild Dunes,2,1.6179999999999999,1.856,14,14,"NIGHT_CLEAR,NIGHT_MOSTLY_CLOUDY,NIGHT_MOSTLY_CLOUDY,MOSTLY_CLOUDY,CLEAR","Cross-shore,Cross-shore,Cross-shore,Offshore,Offshore",5
5842041f4e65fad6a7708a84,2024_12_15,32.75733539419244,-79.83258856064796,Bert's Bar,2.8,1.106,1.312,14,14,"NIGHT_MOSTLY_CLEAR,NIGHT_MOSTLY_CLOUDY,NIGHT_MOSTLY_CLOUDY,MOSTLY_CLOUDY,MOSTLY_CLEAR","Cross-shore,Cross-shore,Cross-shore,Offshore,Offshore",5
5842041f4e65fad6a7708a85,2024_12_15,32.66829212943039,-79.90735,Washout,1.7,1.168952,1.681414,14,12,"NIGHT_CLEAR,NIGHT_BRIEF_SHOWERS,NIGHT_SHOWERS,OVERCAST,MOSTLY_CLOUDY","Cross-shore,Cross-shore,Cross-shore,Offshore,Offshore",5
5842041f4e65fad6a7708a86,2024_12_15,32.78452968219067,-79.7854,The Pier/Windjammer,2.6,1.408,1.682,14,14,"NIGHT_MOSTLY_CLEAR,NIGHT_MOSTLY_CLOUDY,NIGHT_MOSTLY_CLOUDY,MOSTLY_CLOUDY,MOSTLY_CLEAR","Offshore,Offshore,Cross-shore,Offshore,Offshore",5
5842041f4e65fad6a7708a87,2024_12_15,29.86618162637438,-81.2662150259608,Anastasia Park (The Entrance),1.4,1.538,1.812,18,18,"NIGHT_CLOUDY,NIGHT_CLEAR,NIGHT_BRIEF_SHOWERS,SHOWERS,MIST","Onshore,Onshore,Onshore,Onshore,Onshore",5
5842041f4e65fad6a7708a89,2024_12_15,29.89149785916623,-81.2723223244215,Blowholes,0.8333333333333333,1.3705340000000001,1.77878,24,23,"NIGHT_CLOUDY,NIGHT_MOSTLY_CLEAR,NIGHT_SHOWERS,CLEAR,MIST","Onshore,Onshore,Onshore,Onshore,Onshore",5
5842041f4e65fad6a7708a8a,2024_12_15,30.16227112983666,-81.35502907491218,Crossroads,1.1333333333333333,1.360034,1.792446,24,23,"NIGHT_RAIN,NIGHT_SHOWERS,NIGHT_BRIEF_SHOWERS,MOSTLY_CLOUDY,MIST","Onshore,Onshore,Onshore,Onshore,Cross-shore",5
5842041f4e65fad6a7708a8b,2024_12_15,30.19308537587637,-81.36314247820911,Sawgrass,1.1333333333333333,1.4872,1.925948,24,23,"NIGHT_OVERCAST,NIGHT_MOSTLY_CLOUDY,NIGHT_BRIEF_SHOWERS,MOSTLY_CLOUDY,MOSTLY_CLOUDY","Onshore,Onshore,Onshore,Onshore,Cross-shore",5
5842041f4e65fad6a7708a8c,2024_12_15,30.34696027700899,-81.39451,18th Street,2.4,1.891856,2.23108,17,17,"NIGHT_OVERCAST,NIGHT_MOSTLY_CLOUDY,NIGHT_MOSTLY_CLOUDY,MOSTLY_CLOUDY,MIST","Offshore,Onshore,Onshore,Cross-shore,Offshore",5
5842041f4e65fad6a7708a8d,2024_12_15,30.381793,-81.39686,Mayport Poles,1.4,2.218,2.648,17,17,"NIGHT_OVERCAST,NIGHT_MOSTLY_CLOUDY,NIGHT_MOSTLY_CLOUDY,MOSTLY_CLOUDY,MOSTLY_CLOUDY","Onshore,Cross-shore,Onshore,Onshore,Cross-shore",5
5842041f4e65fad6a7708a8e,2024_12_15,30.390516,-81.395591,Blue Roofs,1.8,2.01,2.402,17,17,"NIGHT_OVERCAST,NIGHT_MOSTLY_CLOUDY,NIGHT_MOSTLY_CLOUDY,MOSTLY_CLOUDY,MOSTLY_CLOUDY","Cross-shore,Onshore,Onshore,Onshore,Cross-shore",5
5842041f4e65fad6a7708a8f,2024_12_15,30.40517712722211,-81.40074116169004,Huguenot Park (North Jetty),1.2,2.102,2.356,17,17,"NIGHT_OVERCAST,NIGHT_MOSTLY_CLOUDY,NIGHT_MOSTLY_CLOUDY,MOSTLY_CLOUDY,MOSTLY_CLOUDY","Onshore,Onshore,Onshore,Onshore,Cross-shore",5
5842041f4e65fad6a7708a90,2024_12_15,30.47788918872762,-81.41055821335078,Talbot Island,0.6666666666666666,1.78803,2.280464,19,19,"NIGHT_DRIZZLE,NIGHT_BRIEF_SHOWERS,NIGHT_MOSTLY_CLEAR,MOSTLY_CLOUDY,MOSTLY_CLOUDY","Onshore,Cross-shore,Onshore,Onshore,Cross-shore",5
5842041f4e65fad6a7708a91,2024_12_15,30.66753984549761,-81.42983,Main Beach,1.2,2.072,2.374,17,17,"NIGHT_MOSTLY_CLOUDY,NIGHT_HEAVY_SHOWERS,NIGHT_MOSTLY_CLOUDY,MOSTLY_CLOUDY,MIST","Cross-shore,Cross-shore,Onshore,Onshore,Cross-shore",5
5842041f4e65fad6a7708a92,2024_12_15,30.69983581209126,-81.42483,Ft. Clinch State Park,1,2.536,2.824,17,17,"NIGHT_MOSTLY_CLOUDY,NIGHT_BRIEF_SHOWERS,NIGHT_MOSTLY_CLOUDY,BRIEF_SHOWERS,MIST","Onshore,Onshore,Onshore,Onshore,Cross-shore",5
5842041f4e65fad6a7708a93,2024_12_15,30.62059700777582,-81.437252942757425,Amelia Pier,1.6,1.89,2.134,17,17,"NIGHT_MOSTLY_CLOUDY,NIGHT_MOSTLY_CLOUDY,NIGHT_MOSTLY_CLEAR,BRIEF_SHOWERS,BRIEF_SHOWERS","Onshore,Onshore,Onshore,Onshore,Cross-shore",5
5842041f4e65fad6a7708a95,2024_12_15,28.95125170929067,-80.83837,Bethune Beach,1.2,2.3520000000000003,2.612,19.6,19.6,"NIGHT_DRIZZLE,NIGHT_CLEAR,NIGHT_CLEAR,MOSTLY_CLOUDY,SHOWERS","Onshore,Onshore,Onshore,Onshore,Onshore",5
5842041f4e65fad6a7708a96,2024_12_15,29.03874288905362,-80.8933424949646,Flagler Ave.,0.7666666666666666,1.680778,2.08408,24,23,"NIGHT_RAIN,NIGHT_MOSTLY_CLEAR,NIGHT_MOSTLY_CLOUDY,BRIEF_SHOWERS,CLEAR","Onshore,Onshore,Onshore,Onshore,Onshore",5
5842041f4e65fad6a7708a98,2024_12_15,30.332297686992757,-81.39319,Atlantic Beach,2.4,1.875518,2.17643,17,17,"NIGHT_OVERCAST,NIGHT_BRIEF_SHOWERS,NIGHT_MOSTLY_CLOUDY,MOSTLY_CLOUDY,MIST","Cross-shore,Onshore,Cross-shore,Cross-shore,Offshore",5
5842041f4e65fad6a7708a99,2024_12_15,29.87530059952514,-81.26757958498874,Middles,0.9333333333333333,1.2597,1.667448,24,23,"NIGHT_CLOUDY,NIGHT_MOSTLY_CLOUDY,NIGHT_SHOWERS,CLEAR,MIST","Onshore,Onshore,Onshore,Onshore,Onshore",5
5842041f4e65fad6a7708a9a,2024_12_15,29.146475528378218,-80.96347,Sunglow Pier,1.2,2.02,2.294,19.6,19.6,"NIGHT_OVERCAST,NIGHT_BRIEF_SHOWERS,NIGHT_CLEAR,MOSTLY_CLOUDY,SHOWERS","Onshore,Onshore,Onshore,Onshore,Onshore",5
5842041f4e65fad6a7708a9b,2024_12_15,30.02251238001095,-81.32183077344881,Gate Station,1.3333333333333333,1.339034,1.75128,24,23,"NIGHT_OVERCAST,NIGHT_CLEAR,NIGHT_BRIEF_SHOWERS,MOSTLY_CLOUDY,BRIEF_SHOWERS","Onshore,Onshore,Onshore,Onshore,Onshore",5
5842041f4e65fad6a7708a9c,2024_12_15,29.33976495417899,-81.0606,Bicentennial Park,1.4,1.892,2.162,18.6,18.6,"NIGHT_DRIZZLE,NIGHT_CLEAR,NIGHT_CLEAR,BRIEF_SHOWERS,MOSTLY_CLEAR","Onshore,Onshore,Onshore,Onshore,Onshore",5
5842041f4e65fad6a7708a9d,2024_12_15,29.08257353385602,-80.92137,Ponce Inlet,0.7666666666666666,1.817366,2.947086,21,19,"NIGHT_OVERCAST,NIGHT_MOSTLY_CLOUDY,NIGHT_MOSTLY_CLOUDY,MOSTLY_CLOUDY,MOSTLY_CLOUDY","Onshore,Onshore,Onshore,Onshore,Onshore",5
5842041f4e65fad6a7708a9f,2024_12_15,27.862962005874696,-80.44668,Sebastian Inlet,0.7133333333333333,1.7293880000000001,2.750752,22,21,"NIGHT_OVERCAST,NIGHT_CLEAR,NIGHT_MOSTLY_CLOUDY,HEAVY_SHOWERS,BRIEF_SHOWERS","Onshore,Onshore,Onshore,Onshore,Onshore",5
5842041f4e65fad6a7708aa0,2024_12_15,30.292626880836885,-81.38579,Jacksonville Beach Pier,1.0333333333333332,2.092494,2.526382,19,19,"NIGHT_OVERCAST,NIGHT_MOSTLY_CLOUDY,NIGHT_BRIEF_SHOWERS,MOSTLY_CLOUDY,MOSTLY_CLOUDY","Cross-shore,Cross-shore,Onshore,Cross-shore,Cross-shore",5
5842041f4e65fad6a7708aa2,2024_12_15,29.21860397328164,-81.0019,Daytona Beach,1.2,2.042,2.278,19.6,19.6,"NIGHT_OVERCAST,NIGHT_MOSTLY_CLOUDY,NIGHT_MOSTLY_CLOUDY,MOSTLY_CLOUDY,MOSTLY_CLEAR","Onshore,Onshore,Onshore,Onshore,Onshore",5
5842041f4e65fad6a7708aa3,2024_12_15,27.47531255634912,-80.28914,Ft. Pierce Inlet,0.7466666666666667,1.5711220000000001,2.568976,25,23,"NIGHT_OVERCAST,NIGHT_BRIEF_SHOWERS,NIGHT_MOSTLY_CLOUDY,MOSTLY_CLOUDY,MOSTLY_CLOUDY","Onshore,Onshore,Onshore,Onshore,Onshore",5
5842041f4e65fad6a7708aa4,2024_12_15,29.29239875585548,-81.0386,Ormond Beach,1.2,2.218,2.472,18.6,18.6,"NIGHT_RAIN,NIGHT_CLEAR,NIGHT_MOSTLY_CLOUDY,MOSTLY_CLOUDY,MOSTLY_CLEAR","Onshore,Onshore,Onshore,Onshore,Onshore",5
5842041f4e65fad6a7708aa5,2024_12_15,29.91629441498523,-81.28801,Vilano,1.4,1.678,1.944,18,18,"NIGHT_OVERCAST,NIGHT_MOSTLY_CLOUDY,NIGHT_MOSTLY_CLOUDY,MOSTLY_CLOUDY,MIST","Onshore,Onshore,Onshore,Onshore,Onshore",5
5842041f4e65fad6a7708aa6,2024_12_15,27.876230736320828,-80.4551,Spanish House,0.06666666666666665,2.551496,3.266194,22,21,"NIGHT_DRIZZLE,NIGHT_BRIEF_SHOWERS,NIGHT_MOSTLY_CLOUDY,HEAVY_SHOWERS,MOSTLY_CLOUDY","Onshore,Onshore,Onshore,Onshore,Onshore",5
5842041f4e65fad6a7708aa7,2024_12_15,28.64397251741012,-80.62329,Playalinda,1.2,2.562,2.822,20,20,"NIGHT_MOSTLY_CLOUDY,NIGHT_BRIEF_SHOWERS,NIGHT_MOSTLY_CLEAR,MOSTLY_CLEAR,MOSTLY_CLEAR","Onshore,Onshore,Onshore,Onshore,Onshore",5
5842041f4e65fad6a7708aa8,2024_12_15,28.406142,-80.58886,Jetty Park,2,1.604,1.814,20,20,"NIGHT_MOSTLY_CLOUDY,NIGHT_MOSTLY_CLOUDY,NIGHT_MOSTLY_CLEAR,MOSTLY_CLOUDY,CLEAR","Onshore,Onshore,Onshore,Onshore,Onshore",5
5842041f4e65fad6a7708aa9,2024_12_15,28.49083243010974,-80.58001715986319,Kennedy Space Center,2,2.636,2.92,20,20,"NIGHT_CLEAR,NIGHT_BRIEF_SHOWERS,NIGHT_MOSTLY_CLEAR,MOSTLY_CLEAR,MOSTLY_CLEAR","Onshore,Onshore,Onshore,Onshore,Onshore",5
5842041f4e65fad6a7708aab,2024_12_15,28.336757013024314,-80.60568,Lori Wilson Park,0.7333333333333333,1.960128,2.59352,19,18,"NIGHT_MOSTLY_CLOUDY,NIGHT_MOSTLY_CLEAR,NIGHT_MOSTLY_CLEAR,CLEAR,MOSTLY_CLEAR","Onshore,Onshore,Onshore,Onshore,Onshore",5
5842041f4e65fad6a7708aad,2024_12_15,27.76388821683801,-80.3962958234027,Wabasso,0.6,2.872,3.106,23,23,"NIGHT_BRIEF_SHOWERS,NIGHT_MOSTLY_CLOUDY,NIGHT_MOSTLY_CLOUDY,OVERCAST,MOSTLY_CLOUDY","Onshore,Onshore,Onshore,Onshore,Onshore",5
5842041f4e65fad6a7708aae,2024_12_15,27.521583322459,-80.30987620353699,P.V. Martin's,0.5333333333333333,2.28416,2.79562,23,22,"NIGHT_OVERCAST,NIGHT_MOSTLY_CLOUDY,NIGHT_MOSTLY_CLOUDY,MOSTLY_CLOUDY,MOSTLY_CLOUDY","Onshore,Onshore,Onshore,Onshore,Onshore",5
5842041f4e65fad6a7708aaf,2024_12_15,27.644996047720046,-80.35242676734924,Riomar,0.3333333333333333,2.22166,2.734454,23,22,"NIGHT_CLEAR,NIGHT_MOSTLY_CLOUDY,NIGHT_CLEAR,MOSTLY_CLOUDY,CLEAR","Onshore,Onshore,Onshore,Onshore,Onshore",5
5842041f4e65fad6a7708ab1,2024_12_15,27.670121806659253,-80.36026954650879,Vero Pier,0.1333333333333333,2.76816,3.226788,23,22,"NIGHT_DRIZZLE,NIGHT_CLEAR,NIGHT_OVERCAST,MOSTLY_CLOUDY,MOSTLY_CLOUDY","Onshore,Onshore,Onshore,Onshore,Onshore",5
5842041f4e65fad6a7708ab2,2024_12_15,28.047705032021486,-80.54680109024048,Spessard Holland,0.7333333333333333,2.189146,2.780036,21,21,"NIGHT_MOSTLY_CLOUDY,NIGHT_MOSTLY_CLOUDY,NIGHT_MOSTLY_CLOUDY,MOSTLY_CLEAR,MOSTLY_CLOUDY","Onshore,Onshore,Onshore,Onshore,Onshore",5
5842041f4e65fad6a7708ab7,2024_12_15,28.135426226217064,-80.57895541191101,The Radisson,0.7333333333333333,2.66868,3.088308,21,19,"NIGHT_MOSTLY_CLOUDY,NIGHT_MOSTLY_CLOUDY,NIGHT_MOSTLY_CLOUDY,CLEAR,MOSTLY_CLOUDY","Onshore,Onshore,Onshore,Onshore,Onshore",5
5842041f4e65fad6a7708ab8,2024_12_15,28.26664623907351,-80.60448,Picnic Tables,1,2.968,3.432,20,20,"NIGHT_BRIEF_SHOWERS,NIGHT_MOSTLY_CLOUDY,NIGHT_CLEAR,MOSTLY_CLEAR,MOSTLY_CLEAR","Onshore,Onshore,Onshore,Onshore,Onshore",5
5842041f4e65fad6a7708ab9,2024_12_15,28.200840983180232,-80.59493,Perkins,1,3.5740000000000003,3.914,20,20,"NIGHT_BRIEF_SHOWERS,NIGHT_MOSTLY_CLOUDY,NIGHT_MOSTLY_CLOUDY,BRIEF_SHOWERS,MOSTLY_CLOUDY","Onshore,Onshore,Onshore,Onshore,Onshore",5
5842041f4e65fad6a7708aba,2024_12_15,28.185652556759443,-80.59154,RC's,0.5333333333333333,2.4083740000000002,2.907306,20,20,"NIGHT_BRIEF_SHOWERS,NIGHT_MOSTLY_CLOUDY,NIGHT_MOSTLY_CLOUDY,CLEAR,MOSTLY_CLOUDY","Onshore,Onshore,Onshore,Onshore,Onshore",5
5842041f4e65fad6a7708abc,2024_12_15,28.252541991968208,-80.60269,2nd Light,1,2.79,3.31,20,20,"NIGHT_BRIEF_SHOWERS,NIGHT_MOSTLY_CLOUDY,NIGHT_CLEAR,MOSTLY_CLEAR,MOSTLY_CLEAR","Onshore,Onshore,Onshore,Onshore,Onshore",5
5842041f4e65fad6a7708abd,2024_12_15,27.901611308716447,-80.4697,Bonsteel Park,0.5333333333333333,2.308162,3.038694,22,21,"NIGHT_LIGHT_RAIN,NIGHT_MOSTLY_CLOUDY,NIGHT_MOSTLY_CLOUDY,HEAVY_SHOWERS,MOSTLY_CLOUDY","Onshore,Onshore,Onshore,Onshore,Onshore",5
5842041f4e65fad6a7708abe,2024_12_15,28.2423394657007,-80.60104,Hangar's Beach,1,3.116,3.394,20,20,"NIGHT_BRIEF_SHOWERS,NIGHT_MOSTLY_CLOUDY,NIGHT_MOSTLY_CLOUDY,MOSTLY_CLEAR,MOSTLY_CLOUDY","Onshore,Onshore,Onshore,Onshore,Onshore",5
5842041f4e65fad6a7708abf,2024_12_15,27.34018197146798,-80.23278,Walton Rocks,0,1.77052,2.87124,25,23,"NIGHT_CLOUDY,NIGHT_CLEAR,NIGHT_CLEAR,CLEAR,MOSTLY_CLOUDY","Onshore,Onshore,Onshore,Onshore,Onshore",5
5842041f4e65fad6a7708ac0,2024_12_15,25.80407401902198,-80.1222227290161,30th Street,1,0.87,1.128,25.4,25.4,"NIGHT_CLOUDY,NIGHT_DRIZZLE,NIGHT_OVERCAST,DRIZZLE,OVERCAST","Onshore,Onshore,Onshore,Onshore,Onshore",5
5842041f4e65fad6a7708ac1,2024_12_15,25.76570280215999,-80.12983,South Beach,0.7466666666666667,0.868,1.347204,26,24,"NIGHT_CLOUDY,NIGHT_OVERCAST,NIGHT_OVERCAST,CLOUDY,OVERCAST","Onshore,Onshore,Onshore,Onshore,Onshore",5
5842041f4e65fad6a7708ac2,2024_12_15,26.058022412197,-80.10873562327671,Dania Pier,1,1.246,1.528,25,25,"NIGHT_CLOUDY,NIGHT_CLOUDY,NIGHT_OVERCAST,OVERCAST,OVERCAST","Onshore,Onshore,Onshore,Onshore,Onshore",5
5842041f4e65fad6a7708ac3,2024_12_15,26.04825428257198,-80.11153150137932,Franklin Street,0.8,1.228,1.506,25,25,"NIGHT_CLOUDY,NIGHT_CLEAR,NIGHT_OVERCAST,OVERCAST,OVERCAST","Onshore,Onshore,Onshore,Onshore,Onshore",5
5842041f4e65fad6a7708ac4,2024_12_15,26.09086461141498,-80.10728410144065,John Lloyd State Park,0.4,1.178,1.472,25,25,"NIGHT_CLOUDY,NIGHT_MOSTLY_CLOUDY,NIGHT_OVERCAST,DRIZZLE,OVERCAST","Onshore,Onshore,Onshore,Onshore,Onshore",5
5842041f4e65fad6a7708ac5,2024_12_15,26.0971397396683,-80.10298876028907,Spoils,1,1.236,1.542,25,25,"NIGHT_DRIZZLE,NIGHT_MOSTLY_CLOUDY,NIGHT_OVERCAST,OVERCAST,OVERCAST","Onshore,Onshore,Onshore,Onshore,Onshore",5
5842041f4e65fad6a7708ac6,2024_12_15,26.18920557475824,-80.09224,Commercial Pier,0.8,1.406,1.7,25,25,"NIGHT_OVERCAST,NIGHT_MOSTLY_CLOUDY,NIGHT_CLOUDY,CLOUDY,OVERCAST","Onshore,Onshore,Onshore,Onshore,Onshore",5
5842041f4e65fad6a7708ac7,2024_12_15,28.289851576629342,-80.6063,16th St. South,0.7333333333333333,1.576442,2.02568,23,22,"NIGHT_BRIEF_SHOWERS,NIGHT_CLEAR,NIGHT_CLEAR,MOSTLY_CLEAR,MOSTLY_CLEAR","Onshore,Onshore,Onshore,Onshore,Onshore",5
5842041f4e65fad6a7708ac8,2024_12_15,26.23467460139735,-80.0874,Pompano Pier,1,0.74,1.044,25,25,"NIGHT_MOSTLY_CLOUDY,NIGHT_MOSTLY_CLOUDY,NIGHT_OVERCAST,OVERCAST,OVERCAST","Onshore,Onshore,Onshore,Onshore,Onshore",5
5842041f4e65fad6a7708acb,2024_12_15,26.44179551370651,-80.05928855229453,Atlantic Dunes Park,-0.0666666666666667,0.9270079999999999,1.461772,25,23,"NIGHT_MOSTLY_CLOUDY,NIGHT_MOSTLY_CLOUDY,NIGHT_MOSTLY_CLOUDY,OVERCAST,OVERCAST","Cross-shore,Cross-shore,Cross-shore,Offshore,Cross-shore",5
5842041f4e65fad6a7708acd,2024_12_15,26.62215707439298,-80.03599398392342,Hilton Hotel Backyard,0.3,1.544392,2.01884,25,23,"NIGHT_OVERCAST,NIGHT_CLEAR,NIGHT_CLEAR,OVERCAST,OVERCAST","Onshore,Onshore,Onshore,Onshore,Onshore",5
5842041f4e65fad6a7708ace,2024_12_15,26.96418190555367,-80.07769168113562,Coral Cove Park,0.7,2.247366,2.82824,25,23,"NIGHT_MOSTLY_CLOUDY,NIGHT_SHOWERS,NIGHT_MOSTLY_CLOUDY,CLOUDY,MOSTLY_CLOUDY","Onshore,Onshore,Onshore,Onshore,Onshore",5
5842041f4e65fad6a7708acf,2024_12_15,26.7029496416037,-80.03184,Palm Beach,0.6666666666666666,1.6817280000000001,2.098674,25,23,"NIGHT_OVERCAST,NIGHT_CLEAR,NIGHT_MOSTLY_CLOUDY,OVERCAST,DRIZZLE","Onshore,Onshore,Onshore,Onshore,Onshore",5
5842041f4e65fad6a7708ad0,2024_12_15,26.97679878167375,-80.08141631388132,Blowing Rocks,0.7,1.9662,2.5427400000000002,25,23,"NIGHT_MOSTLY_CLOUDY,NIGHT_BRIEF_SHOWERS,NIGHT_CLEAR,OVERCAST,HEAVY_SHOWERS","Onshore,Onshore,Onshore,Onshore,Onshore",5
5842041f4e65fad6a7708ad2,2024_12_15,26.45661880078336,-80.057,Delray Beach,-0.27999999999999997,0.989088,1.495112,25,23,"NIGHT_MOSTLY_CLOUDY,NIGHT_MOSTLY_CLOUDY,NIGHT_MOSTLY_CLOUDY,OVERCAST,OVERCAST","Onshore,Onshore,Cross-shore,Onshore,Onshore",5
5842041f4e65fad6a7708ad3,2024_12_15,27.205685534312778,-80.16826629638672,Fletcher's,0,2.126866,2.6810739999999997,25,23,"NIGHT_MOSTLY_CLOUDY,NIGHT_MOSTLY_CLOUDY,NIGHT_MOSTLY_CLOUDY,MOSTLY_CLOUDY,CLEAR","Onshore,Onshore,Onshore,Onshore,Onshore",5
5842041f4e65fad6a7708ad5,2024_12_15,26.5848450388814,-80.03649735753257,Lantana Public Beach,0.3,1.660226,2.131672,25,23,"NIGHT_CLOUDY,NIGHT_MOSTLY_CLOUDY,NIGHT_MOSTLY_CLOUDY,OVERCAST,OVERCAST","Onshore,Onshore,Onshore,Onshore,Onshore",5
5842041f4e65fad6a7708ad6,2024_12_15,25.77468432731322,-80.12884045797499,5th Street,0.6,0.904,1.168,25.4,25.4,"NIGHT_OVERCAST,NIGHT_OVERCAST,NIGHT_OVERCAST,OVERCAST,OVERCAST","Onshore,Onshore,Onshore,Onshore,Onshore",5
5842041f4e65fad6a7708ad7,2024_12_15,25.795157990715975,-80.12527585029602,21st Street,0.6,1.012,1.22,25.4,25.4,"NIGHT_OVERCAST,NIGHT_MOSTLY_CLEAR,NIGHT_OVERCAST,OVERCAST,OVERCAST","Onshore,Onshore,Onshore,Onshore,Onshore",5
5842041f4e65fad6a7708ad8,2024_12_15,25.897806453088073,-80.1211827993393,Haulover Inlet (South Jetty),0.4,1.328,1.636,25,25,"NIGHT_CLOUDY,NIGHT_OVERCAST,NIGHT_OVERCAST,OVERCAST,OVERCAST","Onshore,Onshore,Onshore,Onshore,Onshore",5
5842041f4e65fad6a7708ad9,2024_12_15,25.90147392328634,-80.12110769748688,Haulover Inlet (North Jetty),0.4,1.138,1.44,25,25,"NIGHT_CLOUDY,NIGHT_OVERCAST,NIGHT_OVERCAST,OVERCAST,OVERCAST","Onshore,Onshore,Onshore,Onshore,Onshore",5
5842041f4e65fad6a7708ada,2024_12_15,25.87049374242476,-80.11828560342356,85th Street,0.8,1.16,1.416,25.4,25.4,"NIGHT_OVERCAST,NIGHT_OVERCAST,NIGHT_OVERCAST,OVERCAST,OVERCAST","Onshore,Onshore,Onshore,Onshore,Onshore",5
5842041f4e65fad6a7708adb,2024_12_15,26.25486382031396,-80.0805,Hillsboro Inlet,0.6,1.579808,1.8894900000000001,25,25,"NIGHT_MOSTLY_CLOUDY,NIGHT_MOSTLY_CLOUDY,NIGHT_CLOUDY,OVERCAST,CLOUDY","Onshore,Onshore,Onshore,Onshore,Onshore",5
5842041f4e65fad6a7708add,2024_12_15,26.29705672965111,-80.07612,Hillsboro Beach,1.2,1.334,1.6300000000000001,25,25,"NIGHT_MOSTLY_CLOUDY,NIGHT_MOSTLY_CLOUDY,NIGHT_OVERCAST,OVERCAST,OVERCAST","Onshore,Onshore,Onshore,Onshore,Onshore",5
5842041f4e65fad6a7708ade,2024_12_15,26.36569956413266,-80.06717936869391,Red Reef Park,0.49999999999999994,1.42868,1.7932,25,24,"NIGHT_MOSTLY_CLOUDY,NIGHT_MOSTLY_CLOUDY,NIGHT_MOSTLY_CLOUDY,OVERCAST,OVERCAST","Onshore,Onshore,Onshore,Onshore,Onshore",5
5842041f4e65fad6a7708adf,2024_12_15,26.54593873498907,-80.04104359585143,Boynton Beach Inlet (Northside),0.49999999999999994,1.350894,1.853674,25,23,"NIGHT_MOSTLY_CLOUDY,NIGHT_MOSTLY_CLOUDY,NIGHT_MOSTLY_CLOUDY,OVERCAST,OVERCAST","Onshore,Onshore,Onshore,Onshore,Onshore",5
5842041f4e65fad6a7708ae0,2024_12_15,26.92746505629809,-80.06721138954163,Corners,0.7466666666666667,1.519256,2.1161280000000002,25,23,"NIGHT_MOSTLY_CLOUDY,NIGHT_BRIEF_SHOWERS,NIGHT_MOSTLY_CLOUDY,OVERCAST,MOSTLY_CLOUDY","Onshore,Onshore,Onshore,Onshore,Onshore",5
5842041f4e65fad6a7708ae1,2024_12_15,26.76983179886943,-80.03413481937037,The Cove,0.7,1.667226,2.136674,25,23,"NIGHT_OVERCAST,NIGHT_BRIEF_SHOWERS,NIGHT_MOSTLY_CLOUDY,OVERCAST,OVERCAST","Onshore,Onshore,Onshore,Onshore,Onshore",5
5842041f4e65fad6a7708ae3,2024_12_15,26.39224485175123,-80.0650461233983,Japanese Rock,0.9333333333333333,1.292682,1.650868,25,24,"NIGHT_CLEAR,NIGHT_SHOWERS,NIGHT_MOSTLY_CLOUDY,OVERCAST,DRIZZLE","Onshore,Onshore,Onshore,Onshore,Onshore",5
5842041f4e65fad6a7708ae4,2024_12_15,29.94810928551321,-85.42545434612366,Mexico Beach,1,0,0.23,19.4,19.4,"NIGHT_CLEAR,NIGHT_CLEAR,NIGHT_CLEAR,MIST,MOSTLY_CLOUDY","Offshore,Offshore,Offshore,Offshore,Cross-shore",5
5842041f4e65fad6a7708ae5,2024_12_15,30.11752500931267,-85.7306,Shell Island,1,0,0.26,20,20,"NIGHT_CLEAR,NIGHT_CLEAR,NIGHT_CLEAR,MOSTLY_CLOUDY,MOSTLY_CLOUDY","Offshore,Offshore,Offshore,Offshore,Offshore",5
5842041f4e65fad6a7708ae7,2024_12_15,29.94901514702268,-85.43042978529013,D.J.'s,1,0,0.226,19.4,19.4,"NIGHT_CLEAR,NIGHT_CLEAR,NIGHT_CLEAR,MIST,MOSTLY_CLOUDY","Cross-shore,Offshore,Offshore,Offshore,Offshore",5
5842041f4e65fad6a7708ae8,2024_12_15,30.12396111446713,-85.73637,St. Andrew's Park,0.6,0,0.26494,18,18,"NIGHT_CLEAR,NIGHT_CLEAR,NIGHT_CLEAR,MOSTLY_CLOUDY,MOSTLY_CLOUDY","Offshore,Offshore,Offshore,Offshore,Offshore",5
5842041f4e65fad6a7708ae9,2024_12_15,30.16781531760227,-85.79604918824084,Spinnaker,0.6,0.008666,0.296608,18,18,"NIGHT_CLEAR,NIGHT_CLEAR,NIGHT_CLEAR,CLEAR,MOSTLY_CLOUDY","Offshore,Offshore,Offshore,Offshore,Offshore",5
5842041f4e65fad6a7708aea,2024_12_15,30.18877050526983,-85.83243530466363,Wood Pier,1.1333333333333333,0.10835399999999999,0.40404,18,18,"NIGHT_CLEAR,NIGHT_CLEAR,NIGHT_CLEAR,CLEAR,MOSTLY_CLOUDY","Offshore,Offshore,Offshore,Offshore,Offshore",5
5842041f4e65fad6a7708aeb,2024_12_15,30.2676205895555,-85.9938578144113,Inlet Beach Pier,1.5333333333333332,0.13902,0.439374,18,18,"NIGHT_CLEAR,NIGHT_CLEAR,NIGHT_CLEAR,CLEAR,MOSTLY_CLOUDY","Offshore,Offshore,Offshore,Offshore,Offshore",5
5842041f4e65fad6a7708aec,2024_12_15,30.31815542759119,-86.1383771867044,Bud and Alley's,1.0666666666666667,0.15652,0.46104,18,18,"NIGHT_CLEAR,NIGHT_CLEAR,NIGHT_CLEAR,CLEAR,MOSTLY_CLOUDY","Offshore,Offshore,Offshore,Offshore,Offshore",5
5842041f4e65fad6a7708aed,2024_12_15,30.32686082481946,-86.16650590275447,Grayton Beach,1.2666666666666666,0.214186,0.522706,18,18,"NIGHT_CLEAR,NIGHT_CLEAR,NIGHT_CLEAR,MOSTLY_CLEAR,MOSTLY_CLOUDY","Offshore,Offshore,Offshore,Offshore,Offshore",5
5842041f4e65fad6a7708aee,2024_12_15,30.33661488976303,-86.20094,Blue Mountain Beach,1.0666666666666667,0.167188,0.468874,18,18,"NIGHT_CLEAR,NIGHT_CLEAR,NIGHT_CLEAR,CLEAR,CLEAR","Offshore,Offshore,Offshore,Offshore,Offshore",5
5842041f4e65fad6a7708aef,2024_12_15,30.37677202831587,-86.38513,Pompano Joe's,1.5333333333333332,0.300688,0.64822,18,18,"NIGHT_CLEAR,NIGHT_CLEAR,NIGHT_CLEAR,CLEAR,MOSTLY_CLOUDY","Cross-shore,Offshore,Offshore,Cross-shore,Offshore",5
5842041f4e65fad6a7708af0,2024_12_15,30.37429731725911,-86.36687,Seascape,1.4666666666666666,0.21085399999999999,0.556386,18,18,"NIGHT_CLEAR,NIGHT_CLEAR,NIGHT_CLEAR,CLEAR,MOSTLY_CLOUDY","Cross-shore,Offshore,Offshore,Cross-shore,Offshore",5
