_id,date,lat,lon,name,daily_mean_swell_rating,daily_mean_wave_height_min,daily_mean_wave_height_max,daily_mean_water_temperature_max,daily_mean_water_temperature_min,weather_per_timestamp,wind_per_timestamp,n_samples_per_day
5842041f4e65fad6a77087f9,2024_02_18,37.741668,-122.51038,South Ocean Beach,2.217,3.721233333333333,4.998266666666667,14,14,"MOSTLY_CLOUDY,BRIEF_SHOWERS,NIGHT_MIST,NIGHT_MIST,NIGHT_MIST,MOSTLY_CLOUDY,MIST,CLEAR,CLEAR,CLEAR","Offshore,Offshore,Cross-shore,Offshore,Offshore,Offshore,Offshore,Offshore,Offshore,Offshore",10
5842041f4e65fad6a7708801,2024_02_18,37.49142,-122.50428,Maverick's,NA,4.3727833333333335,5.577850000000001,13,13,"SHOWERS,MOSTLY_CLOUDY,NIGHT_MIST,NIGHT_MIST,NIGHT_MOSTLY_CLOUDY,MOSTLY_CLOUDY,CLEAR,CLEAR,CLEAR,MOSTLY_CLEAR","Onshore,Onshore,Onshore,Onshore,Onshore,Onshore,Onshore,Onshore,Onshore,Onshore",10
5842041f4e65fad6a7708804,2024_02_18,44.997,-124.018,Roads End,2.5,2.9539999999999997,3.5220000000000002,11,11,"LIGHT_RAIN,LIGHT_SHOWERS_POSSIBLE,NIGHT_LIGHT_RAIN,NIGHT_CLOUDY,NIGHT_DRIZZLE,NIGHT_MIST,OVERCAST,OVERCAST,MOSTLY_CLOUDY,CLEAR","Offshore,Offshore,Offshore,Offshore,Cross-shore,Onshore,Cross-shore,Cross-shore,Cross-shore,Cross-shore",10
5842041f4e65fad6a7708805,2024_02_18,36.95188851423011,-122.02522,Steamer Lane,2.1,2.46715,3.0911066666666667,14,14,"LIGHT_RAIN,MIST,NIGHT_FOG,NIGHT_FOG,NIGHT_CLEAR,CLEAR,CLEAR,CLEAR,CLEAR,CLEAR","Onshore,Onshore,Onshore,Onshore,Onshore,Offshore,Onshore,Onshore,Cross-shore,Onshore",10
5842041f4e65fad6a7708806,2024_02_18,36.95918781542251,-122.02489,Cowells,1.85,0.6056666666666667,0.91043,14,14,"LIGHT_RAIN,MIST,NIGHT_FOG,NIGHT_LIGHT_RAIN_AND_FOG,NIGHT_CLEAR,CLEAR,CLEAR,CLEAR,CLEAR,CLEAR","Onshore,Onshore,Cross-shore,Cross-shore,Onshore,Cross-shore,Onshore,Onshore,Onshore,Onshore",10
5842041f4e65fad6a7708807,2024_02_18,36.95468082526536,-121.97234,Pleasure Point,2.483,2.5924,3.24044,14,14,"RAIN,LIGHT_RAIN,NIGHT_FOG,NIGHT_FOG,NIGHT_CLEAR,CLEAR,CLEAR,CLEAR,CLEAR,CLEAR","Onshore,Onshore,Onshore,Onshore,Cross-shore,Onshore,Onshore,Onshore,Onshore,Onshore",10
5842041f4e65fad6a770880a,2024_02_18,35.37815414378748,-120.86589,Morro Bay,2.517,2.7658533333333333,3.70762,14,14,"RAIN,RAIN,NIGHT_MOSTLY_CLOUDY,NIGHT_MOSTLY_CLOUDY,NIGHT_CLEAR,CLEAR,CLEAR,CLEAR,CLEAR,MOSTLY_CLEAR","Offshore,Offshore,Offshore,Offshore,Offshore,Offshore,Offshore,Offshore,Offshore,Offshore",10
5842041f4e65fad6a770880b,2024_02_18,36.95782765000708,-121.9672887511276,Jack's,1.85,0.7867633333333334,1.0860266666666667,14,14,"RAIN,LIGHT_RAIN,NIGHT_FOG,NIGHT_FOG,NIGHT_CLEAR,CLEAR,CLEAR,CLEAR,CLEAR,CLEAR","Onshore,Onshore,Cross-shore,Onshore,Onshore,Onshore,Onshore,Onshore,Onshore,Onshore",10
5842041f4e65fad6a770880d,2024_02_18,34.29982939936656,-119.3489016603669,Gold Coast Beachbreaks,3,0.898,1.129,15,15,"MOSTLY_CLEAR,MOSTLY_CLEAR,NIGHT_MOSTLY_CLOUDY,NIGHT_FOG,NIGHT_FOG,LIGHT_RAIN_AND_FOG,CLEAR,CLEAR,CLEAR,CLEAR","Onshore,Cross-shore,Offshore,Cross-shore,Cross-shore,Cross-shore,Cross-shore,Cross-shore,Cross-shore,Cross-shore",10
5842041f4e65fad6a7708811,2024_02_18,34.245076,-119.26799,Ventura Harbor,3,2.444545833333333,3.1526792500000003,14,14,"MOSTLY_CLEAR,CLEAR,NIGHT_MOSTLY_CLOUDY,NIGHT_FOG,NIGHT_FOG,MIST,CLEAR,CLEAR,MOSTLY_CLOUDY,MOSTLY_CLOUDY","Onshore,Onshore,Offshore,Cross-shore,Offshore,Offshore,Offshore,Offshore,Onshore,Onshore",10
5842041f4e65fad6a7708813,2024_02_18,34.051,-118.964,County Line,3.267,1.21397,1.6070933333333333,15,15,"MOSTLY_CLOUDY,MOSTLY_CLOUDY,NIGHT_BRIEF_SHOWERS,NIGHT_FOG,NIGHT_FOG,FOG,MOSTLY_CLOUDY,MOSTLY_CLOUDY,MOSTLY_CLOUDY,BRIEF_SHOWERS","Onshore,Onshore,Offshore,Offshore,Offshore,Offshore,Offshore,Cross-shore,Offshore,Offshore",10
5842041f4e65fad6a7708814,2024_02_18,34.37256264378892,-119.47797,Rincon,3.4,2.2680000000000002,2.711,14.4,14.4,"MOSTLY_CLEAR,CLEAR,NIGHT_MOSTLY_CLOUDY,NIGHT_SHOWERS,NIGHT_MOSTLY_CLOUDY,OVERCAST,CLEAR,CLEAR,CLEAR,MOSTLY_CLOUDY","Cross-shore,Cross-shore,Cross-shore,Cross-shore,Cross-shore,Cross-shore,Cross-shore,Cross-shore,Cross-shore,Onshore",10
5842041f4e65fad6a7708817,2024_02_18,34.03096101876324,-118.68109,Malibu Third Point,2.8,0.456,0.761,15,15,"MOSTLY_CLOUDY,MOSTLY_CLOUDY,NIGHT_FOG,NIGHT_FOG,NIGHT_FOG,MIST,MIST,MIST,MIST,MIST","Cross-shore,Cross-shore,Onshore,Onshore,Onshore,Onshore,Onshore,Onshore,Onshore,Onshore",10
5842041f4e65fad6a7708819,2024_02_18,33.984079047970035,-118.47381591796875,Venice Beach,3.25,1.8054433333333335,2.2841233333333335,14,14,"MOSTLY_CLOUDY,MOSTLY_CLOUDY,NIGHT_FOG,NIGHT_FOG,NIGHT_MIST,MIST,CLEAR,MOSTLY_CLOUDY,MIST,MIST","Onshore,Onshore,Onshore,Offshore,Offshore,Offshore,Offshore,Offshore,Offshore,Offshore",10
5842041f4e65fad6a770881e,2024_02_18,34.037508438646746,-118.58339846155594,Topanga Beach,3.7,1.3067333333333333,1.5836766666666666,15,15,"MIST,MIST,NIGHT_FOG,NIGHT_FOG,NIGHT_MIST,MIST,MIST,BRIEF_SHOWERS,MIST,MIST","Onshore,Onshore,Offshore,Offshore,Offshore,Offshore,Offshore,Cross-shore,Cross-shore,Cross-shore",10
5842041f4e65fad6a7708820,2024_02_18,33.73954373690184,-118.11414,Seal Beach Jetty,2.8,1.141,1.421,15,15,"DRIZZLE,OVERCAST,NIGHT_FOG,NIGHT_FOG,NIGHT_FOG,FOG,MIST,MOSTLY_CLOUDY,BRIEF_SHOWERS,BRIEF_SHOWERS","Onshore,Onshore,Cross-shore,Cross-shore,Offshore,Offshore,Offshore,Cross-shore,Onshore,Onshore",10
5842041f4e65fad6a7708822,2024_02_18,33.72309983348433,-118.08078,Anderson Street,2.9,1.702,2.043,15,15,"OVERCAST,DRIZZLE,NIGHT_FOG,NIGHT_FOG,NIGHT_FOG,FOG,OVERCAST,MOSTLY_CLOUDY,MIST,MIST","Onshore,Onshore,Offshore,Cross-shore,Offshore,Offshore,Offshore,Offshore,Onshore,Onshore",10
5842041f4e65fad6a7708827,2024_02_18,33.65574085629463,-118.00397,Huntington Beach Pier Northside,3.35,1.8551233333333332,2.6028933333333333,14,14,"OVERCAST,DRIZZLE,NIGHT_MOSTLY_CLOUDY,NIGHT_MOSTLY_CLOUDY,NIGHT_FOG,FOG,MIST,MIST,MIST,MIST","Onshore,Onshore,Offshore,Cross-shore,Offshore,Offshore,Offshore,Offshore,Cross-shore,Cross-shore",10
5842041f4e65fad6a7708828,2024_02_18,34.272041739333,-119.2997646331,C St.,3.4,1.90151,2.5138133333333332,14,14,"MOSTLY_CLEAR,CLEAR,NIGHT_BRIEF_SHOWERS,NIGHT_FOG,NIGHT_MIST,OVERCAST,CLEAR,CLEAR,CLEAR,CLEAR","Onshore,Onshore,Offshore,Offshore,Offshore,Offshore,Offshore,Offshore,Onshore,Onshore",10
5842041f4e65fad6a770882a,2024_02_18,33.61555743705257,-117.93676,Newport Lower Jetties,3.483,1.54161,2.00238,15,15,"OVERCAST,OVERCAST,NIGHT_FOG,NIGHT_MOSTLY_CLOUDY,NIGHT_FOG,FOG,MIST,MIST,MIST,MIST","Onshore,Onshore,Offshore,Cross-shore,Offshore,Offshore,Offshore,Cross-shore,Onshore,Onshore",10
5842041f4e65fad6a770882b,2024_02_18,33.5930302087,-117.88199,The Wedge,2.8,0.976526,1.347947,15,15,"OVERCAST,OVERCAST,NIGHT_FOG,NIGHT_MOSTLY_CLOUDY,NIGHT_FOG,FOG,MIST,CLEAR,MOSTLY_CLOUDY,MOSTLY_CLOUDY","Onshore,Onshore,Offshore,Cross-shore,Offshore,Offshore,Offshore,Onshore,Cross-shore,Onshore",10
5842041f4e65fad6a770882c,2024_02_18,33.60577342582,-117.9315376281,Newport Beach Pier,3,1.2781933333333333,1.5973733333333333,15,15,"CLOUDY,CLOUDY,NIGHT_FOG,NIGHT_MOSTLY_CLOUDY,NIGHT_MOSTLY_CLOUDY,FOG,MIST,MIST,MIST,MIST","Cross-shore,Cross-shore,Offshore,Onshore,Onshore,Onshore,Cross-shore,Cross-shore,Onshore,Onshore",10
5842041f4e65fad6a770882e,2024_02_18,33.475793399792984,-117.72291,Salt Creek,3.6,1.5907766666666667,2.2132966666666665,14,14,"MOSTLY_CLOUDY,MOSTLY_CLOUDY,NIGHT_MOSTLY_CLOUDY,NIGHT_FOG,NIGHT_CLEAR,CLEAR,MIST,CLEAR,CLEAR,MOSTLY_CLEAR","Onshore,Onshore,Offshore,Offshore,Offshore,Offshore,Offshore,Offshore,Offshore,Cross-shore",10
5842041f4e65fad6a7708830,2024_02_18,33.41800974113613,-117.61952,T-Street,3.65,1.30361,1.8335466666666667,14,14,"MOSTLY_CLOUDY,MOSTLY_CLOUDY,NIGHT_MOSTLY_CLOUDY,NIGHT_CLEAR,NIGHT_CLEAR,CLEAR,MOSTLY_CLOUDY,CLEAR,CLEAR,MOSTLY_CLEAR","Onshore,Cross-shore,Offshore,Offshore,Cross-shore,Onshore,Offshore,Cross-shore,Onshore,Onshore",10
5842041f4e65fad6a7708832,2024_02_18,33.202391008646,-117.39475,Oceanside Harbor,3.183,1.6489233333333333,2.2675833333333335,15,15,"CLEAR,CLEAR,NIGHT_FOG,NIGHT_FOG,NIGHT_CLEAR,CLEAR,CLEAR,MOSTLY_CLOUDY,MOSTLY_CLEAR,MOSTLY_CLEAR","Onshore,Onshore,Offshore,Offshore,Offshore,Offshore,Offshore,Offshore,Offshore,Offshore",10
5842041f4e65fad6a7708835,2024_02_18,33.19477795952803,-117.38667,Oceanside Pier,3,1.5739933333333334,2.0681666666666665,15,15,"OVERCAST,CLOUDY,NIGHT_FOG,NIGHT_FOG,NIGHT_MOSTLY_CLEAR,CLEAR,MOSTLY_CLOUDY,CLEAR,CLEAR,CLEAR","Onshore,Onshore,Cross-shore,Offshore,Offshore,Offshore,Offshore,Offshore,Offshore,Cross-shore",10
5842041f4e65fad6a7708837,2024_02_18,33.14948100706,-117.35029,Tamarack,2.8,0.888,1.123,15,15,"CLEAR,CLEAR,NIGHT_FOG,NIGHT_MOSTLY_CLOUDY,NIGHT_CLEAR,CLEAR,CLEAR,CLEAR,CLEAR,CLEAR","Onshore,Onshore,Offshore,Offshore,Offshore,Offshore,Offshore,Offshore,Offshore,Offshore",10
5842041f4e65fad6a7708839,2024_02_18,32.865777159358856,-117.25614295356122,Scripps,3,1.4129933333333333,2.0262433333333334,14,14,"CLEAR,CLOUDY,NIGHT_FOG,NIGHT_CLEAR,NIGHT_MOSTLY_CLEAR,MOSTLY_CLEAR,CLEAR,CLEAR,CLEAR,CLEAR","Onshore,Onshore,Cross-shore,Offshore,Offshore,Offshore,Offshore,Offshore,Cross-shore,Onshore",10
5842041f4e65fad6a770883a,2024_02_18,32.813094,-117.27381,Birdrock,3.6,2.206,2.646,15,15,"CLOUDY,CLOUDY,NIGHT_MOSTLY_CLOUDY,NIGHT_FOG,NIGHT_MIST,FOG,MOSTLY_CLEAR,CLEAR,CLEAR,CLEAR","Onshore,Cross-shore,Offshore,Offshore,Cross-shore,Offshore,Offshore,Offshore,Cross-shore,Onshore",10
5842041f4e65fad6a770883b,2024_02_18,32.877231,-117.25303,Blacks,4.067,1.8851666666666667,2.6750766666666665,14,14,"CLEAR,CLOUDY,NIGHT_FOG,NIGHT_CLEAR,NIGHT_MOSTLY_CLEAR,MOSTLY_CLEAR,CLEAR,CLEAR,CLEAR,CLEAR","Onshore,Onshore,Onshore,Cross-shore,Offshore,Offshore,Onshore,Onshore,Onshore,Onshore",10
5842041f4e65fad6a770883c,2024_02_18,32.82978974229765,-117.28161740727381,Windansea,3.7,1.7764166666666665,2.229416666666667,14,14,"CLOUDY,CLOUDY,NIGHT_FOG,NIGHT_MIST,NIGHT_CLEAR,MIST,CLEAR,CLEAR,CLEAR,CLEAR","Onshore,Onshore,Offshore,Offshore,Offshore,Offshore,Offshore,Offshore,Offshore,Cross-shore",10
5842041f4e65fad6a770883d,2024_02_18,32.838278,-117.28396,Horseshoe,3.6,1.913,2.288,15,15,"CLOUDY,CLOUDY,NIGHT_FOG,NIGHT_MIST,NIGHT_CLEAR,MIST,CLEAR,CLEAR,CLEAR,CLEAR","Onshore,Onshore,Offshore,Offshore,Offshore,Offshore,Offshore,Offshore,Onshore,Onshore",10
5842041f4e65fad6a770883f,2024_02_18,32.75034717673179,-117.25337,Ocean Beach,2.5,1.87825,2.375923333333333,14,14,"CLOUDY,MOSTLY_CLOUDY,NIGHT_FOG,NIGHT_MOSTLY_CLOUDY,NIGHT_CLEAR,CLEAR,MIST,CLEAR,CLEAR,CLEAR","Onshore,Onshore,Offshore,Offshore,Offshore,Offshore,Offshore,Offshore,Offshore,Onshore",10
5842041f4e65fad6a7708840,2024_02_18,32.73693,-117.25718,Sunset Cliffs,3.8,2.11,2.531,15,15,"CLOUDY,MOSTLY_CLOUDY,NIGHT_FOG,NIGHT_FOG,NIGHT_MIST,MIST,CLEAR,CLEAR,CLEAR,CLEAR","Onshore,Onshore,Offshore,Offshore,Offshore,Offshore,Offshore,Offshore,Offshore,Cross-shore",10
5842041f4e65fad6a7708841,2024_02_18,32.796582258728826,-117.25779,Pacific Beach,3.1,1.7108400000000001,2.327,14,14,"CLOUDY,CLOUDY,NIGHT_FOG,NIGHT_MOSTLY_CLEAR,NIGHT_MOSTLY_CLOUDY,MOSTLY_CLEAR,MIST,CLEAR,CLEAR,CLEAR","Onshore,Cross-shore,Offshore,Offshore,Cross-shore,Offshore,Offshore,Offshore,Cross-shore,Onshore",10
5842041f4e65fad6a7708842,2024_02_18,32.776636,-117.25514,Mission Beach,3.2,1.69059,2.30275,14,14,"CLOUDY,CLOUDY,NIGHT_FOG,NIGHT_MOSTLY_CLEAR,NIGHT_MOSTLY_CLOUDY,MOSTLY_CLEAR,MIST,CLEAR,CLEAR,CLEAR","Onshore,Onshore,Offshore,Offshore,Offshore,Offshore,Offshore,Offshore,Cross-shore,Onshore",10
5842041f4e65fad6a7708844,2024_02_18,32.577195519016,-117.13475,Imperial Beach Pier,3,2.159,2.592,15,15,"CLOUDY,MOSTLY_CLOUDY,NIGHT_FOG,NIGHT_FOG,NIGHT_MOSTLY_CLEAR,CLEAR,CLEAR,CLEAR,CLEAR,CLEAR","Onshore,Onshore,Offshore,Offshore,Offshore,Offshore,Offshore,Offshore,Cross-shore,Onshore",10
5842041f4e65fad6a770884a,2024_02_18,42.88678181061,-70.80843,Seabrook,0.217,0.04049016666666667,0.15470283333333334,4,3,"NIGHT_CLEAR,NIGHT_CLEAR,NIGHT_CLEAR,NIGHT_CLEAR,CLEAR,CLEAR,CLEAR,CLEAR,CLEAR,CLEAR","Offshore,Offshore,Offshore,Offshore,Cross-shore,Cross-shore,Cross-shore,Cross-shore,Offshore,Offshore",10
5842041f4e65fad6a770884e,2024_02_18,41.434181432898335,-71.45312118111178,Narragansett,0.667,0.19434333333333334,0.47375000000000006,5,4,"NIGHT_CLEAR,NIGHT_CLEAR,NIGHT_CLEAR,NIGHT_CLEAR,CLEAR,CLEAR,CLEAR,CLEAR,CLEAR,CLEAR","Offshore,Offshore,Cross-shore,Offshore,Cross-shore,Cross-shore,Cross-shore,Cross-shore,Cross-shore,Cross-shore",10
5842041f4e65fad6a7708850,2024_02_18,40.582703230722,-73.65247,Lincoln Blvd,0.02,0.17033066666666669,0.411864,5,4,"NIGHT_CLEAR,NIGHT_CLEAR,NIGHT_CLEAR,NIGHT_CLEAR,CLEAR,CLEAR,CLEAR,CLEAR,CLEAR,CLEAR","Onshore,Offshore,Onshore,Onshore,Cross-shore,Cross-shore,Cross-shore,Cross-shore,Cross-shore,Cross-shore",10
5842041f4e65fad6a7708852,2024_02_18,40.58342841721757,-73.81182,Rockaways,0,0.07222666666666668,0.31809333333333334,5,4,"NIGHT_CLEAR,NIGHT_CLEAR,NIGHT_CLEAR,NIGHT_CLEAR,CLEAR,CLEAR,CLEAR,CLEAR,CLEAR,CLEAR","Cross-shore,Offshore,Cross-shore,Cross-shore,Onshore,Onshore,Onshore,Onshore,Onshore,Onshore",10
5842041f4e65fad6a7708853,2024_02_18,40.330474,-73.9734,Monmouth Beach,0.5,0.051750000000000004,0.31844,6,5,"NIGHT_CLEAR,NIGHT_CLEAR,NIGHT_CLEAR,NIGHT_CLEAR,CLEAR,CLEAR,CLEAR,CLEAR,CLEAR,CLEAR","Offshore,Offshore,Offshore,Offshore,Offshore,Offshore,Offshore,Offshore,Offshore,Offshore",10
5842041f4e65fad6a7708856,2024_02_18,40.113,-74.028,Manasquan Inlet,0.02,0.005399999999999999,0.29172333333333333,6,5,"NIGHT_CLEAR,NIGHT_CLEAR,NIGHT_CLEAR,NIGHT_CLEAR,CLEAR,CLEAR,CLEAR,CLEAR,CLEAR,CLEAR","Offshore,Offshore,Offshore,Offshore,Offshore,Offshore,Offshore,Offshore,Offshore,Offshore",10
5842041f4e65fad6a7708857,2024_02_18,39.941519877445664,-74.06829,Casino Pier,0.20299999999999999,0.007600000000000001,0.29325666666666667,6,5,"NIGHT_CLEAR,NIGHT_CLEAR,NIGHT_CLEAR,NIGHT_CLEAR,CLEAR,CLEAR,CLEAR,CLEAR,CLEAR,CLEAR","Offshore,Offshore,Offshore,Offshore,Offshore,Offshore,Offshore,Offshore,Offshore,Offshore",10
5842041f4e65fad6a7708858,2024_02_18,39.28223089949212,-74.55766,North End OC,0.02,-0.001304,0.28172933333333333,6,5,"NIGHT_CLEAR,NIGHT_CLEAR,NIGHT_CLEAR,NIGHT_CLEAR,CLEAR,CLEAR,CLEAR,CLEAR,CLEAR,CLEAR","Offshore,Offshore,Offshore,Offshore,Cross-shore,Cross-shore,Onshore,Cross-shore,Cross-shore,Cross-shore",10
5842041f4e65fad6a770885b,2024_02_18,39.65080599934257,-74.17146,Ship Bottom,0.20299999999999999,0.013396000000000002,0.27368733333333334,6,5,"NIGHT_CLEAR,NIGHT_CLEAR,NIGHT_CLEAR,NIGHT_CLEAR,CLEAR,CLEAR,CLEAR,CLEAR,CLEAR,CLEAR","Offshore,Offshore,Offshore,Offshore,Cross-shore,Cross-shore,Cross-shore,Cross-shore,Cross-shore,Cross-shore",10
5842041f4e65fad6a7708863,2024_02_18,36.034151543144,-75.66791,Third Street,1.733,0.5503733333333334,0.9177066666666667,7,6,"NIGHT_CLEAR,NIGHT_CLEAR,NIGHT_CLEAR,NIGHT_CLEAR,CLEAR,CLEAR,CLEAR,CLEAR,CLEAR,CLEAR","Cross-shore,Cross-shore,Onshore,Cross-shore,Offshore,Offshore,Offshore,Offshore,Offshore,Offshore",10
5842041f4e65fad6a7708867,2024_02_18,35.605833221351425,-75.46303,S-Turns,1.884,0.6732233333333334,1.0369833333333334,9,8,"NIGHT_CLEAR,NIGHT_CLEAR,NIGHT_CLEAR,NIGHT_CLEAR,CLEAR,CLEAR,CLEAR,CLEAR,CLEAR,CLEAR","Cross-shore,Cross-shore,Onshore,Cross-shore,Onshore,Cross-shore,Offshore,Offshore,Offshore,Offshore",10
5842041f4e65fad6a770886d,2024_02_18,38.338461,-75.08117,Ocean City Boardwalk,0,-0.005466666666666667,0.188608,7,5,"NIGHT_CLEAR,NIGHT_CLEAR,NIGHT_CLEAR,NIGHT_CLEAR,CLEAR,CLEAR,CLEAR,CLEAR,CLEAR,CLEAR","Offshore,Offshore,Offshore,Offshore,Offshore,Offshore,Offshore,Offshore,Offshore,Offshore",10
5842041f4e65fad6a770886f,2024_02_18,29.844757212379562,-81.26136,A St.,1.1,0.241,0.525,15.6,15.6,"LIGHT_RAIN,NIGHT_RAIN_AND_FOG,NIGHT_RAIN,NIGHT_RAIN,LIGHT_RAIN,LIGHT_SHOWERS_POSSIBLE,RAIN,LIGHT_RAIN,RAIN,LIGHT_RAIN","Offshore,Offshore,Cross-shore,Cross-shore,Cross-shore,Cross-shore,Cross-shore,Cross-shore,Cross-shore,Cross-shore",10
5842041f4e65fad6a7708871,2024_02_18,29.069417851135093,-80.90824,New Smyrna Beach,0.533,0.49977333333333335,0.8072566666666667,17,16,"RAIN,NIGHT_RAIN,NIGHT_DRIZZLE,NIGHT_FOG,RAIN,LIGHT_RAIN,RAIN,RAIN,RAIN,HEAVY_RAIN","Cross-shore,Cross-shore,Cross-shore,Cross-shore,Cross-shore,Onshore,Onshore,Onshore,Onshore,Onshore",10
5842041f4e65fad6a7708872,2024_02_18,28.367707417566,-80.60171,Cocoa Beach Pier,0.117,0.00225,0.23723333333333335,18,17,"OVERCAST,NIGHT_OVERCAST,NIGHT_DRIZZLE,NIGHT_MOSTLY_CLOUDY,LIGHT_RAIN,LIGHT_RAIN,LIGHT_RAIN,RAIN,RAIN,RAIN","Cross-shore,Cross-shore,Cross-shore,Cross-shore,Cross-shore,Cross-shore,Onshore,Onshore,Onshore,Cross-shore",10
5842041f4e65fad6a7708873,2024_02_18,28.091782738658846,-80.56479,Indialantic,0.566,0.22703,0.51586,19,18,"CLOUDY,NIGHT_MOSTLY_CLOUDY,NIGHT_OVERCAST,NIGHT_LIGHT_RAIN,LIGHT_RAIN,LIGHT_RAIN,LIGHT_RAIN,DRIZZLE,LIGHT_RAIN,RAIN","Cross-shore,Cross-shore,Onshore,Cross-shore,Cross-shore,Cross-shore,Cross-shore,Onshore,Onshore,Onshore",10
5842041f4e65fad6a7708876,2024_02_18,27.25392904143517,-80.19455,Jensen Beach,0.566,0.24044666666666667,0.5232766666666667,22,20,"CLOUDY,NIGHT_CLOUDY,NIGHT_BRIEF_SHOWERS,NIGHT_OVERCAST,CLOUDY,DRIZZLE,OVERCAST,OVERCAST,MOSTLY_CLOUDY,HEAVY_RAIN","Onshore,Cross-shore,Onshore,Cross-shore,Onshore,Onshore,Onshore,Onshore,Onshore,Onshore",10
5842041f4e65fad6a7708879,2024_02_18,26.76346795333825,-80.0360655784607,Reef Road,0.733,0.13183333333333333,0.3759833333333333,23,22,"BRIEF_SHOWERS,NIGHT_CLEAR,NIGHT_RAIN,NIGHT_OVERCAST,OVERCAST,MOSTLY_CLOUDY,OVERCAST,OVERCAST,OVERCAST,OVERCAST","Offshore,Offshore,Onshore,Onshore,Cross-shore,Onshore,Onshore,Onshore,Onshore,Onshore",10
5842041f4e65fad6a770887c,2024_02_18,26.336499228484,-80.06956100463,Boca Raton Inlet,0.416,0.009000000000000001,0.28596333333333335,24,22,"MOSTLY_CLEAR,NIGHT_CLEAR,NIGHT_LIGHT_RAIN_AND_FOG,NIGHT_RAIN,MIST,DRIZZLE,CLOUDY,LIGHT_RAIN,DRIZZLE,DRIZZLE","Cross-shore,Offshore,Onshore,Onshore,Cross-shore,Onshore,Cross-shore,Onshore,Onshore,Onshore",10
5842041f4e65fad6a770887d,2024_02_18,26.31719311695038,-80.07452525176168,Deerfield Beach Pier,0.017,0.03011866666666667,0.19609116666666668,24,23,"CLEAR,NIGHT_CLEAR,NIGHT_FOG,NIGHT_RAIN_AND_FOG,LIGHT_SHOWERS_POSSIBLE,MIST,CLEAR,LIGHT_RAIN,DRIZZLE,DRIZZLE","Cross-shore,Offshore,Onshore,Onshore,Cross-shore,Onshore,Cross-shore,Onshore,Onshore,Onshore",10
5842041f4e65fad6a7708881,2024_02_18,30.20276320866628,-85.85626528676136,"Spyglass Dr., Panama City",0,0,0.09508,16,15,"LIGHT_RAIN,NIGHT_LIGHT_SHOWERS_POSSIBLE,NIGHT_OVERCAST,NIGHT_OVERCAST,CLOUDY,CLEAR,CLEAR,CLEAR,CLEAR,CLEAR","Offshore,Offshore,Offshore,Offshore,Offshore,Offshore,Offshore,Offshore,Offshore,Offshore",10
5842041f4e65fad6a7708884,2024_02_18,33.39000832738053,-117.59852,Cottons,3.9,1.6391233333333335,2.2420533333333332,14,14,"MOSTLY_CLOUDY,MOSTLY_CLOUDY,NIGHT_CLEAR,NIGHT_MIST,NIGHT_CLEAR,CLEAR,MOSTLY_CLOUDY,MOSTLY_CLOUDY,CLEAR,CLEAR","Onshore,Onshore,Offshore,Offshore,Offshore,Cross-shore,Cross-shore,Cross-shore,Cross-shore,Onshore",10
5842041f4e65fad6a7708885,2024_02_18,33.359416282661,-117.54167901405711,Trails,3.3,1.236,1.524,15,15,"MOSTLY_CLOUDY,MOSTLY_CLOUDY,NIGHT_MOSTLY_CLOUDY,NIGHT_CLEAR,NIGHT_CLEAR,CLEAR,CLEAR,MOSTLY_CLEAR,MOSTLY_CLEAR,CLEAR","Onshore,Onshore,Offshore,Offshore,Offshore,Offshore,Offshore,Onshore,Onshore,Onshore",10
5842041f4e65fad6a7708886,2024_02_18,33.38042605929805,-117.58332,Middles,3.45,1.11061,1.5401233333333333,14,14,"MOSTLY_CLOUDY,MOSTLY_CLOUDY,NIGHT_CLEAR,NIGHT_MIST,NIGHT_CLEAR,CLEAR,MOSTLY_CLOUDY,MOSTLY_CLOUDY,CLEAR,CLEAR","Onshore,Onshore,Offshore,Offshore,Offshore,Cross-shore,Offshore,Cross-shore,Onshore,Onshore",10
5842041f4e65fad6a7708887,2024_02_18,33.38445596302903,-117.59445,Upper Trestles,3.934,1.5234566666666667,2.08372,14,14,"MOSTLY_CLOUDY,MOSTLY_CLOUDY,NIGHT_CLEAR,NIGHT_MIST,NIGHT_CLEAR,CLEAR,MOSTLY_CLOUDY,MOSTLY_CLOUDY,CLEAR,CLEAR","Onshore,Onshore,Offshore,Offshore,Offshore,Cross-shore,Offshore,Offshore,Onshore,Onshore",10
5842041f4e65fad6a7708889,2024_02_18,28.944414,-95.28883,Surfside,1.1,0.210093,0.32827,15.6,15.6,"CLEAR,CLEAR,NIGHT_CLEAR,NIGHT_CLEAR,CLEAR,CLEAR,CLEAR,CLEAR,MOSTLY_CLEAR,CLEAR","Offshore,Offshore,Offshore,Offshore,Offshore,Offshore,Offshore,Offshore,Offshore,Offshore",10
5842041f4e65fad6a770888a,2024_02_18,33.38143999849023,-117.58843,Lower Trestles,3.2,1.4348733333333334,1.8630533333333335,14,14,"MOSTLY_CLOUDY,MOSTLY_CLOUDY,NIGHT_CLEAR,NIGHT_MOSTLY_CLOUDY,NIGHT_CLEAR,CLEAR,MOSTLY_CLOUDY,MOSTLY_CLOUDY,CLEAR,CLEAR","Onshore,Onshore,Offshore,Offshore,Offshore,Cross-shore,Offshore,Cross-shore,Onshore,Onshore",10
5842041f4e65fad6a770888b,2024_02_18,33.379622288757,-117.57894,Church,3.45,1.2530266666666667,1.6828733333333332,14,14,"MOSTLY_CLOUDY,MOSTLY_CLOUDY,NIGHT_CLEAR,NIGHT_MIST,NIGHT_CLEAR,CLEAR,MOSTLY_CLOUDY,MOSTLY_CLOUDY,CLEAR,CLEAR","Onshore,Onshore,Offshore,Offshore,Offshore,Cross-shore,Offshore,Cross-shore,Cross-shore,Onshore",10
5842041f4e65fad6a770888d,2024_02_18,21.679,-158.042,Sunset Beach,3,3.4548733333333335,4.420976666666666,26,25,"CLEAR,CLEAR,NIGHT_BRIEF_SHOWERS,NIGHT_CLEAR,NIGHT_MOSTLY_CLOUDY,NIGHT_MOSTLY_CLOUDY,NIGHT_MOSTLY_CLEAR,NIGHT_MOSTLY_CLEAR,CLEAR,MOSTLY_CLEAR","Cross-shore,Cross-shore,Cross-shore,Offshore,Offshore,Offshore,Cross-shore,Offshore,Cross-shore,Cross-shore",10
5842041f4e65fad6a770888e,2024_02_18,21.670550036401,-158.0482,Rocky Point,2.7,3.2653733333333332,4.1931433333333334,26,25,"CLEAR,CLEAR,NIGHT_CLEAR,NIGHT_CLEAR,NIGHT_MOSTLY_CLOUDY,NIGHT_MOSTLY_CLEAR,NIGHT_MOSTLY_CLEAR,NIGHT_MOSTLY_CLEAR,CLEAR,CLEAR","Cross-shore,Cross-shore,Cross-shore,Cross-shore,Cross-shore,Cross-shore,Cross-shore,Cross-shore,Cross-shore,Cross-shore",10
5842041f4e65fad6a770888f,2024_02_18,21.668,-158.05,Chambers,3,3.315,3.961,24,24,"CLEAR,CLEAR,NIGHT_CLEAR,NIGHT_CLEAR,NIGHT_MOSTLY_CLOUDY,NIGHT_MOSTLY_CLEAR,NIGHT_MOSTLY_CLEAR,NIGHT_MOSTLY_CLEAR,CLEAR,CLEAR","Cross-shore,Cross-shore,Cross-shore,Cross-shore,Cross-shore,Cross-shore,Cross-shore,Cross-shore,Cross-shore,Cross-shore",10
5842041f4e65fad6a7708890,2024_02_18,21.66522,-158.0526,Pipeline,3.1,2.7491233333333334,3.4912833333333335,26,25,"CLEAR,CLEAR,NIGHT_CLEAR,NIGHT_CLEAR,NIGHT_MOSTLY_CLOUDY,NIGHT_MOSTLY_CLEAR,NIGHT_MOSTLY_CLEAR,NIGHT_MOSTLY_CLEAR,CLEAR,CLEAR","Cross-shore,Cross-shore,Cross-shore,Cross-shore,Cross-shore,Cross-shore,Cross-shore,Cross-shore,Cross-shore,Cross-shore",10
5842041f4e65fad6a7708891,2024_02_18,21.665,-158.054,Backdoor,3,2.7491233333333334,3.4912833333333335,26,25,"CLEAR,CLEAR,NIGHT_CLEAR,NIGHT_CLEAR,NIGHT_MOSTLY_CLOUDY,NIGHT_MOSTLY_CLEAR,NIGHT_MOSTLY_CLEAR,NIGHT_MOSTLY_CLEAR,CLEAR,CLEAR","Cross-shore,Cross-shore,Cross-shore,Cross-shore,Cross-shore,Cross-shore,Cross-shore,Cross-shore,Cross-shore,Cross-shore",10
5842041f4e65fad6a7708892,2024_02_18,21.662,-158.057,Rockpile,2.8,3.474,4.15,24,24,"CLEAR,CLEAR,NIGHT_CLEAR,NIGHT_MOSTLY_CLOUDY,NIGHT_MOSTLY_CLOUDY,NIGHT_MOSTLY_CLEAR,NIGHT_MOSTLY_CLEAR,NIGHT_MOSTLY_CLEAR,CLEAR,CLEAR","Cross-shore,Cross-shore,Cross-shore,Cross-shore,Cross-shore,Cross-shore,Cross-shore,Cross-shore,Cross-shore,Cross-shore",10
5842041f4e65fad6a7708893,2024_02_18,21.65870453806827,-158.06058,Log Cabins,2.8,3.154,3.7720000000000002,24,24,"CLEAR,CLEAR,NIGHT_CLEAR,NIGHT_MOSTLY_CLOUDY,NIGHT_MOSTLY_CLOUDY,NIGHT_MOSTLY_CLEAR,NIGHT_MOSTLY_CLEAR,NIGHT_MOSTLY_CLEAR,CLEAR,CLEAR","Cross-shore,Cross-shore,Cross-shore,Cross-shore,Cross-shore,Cross-shore,Cross-shore,Cross-shore,Cross-shore,Cross-shore",10
5842041f4e65fad6a7708894,2024_02_18,21.66203493640557,-158.05495,Off-The-Wall,3,3.525,4.212,24,24,"CLEAR,CLEAR,NIGHT_CLEAR,NIGHT_MOSTLY_CLOUDY,NIGHT_MOSTLY_CLOUDY,NIGHT_MOSTLY_CLEAR,NIGHT_MOSTLY_CLEAR,NIGHT_MOSTLY_CLEAR,CLEAR,CLEAR","Cross-shore,Cross-shore,Cross-shore,Cross-shore,Cross-shore,Cross-shore,Cross-shore,Cross-shore,Cross-shore,Cross-shore",10
5842041f4e65fad6a7708895,2024_02_18,21.643,-158.067,Waimea Bay,NA,4.149006666666667,5.069356666666667,26,25,"CLEAR,CLEAR,NIGHT_CLEAR,NIGHT_CLEAR,NIGHT_MOSTLY_CLOUDY,NIGHT_MOSTLY_CLEAR,NIGHT_MOSTLY_CLEAR,NIGHT_MOSTLY_CLEAR,CLEAR,CLEAR","Cross-shore,Cross-shore,Cross-shore,Offshore,Offshore,Offshore,Offshore,Offshore,Offshore,Offshore",10
5842041f4e65fad6a7708896,2024_02_18,21.622,-158.087,Hultin's,2.2,3.458623333333333,4.403393333333334,26,25,"CLEAR,CLEAR,NIGHT_CLEAR,NIGHT_MOSTLY_CLEAR,NIGHT_MOSTLY_CLOUDY,NIGHT_CLEAR,NIGHT_MOSTLY_CLEAR,NIGHT_CLEAR,CLEAR,CLEAR","Cross-shore,Cross-shore,Cross-shore,Offshore,Offshore,Offshore,Offshore,Offshore,Offshore,Offshore",10
5842041f4e65fad6a7708897,2024_02_18,21.623,-158.085,Jocko's,2,3.1149999999999998,3.725,24,24,"CLEAR,CLEAR,NIGHT_CLEAR,NIGHT_MOSTLY_CLEAR,NIGHT_MOSTLY_CLOUDY,NIGHT_CLEAR,NIGHT_MOSTLY_CLEAR,NIGHT_CLEAR,CLEAR,CLEAR","Onshore,Onshore,Onshore,Onshore,Onshore,Onshore,Onshore,Onshore,Onshore,Onshore",10
5842041f4e65fad6a7708898,2024_02_18,21.62,-158.088,Laniakea,2.3,3.29818,4.2492,26,25,"CLEAR,CLEAR,NIGHT_CLEAR,NIGHT_MOSTLY_CLEAR,NIGHT_MOSTLY_CLOUDY,NIGHT_CLEAR,NIGHT_MOSTLY_CLEAR,NIGHT_CLEAR,CLEAR,CLEAR","Cross-shore,Cross-shore,Cross-shore,Cross-shore,Cross-shore,Cross-shore,Cross-shore,Cross-shore,Cross-shore,Cross-shore",10
5842041f4e65fad6a7708899,2024_02_18,21.625,-158.083,Chun's,2,2.968,3.547,24,24,"CLEAR,CLEAR,NIGHT_CLEAR,NIGHT_MOSTLY_CLEAR,NIGHT_MOSTLY_CLOUDY,NIGHT_CLEAR,NIGHT_MOSTLY_CLEAR,NIGHT_CLEAR,CLEAR,CLEAR","Cross-shore,Cross-shore,Cross-shore,Cross-shore,Cross-shore,Cross-shore,Cross-shore,Cross-shore,Cross-shore,Cross-shore",10
5842041f4e65fad6a770889c,2024_02_18,21.286357895152136,-157.8515,South Shore - Ala Moana Park,1.9,0.353,0.658,24,24,"CLEAR,CLEAR,NIGHT_CLEAR,NIGHT_CLEAR,NIGHT_CLEAR,NIGHT_CLEAR,NIGHT_CLEAR,CLEAR,CLEAR,CLEAR","Offshore,Offshore,Offshore,Offshore,Offshore,Offshore,Offshore,Offshore,Offshore,Offshore",10
5842041f4e65fad6a770889d,2024_02_18,19.606,-155.978,Banyans,3,0.9777566666666667,1.2363833333333334,26,25,"CLEAR,CLEAR,NIGHT_CLEAR,NIGHT_CLEAR,NIGHT_CLEAR,NIGHT_FOG,NIGHT_CLEAR,CLEAR,CLEAR,CLEAR","Onshore,Onshore,Cross-shore,Cross-shore,Onshore,Offshore,Cross-shore,Cross-shore,Cross-shore,Onshore",10
5842041f4e65fad6a770889e,2024_02_18,20.029,-155.831,Kawaihae,2.2,0.467476,0.807206,25,25,"MOSTLY_CLEAR,CLEAR,NIGHT_CLEAR,NIGHT_MOSTLY_CLEAR,NIGHT_CLEAR,NIGHT_CLEAR,NIGHT_CLEAR,CLEAR,CLEAR,CLEAR","Offshore,Offshore,Offshore,Offshore,Offshore,Offshore,Offshore,Offshore,Offshore,Offshore",10
5842041f4e65fad6a770889f,2024_02_18,33.07541383424675,-117.3105,Grandview,3.3,1.753,2.112,15,15,"CLOUDY,CLOUDY,NIGHT_FOG,NIGHT_CLEAR,NIGHT_CLEAR,CLEAR,MOSTLY_CLEAR,MOSTLY_CLEAR,CLEAR,CLEAR","Onshore,Onshore,Offshore,Offshore,Offshore,Cross-shore,Offshore,Offshore,Onshore,Onshore",10
5842041f4e65fad6a77088a0,2024_02_18,33.065267421296596,-117.30577,Beacons,3.5,1.56,1.909,15,15,"CLOUDY,CLOUDY,NIGHT_FOG,NIGHT_MOSTLY_CLOUDY,NIGHT_CLEAR,CLEAR,MOSTLY_CLEAR,MOSTLY_CLEAR,CLEAR,CLEAR","Onshore,Onshore,Offshore,Offshore,Offshore,Onshore,Offshore,Offshore,Cross-shore,Onshore",10
5842041f4e65fad6a77088a2,2024_02_18,21.252,-157.805,Diamond Head,3,0.6601451666666667,1.01859875,26,25,"CLEAR,CLEAR,NIGHT_CLEAR,NIGHT_CLEAR,NIGHT_CLEAR,NIGHT_CLEAR,NIGHT_CLEAR,CLEAR,CLEAR,CLEAR","Offshore,Offshore,Offshore,Offshore,Offshore,Offshore,Offshore,Offshore,Offshore,Offshore",10
5842041f4e65fad6a77088a3,2024_02_18,33.04694255008896,-117.29966,Moonlight State Beach,3.4,1.639,2.001,15,15,"CLEAR,CLOUDY,NIGHT_LIGHT_RAIN_AND_FOG,NIGHT_MOSTLY_CLOUDY,NIGHT_MOSTLY_CLEAR,CLEAR,MOSTLY_CLEAR,CLEAR,MOSTLY_CLEAR,CLEAR","Onshore,Onshore,Offshore,Offshore,Offshore,Offshore,Offshore,Offshore,Cross-shore,Onshore",10
5842041f4e65fad6a77088a5,2024_02_18,33.08685865930869,-117.31532,Ponto,3.2,1.998,2.403,15,15,"CLOUDY,CLOUDY,NIGHT_FOG,NIGHT_MOSTLY_CLOUDY,NIGHT_CLEAR,CLEAR,MOSTLY_CLEAR,MOSTLY_CLEAR,CLEAR,CLEAR","Onshore,Onshore,Offshore,Offshore,Offshore,Offshore,Offshore,Offshore,Offshore,Onshore",10
5842041f4e65fad6a77088a6,2024_02_18,33.130343587871906,-117.33667796442558,Terra Mar Point,3,1.1497433333333333,1.7164033333333335,15,15,"CLOUDY,OVERCAST,NIGHT_FOG,NIGHT_MOSTLY_CLOUDY,NIGHT_MOSTLY_CLEAR,CLEAR,MOSTLY_CLOUDY,CLEAR,CLEAR,CLEAR","Onshore,Onshore,Offshore,Offshore,Offshore,Offshore,Offshore,Offshore,Offshore,Offshore",10
5842041f4e65fad6a77088af,2024_02_18,32.95916304183685,-117.26963,Del Mar,3.2,1.839,2.217,15,15,"CLOUDY,CLOUDY,NIGHT_CLEAR,NIGHT_CLEAR,NIGHT_CLEAR,MIST,CLEAR,CLEAR,CLEAR,CLEAR","Cross-shore,Onshore,Cross-shore,Cross-shore,Offshore,Offshore,Offshore,Offshore,Cross-shore,Cross-shore",10
5842041f4e65fad6a77088b0,2024_02_18,32.97527261243354,-117.2721061331305,Del Mar Rivermouth,3.3,1.638,1.998,15,15,"CLEAR,CLEAR,NIGHT_FOG,NIGHT_CLEAR,NIGHT_MIST,MIST,CLEAR,CLEAR,CLEAR,CLEAR","Cross-shore,Onshore,Offshore,Cross-shore,Offshore,Offshore,Offshore,Offshore,Cross-shore,Cross-shore",10
5842041f4e65fad6a77088b1,2024_02_18,33.01352178146273,-117.28219,Cardiff Reef,3.7,1.8529166666666668,2.3305000000000002,15,15,"CLEAR,CLEAR,NIGHT_FOG,NIGHT_MOSTLY_CLEAR,NIGHT_MOSTLY_CLEAR,MOSTLY_CLEAR,MOSTLY_CLEAR,MOSTLY_CLEAR,CLEAR,CLEAR","Onshore,Onshore,Offshore,Offshore,Offshore,Offshore,Offshore,Offshore,Offshore,Offshore",10
5842041f4e65fad6a77088b3,2024_02_18,33.00211185876003,-117.2811,Seaside Reef,3.65,1.78625,2.2742500000000003,15,15,"CLOUDY,CLEAR,NIGHT_FOG,NIGHT_CLEAR,NIGHT_MIST,CLEAR,CLEAR,CLEAR,CLEAR,CLEAR","Onshore,Onshore,Offshore,Offshore,Offshore,Offshore,Offshore,Offshore,Offshore,Offshore",10
5842041f4e65fad6a77088b4,2024_02_18,33.0341859796287,-117.29552,Swami's,3.65,1.7504933333333335,2.3978266666666666,15,15,"CLEAR,CLEAR,NIGHT_FOG,NIGHT_MOSTLY_CLOUDY,NIGHT_MOSTLY_CLEAR,MOSTLY_CLEAR,MOSTLY_CLEAR,MOSTLY_CLEAR,CLEAR,CLEAR","Onshore,Onshore,Offshore,Offshore,Offshore,Offshore,Offshore,Offshore,Offshore,Onshore",10
5842041f4e65fad6a77088b7,2024_02_18,33.04569760260221,-117.2994,D Street,3.4,1.9789999999999999,2.385,15,15,"CLEAR,CLOUDY,NIGHT_LIGHT_RAIN_AND_FOG,NIGHT_MOSTLY_CLOUDY,NIGHT_MOSTLY_CLEAR,CLEAR,MOSTLY_CLEAR,CLEAR,MOSTLY_CLEAR,CLEAR","Onshore,Onshore,Offshore,Offshore,Offshore,Offshore,Offshore,Offshore,Onshore,Onshore",10
5842041f4e65fad6a77088b8,2024_02_18,33.02090944350196,-117.28535,San Elijo State Beach,3.8,1.70832,2.1629033333333334,15,15,"CLEAR,CLEAR,NIGHT_FOG,NIGHT_MOSTLY_CLEAR,NIGHT_MOSTLY_CLEAR,MOSTLY_CLEAR,MOSTLY_CLEAR,MOSTLY_CLEAR,CLEAR,CLEAR","Onshore,Onshore,Offshore,Offshore,Offshore,Offshore,Offshore,Offshore,Offshore,Offshore",10
5842041f4e65fad6a77088c2,2024_02_18,32.80662846492798,-117.2688764333725,PB Point,3.8,1.666,2.007,15,15,"CLOUDY,CLOUDY,NIGHT_MOSTLY_CLOUDY,NIGHT_FOG,NIGHT_MIST,FOG,MOSTLY_CLEAR,CLEAR,CLEAR,CLEAR","Cross-shore,Cross-shore,Cross-shore,Offshore,Cross-shore,Offshore,Offshore,Cross-shore,Onshore,Onshore",10
5842041f4e65fad6a77088c4,2024_02_18,32.8060476681448,-117.26479,Old Man's at Tourmaline,3.7,1.465,1.785,15,15,"CLOUDY,CLOUDY,NIGHT_MOSTLY_CLOUDY,NIGHT_FOG,NIGHT_MIST,FOG,MOSTLY_CLEAR,CLEAR,CLEAR,CLEAR","Cross-shore,Cross-shore,Cross-shore,Offshore,Cross-shore,Cross-shore,Offshore,Cross-shore,Onshore,Onshore",10
5842041f4e65fad6a77088cb,2024_02_18,32.557056711256,-117.1327445020322,Tijuana Slough,3.3,0.986,1.2469999999999999,15,15,"CLOUDY,MOSTLY_CLOUDY,NIGHT_FOG,NIGHT_CLEAR,NIGHT_MIST,CLEAR,CLEAR,CLEAR,CLEAR,CLEAR","Onshore,Onshore,Offshore,Offshore,Offshore,Offshore,Offshore,Offshore,Offshore,Cross-shore",10
5842041f4e65fad6a77088cc,2024_02_18,32.863,-117.257,La Jolla Shores,2.9,1.3599999999999999,1.67,15,15,"CLEAR,CLOUDY,NIGHT_FOG,NIGHT_MOSTLY_CLOUDY,NIGHT_MOSTLY_CLEAR,MOSTLY_CLEAR,CLEAR,CLEAR,CLEAR,CLEAR","Onshore,Onshore,Cross-shore,Offshore,Offshore,Offshore,Offshore,Offshore,Cross-shore,Onshore",10
5842041f4e65fad6a77088ce,2024_02_18,32.67443657790586,-117.17421316238693,Coronado Beach,3.8,2.047,2.458,15,15,"CLOUDY,MOSTLY_CLOUDY,NIGHT_FOG,NIGHT_FOG,NIGHT_CLEAR,CLEAR,CLEAR,CLEAR,CLEAR,CLEAR","Cross-shore,Cross-shore,Offshore,Offshore,Offshore,Offshore,Offshore,Offshore,Offshore,Offshore",10
5842041f4e65fad6a77088cf,2024_02_18,33.40484417640326,-117.60749,San Clemente State Beach,3.2,1.218,1.515,15,15,"MOSTLY_CLOUDY,MOSTLY_CLOUDY,NIGHT_CLEAR,NIGHT_MIST,NIGHT_CLEAR,CLEAR,MOSTLY_CLOUDY,MOSTLY_CLOUDY,CLEAR,CLEAR","Onshore,Onshore,Offshore,Offshore,Cross-shore,Offshore,Offshore,Cross-shore,Onshore,Onshore",10
5842041f4e65fad6a77088d5,2024_02_18,33.4663042002114,-117.7168352817103,Strands,3.6,1.62836,2.249546666666667,14,14,"MOSTLY_CLOUDY,MOSTLY_CLOUDY,NIGHT_MOSTLY_CLOUDY,NIGHT_FOG,NIGHT_CLEAR,CLEAR,MIST,CLEAR,CLEAR,MOSTLY_CLEAR","Onshore,Onshore,Offshore,Offshore,Offshore,Cross-shore,Offshore,Offshore,Cross-shore,Cross-shore",10
5842041f4e65fad6a77088d7,2024_02_18,33.4609858001748,-117.68535,Doheny State Beach,2.3,0.22883333333333333,0.53193,14,14,"MOSTLY_CLOUDY,MOSTLY_CLOUDY,NIGHT_MIST,NIGHT_MIST,NIGHT_MIST,FOG,MOSTLY_CLOUDY,MIST,CLEAR,CLEAR","Onshore,Onshore,Offshore,Offshore,Offshore,Cross-shore,Offshore,Cross-shore,Offshore,Onshore",10
5842041f4e65fad6a77088dc,2024_02_18,33.50894790083017,-117.75243,Aliso Creek,2.9,1.261,1.551,15,15,"MOSTLY_CLOUDY,CLOUDY,NIGHT_MOSTLY_CLOUDY,NIGHT_MOSTLY_CLOUDY,NIGHT_CLEAR,CLEAR,MIST,BRIEF_SHOWERS,MIST,MOSTLY_CLEAR","Onshore,Cross-shore,Offshore,Offshore,Cross-shore,Cross-shore,Offshore,Cross-shore,Cross-shore,Cross-shore",10
5842041f4e65fad6a77088dd,2024_02_18,33.5326591767067,-117.77764,Brooks Street,2.9,0.973,1.225,15,15,"MOSTLY_CLOUDY,CLOUDY,NIGHT_FOG,NIGHT_MOSTLY_CLOUDY,NIGHT_MIST,FOG,MIST,MIST,MOSTLY_CLOUDY,MOSTLY_CLEAR","Onshore,Cross-shore,Offshore,Cross-shore,Cross-shore,Cross-shore,Cross-shore,Cross-shore,Cross-shore,Onshore",10
5842041f4e65fad6a77088de,2024_02_18,33.53561225884637,-117.7799,Thalia Street,3,1.021,1.279,15,15,"MOSTLY_CLOUDY,CLOUDY,NIGHT_FOG,NIGHT_MOSTLY_CLOUDY,NIGHT_MIST,FOG,MIST,MIST,MOSTLY_CLOUDY,MOSTLY_CLEAR","Onshore,Cross-shore,Offshore,Cross-shore,Cross-shore,Cross-shore,Cross-shore,Cross-shore,Cross-shore,Onshore",10
5842041f4e65fad6a77088e3,2024_02_18,33.54268310353641,-117.7916,Rockpile,3.5,1.106,1.377,15,15,"MOSTLY_CLOUDY,CLOUDY,NIGHT_FOG,NIGHT_MOSTLY_CLOUDY,NIGHT_MIST,FOG,MIST,MIST,MOSTLY_CLOUDY,MOSTLY_CLEAR","Cross-shore,Cross-shore,Offshore,Cross-shore,Cross-shore,Cross-shore,Cross-shore,Cross-shore,Cross-shore,Onshore",10
5842041f4e65fad6a77088e4,2024_02_18,33.7368459504689,-118.10342,"Seal Beach Pier, Southside",2.6,0.574,0.88,15,15,"DRIZZLE,OVERCAST,NIGHT_FOG,NIGHT_CLOUDY,NIGHT_FOG,FOG,MIST,MOSTLY_CLOUDY,BRIEF_SHOWERS,BRIEF_SHOWERS","Onshore,Onshore,Cross-shore,Cross-shore,Cross-shore,Offshore,Offshore,Cross-shore,Onshore,Onshore",10
5842041f4e65fad6a77088e5,2024_02_18,33.73933701820233,-118.117,Ray Bay,2.4,0.32,0.622,15,15,"DRIZZLE,OVERCAST,NIGHT_FOG,NIGHT_CLEAR,NIGHT_FOG,FOG,MIST,MOSTLY_CLOUDY,BRIEF_SHOWERS,BRIEF_SHOWERS","Onshore,Onshore,Cross-shore,Cross-shore,Offshore,Offshore,Offshore,Cross-shore,Onshore,Onshore",10
5842041f4e65fad6a77088e7,2024_02_18,33.728733,-118.08982,Surfside,3,2.017,2.41,15,15,"OVERCAST,DRIZZLE,NIGHT_FOG,NIGHT_FOG,NIGHT_FOG,FOG,OVERCAST,MOSTLY_CLOUDY,MIST,MIST","Onshore,Onshore,Cross-shore,Cross-shore,Offshore,Offshore,Offshore,Cross-shore,Onshore,Onshore",10
5842041f4e65fad6a77088e8,2024_02_18,33.68760321488161,-118.04236,Bolsa Chica State Beach,3.1,1.92686,2.4497133333333334,14,14,"OVERCAST,OVERCAST,NIGHT_MOSTLY_CLOUDY,NIGHT_MOSTLY_CLOUDY,NIGHT_FOG,FOG,BRIEF_SHOWERS,MIST,MIST,MIST","Onshore,Onshore,Offshore,Onshore,Cross-shore,Cross-shore,Offshore,Offshore,Cross-shore,Cross-shore",10
5842041f4e65fad6a77088ea,2024_02_18,33.66704400178788,-118.0192,North HB Streets,3.1,1.9342066666666666,2.679143333333333,14,14,"CLOUDY,MIST,NIGHT_MOSTLY_CLOUDY,NIGHT_CLEAR,NIGHT_FOG,FOG,MIST,MIST,MIST,MIST","Onshore,Onshore,Offshore,Cross-shore,Cross-shore,Cross-shore,Cross-shore,Cross-shore,Cross-shore,Cross-shore",10
5842041f4e65fad6a77088ed,2024_02_18,33.65475101379567,-118.00291,Huntington Beach Pier Southside,3.35,1.79554,2.5569,14,14,"OVERCAST,DRIZZLE,NIGHT_MOSTLY_CLOUDY,NIGHT_MOSTLY_CLEAR,NIGHT_FOG,FOG,MIST,MIST,MIST,MIST","Onshore,Onshore,Offshore,Cross-shore,Offshore,Offshore,Offshore,Offshore,Cross-shore,Cross-shore",10
5842041f4e65fad6a77088ee,2024_02_18,33.62778647706099,-117.95939,River Jetties,3,1.60811,2.1770466666666666,15,15,"OVERCAST,OVERCAST,NIGHT_FOG,NIGHT_MOSTLY_CLOUDY,NIGHT_FOG,FOG,MIST,MIST,MIST,MIST","Onshore,Onshore,Cross-shore,Cross-shore,Offshore,Offshore,Offshore,Cross-shore,Cross-shore,Onshore",10
5842041f4e65fad6a77088f2,2024_02_18,33.605165797643664,-117.92500376701355,Newport Point,2.4,0.349,0.655,15,15,"CLOUDY,CLOUDY,NIGHT_FOG,NIGHT_MOSTLY_CLOUDY,NIGHT_MOSTLY_CLOUDY,FOG,MIST,MIST,MIST,MIST","Onshore,Onshore,Offshore,Onshore,Onshore,Cross-shore,Cross-shore,Cross-shore,Cross-shore,Onshore",10
5842041f4e65fad6a77088f3,2024_02_18,33.58982984726977,-117.87713,Corona del Mar,1.3,0.194403,0.303752,15,15,"MOSTLY_CLOUDY,OVERCAST,NIGHT_CLEAR,NIGHT_MOSTLY_CLOUDY,NIGHT_FOG,FOG,MIST,MOSTLY_CLOUDY,MOSTLY_CLOUDY,MOSTLY_CLOUDY","Onshore,Onshore,Offshore,Offshore,Cross-shore,Offshore,Offshore,Cross-shore,Cross-shore,Cross-shore",10
5842041f4e65fad6a77088f7,2024_02_18,34.00750300824362,-118.4971783496269,Santa Monica Pier,2.8,0.601,0.893,15,15,"MOSTLY_CLOUDY,MOSTLY_CLOUDY,NIGHT_FOG,NIGHT_FOG,NIGHT_FOG,FOG,MOSTLY_CLOUDY,MOSTLY_CLOUDY,MIST,LIGHT_RAIN","Onshore,Onshore,Offshore,Onshore,Cross-shore,Cross-shore,Offshore,Offshore,Offshore,Offshore",10
5842041f4e65fad6a77088ff,2024_02_18,33.94070283102945,-118.44321,Dockweiler Beach,2.9,1.6387760833333334,2.036347,14,14,"CLOUDY,MOSTLY_CLOUDY,NIGHT_CLEAR,NIGHT_MIST,NIGHT_MIST,FOG,CLEAR,MIST,MOSTLY_CLOUDY,MIST","Onshore,Onshore,Offshore,Onshore,Cross-shore,Cross-shore,Offshore,Offshore,Offshore,Offshore",10
5842041f4e65fad6a7708900,2024_02_18,33.9231846937237,-118.4341465777908,Shitpipe,2.9,1.8469433333333334,2.31479,14,14,"OVERCAST,OVERCAST,NIGHT_CLEAR,NIGHT_MOSTLY_CLOUDY,NIGHT_FOG,FOG,MOSTLY_CLOUDY,MIST,BRIEF_SHOWERS,MIST","Onshore,Onshore,Offshore,Cross-shore,Cross-shore,Cross-shore,Offshore,Offshore,Offshore,Offshore",10
5842041f4e65fad6a7708902,2024_02_18,33.9108528052242,-118.4279133138721,Hammerland,2.9,1.98879,2.7546366666666664,14,14,"OVERCAST,OVERCAST,NIGHT_CLEAR,NIGHT_MOSTLY_CLOUDY,NIGHT_FOG,FOG,MOSTLY_CLOUDY,MIST,BRIEF_SHOWERS,MIST","Onshore,Onshore,Offshore,Cross-shore,Cross-shore,Cross-shore,Offshore,Offshore,Offshore,Offshore",10
5842041f4e65fad6a7708904,2024_02_18,33.87201368173932,-118.4075151286262,Hermosa Beach,2.833,1.4283466666666667,1.9006999999999998,14,14,"CLOUDY,CLOUDY,NIGHT_MOSTLY_CLOUDY,NIGHT_FOG,NIGHT_MIST,FOG,MIST,MIST,MIST,MIST","Onshore,Onshore,Onshore,Onshore,Cross-shore,Cross-shore,Offshore,Offshore,Offshore,Offshore",10
5842041f4e65fad6a7708906,2024_02_18,33.90129336911256,-118.42184,El Porto,2.9,2.1247066666666665,2.9025533333333335,14,14,"CLOUDY,OVERCAST,NIGHT_CLEAR,NIGHT_MOSTLY_CLOUDY,NIGHT_MIST,FOG,MOSTLY_CLOUDY,MOSTLY_CLOUDY,MIST,MIST","Onshore,Onshore,Offshore,Cross-shore,Cross-shore,Cross-shore,Offshore,Offshore,Offshore,Offshore",10
5842041f4e65fad6a7708907,2024_02_18,33.87963506431794,-118.41102,Manhattan Beach Pier,2.9,2.01561,2.542046666666667,14,14,"CLOUDY,OVERCAST,NIGHT_CLEAR,NIGHT_FOG,NIGHT_MIST,FOG,MOSTLY_CLOUDY,MOSTLY_CLOUDY,MIST,MIST","Onshore,Onshore,Offshore,Cross-shore,Cross-shore,Cross-shore,Offshore,Offshore,Offshore,Offshore",10
5842041f4e65fad6a7708914,2024_02_18,34.038053387863464,-118.5532,Sunset Point,2.8,0.553,0.842,15,15,"MOSTLY_CLOUDY,CLEAR,NIGHT_FOG,NIGHT_FOG,NIGHT_BRIEF_SHOWERS,MIST,MOSTLY_CLOUDY,MIST,MIST,MIST","Cross-shore,Onshore,Offshore,Offshore,Offshore,Offshore,Offshore,Cross-shore,Cross-shore,Onshore",10
5842041f4e65fad6a7708920,2024_02_18,33.80930828074364,-118.3933198342649,Haggerty's,2.8,0.7434000000000001,0.9198000000000001,15,15,"MIST,MOSTLY_CLOUDY,NIGHT_MOSTLY_CLEAR,NIGHT_MOSTLY_CLEAR,NIGHT_CLEAR,MOSTLY_CLOUDY,CLEAR,MOSTLY_CLOUDY,CLEAR,CLEAR","Onshore,Onshore,Onshore,Cross-shore,Offshore,Offshore,Offshore,Offshore,Offshore,Offshore",10
5842041f4e65fad6a7708921,2024_02_18,33.85044519861206,-118.40048,Redondo Breakwater,3.2,2.302,2.752,15,15,"CLOUDY,CLOUDY,NIGHT_MOSTLY_CLOUDY,NIGHT_MOSTLY_CLOUDY,NIGHT_MIST,FOG,MIST,MIST,MIST,MIST","Onshore,Onshore,Onshore,Cross-shore,Cross-shore,Cross-shore,Offshore,Offshore,Offshore,Offshore",10
5842041f4e65fad6a7708927,2024_02_18,33.70877301002487,-118.2840112858389,Cabrillo Beach,2.7,0.82,1.068,15,15,"DRIZZLE,MOSTLY_CLOUDY,NIGHT_FOG,NIGHT_FOG,NIGHT_FOG,FOG,MIST,MOSTLY_CLOUDY,MOSTLY_CLOUDY,BRIEF_SHOWERS","Offshore,Offshore,Cross-shore,Onshore,Onshore,Onshore,Onshore,Onshore,Onshore,Onshore",10
5842041f4e65fad6a770892c,2024_02_18,33.77209986806257,-118.4268428476672,Lunada Bay,2.8,2.843,3.407,15,15,"CLOUDY,MOSTLY_CLOUDY,NIGHT_MOSTLY_CLEAR,NIGHT_MOSTLY_CLOUDY,NIGHT_FOG,MIST,MOSTLY_CLOUDY,CLEAR,CLEAR,MIST","Onshore,Onshore,Onshore,Onshore,Cross-shore,Cross-shore,Offshore,Cross-shore,Cross-shore,Cross-shore",10
5842041f4e65fad6a770892d,2024_02_18,33.79294656286144,-118.4070316699825,PV Cove,3.6,1.621691,1.892794,15,15,"MIST,MOSTLY_CLOUDY,NIGHT_MOSTLY_CLEAR,NIGHT_MOSTLY_CLOUDY,NIGHT_CLEAR,MOSTLY_CLOUDY,CLEAR,MOSTLY_CLOUDY,CLEAR,CLEAR","Onshore,Onshore,Onshore,Cross-shore,Offshore,Offshore,Offshore,Offshore,Offshore,Offshore",10
5842041f4e65fad6a7708930,2024_02_18,34.03944902292561,-118.57539,Chart House,2.6,0.358,0.664,15,15,"MOSTLY_CLOUDY,MOSTLY_CLOUDY,NIGHT_FOG,NIGHT_FOG,NIGHT_BRIEF_SHOWERS,FOG,MIST,MOSTLY_CLOUDY,MIST,MIST","Cross-shore,Cross-shore,Offshore,Offshore,Offshore,Offshore,Cross-shore,Onshore,Onshore,Onshore",10
5842041f4e65fad6a7708936,2024_02_18,34.0016731994772,-118.80456,Point Dume,3.183,0.8701233333333334,1.1600666666666668,15,15,"MOSTLY_CLOUDY,CLEAR,NIGHT_CLEAR,NIGHT_MOSTLY_CLOUDY,NIGHT_MIST,MIST,MOSTLY_CLOUDY,BRIEF_SHOWERS,CLEAR,MOSTLY_CLOUDY","Cross-shore,Cross-shore,Offshore,Onshore,Onshore,Onshore,Cross-shore,Cross-shore,Cross-shore,Cross-shore",10
5842041f4e65fad6a7708937,2024_02_18,34.02587527588963,-118.7554939066114,Latigo Point,2.2,0.325,0.63,15,15,"MOSTLY_CLOUDY,MOSTLY_CLOUDY,NIGHT_MOSTLY_CLEAR,NIGHT_MIST,NIGHT_BRIEF_SHOWERS,MIST,MOSTLY_CLOUDY,BRIEF_SHOWERS,MIST,MIST","Cross-shore,Cross-shore,Onshore,Onshore,Onshore,Onshore,Cross-shore,Onshore,Onshore,Cross-shore",10
5842041f4e65fad6a770893f,2024_02_18,34.043762,-118.93294,Leo Carrillo,2.6,1.0237333333333334,1.2876766666666666,15,15,"MOSTLY_CLOUDY,MIST,NIGHT_MOSTLY_CLOUDY,NIGHT_MIST,NIGHT_MIST,MIST,MOSTLY_CLOUDY,MOSTLY_CLOUDY,MOSTLY_CLOUDY,MOSTLY_CLOUDY","Cross-shore,Cross-shore,Cross-shore,Offshore,Offshore,Offshore,Offshore,Cross-shore,Onshore,Onshore",10
5842041f4e65fad6a7708941,2024_02_18,36.69388179265737,-121.81289,Marina State Beach,3,3.499,4.183,13.6,13.6,"DRIZZLE,MOSTLY_CLOUDY,NIGHT_MOSTLY_CLOUDY,NIGHT_MIST,NIGHT_MIST,MOSTLY_CLEAR,MIST,MIST,CLEAR,CLEAR","Offshore,Offshore,Offshore,Offshore,Offshore,Offshore,Offshore,Offshore,Offshore,Offshore",10
5842041f4e65fad6a7708944,2024_02_18,34.34145077331085,-119.416999352654,Stanley's,3.7,1.353,1.62,15,15,"MOSTLY_CLEAR,MIST,NIGHT_MOSTLY_CLOUDY,NIGHT_BRIEF_SHOWERS,NIGHT_MOSTLY_CLOUDY,LIGHT_RAIN,MOSTLY_CLOUDY,CLEAR,CLEAR,CLEAR","Onshore,Onshore,Offshore,Offshore,Offshore,Offshore,Offshore,Offshore,Offshore,Offshore",10
5842041f4e65fad6a7708945,2024_02_18,34.35113017313915,-119.426921498899,Oil Piers,3.3,1.44,1.721,15,15,"MOSTLY_CLEAR,MIST,NIGHT_MOSTLY_CLOUDY,NIGHT_BRIEF_SHOWERS,NIGHT_MOSTLY_CLOUDY,LIGHT_RAIN,MOSTLY_CLOUDY,CLEAR,CLEAR,CLEAR","Onshore,Onshore,Offshore,Offshore,Offshore,Offshore,Offshore,Offshore,Cross-shore,Cross-shore",10
5842041f4e65fad6a770894c,2024_02_18,34.17876333306018,-119.2399483564372,Oxnard,3.2,1.866,2.239,15,15,"CLEAR,CLEAR,NIGHT_FOG,NIGHT_FOG,NIGHT_MIST,FOG,MOSTLY_CLOUDY,CLEAR,CLEAR,CLEAR","Onshore,Onshore,Offshore,Cross-shore,Cross-shore,Cross-shore,Offshore,Offshore,Offshore,Cross-shore",10
5842041f4e65fad6a7708957,2024_02_18,34.31720331100517,-119.3882324751725,Pitas Point,3.2,1.4929999999999999,1.796,15,15,"MIST,MIST,NIGHT_MOSTLY_CLOUDY,NIGHT_MOSTLY_CLOUDY,NIGHT_FOG,MIST,MOSTLY_CLOUDY,CLEAR,CLEAR,MOSTLY_CLOUDY","Onshore,Cross-shore,Offshore,Offshore,Offshore,Offshore,Cross-shore,Cross-shore,Onshore,Onshore",10
5842041f4e65fad6a7708959,2024_02_18,34.27851754384724,-119.316202617226,Emma Wood,3.5,1.3479999999999999,1.627,15,15,"MOSTLY_CLEAR,MOSTLY_CLEAR,NIGHT_CLEAR,NIGHT_FOG,NIGHT_MIST,OVERCAST,MOSTLY_CLOUDY,CLEAR,CLEAR,CLEAR","Onshore,Onshore,Offshore,Offshore,Offshore,Offshore,Offshore,Offshore,Cross-shore,Cross-shore",10
5842041f4e65fad6a770895a,2024_02_18,34.35513640390276,-119.4400589884255,Mussel Shoals (aka Little Rincon),3.9,1.873,2.237,15,15,"MOSTLY_CLEAR,MOSTLY_CLEAR,NIGHT_MOSTLY_CLOUDY,NIGHT_MOSTLY_CLOUDY,NIGHT_MOSTLY_CLOUDY,OVERCAST,CLEAR,CLEAR,MOSTLY_CLOUDY,MOSTLY_CLOUDY","Onshore,Cross-shore,Offshore,Offshore,Offshore,Cross-shore,Offshore,Offshore,Cross-shore,Cross-shore",10
5842041f4e65fad6a770895e,2024_02_18,34.28991757054902,-119.3366646794652,Summer Beach,2.9,0.895,1.179,15,15,"MOSTLY_CLEAR,MOSTLY_CLEAR,NIGHT_CLEAR,NIGHT_FOG,NIGHT_MIST,OVERCAST,MOSTLY_CLOUDY,CLEAR,CLEAR,CLEAR","Onshore,Onshore,Offshore,Offshore,Offshore,Offshore,Offshore,Offshore,Offshore,Offshore",10
5842041f4e65fad6a770895f,2024_02_18,34.30897456105926,-119.3582501170116,Solimar,3,0.908,1.152,15,15,"MIST,MIST,NIGHT_MOSTLY_CLOUDY,NIGHT_BRIEF_SHOWERS,NIGHT_FOG,MIST,MOSTLY_CLOUDY,CLEAR,CLEAR,MOSTLY_CLOUDY","Onshore,Cross-shore,Offshore,Offshore,Offshore,Offshore,Cross-shore,Cross-shore,Onshore,Onshore",10
5842041f4e65fad6a7708960,2024_02_18,34.39836265281686,-119.70213,Leadbetter Point,2.6,0.65,0.928,14,14,"MOSTLY_CLEAR,MOSTLY_CLEAR,NIGHT_LIGHT_RAIN,NIGHT_MOSTLY_CLOUDY,NIGHT_MOSTLY_CLOUDY,FOG,CLEAR,CLEAR,MOSTLY_CLEAR,MOSTLY_CLEAR","Cross-shore,Cross-shore,Offshore,Offshore,Onshore,Offshore,Offshore,Onshore,Onshore,Onshore",10
5842041f4e65fad6a7708961,2024_02_18,34.46052293893899,-120.07328,Refugio,1.4,0.468,0.771,14,14,"MOSTLY_CLEAR,MOSTLY_CLEAR,NIGHT_BRIEF_SHOWERS,NIGHT_MOSTLY_CLOUDY,NIGHT_BRIEF_SHOWERS,MOSTLY_CLOUDY,MOSTLY_CLEAR,BRIEF_SHOWERS,SHOWERS,MOSTLY_CLEAR","Onshore,Onshore,Onshore,Onshore,Onshore,Onshore,Onshore,Onshore,Onshore,Onshore",10
5842041f4e65fad6a7708962,2024_02_18,34.40754276777778,-119.87639,Devereux,3,1.508,1.815,14,14,"MIST,MIST,NIGHT_LIGHT_RAIN_AND_FOG,NIGHT_MOSTLY_CLOUDY,NIGHT_MOSTLY_CLOUDY,CLOUDY,CLEAR,MOSTLY_CLOUDY,MOSTLY_CLOUDY,CLEAR","Cross-shore,Cross-shore,Cross-shore,Cross-shore,Cross-shore,Cross-shore,Cross-shore,Onshore,Onshore,Onshore",10
5842041f4e65fad6a7708963,2024_02_18,34.27479983305182,-119.3133222656776,Ventura Overhead,3.8,1.4929999999999999,1.794,15,15,"MOSTLY_CLEAR,CLEAR,NIGHT_BRIEF_SHOWERS,NIGHT_MOSTLY_CLOUDY,NIGHT_MIST,OVERCAST,CLEAR,CLEAR,CLEAR,CLEAR","Onshore,Onshore,Offshore,Offshore,Offshore,Offshore,Offshore,Offshore,Offshore,Offshore",10
5842041f4e65fad6a7708964,2024_02_18,34.41023236011655,-119.88261,Sands,3.5,1.509,1.807,14,14,"MIST,MIST,NIGHT_LIGHT_RAIN_AND_FOG,NIGHT_MOSTLY_CLOUDY,NIGHT_MOSTLY_CLOUDY,CLOUDY,CLEAR,MOSTLY_CLOUDY,MOSTLY_CLOUDY,CLEAR","Onshore,Onshore,Offshore,Offshore,Offshore,Offshore,Offshore,Offshore,Offshore,Offshore",10
5842041f4e65fad6a7708966,2024_02_18,34.40450193869233,-119.68752,Sandspit,2.3,0.268,0.571,14,14,"MOSTLY_CLEAR,CLEAR,NIGHT_RAIN,NIGHT_MOSTLY_CLOUDY,NIGHT_MOSTLY_CLOUDY,FOG,MOSTLY_CLEAR,CLEAR,MOSTLY_CLEAR,MOSTLY_CLEAR","Cross-shore,Cross-shore,Offshore,Offshore,Cross-shore,Offshore,Offshore,Cross-shore,Onshore,Onshore",10
5842041f4e65fad6a7708967,2024_02_18,34.41549098334453,-119.6375149840203,Hammond's,2.5,0.734,0.977,14,14,"MOSTLY_CLEAR,CLEAR,NIGHT_OVERCAST,NIGHT_LIGHT_RAIN_AND_FOG,NIGHT_MOSTLY_CLOUDY,BRIEF_SHOWERS,MOSTLY_CLEAR,CLEAR,MOSTLY_CLEAR,SHOWERS","Cross-shore,Cross-shore,Cross-shore,Cross-shore,Cross-shore,Cross-shore,Cross-shore,Cross-shore,Onshore,Onshore",10
5842041f4e65fad6a7708968,2024_02_18,34.45759322742309,-120.0220251867315,El Capitan,2.3,0.755,0.996,14,14,"MOSTLY_CLEAR,MOSTLY_CLEAR,NIGHT_BRIEF_SHOWERS,NIGHT_MOSTLY_CLOUDY,NIGHT_BRIEF_SHOWERS,MOSTLY_CLOUDY,CLEAR,MOSTLY_CLOUDY,BRIEF_SHOWERS,MOSTLY_CLEAR","Onshore,Onshore,Cross-shore,Cross-shore,Onshore,Cross-shore,Cross-shore,Onshore,Onshore,Onshore",10
5842041f4e65fad6a770896c,2024_02_18,34.405117655616,-119.84317,Campus Point,2.9,0.887,1.151,14,14,"MOSTLY_CLEAR,CLEAR,NIGHT_LIGHT_RAIN_AND_FOG,NIGHT_RAIN_AND_FOG,NIGHT_MOSTLY_CLOUDY,FOG,CLEAR,CLEAR,MOSTLY_CLOUDY,CLEAR","Cross-shore,Cross-shore,Onshore,Cross-shore,Cross-shore,Cross-shore,Cross-shore,Onshore,Onshore,Onshore",10
5842041f4e65fad6a770896e,2024_02_18,34.38935162233354,-119.51955,Carpinteria State Beach,3,2.159,2.58,14,14,"MOSTLY_CLEAR,MIST,NIGHT_MOSTLY_CLOUDY,NIGHT_FOG,NIGHT_MOSTLY_CLOUDY,MOSTLY_CLOUDY,CLEAR,CLEAR,CLEAR,CLEAR","Onshore,Onshore,Offshore,Offshore,Offshore,Offshore,Offshore,Cross-shore,Cross-shore,Cross-shore",10
5842041f4e65fad6a770896f,2024_02_18,37.48296565175612,-122.4549300127824,Half Moon Bay,1.8,3.274,3.9130000000000003,13,13,"HEAVY_SHOWERS,MOSTLY_CLOUDY,NIGHT_BRIEF_SHOWERS,NIGHT_MIST,NIGHT_CLEAR,CLEAR,CLEAR,CLEAR,CLEAR,MOSTLY_CLEAR","Onshore,Onshore,Onshore,Onshore,Cross-shore,Offshore,Cross-shore,Cross-shore,Cross-shore,Cross-shore",10
5842041f4e65fad6a7708970,2024_02_18,37.499,-122.471,Princeton Jetty,2.2,2.6630000000000003,3.184,13,13,"SHOWERS,MOSTLY_CLOUDY,NIGHT_FOG,NIGHT_BRIEF_SHOWERS,NIGHT_CLEAR,CLEAR,CLEAR,CLEAR,CLEAR,CLEAR","Onshore,Onshore,Onshore,Onshore,Cross-shore,Cross-shore,Onshore,Onshore,Onshore,Onshore",10
5842041f4e65fad6a7708972,2024_02_18,37.35699547365155,-122.4069534707252,Tunitas Creek,1.6,4.006,4.787,13,13,"BRIEF_SHOWERS,MOSTLY_CLOUDY,NIGHT_MIST,NIGHT_MIST,NIGHT_CLEAR,CLEAR,CLEAR,CLEAR,CLEAR,CLEAR","Cross-shore,Cross-shore,Onshore,Onshore,Cross-shore,Cross-shore,Cross-shore,Cross-shore,Cross-shore,Cross-shore",10
5842041f4e65fad6a7708974,2024_02_18,37.54735589428842,-122.5161090212687,Montara,2.7,3.465,4.142,13,13,"BRIEF_SHOWERS,SHOWERS,NIGHT_LIGHT_RAIN,NIGHT_MIST,NIGHT_MIST,MOSTLY_CLOUDY,CLEAR,CLEAR,CLEAR,CLEAR","Offshore,Offshore,Cross-shore,Offshore,Offshore,Offshore,Offshore,Offshore,Offshore,Offshore",10
5842041f4e65fad6a7708975,2024_02_18,34.3869373724559,-119.5142334209018,Tarpits,3.2,1.99,2.382,14,14,"MOSTLY_CLEAR,MOSTLY_CLEAR,NIGHT_MOSTLY_CLOUDY,NIGHT_MOSTLY_CLOUDY,NIGHT_MOSTLY_CLOUDY,MOSTLY_CLOUDY,CLEAR,CLEAR,CLEAR,CLEAR","Onshore,Cross-shore,Offshore,Offshore,Offshore,Cross-shore,Cross-shore,Onshore,Onshore,Onshore",10
5842041f4e65fad6a7708976,2024_02_18,37.59881852720143,-122.50463,Pacifica / Linda Mar,2.8,1.0558733333333334,1.4208033333333334,14,14,"BRIEF_SHOWERS,BRIEF_SHOWERS,NIGHT_MIST,NIGHT_MIST,NIGHT_CLEAR,CLEAR,CLEAR,CLEAR,CLEAR,CLEAR","Offshore,Cross-shore,Cross-shore,Cross-shore,Offshore,Offshore,Offshore,Offshore,Offshore,Offshore",10
5842041f4e65fad6a7708978,2024_02_18,37.59883098461164,-122.5143843582282,Pedro Point,2.8,3.504,4.188,13,13,"BRIEF_SHOWERS,BRIEF_SHOWERS,NIGHT_MIST,NIGHT_BRIEF_SHOWERS,NIGHT_CLEAR,CLEAR,CLEAR,CLEAR,CLEAR,CLEAR","Offshore,Offshore,Cross-shore,Offshore,Offshore,Offshore,Offshore,Offshore,Offshore,Offshore",10
5842041f4e65fad6a7708979,2024_02_18,37.61081996647663,-122.4973287570634,Rockaway,2.6,3.162,3.78,13,13,"BRIEF_SHOWERS,BRIEF_SHOWERS,NIGHT_MIST,NIGHT_MIST,NIGHT_CLEAR,CLEAR,CLEAR,CLEAR,CLEAR,CLEAR","Cross-shore,Cross-shore,Onshore,Cross-shore,Offshore,Offshore,Offshore,Offshore,Offshore,Offshore",10
5842041f4e65fad6a770897a,2024_02_18,37.809987384424446,-122.4751353263855,Fort Point,2.8,2.31,2.761,13,13,"MOSTLY_CLOUDY,BRIEF_SHOWERS,NIGHT_CLOUDY,NIGHT_MIST,NIGHT_MIST,MIST,MIST,MIST,MIST,CLEAR","Onshore,Onshore,Onshore,Onshore,Onshore,Onshore,Onshore,Onshore,Onshore,Onshore",10
5842041f4e65fad6a770897c,2024_02_18,37.63422542967464,-122.4951,Sharp Park,2.1,3.638,4.347,13,13,"BRIEF_SHOWERS,BRIEF_SHOWERS,NIGHT_DRIZZLE,NIGHT_MOSTLY_CLOUDY,NIGHT_CLEAR,CLEAR,CLEAR,CLEAR,CLEAR,CLEAR","Cross-shore,Cross-shore,Onshore,Cross-shore,Offshore,Offshore,Offshore,Offshore,Offshore,Offshore",10
5842041f4e65fad6a770897d,2024_02_18,37.27313605072472,-122.4127387912554,Pescadero,2.3,3.611,4.314,13,13,"LIGHT_SHOWERS_POSSIBLE,LIGHT_RAIN,NIGHT_MIST,NIGHT_MIST,NIGHT_BRIEF_SHOWERS,BRIEF_SHOWERS,CLEAR,CLEAR,MOSTLY_CLOUDY,MOSTLY_CLEAR","Offshore,Cross-shore,Cross-shore,Cross-shore,Offshore,Offshore,Offshore,Offshore,Offshore,Offshore",10
5842041f4e65fad6a770897e,2024_02_18,37.18140279972666,-122.3926685899327,Pigeon Point,1.2,3.763,4.498,13,13,"MOSTLY_CLOUDY,LIGHT_RAIN,NIGHT_MIST,NIGHT_MIST,NIGHT_MOSTLY_CLOUDY,MOSTLY_CLOUDY,CLEAR,CLEAR,CLEAR,CLEAR","Onshore,Onshore,Onshore,Onshore,Onshore,Onshore,Onshore,Onshore,Onshore,Onshore",10
5842041f4e65fad6a770897f,2024_02_18,37.11578956919415,-122.314699271291,Ano Nuevo,1.6,4.038,4.825,13,13,"OVERCAST,LIGHT_RAIN,NIGHT_MIST,NIGHT_MIST,NIGHT_MOSTLY_CLOUDY,MOSTLY_CLOUDY,MOSTLY_CLOUDY,CLEAR,MOSTLY_CLOUDY,CLEAR","Onshore,Onshore,Onshore,Onshore,Onshore,Onshore,Onshore,Onshore,Onshore,Onshore",10
5842041f4e65fad6a7708980,2024_02_18,37.09520872681598,-122.2805474707768,Waddell Creek,1.8,3.017,3.608,13,13,"RAIN,LIGHT_RAIN,NIGHT_MIST,NIGHT_MIST,NIGHT_MOSTLY_CLOUDY,MOSTLY_CLOUDY,MOSTLY_CLEAR,MOSTLY_CLOUDY,MOSTLY_CLOUDY,CLEAR","Cross-shore,Onshore,Onshore,Onshore,Cross-shore,Cross-shore,Cross-shore,Cross-shore,Cross-shore,Cross-shore",10
5842041f4e65fad6a7708981,2024_02_18,36.96512852130351,-122.1252825495626,Four Mile,1.9,3.7359999999999998,4.466,13,13,"RAIN,OVERCAST,NIGHT_MIST,NIGHT_MIST,NIGHT_MOSTLY_CLOUDY,MOSTLY_CLOUDY,CLEAR,MOSTLY_CLOUDY,CLEAR,CLEAR","Onshore,Onshore,Cross-shore,Onshore,Cross-shore,Cross-shore,Cross-shore,Cross-shore,Onshore,Onshore",10
5842041f4e65fad6a7708982,2024_02_18,37.04122807048655,-122.2333684729756,Scott Creek,2.1,3.152,3.769,13,13,"RAIN,HEAVY_RAIN,NIGHT_MIST,NIGHT_MIST,NIGHT_MOSTLY_CLOUDY,MOSTLY_CLOUDY,MOSTLY_CLEAR,MOSTLY_CLOUDY,MOSTLY_CLOUDY,CLEAR","Cross-shore,Onshore,Onshore,Onshore,Cross-shore,Cross-shore,Cross-shore,Cross-shore,Cross-shore,Cross-shore",10
5842041f4e65fad6a7708983,2024_02_18,37.02350229387179,-122.21908,Davenport,2.1,3.265,3.9010000000000002,13,13,"HEAVY_RAIN,LIGHT_RAIN,NIGHT_DRIZZLE,NIGHT_DRIZZLE,NIGHT_MOSTLY_CLOUDY,MOSTLY_CLOUDY,CLEAR,CLEAR,MOSTLY_CLOUDY,CLEAR","Cross-shore,Onshore,Onshore,Onshore,Cross-shore,Cross-shore,Cross-shore,Cross-shore,Cross-shore,Cross-shore",10
5842041f4e65fad6a7708986,2024_02_18,36.94905295955728,-122.0611823912244,Natural Bridges,2.7,3.472,4.149,13,13,"LIGHT_RAIN,MIST,NIGHT_FOG,NIGHT_MIST,NIGHT_CLEAR,CLEAR,CLEAR,CLEAR,CLEAR,MOSTLY_CLEAR","Cross-shore,Onshore,Onshore,Onshore,Cross-shore,Cross-shore,Cross-shore,Cross-shore,Cross-shore,Cross-shore",10
5842041f4e65fad6a7708987,2024_02_18,36.95154854910425,-122.0420693940968,Mitchell's Cove,2.8,2.46,2.936,13,13,"LIGHT_RAIN,MIST,NIGHT_FOG,NIGHT_FOG,NIGHT_CLEAR,CLEAR,CLEAR,CLEAR,CLEAR,CLEAR","Onshore,Onshore,Onshore,Onshore,Onshore,Cross-shore,Onshore,Onshore,Onshore,Onshore",10
5842041f4e65fad6a770898a,2024_02_18,36.9572312370203,-121.98177,26th Ave,2.6,2.743,3.278,13,13,"LIGHT_RAIN,LIGHT_RAIN,NIGHT_FOG,NIGHT_LIGHT_RAIN_AND_FOG,NIGHT_CLEAR,CLEAR,CLEAR,CLEAR,CLEAR,CLEAR","Cross-shore,Cross-shore,Onshore,Onshore,Offshore,Offshore,Offshore,Cross-shore,Cross-shore,Cross-shore",10
5842041f4e65fad6a770898e,2024_02_18,36.91899972819882,-121.85536,Manresa,2.8,3.258,3.893,13,13,"DRIZZLE,HEAVY_RAIN,NIGHT_MIST,NIGHT_MIST,NIGHT_CLEAR,CLEAR,CLEAR,CLEAR,CLEAR,CLEAR","Cross-shore,Cross-shore,Cross-shore,Cross-shore,Offshore,Offshore,Offshore,Cross-shore,Cross-shore,Cross-shore",10
5842041f4e65fad6a7708990,2024_02_18,34.45747731928454,-120.34242,The Ranch,2.2,2.035,2.432,14,14,"MIST,MOSTLY_CLOUDY,NIGHT_BRIEF_SHOWERS,NIGHT_SHOWERS,NIGHT_BRIEF_SHOWERS,BRIEF_SHOWERS,MIST,MOSTLY_CLEAR,MOSTLY_CLEAR,MOSTLY_CLOUDY","Onshore,Onshore,Onshore,Onshore,Onshore,Onshore,Onshore,Onshore,Onshore,Onshore",10
5842041f4e65fad6a7708991,2024_02_18,34.50875036590315,-120.50348,Jalama,2.6,2.301,2.7479999999999998,14,14,"MIST,MOSTLY_CLOUDY,NIGHT_MOSTLY_CLOUDY,NIGHT_MOSTLY_CLOUDY,NIGHT_MOSTLY_CLOUDY,MOSTLY_CLOUDY,CLEAR,CLEAR,MOSTLY_CLEAR,CLEAR","Onshore,Onshore,Cross-shore,Cross-shore,Cross-shore,Cross-shore,Cross-shore,Cross-shore,Cross-shore,Cross-shore",10
5842041f4e65fad6a7708996,2024_02_18,34.68700870220497,-120.6111611019887,Surf Beach,2.6,4.259,5.091,14,14,"MIST,OVERCAST,NIGHT_MOSTLY_CLOUDY,NIGHT_CLEAR,NIGHT_CLEAR,CLEAR,CLEAR,CLEAR,CLEAR,CLEAR","Cross-shore,Cross-shore,Offshore,Offshore,Offshore,Offshore,Offshore,Offshore,Offshore,Offshore",10
5842041f4e65fad6a770899c,2024_02_18,35.5730538161116,-121.1143362345574,Moonstone,2.1,3.643,4.352,14,14,"RAIN,HEAVY_RAIN,NIGHT_MOSTLY_CLOUDY,NIGHT_MIST,NIGHT_MOSTLY_CLOUDY,MOSTLY_CLOUDY,MOSTLY_CLOUDY,MOSTLY_CLOUDY,MOSTLY_CLOUDY,MOSTLY_CLEAR","Cross-shore,Cross-shore,Cross-shore,Cross-shore,Offshore,Offshore,Cross-shore,Cross-shore,Cross-shore,Cross-shore",10
5842041f4e65fad6a770899d,2024_02_18,35.61533716776573,-121.1502053073914,Pico Creek,3,2.815,3.3649999999999998,14,14,"RAIN,RAIN,NIGHT_MIST,NIGHT_OVERCAST,NIGHT_MOSTLY_CLOUDY,MOSTLY_CLOUDY,MOSTLY_CLOUDY,MOSTLY_CLOUDY,MOSTLY_CLOUDY,MOSTLY_CLOUDY","Cross-shore,Cross-shore,Cross-shore,Cross-shore,Offshore,Offshore,Cross-shore,Cross-shore,Cross-shore,Cross-shore",10
5842041f4e65fad6a770899e,2024_02_18,35.56829031927379,-121.1120653023953,Santa Rosa Creek,2,3.657,4.369,14,14,"LIGHT_RAIN,HEAVY_RAIN,NIGHT_OVERCAST,NIGHT_DRIZZLE,NIGHT_MOSTLY_CLOUDY,MOSTLY_CLOUDY,CLEAR,MOSTLY_CLOUDY,MOSTLY_CLOUDY,MOSTLY_CLEAR","Cross-shore,Onshore,Cross-shore,Cross-shore,Cross-shore,Cross-shore,Cross-shore,Cross-shore,Cross-shore,Cross-shore",10
5842041f4e65fad6a77089a2,2024_02_18,35.44820114936284,-120.90715,"Cayucos Pier, Southside ",2.3,2.191,2.619,14,14,"RAIN,LIGHT_RAIN,NIGHT_FOG,NIGHT_FOG,NIGHT_CLEAR,CLEAR,CLEAR,CLEAR,CLEAR,MOSTLY_CLEAR","Onshore,Onshore,Onshore,Onshore,Cross-shore,Onshore,Onshore,Onshore,Onshore,Onshore",10
5842041f4e65fad6a77089a4,2024_02_18,35.30143372628852,-120.877819239902,Cable Landing,3,4.699,5.616,14,14,"LIGHT_SHOWERS_POSSIBLE,LIGHT_RAIN,NIGHT_MOSTLY_CLOUDY,NIGHT_MOSTLY_CLOUDY,NIGHT_CLEAR,CLEAR,CLEAR,CLEAR,CLEAR,CLEAR","Cross-shore,Cross-shore,Offshore,Offshore,Offshore,Offshore,Offshore,Offshore,Offshore,Cross-shore",10
5842041f4e65fad6a77089a9,2024_02_18,35.61269103500222,-121.1480725356606,San Simeon,2,2.1224,2.5361000000000002,14,14,"RAIN,RAIN,NIGHT_BRIEF_SHOWERS,NIGHT_BRIEF_SHOWERS,NIGHT_MOSTLY_CLOUDY,BRIEF_SHOWERS,MOSTLY_CLOUDY,CLEAR,MOSTLY_CLOUDY,MOSTLY_CLEAR","Onshore,Onshore,Onshore,Cross-shore,Cross-shore,Cross-shore,Cross-shore,Cross-shore,Cross-shore,Cross-shore",10
5842041f4e65fad6a77089ab,2024_02_18,35.1775325966252,-120.7341125142258,Avila Beach,2,0.702,0.982,14,14,"RAIN,DRIZZLE,NIGHT_FOG,NIGHT_RAIN_AND_FOG,NIGHT_CLEAR,MOSTLY_CLEAR,CLEAR,CLEAR,MOSTLY_CLEAR,CLEAR","Onshore,Onshore,Cross-shore,Cross-shore,Cross-shore,Cross-shore,Cross-shore,Cross-shore,Onshore,Onshore",10
5842041f4e65fad6a77089ac,2024_02_18,35.13877877884115,-120.64535,Pismo Beach Pier,2.433,2.26948,3.0106366666666666,14,14,"RAIN,OVERCAST,NIGHT_OVERCAST,NIGHT_MIST,NIGHT_MOSTLY_CLEAR,CLEAR,CLEAR,CLEAR,CLEAR,CLEAR","Cross-shore,Cross-shore,Cross-shore,Cross-shore,Cross-shore,Cross-shore,Cross-shore,Cross-shore,Cross-shore,Cross-shore",10
5842041f4e65fad6a77089ad,2024_02_18,46.8907710233147,-124.12964,Westport/Olympic Peninsula,3,2.733,3.242,10,10,"DRIZZLE,LIGHT_SHOWERS_POSSIBLE,NIGHT_OVERCAST,NIGHT_CLEAR,NIGHT_DRIZZLE,NIGHT_OVERCAST,OVERCAST,CLOUDY,CLOUDY,DRIZZLE","Offshore,Offshore,Offshore,Offshore,Offshore,Offshore,Offshore,Offshore,Offshore,Offshore",10
5842041f4e65fad6a77089ae,2024_02_18,46.35185177248545,-124.06747,Long Beach Peninsula,3,3.2880000000000003,3.882,10,10,"LIGHT_RAIN,LIGHT_RAIN,NIGHT_OVERCAST,NIGHT_DRIZZLE,NIGHT_DRIZZLE,NIGHT_CLOUDY,MOSTLY_CLOUDY,MOSTLY_CLOUDY,BRIEF_SHOWERS,BRIEF_SHOWERS","Offshore,Offshore,Offshore,Offshore,Offshore,Offshore,Offshore,Offshore,Offshore,Cross-shore",10
5842041f4e65fad6a77089af,2024_02_18,47.90649175554033,-124.6370864743483,La Push,3,2.85,3.406,10,10,"DRIZZLE,LIGHT_RAIN,NIGHT_CLOUDY,NIGHT_MOSTLY_CLOUDY,NIGHT_CLOUDY,NIGHT_CLOUDY,DRIZZLE,DRIZZLE,CLEAR,CLEAR","Offshore,Offshore,Offshore,Offshore,Offshore,Offshore,Offshore,Offshore,Offshore,Offshore",10
5842041f4e65fad6a77089b0,2024_02_18,42.04368239985442,-124.26828,Brookings Jetty,2.2,2.255575,3.524338,11.6,11.6,"LIGHT_RAIN,OVERCAST,NIGHT_CLOUDY,NIGHT_LIGHT_RAIN,NIGHT_BRIEF_SHOWERS,NIGHT_CLEAR,CLEAR,CLEAR,CLEAR,CLEAR","Onshore,Onshore,Onshore,Onshore,Onshore,Onshore,Cross-shore,Cross-shore,Cross-shore,Onshore",10
5842041f4e65fad6a77089b1,2024_02_18,42.74071837900346,-124.4983727491047,Port Orford,1,3.194,3.817,11,11,"LIGHT_RAIN,DRIZZLE,NIGHT_SHOWERS,NIGHT_MIST,NIGHT_CLOUDY,NIGHT_MOSTLY_CLOUDY,MOSTLY_CLEAR,CLEAR,CLEAR,CLEAR","Onshore,Onshore,Onshore,Onshore,Onshore,Onshore,Onshore,Onshore,Onshore,Onshore",10
5842041f4e65fad6a77089b2,2024_02_18,44.01532689312291,-124.13865,Florence South Jetty,2.3,3.747,4.481,11,11,"LIGHT_RAIN,LIGHT_RAIN,NIGHT_CLEAR,NIGHT_LIGHT_RAIN,NIGHT_MOSTLY_CLOUDY,NIGHT_CLOUDY,MOSTLY_CLOUDY,CLEAR,MIST,CLEAR","Offshore,Offshore,Cross-shore,Cross-shore,Onshore,Cross-shore,Cross-shore,Cross-shore,Cross-shore,Cross-shore",10
5842041f4e65fad6a77089b3,2024_02_18,42.41812540774362,-124.42945,Gold Beach South Jetty,0.7,4.22,5.041,11.6,11.6,"LIGHT_SHOWERS_POSSIBLE,LIGHT_SHOWERS_POSSIBLE,NIGHT_OVERCAST,NIGHT_MIST,NIGHT_CLEAR,NIGHT_MOSTLY_CLOUDY,CLEAR,CLEAR,CLEAR,CLEAR","Onshore,Onshore,Onshore,Onshore,Onshore,Onshore,Onshore,Onshore,Onshore,Onshore",10
5842041f4e65fad6a77089b4,2024_02_18,44.95857310226525,-124.0219017690976,Lincoln City,2.8,3.245,3.873,11,11,"LIGHT_SHOWERS_POSSIBLE,LIGHT_SHOWERS_POSSIBLE,NIGHT_DRIZZLE,NIGHT_CLOUDY,NIGHT_MIST,NIGHT_MIST,OVERCAST,OVERCAST,CLEAR,CLEAR","Offshore,Offshore,Offshore,Offshore,Cross-shore,Onshore,Cross-shore,Cross-shore,Cross-shore,Cross-shore",10
5842041f4e65fad6a77089b5,2024_02_18,44.63792761362982,-124.0657,Newport,2.4,3.7279999999999998,4.434,11,11,"LIGHT_RAIN,LIGHT_RAIN,NIGHT_OVERCAST,NIGHT_OVERCAST,NIGHT_MIST,NIGHT_MIST,MIST,MOSTLY_CLOUDY,MOSTLY_CLOUDY,CLEAR","Offshore,Offshore,Cross-shore,Offshore,Onshore,Onshore,Cross-shore,Cross-shore,Cross-shore,Cross-shore",10
5842041f4e65fad6a77089b6,2024_02_18,45.61468496266301,-123.94643,Rockaway Beach,3,3.385,4.026,10.4,10.4,"LIGHT_RAIN,LIGHT_SHOWERS_POSSIBLE,NIGHT_LIGHT_RAIN,NIGHT_DRIZZLE,NIGHT_CLOUDY,NIGHT_MOSTLY_CLOUDY,LIGHT_RAIN,OVERCAST,MOSTLY_CLOUDY,MOSTLY_CLOUDY","Offshore,Offshore,Offshore,Offshore,Offshore,Cross-shore,Offshore,Cross-shore,Cross-shore,Cross-shore",10
5842041f4e65fad6a77089b7,2024_02_18,45.20252914186085,-123.96975,Pacific City,2.9,3.268,3.882,10.4,10.4,"LIGHT_SHOWERS_POSSIBLE,LIGHT_RAIN,NIGHT_DRIZZLE,NIGHT_DRIZZLE,NIGHT_BRIEF_SHOWERS,NIGHT_OVERCAST,OVERCAST,MOSTLY_CLOUDY,MOSTLY_CLOUDY,CLEAR","Offshore,Offshore,Offshore,Offshore,Cross-shore,Cross-shore,Cross-shore,Cross-shore,Cross-shore,Cross-shore",10
5842041f4e65fad6a77089b8,2024_02_18,45.88179930310263,-123.96681,Cannon Beach,2.7,3.392,4.04,10,10,"LIGHT_RAIN,LIGHT_SHOWERS_POSSIBLE,NIGHT_MOSTLY_CLOUDY,NIGHT_LIGHT_RAIN,NIGHT_MOSTLY_CLOUDY,NIGHT_BRIEF_SHOWERS,LIGHT_RAIN,RAIN,OVERCAST,BRIEF_SHOWERS","Offshore,Offshore,Offshore,Offshore,Cross-shore,Cross-shore,Cross-shore,Cross-shore,Cross-shore,Onshore",10
5842041f4e65fad6a77089ba,2024_02_18,40.02528754746774,-124.06372,Shelter Cove,1.5,1.442363,2.253695,12,12,"SHOWERS,BRIEF_SHOWERS,NIGHT_MIST,NIGHT_MIST,NIGHT_CLEAR,NIGHT_CLEAR,CLEAR,CLEAR,CLEAR,CLEAR","Onshore,Onshore,Onshore,Onshore,Onshore,Onshore,Onshore,Onshore,Onshore,Onshore",10
5842041f4e65fad6a77089bb,2024_02_18,40.76816197136951,-124.24248,Humboldt Harbor Entrance,2.2,4.059,4.851,12,12,"HEAVY_SHOWERS,HEAVY_SHOWERS,NIGHT_CLEAR,NIGHT_CLEAR,NIGHT_CLEAR,NIGHT_CLEAR,CLEAR,CLEAR,CLEAR,CLEAR","Cross-shore,Cross-shore,Cross-shore,Cross-shore,Offshore,Cross-shore,Cross-shore,Cross-shore,Cross-shore,Cross-shore",10
5842041f4e65fad6a77089bc,2024_02_18,40.76684246920174,-124.23107,North Jetty,2.7,3.639,4.349,12,12,"HEAVY_SHOWERS,HEAVY_SHOWERS,NIGHT_CLEAR,NIGHT_CLEAR,NIGHT_CLEAR,NIGHT_CLEAR,CLEAR,CLEAR,CLEAR,CLEAR","Cross-shore,Cross-shore,Cross-shore,Cross-shore,Offshore,Offshore,Offshore,Offshore,Cross-shore,Offshore",10
5842041f4e65fad6a77089bd,2024_02_18,41.02731183893966,-124.1149972888982,Westhaven,1.8,5.034,6.017,12,12,"OVERCAST,OVERCAST,NIGHT_MOSTLY_CLEAR,NIGHT_CLEAR,NIGHT_CLEAR,NIGHT_CLEAR,CLEAR,CLEAR,CLEAR,CLEAR","Cross-shore,Cross-shore,Onshore,Cross-shore,Cross-shore,Cross-shore,Offshore,Offshore,Cross-shore,Cross-shore",10
5842041f4e65fad6a77089be,2024_02_18,41.13016238153297,-124.16466,Sue-meg,2.6,4.277,5.11,12,12,"MOSTLY_CLOUDY,DRIZZLE,NIGHT_CLEAR,NIGHT_MOSTLY_CLOUDY,NIGHT_CLEAR,NIGHT_CLEAR,CLEAR,CLEAR,CLEAR,CLEAR","Offshore,Offshore,Cross-shore,Cross-shore,Offshore,Offshore,Offshore,Offshore,Offshore,Offshore",10
5842041f4e65fad6a77089bf,2024_02_18,37.8289474958188,-122.5376795097543,Fort Cronkite/Rodeo Beach,1.8,4.15,4.96,13,13,"OVERCAST,OVERCAST,NIGHT_MIST,NIGHT_MIST,NIGHT_MIST,MIST,BRIEF_SHOWERS,MIST,MIST,MIST","Onshore,Onshore,Onshore,Onshore,Cross-shore,Cross-shore,Cross-shore,Cross-shore,Cross-shore,Cross-shore",10
5842041f4e65fad6a77089c0,2024_02_18,41.74415759876137,-124.17717,South Beach CA,1.6,3.151,3.765,12,12,"RAIN,MOSTLY_CLOUDY,NIGHT_MOSTLY_CLOUDY,NIGHT_MOSTLY_CLOUDY,NIGHT_CLEAR,NIGHT_CLEAR,CLEAR,CLEAR,CLEAR,CLEAR","Onshore,Onshore,Onshore,Onshore,Onshore,Onshore,Onshore,Cross-shore,Onshore,Onshore",10
5842041f4e65fad6a77089c1,2024_02_18,37.89801283969752,-122.64519,Stinson Beach,2.7,1.235,1.4889999999999999,13,13,"MIST,BRIEF_SHOWERS,NIGHT_FOG,NIGHT_FOG,NIGHT_FOG,FOG,MIST,MIST,MIST,BRIEF_SHOWERS","Onshore,Onshore,Cross-shore,Onshore,Onshore,Onshore,Onshore,Onshore,Onshore,Onshore",10
5842041f4e65fad6a77089c2,2024_02_18,37.90514516176495,-122.68151,Bolinas,3.6,1.427141,2.22991,13,13,"BRIEF_SHOWERS,BRIEF_SHOWERS,NIGHT_LIGHT_RAIN_AND_FOG,NIGHT_BRIEF_SHOWERS,NIGHT_FOG,FOG,MOSTLY_CLOUDY,CLEAR,CLEAR,MOSTLY_CLEAR","Cross-shore,Cross-shore,Offshore,Cross-shore,Onshore,Onshore,Onshore,Onshore,Onshore,Onshore",10
5842041f4e65fad6a77089c3,2024_02_18,38.04892513158693,-122.9892494965416,Point Reyes (north),2.6,4.109,4.911,13,13,"DRIZZLE,LIGHT_RAIN,NIGHT_MIST,NIGHT_MIST,NIGHT_MIST,CLOUDY,MIST,CLOUDY,MOSTLY_CLOUDY,CLEAR","Offshore,Offshore,Cross-shore,Offshore,Offshore,Offshore,Offshore,Offshore,Offshore,Offshore",10
5842041f4e65fad6a77089c6,2024_02_18,38.31088736605785,-123.0496777333731,Doran Beach,2.4,1.44,1.725,13,13,"HEAVY_RAIN,MIST,NIGHT_FOG,NIGHT_MIST,NIGHT_BRIEF_SHOWERS,BRIEF_SHOWERS,MOSTLY_CLOUDY,CLOUDY,OVERCAST,MOSTLY_CLOUDY","Onshore,Onshore,Cross-shore,Onshore,Onshore,Onshore,Onshore,Onshore,Onshore,Onshore",10
5842041f4e65fad6a77089c7,2024_02_18,38.45077228660809,-123.13008,Russian Rivermouth,2,3.698,4.42,13,13,"RAIN,DRIZZLE,NIGHT_FOG,NIGHT_FOG,NIGHT_CLEAR,CLEAR,CLEAR,MOSTLY_CLOUDY,CLOUDY,MOSTLY_CLOUDY","Onshore,Onshore,Onshore,Onshore,Offshore,Offshore,Offshore,Offshore,Offshore,Offshore",10
5842041f4e65fad6a77089c8,2024_02_18,38.35329968518107,-123.06906,Salmon Creek,2.4,3.137,3.751,13,13,"LIGHT_RAIN,OVERCAST,NIGHT_DRIZZLE,NIGHT_MIST,NIGHT_MOSTLY_CLOUDY,MOSTLY_CLOUDY,CLOUDY,CLOUDY,CLEAR,CLEAR","Cross-shore,Cross-shore,Onshore,Cross-shore,Offshore,Offshore,Offshore,Offshore,Offshore,Offshore",10
5842041f4e65fad6a77089c9,2024_02_18,38.6845180197959,-123.4322714291198,Black Point Beach,3,3.598,4.298,13,13,"MIST,MIST,NIGHT_OVERCAST,NIGHT_OVERCAST,NIGHT_CLEAR,NIGHT_CLEAR,CLEAR,CLEAR,CLEAR,CLEAR","Offshore,Offshore,Cross-shore,Offshore,Offshore,Offshore,Offshore,Offshore,Offshore,Offshore",10
5842041f4e65fad6a77089ca,2024_02_18,43.251076,-70.59144,Ogunquit,0.416,0.00225,0.26613333333333333,4,3,"NIGHT_CLEAR,NIGHT_CLEAR,NIGHT_CLEAR,NIGHT_CLEAR,CLEAR,CLEAR,CLEAR,CLEAR,CLEAR,CLEAR","Offshore,Offshore,Offshore,Offshore,Cross-shore,Cross-shore,Cross-shore,Cross-shore,Cross-shore,Offshore",10
5842041f4e65fad6a77089cb,2024_02_18,41.362631366305415,-71.48006772942608,Point Judith,0.8,0.21155600000000002,0.489796,5,4,"NIGHT_CLEAR,NIGHT_CLEAR,NIGHT_CLEAR,NIGHT_CLEAR,CLEAR,CLEAR,CLEAR,CLEAR,CLEAR,CLEAR","Offshore,Offshore,Offshore,Offshore,Offshore,Offshore,Offshore,Offshore,Offshore,Offshore",10
5842041f4e65fad6a77089cd,2024_02_18,41.422678090954726,-71.45413,Monahan's - Narragansett,0.2,0.028375,0.044337,5,5,"NIGHT_CLEAR,NIGHT_CLEAR,NIGHT_CLEAR,NIGHT_CLEAR,CLEAR,CLEAR,CLEAR,CLEAR,CLEAR,CLEAR","Offshore,Offshore,Offshore,Offshore,Offshore,Offshore,Offshore,Offshore,Offshore,Offshore",10
5842041f4e65fad6a77089ce,2024_02_18,41.469,-71.293,Ruggles - Newport,0.5,0.524193,0.8190500000000001,5,5,"NIGHT_CLEAR,NIGHT_CLEAR,NIGHT_CLEAR,NIGHT_CLEAR,CLEAR,CLEAR,CLEAR,CLEAR,CLEAR,CLEAR","Offshore,Offshore,Cross-shore,Cross-shore,Onshore,Onshore,Onshore,Onshore,Onshore,Onshore",10
5842041f4e65fad6a77089cf,2024_02_18,43.175394,-70.606351,Short Sands Beach,0.5,0.004,0.172,3,3,"NIGHT_CLEAR,NIGHT_CLEAR,NIGHT_CLEAR,NIGHT_CLEAR,CLEAR,CLEAR,CLEAR,CLEAR,CLEAR,CLEAR","Offshore,Offshore,Offshore,Offshore,Offshore,Offshore,Offshore,Offshore,Offshore,Offshore",10
5842041f4e65fad6a77089d0,2024_02_18,41.487408,-71.29017,First Beach,0.3,0.07100000000000001,0.338,5,5,"NIGHT_CLEAR,NIGHT_CLEAR,NIGHT_CLEAR,NIGHT_CLEAR,CLEAR,CLEAR,CLEAR,CLEAR,CLEAR,CLEAR","Offshore,Offshore,Cross-shore,Cross-shore,Onshore,Onshore,Onshore,Onshore,Onshore,Onshore",10
5842041f4e65fad6a77089d1,2024_02_18,42.27916830233153,-70.86498,Nantasket Beach,0,0,0.10823333333333335,4,3,"NIGHT_CLEAR,NIGHT_CLEAR,NIGHT_CLEAR,NIGHT_CLEAR,CLEAR,CLEAR,CLEAR,CLEAR,CLEAR,CLEAR","Cross-shore,Cross-shore,Offshore,Offshore,Offshore,Offshore,Offshore,Offshore,Offshore,Offshore",10
5842041f4e65fad6a77089d2,2024_02_18,41.817,-69.935,Cape Cod,1.1,0.064,0.326,4,4,"NIGHT_CLEAR,NIGHT_CLEAR,NIGHT_CLEAR,NIGHT_CLEAR,CLEAR,CLEAR,CLEAR,CLEAR,CLEAR,CLEAR","Offshore,Offshore,Offshore,Offshore,Offshore,Offshore,Offshore,Offshore,Offshore,Offshore",10
5842041f4e65fad6a77089d3,2024_02_18,42.22055448975661,-70.70634873403819,Egypt Beach,0,0,0.094,4,4,"NIGHT_CLEAR,NIGHT_CLEAR,NIGHT_CLEAR,NIGHT_CLEAR,CLEAR,CLEAR,CLEAR,CLEAR,CLEAR,CLEAR","Offshore,Offshore,Offshore,Offshore,Offshore,Offshore,Offshore,Offshore,Offshore,Offshore",10
5842041f4e65fad6a77089d4,2024_02_18,41.48739647744607,-71.25723,Second Beach,0.533,0.3513215,0.61688425,5,4,"NIGHT_CLEAR,NIGHT_CLEAR,NIGHT_CLEAR,NIGHT_CLEAR,CLEAR,CLEAR,CLEAR,CLEAR,CLEAR,CLEAR","Cross-shore,Cross-shore,Cross-shore,Cross-shore,Onshore,Onshore,Onshore,Onshore,Onshore,Onshore",10
5842041f4e65fad6a77089d5,2024_02_18,42.964,-70.769,Fox Hill,0.2,0,0.13885666666666668,4,3,"NIGHT_CLEAR,NIGHT_CLEAR,NIGHT_CLEAR,NIGHT_CLEAR,CLEAR,CLEAR,CLEAR,CLEAR,CLEAR,CLEAR","Offshore,Offshore,Offshore,Offshore,Cross-shore,Cross-shore,Cross-shore,Cross-shore,Cross-shore,Cross-shore",10
5842041f4e65fad6a77089d6,2024_02_18,42.991359,-70.75149,Straws Point,0.7,0,0.22894,4,3,"NIGHT_CLEAR,NIGHT_CLEAR,NIGHT_CLEAR,NIGHT_CLEAR,CLEAR,CLEAR,CLEAR,CLEAR,CLEAR,CLEAR","Offshore,Offshore,Offshore,Offshore,Cross-shore,Cross-shore,Cross-shore,Cross-shore,Cross-shore,Cross-shore",10
5842041f4e65fad6a77089d7,2024_02_18,42.946,-70.786,Plaice Cove,0.2,0,0.13885666666666668,4,3,"NIGHT_CLEAR,NIGHT_CLEAR,NIGHT_CLEAR,NIGHT_CLEAR,CLEAR,CLEAR,CLEAR,CLEAR,CLEAR,CLEAR","Offshore,Offshore,Offshore,Offshore,Offshore,Cross-shore,Cross-shore,Offshore,Offshore,Offshore",10
5842041f4e65fad6a77089d9,2024_02_18,42.911574,-70.80831,The Main Beach,0,0.007064283333333333,0.16343688333333334,4,3,"NIGHT_CLEAR,NIGHT_CLEAR,NIGHT_CLEAR,NIGHT_CLEAR,CLEAR,CLEAR,CLEAR,CLEAR,CLEAR,CLEAR","Offshore,Offshore,Offshore,Offshore,Cross-shore,Onshore,Onshore,Cross-shore,Cross-shore,Cross-shore",10
5842041f4e65fad6a77089da,2024_02_18,42.97583846220203,-70.764,Sawyer's Beach,0.4,0,0.19077333333333335,4,3,"NIGHT_CLEAR,NIGHT_CLEAR,NIGHT_CLEAR,NIGHT_CLEAR,CLEAR,CLEAR,CLEAR,CLEAR,CLEAR,CLEAR","Offshore,Offshore,Offshore,Offshore,Cross-shore,Cross-shore,Cross-shore,Cross-shore,Cross-shore,Offshore",10
5842041f4e65fad6a77089db,2024_02_18,42.97,-70.77,Rye on the Rocks / 5-0's,0,0,0.1523474,4,3,"NIGHT_CLEAR,NIGHT_CLEAR,NIGHT_CLEAR,NIGHT_CLEAR,CLEAR,CLEAR,CLEAR,CLEAR,CLEAR,CLEAR","Offshore,Offshore,Offshore,Offshore,Cross-shore,Cross-shore,Cross-shore,Cross-shore,Cross-shore,Cross-shore",10
5842041f4e65fad6a77089dc,2024_02_18,43.55902946610303,-70.27795,Higgins Beach,0.26,0.141904,0.3657226666666667,4,3,"NIGHT_CLEAR,NIGHT_CLEAR,NIGHT_CLEAR,NIGHT_CLEAR,CLEAR,CLEAR,CLEAR,CLEAR,CLEAR,CLEAR","Offshore,Offshore,Offshore,Cross-shore,Cross-shore,Cross-shore,Onshore,Onshore,Onshore,Onshore",10
5842041f4e65fad6a77089dd,2024_02_18,43.302676,-70.5652,Wells Beach,0.416,0.0055833333333333325,0.27821666666666667,4,3,"NIGHT_CLEAR,NIGHT_CLEAR,NIGHT_CLEAR,NIGHT_CLEAR,CLEAR,CLEAR,CLEAR,CLEAR,CLEAR,CLEAR","Offshore,Offshore,Offshore,Offshore,Offshore,Cross-shore,Cross-shore,Cross-shore,Cross-shore,Offshore",10
5842041f4e65fad6a77089de,2024_02_18,43.545359,-70.30479,Scarborough Beach State Park,0.23299999999999998,0.054874,0.26354258333333336,4,3,"NIGHT_CLEAR,NIGHT_CLEAR,NIGHT_CLEAR,NIGHT_CLEAR,CLEAR,CLEAR,CLEAR,CLEAR,CLEAR,CLEAR","Offshore,Offshore,Offshore,Offshore,Cross-shore,Cross-shore,Cross-shore,Cross-shore,Cross-shore,Cross-shore",10
5842041f4e65fad6a77089df,2024_02_18,43.514481,-70.372146,Old Orchard Beach,0,0,0.19678666666666667,4,3,"NIGHT_CLEAR,NIGHT_CLEAR,NIGHT_CLEAR,NIGHT_CLEAR,CLEAR,CLEAR,CLEAR,CLEAR,CLEAR,CLEAR","Offshore,Offshore,Offshore,Offshore,Cross-shore,Cross-shore,Cross-shore,Cross-shore,Cross-shore,Cross-shore",10
5842041f4e65fad6a77089e0,2024_02_18,43.34711,-70.48165,Gooch's Beach,0.416,0.06600333333333333,0.28454,4,3,"NIGHT_CLEAR,NIGHT_CLEAR,NIGHT_CLEAR,NIGHT_CLEAR,CLEAR,CLEAR,CLEAR,CLEAR,CLEAR,CLEAR","Offshore,Offshore,Cross-shore,Cross-shore,Onshore,Onshore,Onshore,Onshore,Onshore,Onshore",10
5842041f4e65fad6a77089e2,2024_02_18,40.58433,-73.62953,Lido Beach,0.02,0.17381000000000002,0.45377,5,4,"NIGHT_CLEAR,NIGHT_CLEAR,NIGHT_CLEAR,NIGHT_CLEAR,CLEAR,CLEAR,CLEAR,CLEAR,CLEAR,CLEAR","Onshore,Offshore,Onshore,Onshore,Cross-shore,Cross-shore,Cross-shore,Cross-shore,Offshore,Offshore",10
5842041f4e65fad6a77089e3,2024_02_18,43.163135,-70.61689,Long Sands Beach,0,-0.01580243333333333,0.17343205,4,3,"NIGHT_CLEAR,NIGHT_CLEAR,NIGHT_CLEAR,NIGHT_CLEAR,CLEAR,CLEAR,CLEAR,CLEAR,CLEAR,CLEAR","Offshore,Offshore,Offshore,Offshore,Cross-shore,Cross-shore,Onshore,Cross-shore,Cross-shore,Cross-shore",10
5842041f4e65fad6a77089e4,2024_02_18,40.61695351251805,-73.39376,Gilgo Beach,0.2,0.25209000000000004,0.54404,5,4,"NIGHT_CLEAR,NIGHT_CLEAR,NIGHT_CLEAR,NIGHT_CLEAR,CLEAR,CLEAR,CLEAR,CLEAR,CLEAR,CLEAR","Cross-shore,Cross-shore,Cross-shore,Cross-shore,Onshore,Onshore,Onshore,Onshore,Onshore,Onshore",10
5842041f4e65fad6a77089e5,2024_02_18,40.62530081928036,-73.23827,Robert Moses,0.3,0.292,0.59,5,5,"NIGHT_CLEAR,NIGHT_CLEAR,NIGHT_CLEAR,NIGHT_CLEAR,CLEAR,CLEAR,CLEAR,CLEAR,CLEAR,CLEAR","Offshore,Offshore,Cross-shore,Cross-shore,Onshore,Onshore,Onshore,Onshore,Onshore,Onshore",10
5842041f4e65fad6a77089e6,2024_02_18,40.64313317632791,-73.15727,Fire Island,0.4,0.28200000000000003,0.573,5,5,"NIGHT_CLEAR,NIGHT_CLEAR,NIGHT_CLEAR,NIGHT_CLEAR,CLEAR,CLEAR,CLEAR,CLEAR,CLEAR,CLEAR","Offshore,Offshore,Cross-shore,Cross-shore,Onshore,Cross-shore,Onshore,Onshore,Onshore,Onshore",10
5842041f4e65fad6a77089e8,2024_02_18,40.76653118828782,-72.74579619372713,Cupsogue,0.4,0.499,0.802,5,5,"NIGHT_CLEAR,NIGHT_CLEAR,NIGHT_CLEAR,NIGHT_CLEAR,CLEAR,CLEAR,CLEAR,CLEAR,CLEAR,CLEAR","Offshore,Offshore,Cross-shore,Cross-shore,Onshore,Onshore,Onshore,Onshore,Onshore,Onshore",10
5842041f4e65fad6a77089e9,2024_02_18,42.9376373334092,-70.79141,The Wall ,0,0.008836116666666668,0.16620625,4,3,"NIGHT_CLEAR,NIGHT_CLEAR,NIGHT_CLEAR,NIGHT_CLEAR,CLEAR,CLEAR,CLEAR,CLEAR,CLEAR,CLEAR","Offshore,Offshore,Offshore,Offshore,Offshore,Offshore,Offshore,Offshore,Offshore,Offshore",10
5842041f4e65fad6a77089ea,2024_02_18,40.887088,-72.33856,Flys,0.4,0.40700000000000003,0.704,5.4,5.4,"NIGHT_CLEAR,NIGHT_CLEAR,NIGHT_CLEAR,NIGHT_CLEAR,CLEAR,CLEAR,CLEAR,CLEAR,CLEAR,CLEAR","Offshore,Offshore,Cross-shore,Cross-shore,Onshore,Onshore,Onshore,Onshore,Onshore,Onshore",10
5842041f4e65fad6a77089eb,2024_02_18,41.0389266436591,-71.91068529316958,Trailer Park,0.4,0.42301215000000003,0.7854939833333333,5,4,"NIGHT_CLEAR,NIGHT_CLEAR,NIGHT_CLEAR,NIGHT_CLEAR,CLEAR,CLEAR,CLEAR,CLEAR,CLEAR,CLEAR","Offshore,Offshore,Cross-shore,Cross-shore,Onshore,Onshore,Onshore,Onshore,Onshore,Onshore",10
5842041f4e65fad6a77089ec,2024_02_18,41.039505402729105,-71.9142,Ditch Plains,0.4,0.326037,0.509434,5,5,"NIGHT_CLEAR,NIGHT_CLEAR,NIGHT_CLEAR,NIGHT_CLEAR,CLEAR,CLEAR,CLEAR,CLEAR,CLEAR,CLEAR","Offshore,Offshore,Offshore,Offshore,Cross-shore,Cross-shore,Cross-shore,Cross-shore,Cross-shore,Cross-shore",10
5842041f4e65fad6a77089ee,2024_02_18,40.57633275206492,-73.56895305108567,"West End, Jones Beach",0.283,0.19959000000000002,0.5114566666666667,5,4,"NIGHT_CLEAR,NIGHT_CLEAR,NIGHT_CLEAR,NIGHT_CLEAR,CLEAR,CLEAR,CLEAR,CLEAR,CLEAR,CLEAR","Cross-shore,Cross-shore,Cross-shore,Cross-shore,Onshore,Onshore,Onshore,Onshore,Onshore,Onshore",10
5842041f4e65fad6a77089f1,2024_02_18,41.038286691230795,-71.91991567611694,Poles,0.4,0.42265600000000003,0.7814684166666667,5,4,"NIGHT_CLEAR,NIGHT_CLEAR,NIGHT_CLEAR,NIGHT_CLEAR,CLEAR,CLEAR,CLEAR,CLEAR,CLEAR,CLEAR","Offshore,Offshore,Cross-shore,Cross-shore,Onshore,Onshore,Onshore,Onshore,Onshore,Onshore",10
5842041f4e65fad6a77089f3,2024_02_18,40.84077769766295,-72.47989493724765,The Bowl,0.4,0.461,0.758,5,5,"NIGHT_CLEAR,NIGHT_CLEAR,NIGHT_CLEAR,NIGHT_CLEAR,CLEAR,CLEAR,CLEAR,CLEAR,CLEAR,CLEAR","Offshore,Offshore,Cross-shore,Cross-shore,Onshore,Onshore,Onshore,Onshore,Onshore,Onshore",10
5842041f4e65fad6a77089f4,2024_02_18,40.94235535243154,-72.19286,Main Beach,0.367,0.5140666666666667,0.8122766666666666,13,12,"NIGHT_CLEAR,NIGHT_CLEAR,NIGHT_CLEAR,NIGHT_CLEAR,CLEAR,CLEAR,CLEAR,CLEAR,CLEAR,CLEAR","Offshore,Cross-shore,Cross-shore,Cross-shore,Onshore,Onshore,Onshore,Onshore,Onshore,Onshore",10
5842041f4e65fad6a77089f5,2024_02_18,40.58270702399518,-73.67251552079799,Laurelton Blvd.,0.02,0.170916,0.40724575,5,4,"NIGHT_CLEAR,NIGHT_CLEAR,NIGHT_CLEAR,NIGHT_CLEAR,CLEAR,CLEAR,CLEAR,CLEAR,CLEAR,CLEAR","Onshore,Offshore,Onshore,Onshore,Cross-shore,Cross-shore,Cross-shore,Cross-shore,Cross-shore,Cross-shore",10
5842041f4e65fad6a77089f6,2024_02_18,41.033752854071416,-71.93695522488403,Terrace,0.4,0.45530600000000004,0.805252,5,4,"NIGHT_CLEAR,NIGHT_CLEAR,NIGHT_CLEAR,NIGHT_CLEAR,CLEAR,CLEAR,CLEAR,CLEAR,CLEAR,CLEAR","Offshore,Offshore,Cross-shore,Cross-shore,Onshore,Onshore,Onshore,Onshore,Onshore,Onshore",10
5842041f4e65fad6a77089f7,2024_02_18,40.83372943645748,-72.50426173210144,K Road,0.6,0.514,0.8180000000000001,5,5,"NIGHT_CLEAR,NIGHT_CLEAR,NIGHT_CLEAR,NIGHT_CLEAR,CLEAR,CLEAR,CLEAR,CLEAR,CLEAR,CLEAR","Offshore,Offshore,Cross-shore,Cross-shore,Onshore,Onshore,Onshore,Onshore,Onshore,Onshore",10
5842041f4e65fad6a77089f8,2024_02_18,40.58456099581507,-73.80730032920837,84th Street,0,0.07232666666666666,0.31549333333333335,5,4,"NIGHT_CLEAR,NIGHT_CLEAR,NIGHT_CLEAR,NIGHT_CLEAR,CLEAR,CLEAR,CLEAR,CLEAR,CLEAR,CLEAR","Cross-shore,Offshore,Cross-shore,Cross-shore,Onshore,Onshore,Onshore,Onshore,Onshore,Onshore",10
5842041f4e65fad6a77089fa,2024_02_18,40.1319,-74.02788,Sea Girt,0.55,0.06542,0.36263,6,5,"NIGHT_CLEAR,NIGHT_CLEAR,NIGHT_CLEAR,NIGHT_CLEAR,CLEAR,CLEAR,CLEAR,CLEAR,CLEAR,CLEAR","Offshore,Offshore,Offshore,Offshore,Offshore,Offshore,Offshore,Offshore,Offshore,Offshore",10
5842041f4e65fad6a77089fb,2024_02_18,40.54698301868125,-73.9268,Breezy Point,0.4,0.04,0.32,5,5,"NIGHT_CLEAR,NIGHT_CLEAR,NIGHT_CLEAR,NIGHT_CLEAR,CLEAR,CLEAR,CLEAR,CLEAR,CLEAR,CLEAR","Cross-shore,Offshore,Cross-shore,Cross-shore,Onshore,Onshore,Onshore,Onshore,Onshore,Onshore",10
5842041f4e65fad6a77089fc,2024_02_18,40.152504,-74.021383,Spring Lake,0.55,0.06567,0.36538000000000004,6,5,"NIGHT_CLEAR,NIGHT_CLEAR,NIGHT_CLEAR,NIGHT_CLEAR,CLEAR,CLEAR,CLEAR,CLEAR,CLEAR,CLEAR","Offshore,Offshore,Offshore,Offshore,Offshore,Offshore,Offshore,Offshore,Offshore,Offshore",10
5842041f4e65fad6a77089fd,2024_02_18,40.591277,-73.770792,30th - 39th Streets,0.383,0.06750333333333333,0.36053666666666667,5,4,"NIGHT_CLEAR,NIGHT_CLEAR,NIGHT_CLEAR,NIGHT_CLEAR,CLEAR,CLEAR,CLEAR,CLEAR,CLEAR,CLEAR","Cross-shore,Cross-shore,Cross-shore,Cross-shore,Onshore,Onshore,Onshore,Onshore,Onshore,Onshore",10
5842041f4e65fad6a77089fe,2024_02_18,40.18834955871439,-74.00860982500222,Avon,0.55,0.06550333333333333,0.35938000000000003,6,5,"NIGHT_CLEAR,NIGHT_CLEAR,NIGHT_CLEAR,NIGHT_CLEAR,CLEAR,CLEAR,CLEAR,CLEAR,CLEAR,CLEAR","Offshore,Offshore,Offshore,Offshore,Offshore,Offshore,Offshore,Offshore,Offshore,Offshore",10
5842041f4e65fad6a77089ff,2024_02_18,40.1974229100932,-74.00650533798255,Bradley Beach,0.55,0.06550333333333333,0.36146333333333336,6,5,"NIGHT_CLEAR,NIGHT_CLEAR,NIGHT_CLEAR,NIGHT_CLEAR,CLEAR,CLEAR,CLEAR,CLEAR,CLEAR,CLEAR","Offshore,Offshore,Offshore,Offshore,Offshore,Offshore,Offshore,Offshore,Offshore,Offshore",10
5842041f4e65fad6a7708a01,2024_02_18,40.17202,-74.01503,"16th Ave., Belmar",0.02,0.057464,0.346404,6,5,"NIGHT_CLEAR,NIGHT_CLEAR,NIGHT_CLEAR,NIGHT_CLEAR,CLEAR,CLEAR,CLEAR,CLEAR,CLEAR,CLEAR","Offshore,Offshore,Offshore,Offshore,Offshore,Offshore,Offshore,Offshore,Offshore,Offshore",10
5842041f4e65fad6a7708a02,2024_02_18,40.217443,-73.99982,Asbury Park,0.55,0.06667000000000001,0.36921333333333334,6,5,"NIGHT_CLEAR,NIGHT_CLEAR,NIGHT_CLEAR,NIGHT_CLEAR,CLEAR,CLEAR,CLEAR,CLEAR,CLEAR,CLEAR","Offshore,Offshore,Offshore,Offshore,Offshore,Offshore,Offshore,Offshore,Offshore,Offshore",10
5842041f4e65fad6a7708a03,2024_02_18,40.229841,-73.996782,Loch Arbour and Deal,0.55,0.06658666666666667,0.36513,6,5,"NIGHT_CLEAR,NIGHT_CLEAR,NIGHT_CLEAR,NIGHT_CLEAR,CLEAR,CLEAR,CLEAR,CLEAR,CLEAR,CLEAR","Offshore,Offshore,Offshore,Offshore,Offshore,Offshore,Offshore,Offshore,Offshore,Offshore",10
5842041f4e65fad6a7708a05,2024_02_18,40.41754,-73.97935,Sandy Hook,0.1,0,0.122,5,5,"NIGHT_CLEAR,NIGHT_CLEAR,NIGHT_CLEAR,NIGHT_CLEAR,CLEAR,CLEAR,CLEAR,CLEAR,CLEAR,CLEAR","Offshore,Offshore,Offshore,Offshore,Offshore,Offshore,Offshore,Offshore,Offshore,Offshore",10
5842041f4e65fad6a7708a06,2024_02_18,39.36353,-74.40873,Crystals,0.383,0.09704583333333333,0.33959525,6,5,"NIGHT_CLEAR,NIGHT_CLEAR,NIGHT_CLEAR,NIGHT_CLEAR,CLEAR,CLEAR,CLEAR,CLEAR,CLEAR,CLEAR","Offshore,Offshore,Offshore,Offshore,Cross-shore,Cross-shore,Cross-shore,Cross-shore,Cross-shore,Cross-shore",10
5842041f4e65fad6a7708a07,2024_02_18,39.31443,-74.51863,32nd Street,0,-0.00416216666666667,0.2694664166666667,6,5,"NIGHT_CLEAR,NIGHT_CLEAR,NIGHT_CLEAR,NIGHT_CLEAR,CLEAR,CLEAR,CLEAR,CLEAR,CLEAR,CLEAR","Offshore,Offshore,Offshore,Offshore,Cross-shore,Cross-shore,Cross-shore,Cross-shore,Cross-shore,Cross-shore",10
5842041f4e65fad6a7708a08,2024_02_18,39.327688,-74.49524,Margate Pier Northside,0,-0.00416216666666667,0.2694664166666667,6,5,"NIGHT_CLEAR,NIGHT_CLEAR,NIGHT_CLEAR,NIGHT_CLEAR,CLEAR,CLEAR,CLEAR,CLEAR,CLEAR,CLEAR","Offshore,Offshore,Offshore,Offshore,Cross-shore,Cross-shore,Cross-shore,Cross-shore,Cross-shore,Cross-shore",10
5842041f4e65fad6a7708a09,2024_02_18,39.336276,-74.47782,Ventnor Pier,0.383,0.09175216666666666,0.3313224166666667,6,5,"NIGHT_CLEAR,NIGHT_CLEAR,NIGHT_CLEAR,NIGHT_CLEAR,CLEAR,CLEAR,CLEAR,CLEAR,CLEAR,CLEAR","Offshore,Offshore,Offshore,Offshore,Cross-shore,Cross-shore,Cross-shore,Cross-shore,Cross-shore,Cross-shore",10
5842041f4e65fad6a7708a0a,2024_02_18,39.35929751441085,-74.41683,States Avenue,0.383,0.09704583333333333,0.33959525,6,5,"NIGHT_CLEAR,NIGHT_CLEAR,NIGHT_CLEAR,NIGHT_CLEAR,CLEAR,CLEAR,CLEAR,CLEAR,CLEAR,CLEAR","Offshore,Offshore,Offshore,Offshore,Cross-shore,Cross-shore,Cross-shore,Cross-shore,Cross-shore,Cross-shore",10
5842041f4e65fad6a7708a0b,2024_02_18,39.37274173278517,-74.40454,Brigantine Jetty,0.383,0.13171066666666667,0.3937574166666667,6,5,"NIGHT_CLEAR,NIGHT_CLEAR,NIGHT_CLEAR,NIGHT_CLEAR,CLEAR,CLEAR,CLEAR,CLEAR,CLEAR,CLEAR","Offshore,Offshore,Cross-shore,Offshore,Cross-shore,Cross-shore,Cross-shore,Onshore,Onshore,Onshore",10
5842041f4e65fad6a7708a0c,2024_02_18,39.356505,-74.42263,South Carolina Avenue,0.383,0.13169266666666668,0.39372941666666667,6,5,"NIGHT_CLEAR,NIGHT_CLEAR,NIGHT_CLEAR,NIGHT_CLEAR,CLEAR,CLEAR,CLEAR,CLEAR,CLEAR,CLEAR","Offshore,Offshore,Offshore,Cross-shore,Cross-shore,Cross-shore,Cross-shore,Onshore,Onshore,Onshore",10
5842041f4e65fad6a7708a0d,2024_02_18,39.413485,-74.35476,14th Street North,0.183,-0.004333333333333333,0.24504333333333334,6,5,"NIGHT_CLEAR,NIGHT_CLEAR,NIGHT_CLEAR,NIGHT_CLEAR,CLEAR,CLEAR,CLEAR,CLEAR,CLEAR,CLEAR","Offshore,Offshore,Offshore,Offshore,Cross-shore,Cross-shore,Cross-shore,Cross-shore,Cross-shore,Cross-shore",10
5842041f4e65fad6a7708a0e,2024_02_18,39.531319,-74.263252,The Wooden Jetty,0.183,0.0119176,0.2689955,6,5,"NIGHT_CLEAR,NIGHT_CLEAR,NIGHT_CLEAR,NIGHT_CLEAR,CLEAR,CLEAR,CLEAR,CLEAR,CLEAR,CLEAR","Offshore,Offshore,Offshore,Offshore,Cross-shore,Cross-shore,Cross-shore,Cross-shore,Cross-shore,Cross-shore",10
5842041f4e65fad6a7708a0f,2024_02_18,39.552472,-74.24344,Holyoke,0.183,0.0037065666666666634,0.25687048333333334,6,5,"NIGHT_CLEAR,NIGHT_CLEAR,NIGHT_CLEAR,NIGHT_CLEAR,CLEAR,CLEAR,CLEAR,CLEAR,CLEAR,CLEAR","Offshore,Offshore,Offshore,Offshore,Cross-shore,Cross-shore,Cross-shore,Cross-shore,Cross-shore,Cross-shore",10
5842041f4e65fad6a7708a10,2024_02_18,39.692364,-74.14068,Hudson Ave.,0.183,0.006545999999999999,0.27063733333333334,6,5,"NIGHT_CLEAR,NIGHT_CLEAR,NIGHT_CLEAR,NIGHT_CLEAR,CLEAR,CLEAR,CLEAR,CLEAR,CLEAR,CLEAR","Offshore,Offshore,Offshore,Offshore,Cross-shore,Cross-shore,Cross-shore,Cross-shore,Cross-shore,Cross-shore",10
5842041f4e65fad6a7708a11,2024_02_18,39.79614,-74.09248,Island Beach State Park,0.383,0.007000000000000001,0.30754333333333334,6,5,"NIGHT_CLEAR,NIGHT_CLEAR,NIGHT_CLEAR,NIGHT_CLEAR,CLEAR,CLEAR,CLEAR,CLEAR,CLEAR,CLEAR","Offshore,Offshore,Offshore,Offshore,Offshore,Offshore,Offshore,Offshore,Offshore,Offshore",10
5842041f4e65fad6a7708a12,2024_02_18,39.91813588078152,-74.07527,Seaside Park,0.383,0.004,0.2918766666666667,6,5,"NIGHT_CLEAR,NIGHT_CLEAR,NIGHT_CLEAR,NIGHT_CLEAR,CLEAR,CLEAR,CLEAR,CLEAR,CLEAR,CLEAR","Offshore,Offshore,Offshore,Offshore,Offshore,Offshore,Offshore,Offshore,Offshore,Offshore",10
5842041f4e65fad6a7708a14,2024_02_18,39.946638,-74.06884,Seaside Heights,0.5,0.005,0.29379333333333335,6,5,"NIGHT_CLEAR,NIGHT_CLEAR,NIGHT_CLEAR,NIGHT_CLEAR,CLEAR,CLEAR,CLEAR,CLEAR,CLEAR,CLEAR","Offshore,Offshore,Offshore,Offshore,Offshore,Offshore,Offshore,Offshore,Offshore,Offshore",10
5842041f4e65fad6a7708a15,2024_02_18,39.95745637606704,-74.06736,Ortley Beach,0.55,0.004,0.28887666666666667,6,5,"NIGHT_CLEAR,NIGHT_CLEAR,NIGHT_CLEAR,NIGHT_CLEAR,CLEAR,CLEAR,CLEAR,CLEAR,CLEAR,CLEAR","Offshore,Offshore,Offshore,Offshore,Offshore,Offshore,Offshore,Offshore,Offshore,Offshore",10
5842041f4e65fad6a7708a16,2024_02_18,39.98313468342945,-74.06265685577506,Lavallette,0.383,0.006,0.29879333333333336,6,5,"NIGHT_CLEAR,NIGHT_CLEAR,NIGHT_CLEAR,NIGHT_CLEAR,CLEAR,CLEAR,CLEAR,CLEAR,CLEAR,CLEAR","Offshore,Offshore,Offshore,Offshore,Offshore,Offshore,Offshore,Offshore,Offshore,Offshore",10
5842041f4e65fad6a7708a17,2024_02_18,40.0699319967757,-74.04144910856634,Bay Head,0.467,0.004,0.29571000000000003,6,5,"NIGHT_CLEAR,NIGHT_CLEAR,NIGHT_CLEAR,NIGHT_CLEAR,CLEAR,CLEAR,CLEAR,CLEAR,CLEAR,CLEAR","Offshore,Offshore,Offshore,Offshore,Offshore,Offshore,Offshore,Offshore,Offshore,Offshore",10
5842041f4e65fad6a7708a18,2024_02_18,40.094041,-74.034859,Jenkinson's,0.55,0.007000000000000001,0.3031266666666667,6,5,"NIGHT_CLEAR,NIGHT_CLEAR,NIGHT_CLEAR,NIGHT_CLEAR,CLEAR,CLEAR,CLEAR,CLEAR,CLEAR,CLEAR","Offshore,Offshore,Offshore,Offshore,Cross-shore,Offshore,Offshore,Offshore,Offshore,Offshore",10
5842041f4e65fad6a7708a1a,2024_02_18,38.148058,-75.17704,Assateague,0.383,-0.010999999999999996,0.27571,6,5,"NIGHT_CLEAR,NIGHT_CLEAR,NIGHT_CLEAR,NIGHT_CLEAR,CLEAR,CLEAR,CLEAR,CLEAR,CLEAR,CLEAR","Offshore,Offshore,Offshore,Offshore,Cross-shore,Cross-shore,Cross-shore,Cross-shore,Cross-shore,Cross-shore",10
5842041f4e65fad6a7708a1b,2024_02_18,38.33889038664497,-75.08017670566352,North End to Ocean City Inlet,0.55,-0.007999999999999993,0.27971,6,5,"NIGHT_CLEAR,NIGHT_CLEAR,NIGHT_CLEAR,NIGHT_CLEAR,CLEAR,CLEAR,CLEAR,CLEAR,CLEAR,CLEAR","Offshore,Offshore,Offshore,Offshore,Offshore,Offshore,Offshore,Offshore,Offshore,Offshore",10
5842041f4e65fad6a7708a1c,2024_02_18,38.603993,-75.06271,Indian River Inlet,0.1,0.038737916666666664,0.24848808333333336,6,5,"NIGHT_CLEAR,NIGHT_CLEAR,NIGHT_CLEAR,NIGHT_CLEAR,CLEAR,CLEAR,CLEAR,CLEAR,CLEAR,CLEAR","Offshore,Offshore,Offshore,Offshore,Offshore,Offshore,Offshore,Offshore,Offshore,Offshore",10
5842041f4e65fad6a7708a1d,2024_02_18,38.460477,-75.052069,Fenwick Island,0.55,-0.01191666666666667,0.2587933333333333,6,5,"NIGHT_CLEAR,NIGHT_CLEAR,NIGHT_CLEAR,NIGHT_CLEAR,CLEAR,CLEAR,CLEAR,CLEAR,CLEAR,CLEAR","Offshore,Offshore,Offshore,Offshore,Offshore,Offshore,Offshore,Offshore,Offshore,Offshore",10
5842041f4e65fad6a7708a1e,2024_02_18,38.538767,-75.05619,Bethany Beach,0.383,0.03512191666666667,0.24284166666666668,6,5,"NIGHT_CLEAR,NIGHT_CLEAR,NIGHT_CLEAR,NIGHT_CLEAR,CLEAR,CLEAR,CLEAR,CLEAR,CLEAR,CLEAR","Offshore,Offshore,Offshore,Offshore,Offshore,Offshore,Offshore,Offshore,Offshore,Offshore",10
5842041f4e65fad6a7708a1f,2024_02_18,38.697657,-75.075951,Dewey Beach,0.45,-0.01625,0.24462666666666666,6,5,"NIGHT_CLEAR,NIGHT_CLEAR,NIGHT_CLEAR,NIGHT_CLEAR,CLEAR,CLEAR,CLEAR,CLEAR,CLEAR,CLEAR","Offshore,Offshore,Offshore,Offshore,Offshore,Offshore,Offshore,Offshore,Offshore,Offshore",10
5842041f4e65fad6a7708a20,2024_02_18,38.75034741676525,-75.08194,Gordons Pond,0.35,0.0330975,0.23967575000000002,6,5,"NIGHT_CLEAR,NIGHT_CLEAR,NIGHT_CLEAR,NIGHT_CLEAR,CLEAR,CLEAR,CLEAR,CLEAR,CLEAR,CLEAR","Offshore,Offshore,Offshore,Offshore,Offshore,Offshore,Offshore,Cross-shore,Cross-shore,Cross-shore",10
5842041f4e65fad6a7708a21,2024_02_18,38.767837,-75.082841,Naval Jetties,0.55,-0.008666666666666666,0.24637666666666666,6,5,"NIGHT_CLEAR,NIGHT_CLEAR,NIGHT_CLEAR,NIGHT_CLEAR,CLEAR,CLEAR,CLEAR,CLEAR,CLEAR,CLEAR","Offshore,Offshore,Offshore,Offshore,Offshore,Offshore,Offshore,Offshore,Offshore,Offshore",10
5842041f4e65fad6a7708a22,2024_02_18,36.81735875786576,-75.96624,Camp Pendleton,0.1,0.07753666666666667,0.3780466666666667,7,6,"NIGHT_CLEAR,NIGHT_CLEAR,NIGHT_CLEAR,NIGHT_CLEAR,CLEAR,CLEAR,CLEAR,CLEAR,CLEAR,CLEAR","Offshore,Offshore,Offshore,Offshore,Offshore,Offshore,Offshore,Offshore,Offshore,Offshore",10
5842041f4e65fad6a7708a23,2024_02_18,36.9102212316428,-75.98732471466064,North End,0.1,0.06662,0.37646333333333337,7,6,"NIGHT_CLEAR,NIGHT_CLEAR,NIGHT_CLEAR,NIGHT_CLEAR,CLEAR,CLEAR,CLEAR,CLEAR,CLEAR,CLEAR","Offshore,Offshore,Offshore,Offshore,Offshore,Offshore,Offshore,Offshore,Offshore,Offshore",10
5842041f4e65fad6a7708a24,2024_02_18,36.737117517621314,-75.93923719853362,Sandbridge Beach,0.616,0.0585,0.3408,7,6,"NIGHT_CLEAR,NIGHT_CLEAR,NIGHT_CLEAR,NIGHT_CLEAR,CLEAR,CLEAR,CLEAR,CLEAR,CLEAR,CLEAR","Offshore,Offshore,Offshore,Offshore,Offshore,Offshore,Offshore,Offshore,Offshore,Offshore",10
5842041f4e65fad6a7708a26,2024_02_18,36.818257440557794,-75.96666,Croatan to Pendleton,0.1,0.07637000000000001,0.37871333333333335,7,6,"NIGHT_CLEAR,NIGHT_CLEAR,NIGHT_CLEAR,NIGHT_CLEAR,CLEAR,CLEAR,CLEAR,CLEAR,CLEAR,CLEAR","Offshore,Offshore,Offshore,Offshore,Offshore,Offshore,Offshore,Offshore,Offshore,Offshore",10
5842041f4e65fad6a7708a27,2024_02_18,36.84318777204769,-75.9719,South End,0.616,0.03958333333333333,0.31488333333333335,7,6,"NIGHT_CLEAR,NIGHT_CLEAR,NIGHT_CLEAR,NIGHT_CLEAR,CLEAR,CLEAR,CLEAR,CLEAR,CLEAR,CLEAR","Offshore,Offshore,Offshore,Offshore,Offshore,Offshore,Offshore,Offshore,Offshore,Offshore",10
5842041f4e65fad6a7708a28,2024_02_18,37.08612627584661,-75.976121638199,Fishermans Island,0,0,0.0428,7,7,"NIGHT_CLEAR,NIGHT_CLEAR,NIGHT_CLEAR,NIGHT_CLEAR,CLEAR,CLEAR,CLEAR,CLEAR,CLEAR,CLEAR","Offshore,Offshore,Offshore,Offshore,Cross-shore,Cross-shore,Cross-shore,Cross-shore,Cross-shore,Cross-shore",10
5842041f4e65fad6a7708a38,2024_02_18,35.254619418229026,-75.52074,Cape Hatteras Lighthouse,2.35,0.6835581666666667,1.04869525,11,9,"NIGHT_CLEAR,NIGHT_CLEAR,NIGHT_CLEAR,NIGHT_CLEAR,CLEAR,CLEAR,CLEAR,CLEAR,CLEAR,CLEAR","Cross-shore,Cross-shore,Cross-shore,Cross-shore,Onshore,Onshore,Offshore,Offshore,Cross-shore,Offshore",10
5842041f4e65fad6a7708a3a,2024_02_18,35.54572934093336,-75.46477,Waves and Salvo,1.233,0.47606333333333334,0.7811466666666667,9,8,"NIGHT_CLEAR,NIGHT_CLEAR,NIGHT_CLEAR,NIGHT_CLEAR,CLEAR,CLEAR,CLEAR,CLEAR,CLEAR,CLEAR","Cross-shore,Cross-shore,Cross-shore,Cross-shore,Onshore,Onshore,Offshore,Offshore,Cross-shore,Cross-shore",10
5842041f4e65fad6a7708a3b,2024_02_18,35.22565892751075,-75.63606,Frisco,1.567,0.25784,0.54054,12,11,"NIGHT_CLEAR,NIGHT_CLEAR,NIGHT_CLEAR,NIGHT_CLEAR,CLEAR,CLEAR,CLEAR,CLEAR,CLEAR,CLEAR","Offshore,Offshore,Offshore,Offshore,Cross-shore,Onshore,Cross-shore,Cross-shore,Onshore,Onshore",10
5842041f4e65fad6a7708a3c,2024_02_18,35.13086,-75.90591,Ocracoke,0.6,0.210193,0.328427,9,9,"NIGHT_CLEAR,NIGHT_CLEAR,NIGHT_CLEAR,NIGHT_CLEAR,CLEAR,CLEAR,CLEAR,CLEAR,CLEAR,CLEAR","Offshore,Offshore,Cross-shore,Offshore,Onshore,Onshore,Offshore,Cross-shore,Cross-shore,Cross-shore",10
5842041f4e65fad6a7708a3d,2024_02_18,35.34721340158342,-75.50084,Avon Pier,1.983,0.67739,1.0081733333333334,9,8,"NIGHT_CLEAR,NIGHT_CLEAR,NIGHT_CLEAR,NIGHT_CLEAR,CLEAR,CLEAR,CLEAR,CLEAR,CLEAR,CLEAR","Cross-shore,Cross-shore,Cross-shore,Cross-shore,Onshore,Onshore,Offshore,Offshore,Cross-shore,Offshore",10
5842041f4e65fad6a7708a3f,2024_02_18,35.71680821253768,-75.49243,Pea Island,1.4,0.354,0.659,7.4,7.4,"NIGHT_CLEAR,NIGHT_CLEAR,NIGHT_CLEAR,NIGHT_CLEAR,CLEAR,CLEAR,CLEAR,CLEAR,CLEAR,CLEAR","Cross-shore,Cross-shore,Onshore,Cross-shore,Offshore,Offshore,Offshore,Offshore,Offshore,Offshore",10
5842041f4e65fad6a7708a40,2024_02_18,35.97427620657821,-75.62984,Nags Head Pier,1.783,0.65441,1.0509833333333334,8,6,"NIGHT_CLEAR,NIGHT_CLEAR,NIGHT_CLEAR,NIGHT_CLEAR,CLEAR,CLEAR,CLEAR,CLEAR,CLEAR,CLEAR","Onshore,Onshore,Onshore,Onshore,Offshore,Offshore,Offshore,Offshore,Offshore,Offshore",10
5842041f4e65fad6a7708a41,2024_02_18,36.0439998039079,-75.67288,Avalon Pier,1.533,0.56229,0.9296233333333334,7,6,"NIGHT_CLEAR,NIGHT_CLEAR,NIGHT_CLEAR,NIGHT_CLEAR,CLEAR,CLEAR,CLEAR,CLEAR,CLEAR,CLEAR","Cross-shore,Cross-shore,Cross-shore,Cross-shore,Offshore,Offshore,Offshore,Offshore,Offshore,Offshore",10
5842041f4e65fad6a7708a42,2024_02_18,36.03043116489792,-75.66413,First Street,2.067,0.7152033333333333,1.1152733333333333,7,6,"NIGHT_CLEAR,NIGHT_CLEAR,NIGHT_CLEAR,NIGHT_CLEAR,CLEAR,CLEAR,CLEAR,CLEAR,CLEAR,CLEAR","Cross-shore,Cross-shore,Onshore,Cross-shore,Offshore,Offshore,Offshore,Offshore,Offshore,Offshore",10
5842041f4e65fad6a7708a43,2024_02_18,36.06829910590498,-75.6899,Old Station/Laundromats,1.867,0.5419366666666667,0.9279466666666667,7,6,"NIGHT_CLEAR,NIGHT_CLEAR,NIGHT_CLEAR,NIGHT_CLEAR,CLEAR,CLEAR,CLEAR,CLEAR,CLEAR,CLEAR","Cross-shore,Cross-shore,Cross-shore,Cross-shore,Offshore,Offshore,Offshore,Offshore,Offshore,Offshore",10
5842041f4e65fad6a7708a44,2024_02_18,36.10126676607491,-75.71107462163894,Kitty Hawk Pier,2.084,0.6538266666666667,1.0518166666666666,7,6,"NIGHT_CLEAR,NIGHT_CLEAR,NIGHT_CLEAR,NIGHT_CLEAR,CLEAR,CLEAR,CLEAR,CLEAR,CLEAR,CLEAR","Cross-shore,Cross-shore,Cross-shore,Cross-shore,Offshore,Offshore,Offshore,Offshore,Offshore,Offshore",10
5842041f4e65fad6a7708a45,2024_02_18,36.18220630068973,-75.75013580649097,Duck Pier,0.883,0.24425000000000002,0.6179266666666666,7,6,"NIGHT_CLEAR,NIGHT_CLEAR,NIGHT_CLEAR,NIGHT_CLEAR,CLEAR,CLEAR,CLEAR,CLEAR,CLEAR,CLEAR","Cross-shore,Cross-shore,Cross-shore,Cross-shore,Offshore,Offshore,Offshore,Offshore,Offshore,Offshore",10
5842041f4e65fad6a7708a46,2024_02_18,36.37660668125033,-75.82409701687456,Corolla,0.883,0.28008333333333335,0.6579266666666667,7,6,"NIGHT_CLEAR,NIGHT_CLEAR,NIGHT_CLEAR,NIGHT_CLEAR,CLEAR,CLEAR,CLEAR,CLEAR,CLEAR,CLEAR","Cross-shore,Cross-shore,Cross-shore,Cross-shore,Offshore,Offshore,Offshore,Offshore,Offshore,Offshore",10
5842041f4e65fad6a7708a47,2024_02_18,33.90373404124834,-78.08241431707907,Oak Island,1,0.01,0.225,12.6,12.6,"NIGHT_CLEAR,NIGHT_CLEAR,NIGHT_CLEAR,NIGHT_CLEAR,CLEAR,CLEAR,CLEAR,CLEAR,CLEAR,CLEAR","Offshore,Offshore,Offshore,Offshore,Offshore,Offshore,Offshore,Offshore,Offshore,Offshore",10
5842041f4e65fad6a7708a48,2024_02_18,33.91108837766468,-78.29653,South Brunswick Beaches,1,0.144127,0.2252,12,12,"NIGHT_CLEAR,NIGHT_CLEAR,NIGHT_CLEAR,NIGHT_CLEAR,CLEAR,CLOUDY,CLEAR,CLEAR,CLEAR,CLEAR","Offshore,Offshore,Offshore,Offshore,Offshore,Offshore,Offshore,Offshore,Offshore,Offshore",10
5842041f4e65fad6a7708a49,2024_02_18,34.05683595651973,-77.88128,Carolina Beach Pier,0.2,0.0012499999999999992,0.2943766666666667,13,12,"NIGHT_CLEAR,NIGHT_CLOUDY,NIGHT_CLEAR,NIGHT_CLEAR,CLEAR,CLEAR,CLEAR,CLEAR,CLEAR,CLEAR","Offshore,Offshore,Cross-shore,Cross-shore,Cross-shore,Cross-shore,Cross-shore,Cross-shore,Cross-shore,Cross-shore",10
5842041f4e65fad6a7708a4a,2024_02_18,33.96841191816696,-77.9180242565498,Fort Fisher,0.2,0.001499999999999995,0.30546,13,12,"NIGHT_CLOUDY,NIGHT_OVERCAST,NIGHT_CLEAR,NIGHT_CLEAR,CLEAR,CLOUDY,CLEAR,CLEAR,CLEAR,CLEAR","Offshore,Offshore,Cross-shore,Cross-shore,Cross-shore,Cross-shore,Cross-shore,Cross-shore,Cross-shore,Cross-shore",10
5842041f4e65fad6a7708a4b,2024_02_18,34.46776662988774,-77.47083191635772,Topsail Beach,0.333,0.024430000000000004,0.31039,12,11,"NIGHT_CLEAR,NIGHT_CLEAR,NIGHT_CLEAR,NIGHT_CLEAR,CLOUDY,CLEAR,CLEAR,CLEAR,CLEAR,CLEAR","Offshore,Offshore,Offshore,Offshore,Offshore,Offshore,Offshore,Offshore,Offshore,Onshore",10
5842041f4e65fad6a7708a4c,2024_02_18,34.69270354752445,-76.82854854446575,Iron Steamer,0.733,0.056036666666666665,0.28454666666666667,12,11,"NIGHT_CLEAR,NIGHT_CLEAR,NIGHT_CLEAR,NIGHT_CLEAR,CLEAR,CLEAR,CLEAR,CLEAR,CLEAR,CLEAR","Offshore,Offshore,Offshore,Offshore,Offshore,Offshore,Offshore,Cross-shore,Cross-shore,Cross-shore",10
5842041f4e65fad6a7708a4f,2024_02_18,30.85132684893727,-81.42283496231143,Cumberland Island,1.2,0.46199999999999997,0.752,14,14,"LIGHT_RAIN,NIGHT_DRIZZLE,NIGHT_BRIEF_SHOWERS_POSSIBLE,NIGHT_CLOUDY,LIGHT_RAIN,LIGHT_RAIN,LIGHT_SHOWERS_POSSIBLE,LIGHT_RAIN,LIGHT_RAIN,RAIN","Offshore,Cross-shore,Offshore,Offshore,Offshore,Offshore,Cross-shore,Cross-shore,Cross-shore,Cross-shore",10
5842041f4e65fad6a7708a50,2024_02_18,34.686741128540874,-76.47516712138378,Cape Lookout National Seashore,1.1,0.118,0.425,10.6,10.6,"NIGHT_CLEAR,NIGHT_CLEAR,NIGHT_CLOUDY,NIGHT_CLEAR,CLEAR,CLEAR,CLEAR,CLEAR,CLEAR,CLEAR","Offshore,Offshore,Cross-shore,Cross-shore,Onshore,Onshore,Offshore,Offshore,Onshore,Offshore",10
5842041f4e65fad6a7708a51,2024_02_18,31.10585419260024,-81.40422767604812,Jekyll Island,0.4,0.371,0.638,14,14,"LIGHT_SHOWERS_POSSIBLE,NIGHT_LIGHT_RAIN,NIGHT_CLOUDY,NIGHT_CLEAR,LIGHT_RAIN,LIGHT_RAIN,CLEAR,BRIEF_SHOWERS_POSSIBLE,BRIEF_SHOWERS_POSSIBLE,LIGHT_SHOWERS_POSSIBLE","Offshore,Offshore,Cross-shore,Cross-shore,Cross-shore,Cross-shore,Onshore,Onshore,Onshore,Cross-shore",10
5842041f4e65fad6a7708a52,2024_02_18,31.16212806376699,-81.32512426500224,Harbor Marker Buoys,0.6,0.349,0.628,14,14,"LIGHT_SHOWERS_POSSIBLE,NIGHT_LIGHT_RAIN,NIGHT_DRIZZLE,NIGHT_CLEAR,LIGHT_RAIN,LIGHT_SHOWERS_POSSIBLE,CLEAR,BRIEF_SHOWERS_POSSIBLE,BRIEF_SHOWERS_POSSIBLE,LIGHT_SHOWERS_POSSIBLE","Offshore,Offshore,Offshore,Offshore,Cross-shore,Cross-shore,Cross-shore,Cross-shore,Cross-shore,Cross-shore",10
5842041f4e65fad6a7708a53,2024_02_18,31.20076299997009,-81.32629,Sea Island,1.2,0.479,0.759,13.6,13.6,"FOG,NIGHT_LIGHT_RAIN_AND_FOG,NIGHT_DRIZZLE,NIGHT_CLEAR,LIGHT_RAIN,LIGHT_RAIN,CLEAR,CLOUDY,CLEAR,DRIZZLE","Cross-shore,Offshore,Offshore,Offshore,Cross-shore,Cross-shore,Cross-shore,Cross-shore,Cross-shore,Cross-shore",10
5842041f4e65fad6a7708a54,2024_02_18,31.13553222995767,-81.38457634790909,St. Simons Island,1.4,0.414,0.7000000000000001,14,14,"BRIEF_SHOWERS_POSSIBLE,NIGHT_LIGHT_RAIN,NIGHT_CLOUDY,NIGHT_CLEAR,LIGHT_RAIN,LIGHT_SHOWERS_POSSIBLE,CLEAR,CLEAR,CLEAR,LIGHT_SHOWERS_POSSIBLE","Cross-shore,Offshore,Offshore,Offshore,Offshore,Offshore,Offshore,Offshore,Offshore,Offshore",10
5842041f4e65fad6a7708a55,2024_02_18,31.33550077186516,-81.28383377408417,Wolf Island,0.6,0.362,0.643,13,13,"LIGHT_RAIN,NIGHT_LIGHT_SHOWERS_POSSIBLE,NIGHT_DRIZZLE,NIGHT_CLEAR,CLEAR,BRIEF_SHOWERS_POSSIBLE,CLEAR,CLOUDY,CLEAR,CLEAR","Offshore,Offshore,Cross-shore,Cross-shore,Cross-shore,Cross-shore,Cross-shore,Cross-shore,Cross-shore,Cross-shore",10
5842041f4e65fad6a7708a56,2024_02_18,31.2704493877174,-81.27324039152315,Little St. Simons Island,0.6,0.46799999999999997,0.748,13,13,"LIGHT_RAIN,NIGHT_LIGHT_SHOWERS_POSSIBLE,NIGHT_DRIZZLE,NIGHT_CLEAR,BRIEF_SHOWERS_POSSIBLE,DRIZZLE,CLEAR,CLOUDY,CLEAR,CLEAR","Offshore,Offshore,Cross-shore,Cross-shore,Onshore,Cross-shore,Onshore,Onshore,Onshore,Onshore",10
