_id,date,lat,lon,name,daily_mean_swell_rating,daily_mean_wave_height_min,daily_mean_wave_height_max,daily_mean_water_temperature_max,daily_mean_water_temperature_min,weather_per_timestamp,wind_per_timestamp,n_samples_per_day
5842041f4e65fad6a77087f9,2025_05_22,37.741668,-122.51038,South Ocean Beach,1,1.39323,1.71316,11,11,NIGHT_CLEAR,Onshore,1
5842041f4e65fad6a7708801,2025_05_22,37.49142,-122.50428,Maverick's,NA,1.84,2.2,13,13,NIGHT_BRIEF_SHOWERS,Offshore,1
5842041f4e65fad6a7708804,2025_05_22,44.997,-124.018,Roads End,2,1.23,1.54,12,12,NIGHT_CLEAR,Cross-shore,1
5842041f4e65fad6a7708805,2025_05_22,36.95188851423011,-122.02522,Steamer Lane,3,0.86235,1.20953,12,12,NIGHT_MOSTLY_CLEAR,Onshore,1
5842041f4e65fad6a7708806,2025_05_22,36.95918781542251,-122.02489,Cowells,1,0,0.23517,12,12,NIGHT_MOSTLY_CLEAR,Cross-shore,1
5842041f4e65fad6a7708807,2025_05_22,36.95468082526536,-121.97234,Pleasure Point,3,0.95666,1.14182,12,12,NIGHT_CLEAR,Onshore,1
5842041f4e65fad6a770880a,2025_05_22,35.37815414378748,-120.86589,Morro Bay,3,1.28,1.58,11,11,NIGHT_MOSTLY_CLEAR,Offshore,1
5842041f4e65fad6a770880b,2025_05_22,36.95782765000708,-121.96729,Jack's,2,0.15772,0.44531,12,12,NIGHT_CLEAR,Onshore,1
5842041f4e65fad6a770880d,2025_05_22,34.29982939936656,-119.3489016603669,Gold Coast Beachbreaks,2,0.25,0.56,16,16,NIGHT_MIST,Cross-shore,1
5842041f4e65fad6a7708811,2025_05_22,34.245076,-119.26799,Ventura Harbor,3,0.76951,1.10082,16,16,NIGHT_CLEAR,Offshore,1
5842041f4e65fad6a7708813,2025_05_22,34.051,-118.964,County Line,3,0.65056,0.98669,17,17,NIGHT_MIST,Cross-shore,1
5842041f4e65fad6a7708814,2025_05_22,34.37256264378892,-119.47797,Rincon,2,0.26,0.56,16,16,NIGHT_MIST,Onshore,1
5842041f4e65fad6a7708817,2025_05_22,34.03096101876324,-118.68109,Malibu Third Point,3,0.45881,0.77891,18,18,NIGHT_MIST,Onshore,1
5842041f4e65fad6a7708819,2025_05_22,33.984079047970035,-118.47382,Venice Beach,3,0.63882,0.95316,18,18,NIGHT_MIST,Onshore,1
5842041f4e65fad6a770881e,2025_05_22,34.037508438646746,-118.5834,Topanga Beach,3,0.53305,0.85288,18,18,NIGHT_CLEAR,Onshore,1
5842041f4e65fad6a7708820,2025_05_22,33.73954373690184,-118.11414,Seal Beach Jetty,2,0.31357,0.66198,18,18,NIGHT_MOSTLY_CLOUDY,Onshore,1
5842041f4e65fad6a7708822,2025_05_22,33.72309983348433,-118.08078,Anderson Street,3,0.657,0.927,18,18,NIGHT_MOSTLY_CLOUDY,Onshore,1
5842041f4e65fad6a7708827,2025_05_22,33.65574085629463,-118.00397,Huntington Beach Pier Northside,3,0.83532,1.17396,18,18,NIGHT_MOSTLY_CLOUDY,Cross-shore,1
5842041f4e65fad6a7708828,2025_05_22,34.272041739333,-119.29976,C St.,3,0.49807,0.79105,16,16,NIGHT_MIST,Offshore,1
5842041f4e65fad6a770882a,2025_05_22,33.61555743705257,-117.93676,Newport Lower Jetties,3,0.60376,0.96369,18,18,NIGHT_MOSTLY_CLOUDY,Cross-shore,1
5842041f4e65fad6a770882b,2025_05_22,33.5930302087,-117.88199,The Wedge,3,1.10118,1.42323,19,19,NIGHT_CLEAR,Onshore,1
5842041f4e65fad6a770882e,2025_05_22,33.475793399792984,-117.72291,Salt Creek,3,0.89957,1.24556,18,18,NIGHT_MIST,Cross-shore,1
5842041f4e65fad6a7708830,2025_05_22,33.41800974113613,-117.61952,T-Street,3,0.75873,1.1151,18,18,NIGHT_MIST,Onshore,1
5842041f4e65fad6a7708832,2025_05_22,33.202391008646,-117.39475,Oceanside Harbor,3,0.87257,1.24826,18,18,NIGHT_MOSTLY_CLOUDY,Onshore,1
5842041f4e65fad6a7708835,2025_05_22,33.19477795952803,-117.38667,Oceanside Pier,3,0.77065,1.1382,18,18,NIGHT_MOSTLY_CLOUDY,Onshore,1
5842041f4e65fad6a7708837,2025_05_22,33.14948100706,-117.35029,Tamarack,3,0.57,0.88,18,18,NIGHT_MOSTLY_CLOUDY,Cross-shore,1
5842041f4e65fad6a7708839,2025_05_22,32.865777159358856,-117.25614,Scripps,3,0.78476,1.10727,18,18,NIGHT_MOSTLY_CLOUDY,Onshore,1
5842041f4e65fad6a770883a,2025_05_22,32.813094,-117.27381,Birdrock,3,0.807,1.14056,18,18,NIGHT_CLEAR,Onshore,1
5842041f4e65fad6a770883b,2025_05_22,32.88338,-117.25571,Blacks,3,1.05305,1.2505,17,17,NIGHT_MOSTLY_CLOUDY,Onshore,1
5842041f4e65fad6a770883c,2025_05_22,32.82978974229765,-117.28162,Windansea,3,0.77907,1.15605,17,17,NIGHT_CLEAR,Onshore,1
5842041f4e65fad6a770883d,2025_05_22,32.838278,-117.28396,Horseshoe,3,0.957,1.298,18,18,NIGHT_CLEAR,Onshore,1
5842041f4e65fad6a770883f,2025_05_22,32.75034717673179,-117.25337,Ocean Beach,3,0.97857,1.30117,17,17,NIGHT_MOSTLY_CLOUDY,Cross-shore,1
5842041f4e65fad6a7708840,2025_05_22,32.73693,-117.25718,Sunset Cliffs,3,0.72025,1.0535,18,18,NIGHT_MOSTLY_CLOUDY,Cross-shore,1
5842041f4e65fad6a7708841,2025_05_22,32.796582258728826,-117.25779,Pacific Beach,3,0.89397,1.21251,18,18,NIGHT_MOSTLY_CLOUDY,Onshore,1
5842041f4e65fad6a7708842,2025_05_22,32.776636,-117.25514,Mission Beach,3,0.85212,1.16772,18,18,NIGHT_MOSTLY_CLOUDY,Onshore,1
5842041f4e65fad6a7708844,2025_05_22,32.577195519016,-117.13475,Imperial Beach Pier,3,0.92,1.1,17,17,NIGHT_MOSTLY_CLOUDY,Onshore,1
5842041f4e65fad6a770884a,2025_05_22,42.88678181061,-70.80843,Seabrook,1,0.53637,0.90587,11,10,NIGHT_CLOUDY,Onshore,1
5842041f4e65fad6a770884e,2025_05_22,41.434181432898335,-71.45312,Narragansett,1,0.47,0.78,13,13,NIGHT_DRIZZLE,Cross-shore,1
5842041f4e65fad6a7708850,2025_05_22,40.582703230722,-73.65247,Lincoln Blvd,2,0.83673,1.13916,14,13,NIGHT_RAIN,Offshore,1
5842041f4e65fad6a7708852,2025_05_22,40.58342841721757,-73.81182,Rockaways,1,1.0199,1.33862,14,13,NIGHT_LIGHT_RAIN,Cross-shore,1
5842041f4e65fad6a7708853,2025_05_22,40.330474,-73.9734,Monmouth Beach,0,1.19323,1.46238,14,14,NIGHT_DRIZZLE,Onshore,1
5842041f4e65fad6a7708856,2025_05_22,40.113,-74.028,Manasquan Inlet,1,1.34462,1.66476,14,14,NIGHT_DRIZZLE,Onshore,1
5842041f4e65fad6a7708857,2025_05_22,39.941519877445664,-74.06829,Casino Pier,1,1.78485,2.13712,15,15,NIGHT_OVERCAST,Onshore,1
5842041f4e65fad6a7708858,2025_05_22,39.28223089949212,-74.55766,North End OC,1,0.69312,1.00347,14,13,NIGHT_RAIN,Cross-shore,1
5842041f4e65fad6a770885b,2025_05_22,39.65080599934257,-74.17146,Ship Bottom,1,1.54,1.85,14,13,NIGHT_OVERCAST,Onshore,1
5842041f4e65fad6a7708863,2025_05_22,36.034151543144,-75.66791,Third Street,3,0.7876,1.15201,21,20,NIGHT_OVERCAST,Offshore,1
5842041f4e65fad6a7708867,2025_05_22,35.605833221351425,-75.46303,S-Turns,2,0.49104,0.837,22,22,NIGHT_CLEAR,Offshore,1
5842041f4e65fad6a770886d,2025_05_22,38.338461,-75.08117,Ocean City Boardwalk,2,0.84689,1.17506,18,17,NIGHT_LIGHT_RAIN,Onshore,1
5842041f4e65fad6a770886f,2025_05_22,29.844757212379562,-81.26136,A St.,1,0.09,0.39,25,25,NIGHT_MOSTLY_CLOUDY,Offshore,1
5842041f4e65fad6a7708871,2025_05_22,29.069417851135093,-80.90824,New Smyrna Beach,2,0.26481,0.62173,23,22,NIGHT_CLEAR,Offshore,1
5842041f4e65fad6a7708872,2025_05_22,28.367707417566,-80.60171,Cocoa Beach Pier,1,0.05287,0.38065,24,23,NIGHT_CLEAR,Offshore,1
5842041f4e65fad6a7708873,2025_05_22,28.091782738658846,-80.56479,Indialantic,2,0.02212,0.35385,25,24,NIGHT_CLEAR,Offshore,1
5842041f4e65fad6a7708876,2025_05_22,27.25392904143517,-80.19455,Jensen Beach,1,0,0.21689,24,23,NIGHT_CLEAR,Offshore,1
5842041f4e65fad6a7708879,2025_05_22,26.76346795333825,-80.03607,Reef Road,2,0.01,0.32,27,27,NIGHT_CLEAR,Offshore,1
5842041f4e65fad6a770887c,2025_05_22,26.336499228484,-80.06956100463,Boca Raton Inlet,1,0.1054,0.23741,27,27,NIGHT_CLEAR,Offshore,1
5842041f4e65fad6a770887d,2025_05_22,26.31719311695038,-80.07453,Deerfield Beach Pier,1,0.1054,0.2437,27,27,NIGHT_CLEAR,Offshore,1
5842041f4e65fad6a7708881,2025_05_22,30.20276320866628,-85.85626528676136,"Spyglass Dr., Panama City",2,0.09944,0.43093,24,24,NIGHT_CLEAR,Offshore,1
5842041f4e65fad6a7708884,2025_05_22,33.39000832738053,-117.59852,Cottons,3,1.09915,1.31898,18,18,NIGHT_MIST,Onshore,1
5842041f4e65fad6a7708885,2025_05_22,33.359416282661,-117.54168,Trails,3,0.72416,1.07456,18,18,NIGHT_MOSTLY_CLOUDY,Offshore,1
5842041f4e65fad6a7708886,2025_05_22,33.38042605929805,-117.58332,Middles,3,1.0413,1.23799,18,18,NIGHT_MIST,Onshore,1
5842041f4e65fad6a7708887,2025_05_22,33.38445596302903,-117.59445,Upper Trestles,3,1.07016,1.27509,18,18,NIGHT_MIST,Onshore,1
5842041f4e65fad6a7708889,2025_05_22,28.944414,-95.28883,Surfside,2,0.43248,0.79483,27,27,NIGHT_DRIZZLE,Onshore,1
5842041f4e65fad6a770888a,2025_05_22,33.38143999849023,-117.58843,Lower Trestles,4,1.15133,1.37229,18,18,NIGHT_MIST,Offshore,1
5842041f4e65fad6a770888b,2025_05_22,33.379622288757,-117.57894,Church,4,1.15916,1.3757,17,17,NIGHT_MIST,Onshore,1
5842041f4e65fad6a770888d,2025_05_22,21.679,-158.042,Sunset Beach,3,0.36069,0.68956,26,25,NIGHT_MOSTLY_CLEAR,Cross-shore,1
5842041f4e65fad6a770888e,2025_05_22,21.670550036401,-158.0482,Rocky Point,3,0.42244,0.74983,26,25,NIGHT_CLEAR,Cross-shore,1
5842041f4e65fad6a770888f,2025_05_22,21.668,-158.05,Chambers,2,0.49128,0.82236,25,25,NIGHT_CLEAR,Cross-shore,1
5842041f4e65fad6a7708890,2025_05_22,21.66522,-158.0526,Pipeline,1,0.13,0.44,26,25,NIGHT_CLEAR,Cross-shore,1
5842041f4e65fad6a7708891,2025_05_22,21.665,-158.054,Backdoor,2,0.12828,0.45967,26,25,NIGHT_CLEAR,Cross-shore,1
5842041f4e65fad6a7708892,2025_05_22,21.662,-158.057,Rockpile,2,0.5285,0.8456,25,25,NIGHT_CLEAR,Cross-shore,1
5842041f4e65fad6a7708893,2025_05_22,21.65870453806827,-158.06058,Log Cabins,2,0.28512,0.60192,25,25,NIGHT_CLEAR,Cross-shore,1
5842041f4e65fad6a7708894,2025_05_22,21.66203493640557,-158.05495,Off The Wall,2,0.267,0.59808,25,25,NIGHT_CLEAR,Cross-shore,1
5842041f4e65fad6a7708895,2025_05_22,21.643,-158.067,Waimea Bay,NA,0.21,0.52,26,25,NIGHT_CLEAR,Cross-shore,1
5842041f4e65fad6a7708896,2025_05_22,21.622,-158.087,Hultin's,1,0.248,0.55552,26,25,NIGHT_CLEAR,Offshore,1
5842041f4e65fad6a7708897,2025_05_22,21.623,-158.085,Jocko's,2,0.23832,0.54615,25,25,NIGHT_CLEAR,Onshore,1
5842041f4e65fad6a7708898,2025_05_22,21.62,-158.088,Laniakea,2,0.51894,0.83666,26,25,NIGHT_CLEAR,Cross-shore,1
5842041f4e65fad6a7708899,2025_05_22,21.625,-158.083,Chun's,2,0.46035,0.77748,25,25,NIGHT_CLEAR,Offshore,1
5842041f4e65fad6a770889c,2025_05_22,21.286357895152136,-157.8515,Ala Moana Beach Park,2,0.46096,0.78256,25,25,NIGHT_CLEAR,Offshore,1
5842041f4e65fad6a770889d,2025_05_22,19.606,-155.978,Banyans,2,0.43,0.73,26,25,NIGHT_MOSTLY_CLEAR,Cross-shore,1
5842041f4e65fad6a770889e,2025_05_22,20.029,-155.831,Kawaihae,2,0.4444,0.66234,26,26,NIGHT_CLEAR,Offshore,1
5842041f4e65fad6a770889f,2025_05_22,33.07541383424675,-117.3105,Grandview,3,0.69935,1.0047,19,19,NIGHT_MOSTLY_CLOUDY,Onshore,1
5842041f4e65fad6a77088a0,2025_05_22,33.065267421296596,-117.30577,Beacons,3,0.67965,0.985,19,19,NIGHT_MOSTLY_CLOUDY,Onshore,1
5842041f4e65fad6a77088a2,2025_05_22,21.252,-157.805,Diamond Head,3,0.70729,1.03254,26,25,NIGHT_MOSTLY_CLOUDY,Cross-shore,1
5842041f4e65fad6a77088a3,2025_05_22,33.04694255008896,-117.29966,Moonlight State Beach,3,0.6868,0.9999,18,18,NIGHT_MOSTLY_CLOUDY,Onshore,1
5842041f4e65fad6a77088a5,2025_05_22,33.08685865930869,-117.31532,Ponto,3,0.91,1.08,19,19,NIGHT_MOSTLY_CLOUDY,Onshore,1
5842041f4e65fad6a77088a6,2025_05_22,33.130343587871906,-117.33668,Terra Mar Point,3,0.68,0.98,18,18,NIGHT_MOSTLY_CLOUDY,Cross-shore,1
5842041f4e65fad6a77088af,2025_05_22,32.95916304183685,-117.26963,Del Mar,3,0.85566,1.18476,18,18,NIGHT_MOSTLY_CLOUDY,Onshore,1
5842041f4e65fad6a77088b0,2025_05_22,32.97527261243354,-117.2721061331305,Del Mar Rivermouth,3,0.73692,1.068,18,18,NIGHT_MOSTLY_CLOUDY,Onshore,1
5842041f4e65fad6a77088b1,2025_05_22,33.01352178146273,-117.28219,Cardiff Reef,3,0.69002,1.02425,18,18,NIGHT_MOSTLY_CLOUDY,Cross-shore,1
5842041f4e65fad6a77088b3,2025_05_22,33.00211185876003,-117.2811,Seaside Reef,3,0.69096,1.01999,18,18,NIGHT_MOSTLY_CLOUDY,Cross-shore,1
5842041f4e65fad6a77088b4,2025_05_22,33.0341859796287,-117.29552,Swami's,3,0.80737,1.10275,18,18,NIGHT_MOSTLY_CLOUDY,Onshore,1
5842041f4e65fad6a77088b7,2025_05_22,33.04569760260221,-117.2994,D Street,3,0.6969,1.01,18,18,NIGHT_MOSTLY_CLOUDY,Onshore,1
5842041f4e65fad6a77088b8,2025_05_22,33.02090944350196,-117.28535,San Elijo State Beach,3,0.52,0.832,18,18,NIGHT_MOSTLY_CLOUDY,Cross-shore,1
5842041f4e65fad6a77088c2,2025_05_22,32.80662846492798,-117.26888,PB Point,3,0.79476,1.11696,18,18,NIGHT_CLEAR,Onshore,1
5842041f4e65fad6a77088c4,2025_05_22,32.8060476681448,-117.26479,Old Man's at Tourmaline,3,0.64756,0.92117,18,18,NIGHT_CLEAR,Onshore,1
5842041f4e65fad6a77088cb,2025_05_22,32.557056711256,-117.1327445020322,Tijuana Slough,3,0.6,0.9,17,17,NIGHT_MOSTLY_CLOUDY,Onshore,1
5842041f4e65fad6a77088cc,2025_05_22,32.863,-117.257,La Jolla Shores,3,0.66795,1.0074,18,18,NIGHT_MOSTLY_CLOUDY,Onshore,1
5842041f4e65fad6a77088ce,2025_05_22,32.67443657790586,-117.17421,Coronado Beach,3,0.47,0.78,17,17,NIGHT_MOSTLY_CLOUDY,Onshore,1
5842041f4e65fad6a77088cf,2025_05_22,33.40484417640326,-117.60749,San Clemente State Beach,3,0.7449,1.10016,18,18,NIGHT_MOSTLY_CLOUDY,Onshore,1
5842041f4e65fad6a77088d5,2025_05_22,33.4663042002114,-117.71684,Strands,3,0.83952,1.20098,18,18,NIGHT_MIST,Cross-shore,1
5842041f4e65fad6a77088d7,2025_05_22,33.4609858001748,-117.68535,Doheny State Beach,3,0.37776,0.74371,18,18,NIGHT_MOSTLY_CLOUDY,Onshore,1
5842041f4e65fad6a77088dc,2025_05_22,33.50894790083017,-117.75243,Aliso Creek,3,0.68027,1.02617,18,18,NIGHT_MIST,Onshore,1
5842041f4e65fad6a77088dd,2025_05_22,33.5326591767067,-117.77764,Brooks Street,2,0.46,0.76,18,18,NIGHT_MIST,Onshore,1
5842041f4e65fad6a77088de,2025_05_22,33.53561225884637,-117.7799,Thalia Street,3,0.42,0.72,18,18,NIGHT_MIST,Onshore,1
5842041f4e65fad6a77088e3,2025_05_22,33.54268310353641,-117.7916,Rockpile,3,0.46,0.76,18,18,NIGHT_MIST,Onshore,1
5842041f4e65fad6a77088e4,2025_05_22,33.7368459504689,-118.10342,"Seal Beach Pier, Southside",3,0.31,0.61,18,18,NIGHT_MIST,Onshore,1
5842041f4e65fad6a77088e5,2025_05_22,33.73933701820233,-118.117,Ray Bay,3,0.57,0.87,18,18,NIGHT_MOSTLY_CLOUDY,Onshore,1
5842041f4e65fad6a77088e7,2025_05_22,33.728733,-118.08982,Surfside,3,0.73,1.03,18,18,NIGHT_MOSTLY_CLOUDY,Onshore,1
5842041f4e65fad6a77088e8,2025_05_22,33.68760321488161,-118.04236,Bolsa Chica State Beach,3,0.7249,1.02281,18,18,NIGHT_MOSTLY_CLOUDY,Onshore,1
5842041f4e65fad6a77088ea,2025_05_22,33.66704400178788,-118.0192,North HB Streets,3,1.02097,1.22096,18,18,NIGHT_MOSTLY_CLOUDY,Cross-shore,1
5842041f4e65fad6a77088ed,2025_05_22,33.65475101379567,-118.00291,Huntington Beach Pier Southside,3,1.22879,1.5867,18,18,NIGHT_MOSTLY_CLOUDY,Offshore,1
5842041f4e65fad6a77088ee,2025_05_22,33.62778647706099,-117.95939,River Jetties,3,0.78807,1.12738,18,18,NIGHT_MOSTLY_CLOUDY,Onshore,1
5842041f4e65fad6a77088f2,2025_05_22,33.605165797643664,-117.925,Newport Point,3,1.03408,1.2364,18,18,NIGHT_MIST,Cross-shore,1
5842041f4e65fad6a77088f3,2025_05_22,33.58982984726977,-117.87713,Corona del Mar,2,0.59223,0.91432,19,19,NIGHT_BRIEF_SHOWERS,Cross-shore,1
5842041f4e65fad6a77088f7,2025_05_22,34.00750300824362,-118.49718,Santa Monica Pier,2,0.32448,0.63882,18,18,NIGHT_MOSTLY_CLEAR,Onshore,1
5842041f4e65fad6a77088ff,2025_05_22,33.94070283102945,-118.44321,Dockweiler Beach,3,0.7196,1.028,16,16,NIGHT_BRIEF_SHOWERS,Onshore,1
5842041f4e65fad6a7708900,2025_05_22,33.9231846937237,-118.4341465777908,Shitpipe,3,0.7196,1.03828,16,16,NIGHT_BRIEF_SHOWERS,Onshore,1
5842041f4e65fad6a7708902,2025_05_22,33.9108528052242,-118.4279133138721,Hammerland,3,0.7112,1.02616,18,18,NIGHT_BRIEF_SHOWERS,Onshore,1
5842041f4e65fad6a7708904,2025_05_22,33.87201368173932,-118.40752,Hermosa Beach,3,0.63945,0.9541,18,18,NIGHT_MOSTLY_CLOUDY,Onshore,1
5842041f4e65fad6a7708906,2025_05_22,33.90129336911256,-118.42184,El Porto,3,0.68883,0.99726,18,18,NIGHT_BRIEF_SHOWERS,Onshore,1
5842041f4e65fad6a7708907,2025_05_22,33.87963506431794,-118.41102,Manhattan Beach Pier,3,0.66582,0.96846,18,18,NIGHT_BRIEF_SHOWERS,Onshore,1
5842041f4e65fad6a7708914,2025_05_22,34.038053387863464,-118.5532,Sunset Point,3,0.33046,0.65026,18,18,NIGHT_MOSTLY_CLEAR,Onshore,1
5842041f4e65fad6a7708920,2025_05_22,33.80282,-118.39989,Haggerty's,2,0.29748,0.54672,17,17,NIGHT_CLEAR,Cross-shore,1
5842041f4e65fad6a7708921,2025_05_22,33.85044519861206,-118.40048,Redondo Breakwater,3,0.53424,0.83664,17,17,NIGHT_MOSTLY_CLOUDY,Onshore,1
5842041f4e65fad6a7708927,2025_05_22,33.70877301002487,-118.2840112858389,Cabrillo Beach,2,0.29,0.6,17,17,NIGHT_BRIEF_SHOWERS,Onshore,1
5842041f4e65fad6a770892c,2025_05_22,33.77209986806257,-118.4268428476672,Lunada Bay,2,0.62,0.92,18,18,NIGHT_MIST,Cross-shore,1
5842041f4e65fad6a770892d,2025_05_22,33.79294656286144,-118.40703,PV Cove,3,0.37185,0.6834,18,18,NIGHT_CLEAR,Cross-shore,1
5842041f4e65fad6a7708930,2025_05_22,34.03944902292561,-118.57539,Chart House,2,0.12792,0.45838,18,18,NIGHT_CLEAR,Onshore,1
5842041f4e65fad6a7708936,2025_05_22,34.0016731994772,-118.80456,Point Dume,2,0.3351,0.68137,18,18,NIGHT_MIST,Onshore,1
5842041f4e65fad6a7708937,2025_05_22,34.02587527588963,-118.7554939066114,Latigo Point,2,0.36,0.66,17,17,NIGHT_MIST,Cross-shore,1
5842041f4e65fad6a770893f,2025_05_22,34.043762,-118.93294,Leo Carrillo,3,0.71544,1.04064,17,17,NIGHT_MIST,Onshore,1
5842041f4e65fad6a7708941,2025_05_22,36.69388179265737,-121.81289,Marina State Beach,2,1.65,1.96,12,12,NIGHT_MOSTLY_CLOUDY,Onshore,1
5842041f4e65fad6a7708944,2025_05_22,34.34145077331085,-119.416999352654,Stanley's,2,0.2,0.5,16,16,NIGHT_CLEAR,Offshore,1
5842041f4e65fad6a7708945,2025_05_22,34.35113017313915,-119.426921498899,Oil Piers,2,0.2,0.5,16,16,NIGHT_CLEAR,Offshore,1
5842041f4e65fad6a770894c,2025_05_22,34.17876333306018,-119.23995,Oxnard,3,0.58,0.89,16,16,NIGHT_CLEAR,Onshore,1
5842041f4e65fad6a7708957,2025_05_22,34.31720331100517,-119.3882324751725,Pitas Point,2,0.26,0.56,16,16,NIGHT_CLEAR,Cross-shore,1
5842041f4e65fad6a7708959,2025_05_22,34.27851754384724,-119.3162,Emma Wood,3,0.4482,0.75696,17,17,NIGHT_MIST,Offshore,1
5842041f4e65fad6a770895a,2025_05_22,34.35513640390276,-119.4400589884255,Mussel Shoals (aka Little Rincon),2,0.23,0.53,16,16,NIGHT_MIST,Offshore,1
5842041f4e65fad6a770895e,2025_05_22,34.28991757054902,-119.3366646794652,Summer Beach,2,0.249,0.55776,17,17,NIGHT_MIST,Cross-shore,1
5842041f4e65fad6a770895f,2025_05_22,34.30897456105926,-119.3582501170116,Solimar,2,0.25,0.56,16,16,NIGHT_CLEAR,Cross-shore,1
5842041f4e65fad6a7708960,2025_05_22,34.3984,-119.70207,Leadbetter Point,1,0,0.23,16,16,NIGHT_MIST,Onshore,1
5842041f4e65fad6a7708961,2025_05_22,34.46052293893899,-120.07328,Refugio,2,0.08,0.39,16,16,NIGHT_CLEAR,Cross-shore,1
5842041f4e65fad6a7708962,2025_05_22,34.40754276777778,-119.87639,Devereux,2,0.14,0.45,16,16,NIGHT_CLEAR,Onshore,1
5842041f4e65fad6a7708963,2025_05_22,34.27479983305182,-119.3133222656776,Ventura Overhead,3,0.4482,0.75696,17,17,NIGHT_MIST,Cross-shore,1
5842041f4e65fad6a7708964,2025_05_22,34.41023236011655,-119.88261,Sands,2,0.12,0.43,16,16,NIGHT_CLEAR,Cross-shore,1
5842041f4e65fad6a7708966,2025_05_22,34.4045,-119.68747,Sandspit,1,0,0.23,16,16,NIGHT_CLEAR,Cross-shore,1
5842041f4e65fad6a7708967,2025_05_22,34.41549098334453,-119.6375149840203,Hammond's,2,0.12,0.43,16,16,NIGHT_BRIEF_SHOWERS,Cross-shore,1
5842041f4e65fad6a7708968,2025_05_22,34.45759322742309,-120.02203,El Capitan,2,0.09,0.4,16,16,NIGHT_CLEAR,Cross-shore,1
5842041f4e65fad6a770896c,2025_05_22,34.405117655616,-119.84317,Campus Point,2,0.12,0.43,16,16,NIGHT_CLEAR,Onshore,1
5842041f4e65fad6a770896e,2025_05_22,34.38935162233354,-119.51955,Carpinteria State Beach,2,0.24,0.55,16,16,NIGHT_MIST,Offshore,1
5842041f4e65fad6a770896f,2025_05_22,37.48296565175612,-122.45493,Half Moon Bay,3,0.93808,1.2177,12,12,NIGHT_BRIEF_SHOWERS,Onshore,1
5842041f4e65fad6a7708970,2025_05_22,37.499,-122.471,Princeton Jetty,2,0.66748,0.9471,0,0,NIGHT_BRIEF_SHOWERS,Cross-shore,1
5842041f4e65fad6a7708972,2025_05_22,37.35699547365155,-122.4069534707252,Tunitas Creek,3,1.99,2.38,12,12,NIGHT_BRIEF_SHOWERS,Cross-shore,1
5842041f4e65fad6a7708974,2025_05_22,37.54735589428842,-122.51611,Montara,2,1.85,2.15,12,12,NIGHT_SHOWERS,Onshore,1
5842041f4e65fad6a7708975,2025_05_22,34.3869373724559,-119.5142334209018,Tarpits,2,0.26,0.56,16,16,NIGHT_BRIEF_SHOWERS,Cross-shore,1
5842041f4e65fad6a7708976,2025_05_22,37.59881852720143,-122.50463,Linda Mar,1,0.56,0.86,12,12,NIGHT_SHOWERS,Onshore,1
5842041f4e65fad6a7708978,2025_05_22,37.59883098461164,-122.5143843582282,Pedro Point,2,2.41417,2.81438,12,12,NIGHT_MIST,Onshore,1
5842041f4e65fad6a7708979,2025_05_22,37.61081996647663,-122.49733,Rockaway,2,2.327,2.73,12,12,NIGHT_SHOWERS,Onshore,1
5842041f4e65fad6a770897a,2025_05_22,37.809987384424446,-122.47514,Fort Point,2,0.98,1.29,11,11,NIGHT_CLEAR,Cross-shore,1
5842041f4e65fad6a770897c,2025_05_22,37.63422542967464,-122.4951,Sharp Park,1,2.44755,2.849,12,12,NIGHT_BRIEF_SHOWERS,Onshore,1
5842041f4e65fad6a770897d,2025_05_22,37.27313605072472,-122.4127387912554,Pescadero,2,1.98,2.37,12,12,NIGHT_BRIEF_SHOWERS,Cross-shore,1
5842041f4e65fad6a770897e,2025_05_22,37.18140279972666,-122.3926685899327,Pigeon Point,4,2.19,2.3,12,12,NIGHT_BRIEF_SHOWERS,Offshore,1
5842041f4e65fad6a770897f,2025_05_22,37.11578956919415,-122.314699271291,Ano Nuevo,4,1.22,1.52,12,12,NIGHT_MIST,Offshore,1
5842041f4e65fad6a7708980,2025_05_22,37.09520872681598,-122.2805474707768,Waddell Creek,3,1.55,1.74,11,11,NIGHT_CLEAR,Offshore,1
5842041f4e65fad6a7708981,2025_05_22,36.96512852130351,-122.1252825495626,Four Mile,3,1.03,1.33,11,11,NIGHT_CLEAR,Offshore,1
5842041f4e65fad6a7708982,2025_05_22,37.04122807048655,-122.23337,Scott Creek,3,1.59,1.89,11,11,NIGHT_CLEAR,Offshore,1
5842041f4e65fad6a7708983,2025_05_22,37.02350229387179,-122.21908,Davenport,3,1.35,1.62,11,11,NIGHT_CLEAR,Cross-shore,1
5842041f4e65fad6a7708986,2025_05_22,36.94905295955728,-122.06118,Natural Bridges,3,1.20042,1.51848,11,11,NIGHT_CLEAR,Onshore,1
5842041f4e65fad6a7708987,2025_05_22,36.95154854910425,-122.04207,Mitchell's Cove,3,0.66368,0.98515,12,12,NIGHT_MOSTLY_CLEAR,Onshore,1
5842041f4e65fad6a770898a,2025_05_22,36.9572312370203,-121.98177,26th Ave,3,0.97667,1.1604,12,12,NIGHT_CLEAR,Cross-shore,1
5842041f4e65fad6a770898e,2025_05_22,36.91899972819882,-121.85536,Manresa,3,1.29,1.48,12,12,NIGHT_MIST,Cross-shore,1
5842041f4e65fad6a7708990,2025_05_22,34.45747731928454,-120.34242,The Ranch,3,0.38,0.68,14,14,NIGHT_CLEAR,Cross-shore,1
5842041f4e65fad6a7708991,2025_05_22,34.50875036590315,-120.50348,Jalama,2,0.71,1.02,14,14,NIGHT_CLEAR,Offshore,1
5842041f4e65fad6a7708996,2025_05_22,34.68700870220497,-120.6111611019887,Surf Beach,2,2.42,2.72,13,13,NIGHT_BRIEF_SHOWERS,Onshore,1
5842041f4e65fad6a770899c,2025_05_22,35.5730538161116,-121.1143362345574,Moonstone,3,1.41,1.71,13,13,NIGHT_CLEAR,Onshore,1
5842041f4e65fad6a770899d,2025_05_22,35.61533716776573,-121.1502053073914,Pico Creek,3,1.62,1.93,13,13,NIGHT_CLEAR,Offshore,1
5842041f4e65fad6a770899e,2025_05_22,35.56829031927379,-121.11207,Santa Rosa Creek,3,1.41,1.71,13,13,NIGHT_CLEAR,Onshore,1
5842041f4e65fad6a77089a2,2025_05_22,35.44820114936284,-120.90715,"Cayucos Pier, Southside",3,0.63,0.94,13,13,NIGHT_MOSTLY_CLEAR,Cross-shore,1
5842041f4e65fad6a77089a4,2025_05_22,35.30143372628852,-120.877819239902,Cable Landing,3,3,3.3,13,13,NIGHT_MIST,Onshore,1
5842041f4e65fad6a77089a9,2025_05_22,35.61269103500222,-121.14807,San Simeon,3,1.169,1.225,13,13,NIGHT_CLEAR,Offshore,1
5842041f4e65fad6a77089ab,2025_05_22,35.1775325966252,-120.73411,Avila Beach,1,0,0.3,13,13,NIGHT_CLEAR,Offshore,1
5842041f4e65fad6a77089ac,2025_05_22,35.13877877884115,-120.64535,Pismo Beach Pier,3,1.03698,1.24031,12,12,NIGHT_CLEAR,Offshore,1
5842041f4e65fad6a77089ad,2025_05_22,46.8907710233147,-124.12964,Westport,3,0.96,1.07,12,12,NIGHT_CLEAR,Cross-shore,1
5842041f4e65fad6a77089ae,2025_05_22,46.35185177248545,-124.06747,Long Beach Peninsula,2,1.26,1.57,13,13,NIGHT_CLEAR,Cross-shore,1
5842041f4e65fad6a77089af,2025_05_22,47.90649175554033,-124.63709,La Push,3,0.84,1.14,11,11,NIGHT_CLEAR,Offshore,1
5842041f4e65fad6a77089b0,2025_05_22,42.04368239985442,-124.26828,Brookings Jetty,3,0.59144,0.83449,10,10,NIGHT_MIST,Onshore,1
5842041f4e65fad6a77089b1,2025_05_22,42.74071837900346,-124.4983727491047,Port Orford,3,0.63,0.94,12,12,NIGHT_MOSTLY_CLOUDY,Offshore,1
5842041f4e65fad6a77089b2,2025_05_22,44.01532689312291,-124.13865,Florence South Jetty,2,1.26,1.56,13,13,NIGHT_MOSTLY_CLEAR,Cross-shore,1
5842041f4e65fad6a77089b3,2025_05_22,42.41812540774362,-124.42945,Gold Beach South Jetty,3,1.03,1.34,11,11,NIGHT_MIST,Offshore,1
5842041f4e65fad6a77089b4,2025_05_22,44.95857310226525,-124.0219,Lincoln City,3,1.17,1.48,12,12,NIGHT_CLOUDY,Cross-shore,1
5842041f4e65fad6a77089b5,2025_05_22,44.63792761362982,-124.0657,Newport,2,1.25,1.56,12,12,NIGHT_CLOUDY,Cross-shore,1
5842041f4e65fad6a77089b6,2025_05_22,45.61468496266301,-123.94643,Rockaway Beach,3,1.24,1.55,12,12,NIGHT_CLOUDY,Onshore,1
5842041f4e65fad6a77089b7,2025_05_22,45.20252914186085,-123.96975,Pacific City,3,1.02,1.33,12,12,NIGHT_CLEAR,Offshore,1
5842041f4e65fad6a77089b8,2025_05_22,45.88179930310263,-123.96681,Cannon Beach,3,1.17,1.47,11,11,NIGHT_CLOUDY,Cross-shore,1
5842041f4e65fad6a77089ba,2025_05_22,40.02528754746774,-124.06372,Shelter Cove,2,0.31618,0.48864,9,9,NIGHT_CLEAR,Offshore,1
5842041f4e65fad6a77089bb,2025_05_22,40.76816197136951,-124.24248,Humboldt Harbor Entrance,3,1.33,1.64,11,11,NIGHT_MIST,Onshore,1
5842041f4e65fad6a77089bc,2025_05_22,40.76684246920174,-124.23107,North Jetty,3,1.67,1.97,11,11,NIGHT_MIST,Onshore,1
5842041f4e65fad6a77089be,2025_05_22,41.13016238153297,-124.16466,Sue-meg,3,1.34,1.64,12,12,NIGHT_DRIZZLE,Cross-shore,1
5842041f4e65fad6a77089bf,2025_05_22,37.8289474958188,-122.53768,Fort Cronkite/Rodeo Beach,2,1.25,1.5,11,11,NIGHT_CLEAR,Cross-shore,1
5842041f4e65fad6a77089c0,2025_05_22,41.74415759876137,-124.17717,South Beach CA,3,0.55,0.85,10,10,NIGHT_MIST,Onshore,1
5842041f4e65fad6a77089c1,2025_05_22,37.89801283969752,-122.64519,Stinson Beach,3,0.55,0.85,11,11,NIGHT_CLEAR,Offshore,1
5842041f4e65fad6a77089c2,2025_05_22,37.90514516176495,-122.68151,Bolinas,2,0.22765,0.53448,11,11,NIGHT_CLEAR,Cross-shore,1
5842041f4e65fad6a77089c3,2025_05_22,38.04892513158693,-122.98925,Point Reyes (north),0,2.07,2.47,10,10,NIGHT_MIST,Onshore,1
5842041f4e65fad6a77089c6,2025_05_22,38.31088736605785,-123.0496777333731,Doran Beach,1,0.03,0.34,10,10,NIGHT_CLEAR,Offshore,1
5842041f4e65fad6a77089c7,2025_05_22,38.45077228660809,-123.13008,Russian Rivermouth,3,1.47,1.68,10,10,NIGHT_CLEAR,Cross-shore,1
5842041f4e65fad6a77089c8,2025_05_22,38.35329968518107,-123.06906,Salmon Creek,1,2.1,2.4,10,10,NIGHT_CLEAR,Onshore,1
5842041f4e65fad6a77089c9,2025_05_22,38.6845180197959,-123.4322714291198,Black Point Beach,3,0.67,0.98,10,10,NIGHT_CLEAR,Onshore,1
5842041f4e65fad6a77089ca,2025_05_22,43.251076,-70.59144,Ogunquit,1,0.69,1,11,10,NIGHT_CLOUDY,Onshore,1
5842041f4e65fad6a77089cb,2025_05_22,41.362631366305415,-71.48007,Point Judith,1,0.55707,0.90524,13,13,NIGHT_OVERCAST,Onshore,1
5842041f4e65fad6a77089cd,2025_05_22,41.422678090954726,-71.45413,Monahan's - Narragansett,0,0.57436,0.89345,12,12,NIGHT_DRIZZLE,Onshore,1
5842041f4e65fad6a77089ce,2025_05_22,41.469,-71.293,Ruggles - Newport,1,0.58475,1.02687,12,12,NIGHT_DRIZZLE,Cross-shore,1
5842041f4e65fad6a77089cf,2025_05_22,43.175394,-70.606351,Short Sands Beach,1,0.63126,0.98196,10,10,NIGHT_CLOUDY,Onshore,1
5842041f4e65fad6a77089d0,2025_05_22,41.487408,-71.29017,First Beach,1,0.2492,0.63546,12,12,NIGHT_OVERCAST,Cross-shore,1
5842041f4e65fad6a77089d1,2025_05_22,42.27916830233153,-70.86498,Nantasket Beach,0,0.64708,0.98765,12,11,NIGHT_OVERCAST,Onshore,1
5842041f4e65fad6a77089d2,2025_05_22,41.817,-69.935,Cape Cod,1,0.78,1.08,11,11,NIGHT_CLOUDY,Onshore,1
5842041f4e65fad6a77089d3,2025_05_22,42.22055448975661,-70.70634873403819,Egypt Beach,1,0.72,1.02,11,11,NIGHT_OVERCAST,Onshore,1
5842041f4e65fad6a77089d4,2025_05_22,41.48739647744607,-71.25723,Second Beach,1,0.35521,0.6305,13,13,NIGHT_OVERCAST,Offshore,1
5842041f4e65fad6a77089d5,2025_05_22,42.964,-70.769,Fox Hill,1,0.32953,0.64843,11,10,NIGHT_OVERCAST,Onshore,1
5842041f4e65fad6a77089d6,2025_05_22,42.991359,-70.75149,Straws Point,1,0.51,0.81,11,10,NIGHT_OVERCAST,Cross-shore,1
5842041f4e65fad6a77089d7,2025_05_22,42.946,-70.786,Plaice Cove,1,0.32953,0.64843,11,10,NIGHT_OVERCAST,Onshore,1
5842041f4e65fad6a77089d9,2025_05_22,42.911574,-70.80831,The Main Beach,1,0.44579,0.83914,11,10,NIGHT_CLOUDY,Cross-shore,1
5842041f4e65fad6a77089da,2025_05_22,42.97583846220203,-70.764,Sawyer's Beach,1,0.36,0.66,11,10,NIGHT_OVERCAST,Onshore,1
5842041f4e65fad6a77089db,2025_05_22,42.97,-70.77,Rye on the Rocks / 5-0's,1,0.51517,0.76286,11,10,NIGHT_OVERCAST,Onshore,1
5842041f4e65fad6a77089dc,2025_05_22,43.55902946610303,-70.27795,Higgins Beach,1,0.11157,0.44626,11,10,NIGHT_OVERCAST,Cross-shore,1
5842041f4e65fad6a77089dd,2025_05_22,43.302676,-70.5652,Wells Beach,1,0.36,0.67,11,10,NIGHT_OVERCAST,Onshore,1
5842041f4e65fad6a77089de,2025_05_22,43.545359,-70.30479,Scarborough Beach State Park,1,0.30734,0.72159,11,10,NIGHT_CLOUDY,Cross-shore,1
5842041f4e65fad6a77089df,2025_05_22,43.514481,-70.37215,Old Orchard Beach,1,0.13,0.44,11,10,NIGHT_CLOUDY,Onshore,1
5842041f4e65fad6a77089e0,2025_05_22,43.34711,-70.48165,Gooch's Beach,1,0.24125,0.51825,11,10,NIGHT_CLOUDY,Cross-shore,1
5842041f4e65fad6a77089e2,2025_05_22,40.58433,-73.62953,Lido Beach,0,0.98542,1.32136,14,13,NIGHT_RAIN,Cross-shore,1
5842041f4e65fad6a77089e3,2025_05_22,43.163135,-70.61689,Long Sands Beach,1,0.37759,0.68562,11,10,NIGHT_CLEAR,Cross-shore,1
5842041f4e65fad6a77089e4,2025_05_22,40.61695351251805,-73.39376,Gilgo Beach,2,0.85926,1.18556,13,12,NIGHT_RAIN,Offshore,1
5842041f4e65fad6a77089e5,2025_05_22,40.62530081928036,-73.23827,Robert Moses,0,0.8,1.11,13,13,NIGHT_DRIZZLE,Cross-shore,1
5842041f4e65fad6a77089e6,2025_05_22,40.64313317632791,-73.15727,Fire Island,0,0.79,1.1,13,13,NIGHT_DRIZZLE,Cross-shore,1
5842041f4e65fad6a77089e8,2025_05_22,40.76653118828782,-72.7458,Cupsogue,0,1.07,1.37,13,13,NIGHT_OVERCAST,Cross-shore,1
5842041f4e65fad6a77089e9,2025_05_22,42.9376373334092,-70.79141,The Wall,1,0.51905,0.86508,11,10,NIGHT_CLOUDY,Onshore,1
5842041f4e65fad6a77089ea,2025_05_22,40.887088,-72.33856,Flys,0,1.04,1.34,13,13,NIGHT_OVERCAST,Cross-shore,1
5842041f4e65fad6a77089eb,2025_05_22,41.0389266436591,-71.91068529316958,Trailer Park,0,1.1742,1.45779,13,12,NIGHT_OVERCAST,Cross-shore,1
5842041f4e65fad6a77089ec,2025_05_22,41.039505402729105,-71.9142,Ditch Plains,0,1.04586,1.44612,12,12,NIGHT_OVERCAST,Cross-shore,1
5842041f4e65fad6a77089ee,2025_05_22,40.57633275206492,-73.56895305108567,"West End, Jones Beach",0,0.87,1.17,14,13,NIGHT_RAIN,Offshore,1
5842041f4e65fad6a77089f1,2025_05_22,41.038286691230795,-71.91991567611694,Poles,0,1.03871,1.38757,13,12,NIGHT_OVERCAST,Cross-shore,1
5842041f4e65fad6a77089f3,2025_05_22,40.84077769766295,-72.47989493724765,The Bowl,0,0.95,1.26,13,13,NIGHT_DRIZZLE,Cross-shore,1
5842041f4e65fad6a77089f4,2025_05_22,40.94235535243154,-72.19286,Main Beach,1,1,1.31,17,16,NIGHT_OVERCAST,Offshore,1
5842041f4e65fad6a77089f5,2025_05_22,40.58270702399518,-73.67251552079799,Laurelton Blvd.,1,0.83178,1.01107,14,13,NIGHT_RAIN,Offshore,1
5842041f4e65fad6a77089f6,2025_05_22,41.033752854071416,-71.93696,Terrace,0,0.92076,1.26605,13,12,NIGHT_OVERCAST,Cross-shore,1
5842041f4e65fad6a77089f7,2025_05_22,40.83372943645748,-72.50426173210144,K Road,0,1.15,1.45,13,13,NIGHT_DRIZZLE,Cross-shore,1
5842041f4e65fad6a77089f8,2025_05_22,40.58456099581507,-73.80730032920837,84th Street,1,1.08324,1.41246,14,13,NIGHT_LIGHT_RAIN,Cross-shore,1
5842041f4e65fad6a77089fa,2025_05_22,40.1319,-74.02788,Sea Girt,0,1.32225,1.64475,14,14,NIGHT_DRIZZLE,Onshore,1
5842041f4e65fad6a77089fb,2025_05_22,40.54698301868125,-73.9268,Breezy Point,1,0.87,1.18,14,14,NIGHT_LIGHT_RAIN,Cross-shore,1
5842041f4e65fad6a77089fc,2025_05_22,40.152504,-74.02138,Spring Lake,0,1.28044,1.614,14,14,NIGHT_OVERCAST,Onshore,1
5842041f4e65fad6a77089fd,2025_05_22,40.591277,-73.770792,30th - 39th Streets,1,0.72216,1.05138,14,13,NIGHT_RAIN,Cross-shore,1
5842041f4e65fad6a77089fe,2025_05_22,40.18834955871439,-74.00860982500222,Avon,0,1.39836,1.72356,14,14,NIGHT_DRIZZLE,Onshore,1
5842041f4e65fad6a77089ff,2025_05_22,40.1974229100932,-74.00650533798255,Bradley Beach,0,1.45256,1.66936,14,14,NIGHT_DRIZZLE,Onshore,1
5842041f4e65fad6a7708a01,2025_05_22,40.17202,-74.01503,"16th Ave., Belmar",0,1.43054,1.54975,14,14,NIGHT_DRIZZLE,Onshore,1
5842041f4e65fad6a7708a02,2025_05_22,40.217443,-73.99982,Asbury Park,0,1.18,1.48,14,14,NIGHT_LIGHT_RAIN,Onshore,1
5842041f4e65fad6a7708a03,2025_05_22,40.229841,-73.99678,Loch Arbour and Deal,0,1.18,1.49,14,14,NIGHT_LIGHT_RAIN,Onshore,1
5842041f4e65fad6a7708a05,2025_05_22,40.41754,-73.97935,Sandy Hook,0,0.84,1.15,15,15,NIGHT_OVERCAST,Onshore,1
5842041f4e65fad6a7708a06,2025_05_22,39.36353,-74.40873,Crystals,0,0.77204,1.124,14,13,NIGHT_OVERCAST,Onshore,1
5842041f4e65fad6a7708a07,2025_05_22,39.31443,-74.51863,32nd Street,0,0.86613,1.23394,14,13,NIGHT_OVERCAST,Onshore,1
5842041f4e65fad6a7708a08,2025_05_22,39.327688,-74.49524,Margate Pier Northside,0,0.86613,1.23394,14,13,NIGHT_OVERCAST,Onshore,1
5842041f4e65fad6a7708a09,2025_05_22,39.336276,-74.47782,Ventnor Pier,0,0.86601,1.23377,14,13,NIGHT_OVERCAST,Onshore,1
5842041f4e65fad6a7708a0a,2025_05_22,39.35929751441085,-74.41683,States Avenue,0,0.77204,1.124,14,13,NIGHT_DRIZZLE,Onshore,1
5842041f4e65fad6a7708a0b,2025_05_22,39.37274173278517,-74.40454,Brigantine Jetty,0,0.69758,1.04637,14,13,NIGHT_OVERCAST,Cross-shore,1
5842041f4e65fad6a7708a0c,2025_05_22,39.356505,-74.42263,South Carolina Avenue,0,0.69758,1.04637,14,13,NIGHT_DRIZZLE,Cross-shore,1
5842041f4e65fad6a7708a0d,2025_05_22,39.413485,-74.35476,14th Street North,2,0.72,1.03,14,13,NIGHT_DRIZZLE,Cross-shore,1
5842041f4e65fad6a7708a0e,2025_05_22,39.531319,-74.26325,The Wooden Jetty,1,1.24136,1.46695,14,13,NIGHT_RAIN,Onshore,1
5842041f4e65fad6a7708a0f,2025_05_22,39.552472,-74.24344,Holyoke,1,0.8906,1.28937,14,13,NIGHT_RAIN,Onshore,1
5842041f4e65fad6a7708a10,2025_05_22,39.692364,-74.14068,Hudson Ave.,1,1.21338,1.52186,14,13,NIGHT_OVERCAST,Onshore,1
5842041f4e65fad6a7708a11,2025_05_22,39.79614,-74.09248,Island Beach State Park,0,1.21,1.51,17,17,NIGHT_OVERCAST,Onshore,1
5842041f4e65fad6a7708a12,2025_05_22,39.91813588078152,-74.07527,Seaside Park,1,1.56142,1.80796,15,15,NIGHT_OVERCAST,Onshore,1
5842041f4e65fad6a7708a15,2025_05_22,39.95745637606704,-74.06736,Ortley Beach,0,1.56142,1.74926,14,14,NIGHT_OVERCAST,Onshore,1
5842041f4e65fad6a7708a16,2025_05_22,39.98313468342945,-74.06265685577506,Lavallette,0,1.32,1.53,14,14,NIGHT_OVERCAST,Onshore,1
5842041f4e65fad6a7708a17,2025_05_22,40.0699319967757,-74.04145,Bay Head,0,1.31,1.53,14,14,NIGHT_DRIZZLE,Onshore,1
5842041f4e65fad6a7708a18,2025_05_22,40.094041,-74.034859,Jenkinson's,0,1.61117,1.93127,14,14,NIGHT_DRIZZLE,Onshore,1
5842041f4e65fad6a7708a1a,2025_05_22,38.148058,-75.17704,Assateague,1,1.03,1.34,16,15,NIGHT_DRIZZLE,Onshore,1
5842041f4e65fad6a7708a1b,2025_05_22,38.33889038664497,-75.08017670566352,North End to Ocean City Inlet,1,1.059,1.3767,16,15,NIGHT_LIGHT_RAIN,Onshore,1
5842041f4e65fad6a7708a1c,2025_05_22,38.603993,-75.06271,Indian River Inlet,1,0.92394,1.29114,17,17,NIGHT_LIGHT_RAIN,Onshore,1
5842041f4e65fad6a7708a1d,2025_05_22,38.460477,-75.05207,Fenwick Island,1,0.78,1.08,17,17,NIGHT_DRIZZLE,Onshore,1
5842041f4e65fad6a7708a1e,2025_05_22,38.538767,-75.05619,Bethany Beach,1,0.9173,1.28186,17,17,NIGHT_LIGHT_RAIN,Onshore,1
5842041f4e65fad6a7708a1f,2025_05_22,38.697657,-75.07595,Dewey Beach,1,0.7,1.01,17,17,NIGHT_DRIZZLE,Onshore,1
5842041f4e65fad6a7708a20,2025_05_22,38.75034741676525,-75.08194,Gordons Pond,1,0.62159,1.02304,17,17,NIGHT_LIGHT_RAIN,Onshore,1
5842041f4e65fad6a7708a21,2025_05_22,38.767837,-75.08284,Naval Jetties,1,0.69,0.99,17,17,NIGHT_LIGHT_RAIN,Onshore,1
5842041f4e65fad6a7708a22,2025_05_22,36.81735875786576,-75.96624,Camp Pendleton,3,0.71415,1.035,21,21,NIGHT_LIGHT_RAIN,Offshore,1
5842041f4e65fad6a7708a23,2025_05_22,36.9102212316428,-75.98732471466064,North End,2,0.59,0.89,21,19,NIGHT_LIGHT_RAIN,Offshore,1
5842041f4e65fad6a7708a24,2025_05_22,36.737117517621314,-75.93924,Sandbridge Beach,3,0.87801,1.23149,21,19,NIGHT_OVERCAST,Offshore,1
5842041f4e65fad6a7708a26,2025_05_22,36.818257440557794,-75.96666,Croatan to Pendleton,3,0.7941,1.11174,21,19,NIGHT_LIGHT_RAIN,Offshore,1
5842041f4e65fad6a7708a27,2025_05_22,36.84318777204769,-75.9719,South End,3,0.71373,1.03816,21,19,NIGHT_DRIZZLE,Offshore,1
5842041f4e65fad6a7708a28,2025_05_22,37.08612627584661,-75.976121638199,Fishermans Island,2,0.304,0.424,20,20,NIGHT_BRIEF_SHOWERS,Offshore,1
5842041f4e65fad6a7708a38,2025_05_22,35.254619418229026,-75.52074,Cape Hatteras Lighthouse,2,0.58796,0.94535,23,21,NIGHT_CLEAR,Offshore,1
5842041f4e65fad6a7708a3a,2025_05_22,35.54572934093336,-75.46477,Waves and Salvo,3,0.74772,1.09368,22,21,NIGHT_CLEAR,Offshore,1
5842041f4e65fad6a7708a3b,2025_05_22,35.22565892751075,-75.63606,Frisco,1,0.4941,0.7452,23,21,NIGHT_CLEAR,Offshore,1
5842041f4e65fad6a7708a3c,2025_05_22,35.13086,-75.90591,Ocracoke,2,0.42434,0.77795,23,23,NIGHT_CLEAR,Offshore,1
5842041f4e65fad6a7708a3d,2025_05_22,35.34721340158342,-75.50084,Avon Pier,2,0.5765,0.85102,23,21,NIGHT_CLEAR,Offshore,1
5842041f4e65fad6a7708a3f,2025_05_22,35.71680821253768,-75.49243,Pea Island,1,0.62,0.93,21,21,NIGHT_CLEAR,Offshore,1
5842041f4e65fad6a7708a40,2025_05_22,35.97427620657821,-75.62984,Nags Head Pier,2,0.9,1.21,21,20,NIGHT_MOSTLY_CLOUDY,Cross-shore,1
5842041f4e65fad6a7708a41,2025_05_22,36.0439998039079,-75.67288,Avalon Pier,3,0.78792,1.14072,21,20,NIGHT_OVERCAST,Offshore,1
5842041f4e65fad6a7708a42,2025_05_22,36.03043116489792,-75.66413,First Street,3,0.83579,1.18894,21,20,NIGHT_OVERCAST,Offshore,1
5842041f4e65fad6a7708a43,2025_05_22,36.06829910590498,-75.6899,Old Station/Laundromats,3,0.80104,1.15444,21,20,NIGHT_OVERCAST,Offshore,1
5842041f4e65fad6a7708a44,2025_05_22,36.10126676607491,-75.71107,Kitty Hawk Pier,3,0.83827,1.19247,21,20,NIGHT_OVERCAST,Offshore,1
5842041f4e65fad6a7708a45,2025_05_22,36.18220630068973,-75.75014,Duck Pier,2,0.48,0.79,21,21,NIGHT_CLOUDY,Offshore,1
5842041f4e65fad6a7708a46,2025_05_22,36.37660668125033,-75.8241,Corolla,2,0.66,0.96,21,21,NIGHT_CLOUDY,Offshore,1
5842041f4e65fad6a7708a47,2025_05_22,33.90373404124834,-78.08241431707907,Oak Island,2,0.31,0.61,24,24,NIGHT_CLEAR,Offshore,1
5842041f4e65fad6a7708a48,2025_05_22,33.91108837766468,-78.29653,South Brunswick Beaches,2,0.28148,0.66532,24,24,NIGHT_CLEAR,Offshore,1
5842041f4e65fad6a7708a49,2025_05_22,34.05683595651973,-77.88128,Carolina Beach Pier,1,0.1559,0.47809,21,21,NIGHT_CLEAR,Offshore,1
5842041f4e65fad6a7708a4a,2025_05_22,33.96841191816696,-77.9180242565498,Fort Fisher,2,0.3,0.6,21,21,NIGHT_CLEAR,Offshore,1
5842041f4e65fad6a7708a4b,2025_05_22,34.46776662988774,-77.47083,Topsail Beach,2,0.44,0.74,21,20,NIGHT_CLEAR,Offshore,1
5842041f4e65fad6a7708a4c,2025_05_22,34.69270354752445,-76.82854854446575,Iron Steamer,2,0.6,0.91,21,19,NIGHT_CLEAR,Offshore,1
5842041f4e65fad6a7708a4f,2025_05_22,30.85132684893727,-81.42283496231143,Cumberland Island,2,0.15,0.46,25,25,NIGHT_CLEAR,Offshore,1
5842041f4e65fad6a7708a50,2025_05_22,34.686741128540874,-76.47516712138378,Cape Lookout National Seashore,2,0.58,0.88,23,23,NIGHT_CLEAR,Offshore,1
5842041f4e65fad6a7708a51,2025_05_22,31.10585419260024,-81.40422767604812,Jekyll Island,1,0,0.23,25,25,NIGHT_CLEAR,Offshore,1
5842041f4e65fad6a7708a52,2025_05_22,31.16212806376699,-81.32512426500224,Harbor Marker Buoys,2,0.06,0.36,25,25,NIGHT_CLEAR,Offshore,1
5842041f4e65fad6a7708a53,2025_05_22,31.20076299997009,-81.32629,Sea Island,1,0.04,0.34,25,25,NIGHT_CLEAR,Offshore,1
5842041f4e65fad6a7708a54,2025_05_22,31.13553222995767,-81.38457634790909,St. Simons Island,1,0.09,0.4,25,25,NIGHT_CLEAR,Offshore,1
5842041f4e65fad6a7708a55,2025_05_22,31.33550077186516,-81.28383377408417,Wolf Island,1,0.05,0.35,26,26,NIGHT_CLEAR,Offshore,1
5842041f4e65fad6a7708a56,2025_05_22,31.2704493877174,-81.27324039152315,Little St. Simons Island,1,0.05,0.35,26,26,NIGHT_CLEAR,Offshore,1
5842041f4e65fad6a7708a57,2025_05_22,31.39261761368919,-81.26190520231917,Sapelo Island,1,0.04,0.34,26,26,NIGHT_CLEAR,Offshore,1
5842041f4e65fad6a7708a58,2025_05_22,34.42458783809001,-77.54492,Surf City Pier,2,0.43,0.73,21,21,NIGHT_CLEAR,Offshore,1
5842041f4e65fad6a7708a59,2025_05_22,31.4231993614213,-81.24725340591522,Cabretta Island,2,0.05,0.36,26,26,NIGHT_CLEAR,Offshore,1
5842041f4e65fad6a7708a5a,2025_05_22,31.46684389030369,-81.2100056410468,Blackbeard Island,1,0.04,0.34,26,26,NIGHT_CLEAR,Offshore,1
5842041f4e65fad6a7708a5b,2025_05_22,31.85953587631629,-80.99031310336719,Wassaw Island/South End,1,0,0.25,25,25,NIGHT_CLEAR,Offshore,1
5842041f4e65fad6a7708a5c,2025_05_22,31.62535662342983,-81.13328352167974,St. Catherines Island,2,0.1,0.41,26,26,NIGHT_CLEAR,Offshore,1
5842041f4e65fad6a7708a5d,2025_05_22,31.76502169596568,-81.07655443806622,Ossabaw Island,1,0.04,0.35,25,25,NIGHT_CLEAR,Offshore,1
5842041f4e65fad6a7708a5e,2025_05_22,31.90593619092352,-80.93589231700857,Wassaw Island/North End,1,0.12,0.42,25,25,NIGHT_CLEAR,Offshore,1
5842041f4e65fad6a7708a5f,2025_05_22,31.96738675414547,-80.86977980706155,Little Tybee Island,2,0.13,0.43,25,25,NIGHT_CLEAR,Offshore,1
5842041f4e65fad6a7708a60,2025_05_22,31.9812255780179,-80.84773973467009,South Tybee Sandbars,2,0.13,0.43,25,25,NIGHT_CLEAR,Offshore,1
5842041f4e65fad6a7708a61,2025_05_22,32.01226,-80.83983,Sugar Shack,1,0.11,0.42,25,25,NIGHT_CLEAR,Cross-shore,1
5842041f4e65fad6a7708a62,2025_05_22,31.98722842396969,-80.84773,18th St. Jetty,1,0,0.35071,25,25,NIGHT_CLEAR,Offshore,1
5842041f4e65fad6a7708a64,2025_05_22,34.013473721006676,-77.8991,"Alabama Ave., Kure Beach",2,0.15,0.45,23,23,NIGHT_CLEAR,Offshore,1
5842041f4e65fad6a7708a65,2025_05_22,34.20859853336924,-77.79293,"C Street, Wrightsville Beach",1,0.25,0.55,21,21,NIGHT_CLEAR,Offshore,1
5842041f4e65fad6a7708a66,2025_05_22,32.831,-79.71,Dewees Island,1,0.05,0.36,25,25,NIGHT_CLEAR,Offshore,1
5842041f4e65fad6a7708a67,2025_05_22,33.82924423172106,-78.62813,Cherry Grove Pier,1,0.15,0.45,24,24,NIGHT_CLEAR,Offshore,1
5842041f4e65fad6a7708a69,2025_05_22,34.27197439666496,-77.74050223196774,Figure Eight and Shell Islands,2,0.36,0.67,21,21,NIGHT_MOSTLY_CLEAR,Offshore,1
5842041f4e65fad6a7708a6b,2025_05_22,33.49041958261793,-79.07666070599386,North End,2,0.16,0.47,24,24,NIGHT_CLEAR,Offshore,1
5842041f4e65fad6a7708a6c,2025_05_22,33.39537062495087,-79.13835037835189,The South End,1,0.08,0.39,24,24,NIGHT_CLEAR,Offshore,1
5842041f4e65fad6a7708a6d,2025_05_22,33.29001727666697,-79.17190003352977,North Island,1,0.1,0.4,24,24,NIGHT_CLEAR,Offshore,1
5842041f4e65fad6a7708a6e,2025_05_22,32.90929771158952,-79.57810400297359,Bull Island,1,0.12,0.42,25,25,NIGHT_CLEAR,Offshore,1
5842041f4e65fad6a7708a6f,2025_05_22,31.99153112815895,-80.84543050470074,Tybee Island Pier,1,0,0.24,25,25,NIGHT_CLEAR,Offshore,1
5842041f4e65fad6a7708a70,2025_05_22,33.03478144356316,-79.35021028265125,Cape Romain,2,0.26,0.56,24,24,NIGHT_CLEAR,Offshore,1
5842041f4e65fad6a7708a71,2025_05_22,33.43231073271028,-79.11789,The Pier,1,0,0.34738,24,24,NIGHT_CLEAR,Offshore,1
5842041f4e65fad6a7708a72,2025_05_22,33.45423621397969,-79.10497798178424,South Litchfield,1,0.07,0.37,24,24,NIGHT_CLEAR,Offshore,1
5842041f4e65fad6a7708a73,2025_05_22,34.19316590251396,-77.8045,Crystal Pier,1,0.1605,0.4815,21,21,NIGHT_CLEAR,Offshore,1
5842041f4e65fad6a7708a74,2025_05_22,33.68628680045124,-78.88346,Myrtle Beach,2,0.16,0.46,23,23,NIGHT_CLEAR,Offshore,1
5842041f4e65fad6a7708a75,2025_05_22,32.66166297145973,-79.91951806398808,10th Street,2,0.18594,0.50617,25,25,NIGHT_CLEAR,Offshore,1
5842041f4e65fad6a7708a76,2025_05_22,33.16729555197199,-79.19829236867845,South Island,2,0.29,0.6,24,24,NIGHT_CLEAR,Offshore,1
5842041f4e65fad6a7708a77,2025_05_22,32.595,-80.088,Kiawah Island/Seabrook Island,1,0.13,0.44,25,25,NIGHT_CLEAR,Offshore,1
5842041f4e65fad6a7708a78,2025_05_22,32.51356930575787,-80.28223,Edisto Beach,1,0,0.398,25,25,NIGHT_CLEAR,Offshore,1
5842041f4e65fad6a7708a79,2025_05_22,32.366270751262,-80.43911,Hunting Island,1,0,0.34672,25,25,NIGHT_CLEAR,Offshore,1
5842041f4e65fad6a7708a7a,2025_05_22,32.65337734408365,-79.93983,Folly Beach Pier,1,0.09297,0.4132,25,25,NIGHT_CLEAR,Offshore,1
5842041f4e65fad6a7708a7b,2025_05_22,33.41209545530049,-79.13026341393126,South Jetty,2,0.08,0.39,24,24,NIGHT_CLEAR,Offshore,1
5842041f4e65fad6a7708a7c,2025_05_22,32.31115640606869,-80.48564,Fripp Island,1,0.039,0.44205,25,25,NIGHT_CLEAR,Offshore,1
5842041f4e65fad6a7708a7d,2025_05_22,32.14365226036034,-80.74402,Hilton Head Island,1,0,0.16,25,25,NIGHT_CLEAR,Offshore,1
5842041f4e65fad6a7708a7e,2025_05_22,29.70405364733744,-81.22426,Matanzas Inlet,1,0.01147,0.367,23,23,NIGHT_MOSTLY_CLOUDY,Offshore,1
5842041f4e65fad6a7708a81,2025_05_22,29.76878537149042,-81.25109,Crescent Beach,1,0.02,0.32,25,25,NIGHT_MOSTLY_CLOUDY,Offshore,1
5842041f4e65fad6a7708a82,2025_05_22,32.80251718689188,-79.73221919500764,Wild Dunes,1,0.19,0.49,25,25,NIGHT_CLEAR,Offshore,1
5842041f4e65fad6a7708a84,2025_05_22,32.75733539419244,-79.83258856064796,Bert's Bar,1,0,0.29,25,25,NIGHT_CLEAR,Offshore,1
5842041f4e65fad6a7708a85,2025_05_22,32.66829212943039,-79.90735,Washout,2,0.11365,0.43394,23,22,NIGHT_CLEAR,Offshore,1
5842041f4e65fad6a7708a86,2025_05_22,32.78452968219067,-79.7854,The Pier/Windjammer,2,0.18,0.48,25,25,NIGHT_CLEAR,Offshore,1
5842041f4e65fad6a7708a87,2025_05_22,29.86618162637438,-81.2662150259608,Anastasia Park (The Entrance),1,0.02,0.33,25,25,NIGHT_MOSTLY_CLOUDY,Offshore,1
5842041f4e65fad6a7708a89,2025_05_22,29.89149785916623,-81.2723223244215,Blowholes,1,0.03,0.33,26,25,NIGHT_CLEAR,Offshore,1
5842041f4e65fad6a7708a8a,2025_05_22,30.16227112983666,-81.35502907491218,Crossroads,1,0.12,0.43,26,25,NIGHT_CLEAR,Offshore,1
5842041f4e65fad6a7708a8b,2025_05_22,30.19308537587637,-81.36314247820911,Sawgrass,1,0.14,0.45,26,25,NIGHT_CLEAR,Offshore,1
5842041f4e65fad6a7708a8c,2025_05_22,30.34696027700899,-81.39451,18th Street,1,0,0.39142,25,25,NIGHT_CLEAR,Offshore,1
5842041f4e65fad6a7708a8d,2025_05_22,30.381793,-81.39686,Mayport Poles,2,0.15,0.46,25,25,NIGHT_CLEAR,Offshore,1
5842041f4e65fad6a7708a8e,2025_05_22,30.390516,-81.395591,Blue Roofs,2,0.14,0.45,25,25,NIGHT_CLEAR,Offshore,1
5842041f4e65fad6a7708a8f,2025_05_22,30.40517712722211,-81.40074116169004,Huguenot Park (North Jetty),1,0.04,0.35,25,25,NIGHT_CLEAR,Offshore,1
5842041f4e65fad6a7708a90,2025_05_22,30.47788918872762,-81.41056,Talbot Island,2,0.46595,0.63069,23,23,NIGHT_CLEAR,Offshore,1
5842041f4e65fad6a7708a91,2025_05_22,30.66753984549761,-81.42983,Main Beach,1,0.07,0.38,25,25,NIGHT_CLEAR,Offshore,1
5842041f4e65fad6a7708a92,2025_05_22,30.69983581209126,-81.42483,Ft. Clinch State Park,1,0.13,0.43,25,25,NIGHT_CLEAR,Offshore,1
5842041f4e65fad6a7708a93,2025_05_22,30.62059700777582,-81.43725,Amelia Pier,1,0.14,0.44,25,25,NIGHT_CLEAR,Offshore,1
5842041f4e65fad6a7708a95,2025_05_22,28.95125170929067,-80.83837,Bethune Beach,1,0.12,0.42,25,25,NIGHT_CLEAR,Offshore,1
5842041f4e65fad6a7708a96,2025_05_22,29.03874288905362,-80.8933424949646,Flagler Ave.,1,0,0.33379,26,24,NIGHT_CLEAR,Offshore,1
5842041f4e65fad6a7708a98,2025_05_22,30.332297686992757,-81.39319,Atlantic Beach,1,0,0.42165,25,25,NIGHT_CLEAR,Offshore,1
5842041f4e65fad6a7708a99,2025_05_22,29.87530059952514,-81.26757958498874,Middles,1,0.03,0.34,26,25,NIGHT_CLEAR,Offshore,1
5842041f4e65fad6a7708a9a,2025_05_22,29.146475528378218,-80.96347,Sunglow Pier,1,0.09,0.4,25,25,NIGHT_CLEAR,Offshore,1
5842041f4e65fad6a7708a9b,2025_05_22,30.02251238001095,-81.32183077344881,Gate Station,1,0.04,0.34,26,25,NIGHT_CLEAR,Offshore,1
5842041f4e65fad6a7708a9c,2025_05_22,29.33976495417899,-81.0606,Bicentennial Park,1,0.01,0.31,25,25,NIGHT_MOSTLY_CLOUDY,Offshore,1
5842041f4e65fad6a7708a9d,2025_05_22,29.08257353385602,-80.92137,Ponce Inlet,2,0.10696,0.43855,23,22,NIGHT_CLEAR,Offshore,1
5842041f4e65fad6a7708a9f,2025_05_22,27.862962005874696,-80.44668,Sebastian Inlet,2,0.3936,0.57175,26,24,NIGHT_CLEAR,Offshore,1
5842041f4e65fad6a7708aa0,2025_05_22,30.292626880836885,-81.38579,Jacksonville Beach Pier,1,0.13,0.44,23,23,NIGHT_CLEAR,Offshore,1
5842041f4e65fad6a7708aa2,2025_05_22,29.21860397328164,-81.0019,Daytona Beach,1,0.02,0.33,25,25,NIGHT_CLEAR,Offshore,1
5842041f4e65fad6a7708aa3,2025_05_22,27.47531255634912,-80.28914,Ft. Pierce Inlet,1,0,0.20641,26,24,NIGHT_CLEAR,Offshore,1
5842041f4e65fad6a7708aa4,2025_05_22,29.29239875585548,-81.0386,Ormond Beach,1,0.05,0.35,25,25,NIGHT_CLEAR,Offshore,1
5842041f4e65fad6a7708aa5,2025_05_22,29.91629441498523,-81.28801,Vilano,1,0.02,0.32,25,25,NIGHT_CLEAR,Offshore,1
5842041f4e65fad6a7708aa6,2025_05_22,27.876230736320828,-80.4551,Spanish House,2,0.02208,0.36432,25,24,NIGHT_CLEAR,Offshore,1
5842041f4e65fad6a7708aa7,2025_05_22,28.64397251741012,-80.62329,Playalinda,2,0.16,0.47,25,25,NIGHT_CLEAR,Offshore,1
5842041f4e65fad6a7708aa8,2025_05_22,28.406142,-80.58886,Jetty Park,1,0.1057,0.4228,25,25,NIGHT_CLEAR,Offshore,1
5842041f4e65fad6a7708aa9,2025_05_22,28.49083243010974,-80.58001715986319,Kennedy Space Center,1,0.05,0.35,25,25,NIGHT_CLEAR,Offshore,1
5842041f4e65fad6a7708aab,2025_05_22,28.336757013024314,-80.60568,Lori Wilson Park,2,0.06115,0.37706,24,23,NIGHT_CLEAR,Offshore,1
5842041f4e65fad6a7708aad,2025_05_22,27.76388821683801,-80.3962958234027,Wabasso,1,0,0.29,26,26,NIGHT_CLEAR,Offshore,1
5842041f4e65fad6a7708aae,2025_05_22,27.521583322459,-80.30987620353699,P.V. Martin's,1,0,0.21,26,24,NIGHT_CLEAR,Offshore,1
5842041f4e65fad6a7708aaf,2025_05_22,27.644996047720046,-80.35242676734924,Riomar,0,0,0.24,26,24,NIGHT_CLEAR,Offshore,1
5842041f4e65fad6a7708ab1,2025_05_22,27.670121806659253,-80.36026954650879,Vero Pier,1,0,0.28,26,24,NIGHT_CLEAR,Offshore,1
5842041f4e65fad6a7708ab2,2025_05_22,28.047705032021486,-80.54680109024048,Spessard Holland,2,0.18935,0.47108,25,24,NIGHT_CLEAR,Offshore,1
5842041f4e65fad6a7708ab7,2025_05_22,28.135426226217064,-80.57895541191101,The Radisson,2,0.0763,0.4142,26,26,NIGHT_CLEAR,Offshore,1
5842041f4e65fad6a7708ab8,2025_05_22,28.26664623907351,-80.60448,Picnic Tables,2,0.13,0.43,25,25,NIGHT_CLEAR,Offshore,1
5842041f4e65fad6a7708ab9,2025_05_22,28.200840983180232,-80.59493,Perkins,2,0.11825,0.44075,25,25,NIGHT_CLEAR,Offshore,1
5842041f4e65fad6a7708aba,2025_05_22,28.185652556759443,-80.59154,RC's,2,0.0645,0.39775,25,25,NIGHT_CLEAR,Offshore,1
5842041f4e65fad6a7708abc,2025_05_22,28.252541991968208,-80.60269,2nd Light,2,0.11,0.41,25,25,NIGHT_CLEAR,Offshore,1
5842041f4e65fad6a7708abd,2025_05_22,27.901611308716447,-80.4697,Bonsteel Park,2,0.0552,0.39744,25,24,NIGHT_CLEAR,Offshore,1
5842041f4e65fad6a7708abe,2025_05_22,28.2423394657007,-80.60104,Hangar's Beach,2,0.06,0.36,25,25,NIGHT_CLEAR,Offshore,1
5842041f4e65fad6a7708abf,2025_05_22,27.34018197146798,-80.23278,Walton Rocks,1,0,0.21,24,23,NIGHT_CLEAR,Offshore,1
5842041f4e65fad6a7708ac0,2025_05_22,25.80407401902198,-80.1222227290161,30th Street,0,0,0.13836,28,28,NIGHT_CLEAR,Offshore,1
5842041f4e65fad6a7708ac1,2025_05_22,25.76570280215999,-80.12983,South Beach,0,0,0.09224,27,27,NIGHT_CLEAR,Offshore,1
5842041f4e65fad6a7708ac2,2025_05_22,26.058022412197,-80.10873562327671,Dania Pier,0,0,0.15,28,28,NIGHT_CLEAR,Offshore,1
5842041f4e65fad6a7708ac3,2025_05_22,26.04825428257198,-80.11153150137932,Franklin Street,1,0,0.2,28,28,NIGHT_CLEAR,Offshore,1
5842041f4e65fad6a7708ac4,2025_05_22,26.09086461141498,-80.10728410144065,John Lloyd State Park,1,0,0.2,28,28,NIGHT_CLEAR,Offshore,1
5842041f4e65fad6a7708ac5,2025_05_22,26.0971397396683,-80.10298876028907,Spoils,0,0,0.16,28,28,NIGHT_CLEAR,Offshore,1
5842041f4e65fad6a7708ac6,2025_05_22,26.18920557475824,-80.09224,Commercial Pier,1,0,0.2,28,28,NIGHT_CLEAR,Offshore,1
5842041f4e65fad6a7708ac7,2025_05_22,28.289851576629342,-80.6063,16th St. South,2,0.04076,0.35665,24,23,NIGHT_CLEAR,Offshore,1
5842041f4e65fad6a7708ac8,2025_05_22,26.23467460139735,-80.0874,Pompano Pier,1,0,0.16,28,28,NIGHT_CLEAR,Offshore,1
5842041f4e65fad6a7708acb,2025_05_22,26.44179551370651,-80.05928855229453,Atlantic Dunes Park,1,0.0997,0.25896,27,27,NIGHT_CLEAR,Offshore,1
5842041f4e65fad6a7708acd,2025_05_22,26.62215707439298,-80.03599398392342,Hilton Hotel Backyard,1,0.02222,0.35552,27,27,NIGHT_CLEAR,Offshore,1
5842041f4e65fad6a7708ace,2025_05_22,26.96418190555367,-80.07769168113562,Coral Cove Park,1,0,0.2,26,26,NIGHT_CLEAR,Offshore,1
5842041f4e65fad6a7708acf,2025_05_22,26.7029496416037,-80.03184,Palm Beach,1,0.02,0.32,27,27,NIGHT_CLEAR,Offshore,1
5842041f4e65fad6a7708ad0,2025_05_22,26.97679878167375,-80.08141631388132,Blowing Rocks,1,0,0.29,26,26,NIGHT_CLEAR,Offshore,1
5842041f4e65fad6a7708ad2,2025_05_22,26.45661880078336,-80.057,Delray Beach,1,0,0.20373,27,27,NIGHT_CLEAR,Offshore,1
5842041f4e65fad6a7708ad3,2025_05_22,27.205685534312778,-80.16826629638672,Fletcher's,1,0,0.24,26,26,NIGHT_CLEAR,Offshore,1
5842041f4e65fad6a7708ad5,2025_05_22,26.5848450388814,-80.03649735753257,Lantana Public Beach,1,0.03333,0.36663,27,27,NIGHT_CLEAR,Offshore,1
5842041f4e65fad6a7708ad6,2025_05_22,25.77468432731322,-80.12884045797499,5th Street,0,0,0.14989,28,28,NIGHT_CLEAR,Offshore,1
5842041f4e65fad6a7708ad7,2025_05_22,25.795157990715975,-80.12527585029602,21st Street,0,0,0.12683,28,28,NIGHT_CLEAR,Offshore,1
5842041f4e65fad6a7708ad8,2025_05_22,25.897806453088073,-80.1211827993393,Haulover Inlet (South Jetty),0,0,0.12,28,28,NIGHT_CLEAR,Offshore,1
5842041f4e65fad6a7708ad9,2025_05_22,25.90147392328634,-80.12110769748688,Haulover Inlet (North Jetty),1,0,0.18,28,28,NIGHT_CLEAR,Offshore,1
5842041f4e65fad6a7708ada,2025_05_22,25.87049374242476,-80.11828560342356,85th Street,0,0,0.09,28,28,NIGHT_CLEAR,Offshore,1
5842041f4e65fad6a7708adb,2025_05_22,26.25486382031396,-80.0805,Hillsboro Inlet,2,0,0.31387,28,28,NIGHT_CLEAR,Offshore,1
5842041f4e65fad6a7708add,2025_05_22,26.29705672965111,-80.07612,Hillsboro Beach,1,0.1054,0.21855,28,28,NIGHT_CLEAR,Offshore,1
5842041f4e65fad6a7708ade,2025_05_22,26.36569956413266,-80.06717936869391,Red Reef Park,1,0,0.21,27,27,NIGHT_CLEAR,Offshore,1
5842041f4e65fad6a7708adf,2025_05_22,26.54593873498907,-80.04104359585143,Boynton Beach Inlet (Northside),1,0,0.25,27,27,NIGHT_CLEAR,Offshore,1
5842041f4e65fad6a7708ae0,2025_05_22,26.92746505629809,-80.06721138954163,Corners,1,0.3691,0.58953,27,27,NIGHT_CLEAR,Offshore,1
5842041f4e65fad6a7708ae1,2025_05_22,26.76983179886943,-80.03413481937037,The Cove,1,0.02,0.32,27,27,NIGHT_CLEAR,Offshore,1
5842041f4e65fad6a7708ae3,2025_05_22,26.39224485175123,-80.0650461233983,Japanese Rock,1,0,0.24,27,27,NIGHT_CLEAR,Offshore,1
5842041f4e65fad6a7708ae4,2025_05_22,29.94810928551321,-85.42545434612366,Mexico Beach,2,0.12,0.42,27,27,NIGHT_CLEAR,Offshore,1
5842041f4e65fad6a7708ae5,2025_05_22,30.11752500931267,-85.7306,Shell Island,2,0.16,0.46,26,26,NIGHT_CLEAR,Offshore,1
5842041f4e65fad6a7708ae7,2025_05_22,29.94901514702268,-85.43042978529013,D.J.'s,2,0.12,0.42,27,27,NIGHT_CLEAR,Offshore,1
5842041f4e65fad6a7708ae8,2025_05_22,30.12396111446713,-85.73637,St. Andrew's Park,2,0.15,0.46,24,24,NIGHT_CLEAR,Offshore,1
5842041f4e65fad6a7708ae9,2025_05_22,30.16781531760227,-85.79604918824084,Spinnaker,2,0.14,0.44,24,24,NIGHT_CLEAR,Offshore,1
5842041f4e65fad6a7708aea,2025_05_22,30.18877050526983,-85.83243530466363,Wood Pier,2,0.15,0.45,24,24,NIGHT_CLEAR,Offshore,1
5842041f4e65fad6a7708aeb,2025_05_22,30.2676205895555,-85.9938578144113,Inlet Beach Pier,2,0.17,0.47,24,24,NIGHT_CLEAR,Offshore,1
5842041f4e65fad6a7708aec,2025_05_22,30.31815542759119,-86.1383771867044,Bud and Alley's,2,0.16,0.47,24,24,NIGHT_CLEAR,Offshore,1
5842041f4e65fad6a7708aed,2025_05_22,30.32686082481946,-86.16650590275447,Grayton Beach,2,0.15,0.46,24,24,NIGHT_CLEAR,Offshore,1
5842041f4e65fad6a7708aee,2025_05_22,30.33661488976303,-86.20094,Blue Mountain Beach,2,0.16,0.46,24,24,NIGHT_CLEAR,Offshore,1
5842041f4e65fad6a7708aef,2025_05_22,30.37677202831587,-86.38513,Pompano Joe's,2,0.15,0.45,24,24,NIGHT_CLEAR,Offshore,1
5842041f4e65fad6a7708af0,2025_05_22,30.37429731725911,-86.36687,Seascape,2,0.15,0.46,24,24,NIGHT_CLEAR,Offshore,1
5842041f4e65fad6a7708af1,2025_05_22,30.382815988547186,-86.45839,The Back Porch,2,0.15,0.46,24,24,NIGHT_CLEAR,Offshore,1
5842041f4e65fad6a7708af2,2025_05_22,30.21207176798612,-85.87989730830542,Panama City Pier,2,0.15,0.46,24,24,NIGHT_CLEAR,Offshore,1
5842041f4e65fad6a7708af3,2025_05_22,30.37521499110326,-86.3717,Whale's Tail,2,0.15,0.46,24,24,NIGHT_CLEAR,Offshore,1
5842041f4e65fad6a7708af4,2025_05_22,30.38120596658251,-86.43046,Old Crystal Pier,2,0.15,0.45,24,24,NIGHT_CLEAR,Offshore,1
5842041f4e65fad6a7708af5,2025_05_22,30.38090573159031,-86.50655,Jetty East,2,0.16,0.46,24,24,NIGHT_CLEAR,Offshore,1
5842041f4e65fad6a7708af6,2025_05_22,30.37584509640838,-86.50563,HMO's,1,0.16,0.46,24,24,NIGHT_CLEAR,Offshore,1
5842041f4e65fad6a7708af7,2025_05_22,30.38124006131522,-86.50052,Two By Fours,1,0.16,0.47,24,24,NIGHT_CLEAR,Offshore,1
5842041f4e65fad6a7708af8,2025_05_22,30.38250751017554,-86.45776,The Pumphouse,2,0.18,0.48,24,24,NIGHT_CLEAR,Offshore,1
5842041f4e65fad6a7708af9,2025_05_22,30.38655981578935,-86.52475,NCO Club,2,0.16,0.47,24,24,NIGHT_CLEAR,Offshore,1
5842041f4e65fad6a7708afa,2025_05_22,30.39024516541047,-86.59341,Okaloosa Pier,2,0.15,0.46,24,24,NIGHT_CLEAR,Offshore,1
5842041f4e65fad6a7708afb,2025_05_22,30.39281125722673,-86.59766,Dead Man's,2,0.15,0.46,24,24,NIGHT_CLEAR,Offshore,1
5842041f4e65fad6a7708afc,2025_05_22,30.32703176167034,-87.14196,Pensacola Pier,2,0.17,0.47,27,27,NIGHT_CLOUDY,Offshore,1
5842041f4e65fad6a7708afd,2025_05_22,30.37920054094992,-86.85583,Navarre Beach,1,0.056,0.304,24,24,NIGHT_CLEAR,Offshore,1
5842041f4e65fad6a7708afe,2025_05_22,30.39491626029151,-86.61248,Blue Horizon Motel,2,0.14,0.45,24,24,NIGHT_CLEAR,Offshore,1
5842041f4e65fad6a7708aff,2025_05_22,30.29345899260828,-87.43547,First Parking Lot,1,0.14,0.44,27,27,NIGHT_CLEAR,Offshore,1
5842041f4e65fad6a7708b00,2025_05_22,30.29767401311303,-87.41362,Johnsons Beach,2,0.14,0.45,27,27,NIGHT_CLEAR,Offshore,1
5842041f4e65fad6a7708b01,2025_05_22,30.29513397370759,-87.42642,Sandy Key,2,0.14,0.44,27,27,NIGHT_CLEAR,Offshore,1
5842041f4e65fad6a7708b03,2025_05_22,30.377504907388026,-86.86444,Navarre Pier,2,0.05699,0.41033,24,24,NIGHT_CLEAR,Offshore,1
5842041f4e65fad6a7708b04,2025_05_22,30.31482647791307,-87.26164,Pickens Point Dunes,2,0.18,0.49,27,27,NIGHT_OVERCAST,Offshore,1
5842041f4e65fad6a7708b05,2025_05_22,30.32632110836516,-87.16019503253068,Slabs,2,0.19,0.49,27,27,NIGHT_CLOUDY,Offshore,1
5842041f4e65fad6a7708b06,2025_05_22,30.32739721382043,-87.30406515493348,Pickens Point,2,0.16,0.46,27,27,NIGHT_CLEAR,Offshore,1
5842041f4e65fad6a7708b07,2025_05_22,30.27406893266753,-87.54367,Bungalows,2,0.15,0.46,27,27,NIGHT_CLEAR,Offshore,1
5842041f4e65fad6a7708b08,2025_05_22,27.99627311846992,-82.82942,880,0,0,0.23127,29,29,NIGHT_OVERCAST,Onshore,1
5842041f4e65fad6a7708b09,2025_05_22,27.97779860371595,-82.83246509090527,Pier 60,0,0,0.28,29,29,NIGHT_OVERCAST,Onshore,1
5842041f4e65fad6a7708b0a,2025_05_22,27.96296387618043,-82.8332635965418,Sand Key,0,0,0.28,29,29,NIGHT_OVERCAST,Onshore,1
5842041f4e65fad6a7708b0b,2025_05_22,27.92492619212885,-82.8449122845279,Belleair,0,0,0.28,29,29,NIGHT_OVERCAST,Onshore,1
5842041f4e65fad6a7708b0c,2025_05_22,27.882,-82.854,Indian Rocks Beach,0,0,0.29,29,29,NIGHT_OVERCAST,Onshore,1
5842041f4e65fad6a7708b0d,2025_05_22,27.83106104966094,-82.83550218771384,Redington Breakwater,1,0,0.24,29,29,NIGHT_FOG,Onshore,1
5842041f4e65fad6a7708b0e,2025_05_22,27.74369029906206,-82.76053473435867,Middle Jetty,0,0,0.24,29,29,NIGHT_OVERCAST,Onshore,1
5842041f4e65fad6a7708b0f,2025_05_22,27.82174178852146,-82.83148664631841,Redington Pier,0,0,0.24,29,29,NIGHT_FOG,Onshore,1
5842041f4e65fad6a7708b10,2025_05_22,27.31496308261514,-82.5830466912004,Lido Beach,0,0,0.17,29,29,NIGHT_CLOUDY,Onshore,1
5842041f4e65fad6a7708b11,2025_05_22,27.31122010159892,-82.57833234007632,Coolidge,0,0,0.17,29,29,NIGHT_CLOUDY,Onshore,1
5842041f4e65fad6a7708b12,2025_05_22,27.26471672017615,-82.55465,Siesta Key,0,0,0.12972,29,29,NIGHT_CLEAR,Onshore,1
5842041f4e65fad6a7708b13,2025_05_22,27.24638693488133,-82.53809115716797,Stickney Point,0,0,0.14,29,29,NIGHT_CLOUDY,Onshore,1
5842041f4e65fad6a7708b14,2025_05_22,27.21907878229092,-82.51813937562073,Turtles,0,0,0.14,29,29,NIGHT_CLOUDY,Onshore,1
5842041f4e65fad6a7708b15,2025_05_22,27.11375765852028,-82.47039,Venice Jetties North,0,0,0.11,27,27,NIGHT_MIST,Onshore,1
5842041f4e65fad6a7708b16,2025_05_22,27.111485758834025,-82.46757,Venice Jetties South,0,0,0.13013,27,27,NIGHT_CLOUDY,Onshore,1
5842041f4e65fad6a7708b17,2025_05_22,27.07249378831575,-82.4530285256104,Venice Pier,0,0,0.15,27,27,NIGHT_CLOUDY,Onshore,1
5842041f4e65fad6a7708b19,2025_05_22,27.49680446426314,-82.7140145455959,Holmes Beach Pier,0,0,0.2,28,28,NIGHT_CLOUDY,Onshore,1
5842041f4e65fad6a7708b1a,2025_05_22,27.7390348493064,-82.75763,Sunset Beach,0,0,0.24,29,29,NIGHT_OVERCAST,Onshore,1
5842041f4e65fad6a7708b1b,2025_05_22,26.80347307599041,-82.28564775623539,Gasparilla Point,0,0,0.14,28,28,NIGHT_CLOUDY,Onshore,1
5842041f4e65fad6a7708b1c,2025_05_22,27.45365831548911,-82.69609,Coquina Jetties,0,0,0.2,29,29,NIGHT_DRIZZLE,Onshore,1
5842041f4e65fad6a7708b1d,2025_05_22,27.46077315206043,-82.69924,Twin Piers,0,0,0.15,27,27,NIGHT_DRIZZLE,Onshore,1
5842041f4e65fad6a7708b1e,2025_05_22,26.91007316019612,-82.35352,Englewood,0,0,0.08,28,28,NIGHT_MIST,Onshore,1
5842041f4e65fad6a7708b1f,2025_05_22,26.88221101560038,-82.3359828282636,Knight's Point,0,0,0.13,28,28,NIGHT_CLOUDY,Onshore,1
5842041f4e65fad6a7708b20,2025_05_22,26.51219285784982,-82.1928203289264,Tween Waters,0,0,0.12,29,29,NIGHT_CLOUDY,Onshore,1
5842041f4e65fad6a7708b21,2025_05_22,26.55130241615096,-82.20222762415648,Redfish Pass,0,0,0.12,29,29,NIGHT_CLOUDY,Onshore,1
5842041f4e65fad6a7708b22,2025_05_22,26.71713432926596,-82.26287777058234,Boca Grande,0,0,0.14,28,28,NIGHT_CLOUDY,Onshore,1
5842041f4e65fad6a7708b23,2025_05_22,26.47856785808584,-82.181288592828,Blind Pass,0,0,0.12,29,29,NIGHT_CLEAR,Onshore,1
5842041f4e65fad6a7708b24,2025_05_22,26.25358330618783,-81.82429246081317,The Wall,0,0,0.08,29,29,NIGHT_CLEAR,Onshore,1
5842041f4e65fad6a7708b25,2025_05_22,26.17456407516186,-81.81588575623482,Doctor's Pass,0,0,0.08,29,29,NIGHT_CLEAR,Onshore,1
5842041f4e65fad6a7708b26,2025_05_22,27.427134501874612,-82.68110766159296,Whitney Beach,0,0,0.18,29,29,NIGHT_OVERCAST,Onshore,1
5842041f4e65fad6a7708b27,2025_05_22,26.17300183052463,-81.81515842430267,Doctor's Pass (South Jetty),0,0,0.08,29,29,NIGHT_CLEAR,Onshore,1
5842041f4e65fad6a7708b28,2025_05_22,27.73496421495629,-82.75268962468695,Upham Beach Park,1,0,0.24,29,29,NIGHT_OVERCAST,Onshore,1
5842041f4e65fad6a7708b29,2025_05_22,26.13144856766723,-81.8090395116521,Naples Pier,0,0,0.08,29,29,NIGHT_CLEAR,Onshore,1
5842041f4e65fad6a7708b2a,2025_05_22,20.63474,-156.45211,Little Beach,2,0.18,0.48,25,25,NIGHT_CLEAR,Cross-shore,1
5842041f4e65fad6a7708b2b,2025_05_22,20.613,-156.438,Dumps,2,0.19,0.5,25,25,NIGHT_CLEAR,Cross-shore,1
5842041f4e65fad6a7708b2c,2025_05_22,22.216,-159.502,Hanalei Bay,2,0.63,0.93,25,25,NIGHT_BRIEF_SHOWERS,Offshore,1
5842041f4e65fad6a7708b2d,2025_05_22,22.225,-159.567,Ha'Ena Bay (Cannons/Tunnels),1,0.67,0.97,25,25,NIGHT_MOSTLY_CLOUDY,Cross-shore,1
5842041f4e65fad6a7708b2f,2025_05_22,22.148,-159.301,Anahola Bay,2,0.81,1.12,25,25,NIGHT_CLOUDY,Onshore,1
5842041f4e65fad6a7708b30,2025_05_22,21.872,-159.462,Poipu Outer Reef,2,0.73,1.04,25,25,NIGHT_MOSTLY_CLOUDY,Offshore,1
5842041f4e65fad6a7708b31,2025_05_22,21.936,-159.652,Pakala,2,0.22,0.52,25,25,NIGHT_CLEAR,Offshore,1
5842041f4e65fad6a7708b32,2025_05_22,21.272,-157.832,Populars,2,0.34518,0.65898,26,25,NIGHT_MOSTLY_CLOUDY,Offshore,1
5842041f4e65fad6a7708b33,2025_05_22,21.26841992117695,-157.82329,Publics,2,0.50112,0.82476,26,25,NIGHT_MOSTLY_CLOUDY,Offshore,1
5842041f4e65fad6a7708b34,2025_05_22,21.25460513357954,-157.79432,Black Point,1,0.71216,1.03729,25,25,NIGHT_MOSTLY_CLOUDY,Offshore,1
5842041f4e65fad6a7708b35,2025_05_22,21.27394674233747,-157.82777,Canoes,2,0.53295,0.8569,26,25,NIGHT_MOSTLY_CLOUDY,Offshore,1
5842041f4e65fad6a7708b36,2025_05_22,21.273658410008455,-157.8263,Queen's,2,0.40716,0.72036,26,25,NIGHT_MOSTLY_CLOUDY,Offshore,1
5842041f4e65fad6a7708b37,2025_05_22,20.869,-156.679,Lahaina Harbor - Breakwall,3,0.35,0.66,25,25,NIGHT_CLEAR,Cross-shore,1
5842041f4e65fad6a7708b38,2025_05_22,21.277,-157.841,Kaiser's,2,0.56211,0.96361,26,25,NIGHT_MOSTLY_CLOUDY,Offshore,1
5842041f4e65fad6a7708b39,2025_05_22,21.280537020769913,-157.84107,Rockpiles,2,0.3255,0.651,26,25,NIGHT_MOSTLY_CLOUDY,Offshore,1
5842041f4e65fad6a7708b3a,2025_05_22,21.2745,-157.8395,Four's,2,0.50304,0.81744000000000006,25,25,NIGHT_MOSTLY_CLOUDY,Offshore,1
5842041f4e65fad6a7708b3b,2025_05_22,21.576,-158.282,Kaena Point,1,0.34,0.64,26,26,NIGHT_CLEAR,Cross-shore,1
5842041f4e65fad6a7708b3c,2025_05_22,21.31110306220024,-157.6590697786346,Makapu'u,1,0.75,1.05,25,25,NIGHT_CLEAR,Onshore,1
5842041f4e65fad6a7708b3d,2025_05_22,21.276618032562773,-157.83386,Three's,2,0.28625,0.7533,26,25,NIGHT_MOSTLY_CLOUDY,Offshore,1
5842041f4e65fad6a7708b3f,2025_05_22,39.63537452931482,-123.7858735430881,Westport,3,1.31,1.57,10,10,NIGHT_MIST,Cross-shore,1
5842041f4e65fad6a7708b40,2025_05_22,39.47339314374171,-123.8053109861082,MacKerricher,3,1.75,2.09,10,10,NIGHT_MIST,Cross-shore,1
5842041f4e65fad6a7708b41,2025_05_22,39.30271935445495,-123.79757,Mendocino Township,3,0.93,1.24,10,10,NIGHT_DRIZZLE,Offshore,1
5842041f4e65fad6a7708b42,2025_05_22,21.281416779283845,-157.8457,Ala Moana Bowls,2,0.54,0.84,26,25,NIGHT_MOSTLY_CLOUDY,Offshore,1
5842041f4e65fad6a7708b43,2025_05_22,15.846,-97.06,Puerto Escondido,4,2.62,3.13,30,30,NIGHT_BRIEF_SHOWERS,Offshore,1
5842041f4e65fad6a7708b44,2025_05_22,11.44175,-86.08519,Santana,4,1.82,2.18,30,30,NIGHT_CLOUDY,Offshore,1
5842041f4e65fad6a7708b46,2025_05_22,38.91444690804076,-123.7104245288878,Point Arena,2,1.65,1.97,10,10,NIGHT_MIST,Cross-shore,1
5842041f4e65fad6a7708b47,2025_05_22,18.46,-66.07383728027,San Juan,2,0.22,0.53,28,27,NIGHT_CLEAR,Cross-shore,1
5842041f4e65fad6a7708b48,2025_05_22,13.21526058417982,-59.52183,Soup Bowl,1,0.65,0.96,28,28,NIGHT_THUNDER_STORMS,Onshore,1
5842041f4e65fad6a7708b49,2025_05_22,18.371581,-67.25941,Puntas,1,0,0.19715,28,27,NIGHT_CLEAR,Offshore,1
5842041f4e65fad6a7708b4b,2025_05_22,-8.814,115.089,Uluwatu,4,1.17219,1.53556,28,28,BRIEF_SHOWERS_POSSIBLE,Offshore,1
5842041f4e65fad6a7708b4c,2025_05_22,-8.950192825865,115.12573,Kuta,2,1.6,1.92,28,28,BRIEF_SHOWERS_POSSIBLE,Onshore,1
5842041f4e65fad6a7708b4d,2025_05_22,9.94,-85.668,Guiones,3,1.16,1.38,29,29,NIGHT_THUNDER_STORMS,Offshore,1
5842041f4e65fad6a7708b4e,2025_05_22,9.56516,-84.59148,Playa Hermosa South,4,1.306,1.56721,30,30,NIGHT_CLEAR,Offshore,1
5842041f4e65fad6a7708b4f,2025_05_22,9.526305556,-84.48822,Playa Esterillos,4,2.05,2.46,30,30,NIGHT_CLEAR,Offshore,1
5842041f4e65fad6a7708b50,2025_05_22,9.576,-84.608,Playa Hermosa North,4,1.47,1.75,30,30,NIGHT_CLEAR,Offshore,1
5842041f4e65fad6a7708b53,2025_05_22,-12.337,-76.839,Pico Alto,3,2.32508,2.77474,19,19,NIGHT_MOSTLY_CLEAR,Onshore,1
5842041f4e65fad6a7708b55,2025_05_22,-12.17155,-77.08515,Peruazul,3,1.07,1.27,18,18,NIGHT_CLEAR,Cross-shore,1
5842041f4e65fad6a7708b56,2025_05_22,-12.133164,-77.03916,Makaha,3,2.34003,2.79929,19,19,NIGHT_CLEAR,Cross-shore,1
5842041f4e65fad6a7708b57,2025_05_22,43.29,-2.1708,Zarautz,2,0.59183,0.93327,17,17,BRIEF_SHOWERS_POSSIBLE,Onshore,1
5842041f4e65fad6a7708b58,2025_05_22,54.27129984804951,-8.60171,Strandhill,2,0.27363,0.42755,15,15,CLEAR,Onshore,1
5842041f4e65fad6a7708b5b,2025_05_22,39.276101,-74.56709,7th Street,2,0.77001,1.14298,14,13,NIGHT_RAIN,Cross-shore,1
5842041f4e65fad6a7708b5d,2025_05_22,39.321896,-74.506191,Sumner Avenue,0,0.55,0.86,16,16,NIGHT_OVERCAST,Cross-shore,1
5842041f4e65fad6a7708b5e,2025_05_22,39.093673,-74.71653,26th to 30th Street Pier,1,0.73664,1.09345,14,13,NIGHT_RAIN,Onshore,1
5842041f4e65fad6a7708b5f,2025_05_22,39.039903,-74.76417,Nun's Beach,1,0.70888,1.08864,16,15,NIGHT_HEAVY_RAIN,Onshore,1
5842041f4e65fad6a7708b60,2025_05_22,38.96768,-74.82565,Rambler Road,1,0.6,0.91,16,15,NIGHT_OVERCAST,Onshore,1
5842041f4e65fad6a7708b61,2025_05_22,38.99931,-74.78814,2nd St. to 10th St.,1,0.68,0.98,16,15,NIGHT_LIGHT_RAIN,Onshore,1
5842041f4e65fad6a7708b62,2025_05_22,38.929886,-74.91718,Stockton Avenue,2,0.52577,0.9302,16,15,NIGHT_OVERCAST,Onshore,1
5842041f4e65fad6a7708b63,2025_05_22,38.942988,-74.862452,The Rocks,1,0.45,0.76,16,15,NIGHT_DRIZZLE,Onshore,1
5842041f4e65fad6a7708b64,2025_05_22,38.93036,-74.91257,Queen Street,2,0.55,0.86,16,15,NIGHT_DRIZZLE,Cross-shore,1
5842041f4e65fad6a7708b65,2025_05_22,38.942757,-74.880791,Poverty Beach,1,0.58,0.89,16,15,NIGHT_DRIZZLE,Cross-shore,1
5842041f4e65fad6a7708b66,2025_05_22,38.929441,-74.93129,Broadway Beach,2,0.46,0.77,16,15,NIGHT_LIGHT_RAIN,Cross-shore,1
5842041f4e65fad6a7708b67,2025_05_22,38.92870117926206,-74.92116,Grant Street Beach,2,0.55,0.85,16,15,NIGHT_OVERCAST,Cross-shore,1
5842041f4e65fad6a7708b68,2025_05_22,38.928934874358276,-74.93582,The Cove,2,0.37,0.68,16,16,NIGHT_LIGHT_RAIN,Cross-shore,1
5842041f4e65fad6a7708b69,2025_05_22,26.775154329102108,-80.03124833106995,Pumphouse,1,0.02,0.32,27,27,NIGHT_CLEAR,Offshore,1
5842041f4e65fad6a7708b6a,2025_05_22,26.72114353296791,-80.03310374527736,Sunrise,1,0,0.31,27,27,NIGHT_CLEAR,Offshore,1
5842041f4e65fad6a7708b6b,2025_05_22,26.71306786153966,-80.03222170715443,Breakers,1,0.01,0.32,27,27,NIGHT_CLEAR,Offshore,1
5842041f4e65fad6a7708b6c,2025_05_22,26.699075556703683,-80.03263235092163,Charlie's Crab,1,0.02,0.32,27,27,NIGHT_CLEAR,Offshore,1
5842041f4e65fad6a7708b6d,2025_05_22,26.79441490392914,-80.0306161110009,Ocean Reef Park,1,0,0.28,27,27,NIGHT_CLEAR,Offshore,1
5842041f4e65fad6a7708b6f,2025_05_22,26.93134670517399,-80.06760115579169,Civic Center,1,0.3562,0.58159,27,27,NIGHT_CLEAR,Offshore,1
5842041f4e65fad6a7708b70,2025_05_22,26.90524197396177,-80.0593609780092,Kite Beach,1,0.0856,0.22907,27,27,NIGHT_CLEAR,Offshore,1
5842041f4e65fad6a7708b71,2025_05_22,26.54279208054373,-80.04292130470276,Boynton Beach Inlet (Southside),0,0,0.25,27,27,NIGHT_CLEAR,Offshore,1
5842041f4e65fad6a7708b72,2025_05_22,26.613511029817357,-80.03534,Lake Worth Pier,1,0,0.18879,27,27,NIGHT_CLEAR,Offshore,1
5842041f4e65fad6a7708b73,2025_05_22,27.06670219261476,-80.11447191238403,Hobe Sound Public Beach,1,0,0.3,26,26,NIGHT_CLEAR,Offshore,1
5842041f4e65fad6a7708b75,2025_05_22,27.21467611230439,-80.17308,Stuart Public Beach,1,0,0.26016,25,24,NIGHT_CLEAR,Offshore,1
5842041f4e65fad6a7708b76,2025_05_22,27.36627923374593,-80.24622,Blind Creek Park,1,0,0.22,24,23,NIGHT_CLEAR,Offshore,1
5842041f4e65fad6a7708b77,2025_05_22,26.94256932088346,-80.07057,Jupiter Inlet,1,0,0.28,26,26,NIGHT_CLEAR,Offshore,1
5842041f4e65fad6a7708b78,2025_05_22,26.89365359499372,-80.056,Juno Pier,0,0,0.13927,27,27,NIGHT_CLEAR,Offshore,1
5842041f4e65fad6a7708b7a,2025_05_22,29.67671206577928,-85.3689474172784,Cape San Blas,2,0.19,0.5,26,26,NIGHT_CLEAR,Offshore,1
5842041f4e65fad6a7708b7b,2025_05_22,26.706551543472415,-80.03280401229858,Flagpole,1,0.01,0.32,27,27,NIGHT_CLEAR,Offshore,1
5842041f4e65fad6a7708b7c,2025_05_22,29.94036477533054,-85.40953557392244,El Governor,2,0.12,0.42,27,27,NIGHT_CLEAR,Offshore,1
5842041f4e65fad6a7708b7d,2025_05_22,29.68231979841189,-85.30627194238092,Toilet Bowls,2,0.17,0.48,26,26,NIGHT_CLEAR,Offshore,1
5842041f4e65fad6a7708b7e,2025_05_22,29.6607153445246,-84.86361191991014,St. George Island,1,0,0.3,26,26,NIGHT_CLEAR,Offshore,1
5842041f4e65fad6a7708b7f,2025_05_22,29.77441172865639,-84.65942657000329,Dog Island,1,0,0.27,26,26,NIGHT_CLEAR,Offshore,1
5842041f4e65fad6a7708b80,2025_05_22,28.59674155718017,-95.97559,Matagorda,2,0.48,0.78,27,27,NIGHT_CLEAR,Onshore,1
5842041f4e65fad6a7708b81,2025_05_22,27.84601633294622,-97.04372701603208,St. Joe's Island,2,0.48,0.78,27,27,NIGHT_MIST,Onshore,1
5842041f4e65fad6a7708b82,2025_05_22,27.64327897922308,-97.18612,J.P. Luby Surf Park,2,0.46849,0.84088,27,27,NIGHT_DRIZZLE,Onshore,1
5842041f4e65fad6a7708b83,2025_05_22,27.82704888028459,-97.05277,Horace Caldwell Pier,2,0.45923,0.82178,27,27,NIGHT_MIST,Onshore,1
5842041f4e65fad6a7708b84,2025_05_22,27.67634780977739,-97.16473,Fish Pass,2,0.46849,0.84088,27,27,NIGHT_MIST,Onshore,1
5842041f4e65fad6a7708b85,2025_05_22,27.58118015227788,-97.2191,Bob Hall Pier,2,0.46598,0.84612,27,27,NIGHT_MIST,Onshore,1
5842041f4e65fad6a7708b86,2025_05_22,28.93236038480434,-95.30205,Quintana,2,0.43107,0.79224000000000006,27,27,NIGHT_DRIZZLE,Onshore,1
5842041f4e65fad6a7708b87,2025_05_22,28.94367955201253,-95.28969,Octagon,2,0.43107,0.79224000000000006,27,27,NIGHT_CLOUDY,Onshore,1
5842041f4e65fad6a7708b88,2025_05_22,29.02647703020454,-95.18702498902157,Boilers,2,0.4,0.71,27,27,NIGHT_CLOUDY,Onshore,1
5842041f4e65fad6a7708b89,2025_05_22,28.9653363517684,-95.26739753922841,Assholes,2,0.44,0.74,27,27,NIGHT_CLEAR,Onshore,1
5842041f4e65fad6a7708b8a,2025_05_22,29.27159138874912,-94.81532732168617,51st Street,2,0.35,0.66,27,27,NIGHT_CLEAR,Onshore,1
5842041f4e65fad6a7708b8b,2025_05_22,29.13902635892794,-95.04070493829546,West Galveston,1,0.35,0.66,27,27,NIGHT_MIST,Onshore,1
5842041f4e65fad6a7708b8c,2025_05_22,29.26596874354759,-94.82556,61st Street,2,0.28896,0.65015,27,27,NIGHT_DRIZZLE,Onshore,1
5842041f4e65fad6a7708b8d,2025_05_22,29.279815639798642,-94.80146,37th Street,1,0.2039,0.56373,27,27,NIGHT_DRIZZLE,Onshore,1
5842041f4e65fad6a7708b8e,2025_05_22,29.28680654948785,-94.79106,Flagship,1,0.2013,0.56839,27,27,NIGHT_DRIZZLE,Onshore,1
5842041f4e65fad6a7708b8f,2025_05_22,29.4702751255731,-94.59146640261427,A-Frames,1,0.29,0.59,27,27,NIGHT_CLEAR,Onshore,1
5842041f4e65fad6a7708b90,2025_05_22,29.52172627288487,-94.45911,Meacom's Pier,2,0.18232,0.54696,27,27,NIGHT_OVERCAST,Onshore,1
5842041f4e65fad6a7708b91,2025_05_22,29.4510876813709,-94.63230467945758,Crystal Beach,1,0.29,0.59,27,27,NIGHT_BRIEF_SHOWERS_POSSIBLE,Onshore,1
5842041f4e65fad6a7708b92,2025_05_22,26.06123118244004,-97.14769,Boca Chica,2,0.35491,0.70982,26,26,NIGHT_MIST,Onshore,1
5842041f4e65fad6a7708b93,2025_05_22,26.06961904983808,-97.15243,Isla Blanca State Park,2,0.30989,0.64192,26,26,NIGHT_MIST,Cross-shore,1
5842041f4e65fad6a7708b96,2025_05_22,26.56132001354785,-97.26967,Port Mansfield,1,0.37084,0.74167,26,26,NIGHT_OVERCAST,Onshore,1
5842041f4e65fad6a7708b98,2025_05_22,10.85099440725964,-85.79981,Ollie's Point,3,0.98,1.17,29,29,NIGHT_CLEAR,Offshore,1
5842041f4e65fad6a7708b99,2025_05_22,10.79489213393012,-85.68066,Witches Rock,3,1.33,1.59,29,29,NIGHT_CLEAR,Offshore,1
5842041f4e65fad6a7708b9a,2025_05_22,9.570222044864844,-85.14184,Mal Pais,3,1.5,1.79,30,30,NIGHT_CLEAR,Onshore,1
5842041f4e65fad6a7708b9b,2025_05_22,10.29970304257365,-85.84398,Tamarindo,3,1.01,1.2,29,29,NIGHT_CLEAR,Offshore,1
5842041f4e65fad6a7708b9c,2025_05_22,9.250593929300813,-83.86522,Dominical,4,1.45,1.73,31,31,NIGHT_CLEAR,Offshore,1
5842041f4e65fad6a7708b9d,2025_05_22,9.48278011021258,-84.28883991550364,Bejuco,4,1.28,1.53,30,30,NIGHT_BRIEF_SHOWERS_POSSIBLE,Offshore,1
5842041f4e65fad6a7708ba1,2025_05_22,9.616940559391795,-84.63541,Playa Jaco,4,1.39486,1.66483,30,30,NIGHT_CLEAR,Offshore,1
5842041f4e65fad6a7708ba3,2025_05_22,9.661646156842439,-84.67316883195207,Playa Escondida,3,0.98,1.18,30,30,NIGHT_CLEAR,Offshore,1
5842041f4e65fad6a7708ba4,2025_05_22,9.635059578319176,-84.66159522794959,Herradura,3,0.94,1.12,30,30,NIGHT_CLEAR,Offshore,1
5842041f4e65fad6a7708ba5,2025_05_22,9.958235741436532,-84.74122,Boca Barranca,4,1.1097,1.334,30,30,NIGHT_CLEAR,Offshore,1
5842041f4e65fad6a7708ba6,2025_05_22,9.922484732656224,-84.7158981889118,Caldera Jetty,3,0.98,1.17,30,30,NIGHT_CLEAR,Offshore,1
5842041f4e65fad6a7708ba7,2025_05_22,9.661180947362254,-82.75273,Salsa Brava,2,0.33229,0.68749,30,30,NIGHT_THUNDER_SHOWERS,Cross-shore,1
5842041f4e65fad6a7708ba8,2025_05_22,8.38230022212565,-83.28332,Matapalo,4,1.64,1.96,30,30,NIGHT_CLEAR,Offshore,1
5842041f4e65fad6a7708ba9,2025_05_22,8.394937,-83.13952,Pavones,4,1.23,1.47,30,30,NIGHT_CLEAR,Offshore,1
5842041f4e65fad6a7708baa,2025_05_22,13.47971255664387,-89.28610104791234,Playa San Diego,3,1.76,2.1,30,30,NIGHT_CLEAR,Offshore,1
5842041f4e65fad6a7708bab,2025_05_22,13.4834740494465,-89.32376,La Paz,4,1.01425,1.30404,30,30,NIGHT_CLEAR,Offshore,1
5842041f4e65fad6a7708bac,2025_05_22,13.48587874937462,-89.31998852531258,El Muelle (Pier),3,2,2.39,30,30,NIGHT_CLEAR,Offshore,1
5842041f4e65fad6a7708bad,2025_05_22,13.47973883183636,-89.32655,Punta Roca,4,2.07,2.47,30,29,NIGHT_CLEAR,Offshore,1
5842041f4e65fad6a7708bae,2025_05_22,13.491596878346689,-89.38104,La Bocana,4,1.74292,2.08273,30,30,NIGHT_THUNDER_SHOWERS,Offshore,1
5842041f4e65fad6a7708baf,2025_05_22,13.48324995683858,-89.33946,Playa Conchalio,3,1.65782,1.97146,30,30,NIGHT_CLEAR,Offshore,1
5842041f4e65fad6a7708bb0,2025_05_22,13.49167561061991,-89.39,Sunzal,4,1.74292,2.08273,30,30,NIGHT_THUNDER_SHOWERS,Offshore,1
5842041f4e65fad6a7708bb1,2025_05_22,35.92499624829542,-121.46957,Sand Dollar Beach,3,2.89,3.33,12,12,NIGHT_CLEAR,Cross-shore,1
5842041f4e65fad6a7708bb3,2025_05_22,36.55448900657569,-121.93114,Carmel Beach,3,1.42,1.69,12,12,NIGHT_MIST,Cross-shore,1
5842041f4e65fad6a7708bb4,2025_05_22,36.27968576518622,-121.85962,Big Sur Rivermouth,4,1.27,1.52,12,12,NIGHT_CLEAR,Offshore,1
5842041f4e65fad6a7708bb5,2025_05_22,36.60883280895963,-121.9603486684287,Mole Point,2,1.81,2.16,12,12,NIGHT_BRIEF_SHOWERS,Onshore,1
5842041f4e65fad6a7708bb6,2025_05_22,36.63788026219399,-121.9311174079908,Boneyard,2,1.64,1.94,12,12,NIGHT_MIST,Onshore,1
5842041f4e65fad6a7708bb7,2025_05_22,36.61880091818895,-121.9422482210244,Asilomar,2,2.79,2.96,12,12,NIGHT_BRIEF_SHOWERS,Onshore,1
5842041f4e65fad6a7708bb8,2025_05_22,36.56037685095311,-121.9516152313922,Ghost Tree,NA,1.43,1.74,12,12,NIGHT_MIST,Cross-shore,1
5842041f4e65fad6a7708bbb,2025_05_22,35.89412279173619,-121.462380148047,Willow Creek,2,3.19,3.41,12,12,NIGHT_CLEAR,Cross-shore,1
5842041f4e65fad6a7708bbc,2025_05_22,36.6260658643635,-121.91548,Lovers Point,3,1.03,1.34,12,12,NIGHT_MOSTLY_CLOUDY,Onshore,1
5842041f4e65fad6a7708bbd,2025_05_22,38.945,-9.42,Foz de Lizandro,0,0.71479,1.02254,17,17,CLEAR,Cross-shore,1
5842041f4e65fad6a7708bbf,2025_05_22,36.80821791915616,-121.79055,Moss Landing,4,1.18,1.49,12,12,NIGHT_MOSTLY_CLOUDY,Cross-shore,1
5842041f4e65fad6a7708bc0,2025_05_22,38.67869246746279,-9.33685,Carcavelos,1,0.06145,0.36869,17,17,CLEAR,Offshore,1
5842041f4e65fad6a7708bc1,2025_05_22,38.983,-9.425,Reef,0,0.69,1,17,17,CLEAR,Cross-shore,1
5842041f4e65fad6a7708bc2,2025_05_22,38.988,-9.424,Ribeira D'Ilhas,3,0.67,0.98,18,18,CLEAR,Offshore,1
5842041f4e65fad6a7708bc3,2025_05_22,39.34167968424256,-9.36331,Supertubos,1,0.07,0.37,18,18,CLEAR,Offshore,1
5842041f4e65fad6a7708bc4,2025_05_22,39.001,-9.4284,Coxos,1,1.00807,1.19709,18,18,CLEAR,Offshore,1
5842041f4e65fad6a7708bc5,2025_05_22,40.13063921100635,-8.87044,Cabedelo,0,0.77638,1.08285,18,18,CLEAR,Cross-shore,1
5842041f4e65fad6a7708bc6,2025_05_22,39.37397686060677,-9.33235,Baleal,1,0.67,0.98,18,18,CLEAR,Onshore,1
5842041f4e65fad6a7708bc7,2025_05_22,31.80902927937703,-116.8081979700041,Todos Santos / Killers,NA,1.86,2.23,18,18,NIGHT_MIST,Onshore,1
5842041f4e65fad6a7708bc8,2025_05_22,43.68220203786759,-1.44167,Les Culs Nus,2,0.79516,1.12194,18,18,BRIEF_SHOWERS_POSSIBLE,Cross-shore,1
5842041f4e65fad6a7708bc9,2025_05_22,31.90016519474307,-116.73117,San Miguel,3,0.53,0.83,18,18,NIGHT_MOSTLY_CLOUDY,Offshore,1
5842041f4e65fad6a7708bca,2025_05_22,43.48469485823068,-1.56023,Biarritz,1,0.64513,0.94754,18,18,BRIEF_SHOWERS_POSSIBLE,Cross-shore,1
5842041f4e65fad6a7708bcb,2025_05_22,39.0132,-9.424,Sao Lourenco,0,0.70227,1.00761,18,18,CLEAR,Cross-shore,1
5842041f4e65fad6a7708bcd,2025_05_22,43.64760422014503,-1.44721,Le Santocha,1,0.48558,0.7168,18,18,BRIEF_SHOWERS_POSSIBLE,Cross-shore,1
5842041f4e65fad6a7708bce,2025_05_22,43.51401611768647,-1.53382,Anglet,2,0.85,1.15,18,18,BRIEF_SHOWERS_POSSIBLE,Onshore,1
5842041f4e65fad6a7708bcf,2025_05_22,43.479,-1.569,La Cote des Basques,1,0.66172,0.97191,18,18,BRIEF_SHOWERS_POSSIBLE,Onshore,1
5842041f4e65fad6a7708bd0,2025_05_22,32.3489432986615,-117.0668043482785,Rosarito Beach,3,0.81,1.11,17,17,NIGHT_MOSTLY_CLOUDY,Onshore,1
5842041f4e65fad6a7708bd1,2025_05_22,23.44473573026049,-110.2452466338192,Todos Santos,2,0.59,0.9,19,19,NIGHT_CLEAR,Cross-shore,1
5842041f4e65fad6a7708bd2,2025_05_22,31.97636522717259,-116.7913888957552,Salsipuedes,2,0.27,0.57,18,18,NIGHT_MOSTLY_CLOUDY,Offshore,1
5842041f4e65fad6a7708bd3,2025_05_22,23.39151658553801,-110.2143952234506,Las Palmas,2,0.75,1.05,20,20,NIGHT_CLEAR,Cross-shore,1
5842041f4e65fad6a7708bd4,2025_05_22,23.02358192684975,-109.7147,Old Man's,3,0.66,0.96,25,25,NIGHT_CLEAR,Offshore,1
5842041f4e65fad6a7708bd5,2025_05_22,23.32877869857464,-110.17715,Cerritos,1,0.62,0.92,20,20,NIGHT_CLEAR,Cross-shore,1
5842041f4e65fad6a7708bd6,2025_05_22,23.36729303816202,-110.20268,San Pedrito,1,0.41,0.71,20,20,NIGHT_CLEAR,Cross-shore,1
5842041f4e65fad6a7708bd7,2025_05_22,23.02506324659338,-109.71456,The Rock,3,0.66,0.96,25,25,NIGHT_CLEAR,Offshore,1
5842041f4e65fad6a7708bd8,2025_05_22,22.896,-109.869,Monuments,3,1.05,1.35,24,24,NIGHT_CLEAR,Offshore,1
5842041f4e65fad6a7708bd9,2025_05_22,23.04871261564847,-109.6800082320905,The Estuary,3,0.68,0.99,24,24,NIGHT_CLEAR,Offshore,1
5842041f4e65fad6a7708bda,2025_05_22,23.029,-109.714,Zippers,3,0.66,0.96,25,25,NIGHT_CLEAR,Offshore,1
5842041f4e65fad6a7708bdb,2025_05_22,23.12,-109.527,Shipwreck,3,0.96,1.14,25,25,NIGHT_CLEAR,Cross-shore,1
5842041f4e65fad6a7708bdc,2025_05_22,23.174,-109.476,Nine Palms,4,1.28,1.53,25,25,NIGHT_CLEAR,Offshore,1
5842041f4e65fad6a7708bdd,2025_05_22,4.307463458457968,73.57742,Jailbreaks,3,1.06,1.27,30,30,CLEAR,Offshore,1
5842041f4e65fad6a7708bde,2025_05_22,4.31216545719424,73.58368,Honky's,3,0.97762,1.171,30,30,CLEAR,Cross-shore,1
5842041f4e65fad6a7708bdf,2025_05_22,4.313574269102099,73.58541879522511,Sultans,3,0.98078,1.17478,30,30,CLEAR,Offshore,1
5842041f4e65fad6a7708be0,2025_05_22,4.343204315364438,73.6136,Ninja's,3,0.97944,1.17317,30,30,CLEAR,Offshore,1
5842041f4e65fad6a7708be1,2025_05_22,4.348032688767217,73.621,Lohi's,2,1.04232,1.24649,30,30,CLEAR,Cross-shore,1
5842041f4e65fad6a7708be2,2025_05_22,4.31537277405848,73.59171,Pasta Point,1,0.54393,0.86389,30,30,CLEAR,Cross-shore,1
5842041f4e65fad6a7708be3,2025_05_22,-28.3344521240417,153.57739,Cabarita,3,2.31394,2.64768,24,24,NIGHT_CLEAR,Offshore,1
5842041f4e65fad6a7708be4,2025_05_22,4.372896005883011,73.66323,Chickens,3,0.97741,1.17075,30,30,CLEAR,Offshore,1
5842041f4e65fad6a7708be5,2025_05_22,-28.16143481052803,153.55066,Snapper Rocks,3,2.00763,2.34984,23,23,NIGHT_CLEAR,Offshore,1
5842041f4e65fad6a7708be6,2025_05_22,4.370274672691539,73.65602,Colas,2,1.07018,1.28422,30,30,CLEAR,Cross-shore,1
5842041f4e65fad6a7708be8,2025_05_22,-28.08967141602908,153.45956,Burleigh Heads,3,1.98197,2.36223,23,23,NIGHT_CLEAR,Cross-shore,1
5842041f4e65fad6a7708be9,2025_05_22,-28.16436510036895,153.53589,Kirra,4,1.21,1.52,23,23,NIGHT_CLEAR,Onshore,1
5842041f4e65fad6a7708bea,2025_05_22,-26.809,153.136,Caloundra Bar,3,0.995,1.2935,23,23,NIGHT_CLEAR,Offshore,1
5842041f4e65fad6a7708beb,2025_05_22,-27.4488954777054,153.5383894760102,North Stradbroke Island,4,1.94,2.32,24,24,NIGHT_CLEAR,Offshore,1
5842041f4e65fad6a7708bec,2025_05_22,-26.67869,153.12223,Mooloolaba,3,1.28681,1.48478,23,23,NIGHT_CLEAR,Cross-shore,1
5842041f4e65fad6a7708bed,2025_05_22,40.028403115215,-74.04837,Mantoloking,0,1.31,1.48,14,14,NIGHT_DRIZZLE,Onshore,1
5842041f4e65fad6a7708bee,2025_05_22,-26.38257,153.09668,Noosa Heads,3,0.38724,0.72893,23,23,NIGHT_CLEAR,Onshore,1
5842041f4e65fad6a7708bef,2025_05_22,-28.63764444,153.62803,"The Pass, Byron Bay",3,1.73448,2.07018,24,24,NIGHT_CLEAR,Onshore,1
5842041f4e65fad6a7708bf0,2025_05_22,-32.171,152.512,Tuncurry Breakwall,1,2.02,2.32,23,23,NIGHT_SHOWERS,Onshore,1
5842041f4e65fad6a7708bf1,2025_05_22,-28.87513611,153.59244,Ballina North Wall,3,2.5842,2.95,23,23,NIGHT_CLEAR,Onshore,1
5842041f4e65fad6a7708bf2,2025_05_22,-28.80011944,153.59755,Lennox Head,4,2.32412,2.77632,25,25,NIGHT_CLEAR,Offshore,1
5842041f4e65fad6a7708bf3,2025_05_22,-28.70581667,153.61983,Broken Head,3,1.96,2.26,24,24,NIGHT_CLEAR,Cross-shore,1
5842041f4e65fad6a7708bf4,2025_05_22,-29.44056667,153.3695194,Pippies/Yamba,3,2.04,2.38,22,22,NIGHT_CLEAR,Offshore,1
5842041f4e65fad6a7708bf5,2025_05_22,-33.94857222,151.25722,Maroubra,-0.16666666666666674,2.60383,3.11106,21,21,NIGHT_RAIN,Onshore,1
5842041f4e65fad6a7708bf6,2025_05_22,-34.05162704152385,151.15646,Cronulla,-0.16666666666666674,2.23686,2.66293,21,21,NIGHT_RAIN,Onshore,1
5842041f4e65fad6a7708bf8,2025_05_22,-33.892155707636114,151.27793,Bondi Beach,1,2.31242,2.65083,21,21,NIGHT_RAIN,Onshore,1
5842041f4e65fad6a7708bf9,2025_05_22,-29.48278333,153.36727,Angourie,4,2.16,2.54,22,22,NIGHT_CLEAR,Offshore,1
5842041f4e65fad6a7708bfa,2025_05_22,-33.75169106295242,151.29855,Dee Why,0.8333333333333333,2.69051,3.22197,21,21,NIGHT_RAIN,Onshore,1
5842041f4e65fad6a7708bfb,2025_05_22,-33.77330556,151.29331,Curl Curl,0.8333333333333333,2.98062,3.56082,21,21,NIGHT_RAIN,Onshore,1
5842041f4e65fad6a7708bfc,2025_05_22,-33.70960382813077,151.30361,Narrabeen,0.8333333333333333,3.01661,3.60158,21,21,NIGHT_RAIN,Onshore,1
5842041f4e65fad6a7708bfd,2025_05_22,-33.63539722,151.33297,Avalon,0.8333333333333333,2.95632,3.4263,21,21,NIGHT_RAIN,Onshore,1
5842041f4e65fad6a7708bfe,2025_05_22,-33.65150556,151.32512,Newport,0.8333333333333333,2.59296,3.10208,21,21,NIGHT_RAIN,Onshore,1
5842041f4e65fad6a7708bff,2025_05_22,-36.94544444,149.9151111,Pambula Rivermouth,3,1.58,1.69,19,19,NIGHT_LIGHT_RAIN,Offshore,1
5842041f4e65fad6a7708c00,2025_05_22,-33.60841111,151.33339,Whale Beach,0.6666666666666665,3.1536,3.504,21,21,NIGHT_RAIN,Onshore,1
5842041f4e65fad6a7708c01,2025_05_22,-36.89662778,149.92144,Merimbula Bar,2,0.65,0.95,19,19,NIGHT_LIGHT_RAIN,Onshore,1
5842041f4e65fad6a7708c02,2025_05_22,-35.90458333,150.15191,Moruya,1,1.45,1.74,21,21,NIGHT_LIGHT_RAIN,Onshore,1
5842041f4e65fad6a7708c03,2025_05_22,-35.36742222,150.48575,Ulladulla Bommie,3,1.16,1.38,21,21,NIGHT_LIGHT_RAIN,Offshore,1
5842041f4e65fad6a7708c04,2025_05_22,-35.34604167,150.4773361,Golf Course Reef,3,1.43,1.71,21,21,NIGHT_LIGHT_RAIN,Onshore,1
5842041f4e65fad6a7708c05,2025_05_22,-35.27280833,150.51393,Green Island,3,0.72,1.02,21,21,NIGHT_LIGHT_RAIN,Onshore,1
5842041f4e65fad6a7708c06,2025_05_22,-35.17533333,150.6881667,Black Rock,1,0,0.23,21,21,NIGHT_LIGHT_RAIN,Cross-shore,1
5842041f4e65fad6a7708c07,2025_05_22,-34.74260833,150.8332833,Werri Beach,3,2.19,2.57,21,21,NIGHT_LIGHT_RAIN,Onshore,1
5842041f4e65fad6a7708c08,2025_05_22,-34.54684722,150.8784167,Windang Island,1,1.54,1.84,21,21,NIGHT_LIGHT_RAIN,Onshore,1
5842041f4e65fad6a7708c09,2025_05_22,-28.64288889,153.63596,Tallows,3,2.42178,2.74758,24,24,NIGHT_CLEAR,Cross-shore,1
5842041f4e65fad6a7708c0a,2025_05_22,-34.32977,150.92931,Sandon Point,2,1.86786,2.22529,21,21,NIGHT_RAIN,Onshore,1
5842041f4e65fad6a7708c0b,2025_05_22,-38.347207621284134,144.31065,Jan Juc,2,0.99,1.18,17,17,NIGHT_CLEAR,Onshore,1
5842041f4e65fad6a7708c0c,2025_05_22,-38.2873,144.4652,13th Beach,2,1.52889,1.81845,17,17,NIGHT_CLEAR,Onshore,1
5842041f4e65fad6a7708c0d,2025_05_22,-38.76017222,143.37283,Johanna,3,2.85136,3.40492,16,16,NIGHT_CLEAR,Cross-shore,1
5842041f4e65fad6a7708c0e,2025_05_22,-38.44902778,144.85891,Gunnamatta,2,2.1087,2.52593,16,16,NIGHT_CLEAR,Cross-shore,1
5842041f4e65fad6a7708c0f,2025_05_22,-38.42897222,145.07755,Point Leo,1,0.37,0.85261,17,17,NIGHT_CLEAR,Onshore,1
5842041f4e65fad6a7708c10,2025_05_22,-38.55457222,145.33169,Woolamai,2,1.61,1.93,17,17,NIGHT_CLEAR,Cross-shore,1
5842041f4e65fad6a7708c11,2025_05_22,-28.16708333,153.55169,Duranbah,3,2.46237,2.81576,23,23,NIGHT_CLEAR,Offshore,1
5842041f4e65fad6a7708c12,2025_05_22,-38.368504,144.2871,Winkipop,2,1.8207,2.1777,17,17,NIGHT_CLEAR,Onshore,1
5842041f4e65fad6a7708c13,2025_05_22,-38.50596111,145.14044,Cat Bay,2,0.60263,0.71813,16,16,NIGHT_CLEAR,Offshore,1
5842041f4e65fad6a7708c14,2025_05_22,-28.87768889,153.58828,South Wall Ballina,3,2.183,2.5488,23,23,NIGHT_CLEAR,Cross-shore,1
5842041f4e65fad6a7708c15,2025_05_22,-38.48777,144.97036,Mornington Peninsula,2,1.74248,2.0834,16,16,NIGHT_CLEAR,Onshore,1
5842041f4e65fad6a7708c17,2025_05_22,-28.93778889,113.9235722,Abrolhos Islands,2,4.52,5.41,25,25,CLEAR,Onshore,1
5842041f4e65fad6a7708c19,2025_05_22,-24.031,113.441,The Bluff,4,2.83,3.38,27,27,CLEAR,Offshore,1
5842041f4e65fad6a7708c1a,2025_05_22,-23.882,113.482,Tombstones,3,2.69,3.21,28,28,CLEAR,Cross-shore,1
5842041f4e65fad6a7708c1b,2025_05_22,-23.64909722,113.6129972,Warroora Station,3,2.56,3.06,28,28,CLEAR,Cross-shore,1
5842041f4e65fad6a7708c1c,2025_05_22,-38.62743889,142.9796,Two Mile/Easter Reef,2,4.61,5.5,16,16,NIGHT_CLEAR,Onshore,1
5842041f4e65fad6a7708c1e,2025_05_22,-31.89140556,115.75388,Scarborough,2,1.88,2.25,22,22,CLEAR,Onshore,1
5842041f4e65fad6a7708c1f,2025_05_22,-32.007275,115.75131,Cottesloe,2,0.94888,1.39456,22,22,CLEAR,Onshore,1
5842041f4e65fad6a7708c20,2025_05_22,-32.01661667,115.7511583,Cables,2,0.87932,1.31899,22,22,CLEAR,Onshore,1
5842041f4e65fad6a7708c21,2025_05_22,-33.65305556,115.018,Supertubes,0,3.04,3.64,23,23,LIGHT_RAIN,Onshore,1
5842041f4e65fad6a7708c22,2025_05_22,-33.63875278,115.02247,Yallingup,0,2.31,2.76,23,23,LIGHT_RAIN,Onshore,1
5842041f4e65fad6a7708c23,2025_05_22,-32.01881111,115.48693,Strickland Bay/Rottnest Island,2,2.95,3.53,23,23,CLEAR,Cross-shore,1
5842041f4e65fad6a7708c24,2025_05_22,-33.69852222,114.98713,Injidup Carpark,0,2.56,3.06,23,23,LIGHT_RAIN,Onshore,1
5842041f4e65fad6a7708c25,2025_05_22,-33.858925,114.98469,North Point,0,2.56,3.06,23,23,LIGHT_RAIN,Onshore,1
5842041f4e65fad6a7708c26,2025_05_22,-33.65705556,115.01457,Smiths Beach,0,1.55,1.86,23,23,LIGHT_RAIN,Onshore,1
5842041f4e65fad6a7708c27,2025_05_22,-33.86301667,114.9767861,South Point,0,4.4,5.26,23,23,LIGHT_RAIN,Onshore,1
5842041f4e65fad6a7708c28,2025_05_22,-33.97649722,114.98311,Margaret River,0,3.443,4.114,24,24,RAIN,Onshore,1
5842041f4e65fad6a7708c29,2025_05_22,-33.978325,114.9863667,Gas Bay,1,3.64344,4.35784,24,24,RAIN,Onshore,1
5842041f4e65fad6a7708c2a,2025_05_22,-33.88036667,114.9803222,Lefthanders (Lefties),1,2.52,3.01,24,24,RAIN,Onshore,1
5842041f4e65fad6a7708c2b,2025_05_22,-35.29171667,136.875225,Chinamans,4,3.05,3.65,18,18,NIGHT_CLEAR,Offshore,1
5842041f4e65fad6a7708c2c,2025_05_22,-32.08626,132.97959,Cactus,3,3.71,4.43,18,18,CLEAR,Onshore,1
5842041f4e65fad6a7708c2d,2025_05_22,-35.86224722,137.74371,Pennington Bay,3,2.3947600000000002,2.86712,19,19,NIGHT_CLEAR,Onshore,1
5842041f4e65fad6a7708c2e,2025_05_22,-28.12496389,153.48648,Currumbin Alley,3,2.05,2.35,23,23,NIGHT_CLEAR,Cross-shore,1
5842041f4e65fad6a7708c2f,2025_05_22,-35.63450833,138.49829,Waitpinga,3,2.07991,2.47944,18,18,NIGHT_CLEAR,Cross-shore,1
5842041f4e65fad6a7708c30,2025_05_22,-35.52,138.71,Middleton,3,2.32572,2.78196,17,17,NIGHT_CLEAR,Onshore,1
5842041f4e65fad6a7708c33,2025_05_22,9.746222222,-82.85211111,Cahuita,3,0.67,0.98,30,30,NIGHT_THUNDER_SHOWERS,Offshore,1
5842041f4e65fad6a7708c35,2025_05_22,10.22975,-85.84058,Avellanas,4,1.18,1.41,29,29,NIGHT_CLEAR,Offshore,1
5842041f4e65fad6a7708c36,2025_05_22,10.33328,-85.85069,Playa Grande,3,1.23,1.47,29,29,NIGHT_CLEAR,Offshore,1
5842041f4e65fad6a7708c37,2025_05_22,9.389333333,-84.15386111,Manuel Antonio,4,1.6,1.91,30,30,NIGHT_BRIEF_SHOWERS_POSSIBLE,Offshore,1
5842041f4e65fad6a7708c38,2025_05_22,10.28630556,-85.85228,Playa Langosta,3,1.17,1.39,29,29,NIGHT_CLEAR,Offshore,1
5842041f4e65fad6a7708c39,2025_05_22,54.55819760353214,-8.21518,Rossnowlagh,2,0.24441,0.38189,14,14,CLEAR,Onshore,1
5842041f4e65fad6a7708c3a,2025_05_22,54.4924,-8.2709,Tullan Strand,2,0.27928,0.43638,14,14,CLEAR,Onshore,1
5842041f4e65fad6a7708c3b,2025_05_22,54.47958088962024,-8.29256,Bundoran,2,0.26034,0.40678,14,14,CLEAR,Onshore,1
5842041f4e65fad6a7708c3c,2025_05_22,54.45887147557389,-8.434952849016696,Mullaghmore Strand,2,0.208,0.32501,14,14,CLEAR,Onshore,1
5842041f4e65fad6a7708c3d,2025_05_22,54.29465584522581,-8.965232737720527,Easkey,2,0.07905,0.38536,15,15,CLEAR,Onshore,1
5842041f4e65fad6a7708c3e,2025_05_22,54.28521527547639,-9.223662106008305,Kilcummin Harbour,2,0.31979,0.49968,14,14,CLEAR,Cross-shore,1
5842041f4e65fad6a7708c3f,2025_05_22,54.4123841889832,-8.535520783992467,Streedagh Strand,2,0.20798,0.32496,14,14,CLEAR,Onshore,1
5842041f4e65fad6a7708c44,2025_05_22,54.266,-8.729,Dunmoran,1,0.14561,0.22751,15,15,CLEAR,Cross-shore,1
5842041f4e65fad6a7708c46,2025_05_22,20.934,-105.401,Costa Azul,2,0.25,0.56,29,29,NIGHT_CLEAR,Cross-shore,1
5842041f4e65fad6a7708c47,2025_05_22,18.51369499135283,-67.03911,Middles,1,0.35,0.65,28,27,NIGHT_CLEAR,Cross-shore,1
5842041f4e65fad6a7708c48,2025_05_22,18.515,-67.077,Jobos,1,0.06688,0.40127,28,27,NIGHT_CLEAR,Cross-shore,1
5842041f4e65fad6a7708c49,2025_05_22,18.50659587388844,-67.14095,Surfer's Beach,2,0.14,0.44,28,28,NIGHT_CLEAR,Offshore,1
5842041f4e65fad6a7708c4a,2025_05_22,18.4724771991133,-67.16964903636637,Wishing Well,0,0,0.14,28,28,NIGHT_CLEAR,Offshore,1
5842041f4e65fad6a7708c4b,2025_05_22,18.48507943247522,-67.16805,Wilderness,2,0.04,0.34,28,28,NIGHT_CLEAR,Offshore,1
5842041f4e65fad6a7708c4c,2025_05_22,18.46090012303478,-67.16701,Chambers,0,0,0.1,28,28,NIGHT_CLEAR,Offshore,1
5842041f4e65fad6a7708c4d,2025_05_22,18.45734083137307,-67.16435,Crash Boat,0,0,0.08,28,28,NIGHT_CLEAR,Offshore,1
5842041f4e65fad6a7708c4f,2025_05_22,18.36085983178037,-67.27182288542944,Indicators,1,0,0.21,28,28,NIGHT_CLEAR,Offshore,1
5842041f4e65fad6a7708c50,2025_05_22,18.42530999756879,-67.15604263628627,Bridges,1,0,0.09,28,28,NIGHT_CLEAR,Offshore,1
5842041f4e65fad6a7708c51,2025_05_22,18.50806588732911,-67.1388404959542,Table Top,2,0.14,0.44,28,28,NIGHT_CLEAR,Offshore,1
5842041f4e65fad6a7708c53,2025_05_22,18.37335029722464,-67.25282708189441,Antonio's,1,0,0.22,28,28,NIGHT_CLEAR,Offshore,1
5842041f4e65fad6a7708c54,2025_05_22,18.3717999427746,-67.2592,Sandy Beach,1,0,0.2,28,27,NIGHT_CLEAR,Cross-shore,1
5842041f4e65fad6a7708c55,2025_05_22,18.36591901691329,-67.27131,Domes,1,0,0.21,28,28,NIGHT_CLEAR,Offshore,1
5842041f4e65fad6a7708c56,2025_05_22,18.37093775805671,-67.26124188960489,Pools,1,0.2508,0.43854,28,27,NIGHT_CLEAR,Offshore,1
5842041f4e65fad6a7708c58,2025_05_22,18.359052,-67.271765,The Point,2,0.2247,0.37571,28,28,NIGHT_CLEAR,Offshore,1
5842041f4e65fad6a7708c59,2025_05_22,18.343578,-67.26082,Little Malibu,1,0.05294,0.2353,28,28,NIGHT_CLEAR,Onshore,1
5842041f4e65fad6a7708c5a,2025_05_22,18.35046796998277,-67.26958496140767,Tres Palmas,0,0,0.17,28,28,NIGHT_CLEAR,Offshore,1
5842041f4e65fad6a7708c5c,2025_05_22,18.358457148373724,-67.27163,Maria's,0,0,0.13226,28,27,NIGHT_CLEAR,Offshore,1
5842041f4e65fad6a7708c5d,2025_05_22,18.36436193914082,-65.67175850608821,La Selva,1,0,0.29,28,28,NIGHT_CLEAR,Cross-shore,1
5842041f4e65fad6a7708c5e,2025_05_22,18.377237,-65.714583,La Pared,1,0.1,0.41,28,28,NIGHT_CLEAR,Cross-shore,1
5842041f4e65fad6a7708c5f,2025_05_22,18.47587365739435,-66.73093579970327,Margara,2,0.07,0.38,28,28,NIGHT_CLEAR,Offshore,1
5842041f4e65fad6a7708c60,2025_05_22,18.49042886903135,-66.9558167601821,Guajataca,2,0.29,0.59,28,28,NIGHT_CLEAR,Cross-shore,1
5842041f4e65fad6a7708c61,2025_05_22,18.47273941014759,-66.44904622785756,Los Tubos,1,0,0.23,28,28,NIGHT_FOG,Offshore,1
5842041f4e65fad6a7708c62,2025_05_22,18.467168313149315,-66.09311,La Ocho,2,0.05461,0.39319,28,27,NIGHT_CLEAR,Cross-shore,1
5842041f4e65fad6a7708c63,2025_05_22,18.45529355651344,-65.96670584112921,Chatarra,1,0.18,0.48,28,28,NIGHT_MOSTLY_CLEAR,Cross-shore,1
5842041f4e65fad6a7708c64,2025_05_22,18.452,-65.957871,Aviones,1,0.14,0.45,28,28,NIGHT_CLEAR,Cross-shore,1
5842041f4e65fad6a7708c65,2025_05_22,18.451764,-65.956416,Tocones,1,0.14,0.45,28,28,NIGHT_CLEAR,Cross-shore,1
5842041f4e65fad6a7708c66,2025_05_22,23.09289784805277,-82.49361057903533,Old Man's,0,0,0.05,28,28,NIGHT_CLEAR,Cross-shore,1
5842041f4e65fad6a7708c67,2025_05_22,17.97138086645092,-65.96246,Inches,2,0.2,0.5,28,28,NIGHT_CLEAR,Offshore,1
5842041f4e65fad6a7708c68,2025_05_22,21.18269590184542,-76.17425732522923,Gibara Coast,1,0.13,0.43,27,27,NIGHT_CLEAR,Onshore,1
5842041f4e65fad6a7708c69,2025_05_22,20.29935933410474,-74.38513580703325,Baracoa Coast,2,0.4,0.71,28,28,NIGHT_MIST,Cross-shore,1
5842041f4e65fad6a7708c6a,2025_05_22,17.90850736737134,-76.18979571186617,Ranch,3,0.74,1.04,29,29,NIGHT_CLEAR,Onshore,1
5842041f4e65fad6a7708c6b,2025_05_22,20.062663,-74.4972,Cajo Babo,2,0.12,0.42,29,29,NIGHT_CLEAR,Onshore,1
5842041f4e65fad6a7708c6c,2025_05_22,17.869517,-76.582916,Makka,1,0.1,0.4,29,29,NIGHT_CLEAR,Cross-shore,1
5842041f4e65fad6a7708c6d,2025_05_22,17.927946,-76.77929,Lighthouse,3,0.51,0.81,29,29,NIGHT_CLEAR,Onshore,1
5842041f4e65fad6a7708c6e,2025_05_22,17.945043,-76.717493,Zoo,3,0.43,0.73,29,29,NIGHT_CLEAR,Cross-shore,1
5842041f4e65fad6a7708c6f,2025_05_22,17.94222896363424,-76.69415558555534,Copa,3,0.35,0.66,29,29,NIGHT_CLEAR,Cross-shore,1
5842041f4e65fad6a7708c70,2025_05_22,18.1586,-76.3553,Boston Bay,1,0,0.3,29,29,NIGHT_BRIEF_SHOWERS_POSSIBLE,Cross-shore,1
5842041f4e65fad6a7708c71,2025_05_22,19.760009,-70.51905,Sosua,0,0,0.1,27,27,NIGHT_CLEAR,Onshore,1
5842041f4e65fad6a7708c72,2025_05_22,19.783,-70.45,Encuentro,1,0.31228,0.67082,27,27,NIGHT_MOSTLY_CLEAR,Cross-shore,1
5842041f4e65fad6a7708c73,2025_05_22,18.229,-70.189,Patho Beach,2,0.36424,0.78245,28,28,NIGHT_CLEAR,Offshore,1
5842041f4e65fad6a7708c74,2025_05_22,18.433,-69.631,La Boya,2,0.33356,0.74719,28,28,NIGHT_CLEAR,Cross-shore,1
5842041f4e65fad6a7708c75,2025_05_22,18.420275,-70.01139,El Chinchorro,3,0.40337,0.82019,28,28,NIGHT_CLEAR,Offshore,1
5842041f4e65fad6a7708c76,2025_05_22,18.4469967022155,-64.59065,Josiah's Bay,1,0.10857,0.41454,28,28,NIGHT_MOSTLY_CLOUDY,Offshore,1
5842041f4e65fad6a7708c77,2025_05_22,17.988754,-71.16075,Bahoruco,3,0.5812,0.98158,28,28,NIGHT_CLEAR,Offshore,1
5842041f4e65fad6a7708c78,2025_05_22,18.40133856648012,-64.68076,Apple Bay,1,0,0.19,28,28,NIGHT_CLEAR,Offshore,1
5842041f4e65fad6a7708c79,2025_05_22,11.15033417501753,-60.84783,Airports,1,0.23004,0.66135,28,28,NIGHT_LIGHT_SHOWERS,Cross-shore,1
5842041f4e65fad6a7708c7b,2025_05_22,10.83550342228099,-60.920248032489326,Salybia Bay,2,0.55,0.85,28,28,NIGHT_BRIEF_SHOWERS_POSSIBLE,Cross-shore,1
5842041f4e65fad6a7708c7c,2025_05_22,10.717707,-60.98962,Balandra Bay,2,0.37,0.68,28,28,NIGHT_BRIEF_SHOWERS_POSSIBLE,Onshore,1
5842041f4e65fad6a7708c7d,2025_05_22,10.839254,-61.00207,Sans Souci Bay,2,0.43556,0.74667,28,28,NIGHT_BRIEF_SHOWERS_POSSIBLE,Cross-shore,1
5842041f4e65fad6a7708c7e,2025_05_22,13.21452297223763,-59.51781,Parlour,2,0.89381,1.229,28,28,NIGHT_THUNDER_STORMS,Onshore,1
5842041f4e65fad6a7708c7f,2025_05_22,13.220009,-59.52954,Cattle Wash,1,0.61,0.92,28,28,NIGHT_THUNDER_STORMS,Onshore,1
5842041f4e65fad6a7708c80,2025_05_22,13.316799,-59.64713,Duppies,1,0.19,0.5,28,28,NIGHT_THUNDER_STORMS,Offshore,1
5842041f4e65fad6a7708c81,2025_05_22,13.07622829845154,-59.60844,Brandon's,3,0.79081,1.16797,28,28,NIGHT_THUNDER_STORMS,Offshore,1
5842041f4e65fad6a7708c82,2025_05_22,43.64083333,-8.113611111,Playa de Rodo,2,0.66,0.97,16,16,CLEAR,Cross-shore,1
5842041f4e65fad6a7708c83,2025_05_22,43.53583333,-5.38583,Rodiles,2,0.13097,0.42099,16,16,BRIEF_SHOWERS_POSSIBLE,Onshore,1
5842041f4e65fad6a7708c84,2025_05_22,43.44166667,-4.022777778,Playa de los Caballos,2,0.66,0.97,16,16,BRIEF_SHOWERS_POSSIBLE,Onshore,1
5842041f4e65fad6a7708c85,2025_05_22,43.46972222,-3.731388889,Isla de Santa Marina,2,0.56,0.86,16,16,BRIEF_SHOWERS_POSSIBLE,Onshore,1
5842041f4e65fad6a7708c86,2025_05_22,43.397,-2.98667,Menakoz,0,0.44929,0.78626,16,16,BRIEF_SHOWERS_POSSIBLE,Onshore,1
5842041f4e65fad6a7708c87,2025_05_22,43.43388889,-2.80194,Bakio,1,0.68585,1.02878,16,16,CLEAR,Onshore,1
5842041f4e65fad6a7708c88,2025_05_22,43.40861111,-2.69472,Mundaka,1,0.47247,0.79461,17,17,CLEAR,Offshore,1
5842041f4e65fad6a7708c89,2025_05_22,43.30777778,-2.239444444,Roca Puta,2,0.46,0.76,17,17,BRIEF_SHOWERS_POSSIBLE,Onshore,1
5842041f4e65fad6a7708c8b,2025_05_22,47.84083333,-4.35083,La Torche,1,0.57333,0.91512,16,16,CLEAR,Cross-shore,1
5842041f4e65fad6a7708c8c,2025_05_22,43.41611111,-1.62833,Lafitenia,1,0.77184,1.10742,17,17,LIGHT_SHOWERS_POSSIBLE,Onshore,1
5842041f4e65fad6a7708c8d,2025_05_22,45.00222222,-1.2025,Lacanau,2,0.80664,1.13366,17,17,CLEAR,Cross-shore,1
5842041f4e65fad6a7708c8e,2025_05_22,43.66388889,-1.44389,La Graviere,2,1.08229,1.51802,18,18,BRIEF_SHOWERS_POSSIBLE,Cross-shore,1
5842041f4e65fad6a7708c8f,2025_05_22,43.5225,-1.52583,Les Cavaliers,1,0.7522,1.07924,18,18,BRIEF_SHOWERS_POSSIBLE,Onshore,1
5842041f4e65fad6a7708c90,2025_05_22,53.01055556,-9.400277778,Doolin Point,2,0.44281,0.69189,15,15,CLEAR,Onshore,1
5842041f4e65fad6a7708c91,2025_05_22,53.01583333,-9.413055556,Crab Island,2,0.44281,0.69189,15,15,CLEAR,Onshore,1
5842041f4e65fad6a7708c92,2025_05_22,52.1425,-9.993055556,Inch Reef,2,0.24349,0.54542,15,15,CLEAR,Offshore,1
5842041f4e65fad6a7708c93,2025_05_22,50.32127176553899,-5.20277738571167,Trevaunance Cove,2,0.27882,0.63896,14,14,CLEAR,Onshore,1
5842041f4e65fad6a7708c94,2025_05_22,50.34833333,-5.15889,Perranporth,1,0.35918,0.70677,13,13,CLEAR,Onshore,1
5842041f4e65fad6a7708c95,2025_05_22,50.224940120492306,-5.39939,Gwithian,1,0.33024,0.56612,13,13,CLEAR,Onshore,1
5842041f4e65fad6a7708c96,2025_05_22,50.2166643894,-5.48326,Porthmeor,1,0.24068,0.48939,14,14,CLEAR,Onshore,1
