_id,date,lat,lon,name,daily_mean_swell_rating,daily_mean_wave_height_min,daily_mean_wave_height_max,daily_mean_water_temperature_max,daily_mean_water_temperature_min,weather_per_timestamp,wind_per_timestamp,n_samples_per_day
5842041f4e65fad6a77087f9,2025_06_27,37.741668,-122.51038,South Ocean Beach,2,0.95634,1.27283,12,12,"NIGHT_BRIEF_SHOWERS,MIST,MIST","Onshore,Onshore,Onshore",3
5842041f4e65fad6a7708801,2025_06_27,37.49142,-122.50428,Maverick's,NA,1.33,1.6066666666666667,12.333333333333334,12.333333333333334,"NIGHT_BRIEF_SHOWERS,MIST,MIST","Cross-shore,Onshore,Onshore",3
5842041f4e65fad6a7708804,2025_06_27,44.997,-124.018,Roads End,3,0.5733333333333334,0.8733333333333334,15,15,"NIGHT_MIST,MOSTLY_CLOUDY,MIST","Offshore,Cross-shore,Onshore",3
5842041f4e65fad6a7708805,2025_06_27,36.95188851423011,-122.02522,Steamer Lane,3,0.7242233333333333,1.0676666666666665,12,12,"NIGHT_CLEAR,MOSTLY_CLOUDY,CLEAR","Onshore,Onshore,Cross-shore",3
5842041f4e65fad6a7708806,2025_06_27,36.95918781542251,-122.02489,Cowells,1,0,0.18813666666666667,13,13,"NIGHT_CLEAR,MOSTLY_CLOUDY,CLEAR","Onshore,Onshore,Onshore",3
5842041f4e65fad6a7708807,2025_06_27,36.95468082526536,-121.97234,Pleasure Point,3,0.7166366666666667,1.0320933333333333,13,13,"NIGHT_CLEAR,BRIEF_SHOWERS,CLEAR","Offshore,Onshore,Cross-shore",3
5842041f4e65fad6a770880a,2025_06_27,35.37815414378748,-120.86589,Morro Bay,2.944444444444444,0.9033333333333333,1.1533333333333333,12,12,"NIGHT_MOSTLY_CLOUDY,MOSTLY_CLOUDY,BRIEF_SHOWERS","Onshore,Offshore,Onshore",3
5842041f4e65fad6a770880b,2025_06_27,36.95782765000708,-121.96729,Jack's,2,0.20410666666666666,0.4917,13,13,"NIGHT_CLEAR,BRIEF_SHOWERS,CLEAR","Onshore,Onshore,Cross-shore",3
5842041f4e65fad6a770880d,2025_06_27,34.29982939936656,-119.3489016603669,Gold Coast Beachbreaks,2,0.2533333333333333,0.56,18,18,"NIGHT_CLEAR,MIST,MOSTLY_CLEAR","Offshore,Offshore,Onshore",3
5842041f4e65fad6a7708811,2025_06_27,34.245076,-119.26799,Ventura Harbor,2.9444444444444446,0.7231933333333334,1.04382,17,17,"NIGHT_CLEAR,MOSTLY_CLOUDY,MOSTLY_CLEAR","Cross-shore,Offshore,Onshore",3
5842041f4e65fad6a7708813,2025_06_27,34.051,-118.964,County Line,2.6666666666666665,0.5999633333333333,0.9252466666666667,18,18,"NIGHT_MIST,MIST,MOSTLY_CLOUDY","Cross-shore,Cross-shore,Onshore",3
5842041f4e65fad6a7708814,2025_06_27,34.37256264378892,-119.47797,Rincon,2,0.09000000000000001,0.39,18,18,"NIGHT_MIST,MOSTLY_CLOUDY,MIST","Onshore,Cross-shore,Onshore",3
5842041f4e65fad6a7708817,2025_06_27,34.03096101876324,-118.68109,Malibu Third Point,3,0.4339133333333333,0.7611266666666666,19.333333333333332,19.333333333333332,"NIGHT_MIST,MOSTLY_CLOUDY,MOSTLY_CLEAR","Onshore,Onshore,Onshore",3
5842041f4e65fad6a7708819,2025_06_27,33.984079047970035,-118.47382,Venice Beach,2.6666666666666665,0.5746,0.88218,19.333333333333332,19.333333333333332,"NIGHT_MIST,MOSTLY_CLOUDY,BRIEF_SHOWERS","Onshore,Onshore,Onshore",3
5842041f4e65fad6a770881e,2025_06_27,34.037508438646746,-118.5834,Topanga Beach,3,0.47974333333333335,0.79957,19.333333333333332,19.333333333333332,"NIGHT_MOSTLY_CLOUDY,MOSTLY_CLOUDY,MOSTLY_CLEAR","Offshore,Offshore,Onshore",3
5842041f4e65fad6a7708820,2025_06_27,33.73954373690184,-118.11414,Seal Beach Jetty,1.6666666666666667,0.13162000000000001,0.48390666666666665,19.333333333333332,19.333333333333332,"NIGHT_MOSTLY_CLOUDY,OVERCAST,MOSTLY_CLEAR","Onshore,Cross-shore,Onshore",3
5842041f4e65fad6a7708822,2025_06_27,33.72309983348433,-118.08078,Anderson Street,2.3333333333333335,0.507,0.777,19.333333333333332,19.333333333333332,"NIGHT_MOSTLY_CLOUDY,OVERCAST,CLEAR","Onshore,Onshore,Onshore",3
5842041f4e65fad6a7708827,2025_06_27,33.65574085629463,-118.00397,Huntington Beach Pier Northside,3,0.73749,1.07613,19.333333333333332,19.333333333333332,"NIGHT_MOSTLY_CLOUDY,OVERCAST,MOSTLY_CLEAR","Onshore,Onshore,Cross-shore",3
5842041f4e65fad6a7708828,2025_06_27,34.272041739333,-119.29976,C St.,2.6666666666666665,0.46551333333333333,0.76175,18,18,"NIGHT_MOSTLY_CLEAR,MOSTLY_CLOUDY,MIST","Offshore,Cross-shore,Onshore",3
5842041f4e65fad6a770882a,2025_06_27,33.61555743705257,-117.93676,Newport Lower Jetties,2.6666666666666665,0.48765000000000003,0.83984,19.333333333333332,19.333333333333332,"NIGHT_MOSTLY_CLOUDY,OVERCAST,MOSTLY_CLEAR","Cross-shore,Onshore,Cross-shore",3
5842041f4e65fad6a770882b,2025_06_27,33.5930302087,-117.88199,The Wedge,3,1.11157,1.4059133333333333,19.333333333333332,19.333333333333332,"NIGHT_MOSTLY_CLOUDY,OVERCAST,MOSTLY_CLEAR","Onshore,Cross-shore,Onshore",3
5842041f4e65fad6a770882e,2025_06_27,33.475793399792984,-117.72291,Salt Creek,3,0.7419600000000001,1.08795,21,21,"NIGHT_OVERCAST,MIST,MIST","Onshore,Onshore,Onshore",3
5842041f4e65fad6a7708830,2025_06_27,33.41800974113613,-117.61952,T-Street,2.6666666666666665,0.68209,1.0346333333333333,19.333333333333332,19.333333333333332,"NIGHT_MOSTLY_CLOUDY,MIST,MIST","Cross-shore,Onshore,Onshore",3
5842041f4e65fad6a7708832,2025_06_27,33.202391008646,-117.39475,Oceanside Harbor,3,0.80794,1.1755499999999999,21,21,"NIGHT_OVERCAST,MIST,MIST","Onshore,Onshore,Onshore",3
5842041f4e65fad6a7708835,2025_06_27,33.19477795952803,-117.38667,Oceanside Pier,3,0.6007133333333333,0.9682566666666667,19.333333333333332,19.333333333333332,"NIGHT_OVERCAST,OVERCAST,MOSTLY_CLEAR","Onshore,Onshore,Onshore",3
5842041f4e65fad6a7708837,2025_06_27,33.14948100706,-117.35029,Tamarack,3,0.8533333333333334,1.0766666666666667,19.333333333333332,19.333333333333332,"NIGHT_OVERCAST,MIST,MIST","Onshore,Offshore,Onshore",3
5842041f4e65fad6a7708839,2025_06_27,32.865777159358856,-117.25614,Scripps,2.6666666666666665,0.5769266666666667,0.9101866666666667,19.333333333333332,19.333333333333332,"NIGHT_MIST,MIST,BRIEF_SHOWERS","Onshore,Onshore,Onshore",3
5842041f4e65fad6a770883a,2025_06_27,32.813094,-117.27381,Birdrock,3,0.6061466666666666,0.9397066666666667,19.333333333333332,19.333333333333332,"NIGHT_MOSTLY_CLOUDY,OVERCAST,CLEAR","Onshore,Onshore,Onshore",3
5842041f4e65fad6a770883b,2025_06_27,32.88338,-117.25571,Blacks,3,0.9506733333333334,1.1956566666666668,21,21,"NIGHT_MIST,MIST,BRIEF_SHOWERS","Onshore,Onshore,Onshore",3
5842041f4e65fad6a770883c,2025_06_27,32.82978974229765,-117.28162,Windansea,3,0.7246233333333334,1.1099733333333335,20,20,"NIGHT_MOSTLY_CLOUDY,OVERCAST,MOSTLY_CLOUDY","Onshore,Onshore,Onshore",3
5842041f4e65fad6a770883d,2025_06_27,32.838278,-117.28396,Horseshoe,3,0.7333333333333333,1.0633333333333332,19.333333333333332,19.333333333333332,"NIGHT_MOSTLY_CLOUDY,OVERCAST,MOSTLY_CLOUDY","Onshore,Onshore,Onshore",3
5842041f4e65fad6a770883f,2025_06_27,32.75034717673179,-117.25337,Ocean Beach,2.9444444444444446,0.7527466666666667,1.08252,20,20,"NIGHT_MIST,MIST,BRIEF_SHOWERS","Onshore,Cross-shore,Onshore",3
5842041f4e65fad6a7708840,2025_06_27,32.73693,-117.25718,Sunset Cliffs,2,0.559,0.8886666666666667,19.333333333333332,19.333333333333332,"NIGHT_OVERCAST,OVERCAST,MOSTLY_CLOUDY","Onshore,Cross-shore,Onshore",3
5842041f4e65fad6a7708841,2025_06_27,32.796582258728826,-117.25779,Pacific Beach,3,0.66791,0.9796,19.333333333333332,19.333333333333332,"NIGHT_MIST,MIST,MIST","Onshore,Onshore,Onshore",3
5842041f4e65fad6a7708842,2025_06_27,32.776636,-117.25514,Mission Beach,3,0.6452266666666667,0.9678399999999999,19.333333333333332,19.333333333333332,"NIGHT_MIST,MIST,MIST","Onshore,Onshore,Onshore",3
5842041f4e65fad6a7708844,2025_06_27,32.577195519016,-117.13475,Imperial Beach Pier,3,0.7766666666666666,1.0433333333333334,19.333333333333332,19.333333333333332,"NIGHT_MOSTLY_CLOUDY,MIST,MOSTLY_CLOUDY","Onshore,Onshore,Onshore",3
5842041f4e65fad6a770884a,2025_06_27,42.88678181061,-70.80843,Seabrook,1.3333333333333333,0.055626666666666665,0.42512,14.666666666666666,14.666666666666666,"NIGHT_MOSTLY_CLEAR,CLEAR,MIST","Cross-shore,Onshore,Onshore",3
5842041f4e65fad6a770884e,2025_06_27,41.434181432898335,-71.45312,Narragansett,1,0.19,0.49333333333333335,19,18,"NIGHT_OVERCAST,CLEAR,MOSTLY_CLEAR","Onshore,Cross-shore,Onshore",3
5842041f4e65fad6a7708850,2025_06_27,40.582703230722,-73.65247,Lincoln Blvd,1.7777777777777777,0.35284,0.6586333333333333,21,20,"NIGHT_MOSTLY_CLOUDY,OVERCAST,MOSTLY_CLEAR","Offshore,Offshore,Cross-shore",3
5842041f4e65fad6a7708852,2025_06_27,40.58342841721757,-73.81182,Rockaways,1.3888888888888888,0.50287,0.82867,21,20,"NIGHT_MOSTLY_CLOUDY,OVERCAST,CLEAR","Offshore,Cross-shore,Cross-shore",3
5842041f4e65fad6a7708853,2025_06_27,40.330474,-73.9734,Monmouth Beach,1,0.7386666666666667,1.0108066666666666,18,17,"NIGHT_MOSTLY_CLOUDY,MOSTLY_CLOUDY,OVERCAST","Onshore,Onshore,Onshore",3
5842041f4e65fad6a7708856,2025_06_27,40.113,-74.028,Manasquan Inlet,1,0.7363366666666666,1.0671566666666668,18,17,"NIGHT_OVERCAST,MOSTLY_CLOUDY,OVERCAST","Onshore,Onshore,Onshore",3
5842041f4e65fad6a7708857,2025_06_27,39.941519877445664,-74.06829,Casino Pier,1,0.8297966666666666,1.1898966666666666,18,17,"NIGHT_CLOUDY,CLOUDY,CLOUDY","Onshore,Onshore,Onshore",3
5842041f4e65fad6a7708858,2025_06_27,39.28223089949212,-74.55766,North End OC,1.5,0.56208,0.8793266666666667,19,18,"NIGHT_OVERCAST,CLOUDY,OVERCAST","Cross-shore,Cross-shore,Onshore",3
5842041f4e65fad6a770885b,2025_06_27,39.65080599934257,-74.17146,Ship Bottom,1,0.7166666666666667,1.02,19,18,"NIGHT_OVERCAST,OVERCAST,OVERCAST","Cross-shore,Cross-shore,Onshore",3
5842041f4e65fad6a7708863,2025_06_27,36.034151543144,-75.66791,Third Street,1.6111111111111112,0.09012333333333333,0.45061666666666667,27,27,"NIGHT_CLEAR,CLEAR,CLEAR","Offshore,Offshore,Cross-shore",3
5842041f4e65fad6a7708867,2025_06_27,35.605833221351425,-75.46303,S-Turns,1.5555555555555556,0.34968,0.68448,27,25,"NIGHT_CLEAR,CLEAR,CLEAR","Offshore,Offshore,Offshore",3
5842041f4e65fad6a770886d,2025_06_27,38.338461,-75.08117,Ocean City Boardwalk,0.8333333333333334,0.6633966666666666,0.9845066666666666,24,24,"NIGHT_CLOUDY,OVERCAST,MOSTLY_CLOUDY","Onshore,Onshore,Onshore",3
5842041f4e65fad6a770886f,2025_06_27,29.844757212379562,-81.26136,A St.,2,0.21,0.51,27,27,"NIGHT_CLEAR,MOSTLY_CLEAR,CLEAR","Cross-shore,Onshore,Onshore",3
5842041f4e65fad6a7708871,2025_06_27,29.069417851135093,-80.90824,New Smyrna Beach,1.6666666666666667,0.44519333333333333,0.7944366666666667,27,27,"NIGHT_CLEAR,CLEAR,CLEAR","Cross-shore,Offshore,Cross-shore",3
5842041f4e65fad6a7708872,2025_06_27,28.367707417566,-80.60171,Cocoa Beach Pier,1,0.18327333333333332,0.50753,27,27,"NIGHT_MOSTLY_CLOUDY,CLEAR,CLEAR","Onshore,Cross-shore,Onshore",3
5842041f4e65fad6a7708873,2025_06_27,28.091782738658846,-80.56479,Indialantic,1.3333333333333333,0.17324,0.5123433333333334,27,27,"NIGHT_CLEAR,CLEAR,MOSTLY_CLEAR","Cross-shore,Cross-shore,Onshore",3
5842041f4e65fad6a7708876,2025_06_27,27.25392904143517,-80.19455,Jensen Beach,1.1666666666666667,0.00723,0.29641,28,28,"NIGHT_FOG,CLEAR,CLEAR","Cross-shore,Offshore,Onshore",3
5842041f4e65fad6a7708879,2025_06_27,26.76346795333825,-80.03607,Reef Road,0.5,0.023333333333333334,0.32666666666666666,28,27,"NIGHT_DRIZZLE,CLEAR,CLEAR","Onshore,Onshore,Onshore",3
5842041f4e65fad6a770887c,2025_06_27,26.336499228484,-80.06956100463,Boca Raton Inlet,0,0.1054,0.27303,28,27,"NIGHT_CLEAR,CLEAR,CLEAR","Onshore,Onshore,Onshore",3
5842041f4e65fad6a770887d,2025_06_27,26.31719311695038,-80.07453,Deerfield Beach Pier,-0.16666666666666666,0.10749666666666666,0.2856033333333333,28,27,"NIGHT_LIGHT_SHOWERS_POSSIBLE,CLEAR,CLEAR","Onshore,Onshore,Onshore",3
5842041f4e65fad6a7708881,2025_06_27,30.20276320866628,-85.85626528676136,"Spyglass Dr., Panama City",0,0,0.11049,29.666666666666668,29.666666666666668,"NIGHT_CLEAR,CLEAR,MOSTLY_CLEAR","Offshore,Offshore,Onshore",3
5842041f4e65fad6a7708884,2025_06_27,33.39000832738053,-117.59852,Cottons,3.3333333333333335,1.0490133333333334,1.3151233333333334,21,21,"NIGHT_MOSTLY_CLOUDY,MIST,MOSTLY_CLEAR","Onshore,Onshore,Onshore",3
5842041f4e65fad6a7708885,2025_06_27,33.359416282661,-117.54168,Trails,3,0.5450666666666667,0.9032533333333334,19.333333333333332,19.333333333333332,"NIGHT_MOSTLY_CLOUDY,MIST,MOSTLY_CLEAR","Offshore,Offshore,Onshore",3
5842041f4e65fad6a7708886,2025_06_27,33.38042605929805,-117.58332,Middles,3.3333333333333335,0.9873066666666667,1.23799,19.333333333333332,19.333333333333332,"NIGHT_MOSTLY_CLOUDY,MIST,MOSTLY_CLEAR","Onshore,Onshore,Onshore",3
5842041f4e65fad6a7708887,2025_06_27,33.38445596302903,-117.59445,Upper Trestles,3.3333333333333335,1.0549866666666667,1.2599066666666667,21,21,"NIGHT_MOSTLY_CLOUDY,MIST,MOSTLY_CLEAR","Onshore,Onshore,Onshore",3
5842041f4e65fad6a7708889,2025_06_27,28.944414,-95.28883,Surfside,1.3333333333333333,0.26104666666666665,0.6156066666666666,29,29,"NIGHT_MOSTLY_CLOUDY,CLOUDY,MOSTLY_CLEAR","Onshore,Onshore,Onshore",3
5842041f4e65fad6a770888a,2025_06_27,33.38143999849023,-117.58843,Lower Trestles,3.0555555555555554,1.16296,1.3878,21,21,"NIGHT_MOSTLY_CLOUDY,MIST,MOSTLY_CLEAR","Offshore,Offshore,Onshore",3
5842041f4e65fad6a770888b,2025_06_27,33.379622288757,-117.57894,Church,3.3333333333333335,1.0869766666666667,1.36721,21,21,"NIGHT_MOSTLY_CLOUDY,MIST,MOSTLY_CLEAR","Onshore,Onshore,Onshore",3
5842041f4e65fad6a770888d,2025_06_27,21.679,-158.042,Sunset Beach,1.722222222222222,0.15559333333333333,0.4773833333333333,26,25,"NIGHT_CLEAR,NIGHT_MOSTLY_CLOUDY,CLEAR","Cross-shore,Offshore,Cross-shore",3
5842041f4e65fad6a770888e,2025_06_27,21.670550036401,-158.0482,Rocky Point,1.722222222222222,0.19362000000000001,0.51749,26,25,"NIGHT_CLEAR,NIGHT_LIGHT_SHOWERS_POSSIBLE,CLEAR","Cross-shore,Offshore,Cross-shore",3
5842041f4e65fad6a770888f,2025_06_27,21.668,-158.05,Chambers,2,0.32395999999999997,0.6479199999999999,26,26,"NIGHT_CLEAR,NIGHT_LIGHT_SHOWERS_POSSIBLE,CLEAR","Cross-shore,Offshore,Cross-shore",3
5842041f4e65fad6a7708890,2025_06_27,21.66522,-158.0526,Pipeline,1,0,0.2566666666666667,26,25,"NIGHT_CLEAR,NIGHT_LIGHT_SHOWERS_POSSIBLE,CLEAR","Cross-shore,Offshore,Cross-shore",3
5842041f4e65fad6a7708891,2025_06_27,21.665,-158.054,Backdoor,1,0,0.27081333333333335,26,25,"NIGHT_CLEAR,NIGHT_LIGHT_SHOWERS_POSSIBLE,CLEAR","Cross-shore,Offshore,Cross-shore",3
5842041f4e65fad6a7708892,2025_06_27,21.662,-158.057,Rockpile,2,0.30653,0.6306766666666667,26,26,"NIGHT_CLEAR,NIGHT_LIGHT_SHOWERS_POSSIBLE,CLEAR","Cross-shore,Offshore,Cross-shore",3
5842041f4e65fad6a7708893,2025_06_27,21.65870453806827,-158.06058,Log Cabins,1.6666666666666667,0.05984,0.38016,26,26,"NIGHT_CLEAR,NIGHT_LIGHT_SHOWERS_POSSIBLE,CLEAR","Cross-shore,Offshore,Cross-shore",3
5842041f4e65fad6a7708894,2025_06_27,21.66203493640557,-158.05495,Off The Wall,2,0.028480000000000002,0.34888,26,26,"NIGHT_CLEAR,NIGHT_LIGHT_SHOWERS_POSSIBLE,CLEAR","Cross-shore,Offshore,Cross-shore",3
5842041f4e65fad6a7708895,2025_06_27,21.643,-158.067,Waimea Bay,NA,0.03333333333333333,0.33666666666666667,26,25,"NIGHT_CLEAR,NIGHT_LIGHT_SHOWERS_POSSIBLE,CLEAR","Cross-shore,Offshore,Cross-shore",3
5842041f4e65fad6a7708896,2025_06_27,21.622,-158.087,Hultin's,1,0.08597333333333333,0.3901866666666667,26,25,"NIGHT_CLEAR,NIGHT_CLEAR,CLEAR","Offshore,Offshore,Offshore",3
5842041f4e65fad6a7708897,2025_06_27,21.623,-158.085,Jocko's,1.6666666666666667,0.02648,0.32769,26,26,"NIGHT_CLEAR,NIGHT_CLEAR,CLEAR","Onshore,Cross-shore,Cross-shore",3
5842041f4e65fad6a7708898,2025_06_27,21.62,-158.088,Laniakea,1.722222222222222,0.31418999999999997,0.63897,26,25,"NIGHT_CLEAR,NIGHT_CLEAR,CLEAR","Cross-shore,Offshore,Offshore",3
5842041f4e65fad6a7708899,2025_06_27,21.625,-158.083,Chun's,1,0.24892999999999998,0.56606,26,26,"NIGHT_CLEAR,NIGHT_CLEAR,CLEAR","Offshore,Offshore,Offshore",3
5842041f4e65fad6a770889c,2025_06_27,21.286357895152136,-157.8515,Ala Moana Beach Park,3,0.6432,0.9719466666666667,26,26,"NIGHT_CLEAR,NIGHT_CLEAR,CLEAR","Offshore,Offshore,Offshore",3
5842041f4e65fad6a770889d,2025_06_27,19.606,-155.978,Banyans,2.0555555555555554,0.41333333333333333,0.7166666666666667,26,25,"NIGHT_MOSTLY_CLEAR,NIGHT_CLEAR,CLEAR","Cross-shore,Offshore,Onshore",3
5842041f4e65fad6a770889e,2025_06_27,20.029,-155.831,Kawaihae,2,0.4444,0.6452466666666666,26,26,"NIGHT_CLEAR,NIGHT_CLEAR,CLEAR","Cross-shore,Offshore,Offshore",3
5842041f4e65fad6a770889f,2025_06_27,33.07541383424675,-117.3105,Grandview,3,0.5187666666666666,0.8208333333333333,19.333333333333332,19.333333333333332,"NIGHT_MIST,MIST,MIST","Onshore,Onshore,Onshore",3
5842041f4e65fad6a77088a0,2025_06_27,33.065267421296596,-117.30577,Beacons,3,0.52205,0.8208333333333333,19.333333333333332,19.333333333333332,"NIGHT_MIST,MIST,MIST","Onshore,Onshore,Onshore",3
5842041f4e65fad6a77088a2,2025_06_27,21.252,-157.805,Diamond Head,3,0.77024,1.0884966666666667,26,25,"NIGHT_MOSTLY_CLEAR,NIGHT_CLEAR,MOSTLY_CLEAR","Cross-shore,Cross-shore,Cross-shore",3
5842041f4e65fad6a77088a3,2025_06_27,33.04694255008896,-117.29966,Moonlight State Beach,2.6666666666666665,0.5386666666666666,0.8484,19.333333333333332,19.333333333333332,"NIGHT_MIST,MIST,MIST","Onshore,Onshore,Onshore",3
5842041f4e65fad6a77088a5,2025_06_27,33.08685865930869,-117.31532,Ponto,3,0.77,1.0333333333333334,19.333333333333332,19.333333333333332,"NIGHT_MIST,MIST,MIST","Onshore,Onshore,Onshore",3
5842041f4e65fad6a77088a6,2025_06_27,33.130343587871906,-117.33668,Terramar Point,2.611111111111111,0.3833333333333333,0.6900000000000001,21,21,"NIGHT_MOSTLY_CLOUDY,OVERCAST,CLEAR","Onshore,Offshore,Onshore",3
5842041f4e65fad6a77088af,2025_06_27,32.95916304183685,-117.26963,Del Mar,3,0.6582,0.9946133333333333,19.333333333333332,19.333333333333332,"NIGHT_MIST,MIST,MIST","Onshore,Onshore,Onshore",3
5842041f4e65fad6a77088b0,2025_06_27,32.97527261243354,-117.2721061331305,Del Mar Rivermouth,3,0.5945199999999999,0.92204,19.333333333333332,19.333333333333332,"NIGHT_MIST,MIST,MIST","Onshore,Onshore,Onshore",3
5842041f4e65fad6a77088b1,2025_06_27,33.01352178146273,-117.28219,Cardiff Reef,3,0.61814,0.9487766666666666,19.333333333333332,19.333333333333332,"NIGHT_MIST,MIST,MOSTLY_CLOUDY","Onshore,Offshore,Onshore",3
5842041f4e65fad6a77088b3,2025_06_27,33.00211185876003,-117.2811,Seaside Reef,3,0.6361233333333334,0.9761233333333333,19.333333333333332,19.333333333333332,"NIGHT_MIST,MIST,MOSTLY_CLOUDY","Onshore,Offshore,Onshore",3
5842041f4e65fad6a77088b4,2025_06_27,33.0341859796287,-117.29552,Swami's,3,0.6301366666666667,0.9353666666666667,21,21,"NIGHT_MIST,MIST,MOSTLY_CLOUDY","Onshore,Onshore,Onshore",3
5842041f4e65fad6a77088b7,2025_06_27,33.04569760260221,-117.2994,D Street,3,0.5959,0.9056333333333334,19.333333333333332,19.333333333333332,"NIGHT_MIST,MIST,MIST","Onshore,Onshore,Onshore",3
5842041f4e65fad6a77088b8,2025_06_27,33.02090944350196,-117.28535,San Elijo State Beach,2.6666666666666665,0.416,0.7349333333333333,19.333333333333332,19.333333333333332,"NIGHT_MIST,MIST,MOSTLY_CLOUDY","Onshore,Offshore,Onshore",3
5842041f4e65fad6a77088c2,2025_06_27,32.80662846492798,-117.26888,PB Point,2.6666666666666665,0.60502,0.93438,19.333333333333332,19.333333333333332,"NIGHT_MOSTLY_CLOUDY,OVERCAST,CLEAR","Cross-shore,Cross-shore,Cross-shore",3
5842041f4e65fad6a77088c4,2025_06_27,32.8060476681448,-117.26479,Old Man's at Tourmaline,2.6666666666666665,0.53203,0.8147633333333333,19.333333333333332,19.333333333333332,"NIGHT_MOSTLY_CLOUDY,OVERCAST,CLEAR","Cross-shore,Cross-shore,Cross-shore",3
5842041f4e65fad6a77088cb,2025_06_27,32.557056711256,-117.1327445020322,Tijuana Slough,2.6666666666666665,0.45,0.7533333333333333,19.333333333333332,19.333333333333332,"NIGHT_MIST,OVERCAST,MOSTLY_CLOUDY","Onshore,Onshore,Onshore",3
5842041f4e65fad6a77088cc,2025_06_27,32.863,-117.257,La Jolla Shores,2.6666666666666665,0.4964,0.82855,19.333333333333332,19.333333333333332,"NIGHT_MIST,MIST,BRIEF_SHOWERS","Onshore,Onshore,Onshore",3
5842041f4e65fad6a77088ce,2025_06_27,32.67443657790586,-117.17421,Coronado Beach,3,0.9233333333333333,1.1066666666666667,19.333333333333332,19.333333333333332,"NIGHT_MOSTLY_CLOUDY,MIST,CLEAR","Cross-shore,Cross-shore,Cross-shore",3
5842041f4e65fad6a77088cf,2025_06_27,33.40484417640326,-117.60749,San Clemente State Beach,2.6666666666666665,0.48514,0.8327600000000001,19.333333333333332,19.333333333333332,"NIGHT_MOSTLY_CLOUDY,MIST,MOSTLY_CLEAR","Cross-shore,Onshore,Onshore",3
5842041f4e65fad6a77088d5,2025_06_27,33.4663042002114,-117.71684,Strands,3,0.6568466666666667,1.0105333333333335,21,21,"NIGHT_OVERCAST,MIST,MIST","Onshore,Onshore,Onshore",3
5842041f4e65fad6a77088d7,2025_06_27,33.4609858001748,-117.68535,Doheny State Beach,2.3333333333333335,0.24003333333333332,0.6020466666666666,19.333333333333332,19.333333333333332,"NIGHT_MOSTLY_CLOUDY,OVERCAST,MOSTLY_CLEAR","Offshore,Onshore,Cross-shore",3
5842041f4e65fad6a77088dc,2025_06_27,33.50894790083017,-117.75243,Aliso Creek,3,0.6610533333333334,1.0184833333333334,19.333333333333332,19.333333333333332,"NIGHT_MOSTLY_CLOUDY,MIST,BRIEF_SHOWERS","Onshore,Cross-shore,Onshore",3
5842041f4e65fad6a77088dd,2025_06_27,33.5326591767067,-117.77764,Brooks Street,2.3333333333333335,0.4,0.7,19.333333333333332,19.333333333333332,"NIGHT_MOSTLY_CLOUDY,MIST,MIST","Onshore,Cross-shore,Onshore",3
5842041f4e65fad6a77088de,2025_06_27,33.53561225884637,-117.7799,Thalia Street,2.6666666666666665,0.35000000000000003,0.6533333333333333,19.333333333333332,19.333333333333332,"NIGHT_MOSTLY_CLOUDY,MIST,MIST","Onshore,Cross-shore,Onshore",3
5842041f4e65fad6a77088e3,2025_06_27,33.54268310353641,-117.7916,Rockpile,3,0.4,0.7,19.333333333333332,19.333333333333332,"NIGHT_MOSTLY_CLOUDY,MIST,MIST","Onshore,Cross-shore,Onshore",3
5842041f4e65fad6a77088e4,2025_06_27,33.7368459504689,-118.10342,"Seal Beach Pier, Southside",2.3333333333333335,0.23666666666666666,0.5433333333333333,19.333333333333332,19.333333333333332,"NIGHT_MIST,OVERCAST,MIST","Onshore,Onshore,Onshore",3
5842041f4e65fad6a77088e5,2025_06_27,33.73933701820233,-118.117,Ray Bay,2.3333333333333335,0.36666666666666664,0.67,19.333333333333332,19.333333333333332,"NIGHT_MOSTLY_CLOUDY,OVERCAST,MOSTLY_CLEAR","Onshore,Onshore,Onshore",3
5842041f4e65fad6a77088e7,2025_06_27,33.728733,-118.08982,Surfside,2.3333333333333335,0.5633333333333334,0.8633333333333333,19.333333333333332,19.333333333333332,"NIGHT_MOSTLY_CLOUDY,OVERCAST,CLEAR","Onshore,Onshore,Onshore",3
5842041f4e65fad6a77088e8,2025_06_27,33.68760321488161,-118.04236,Bolsa Chica State Beach,2.6666666666666665,0.5594,0.85731,19.333333333333332,19.333333333333332,"NIGHT_MOSTLY_CLOUDY,OVERCAST,MOSTLY_CLEAR","Cross-shore,Onshore,Onshore",3
5842041f4e65fad6a77088ea,2025_06_27,33.66704400178788,-118.0192,North HB Streets,3,0.7087166666666667,1.0279866666666666,19.333333333333332,19.333333333333332,"NIGHT_MOSTLY_CLOUDY,OVERCAST,MOSTLY_CLEAR","Onshore,Onshore,Cross-shore",3
5842041f4e65fad6a77088ed,2025_06_27,33.65475101379567,-118.00291,Huntington Beach Pier Southside,3.2777777777777777,0.8510066666666667,1.2128833333333333,21,21,"NIGHT_MOSTLY_CLOUDY,OVERCAST,MOSTLY_CLEAR","Onshore,Onshore,Cross-shore",3
5842041f4e65fad6a77088ee,2025_06_27,33.62778647706099,-117.95939,River Jetties,2.6666666666666665,0.7333466666666667,1.0653566666666667,21,21,"NIGHT_MOSTLY_CLOUDY,OVERCAST,MOSTLY_CLEAR","Onshore,Offshore,Onshore",3
5842041f4e65fad6a77088f2,2025_06_27,33.605165797643664,-117.925,Newport Point,2.6666666666666665,0.34844,0.6931333333333334,19.333333333333332,19.333333333333332,"NIGHT_OVERCAST,MIST,MOSTLY_CLOUDY","Cross-shore,Onshore,Cross-shore",3
5842041f4e65fad6a77088f3,2025_06_27,33.58982984726977,-117.87713,Corona del Mar,2.6666666666666665,0.42252666666666666,0.7411533333333333,19.333333333333332,19.333333333333332,"NIGHT_MOSTLY_CLOUDY,OVERCAST,MIST","Onshore,Cross-shore,Onshore",3
5842041f4e65fad6a77088f7,2025_06_27,34.00750300824362,-118.49718,Santa Monica Pier,2.3333333333333335,0.33124,0.6422,19.333333333333332,19.333333333333332,"NIGHT_CLEAR,MOSTLY_CLOUDY,CLEAR","Onshore,Onshore,Onshore",3
5842041f4e65fad6a77088ff,2025_06_27,33.94070283102945,-118.44321,Dockweiler Beach,2.388888888888889,0.6236533333333333,0.9389066666666667,17,17,"NIGHT_MIST,OVERCAST,MIST","Onshore,Onshore,Onshore",3
5842041f4e65fad6a7708900,2025_06_27,33.9231846937237,-118.4341465777908,Shitpipe,2.7222222222222223,0.7367333333333334,1.04856,17,17,"NIGHT_MIST,OVERCAST,MIST","Onshore,Onshore,Onshore",3
5842041f4e65fad6a7708902,2025_06_27,33.9108528052242,-118.4279133138721,Hammerland,2.7222222222222223,0.7281333333333333,1.03632,20,20,"NIGHT_MIST,OVERCAST,MIST","Onshore,Onshore,Onshore",3
5842041f4e65fad6a7708904,2025_06_27,33.87201368173932,-118.40752,Hermosa Beach,2.6666666666666665,0.5751666666666667,0.8864333333333333,19.333333333333332,19.333333333333332,"NIGHT_MIST,CLOUDY,MIST","Onshore,Onshore,Onshore",3
5842041f4e65fad6a7708906,2025_06_27,33.90129336911256,-118.42184,El Porto,2.7222222222222223,0.7368033333333333,1.0452333333333332,20,20,"NIGHT_MIST,MIST,MIST","Onshore,Onshore,Onshore",3
5842041f4e65fad6a7708907,2025_06_27,33.87963506431794,-118.41102,Manhattan Beach Pier,3,0.6960833333333334,1.0088166666666667,19.333333333333332,19.333333333333332,"NIGHT_MIST,MIST,MIST","Onshore,Onshore,Onshore",3
5842041f4e65fad6a7708914,2025_06_27,34.038053387863464,-118.5532,Sunset Point,2.3333333333333335,0.27716,0.6005133333333333,19.333333333333332,19.333333333333332,"NIGHT_CLEAR,CLEAR,MIST","Offshore,Offshore,Onshore",3
5842041f4e65fad6a7708920,2025_06_27,33.80282,-118.39989,Haggerty's,2.3333333333333335,0.30284,0.5494,19.333333333333332,19.333333333333332,"NIGHT_MOSTLY_CLOUDY,MIST,MIST","Cross-shore,Onshore,Cross-shore",3
5842041f4e65fad6a7708921,2025_06_27,33.85044519861206,-118.40048,Redondo Breakwater,2.6666666666666665,0.4536,0.7627200000000001,19.333333333333332,19.333333333333332,"NIGHT_MIST,CLOUDY,MIST","Onshore,Onshore,Onshore",3
5842041f4e65fad6a7708927,2025_06_27,33.70877301002487,-118.2840112858389,Cabrillo Beach,2,0.24333333333333335,0.55,19.333333333333332,19.333333333333332,"NIGHT_CLEAR,OVERCAST,CLEAR","Offshore,Onshore,Cross-shore",3
5842041f4e65fad6a770892c,2025_06_27,33.77209986806257,-118.4268428476672,Lunada Bay,1.6666666666666667,0.52,0.8200000000000001,19.333333333333332,19.333333333333332,"NIGHT_MOSTLY_CLOUDY,MIST,MOSTLY_CLOUDY","Onshore,Onshore,Onshore",3
5842041f4e65fad6a770892d,2025_06_27,33.79294656286144,-118.40703,PV Cove,2.3333333333333335,0.37855,0.68675,19.333333333333332,19.333333333333332,"NIGHT_MOSTLY_CLOUDY,MIST,MIST","Cross-shore,Onshore,Onshore",3
5842041f4e65fad6a7708930,2025_06_27,34.03944902292561,-118.57539,Chart House,2,0.12081333333333333,0.44772,19.333333333333332,19.333333333333332,"NIGHT_MOSTLY_CLOUDY,MOSTLY_CLOUDY,BRIEF_SHOWERS","Offshore,Offshore,Cross-shore",3
5842041f4e65fad6a7708936,2025_06_27,34.0016731994772,-118.80456,Point Dume,2.3333333333333335,0.29042,0.6329666666666667,21,21,"NIGHT_MIST,MIST,MIST","Onshore,Onshore,Onshore",3
5842041f4e65fad6a7708937,2025_06_27,34.02587527588963,-118.7554939066114,Latigo Point,2.6666666666666665,0.45,0.7566666666666667,19,19,"NIGHT_MOSTLY_CLOUDY,MOSTLY_CLOUDY,MIST","Onshore,Cross-shore,Onshore",3
5842041f4e65fad6a770893f,2025_06_27,34.043762,-118.93294,Leo Carrillo,3,0.66124,0.9900533333333333,18,18,"NIGHT_MIST,MIST,MIST","Onshore,Onshore,Onshore",3
5842041f4e65fad6a7708941,2025_06_27,36.69388179265737,-121.81289,Marina State Beach,2,1.0033333333333334,1.31,13,13,"NIGHT_MIST,MIST,CLEAR","Onshore,Onshore,Onshore",3
5842041f4e65fad6a7708944,2025_06_27,34.34145077331085,-119.416999352654,Stanley's,1.6666666666666667,0.12,0.42333333333333334,18,18,"NIGHT_CLEAR,CLEAR,BRIEF_SHOWERS","Offshore,Offshore,Onshore",3
5842041f4e65fad6a7708945,2025_06_27,34.35113017313915,-119.426921498899,Oil Piers,2,0.12,0.42333333333333334,18,18,"NIGHT_CLEAR,CLEAR,BRIEF_SHOWERS","Offshore,Offshore,Onshore",3
5842041f4e65fad6a770894c,2025_06_27,34.17876333306018,-119.23995,Oxnard,3,0.7,1.0033333333333334,18.333333333333332,18.333333333333332,"NIGHT_MOSTLY_CLEAR,OVERCAST,CLEAR","Onshore,Offshore,Onshore",3
5842041f4e65fad6a7708957,2025_06_27,34.31720331100517,-119.3882324751725,Pitas Point,2,0.25,0.55,18,18,"NIGHT_MOSTLY_CLEAR,MIST,MIST","Cross-shore,Offshore,Onshore",3
5842041f4e65fad6a7708959,2025_06_27,34.27851754384724,-119.3162,Emma Wood,2.6666666666666665,0.415,0.7138,18,18,"NIGHT_MOSTLY_CLEAR,BRIEF_SHOWERS,MIST","Offshore,Offshore,Onshore",3
5842041f4e65fad6a770895a,2025_06_27,34.35513640390276,-119.4400589884255,Mussel Shoals (aka Little Rincon),2,0.14333333333333334,0.45,18,18,"NIGHT_MIST,MOSTLY_CLOUDY,MIST","Offshore,Offshore,Onshore",3
5842041f4e65fad6a770895e,2025_06_27,34.28991757054902,-119.3366646794652,Summer Beach,2,0.25232,0.55776,18,18,"NIGHT_MOSTLY_CLEAR,BRIEF_SHOWERS,MIST","Cross-shore,Offshore,Onshore",3
5842041f4e65fad6a770895f,2025_06_27,34.30897456105926,-119.3582501170116,Solimar,2,0.2533333333333333,0.56,18,18,"NIGHT_MOSTLY_CLEAR,MIST,MIST","Cross-shore,Offshore,Onshore",3
5842041f4e65fad6a7708960,2025_06_27,34.3984,-119.70207,Leadbetter Point,1,0,0.21666666666666667,17.666666666666668,17.666666666666668,"NIGHT_MIST,MOSTLY_CLOUDY,MOSTLY_CLOUDY","Onshore,Onshore,Onshore",3
5842041f4e65fad6a7708961,2025_06_27,34.46052293893899,-120.07328,Refugio,2,0.10666666666666667,0.4066666666666667,16,16,"NIGHT_CLEAR,BRIEF_SHOWERS,BRIEF_SHOWERS","Onshore,Onshore,Onshore",3
5842041f4e65fad6a7708962,2025_06_27,34.40754276777778,-119.87639,Devereux,2,0.11333333333333333,0.42333333333333334,17,17,"NIGHT_MIST,MIST,MOSTLY_CLOUDY","Onshore,Onshore,Onshore",3
5842041f4e65fad6a7708963,2025_06_27,34.27479983305182,-119.3133222656776,Ventura Overhead,2.6666666666666665,0.415,0.7138,18,18,"NIGHT_MOSTLY_CLEAR,MOSTLY_CLOUDY,MIST","Cross-shore,Offshore,Onshore",3
5842041f4e65fad6a7708964,2025_06_27,34.41023236011655,-119.88261,Sands,2,0.09333333333333334,0.4,17,17,"NIGHT_MIST,MIST,MOSTLY_CLOUDY","Offshore,Offshore,Onshore",3
5842041f4e65fad6a7708966,2025_06_27,34.4045,-119.68747,Sandspit,1,0,0.21666666666666667,18,18,"NIGHT_MOSTLY_CLEAR,MOSTLY_CLOUDY,MOSTLY_CLOUDY","Onshore,Onshore,Onshore",3
5842041f4e65fad6a7708967,2025_06_27,34.41549098334453,-119.6375149840203,Hammond's,2,0.07333333333333333,0.3733333333333333,18,18,"NIGHT_BRIEF_SHOWERS,MIST,MOSTLY_CLOUDY","Cross-shore,Cross-shore,Onshore",3
5842041f4e65fad6a7708968,2025_06_27,34.45759322742309,-120.02203,El Capitan,2,0.10666666666666667,0.41,16.333333333333332,16.333333333333332,"NIGHT_CLEAR,SHOWERS,MOSTLY_CLOUDY","Cross-shore,Onshore,Onshore",3
5842041f4e65fad6a770896c,2025_06_27,34.405117655616,-119.84317,Campus Point,2,0.09333333333333334,0.4,17,17,"NIGHT_CLEAR,MOSTLY_CLOUDY,MOSTLY_CLOUDY","Onshore,Onshore,Onshore",3
5842041f4e65fad6a770896e,2025_06_27,34.38935162233354,-119.51955,Carpinteria State Beach,2,0.18000000000000002,0.4866666666666667,18,18,"NIGHT_MIST,CLEAR,MIST","Cross-shore,Offshore,Onshore",3
5842041f4e65fad6a770896f,2025_06_27,37.48296565175612,-122.45493,Half Moon Bay,2.6666666666666665,0.9170333333333334,1.06436,12.333333333333334,12.333333333333334,"NIGHT_MIST,BRIEF_SHOWERS,MIST","Onshore,Onshore,Onshore",3
5842041f4e65fad6a7708970,2025_06_27,37.499,-122.471,Princeton Jetty,2.6666666666666665,0.6163666666666666,0.8869666666666667,12.333333333333334,12.333333333333334,"NIGHT_MIST,MIST,MIST","Onshore,Onshore,Onshore",3
5842041f4e65fad6a7708972,2025_06_27,37.35699547365155,-122.4069534707252,Tunitas Creek,3,1.5566666666666666,1.86,13,13,"NIGHT_BRIEF_SHOWERS,MOSTLY_CLOUDY,MIST","Offshore,Onshore,Onshore",3
5842041f4e65fad6a7708974,2025_06_27,37.54735589428842,-122.51611,Montara,2.6666666666666665,1.4566666666666666,1.7633333333333334,12.333333333333334,12.333333333333334,"NIGHT_BRIEF_SHOWERS,BRIEF_SHOWERS,BRIEF_SHOWERS","Onshore,Cross-shore,Onshore",3
5842041f4e65fad6a7708975,2025_06_27,34.3869373724559,-119.5142334209018,Tarpits,2,0.19666666666666666,0.4966666666666667,18,18,"NIGHT_MOSTLY_CLEAR,MOSTLY_CLOUDY,MOSTLY_CLOUDY","Onshore,Offshore,Onshore",3
5842041f4e65fad6a7708976,2025_06_27,37.59881852720143,-122.50463,Linda Mar,1.6666666666666667,0.34,0.6466666666666667,12.333333333333334,12.333333333333334,"NIGHT_BRIEF_SHOWERS,BRIEF_SHOWERS,BRIEF_SHOWERS","Onshore,Onshore,Onshore",3
5842041f4e65fad6a7708978,2025_06_27,37.59883098461164,-122.5143843582282,Pedro Point,2.3333333333333335,1.9278933333333335,2.3238,12.333333333333334,12.333333333333334,"NIGHT_MIST,MIST,MIST","Onshore,Cross-shore,Onshore",3
5842041f4e65fad6a7708979,2025_06_27,37.61081996647663,-122.49733,Rockaway,2.3333333333333335,1.7073333333333334,2.106,12.333333333333334,12.333333333333334,"NIGHT_BRIEF_SHOWERS,BRIEF_SHOWERS,BRIEF_SHOWERS","Onshore,Onshore,Cross-shore",3
5842041f4e65fad6a770897a,2025_06_27,37.809987384424446,-122.47514,Fort Point,1.6666666666666667,0.7433333333333333,1.0466666666666666,12,12,"NIGHT_MIST,MIST,MIST","Onshore,Onshore,Cross-shore",3
5842041f4e65fad6a770897c,2025_06_27,37.63422542967464,-122.4951,Sharp Park,2,1.8993333333333333,2.2878333333333334,12,12,"NIGHT_BRIEF_SHOWERS,MIST,MIST","Onshore,Onshore,Cross-shore",3
5842041f4e65fad6a770897d,2025_06_27,37.27313605072472,-122.4127387912554,Pescadero,2.3333333333333335,1.51,1.8133333333333335,13,13,"NIGHT_MIST,MIST,MIST","Cross-shore,Cross-shore,Onshore",3
5842041f4e65fad6a770897e,2025_06_27,37.18140279972666,-122.3926685899327,Pigeon Point,3.3333333333333335,1.3666666666666667,1.6766666666666667,13,13,"NIGHT_BRIEF_SHOWERS,MIST,MIST","Offshore,Offshore,Offshore",3
5842041f4e65fad6a770897f,2025_06_27,37.11578956919415,-122.314699271291,Ano Nuevo,3,0.76,1.07,13,13,"NIGHT_MIST,MIST,MIST","Offshore,Offshore,Offshore",3
5842041f4e65fad6a7708980,2025_06_27,37.09520872681598,-122.2805474707768,Waddell Creek,3,1.17,1.44,13,13,"NIGHT_CLEAR,CLEAR,MIST","Cross-shore,Cross-shore,Onshore",3
5842041f4e65fad6a7708981,2025_06_27,36.96512852130351,-122.1252825495626,Four Mile,3,0.7266666666666667,1.03,13,13,"NIGHT_CLEAR,CLEAR,MIST","Cross-shore,Offshore,Onshore",3
5842041f4e65fad6a7708982,2025_06_27,37.04122807048655,-122.23337,Scott Creek,3,1.2666666666666666,1.46,13,13,"NIGHT_MIST,MOSTLY_CLOUDY,MIST","Offshore,Cross-shore,Onshore",3
5842041f4e65fad6a7708983,2025_06_27,37.02350229387179,-122.21908,Davenport,3,1.26,1.5033333333333334,13,13,"NIGHT_MIST,MIST,MIST","Cross-shore,Cross-shore,Cross-shore",3
5842041f4e65fad6a7708986,2025_06_27,36.94905295955728,-122.06118,Natural Bridges,3,1.10466,1.35432,13,13,"NIGHT_MOSTLY_CLOUDY,CLEAR,CLEAR","Onshore,Cross-shore,Onshore",3
5842041f4e65fad6a7708987,2025_06_27,36.95154854910425,-122.04207,Mitchell's Cove,3,0.69479,1.0093466666666666,13,13,"NIGHT_CLEAR,MOSTLY_CLOUDY,CLEAR","Onshore,Onshore,Onshore",3
5842041f4e65fad6a770898a,2025_06_27,36.9572312370203,-121.98177,26th Ave,3,0.9444366666666667,1.13139,13,13,"NIGHT_CLEAR,MOSTLY_CLOUDY,CLEAR","Onshore,Cross-shore,Onshore",3
5842041f4e65fad6a770898e,2025_06_27,36.91899972819882,-121.85536,Manresa,2.6666666666666665,0.6966666666666667,1,13,13,"NIGHT_BRIEF_SHOWERS,MOSTLY_CLOUDY,MIST","Cross-shore,Onshore,Onshore",3
5842041f4e65fad6a7708990,2025_06_27,34.45747731928454,-120.34242,The Ranch,3,0.41333333333333333,0.7166666666666667,15.666666666666666,15.666666666666666,"NIGHT_CLEAR,MIST,MOSTLY_CLOUDY","Offshore,Cross-shore,Onshore",3
5842041f4e65fad6a7708991,2025_06_27,34.50875036590315,-120.50348,Jalama,2.6666666666666665,0.87,1.09,14.666666666666666,14.666666666666666,"NIGHT_CLEAR,CLEAR,MIST","Offshore,Offshore,Onshore",3
5842041f4e65fad6a7708996,2025_06_27,34.68700870220497,-120.6111611019887,Surf Beach,2.6666666666666665,1.2966666666666666,1.6066666666666667,14,14,"NIGHT_DRIZZLE,CLOUDY,BRIEF_SHOWERS","Onshore,Onshore,Onshore",3
5842041f4e65fad6a770899c,2025_06_27,35.5730538161116,-121.1143362345574,Moonstone,3,0.8866666666666667,1.1466666666666667,13.666666666666666,13.666666666666666,"NIGHT_MOSTLY_CLOUDY,MOSTLY_CLOUDY,BRIEF_SHOWERS","Onshore,Cross-shore,Onshore",3
5842041f4e65fad6a770899d,2025_06_27,35.61533716776573,-121.1502053073914,Pico Creek,3,1.1133333333333333,1.32,13.666666666666666,13.666666666666666,"NIGHT_CLEAR,MOSTLY_CLOUDY,MIST","Onshore,Cross-shore,Cross-shore",3
5842041f4e65fad6a770899e,2025_06_27,35.56829031927379,-121.11207,Santa Rosa Creek,3,0.8866666666666667,1.1466666666666667,13.666666666666666,13.666666666666666,"NIGHT_MOSTLY_CLOUDY,MOSTLY_CLOUDY,BRIEF_SHOWERS","Onshore,Cross-shore,Onshore",3
5842041f4e65fad6a77089a2,2025_06_27,35.44820114936284,-120.90715,"Cayucos Pier, Southside",2.6666666666666665,0.30333333333333334,0.61,14,14,"NIGHT_MOSTLY_CLOUDY,MOSTLY_CLOUDY,MOSTLY_CLEAR","Onshore,Cross-shore,Onshore",3
5842041f4e65fad6a77089a4,2025_06_27,35.30143372628852,-120.877819239902,Cable Landing,2,1.66,1.9633333333333332,14,14,"NIGHT_MIST,MIST,BRIEF_SHOWERS","Onshore,Onshore,Onshore",3
5842041f4e65fad6a77089a9,2025_06_27,35.61269103500222,-121.14807,San Simeon,3,0.735,0.868,13.666666666666666,13.666666666666666,"NIGHT_MOSTLY_CLEAR,MIST,MOSTLY_CLEAR","Offshore,Cross-shore,Onshore",3
5842041f4e65fad6a77089ab,2025_06_27,35.1775325966252,-120.73411,Avila Beach,1.6666666666666667,0.08666666666666667,0.39,14,14,"NIGHT_CLEAR,MOSTLY_CLOUDY,CLEAR","Onshore,Cross-shore,Onshore",3
5842041f4e65fad6a77089ac,2025_06_27,35.13877877884115,-120.64535,Pismo Beach Pier,2.611111111111111,0.6540466666666667,0.9658166666666667,13,13,"NIGHT_CLEAR,MOSTLY_CLOUDY,CLEAR","Offshore,Offshore,Onshore",3
5842041f4e65fad6a77089ad,2025_06_27,46.8907710233147,-124.12964,Westport,2.3333333333333335,0.47333333333333333,0.7766666666666666,14,14,"NIGHT_FOG,FOG,DRIZZLE","Onshore,Onshore,Onshore",3
5842041f4e65fad6a77089ae,2025_06_27,46.35185177248545,-124.06747,Long Beach Peninsula,2,0.6166666666666667,0.9233333333333333,15,15,"NIGHT_MOSTLY_CLOUDY,MOSTLY_CLOUDY,MOSTLY_CLOUDY","Onshore,Onshore,Onshore",3
5842041f4e65fad6a77089af,2025_06_27,47.90649175554033,-124.63709,La Push,2.6666666666666665,0.43666666666666665,0.7466666666666667,13,13,"NIGHT_MIST,MIST,DRIZZLE","Onshore,Cross-shore,Onshore",3
5842041f4e65fad6a77089b0,2025_06_27,42.04368239985442,-124.26828,Brookings Jetty,1.6666666666666667,0.29977333333333334,0.5482266666666666,12.666666666666666,12.666666666666666,"NIGHT_CLEAR,CLEAR,CLEAR","Offshore,Offshore,Cross-shore",3
5842041f4e65fad6a77089b1,2025_06_27,42.74071837900346,-124.4983727491047,Port Orford,3,0.37,0.68,12.666666666666666,12.666666666666666,"NIGHT_CLEAR,CLEAR,MIST","Offshore,Offshore,Offshore",3
5842041f4e65fad6a77089b2,2025_06_27,44.01532689312291,-124.13865,Florence South Jetty,3,0.5933333333333333,0.9,13.666666666666666,13.666666666666666,"NIGHT_MIST,CLEAR,MIST","Onshore,Offshore,Onshore",3
5842041f4e65fad6a77089b3,2025_06_27,42.41812540774362,-124.42945,Gold Beach South Jetty,3,0.6633333333333333,0.97,12.666666666666666,12.666666666666666,"NIGHT_MIST,MIST,MIST","Offshore,Offshore,Offshore",3
5842041f4e65fad6a77089b4,2025_06_27,44.95857310226525,-124.0219,Lincoln City,3,0.52,0.82,15,15,"NIGHT_MOSTLY_CLOUDY,MOSTLY_CLOUDY,MIST","Offshore,Offshore,Onshore",3
5842041f4e65fad6a77089b5,2025_06_27,44.63792761362982,-124.0657,Newport,3,0.6066666666666667,0.9133333333333333,14.666666666666666,14.666666666666666,"NIGHT_MIST,MIST,MIST","Onshore,Offshore,Onshore",3
5842041f4e65fad6a77089b6,2025_06_27,45.61468496266301,-123.94643,Rockaway Beach,3,0.5499999999999999,0.86,15.333333333333334,15.333333333333334,"NIGHT_MIST,MOSTLY_CLOUDY,MOSTLY_CLOUDY","Onshore,Onshore,Onshore",3
5842041f4e65fad6a77089b7,2025_06_27,45.20252914186085,-123.96975,Pacific City,3,0.43333333333333335,0.7366666666666667,15,15,"NIGHT_FOG,MIST,MIST","Onshore,Onshore,Onshore",3
5842041f4e65fad6a77089b8,2025_06_27,45.88179930310263,-123.96681,Cannon Beach,3,0.5666666666666667,0.8666666666666667,15.333333333333334,15.333333333333334,"NIGHT_FOG,CLEAR,MOSTLY_CLOUDY","Onshore,Onshore,Onshore",3
5842041f4e65fad6a77089ba,2025_06_27,40.02528754746774,-124.06372,Shelter Cove,2,0.25486,0.42924,12,12,"NIGHT_CLEAR,CLEAR,CLEAR","Offshore,Offshore,Offshore",3
5842041f4e65fad6a77089bb,2025_06_27,40.76816197136951,-124.24248,Humboldt Harbor Entrance,1.6666666666666667,0.6333333333333333,0.94,12.666666666666666,12.666666666666666,"NIGHT_MIST,MIST,MIST","Cross-shore,Cross-shore,Cross-shore",3
5842041f4e65fad6a77089bc,2025_06_27,40.76684246920174,-124.23107,North Jetty,2,0.6966666666666667,1.0033333333333334,12.666666666666666,12.666666666666666,"NIGHT_MIST,MIST,MIST","Cross-shore,Cross-shore,Onshore",3
5842041f4e65fad6a77089be,2025_06_27,41.13016238153297,-124.16466,Sue-meg,2.3333333333333335,0.6333333333333333,0.9433333333333334,13,13,"NIGHT_MIST,MIST,BRIEF_SHOWERS","Cross-shore,Cross-shore,Cross-shore",3
5842041f4e65fad6a77089bf,2025_06_27,37.8289474958188,-122.53768,Fort Cronkite/Rodeo Beach,2.6666666666666665,1.04,1.2433333333333334,12,12,"NIGHT_MIST,MIST,MIST","Onshore,Onshore,Onshore",3
5842041f4e65fad6a77089c0,2025_06_27,41.74415759876137,-124.17717,South Beach CA,2.6666666666666665,0.42,0.7233333333333334,12.666666666666666,12.666666666666666,"NIGHT_MOSTLY_CLEAR,BRIEF_SHOWERS,CLEAR","Onshore,Offshore,Offshore",3
5842041f4e65fad6a77089c1,2025_06_27,37.89801283969752,-122.64519,Stinson Beach,3,0.48,0.78,12,12,"NIGHT_CLEAR,CLEAR,CLEAR","Offshore,Offshore,Cross-shore",3
5842041f4e65fad6a77089c2,2025_06_27,37.90514516176495,-122.68151,Bolinas,2,0.23094666666666666,0.53778,12,12,"NIGHT_CLEAR,CLEAR,CLEAR","Offshore,Offshore,Offshore",3
5842041f4e65fad6a77089c3,2025_06_27,38.04892513158693,-122.98925,Point Reyes (north),1.3333333333333333,1.9366666666666665,2.2433333333333336,12,12,"NIGHT_MIST,MIST,MIST","Onshore,Onshore,Onshore",3
5842041f4e65fad6a77089c6,2025_06_27,38.31088736605785,-123.0496777333731,Doran Beach,2,0.05333333333333334,0.36,12,12,"NIGHT_MOSTLY_CLEAR,MIST,CLEAR","Offshore,Offshore,Offshore",3
5842041f4e65fad6a77089c7,2025_06_27,38.45077228660809,-123.13008,Russian Rivermouth,3,1.1666666666666667,1.4733333333333334,12.666666666666666,12.666666666666666,"NIGHT_CLEAR,CLEAR,CLEAR","Cross-shore,Offshore,Onshore",3
5842041f4e65fad6a77089c8,2025_06_27,38.35329968518107,-123.06906,Salmon Creek,2,1.6233333333333333,1.9300000000000002,12,12,"NIGHT_CLEAR,MIST,MIST","Onshore,Onshore,Onshore",3
5842041f4e65fad6a77089c9,2025_06_27,38.6845180197959,-123.4322714291198,Black Point Beach,2,0.67,0.97,12.666666666666666,12.666666666666666,"NIGHT_CLEAR,CLEAR,CLEAR","Onshore,Onshore,Onshore",3
5842041f4e65fad6a77089ca,2025_06_27,43.251076,-70.59144,Ogunquit,1.3333333333333333,0.21666666666666667,0.5166666666666667,14.666666666666666,14.666666666666666,"NIGHT_CLEAR,CLEAR,CLEAR","Offshore,Cross-shore,Onshore",3
5842041f4e65fad6a77089cb,2025_06_27,41.362631366305415,-71.48007,Point Judith,0.8888888888888888,0.22437666666666667,0.58028,19,18,"NIGHT_OVERCAST,CLEAR,CLEAR","Onshore,Onshore,Onshore",3
5842041f4e65fad6a77089cd,2025_06_27,41.422678090954726,-71.45413,Monahan's - Narragansett,1,0.17018,0.4999033333333333,19.666666666666668,19.666666666666668,"NIGHT_OVERCAST,CLEAR,CLEAR","Onshore,Onshore,Onshore",3
5842041f4e65fad6a77089ce,2025_06_27,41.469,-71.293,Ruggles - Newport,1,0.21393333333333334,0.6465466666666667,19.333333333333332,19.333333333333332,"NIGHT_OVERCAST,CLEAR,CLEAR","Cross-shore,Cross-shore,Onshore",3
5842041f4e65fad6a77089cf,2025_06_27,43.175394,-70.606351,Short Sands Beach,1.6666666666666667,0.19483333333333333,0.54943,17.333333333333332,17.333333333333332,"NIGHT_CLEAR,CLEAR,CLEAR","Cross-shore,Onshore,Onshore",3
5842041f4e65fad6a77089d0,2025_06_27,41.487408,-71.29017,First Beach,1,0.07891333333333334,0.46102,19.333333333333332,19.333333333333332,"NIGHT_OVERCAST,CLEAR,CLEAR","Cross-shore,Cross-shore,Onshore",3
5842041f4e65fad6a77089d1,2025_06_27,42.27916830233153,-70.86498,Nantasket Beach,0.5555555555555556,0,0.30651333333333336,16,14,"NIGHT_CLEAR,CLEAR,CLEAR","Onshore,Onshore,Onshore",3
5842041f4e65fad6a77089d2,2025_06_27,41.817,-69.935,Cape Cod,1,0.11,0.41333333333333333,17.666666666666668,17.666666666666668,"NIGHT_MOSTLY_CLOUDY,CLEAR,CLEAR","Onshore,Onshore,Onshore",3
5842041f4e65fad6a77089d3,2025_06_27,42.22055448975661,-70.70634873403819,Egypt Beach,0.6666666666666666,0.01,0.30333333333333334,18.666666666666668,18.666666666666668,"NIGHT_MOSTLY_CLEAR,CLEAR,CLEAR","Onshore,Onshore,Onshore",3
5842041f4e65fad6a77089d4,2025_06_27,41.48739647744607,-71.25723,Second Beach,0.7777777777777778,0.12432,0.39665,19,18,"NIGHT_OVERCAST,CLEAR,CLEAR","Cross-shore,Offshore,Cross-shore",3
5842041f4e65fad6a77089d5,2025_06_27,42.964,-70.769,Fox Hill,1.3333333333333333,0.1063,0.43228666666666665,14.666666666666666,14.666666666666666,"NIGHT_CLEAR,CLEAR,CLEAR","Cross-shore,Cross-shore,Onshore",3
5842041f4e65fad6a77089d6,2025_06_27,42.991359,-70.75149,Straws Point,1.3333333333333333,0.10666666666666667,0.41333333333333333,14.666666666666666,14.666666666666666,"NIGHT_CLEAR,CLEAR,CLEAR","Cross-shore,Cross-shore,Onshore",3
5842041f4e65fad6a77089d7,2025_06_27,42.946,-70.786,Plaice Cove,1.3333333333333333,0.1063,0.43228666666666665,14.666666666666666,14.666666666666666,"NIGHT_CLEAR,MIST,CLEAR","Cross-shore,Onshore,Onshore",3
5842041f4e65fad6a77089d9,2025_06_27,42.911574,-70.80831,The Main Beach,1.3333333333333333,0.04807333333333333,0.4457933333333333,14.666666666666666,14.666666666666666,"NIGHT_CLEAR,CLEAR,MOSTLY_CLEAR","Offshore,Cross-shore,Onshore",3
5842041f4e65fad6a77089da,2025_06_27,42.97583846220203,-70.764,Sawyer's Beach,1.111111111111111,0.11333333333333333,0.41666666666666663,14.666666666666666,14.666666666666666,"NIGHT_CLEAR,CLEAR,CLEAR","Cross-shore,Onshore,Onshore",3
5842041f4e65fad6a77089db,2025_06_27,42.97,-70.77,Rye on the Rocks / 5-0's,1.4444444444444444,0.37205666666666665,0.6224966666666667,14.666666666666666,14.666666666666666,"NIGHT_CLEAR,CLEAR,CLEAR","Cross-shore,Cross-shore,Onshore",3
5842041f4e65fad6a77089dc,2025_06_27,43.55902946610303,-70.27795,Higgins Beach,1.5555555555555556,0.08925,0.43138666666666664,14.666666666666666,14.666666666666666,"NIGHT_CLEAR,CLEAR,CLEAR","Offshore,Cross-shore,Onshore",3
5842041f4e65fad6a77089dd,2025_06_27,43.302676,-70.5652,Wells Beach,1.3333333333333333,0.14333333333333334,0.44666666666666666,14.666666666666666,14.666666666666666,"NIGHT_CLEAR,MIST,MIST","Cross-shore,Cross-shore,Onshore",3
5842041f4e65fad6a77089de,2025_06_27,43.545359,-70.30479,Scarborough Beach State Park,1.3333333333333333,0.12917333333333333,0.5300533333333334,14.666666666666666,14.666666666666666,"NIGHT_CLEAR,CLEAR,CLEAR","Offshore,Cross-shore,Onshore",3
5842041f4e65fad6a77089df,2025_06_27,43.514481,-70.37215,Old Orchard Beach,0.6666666666666666,0.0033333333333333335,0.30333333333333334,14.666666666666666,14.666666666666666,"NIGHT_CLEAR,MIST,CLEAR","Offshore,Cross-shore,Onshore",3
5842041f4e65fad6a77089e0,2025_06_27,43.34711,-70.48165,Gooch's Beach,0.9999999999999999,0.12211333333333334,0.39315,14.666666666666666,14.666666666666666,"NIGHT_CLEAR,CLEAR,CLEAR","Offshore,Offshore,Onshore",3
5842041f4e65fad6a77089e2,2025_06_27,40.58433,-73.62953,Lido Beach,0.7222222222222222,0.50764,0.8435766666666666,21,20,"NIGHT_MOSTLY_CLOUDY,CLOUDY,CLEAR","Offshore,Cross-shore,Cross-shore",3
5842041f4e65fad6a77089e3,2025_06_27,43.163135,-70.61689,Long Sands Beach,1.5555555555555556,0.09274,0.39746,14.666666666666666,14.666666666666666,"NIGHT_CLEAR,CLEAR,CLEAR","Offshore,Offshore,Onshore",3
5842041f4e65fad6a77089e4,2025_06_27,40.61695351251805,-73.39376,Gilgo Beach,1.2222222222222223,0.4205666666666667,0.7541166666666667,21,20,"NIGHT_CLOUDY,MOSTLY_CLOUDY,CLEAR","Cross-shore,Cross-shore,Cross-shore",3
5842041f4e65fad6a77089e5,2025_06_27,40.62530081928036,-73.23827,Robert Moses,0.6666666666666666,0.35333333333333333,0.6566666666666666,22.333333333333332,22.333333333333332,"NIGHT_CLOUDY,MOSTLY_CLOUDY,MOSTLY_CLEAR","Offshore,Cross-shore,Cross-shore",3
5842041f4e65fad6a77089e6,2025_06_27,40.64313317632791,-73.15727,Fire Island,0.6666666666666666,0.3433333333333333,0.6466666666666667,22.333333333333332,22.333333333333332,"NIGHT_OVERCAST,MOSTLY_CLOUDY,CLEAR","Offshore,Cross-shore,Cross-shore",3
5842041f4e65fad6a77089e8,2025_06_27,40.76653118828782,-72.7458,Cupsogue,1,0.57,0.88,22,22,"NIGHT_OVERCAST,CLEAR,CLEAR","Offshore,Cross-shore,Cross-shore",3
5842041f4e65fad6a77089e9,2025_06_27,42.9376373334092,-70.79141,The Wall,1.3333333333333333,0.03460333333333333,0.38832333333333335,14.666666666666666,14.666666666666666,"NIGHT_CLEAR,CLEAR,MOSTLY_CLEAR","Onshore,Onshore,Onshore",3
5842041f4e65fad6a77089ea,2025_06_27,40.887088,-72.33856,Flys,1,0.52,0.82,21,21,"NIGHT_MOSTLY_CLOUDY,MOSTLY_CLOUDY,CLEAR","Offshore,Cross-shore,Cross-shore",3
5842041f4e65fad6a77089eb,2025_06_27,41.0389266436591,-71.91068529316958,Trailer Park,1.3333333333333333,0.76558,1.04613,21,20,"NIGHT_OVERCAST,MOSTLY_CLEAR,MOSTLY_CLEAR","Cross-shore,Cross-shore,Cross-shore",3
5842041f4e65fad6a77089ec,2025_06_27,41.039505402729105,-71.9142,Ditch Plains,1,0.5724233333333333,0.9726899999999999,20.333333333333332,20.333333333333332,"NIGHT_OVERCAST,MOSTLY_CLEAR,MOSTLY_CLEAR","Cross-shore,Cross-shore,Onshore",3
5842041f4e65fad6a77089ee,2025_06_27,40.57633275206492,-73.56895305108567,"West End, Jones Beach",1.3333333333333333,0.45666666666666667,0.7633333333333333,21,20,"NIGHT_OVERCAST,CLOUDY,CLEAR","Offshore,Offshore,Cross-shore",3
5842041f4e65fad6a77089f1,2025_06_27,41.038286691230795,-71.91991567611694,Poles,1,0.6472166666666667,0.9960766666666667,21,20,"NIGHT_OVERCAST,MOSTLY_CLEAR,MOSTLY_CLEAR","Cross-shore,Cross-shore,Cross-shore",3
5842041f4e65fad6a77089f3,2025_06_27,40.84077769766295,-72.47989493724765,The Bowl,1,0.48,0.78,21.333333333333332,21.333333333333332,"NIGHT_MOSTLY_CLOUDY,MOSTLY_CLOUDY,MOSTLY_CLEAR","Offshore,Cross-shore,Cross-shore",3
5842041f4e65fad6a77089f4,2025_06_27,40.94235535243154,-72.19286,Main Beach,0.8888888888888888,0.5133333333333333,0.82,21,20,"NIGHT_MOSTLY_CLOUDY,CLEAR,MOSTLY_CLOUDY","Offshore,Offshore,Cross-shore",3
5842041f4e65fad6a77089f5,2025_06_27,40.58270702399518,-73.67252,Laurelton Blvd,1.3333333333333333,0.59272,0.76623,21,20,"NIGHT_MOSTLY_CLOUDY,OVERCAST,MOSTLY_CLEAR","Offshore,Offshore,Cross-shore",3
5842041f4e65fad6a77089f6,2025_06_27,41.033752854071416,-71.93696,Terrace,1,0.5025833333333334,0.85171,21,20,"NIGHT_OVERCAST,MOSTLY_CLEAR,MOSTLY_CLEAR","Cross-shore,Cross-shore,Cross-shore",3
5842041f4e65fad6a77089f7,2025_06_27,40.83372943645748,-72.50426173210144,K Road,1,0.6066666666666667,0.9133333333333333,21.333333333333332,21.333333333333332,"NIGHT_MOSTLY_CLOUDY,MOSTLY_CLOUDY,MOSTLY_CLEAR","Cross-shore,Cross-shore,Cross-shore",3
5842041f4e65fad6a77089fa,2025_06_27,40.1319,-74.02788,Sea Girt,1,0.8850833333333333,1.2111666666666667,18,17,"NIGHT_OVERCAST,MOSTLY_CLOUDY,OVERCAST","Onshore,Onshore,Onshore",3
5842041f4e65fad6a77089fb,2025_06_27,40.54698301868125,-73.9268,Breezy Point,1,0.39666666666666667,0.7,22,22,"NIGHT_MOSTLY_CLOUDY,MOSTLY_CLOUDY,CLEAR","Offshore,Cross-shore,Cross-shore",3
5842041f4e65fad6a77089fc,2025_06_27,40.152504,-74.02138,Spring Lake,1,0.8105866666666667,1.1333866666666668,18,17,"NIGHT_OVERCAST,MOSTLY_CLOUDY,OVERCAST","Onshore,Onshore,Onshore",3
5842041f4e65fad6a77089fd,2025_06_27,40.591277,-73.770792,30th - 39th Streets,1.5,0.32568,0.6513599999999999,21,20,"NIGHT_MOSTLY_CLOUDY,OVERCAST,MOSTLY_CLEAR","Offshore,Cross-shore,Cross-shore",3
5842041f4e65fad6a77089fe,2025_06_27,40.18834955871439,-74.00860982500222,Avon,1,0.8852666666666666,1.2176933333333333,18,17,"NIGHT_OVERCAST,MOSTLY_CLOUDY,OVERCAST","Onshore,Onshore,Onshore",3
5842041f4e65fad6a77089ff,2025_06_27,40.1974229100932,-74.00650533798255,Bradley Beach,1,0.8093866666666667,1.1418133333333333,18,17,"NIGHT_OVERCAST,MOSTLY_CLOUDY,OVERCAST","Onshore,Onshore,Onshore",3
5842041f4e65fad6a7708a01,2025_06_27,40.17202,-74.01503,"16th Ave., Belmar",1,0.7152733333333333,1.0440066666666667,18,17,"NIGHT_OVERCAST,MOSTLY_CLOUDY,OVERCAST","Onshore,Onshore,Onshore",3
5842041f4e65fad6a7708a02,2025_06_27,40.217443,-73.99982,Asbury Park,1,0.8133333333333334,1.1166666666666667,18,17,"NIGHT_OVERCAST,MOSTLY_CLOUDY,OVERCAST","Onshore,Onshore,Onshore",3
5842041f4e65fad6a7708a03,2025_06_27,40.229841,-73.99678,Loch Arbour and Deal,1,0.82,1.1266666666666667,18,17,"NIGHT_OVERCAST,MOSTLY_CLOUDY,OVERCAST","Onshore,Onshore,Onshore",3
5842041f4e65fad6a7708a05,2025_06_27,40.41754,-73.97935,Sandy Hook,1,0.42333333333333334,0.7266666666666667,22,22,"NIGHT_SHOWERS,MOSTLY_CLOUDY,CLEAR","Onshore,Onshore,Onshore",3
5842041f4e65fad6a7708a06,2025_06_27,39.36353,-74.40873,Crystals,0.3333333333333333,0.5866033333333334,0.9347799999999999,19,18,"NIGHT_OVERCAST,CLOUDY,OVERCAST","Cross-shore,Cross-shore,Cross-shore",3
5842041f4e65fad6a7708a07,2025_06_27,39.31443,-74.51863,32nd Street,0.3333333333333333,0.5655533333333334,0.9215,19,18,"NIGHT_OVERCAST,CLOUDY,OVERCAST","Cross-shore,Cross-shore,Cross-shore",3
5842041f4e65fad6a7708a08,2025_06_27,39.327688,-74.49524,Margate Pier Northside,0.3333333333333333,0.5655533333333334,0.9215,19,18,"NIGHT_OVERCAST,CLOUDY,OVERCAST","Cross-shore,Cross-shore,Cross-shore",3
5842041f4e65fad6a7708a09,2025_06_27,39.336276,-74.47782,Ventnor Pier,0.6666666666666666,0.5654833333333333,0.9213733333333334,19,18,"NIGHT_OVERCAST,CLOUDY,OVERCAST","Cross-shore,Cross-shore,Cross-shore",3
5842041f4e65fad6a7708a0a,2025_06_27,39.35929751441085,-74.41683,States Avenue,0.3333333333333333,0.5866033333333334,0.9347799999999999,19,18,"NIGHT_OVERCAST,CLOUDY,OVERCAST","Cross-shore,Cross-shore,Cross-shore",3
5842041f4e65fad6a7708a0b,2025_06_27,39.37274173278517,-74.40454,Brigantine Jetty,1,0.47630333333333336,0.8213433333333333,19,18,"NIGHT_OVERCAST,CLOUDY,OVERCAST","Offshore,Cross-shore,Cross-shore",3
5842041f4e65fad6a7708a0c,2025_06_27,39.356505,-74.42263,South Carolina Avenue,1,0.47630333333333336,0.8213433333333333,19,18,"NIGHT_OVERCAST,CLOUDY,OVERCAST","Offshore,Cross-shore,Cross-shore",3
5842041f4e65fad6a7708a0d,2025_06_27,39.413485,-74.35476,14th Street North,0.7777777777777778,0.5666666666666667,0.8733333333333333,19,18,"NIGHT_OVERCAST,CLOUDY,CLOUDY","Onshore,Cross-shore,Onshore",3
5842041f4e65fad6a7708a0e,2025_06_27,39.531319,-74.26325,The Wooden Jetty,1,0.7974633333333333,1.0182,19,18,"NIGHT_OVERCAST,CLOUDY,OVERCAST","Cross-shore,Cross-shore,Onshore",3
5842041f4e65fad6a7708a0f,2025_06_27,39.552472,-74.24344,Holyoke,0.8333333333333334,0.80641,1.2096166666666668,19,18,"NIGHT_OVERCAST,CLOUDY,OVERCAST","Cross-shore,Onshore,Onshore",3
5842041f4e65fad6a7708a10,2025_06_27,39.692364,-74.14068,Hudson Ave.,0.27777777777777773,0.82948,1.14825,19,18,"NIGHT_OVERCAST,OVERCAST,OVERCAST","Onshore,Cross-shore,Onshore",3
5842041f4e65fad6a7708a11,2025_06_27,39.79614,-74.09248,Island Beach State Park,0.5,0.7466666666666667,1.0466666666666666,18,18,"NIGHT_OVERCAST,CLOUDY,OVERCAST","Onshore,Onshore,Onshore",3
5842041f4e65fad6a7708a12,2025_06_27,39.91813588078152,-74.07527,Seaside Park,1,0.97442,1.3305333333333333,18,17,"NIGHT_OVERCAST,CLEAR,CLOUDY","Onshore,Onshore,Onshore",3
5842041f4e65fad6a7708a15,2025_06_27,39.95745637606704,-74.06736,Ortley Beach,0.5,0.9313733333333333,1.2914,18,17,"NIGHT_CLOUDY,CLOUDY,CLOUDY","Onshore,Onshore,Onshore",3
5842041f4e65fad6a7708a16,2025_06_27,39.98313468342945,-74.06265685577506,Lavallette,0.5,0.73,1.0366666666666666,18,17,"NIGHT_CLOUDY,MOSTLY_CLOUDY,OVERCAST","Onshore,Onshore,Onshore",3
5842041f4e65fad6a7708a17,2025_06_27,40.0699319967757,-74.04145,Bay Head,0.6666666666666666,0.7433333333333333,1.0533333333333332,18,17,"NIGHT_CLOUDY,MOSTLY_CLOUDY,OVERCAST","Onshore,Onshore,Onshore",3
5842041f4e65fad6a7708a18,2025_06_27,40.094041,-74.034859,Jenkinson's,1,0.7931366666666667,1.1167933333333333,18,17,"NIGHT_OVERCAST,MOSTLY_CLOUDY,OVERCAST","Onshore,Onshore,Onshore",3
5842041f4e65fad6a7708a1a,2025_06_27,38.148058,-75.17704,Assateague,1,0.6666666666666666,0.97,22,21,"NIGHT_MIST,OVERCAST,BRIEF_SHOWERS","Cross-shore,Onshore,Onshore",3
5842041f4e65fad6a7708a1b,2025_06_27,38.33889038664497,-75.08017670566352,North End to Ocean City Inlet,1,0.68482,1.0025199999999999,22,21,"NIGHT_CLOUDY,OVERCAST,MOSTLY_CLOUDY","Onshore,Onshore,Onshore",3
5842041f4e65fad6a7708a1c,2025_06_27,38.603993,-75.06271,Indian River Inlet,1,0.6238533333333334,0.9831633333333334,24.666666666666668,24.666666666666668,"NIGHT_CLOUDY,OVERCAST,OVERCAST","Cross-shore,Onshore,Onshore",3
5842041f4e65fad6a7708a1d,2025_06_27,38.460477,-75.05207,Fenwick Island,1,0.47000000000000003,0.7733333333333333,25.666666666666668,25.666666666666668,"NIGHT_OVERCAST,CLEAR,CLEAR","Onshore,Onshore,Onshore",3
5842041f4e65fad6a7708a1e,2025_06_27,38.538767,-75.05619,Bethany Beach,1,0.61937,0.9760966666666666,24.666666666666668,24.666666666666668,"NIGHT_DRIZZLE,OVERCAST,OVERCAST","Onshore,Onshore,Onshore",3
5842041f4e65fad6a7708a1f,2025_06_27,38.697657,-75.07595,Dewey Beach,1,0.65,0.9566666666666667,24.666666666666668,24.666666666666668,"NIGHT_CLEAR,CLEAR,DRIZZLE","Onshore,Onshore,Onshore",3
5842041f4e65fad6a7708a20,2025_06_27,38.75034741676525,-75.08194,Gordons Pond,1,0.5007266666666667,0.8978566666666666,24.333333333333332,24.333333333333332,"NIGHT_OVERCAST,OVERCAST,OVERCAST","Onshore,Onshore,Onshore",3
5842041f4e65fad6a7708a21,2025_06_27,38.767837,-75.08284,Naval Jetties,1,0.6833333333333333,0.9833333333333334,24.333333333333332,24.333333333333332,"NIGHT_OVERCAST,OVERCAST,OVERCAST","Onshore,Onshore,Onshore",3
5842041f4e65fad6a7708a22,2025_06_27,36.81735875786576,-75.96624,Camp Pendleton,2,0.24495,0.5589,28,28,"NIGHT_CLEAR,CLEAR,CLEAR","Offshore,Cross-shore,Onshore",3
5842041f4e65fad6a7708a23,2025_06_27,36.9102212316428,-75.98732471466064,North End,1,0.03666666666666667,0.33666666666666667,26,24,"NIGHT_CLEAR,CLEAR,CLEAR","Offshore,Onshore,Onshore",3
5842041f4e65fad6a7708a24,2025_06_27,36.737117517621314,-75.93924,Sandbridge Beach,1.6111111111111112,0.12923333333333334,0.47891666666666666,26,24,"NIGHT_CLEAR,CLEAR,CLEAR","Offshore,Offshore,Onshore",3
5842041f4e65fad6a7708a26,2025_06_27,36.818257440557794,-75.96666,Croatan to Pendleton,1.4444444444444444,0.11647,0.44117,26,24,"NIGHT_CLEAR,CLEAR,CLEAR","Offshore,Cross-shore,Onshore",3
5842041f4e65fad6a7708a27,2025_06_27,36.84318777204769,-75.9719,South End,1,0.07930333333333334,0.4109366666666667,26,24,"NIGHT_CLEAR,CLEAR,CLEAR","Offshore,Cross-shore,Onshore",3
5842041f4e65fad6a7708a28,2025_06_27,37.08612627584661,-75.976121638199,Fishermans Island,1,0.06933333333333333,0.18933333333333333,28,28,"NIGHT_CLEAR,CLEAR,CLEAR","Cross-shore,Offshore,Cross-shore",3
5842041f4e65fad6a7708a38,2025_06_27,35.254619418229026,-75.52074,Cape Hatteras Lighthouse,0.9444444444444444,0.35739,0.7109366666666667,28,27,"NIGHT_CLEAR,CLEAR,CLEAR","Cross-shore,Offshore,Cross-shore",3
5842041f4e65fad6a7708a3a,2025_06_27,35.54572934093336,-75.46477,Waves and Salvo,1.1666666666666667,0.47615999999999997,0.81468,27,26,"NIGHT_CLEAR,CLEAR,CLEAR","Cross-shore,Offshore,Cross-shore",3
5842041f4e65fad6a7708a3b,2025_06_27,35.22565892751075,-75.63606,Frisco,1,0.48059999999999997,0.7236,29,28,"NIGHT_CLEAR,CLEAR,CLEAR","Onshore,Onshore,Onshore",3
5842041f4e65fad6a7708a3c,2025_06_27,35.13086,-75.90591,Ocracoke,1,0.3575466666666667,0.71902,29.666666666666668,29.666666666666668,"NIGHT_CLEAR,CLEAR,CLEAR","Cross-shore,Cross-shore,Onshore",3
5842041f4e65fad6a7708a3d,2025_06_27,35.34721340158342,-75.50084,Avon Pier,1.5555555555555556,0.5276933333333333,0.8083166666666667,28,27,"NIGHT_CLEAR,CLEAR,CLEAR","Cross-shore,Offshore,Cross-shore",3
5842041f4e65fad6a7708a3f,2025_06_27,35.71680821253768,-75.49243,Pea Island,1.3333333333333333,0.16333333333333333,0.4633333333333333,28.666666666666668,28.666666666666668,"NIGHT_CLEAR,CLEAR,CLEAR","Offshore,Offshore,Offshore",3
5842041f4e65fad6a7708a40,2025_06_27,35.97427620657821,-75.62984,Nags Head Pier,1.2777777777777777,0.19666666666666666,0.5,27,27,"NIGHT_CLEAR,CLEAR,CLEAR","Offshore,Offshore,Onshore",3
5842041f4e65fad6a7708a41,2025_06_27,36.0439998039079,-75.67288,Avalon Pier,1.5,0.09015999999999999,0.44688,27,27,"NIGHT_CLEAR,CLEAR,CLEAR","Offshore,Offshore,Cross-shore",3
5842041f4e65fad6a7708a42,2025_06_27,36.03043116489792,-75.66413,First Street,1.2777777777777777,0.12556666666666666,0.4787166666666667,27,27,"NIGHT_CLEAR,CLEAR,CLEAR","Offshore,Offshore,Cross-shore",3
5842041f4e65fad6a7708a43,2025_06_27,36.06829910590498,-75.6899,Old Station/Laundromats,1.2777777777777777,0.16884666666666667,0.5301,27,27,"NIGHT_CLEAR,CLEAR,CLEAR","Offshore,Offshore,Onshore",3
5842041f4e65fad6a7708a44,2025_06_27,36.10126676607491,-75.71107,Kitty Hawk Pier,1.2777777777777777,0.13380999999999998,0.4958766666666667,27,27,"NIGHT_CLEAR,CLEAR,CLEAR","Offshore,Offshore,Onshore",3
5842041f4e65fad6a7708a45,2025_06_27,36.18220630068973,-75.75014,Duck Pier,1.3333333333333333,0.06,0.36333333333333334,28.333333333333332,28.333333333333332,"NIGHT_CLEAR,CLEAR,CLEAR","Offshore,Offshore,Onshore",3
5842041f4e65fad6a7708a46,2025_06_27,36.37660668125033,-75.8241,Corolla,1.3333333333333333,0.10666666666666667,0.41333333333333333,28.333333333333332,28.333333333333332,"NIGHT_CLEAR,CLEAR,CLEAR","Offshore,Offshore,Onshore",3
5842041f4e65fad6a7708a47,2025_06_27,33.90373404124834,-78.08241431707907,Oak Island,1,0.11666666666666667,0.41666666666666663,28,28,"NIGHT_CLEAR,CLEAR,CLEAR","Onshore,Onshore,Onshore",3
5842041f4e65fad6a7708a48,2025_06_27,33.91108837766468,-78.29653,South Brunswick Beaches,1,0.08529666666666667,0.4734,29,29,"NIGHT_CLEAR,CLEAR,CLEAR","Onshore,Onshore,Onshore",3
5842041f4e65fad6a7708a49,2025_06_27,34.05683595651973,-77.88128,Carolina Beach Pier,1.2222222222222223,0.15243333333333334,0.4676966666666667,26,26,"NIGHT_CLEAR,CLEAR,CLEAR","Cross-shore,Offshore,Cross-shore",3
5842041f4e65fad6a7708a4a,2025_06_27,33.96841191816696,-77.91802,Fort Fisher,1.8888888888888888,0.19666666666666666,0.49666666666666665,26,26,"NIGHT_CLEAR,CLEAR,CLEAR","Offshore,Offshore,Cross-shore",3
5842041f4e65fad6a7708a4b,2025_06_27,34.46776662988774,-77.47083,Topsail Beach,1,0.30666666666666664,0.6133333333333333,27,26,"NIGHT_CLEAR,CLEAR,CLEAR","Onshore,Cross-shore,Onshore",3
5842041f4e65fad6a7708a4c,2025_06_27,34.69270354752445,-76.82854854446575,Iron Steamer,1,0.2733333333333333,0.58,27,26,"NIGHT_CLEAR,CLEAR,CLEAR","Onshore,Onshore,Onshore",3
5842041f4e65fad6a7708a4f,2025_06_27,30.85132684893727,-81.42283496231143,Cumberland Island,1.6666666666666667,0.2966666666666667,0.6,28,28,"NIGHT_MOSTLY_CLEAR,MOSTLY_CLEAR,CLEAR","Onshore,Onshore,Onshore",3
5842041f4e65fad6a7708a50,2025_06_27,34.686741128540874,-76.47516712138378,Cape Lookout National Seashore,1,0.35333333333333333,0.6533333333333333,28,28,"NIGHT_CLEAR,CLEAR,CLEAR","Cross-shore,Cross-shore,Cross-shore",3
5842041f4e65fad6a7708a51,2025_06_27,31.10585419260024,-81.40422767604812,Jekyll Island,1.3333333333333333,0.05,0.35333333333333333,29,29,"NIGHT_CLEAR,CLEAR,CLEAR","Cross-shore,Cross-shore,Onshore",3
5842041f4e65fad6a7708a52,2025_06_27,31.16212806376699,-81.32512426500224,Harbor Marker Buoys,1.3333333333333333,0.18333333333333335,0.48666666666666664,29,29,"NIGHT_CLEAR,CLEAR,CLEAR","Cross-shore,Cross-shore,Onshore",3
5842041f4e65fad6a7708a53,2025_06_27,31.20076299997009,-81.32629,Sea Island,1,0.17666666666666667,0.48333333333333334,29,29,"NIGHT_CLEAR,CLEAR,CLEAR","Onshore,Onshore,Onshore",3
5842041f4e65fad6a7708a54,2025_06_27,31.13553222995767,-81.38457634790909,St. Simons Island,1.3333333333333333,0.22,0.5233333333333333,29,29,"NIGHT_CLEAR,MOSTLY_CLEAR,CLEAR","Onshore,Onshore,Onshore",3
5842041f4e65fad6a7708a55,2025_06_27,31.33550077186516,-81.28383377408417,Wolf Island,1.3333333333333333,0.15,0.45999999999999996,30,30,"NIGHT_CLEAR,CLEAR,CLEAR","Cross-shore,Cross-shore,Onshore",3
5842041f4e65fad6a7708a56,2025_06_27,31.2704493877174,-81.27324039152315,Little St. Simons Island,1.3333333333333333,0.18,0.48333333333333334,29.333333333333332,29.333333333333332,"NIGHT_CLEAR,CLEAR,CLEAR","Cross-shore,Cross-shore,Onshore",3
5842041f4e65fad6a7708a57,2025_06_27,31.39261761368919,-81.26190520231917,Sapelo Island,1.3333333333333333,0.14666666666666667,0.45666666666666667,30,30,"NIGHT_CLEAR,CLEAR,CLEAR","Cross-shore,Cross-shore,Onshore",3
5842041f4e65fad6a7708a58,2025_06_27,34.42458783809001,-77.54492,Surf City Pier,1.2222222222222223,0.2833333333333333,0.5866666666666667,26,26,"NIGHT_CLEAR,CLEAR,CLEAR","Cross-shore,Cross-shore,Onshore",3
5842041f4e65fad6a7708a59,2025_06_27,31.4231993614213,-81.24725340591522,Cabretta Island,1.3333333333333333,0.16333333333333333,0.4666666666666667,30,30,"NIGHT_CLEAR,MOSTLY_CLEAR,CLEAR","Onshore,Cross-shore,Onshore",3
5842041f4e65fad6a7708a5a,2025_06_27,31.46684389030369,-81.2100056410468,Blackbeard Island,1,0.14666666666666667,0.45666666666666667,30,30,"NIGHT_CLEAR,MOSTLY_CLEAR,CLEAR","Onshore,Cross-shore,Onshore",3
5842041f4e65fad6a7708a5b,2025_06_27,31.85953587631629,-80.99031310336719,Wassaw Island/South End,1,0.02,0.32,29.666666666666668,29.666666666666668,"NIGHT_MOSTLY_CLEAR,CLEAR,CLEAR","Onshore,Cross-shore,Onshore",3
5842041f4e65fad6a7708a5c,2025_06_27,31.62535662342983,-81.13328,St. Catherines Island,1.3333333333333333,0.22333333333333333,0.53,29.666666666666668,29.666666666666668,"NIGHT_CLEAR,MOSTLY_CLOUDY,CLEAR","Cross-shore,Cross-shore,Onshore",3
5842041f4e65fad6a7708a5d,2025_06_27,31.76502169596568,-81.07655443806622,Ossabaw Island,1,0.14333333333333334,0.44666666666666666,29.666666666666668,29.666666666666668,"NIGHT_MOSTLY_CLEAR,CLEAR,CLEAR","Cross-shore,Cross-shore,Onshore",3
5842041f4e65fad6a7708a5e,2025_06_27,31.90593619092352,-80.93589231700857,Wassaw Island/North End,1,0.21,0.51,29.666666666666668,29.666666666666668,"NIGHT_CLEAR,CLEAR,CLEAR","Onshore,Cross-shore,Onshore",3
5842041f4e65fad6a7708a5f,2025_06_27,31.96738675414547,-80.86977980706155,Little Tybee Island,1,0.18666666666666668,0.49333333333333335,29.666666666666668,29.666666666666668,"NIGHT_CLEAR,CLEAR,CLEAR","Onshore,Cross-shore,Onshore",3
5842041f4e65fad6a7708a60,2025_06_27,31.9812255780179,-80.84773973467009,South Tybee Sandbars,1,0.18333333333333335,0.4866666666666667,29.666666666666668,29.666666666666668,"NIGHT_CLEAR,CLEAR,CLEAR","Cross-shore,Cross-shore,Cross-shore",3
5842041f4e65fad6a7708a61,2025_06_27,32.01226,-80.83983,Sugar Shack,1,0.14666666666666667,0.45,29.666666666666668,29.666666666666668,"NIGHT_MOSTLY_CLOUDY,CLEAR,CLEAR","Offshore,Offshore,Cross-shore",3
5842041f4e65fad6a7708a62,2025_06_27,31.98722842396969,-80.84773,18th St. Jetty,1,0.05845333333333333,0.43838,29.666666666666668,29.666666666666668,"NIGHT_CLEAR,CLEAR,CLEAR","Cross-shore,Offshore,Cross-shore",3
5842041f4e65fad6a7708a64,2025_06_27,34.013473721006676,-77.8991,"Alabama Ave., Kure Beach",2,0.15666666666666668,0.45999999999999996,28,28,"NIGHT_CLEAR,CLEAR,CLEAR","Offshore,Offshore,Cross-shore",3
5842041f4e65fad6a7708a65,2025_06_27,34.20859853336924,-77.79293,"C Street, Wrightsville Beach",1.2222222222222223,0.17333333333333334,0.4766666666666667,26,26,"NIGHT_CLEAR,CLEAR,CLEAR","Cross-shore,Offshore,Onshore",3
5842041f4e65fad6a7708a66,2025_06_27,32.831,-79.71,Dewees Island,1.3333333333333333,0.12,0.4266666666666667,28,28,"NIGHT_CLEAR,CLEAR,CLEAR","Offshore,Offshore,Cross-shore",3
5842041f4e65fad6a7708a67,2025_06_27,33.82924423172106,-78.62813,Cherry Grove Pier,1,0.06333333333333334,0.36666666666666664,28.333333333333332,28.333333333333332,"NIGHT_MOSTLY_CLEAR,CLEAR,CLEAR","Onshore,Cross-shore,Onshore",3
5842041f4e65fad6a7708a69,2025_06_27,34.27197439666496,-77.74050223196774,Figure Eight and Shell Islands,1.3333333333333333,0.3066666666666667,0.6133333333333333,26,26,"NIGHT_CLEAR,MOSTLY_CLOUDY,CLEAR","Cross-shore,Cross-shore,Onshore",3
5842041f4e65fad6a7708a6b,2025_06_27,33.49041958261793,-79.07666070599386,North End,1,0.11333333333333334,0.4166666666666667,27.666666666666668,27.666666666666668,"NIGHT_CLEAR,CLEAR,CLEAR","Cross-shore,Cross-shore,Onshore",3
5842041f4e65fad6a7708a6c,2025_06_27,33.39537062495087,-79.13835037835189,The South End,1,0.08,0.38,27,27,"NIGHT_CLEAR,CLEAR,CLEAR","Cross-shore,Cross-shore,Onshore",3
5842041f4e65fad6a7708a6d,2025_06_27,33.29001727666697,-79.17190003352977,North Island,1.3333333333333333,0.21333333333333335,0.52,27,27,"NIGHT_CLEAR,CLEAR,CLEAR","Offshore,Offshore,Cross-shore",3
5842041f4e65fad6a7708a6e,2025_06_27,32.90929771158952,-79.57810400297359,Bull Island,1,0.12666666666666668,0.43333333333333335,28,28,"NIGHT_CLEAR,CLEAR,CLEAR","Cross-shore,Cross-shore,Onshore",3
5842041f4e65fad6a7708a6f,2025_06_27,31.99153112815895,-80.84543050470074,Tybee Island Pier,0,0,0.2733333333333333,29.666666666666668,29.666666666666668,"NIGHT_CLEAR,CLEAR,CLEAR","Cross-shore,Cross-shore,Cross-shore",3
5842041f4e65fad6a7708a70,2025_06_27,33.03478144356316,-79.35021028265125,Cape Romain,1,0.21,0.5133333333333333,28,28,"NIGHT_CLEAR,MOSTLY_CLOUDY,CLEAR","Cross-shore,Offshore,Cross-shore",3
5842041f4e65fad6a7708a71,2025_06_27,33.43231073271028,-79.11789,The Pier,1,0.00827,0.3597866666666667,27.666666666666668,27.666666666666668,"NIGHT_CLEAR,CLEAR,CLEAR","Cross-shore,Cross-shore,Onshore",3
5842041f4e65fad6a7708a72,2025_06_27,33.45423621397969,-79.10497798178424,South Litchfield,1,0.06,0.37,27.666666666666668,27.666666666666668,"NIGHT_CLEAR,CLEAR,CLEAR","Cross-shore,Cross-shore,Onshore",3
5842041f4e65fad6a7708a73,2025_06_27,34.19316590251396,-77.8045,Crystal Pier,1.4444444444444444,0.1177,0.4422666666666667,26,26,"NIGHT_CLEAR,CLEAR,CLEAR","Cross-shore,Offshore,Onshore",3
5842041f4e65fad6a7708a74,2025_06_27,33.68628680045124,-78.88346,Myrtle Beach,1,0.10333333333333333,0.41000000000000003,28,28,"NIGHT_CLEAR,CLEAR,CLEAR","Cross-shore,Cross-shore,Onshore",3
5842041f4e65fad6a7708a75,2025_06_27,32.66166297145973,-79.91951806398808,10th Street,1,0.19282666666666667,0.50617,29,29,"NIGHT_CLEAR,CLEAR,CLEAR","Cross-shore,Cross-shore,Onshore",3
5842041f4e65fad6a7708a76,2025_06_27,33.16729555197199,-79.19829236867845,South Island,1,0.2,0.5066666666666667,28,28,"NIGHT_CLEAR,CLEAR,CLEAR","Cross-shore,Offshore,Cross-shore",3
5842041f4e65fad6a7708a77,2025_06_27,32.595,-80.088,Kiawah Island/Seabrook Island,1,0.14,0.44666666666666666,29,29,"NIGHT_CLEAR,CLEAR,CLEAR","Onshore,Onshore,Onshore",3
5842041f4e65fad6a7708a78,2025_06_27,32.51356930575787,-80.28223,Edisto Beach,1,0.01769,0.4245333333333334,29,29,"NIGHT_MOSTLY_CLOUDY,CLEAR,CLEAR","Onshore,Cross-shore,Onshore",3
5842041f4e65fad6a7708a79,2025_06_27,32.366270751262,-80.43911,Hunting Island,1,0.03715,0.4127633333333333,29,29,"NIGHT_MOSTLY_CLOUDY,MOSTLY_CLEAR,CLEAR","Cross-shore,Offshore,Cross-shore",3
5842041f4e65fad6a7708a7a,2025_06_27,32.65337734408365,-79.93983,Folly Beach Pier,1,0.12396,0.43386,29,29,"NIGHT_CLEAR,CLEAR,CLEAR","Onshore,Onshore,Onshore",3
5842041f4e65fad6a7708a7b,2025_06_27,33.41209545530049,-79.13026341393126,South Jetty,1,0.08,0.38,27,27,"NIGHT_CLEAR,CLEAR,CLEAR","Cross-shore,Cross-shore,Onshore",3
5842041f4e65fad6a7708a7c,2025_06_27,32.31115640606869,-80.48564,Fripp Island,1,0.07367333333333334,0.46805,29,29,"NIGHT_MOSTLY_CLOUDY,CLEAR,CLEAR","Onshore,Onshore,Onshore",3
5842041f4e65fad6a7708a7d,2025_06_27,32.14365226036034,-80.74402,Hilton Head Island,1,0,0.19666666666666666,29.666666666666668,29.666666666666668,"NIGHT_CLEAR,CLEAR,CLEAR","Onshore,Cross-shore,Onshore",3
5842041f4e65fad6a7708a7e,2025_06_27,29.70405364733744,-81.22426,Matanzas Inlet,1.8333333333333333,0.11086333333333333,0.46257,27,27,"NIGHT_CLEAR,CLEAR,CLEAR","Cross-shore,Onshore,Onshore",3
5842041f4e65fad6a7708a81,2025_06_27,29.76878537149042,-81.25109,Crescent Beach,2,0.11333333333333334,0.41333333333333333,27,27,"NIGHT_CLEAR,CLEAR,CLEAR","Cross-shore,Onshore,Onshore",3
5842041f4e65fad6a7708a82,2025_06_27,32.80251718689188,-79.73221919500764,Wild Dunes,1,0.25333333333333335,0.5599999999999999,29,29,"NIGHT_CLEAR,MOSTLY_CLOUDY,CLEAR","Onshore,Cross-shore,Onshore",3
5842041f4e65fad6a7708a84,2025_06_27,32.75733539419244,-79.83258856064796,Bert's Bar,1,0.02666666666666667,0.32666666666666666,29,29,"NIGHT_CLEAR,CLEAR,CLEAR","Cross-shore,Cross-shore,Onshore",3
5842041f4e65fad6a7708a85,2025_06_27,32.66829212943039,-79.90735,Washout,1,0.15498,0.46493666666666666,28,27,"NIGHT_CLEAR,CLEAR,CLEAR","Cross-shore,Cross-shore,Onshore",3
5842041f4e65fad6a7708a86,2025_06_27,32.78452968219067,-79.7854,The Pier/Windjammer,1,0.25333333333333335,0.5599999999999999,29,29,"NIGHT_CLEAR,CLEAR,CLEAR","Onshore,Cross-shore,Onshore",3
5842041f4e65fad6a7708a87,2025_06_27,29.86618162637438,-81.2662150259608,Anastasia Park (The Entrance),2,0.10666666666666667,0.41333333333333333,27,27,"NIGHT_CLEAR,MOSTLY_CLEAR,CLEAR","Cross-shore,Onshore,Onshore",3
5842041f4e65fad6a7708a89,2025_06_27,29.89149785916623,-81.2723223244215,Blowholes,1.8333333333333333,0.11666666666666667,0.42666666666666664,28,27,"NIGHT_CLEAR,MOSTLY_CLOUDY,CLEAR","Cross-shore,Onshore,Onshore",3
5842041f4e65fad6a7708a8a,2025_06_27,30.16227112983666,-81.35502907491218,Crossroads,1.3333333333333333,0.24333333333333335,0.5533333333333333,28,27,"NIGHT_MOSTLY_CLEAR,CLEAR,MIST","Cross-shore,Cross-shore,Onshore",3
5842041f4e65fad6a7708a8b,2025_06_27,30.19308537587637,-81.36314247820911,Sawgrass,1.3333333333333333,0.2633333333333333,0.5700000000000001,28,27,"NIGHT_CLEAR,CLEAR,CLEAR","Cross-shore,Onshore,Onshore",3
5842041f4e65fad6a7708a8c,2025_06_27,30.34696027700899,-81.39451,18th Street,1.3333333333333333,0.09568,0.49579666666666666,27,27,"NIGHT_MOSTLY_CLEAR,MOSTLY_CLOUDY,CLEAR","Onshore,Cross-shore,Onshore",3
5842041f4e65fad6a7708a8d,2025_06_27,30.381793,-81.39686,Mayport Poles,2,0.29333333333333333,0.6,27,27,"NIGHT_CLEAR,CLEAR,CLEAR","Onshore,Onshore,Onshore",3
5842041f4e65fad6a7708a8e,2025_06_27,30.390516,-81.395591,Blue Roofs,2,0.2833333333333333,0.5866666666666667,27,27,"NIGHT_CLEAR,CLEAR,CLEAR","Onshore,Onshore,Onshore",3
5842041f4e65fad6a7708a8f,2025_06_27,30.40517712722211,-81.40074116169004,Huguenot Park (North Jetty),1.3333333333333333,0.18,0.48666666666666664,27,27,"NIGHT_CLEAR,CLEAR,CLEAR","Cross-shore,Onshore,Onshore",3
5842041f4e65fad6a7708a90,2025_06_27,30.47788918872762,-81.41056,Talbot Island,2.1666666666666665,0.5368066666666667,0.6997733333333334,27,27,"NIGHT_CLEAR,CLEAR,CLEAR","Cross-shore,Onshore,Onshore",3
5842041f4e65fad6a7708a91,2025_06_27,30.66753984549761,-81.42983,Main Beach,1.3333333333333333,0.21333333333333335,0.5166666666666667,27.666666666666668,27.666666666666668,"NIGHT_MOSTLY_CLEAR,MOSTLY_CLOUDY,CLEAR","Onshore,Onshore,Onshore",3
5842041f4e65fad6a7708a92,2025_06_27,30.69983581209126,-81.42483,Ft. Clinch State Park,1.3333333333333333,0.25,0.56,28,28,"NIGHT_MOSTLY_CLEAR,MOSTLY_CLOUDY,CLEAR","Cross-shore,Onshore,Onshore",3
5842041f4e65fad6a7708a93,2025_06_27,30.62059700777582,-81.43725,Amelia Pier,1,0.25333333333333335,0.56,27.666666666666668,27.666666666666668,"NIGHT_CLEAR,CLEAR,CLEAR","Cross-shore,Onshore,Onshore",3
5842041f4e65fad6a7708a95,2025_06_27,28.95125170929067,-80.83837,Bethune Beach,1.6666666666666667,0.29,0.59,27.666666666666668,27.666666666666668,"NIGHT_CLEAR,CLEAR,CLEAR","Cross-shore,Offshore,Cross-shore",3
5842041f4e65fad6a7708a96,2025_06_27,29.03874288905362,-80.8933424949646,Flagler Ave.,1,0.11893666666666666,0.47574666666666665,27,27,"NIGHT_CLEAR,CLEAR,CLEAR","Cross-shore,Offshore,Cross-shore",3
5842041f4e65fad6a7708a98,2025_06_27,30.332297686992757,-81.39319,Atlantic Beach,1.3333333333333333,0.09208666666666666,0.53797,27,27,"NIGHT_MOSTLY_CLEAR,MOSTLY_CLOUDY,CLEAR","Cross-shore,Onshore,Onshore",3
5842041f4e65fad6a7708a99,2025_06_27,29.87530059952514,-81.26757958498874,Middles,1.8333333333333333,0.11666666666666667,0.42333333333333334,28,27,"NIGHT_CLEAR,MOSTLY_CLOUDY,CLEAR","Cross-shore,Onshore,Onshore",3
5842041f4e65fad6a7708a9a,2025_06_27,29.146475528378218,-80.96347,Sunglow Pier,1.6666666666666667,0.25333333333333335,0.56,27,27,"NIGHT_CLEAR,CLEAR,CLEAR","Cross-shore,Cross-shore,Onshore",3
5842041f4e65fad6a7708a9b,2025_06_27,30.02251238001095,-81.32183077344881,Gate Station,1.8333333333333333,0.13,0.43666666666666665,28,27,"NIGHT_CLEAR,CLEAR,CLEAR","Cross-shore,Onshore,Onshore",3
5842041f4e65fad6a7708a9c,2025_06_27,29.33976495417899,-81.0606,Bicentennial Park,1.6666666666666667,0.13333333333333333,0.44,27,27,"NIGHT_CLEAR,CLEAR,CLEAR","Cross-shore,Cross-shore,Onshore",3
5842041f4e65fad6a7708a9d,2025_06_27,29.08257353385602,-80.92137,Ponce Inlet,1.5,0.2888,0.6168166666666667,27,27,"NIGHT_CLEAR,CLEAR,CLEAR","Cross-shore,Offshore,Cross-shore",3
5842041f4e65fad6a7708a9f,2025_06_27,27.862962005874696,-80.44668,Sebastian Inlet,1.6666666666666667,0.4836333333333333,0.66179,28,28,"NIGHT_CLEAR,CLEAR,MOSTLY_CLOUDY","Offshore,Offshore,Cross-shore",3
5842041f4e65fad6a7708aa0,2025_06_27,30.292626880836885,-81.38579,Jacksonville Beach Pier,1.3333333333333333,0.26,0.5633333333333334,27,27,"NIGHT_CLEAR,CLEAR,CLEAR","Cross-shore,Onshore,Onshore",3
5842041f4e65fad6a7708aa2,2025_06_27,29.21860397328164,-81.0019,Daytona Beach,1.3333333333333333,0.15333333333333335,0.46,27,27,"NIGHT_CLEAR,CLEAR,CLEAR","Cross-shore,Cross-shore,Onshore",3
5842041f4e65fad6a7708aa3,2025_06_27,27.47531255634912,-80.28914,Ft. Pierce Inlet,1.1666666666666667,0.011466666666666667,0.33636666666666665,28,28,"NIGHT_MOSTLY_CLOUDY,CLEAR,CLEAR","Cross-shore,Offshore,Onshore",3
5842041f4e65fad6a7708aa4,2025_06_27,29.29239875585548,-81.0386,Ormond Beach,1.6666666666666667,0.17333333333333334,0.48,27,27,"NIGHT_CLEAR,CLEAR,HEAVY_SHOWERS","Cross-shore,Cross-shore,Onshore",3
5842041f4e65fad6a7708aa5,2025_06_27,29.91629441498523,-81.28801,Vilano,1.6666666666666667,0.09666666666666666,0.4,27,27,"NIGHT_CLEAR,MOSTLY_CLOUDY,MOSTLY_CLEAR","Cross-shore,Onshore,Onshore",3
5842041f4e65fad6a7708aa6,2025_06_27,27.876230736320828,-80.4551,Spanish House,1.6666666666666667,0.23184000000000002,0.5704,28,28,"NIGHT_CLEAR,CLEAR,CLEAR","Cross-shore,Cross-shore,Cross-shore",3
5842041f4e65fad6a7708aa7,2025_06_27,28.64397251741012,-80.62329,Playalinda,1.6666666666666667,0.32,0.62,27,27,"NIGHT_CLEAR,CLEAR,CLEAR","Cross-shore,Cross-shore,Onshore",3
5842041f4e65fad6a7708aa8,2025_06_27,28.406142,-80.58886,Jetty Park,1.3333333333333333,0.20083,0.5214533333333333,28,28,"NIGHT_CLEAR,CLEAR,CLEAR","Onshore,Cross-shore,Onshore",3
5842041f4e65fad6a7708aa9,2025_06_27,28.49083243010974,-80.58001715986319,Kennedy Space Center,0.6666666666666666,0.18,0.48333333333333334,27.333333333333332,27.333333333333332,"NIGHT_CLEAR,CLEAR,CLEAR","Cross-shore,Offshore,Onshore",3
5842041f4e65fad6a7708aab,2025_06_27,28.336757013024314,-80.60568,Lori Wilson Park,1.5,0.24797666666666668,0.5604966666666666,27,27,"NIGHT_MOSTLY_CLOUDY,CLEAR,CLEAR","Onshore,Cross-shore,Onshore",3
5842041f4e65fad6a7708aad,2025_06_27,27.76388821683801,-80.3962958234027,Wabasso,2,0.14666666666666667,0.45,27,27,"NIGHT_CLEAR,CLEAR,CLEAR","Cross-shore,Offshore,Cross-shore",3
5842041f4e65fad6a7708aae,2025_06_27,27.521583322459,-80.30987620353699,P.V. Martin's,0.8333333333333334,0.06666666666666667,0.37,28,28,"NIGHT_MOSTLY_CLOUDY,CLEAR,CLEAR","Cross-shore,Cross-shore,Onshore",3
5842041f4e65fad6a7708aaf,2025_06_27,27.644996047720046,-80.35242676734924,Riomar,0.3333333333333333,0.07333333333333333,0.37666666666666665,28,28,"NIGHT_CLEAR,CLEAR,LIGHT_RAIN","Cross-shore,Cross-shore,Onshore",3
5842041f4e65fad6a7708ab1,2025_06_27,27.670121806659253,-80.36026954650879,Vero Pier,1.1666666666666667,0.13,0.43666666666666665,28,28,"NIGHT_CLEAR,CLEAR,CLEAR","Cross-shore,Cross-shore,Onshore",3
5842041f4e65fad6a7708ab2,2025_06_27,28.047705032021486,-80.54680109024048,Spessard Holland,1.3333333333333333,0.36505666666666664,0.64376,28,28,"NIGHT_CLEAR,CLEAR,CLEAR","Cross-shore,Cross-shore,Onshore",3
5842041f4e65fad6a7708ab7,2025_06_27,28.135426226217064,-80.57895541191101,The Radisson,1.6666666666666667,0.24706666666666666,0.5813333333333334,28,28,"NIGHT_CLEAR,CLEAR,CLEAR","Cross-shore,Cross-shore,Onshore",3
5842041f4e65fad6a7708ab8,2025_06_27,28.26664623907351,-80.60448,Picnic Tables,1.6666666666666667,0.30333333333333334,0.61,28,28,"NIGHT_CLEAR,CLEAR,CLEAR","Cross-shore,Cross-shore,Onshore",3
5842041f4e65fad6a7708ab9,2025_06_27,28.200840983180232,-80.59493,Perkins,1.6666666666666667,0.2759166666666667,0.602,28,28,"NIGHT_CLEAR,CLEAR,CLEAR","Cross-shore,Cross-shore,Onshore",3
5842041f4e65fad6a7708aba,2025_06_27,28.185652556759443,-80.59154,RC's,1.6666666666666667,0.21858333333333332,0.5410833333333334,28,28,"NIGHT_CLEAR,CLEAR,CLEAR","Cross-shore,Cross-shore,Onshore",3
5842041f4e65fad6a7708abc,2025_06_27,28.252541991968208,-80.60269,2nd Light,1.6666666666666667,0.28,0.5833333333333334,28,28,"NIGHT_CLEAR,CLEAR,CLEAR","Cross-shore,Cross-shore,Onshore",3
5842041f4e65fad6a7708abd,2025_06_27,27.901611308716447,-80.4697,Bonsteel Park,1.3333333333333333,0.2576,0.59984,28,28,"NIGHT_CLEAR,CLEAR,CLEAR","Cross-shore,Cross-shore,Cross-shore",3
5842041f4e65fad6a7708abe,2025_06_27,28.2423394657007,-80.60104,Hangar's Beach,1.6666666666666667,0.22333333333333333,0.5233333333333333,28,28,"NIGHT_CLEAR,CLEAR,CLEAR","Cross-shore,Cross-shore,Onshore",3
5842041f4e65fad6a7708abf,2025_06_27,27.34018197146798,-80.23278,Walton Rocks,0.6666666666666666,0.02666666666666667,0.32666666666666666,28,28,"NIGHT_FOG,MOSTLY_CLOUDY,CLEAR","Cross-shore,Offshore,Cross-shore",3
5842041f4e65fad6a7708ac0,2025_06_27,25.80407401902198,-80.1222227290161,30th Street,0,0,0.2920933333333333,29,29,"NIGHT_CLEAR,CLEAR,CLEAR","Onshore,Onshore,Onshore",3
5842041f4e65fad6a7708ac1,2025_06_27,25.76570280215999,-80.12983,South Beach,0,0,0.24980333333333335,28,27,"NIGHT_MOSTLY_CLOUDY,CLEAR,MOSTLY_CLOUDY","Onshore,Onshore,Onshore",3
5842041f4e65fad6a7708ac2,2025_06_27,26.058022412197,-80.10873562327671,Dania Pier,0,0,0.23666666666666666,29,29,"NIGHT_MOSTLY_CLOUDY,CLEAR,CLEAR","Cross-shore,Onshore,Onshore",3
5842041f4e65fad6a7708ac3,2025_06_27,26.04825428257198,-80.11153150137932,Franklin Street,1,0.013333333333333332,0.3066666666666667,29,29,"NIGHT_MOSTLY_CLOUDY,CLEAR,CLEAR","Onshore,Onshore,Onshore",3
5842041f4e65fad6a7708ac4,2025_06_27,26.09086461141498,-80.10728410144065,John Lloyd State Park,0.6666666666666666,0.013333333333333332,0.3066666666666667,29,29,"NIGHT_MOSTLY_CLOUDY,CLEAR,MOSTLY_CLEAR","Onshore,Onshore,Onshore",3
5842041f4e65fad6a7708ac5,2025_06_27,26.0971397396683,-80.10298876028907,Spoils,0,0,0.24,29,29,"NIGHT_CLEAR,CLEAR,MOSTLY_CLEAR","Onshore,Onshore,Onshore",3
5842041f4e65fad6a7708ac6,2025_06_27,26.18920557475824,-80.09224,Commercial Pier,0,0,0.24666666666666667,29,29,"NIGHT_MOSTLY_CLOUDY,MOSTLY_CLOUDY,MOSTLY_CLEAR","Onshore,Onshore,Onshore",3
5842041f4e65fad6a7708ac7,2025_06_27,28.289851576629342,-80.6063,16th St. South,1.3333333333333333,0.18342,0.4959133333333333,27,27,"NIGHT_CLEAR,CLEAR,CLEAR","Cross-shore,Cross-shore,Onshore",3
5842041f4e65fad6a7708ac8,2025_06_27,26.23467460139735,-80.0874,Pompano Pier,0,0,0.21333333333333335,29,29,"NIGHT_CLEAR,CLEAR,MOSTLY_CLEAR","Onshore,Onshore,Onshore",3
5842041f4e65fad6a7708acb,2025_06_27,26.44179551370651,-80.05928855229453,Atlantic Dunes Park,0,0.0997,0.28142333333333336,28,27,"NIGHT_CLEAR,CLEAR,CLEAR","Onshore,Onshore,Onshore",3
5842041f4e65fad6a7708acd,2025_06_27,26.62215707439298,-80.03599398392342,Hilton Hotel Backyard,0.8333333333333334,0.05925333333333333,0.39996,28,27,"NIGHT_CLEAR,CLEAR,BRIEF_SHOWERS_POSSIBLE","Onshore,Onshore,Onshore",3
5842041f4e65fad6a7708ace,2025_06_27,26.96418190555367,-80.07769168113562,Coral Cove Park,0.8333333333333334,0,0.2633333333333333,28,27,"NIGHT_OVERCAST,MOSTLY_CLOUDY,MOSTLY_CLOUDY","Onshore,Cross-shore,Cross-shore",3
5842041f4e65fad6a7708acf,2025_06_27,26.7029496416037,-80.03184,Palm Beach,0.8333333333333334,0.023333333333333334,0.32666666666666666,28,27,"NIGHT_CLEAR,CLEAR,HEAVY_SHOWERS","Cross-shore,Cross-shore,Onshore",3
5842041f4e65fad6a7708ad0,2025_06_27,26.97679878167375,-80.08141631388132,Blowing Rocks,0.8333333333333334,0.056666666666666664,0.36,28,27,"NIGHT_CLEAR,MIST,CLEAR","Onshore,Cross-shore,Cross-shore",3
5842041f4e65fad6a7708ad2,2025_06_27,26.45661880078336,-80.057,Delray Beach,0,0,0.22874333333333333,28,27,"NIGHT_CLEAR,CLEAR,CLEAR","Onshore,Onshore,Cross-shore",3
5842041f4e65fad6a7708ad3,2025_06_27,27.205685534312778,-80.16826629638672,Fletcher's,1.5,0.07333333333333333,0.37666666666666665,28,27,"NIGHT_FOG,BRIEF_SHOWERS,CLEAR","Offshore,Cross-shore,Onshore",3
5842041f4e65fad6a7708ad5,2025_06_27,26.5848450388814,-80.03649735753257,Lantana Public Beach,0.8333333333333334,0.07777,0.41847666666666666,28,27,"NIGHT_MOSTLY_CLOUDY,MOSTLY_CLOUDY,CLEAR","Onshore,Onshore,Onshore",3
5842041f4e65fad6a7708ad6,2025_06_27,25.77468432731322,-80.12884045797499,5th Street,0.6666666666666666,0,0.31131000000000003,29,29,"NIGHT_CLEAR,CLEAR,CLEAR","Onshore,Onshore,Onshore",3
5842041f4e65fad6a7708ad7,2025_06_27,25.795157990715975,-80.12527585029602,21st Street,0,0,0.24981666666666666,29,29,"NIGHT_CLEAR,CLEAR,CLEAR","Onshore,Onshore,Onshore",3
5842041f4e65fad6a7708ad8,2025_06_27,25.897806453088073,-80.1211827993393,Haulover Inlet (South Jetty),0,0,0.17666666666666667,29,29,"NIGHT_MOSTLY_CLOUDY,CLEAR,MOSTLY_CLEAR","Onshore,Onshore,Onshore",3
5842041f4e65fad6a7708ad9,2025_06_27,25.90147392328634,-80.12110769748688,Haulover Inlet (North Jetty),0,0,0.28,29,29,"NIGHT_MOSTLY_CLOUDY,CLEAR,MOSTLY_CLEAR","Onshore,Onshore,Onshore",3
5842041f4e65fad6a7708ada,2025_06_27,25.87049374242476,-80.11828560342356,85th Street,0.3333333333333333,0,0.17666666666666667,29,29,"NIGHT_CLEAR,CLEAR,CLEAR","Cross-shore,Onshore,Onshore",3
5842041f4e65fad6a7708adb,2025_06_27,26.25486382031396,-80.0805,Hillsboro Inlet,1,0.17437333333333332,0.4952166666666667,29,29,"NIGHT_CLOUDY,MOSTLY_CLOUDY,CLEAR","Onshore,Onshore,Onshore",3
5842041f4e65fad6a7708add,2025_06_27,26.29705672965111,-80.07612,Hillsboro Beach,0.6666666666666666,0.1054,0.24998,29,29,"NIGHT_OVERCAST,CLEAR,CLEAR","Onshore,Onshore,Onshore",3
5842041f4e65fad6a7708ade,2025_06_27,26.36569956413266,-80.06717936869391,Red Reef Park,0,0,0.2733333333333333,28,27,"NIGHT_BRIEF_SHOWERS_POSSIBLE,CLEAR,BRIEF_SHOWERS","Onshore,Onshore,Cross-shore",3
5842041f4e65fad6a7708adf,2025_06_27,26.54593873498907,-80.04104359585143,Boynton Beach Inlet (Northside),-0.16666666666666666,0,0.29,28,27,"NIGHT_CLEAR,CLEAR,MOSTLY_CLEAR","Onshore,Onshore,Onshore",3
5842041f4e65fad6a7708ae0,2025_06_27,26.92746505629809,-80.06721138954163,Corners,1,0.40457333333333334,0.6402033333333333,28,27,"NIGHT_OVERCAST,CLEAR,MOSTLY_CLOUDY","Onshore,Cross-shore,Cross-shore",3
5842041f4e65fad6a7708ae1,2025_06_27,26.76983179886943,-80.03413481937037,The Cove,0.5,0.023333333333333334,0.32666666666666666,28,27,"NIGHT_DRIZZLE,CLEAR,CLEAR","Onshore,Onshore,Onshore",3
5842041f4e65fad6a7708ae3,2025_06_27,26.39224485175123,-80.0650461233983,Japanese Rock,0.16666666666666666,0,0.27,28,27,"NIGHT_CLEAR,CLEAR,HEAVY_SHOWERS","Onshore,Onshore,Cross-shore",3
5842041f4e65fad6a7708ae4,2025_06_27,29.94810928551321,-85.42545434612366,Mexico Beach,0,0,0.09,30,30,"NIGHT_MOSTLY_CLEAR,CLEAR,CLEAR","Offshore,Offshore,Offshore",3
5842041f4e65fad6a7708ae5,2025_06_27,30.11752500931267,-85.7306,Shell Island,0,0,0.12333333333333334,31,31,"NIGHT_MOSTLY_CLEAR,MIST,CLEAR","Offshore,Offshore,Onshore",3
5842041f4e65fad6a7708ae7,2025_06_27,29.94901514702268,-85.43042978529013,D.J.'s,0,0,0.09,30,30,"NIGHT_MOSTLY_CLEAR,CLEAR,CLEAR","Offshore,Offshore,Cross-shore",3
5842041f4e65fad6a7708ae8,2025_06_27,30.12396111446713,-85.73637,St. Andrew's Park,0,0,0.12,29.666666666666668,29.666666666666668,"NIGHT_MOSTLY_CLEAR,MIST,CLEAR","Offshore,Offshore,Cross-shore",3
5842041f4e65fad6a7708ae9,2025_06_27,30.16781531760227,-85.79604918824084,Spinnaker,0,0,0.13666666666666666,29.666666666666668,29.666666666666668,"NIGHT_CLEAR,CLEAR,CLEAR","Offshore,Cross-shore,Onshore",3
5842041f4e65fad6a7708aea,2025_06_27,30.18877050526983,-85.83243530466363,Wood Pier,0.3333333333333333,0,0.14,29.666666666666668,29.666666666666668,"NIGHT_MOSTLY_CLEAR,CLEAR,CLEAR","Offshore,Offshore,Onshore",3
5842041f4e65fad6a7708aeb,2025_06_27,30.2676205895555,-85.9938578144113,Inlet Beach Pier,0.3333333333333333,0,0.16,29.666666666666668,29.666666666666668,"NIGHT_CLEAR,CLEAR,CLEAR","Offshore,Offshore,Onshore",3
5842041f4e65fad6a7708aec,2025_06_27,30.31815542759119,-86.1383771867044,Bud and Alley's,0.3333333333333333,0,0.17,29.333333333333332,29.333333333333332,"NIGHT_MOSTLY_CLEAR,MOSTLY_CLEAR,MOSTLY_CLEAR","Offshore,Offshore,Onshore",3
5842041f4e65fad6a7708aed,2025_06_27,30.32686082481946,-86.16650590275447,Grayton Beach,0.7777777777777778,0,0.18333333333333332,29.333333333333332,29.333333333333332,"NIGHT_MOSTLY_CLEAR,CLEAR,CLEAR","Offshore,Offshore,Onshore",3
5842041f4e65fad6a7708aee,2025_06_27,30.33661488976303,-86.20094,Blue Mountain Beach,0.3333333333333333,0,0.17333333333333334,29.333333333333332,29.333333333333332,"NIGHT_CLEAR,CLEAR,CLEAR","Offshore,Offshore,Onshore",3
5842041f4e65fad6a7708aef,2025_06_27,30.37677202831587,-86.38513,Pompano Joe's,0.7777777777777778,0,0.20333333333333334,29.333333333333332,29.333333333333332,"NIGHT_CLEAR,MIST,CLEAR","Offshore,Offshore,Onshore",3
5842041f4e65fad6a7708af0,2025_06_27,30.37429731725911,-86.36687,Seascape,0.7777777777777778,0,0.18666666666666668,29.333333333333332,29.333333333333332,"NIGHT_CLEAR,BRIEF_SHOWERS,CLEAR","Offshore,Onshore,Onshore",3
5842041f4e65fad6a7708af1,2025_06_27,30.382815988547186,-86.45839,The Back Porch,0.7777777777777778,0,0.20333333333333334,29.666666666666668,29.666666666666668,"NIGHT_MOSTLY_CLOUDY,MIST,CLEAR","Offshore,Cross-shore,Onshore",3
5842041f4e65fad6a7708af2,2025_06_27,30.21207176798612,-85.87989730830542,Panama City Pier,0.11111111111111109,0,0.15,29.666666666666668,29.666666666666668,"NIGHT_CLEAR,MOSTLY_CLEAR,CLEAR","Offshore,Offshore,Cross-shore",3
5842041f4e65fad6a7708af3,2025_06_27,30.37521499110326,-86.3717,Whale's Tail,0.7777777777777778,0,0.19333333333333333,29.333333333333332,29.333333333333332,"NIGHT_CLEAR,BRIEF_SHOWERS,CLEAR","Offshore,Onshore,Onshore",3
5842041f4e65fad6a7708af4,2025_06_27,30.38120596658251,-86.43046,Old Crystal Pier,0.7777777777777778,0,0.18666666666666668,29.666666666666668,29.666666666666668,"NIGHT_MOSTLY_CLOUDY,BRIEF_SHOWERS,CLEAR","Offshore,Cross-shore,Onshore",3
5842041f4e65fad6a7708af5,2025_06_27,30.38090573159031,-86.50655,Jetty East,0.7777777777777778,0,0.20333333333333334,29.333333333333332,29.333333333333332,"NIGHT_MOSTLY_CLOUDY,CLEAR,CLEAR","Cross-shore,Cross-shore,Onshore",3
5842041f4e65fad6a7708af6,2025_06_27,30.37584509640838,-86.50563,HMO's,0,0,0.20333333333333334,29.333333333333332,29.333333333333332,"NIGHT_MOSTLY_CLOUDY,CLEAR,CLEAR","Cross-shore,Cross-shore,Onshore",3
5842041f4e65fad6a7708af7,2025_06_27,30.38124006131522,-86.50052,Two By Fours,0,0,0.20333333333333334,29.333333333333332,29.333333333333332,"NIGHT_MOSTLY_CLOUDY,CLEAR,CLEAR","Cross-shore,Cross-shore,Onshore",3
5842041f4e65fad6a7708af8,2025_06_27,30.38250751017554,-86.45776,The Pumphouse,0.7777777777777778,0,0.20333333333333334,29.666666666666668,29.666666666666668,"NIGHT_MOSTLY_CLOUDY,MIST,CLEAR","Cross-shore,Cross-shore,Onshore",3
5842041f4e65fad6a7708af9,2025_06_27,30.38655981578935,-86.52475,NCO Club,0.7777777777777778,0,0.20333333333333334,29.333333333333332,29.333333333333332,"NIGHT_MOSTLY_CLOUDY,CLEAR,CLEAR","Cross-shore,Cross-shore,Onshore",3
5842041f4e65fad6a7708afa,2025_06_27,30.39024516541047,-86.59341,Okaloosa Pier,0.7777777777777778,0,0.19666666666666668,29.333333333333332,29.333333333333332,"NIGHT_MOSTLY_CLOUDY,CLEAR,CLEAR","Cross-shore,Onshore,Onshore",3
5842041f4e65fad6a7708afb,2025_06_27,30.39281125722673,-86.59766,Dead Man's,0.7777777777777778,0,0.21,29.333333333333332,29.333333333333332,"NIGHT_MOSTLY_CLOUDY,CLEAR,CLEAR","Cross-shore,Cross-shore,Onshore",3
5842041f4e65fad6a7708afc,2025_06_27,30.32703176167034,-87.14196,Pensacola Pier,0.3333333333333333,0,0.24333333333333335,30,30,"NIGHT_FOG,SHOWERS,CLEAR","Cross-shore,Onshore,Onshore",3
5842041f4e65fad6a7708afd,2025_06_27,30.37920054094992,-86.85583,Navarre Beach,0.3333333333333333,0,0.144,29.333333333333332,29.333333333333332,"NIGHT_FOG,MOSTLY_CLEAR,CLEAR","Cross-shore,Cross-shore,Onshore",3
5842041f4e65fad6a7708afe,2025_06_27,30.39491626029151,-86.61248,Blue Horizon Motel,0.7777777777777778,0,0.20666666666666667,29.333333333333332,29.333333333333332,"NIGHT_MOSTLY_CLOUDY,CLEAR,CLEAR","Cross-shore,Cross-shore,Onshore",3
5842041f4e65fad6a7708aff,2025_06_27,30.29345899260828,-87.43547,First Parking Lot,0,0,0.24333333333333335,30,30,"NIGHT_CLOUDY,OVERCAST,CLEAR","Cross-shore,Cross-shore,Onshore",3
5842041f4e65fad6a7708b00,2025_06_27,30.29767401311303,-87.41362,Johnsons Beach,1,0,0.25,30,30,"NIGHT_CLEAR,BRIEF_SHOWERS_POSSIBLE,CLEAR","Onshore,Cross-shore,Onshore",3
5842041f4e65fad6a7708b01,2025_06_27,30.29513397370759,-87.42642,Sandy Key,1,0,0.24333333333333335,30,30,"NIGHT_CLOUDY,OVERCAST,CLEAR","Onshore,Cross-shore,Onshore",3
5842041f4e65fad6a7708b03,2025_06_27,30.377504907388026,-86.86444,Navarre Pier,0.3333333333333333,0,0.21656333333333333,29.333333333333332,29.333333333333332,"NIGHT_FOG,MOSTLY_CLEAR,CLEAR","Offshore,Onshore,Onshore",3
5842041f4e65fad6a7708b04,2025_06_27,30.31482647791307,-87.26164,Pickens Point Dunes,0.6666666666666666,0,0.24333333333333335,30,30,"NIGHT_OVERCAST,MOSTLY_CLOUDY,CLEAR","Onshore,Cross-shore,Onshore",3
5842041f4e65fad6a7708b05,2025_06_27,30.32632110836516,-87.16019503253068,Slabs,0.6666666666666666,0,0.25333333333333335,30,30,"NIGHT_FOG,SHOWERS,CLEAR","Cross-shore,Onshore,Onshore",3
5842041f4e65fad6a7708b06,2025_06_27,30.32739721382043,-87.30406515493348,Pickens Point,1,0,0.25333333333333335,30,30,"NIGHT_CLOUDY,BRIEF_SHOWERS,CLEAR","Cross-shore,Offshore,Cross-shore",3
5842041f4e65fad6a7708b07,2025_06_27,30.27406893266753,-87.54367,Bungalows,1,0,0.26,31,31,"NIGHT_CLEAR,CLEAR,CLEAR","Onshore,Cross-shore,Onshore",3
5842041f4e65fad6a7708b08,2025_06_27,27.99627311846992,-82.82942,880,0,0,0.05873333333333333,30,30,"NIGHT_CLEAR,CLEAR,CLEAR","Offshore,Offshore,Onshore",3
5842041f4e65fad6a7708b09,2025_06_27,27.97779860371595,-82.83246509090527,Pier 60,0,0,0.04666666666666667,30,30,"NIGHT_CLEAR,CLEAR,CLEAR","Offshore,Offshore,Onshore",3
5842041f4e65fad6a7708b0a,2025_06_27,27.96296387618043,-82.8332635965418,Sand Key,0,0,0.04666666666666667,30,30,"NIGHT_CLEAR,CLEAR,CLEAR","Offshore,Offshore,Onshore",3
5842041f4e65fad6a7708b0b,2025_06_27,27.92492619212885,-82.8449122845279,Belleair,0,0,0.04666666666666667,30,30,"NIGHT_MIST,MOSTLY_CLEAR,CLEAR","Offshore,Offshore,Onshore",3
5842041f4e65fad6a7708b0c,2025_06_27,27.882,-82.854,Indian Rocks Beach,0,0,0.05,30,30,"NIGHT_CLEAR,MOSTLY_CLOUDY,CLEAR","Offshore,Offshore,Onshore",3
5842041f4e65fad6a7708b0d,2025_06_27,27.83106104966094,-82.83550218771384,Redington Breakwater,0,0,0.05333333333333334,30,30,"NIGHT_MOSTLY_CLOUDY,MIST,CLEAR","Offshore,Offshore,Onshore",3
5842041f4e65fad6a7708b0e,2025_06_27,27.74369029906206,-82.76053473435867,Middle Jetty,0,0,0.05,30,30,"NIGHT_MOSTLY_CLOUDY,SHOWERS,CLEAR","Offshore,Cross-shore,Onshore",3
5842041f4e65fad6a7708b0f,2025_06_27,27.82174178852146,-82.83148664631841,Redington Pier,0,0,0.05,30,30,"NIGHT_MOSTLY_CLOUDY,MIST,CLEAR","Offshore,Offshore,Onshore",3
5842041f4e65fad6a7708b10,2025_06_27,27.31496308261514,-82.5830466912004,Lido Beach,0,0,0.05666666666666667,30,30,"NIGHT_CLEAR,CLEAR,CLEAR","Cross-shore,Cross-shore,Onshore",3
5842041f4e65fad6a7708b11,2025_06_27,27.31122010159892,-82.57833234007632,Coolidge,0,0,0.05666666666666667,30,30,"NIGHT_CLEAR,CLEAR,CLEAR","Cross-shore,Offshore,Onshore",3
5842041f4e65fad6a7708b12,2025_06_27,27.26471672017615,-82.55465,Siesta Key,0,0,0.025223333333333334,30,30,"NIGHT_CLEAR,SHOWERS,CLEAR","Cross-shore,Offshore,Onshore",3
5842041f4e65fad6a7708b13,2025_06_27,27.24638693488133,-82.53809115716797,Stickney Point,0,0,0.06333333333333334,30,30,"NIGHT_CLEAR,MOSTLY_CLEAR,CLEAR","Cross-shore,Offshore,Onshore",3
5842041f4e65fad6a7708b14,2025_06_27,27.21907878229092,-82.51813937562073,Turtles,0,0,0.060000000000000005,30,30,"NIGHT_CLEAR,CLEAR,CLEAR","Cross-shore,Offshore,Onshore",3
5842041f4e65fad6a7708b15,2025_06_27,27.11375765852028,-82.47039,Venice Jetties North,0,0,0.03,31,31,"NIGHT_CLEAR,CLEAR,CLEAR","Cross-shore,Offshore,Onshore",3
5842041f4e65fad6a7708b16,2025_06_27,27.111485758834025,-82.46757,Venice Jetties South,0,0,0.03154666666666667,31,31,"NIGHT_CLEAR,CLEAR,CLEAR","Cross-shore,Offshore,Onshore",3
5842041f4e65fad6a7708b17,2025_06_27,27.07249378831575,-82.4530285256104,Venice Pier,0,0,0.06333333333333334,31,31,"NIGHT_CLEAR,CLEAR,CLEAR","Cross-shore,Offshore,Onshore",3
5842041f4e65fad6a7708b19,2025_06_27,27.49680446426314,-82.7140145455959,Holmes Beach Pier,0,0,0.060000000000000005,30,30,"NIGHT_CLEAR,SHOWERS,CLEAR","Cross-shore,Offshore,Onshore",3
5842041f4e65fad6a7708b1a,2025_06_27,27.7390348493064,-82.75763,Sunset Beach,0,0,0.05,30,30,"NIGHT_MOSTLY_CLOUDY,SHOWERS,CLEAR","Cross-shore,Cross-shore,Onshore",3
5842041f4e65fad6a7708b1b,2025_06_27,26.80347307599041,-82.28564775623539,Gasparilla Point,0,0,0.07,30.666666666666668,30.666666666666668,"NIGHT_MOSTLY_CLOUDY,CLEAR,CLEAR","Cross-shore,Offshore,Onshore",3
5842041f4e65fad6a7708b1c,2025_06_27,27.45365831548911,-82.69609,Coquina Jetties,0,0,0.056666666666666664,30,30,"NIGHT_CLEAR,SHOWERS,CLEAR","Cross-shore,Offshore,Onshore",3
5842041f4e65fad6a7708b1d,2025_06_27,27.46077315206043,-82.69924,Twin Piers,0,0,0.026666666666666665,31,31,"NIGHT_CLEAR,SHOWERS,CLEAR","Cross-shore,Offshore,Onshore",3
5842041f4e65fad6a7708b1e,2025_06_27,26.91007316019612,-82.35352,Englewood,0,0,0.016666666666666666,30,30,"NIGHT_CLEAR,CLEAR,MOSTLY_CLEAR","Cross-shore,Cross-shore,Onshore",3
5842041f4e65fad6a7708b1f,2025_06_27,26.88221101560038,-82.3359828282636,Knight's Point,0,0,0.07333333333333333,30,30,"NIGHT_MOSTLY_CLOUDY,MOSTLY_CLEAR,MOSTLY_CLEAR","Cross-shore,Cross-shore,Onshore",3
5842041f4e65fad6a7708b20,2025_06_27,26.51219285784982,-82.1928203289264,Tween Waters,0,0,0.07666666666666666,30,30,"NIGHT_HEAVY_SHOWERS,MOSTLY_CLOUDY,CLEAR","Onshore,Offshore,Onshore",3
5842041f4e65fad6a7708b21,2025_06_27,26.55130241615096,-82.20222762415648,Redfish Pass,0,0,0.07666666666666666,30,30,"NIGHT_HEAVY_SHOWERS,MOSTLY_CLEAR,CLEAR","Cross-shore,Offshore,Cross-shore",3
5842041f4e65fad6a7708b22,2025_06_27,26.71713432926596,-82.26287777058234,Boca Grande,0,0,0.07333333333333333,31,31,"NIGHT_CLEAR,MOSTLY_CLEAR,CLEAR","Cross-shore,Offshore,Onshore",3
5842041f4e65fad6a7708b23,2025_06_27,26.47856785808584,-82.181288592828,Blind Pass,0,0,0.08,30,30,"NIGHT_MIST,CLEAR,CLEAR","Onshore,Cross-shore,Onshore",3
5842041f4e65fad6a7708b24,2025_06_27,26.25358330618783,-81.82429246081317,The Wall,0,0,0.06666666666666667,30,30,"NIGHT_FOG,MOSTLY_CLEAR,MOSTLY_CLEAR","Offshore,Offshore,Onshore",3
5842041f4e65fad6a7708b25,2025_06_27,26.17456407516186,-81.81588575623482,Doctor's Pass,0,0,0.06666666666666667,30,30,"NIGHT_FOG,CLEAR,CLEAR","Offshore,Offshore,Onshore",3
5842041f4e65fad6a7708b26,2025_06_27,27.427134501874612,-82.68110766159296,Whitney Beach,0,0,0.06666666666666667,30,30,"NIGHT_CLEAR,BRIEF_SHOWERS,CLEAR","Cross-shore,Offshore,Onshore",3
5842041f4e65fad6a7708b27,2025_06_27,26.17300183052463,-81.81515842430267,Doctor's Pass (South Jetty),0,0,0.07,30,30,"NIGHT_FOG,CLEAR,CLEAR","Offshore,Offshore,Onshore",3
5842041f4e65fad6a7708b28,2025_06_27,27.73496421495629,-82.75268962468695,Upham Beach Park,0,0,0.05,30,30,"NIGHT_MOSTLY_CLOUDY,SHOWERS,CLEAR","Offshore,Cross-shore,Onshore",3
5842041f4e65fad6a7708b29,2025_06_27,26.13144856766723,-81.8090395116521,Naples Pier,0,0,0.06333333333333334,30,30,"NIGHT_FOG,CLEAR,CLEAR","Offshore,Offshore,Onshore",3
5842041f4e65fad6a7708b2a,2025_06_27,20.63474,-156.45211,Little Beach,2,0.2,0.5066666666666667,26,26,"NIGHT_CLEAR,NIGHT_CLEAR,CLEAR","Onshore,Cross-shore,Onshore",3
5842041f4e65fad6a7708b2b,2025_06_27,20.613,-156.438,Dumps,2,0.12666666666666668,0.43333333333333335,26,26,"NIGHT_CLEAR,NIGHT_CLEAR,CLEAR","Onshore,Cross-shore,Onshore",3
5842041f4e65fad6a7708b2c,2025_06_27,22.216,-159.502,Hanalei Bay,2,0.5266666666666667,0.83,26,26,"NIGHT_CLEAR,NIGHT_MOSTLY_CLOUDY,CLEAR","Offshore,Offshore,Offshore",3
5842041f4e65fad6a7708b2d,2025_06_27,22.225,-159.567,Ha'Ena Bay (Cannons/Tunnels),1,0.5866666666666667,0.89,26,26,"NIGHT_BRIEF_SHOWERS,NIGHT_CLEAR,MOSTLY_CLEAR","Cross-shore,Cross-shore,Cross-shore",3
5842041f4e65fad6a7708b2f,2025_06_27,22.148,-159.301,Anahola Bay,1.3333333333333333,0.76,1.0633333333333332,26,26,"NIGHT_BRIEF_SHOWERS,NIGHT_OVERCAST,MOSTLY_CLOUDY","Onshore,Onshore,Onshore",3
5842041f4e65fad6a7708b30,2025_06_27,21.872,-159.462,Poipu Outer Reef,3,0.9966666666666667,1.2333333333333334,26,26,"NIGHT_MOSTLY_CLOUDY,NIGHT_CLEAR,MOSTLY_CLOUDY","Offshore,Offshore,Offshore",3
5842041f4e65fad6a7708b31,2025_06_27,21.936,-159.652,Pakala,3,0.3933333333333333,0.7,26,26,"NIGHT_CLEAR,NIGHT_CLEAR,CLEAR","Offshore,Offshore,Offshore",3
5842041f4e65fad6a7708b32,2025_06_27,21.272,-157.832,Populars,2.2777777777777777,0.47767333333333334,0.79496,26,25,"NIGHT_CLEAR,NIGHT_CLEAR,MOSTLY_CLEAR","Offshore,Offshore,Offshore",3
5842041f4e65fad6a7708b33,2025_06_27,21.26841992117695,-157.82329,Publics,2.2777777777777777,0.61596,0.9361200000000001,26,25,"NIGHT_CLEAR,NIGHT_CLEAR,CLEAR","Offshore,Offshore,Offshore",3
