_id,date,lat,lon,name,daily_mean_swell_rating,daily_mean_wave_height_min,daily_mean_wave_height_max,daily_mean_water_temperature_max,daily_mean_water_temperature_min,weather_per_timestamp,wind_per_timestamp,n_samples_per_day
5842041f4e65fad6a77087f9,2025_03_29,37.741668,-122.51038,South Ocean Beach,2,2.905105,3.8207500000000003,12,12,"NIGHT_CLEAR,NIGHT_CLEAR","Onshore,Onshore",2
5842041f4e65fad6a7708801,2025_03_29,37.49142,-122.50428,Maverick's,NA,3.035,3.42,12,12,"NIGHT_CLEAR,NIGHT_MIST","Cross-shore,Offshore",2
5842041f4e65fad6a7708804,2025_03_29,44.997,-124.018,Roads End,2,2.735,3.14,9.5,9.5,"NIGHT_BRIEF_SHOWERS,NIGHT_MOSTLY_CLOUDY","Onshore,Onshore",2
5842041f4e65fad6a7708805,2025_03_29,36.95188851423011,-122.02522,Steamer Lane,3.916666666666667,1.98774,2.421735,12,12,"NIGHT_MIST,CLEAR","Offshore,Offshore",2
5842041f4e65fad6a7708806,2025_03_29,36.95918781542251,-122.02489,Cowells,2,0.211455,0.5234300000000001,12.5,12.5,"NIGHT_MIST,CLEAR","Cross-shore,Offshore",2
5842041f4e65fad6a7708807,2025_03_29,36.95468082526536,-121.97234,Pleasure Point,4,1.903035,2.2733549999999996,12.5,12.5,"NIGHT_CLEAR,CLEAR","Offshore,Offshore",2
5842041f4e65fad6a770880a,2025_03_29,35.37815414378748,-120.86589,Morro Bay,3,2.072075,2.59338,11,11,"NIGHT_CLEAR,CLEAR","Offshore,Onshore",2
5842041f4e65fad6a770880b,2025_03_29,36.95782765000708,-121.96729,Jack's,3,0.778045,1.01527,12.5,12.5,"NIGHT_CLEAR,CLEAR","Offshore,Offshore",2
5842041f4e65fad6a770880d,2025_03_29,34.29982939936656,-119.3489016603669,Gold Coast Beachbreaks,3,0.64,0.94,13.5,13.5,"NIGHT_CLEAR,CLEAR","Offshore,Offshore",2
5842041f4e65fad6a7708811,2025_03_29,34.245076,-119.26799,Ventura Harbor,3,1.71458,2.24163,13,13,"NIGHT_CLEAR,MIST","Offshore,Offshore",2
5842041f4e65fad6a7708813,2025_03_29,34.051,-118.964,County Line,3.5,1.22452,1.5263650000000002,14,14,"NIGHT_CLEAR,FOG","Offshore,Onshore",2
5842041f4e65fad6a7708814,2025_03_29,34.37256264378892,-119.47797,Rincon,3.5,1.1,1.315,13.5,13.5,"NIGHT_CLEAR,CLEAR","Onshore,Cross-shore",2
5842041f4e65fad6a7708817,2025_03_29,34.03096101876324,-118.68109,Malibu Third Point,3,0.9762850000000001,1.1970800000000001,14,14,"NIGHT_MOSTLY_CLEAR,CLEAR","Onshore,Cross-shore",2
5842041f4e65fad6a7708819,2025_03_29,33.984079047970035,-118.47382,Venice Beach,3,1.57822,1.944525,14.5,14.5,"NIGHT_CLEAR,CLEAR","Offshore,Offshore",2
5842041f4e65fad6a770881e,2025_03_29,34.037508438646746,-118.5834,Topanga Beach,3.5,1.10341,1.36993,14,14,"NIGHT_MIST,CLEAR","Cross-shore,Offshore",2
5842041f4e65fad6a7708820,2025_03_29,33.73954373690184,-118.11414,Seal Beach Jetty,3,1.352995,1.620115,14.5,14.5,"NIGHT_MOSTLY_CLOUDY,OVERCAST","Onshore,Offshore",2
5842041f4e65fad6a7708822,2025_03_29,33.72309983348433,-118.08078,Anderson Street,3,1.3461249999999998,1.63354,14.5,14.5,"NIGHT_MOSTLY_CLOUDY,OVERCAST","Onshore,Offshore",2
5842041f4e65fad6a7708827,2025_03_29,33.65574085629463,-118.00397,Huntington Beach Pier Northside,2.5,1.394725,1.776645,14.5,14.5,"NIGHT_OVERCAST,OVERCAST","Onshore,Cross-shore",2
5842041f4e65fad6a7708828,2025_03_29,34.272041739333,-119.29976,C St.,3,0.91292,1.155425,13.5,13.5,"NIGHT_CLEAR,MIST","Offshore,Offshore",2
5842041f4e65fad6a770882a,2025_03_29,33.61555743705257,-117.93676,Newport Lower Jetties,2.5,1.338505,1.6529099999999999,14.5,14.5,"NIGHT_FOG,OVERCAST","Onshore,Onshore",2
5842041f4e65fad6a770882b,2025_03_29,33.5930302087,-117.88199,The Wedge,2.5,1.21026,1.49075,15,15,"NIGHT_FOG,CLOUDY","Onshore,Onshore",2
5842041f4e65fad6a770882e,2025_03_29,33.475793399792984,-117.72291,Salt Creek,3,1.5887799999999999,1.944575,14,14,"NIGHT_FOG,FOG","Onshore,Cross-shore",2
5842041f4e65fad6a7708830,2025_03_29,33.41800974113613,-117.61952,T-Street,2.5,1.45109,1.74646,15.5,15.5,"NIGHT_FOG,FOG","Onshore,Cross-shore",2
5842041f4e65fad6a7708832,2025_03_29,33.202391008646,-117.39475,Oceanside Harbor,2,1.641565,2.215675,14,14,"NIGHT_CLOUDY,LIGHT_RAIN_AND_FOG","Onshore,Onshore",2
5842041f4e65fad6a7708835,2025_03_29,33.19477795952803,-117.38667,Oceanside Pier,2,1.4914649999999998,1.7983,15.5,15.5,"NIGHT_OVERCAST,FOG","Onshore,Onshore",2
5842041f4e65fad6a7708837,2025_03_29,33.14948100706,-117.35029,Tamarack,3,0.978815,1.2444099999999998,15.5,15.5,"NIGHT_CLOUDY,FOG","Cross-shore,Cross-shore",2
5842041f4e65fad6a7708839,2025_03_29,32.865777159358856,-117.25614,Scripps,2.5,1.367755,1.6975349999999998,15.5,15.5,"NIGHT_OVERCAST,FOG","Onshore,Onshore",2
5842041f4e65fad6a770883a,2025_03_29,32.813094,-117.27381,Birdrock,2,2.01212,2.41024,15.5,15.5,"NIGHT_FOG,FOG","Onshore,Onshore",2
5842041f4e65fad6a770883b,2025_03_29,32.88338,-117.25571,Blacks,2,2.20506,2.80326,14,14,"NIGHT_OVERCAST,FOG","Onshore,Onshore",2
5842041f4e65fad6a770883c,2025_03_29,32.82978974229765,-117.28162,Windansea,2,2.3749200000000004,2.83357,15.5,15.5,"NIGHT_OVERCAST,FOG","Onshore,Onshore",2
5842041f4e65fad6a770883d,2025_03_29,32.838278,-117.28396,Horseshoe,2,2.0789999999999997,2.4805,15.5,15.5,"NIGHT_OVERCAST,FOG","Onshore,Onshore",2
5842041f4e65fad6a770883f,2025_03_29,32.75034717673179,-117.25337,Ocean Beach,2,1.8499400000000001,2.31844,15,15,"NIGHT_OVERCAST,FOG","Onshore,Onshore",2
5842041f4e65fad6a7708840,2025_03_29,32.73693,-117.25718,Sunset Cliffs,2,1.98971,2.386395,15.5,15.5,"NIGHT_FOG,FOG","Onshore,Onshore",2
5842041f4e65fad6a7708841,2025_03_29,32.796582258728826,-117.25779,Pacific Beach,2,1.8192949999999999,2.2229799999999997,15.5,15.5,"NIGHT_FOG,FOG","Onshore,Onshore",2
5842041f4e65fad6a7708842,2025_03_29,32.776636,-117.25514,Mission Beach,2,1.88834,2.25654,15.5,15.5,"NIGHT_FOG,FOG","Onshore,Onshore",2
5842041f4e65fad6a7708844,2025_03_29,32.577195519016,-117.13475,Imperial Beach Pier,2,2.075,2.48,16,16,"NIGHT_FOG,LIGHT_RAIN_AND_FOG","Onshore,Onshore",2
5842041f4e65fad6a770884a,2025_03_29,42.88678181061,-70.80843,Seabrook,0,0.31991000000000003,0.657695,4,3,"NIGHT_CLOUDY,ICE_PELLETS","Onshore,Onshore",2
5842041f4e65fad6a770884e,2025_03_29,41.434181432898335,-71.45312,Narragansett,1.1666666666666665,0.18325999999999998,0.495095,7,4,"NIGHT_FOG,MOSTLY_CLOUDY","Onshore,Offshore",2
5842041f4e65fad6a7708850,2025_03_29,40.582703230722,-73.65247,Lincoln Blvd,1.6666666666666665,0.39316,0.701525,8,7,"NIGHT_MIST,CLEAR","Cross-shore,Offshore",2
5842041f4e65fad6a7708852,2025_03_29,40.58342841721757,-73.81182,Rockaways,1.1666666666666665,0.51721,0.8241799999999999,8,7,"NIGHT_MOSTLY_CLOUDY,CLEAR","Onshore,Onshore",2
5842041f4e65fad6a7708853,2025_03_29,40.330474,-73.9734,Monmouth Beach,1.25,0.23027,0.523245,8,7,"NIGHT_CLEAR,CLEAR","Cross-shore,Offshore",2
5842041f4e65fad6a7708856,2025_03_29,40.113,-74.028,Manasquan Inlet,2.5,0.394385,0.7064900000000001,8,7,"NIGHT_MIST,CLEAR","Offshore,Offshore",2
5842041f4e65fad6a7708857,2025_03_29,39.941519877445664,-74.06829,Casino Pier,2.25,0.64639,0.990625,8,7,"NIGHT_CLEAR,CLEAR","Cross-shore,Offshore",2
5842041f4e65fad6a7708858,2025_03_29,39.28223089949212,-74.55766,North End OC,2,0.60487,0.97727,8,7,"NIGHT_CLEAR,CLEAR","Cross-shore,Cross-shore",2
5842041f4e65fad6a770885b,2025_03_29,39.65080599934257,-74.17146,Ship Bottom,2,0.511945,0.82419,8,7,"NIGHT_CLEAR,CLEAR","Cross-shore,Cross-shore",2
5842041f4e65fad6a7708863,2025_03_29,36.034151543144,-75.66791,Third Street,0.75,0.015675,0.360145,12,11,"NIGHT_CLEAR,CLEAR","Offshore,Offshore",2
5842041f4e65fad6a7708867,2025_03_29,35.605833221351425,-75.46303,S-Turns,1.25,0.27208,0.59996,12,12,"NIGHT_CLEAR,CLEAR","Offshore,Offshore",2
5842041f4e65fad6a770886d,2025_03_29,38.338461,-75.08117,Ocean City Boardwalk,2.75,0.6825950000000001,1.0604049999999998,10,9,"NIGHT_CLEAR,CLEAR","Offshore,Offshore",2
5842041f4e65fad6a770886f,2025_03_29,29.844757212379562,-81.26136,A St.,1.5,0.7949999999999999,1.1,20,20,"NIGHT_CLEAR,MOSTLY_CLOUDY","Onshore,Onshore",2
5842041f4e65fad6a7708871,2025_03_29,29.069417851135093,-80.90824,New Smyrna Beach,1.5,1.1581649999999999,1.48665,21,19,"NIGHT_BRIEF_SHOWERS,OVERCAST","Onshore,Onshore",2
5842041f4e65fad6a7708872,2025_03_29,28.367707417566,-80.60171,Cocoa Beach Pier,1,0.7306900000000001,1.10623,22,21,"NIGHT_OVERCAST,CLOUDY","Onshore,Onshore",2
5842041f4e65fad6a7708873,2025_03_29,28.091782738658846,-80.56479,Indialantic,1,0.841735,1.167775,22,22,"NIGHT_LIGHT_RAIN,CLEAR","Onshore,Onshore",2
5842041f4e65fad6a7708876,2025_03_29,27.25392904143517,-80.19455,Jensen Beach,1,0.893795,1.18666,24,23,"NIGHT_CLOUDY,CLOUDY","Onshore,Onshore",2
5842041f4e65fad6a7708879,2025_03_29,26.76346795333825,-80.03607,Reef Road,1,0.796835,1.099665,23,22,"NIGHT_LIGHT_RAIN,OVERCAST","Onshore,Onshore",2
5842041f4e65fad6a770887c,2025_03_29,26.336499228484,-80.06956100463,Boca Raton Inlet,1,0.49359000000000003,0.7977650000000001,24,22,"NIGHT_OVERCAST,BRIEF_SHOWERS","Onshore,Onshore",2
5842041f4e65fad6a770887d,2025_03_29,26.31719311695038,-80.07453,Deerfield Beach Pier,1,0.5402100000000001,0.841245,24,23,"NIGHT_OVERCAST,BRIEF_SHOWERS","Onshore,Onshore",2
5842041f4e65fad6a7708881,2025_03_29,30.20276320866628,-85.85626528676136,"Spyglass Dr., Panama City",1,0.52195,0.91134,19,18,"NIGHT_CLEAR,CLEAR","Cross-shore,Cross-shore",2
5842041f4e65fad6a7708884,2025_03_29,33.39000832738053,-117.59852,Cottons,2.5,1.59443,1.945235,14,14,"NIGHT_FOG,MOSTLY_CLOUDY","Onshore,Cross-shore",2
5842041f4e65fad6a7708885,2025_03_29,33.359416282661,-117.54168,Trails,3,1.5184,1.84544,15.5,15.5,"NIGHT_FOG,CLEAR","Offshore,Cross-shore",2
5842041f4e65fad6a7708886,2025_03_29,33.38042605929805,-117.58332,Middles,3,1.53881,1.8338450000000002,15.5,15.5,"NIGHT_FOG,MOSTLY_CLOUDY","Onshore,Onshore",2
5842041f4e65fad6a7708887,2025_03_29,33.38445596302903,-117.59445,Upper Trestles,3,1.554055,1.8711950000000002,14,14,"NIGHT_FOG,MOSTLY_CLOUDY","Onshore,Onshore",2
5842041f4e65fad6a7708889,2025_03_29,28.944414,-95.28883,Surfside,2,1.31498,1.5487549999999999,20,20,"NIGHT_MIST,RAIN","Onshore,Onshore",2
5842041f4e65fad6a770888a,2025_03_29,33.38143999849023,-117.58843,Lower Trestles,3,1.4889350000000001,1.8545,14,14,"NIGHT_FOG,MOSTLY_CLOUDY","Offshore,Offshore",2
5842041f4e65fad6a770888b,2025_03_29,33.379622288757,-117.57894,Church,3,1.725355,2.09631,14,14,"NIGHT_FOG,MOSTLY_CLOUDY","Onshore,Cross-shore",2
5842041f4e65fad6a770888d,2025_03_29,21.679,-158.042,Sunset Beach,3.5,1.06086,1.38442,26,25,"NIGHT_CLEAR,NIGHT_FOG","Onshore,Onshore",2
5842041f4e65fad6a770888e,2025_03_29,21.670550036401,-158.0482,Rocky Point,3,1.1373799999999998,1.316065,26,25,"NIGHT_MOSTLY_CLOUDY,NIGHT_FOG","Onshore,Onshore",2
5842041f4e65fad6a770888f,2025_03_29,21.668,-158.05,Chambers,3.5,1.10538,1.37238,25,25,"NIGHT_MOSTLY_CLOUDY,NIGHT_FOG","Onshore,Onshore",2
5842041f4e65fad6a7708890,2025_03_29,21.66522,-158.0526,Pipeline,2,0.96,1.15,26,25,"NIGHT_MOSTLY_CLOUDY,NIGHT_FOG","Onshore,Onshore",2
5842041f4e65fad6a7708891,2025_03_29,21.665,-158.054,Backdoor,3.5,0.99966,1.283355,26,25,"NIGHT_MOSTLY_CLOUDY,NIGHT_FOG","Onshore,Onshore",2
5842041f4e65fad6a7708892,2025_03_29,21.662,-158.057,Rockpile,4,1.421665,1.7229100000000002,25,25,"NIGHT_MOSTLY_CLOUDY,NIGHT_FOG","Onshore,Onshore",2
5842041f4e65fad6a7708893,2025_03_29,21.65870453806827,-158.06058,Log Cabins,3,1.07712,1.28832,25,25,"NIGHT_MOSTLY_CLOUDY,NIGHT_FOG","Onshore,Onshore",2
5842041f4e65fad6a7708894,2025_03_29,21.66203493640557,-158.05495,Off The Wall,4,1.18548,1.4151,25,25,"NIGHT_MOSTLY_CLOUDY,NIGHT_FOG","Onshore,Onshore",2
5842041f4e65fad6a7708895,2025_03_29,21.643,-158.067,Waimea Bay,NA,1.24,1.45,26,25,"NIGHT_MOSTLY_CLOUDY,NIGHT_FOG","Onshore,Onshore",2
5842041f4e65fad6a7708896,2025_03_29,21.622,-158.087,Hultin's,3,0.8184,1.0614400000000002,26,25,"NIGHT_CLEAR,NIGHT_MOSTLY_CLOUDY","Cross-shore,Cross-shore",2
5842041f4e65fad6a7708897,2025_03_29,21.623,-158.085,Jocko's,3,1.05258,1.31076,25,25,"NIGHT_CLEAR,NIGHT_MOSTLY_CLOUDY","Onshore,Onshore",2
5842041f4e65fad6a7708898,2025_03_29,21.62,-158.088,Laniakea,3.5,1.09084,1.3609,26,25,"NIGHT_CLEAR,NIGHT_MOSTLY_CLOUDY","Onshore,Cross-shore",2
5842041f4e65fad6a7708899,2025_03_29,21.625,-158.083,Chun's,3,1.0332299999999999,1.232715,25,25,"NIGHT_CLEAR,NIGHT_MOSTLY_CLOUDY","Cross-shore,Cross-shore",2
5842041f4e65fad6a770889c,2025_03_29,21.286357895152136,-157.8515,Ala Moana Beach Park,3,0.801655,1.116025,25,25,"NIGHT_CLEAR,NIGHT_CLEAR","Offshore,Offshore",2
5842041f4e65fad6a770889d,2025_03_29,19.606,-155.978,Banyans,2.5,0.4,0.71,26,25,"NIGHT_MOSTLY_CLOUDY,NIGHT_FOG","Onshore,Onshore",2
5842041f4e65fad6a770889e,2025_03_29,20.029,-155.831,Kawaihae,2,0.4444,0.68798,25.5,25.5,"NIGHT_CLEAR,NIGHT_MOSTLY_CLOUDY","Cross-shore,Cross-shore",2
5842041f4e65fad6a770889f,2025_03_29,33.07541383424675,-117.3105,Grandview,2,1.56615,1.8715000000000002,15.5,15.5,"NIGHT_OVERCAST,OVERCAST","Onshore,Onshore",2
5842041f4e65fad6a77088a0,2025_03_29,33.065267421296596,-117.30577,Beacons,2,1.3544399999999999,1.67255,15.5,15.5,"NIGHT_OVERCAST,OVERCAST","Onshore,Onshore",2
5842041f4e65fad6a77088a2,2025_03_29,21.252,-157.805,Diamond Head,3,0.7649900000000001,1.07975,26,25,"NIGHT_CLEAR,NIGHT_CLEAR","Offshore,Offshore",2
5842041f4e65fad6a77088a3,2025_03_29,33.04694255008896,-117.29966,Moonlight State Beach,2,1.6261,1.94425,15.5,15.5,"NIGHT_OVERCAST,DRIZZLE","Onshore,Onshore",2
5842041f4e65fad6a77088a5,2025_03_29,33.08685865930869,-117.31532,Ponto,2,1.67934,2.089315,15.5,15.5,"NIGHT_OVERCAST,OVERCAST","Onshore,Onshore",2
5842041f4e65fad6a77088a6,2025_03_29,33.130343587871906,-117.33668,Terra Mar Point,2.5,0.86503,1.15393,14,14,"NIGHT_OVERCAST,LIGHT_RAIN_AND_FOG","Cross-shore,Cross-shore",2
5842041f4e65fad6a77088af,2025_03_29,32.95916304183685,-117.26963,Del Mar,2,1.617365,1.94257,15.5,15.5,"NIGHT_OVERCAST,OVERCAST","Onshore,Onshore",2
5842041f4e65fad6a77088b0,2025_03_29,32.97527261243354,-117.2721061331305,Del Mar Rivermouth,2,1.67142,1.99182,15.5,15.5,"NIGHT_OVERCAST,OVERCAST","Onshore,Onshore",2
5842041f4e65fad6a77088b1,2025_03_29,33.01352178146273,-117.28219,Cardiff Reef,2.5,1.82692,2.2531049999999997,15.5,15.5,"NIGHT_OVERCAST,DRIZZLE","Onshore,Onshore",2
5842041f4e65fad6a77088b3,2025_03_29,33.00211185876003,-117.2811,Seaside Reef,2,1.754725,2.22444,15.5,15.5,"NIGHT_OVERCAST,OVERCAST","Onshore,Cross-shore",2
5842041f4e65fad6a77088b4,2025_03_29,33.0341859796287,-117.29552,Swami's,2,1.7727600000000001,2.28593,14,14,"NIGHT_OVERCAST,DRIZZLE","Onshore,Onshore",2
5842041f4e65fad6a77088b7,2025_03_29,33.04569760260221,-117.2994,D Street,2,1.69283,2.09211,15.5,15.5,"NIGHT_OVERCAST,DRIZZLE","Onshore,Onshore",2
5842041f4e65fad6a77088b8,2025_03_29,33.02090944350196,-117.28535,San Elijo State Beach,2.5,1.393665,1.702865,15.5,15.5,"NIGHT_OVERCAST,DRIZZLE","Onshore,Onshore",2
5842041f4e65fad6a77088c2,2025_03_29,32.80662846492798,-117.26888,PB Point,3,1.81506,2.17485,15.5,15.5,"NIGHT_FOG,FOG","Onshore,Onshore",2
5842041f4e65fad6a77088c4,2025_03_29,32.8060476681448,-117.26479,Old Man's at Tourmaline,2.5,1.2279200000000001,1.53864,15.5,15.5,"NIGHT_FOG,FOG","Onshore,Onshore",2
5842041f4e65fad6a77088cb,2025_03_29,32.557056711256,-117.1327445020322,Tijuana Slough,2,1.21,1.45,16,16,"NIGHT_FOG,LIGHT_RAIN_AND_FOG","Onshore,Onshore",2
5842041f4e65fad6a77088cc,2025_03_29,32.863,-117.257,La Jolla Shores,2.5,1.3632749999999998,1.63155,15.5,15.5,"NIGHT_OVERCAST,FOG","Onshore,Onshore",2
5842041f4e65fad6a77088ce,2025_03_29,32.67443657790586,-117.17421,Coronado Beach,3,1.52,1.82,15.5,15.5,"NIGHT_FOG,FOG","Cross-shore,Cross-shore",2
5842041f4e65fad6a77088cf,2025_03_29,33.40484417640326,-117.60749,San Clemente State Beach,3,1.48407,1.79922,15.5,15.5,"NIGHT_FOG,CLEAR","Onshore,Cross-shore",2
5842041f4e65fad6a77088d5,2025_03_29,33.4663042002114,-117.71684,Strands,3,1.6244800000000001,1.959845,14,14,"NIGHT_FOG,FOG","Onshore,Cross-shore",2
5842041f4e65fad6a77088d7,2025_03_29,33.4609858001748,-117.68535,Doheny State Beach,2.5,0.44322,0.79333,15,15,"NIGHT_FOG,FOG","Onshore,Cross-shore",2
5842041f4e65fad6a77088dc,2025_03_29,33.50894790083017,-117.75243,Aliso Creek,3,1.153,1.4412500000000001,15,15,"NIGHT_DRIZZLE,FOG","Onshore,Onshore",2
5842041f4e65fad6a77088dd,2025_03_29,33.5326591767067,-117.77764,Brooks Street,3,0.845,1.09,15,15,"NIGHT_DRIZZLE,FOG","Onshore,Onshore",2
5842041f4e65fad6a77088de,2025_03_29,33.53561225884637,-117.7799,Thalia Street,2,0.8,1.045,15,15,"NIGHT_DRIZZLE,FOG","Onshore,Onshore",2
5842041f4e65fad6a77088e3,2025_03_29,33.54268310353641,-117.7916,Rockpile,3,0.845,1.09,15,15,"NIGHT_DRIZZLE,FOG","Onshore,Onshore",2
5842041f4e65fad6a77088e4,2025_03_29,33.7368459504689,-118.10342,"Seal Beach Pier, Southside",2.5,1.041935,1.3109549999999999,14.5,14.5,"NIGHT_CLEAR,CLOUDY","Onshore,Offshore",2
5842041f4e65fad6a77088e5,2025_03_29,33.73933701820233,-118.117,Ray Bay,2.5,1.165,1.445,14.5,14.5,"NIGHT_MOSTLY_CLOUDY,OVERCAST","Onshore,Offshore",2
5842041f4e65fad6a77088e7,2025_03_29,33.728733,-118.08982,Surfside,1.5,0.034999999999999996,0.33499999999999996,14.5,14.5,"NIGHT_MOSTLY_CLOUDY,OVERCAST","Onshore,Offshore",2
5842041f4e65fad6a77088e8,2025_03_29,33.68760321488161,-118.04236,Bolsa Chica State Beach,2.5,1.1759650000000001,1.55701,14.5,14.5,"NIGHT_MOSTLY_CLOUDY,OVERCAST","Onshore,Cross-shore",2
5842041f4e65fad6a77088ea,2025_03_29,33.66704400178788,-118.0192,North HB Streets,3,1.93669,2.31561,14.5,14.5,"NIGHT_OVERCAST,OVERCAST","Onshore,Offshore",2
5842041f4e65fad6a77088ed,2025_03_29,33.65475101379567,-118.00291,Huntington Beach Pier Southside,2.5,1.872395,2.266905,13,13,"NIGHT_OVERCAST,OVERCAST","Onshore,Offshore",2
5842041f4e65fad6a77088ee,2025_03_29,33.62778647706099,-117.95939,River Jetties,2.5,1.297215,1.573415,13,13,"NIGHT_FOG,OVERCAST","Cross-shore,Cross-shore",2
5842041f4e65fad6a77088f2,2025_03_29,33.605165797643664,-117.925,Newport Point,2,0.4496,0.7980400000000001,14.5,14.5,"NIGHT_CLOUDY,CLOUDY","Onshore,Onshore",2
5842041f4e65fad6a77088f3,2025_03_29,33.58982984726977,-117.87713,Corona del Mar,2.5,0.68574,1.002635,15,15,"NIGHT_FOG,OVERCAST","Onshore,Onshore",2
5842041f4e65fad6a77088f7,2025_03_29,34.00750300824362,-118.49718,Santa Monica Pier,3,0.86697,1.07991,14,14,"NIGHT_CLEAR,CLEAR","Offshore,Offshore",2
5842041f4e65fad6a77088ff,2025_03_29,33.94070283102945,-118.44321,Dockweiler Beach,3,2.0511150000000002,2.472725,14,14,"NIGHT_CLEAR,CLEAR","Offshore,Offshore",2
5842041f4e65fad6a7708900,2025_03_29,33.9231846937237,-118.4341465777908,Shitpipe,3,2.30983,2.77513,14,14,"NIGHT_CLEAR,MOSTLY_CLOUDY","Offshore,Offshore",2
5842041f4e65fad6a7708902,2025_03_29,33.9108528052242,-118.4279133138721,Hammerland,3,2.30886,2.769025,14,14,"NIGHT_CLEAR,MOSTLY_CLOUDY","Offshore,Offshore",2
5842041f4e65fad6a7708904,2025_03_29,33.87201368173932,-118.40752,Hermosa Beach,3,1.6542949999999998,1.999155,14.5,14.5,"NIGHT_CLEAR,MOSTLY_CLOUDY","Offshore,Offshore",2
5842041f4e65fad6a7708906,2025_03_29,33.90129336911256,-118.42184,El Porto,3,2.2527549999999996,2.764785,14,14,"NIGHT_CLEAR,MOSTLY_CLOUDY","Offshore,Offshore",2
5842041f4e65fad6a7708907,2025_03_29,33.87963506431794,-118.41102,Manhattan Beach Pier,3,1.98737,2.37072,14.5,14.5,"NIGHT_CLEAR,MOSTLY_CLOUDY","Offshore,Offshore",2
5842041f4e65fad6a7708914,2025_03_29,34.038053387863464,-118.5532,Sunset Point,3,0.6396,0.96473,14,14,"NIGHT_MOSTLY_CLEAR,CLEAR","Cross-shore,Offshore",2
5842041f4e65fad6a7708920,2025_03_29,33.80282,-118.39989,Haggerty's,3,0.9447000000000001,1.1859,14.5,14.5,"NIGHT_MOSTLY_CLEAR,CLEAR","Offshore,Offshore",2
5842041f4e65fad6a7708921,2025_03_29,33.85044519861206,-118.40048,Redondo Breakwater,3,1.7534800000000001,2.0979799999999997,14.5,14.5,"NIGHT_CLEAR,MOSTLY_CLOUDY","Offshore,Offshore",2
5842041f4e65fad6a7708927,2025_03_29,33.70877301002487,-118.2840112858389,Cabrillo Beach,3,0.79,1.0899999999999999,14.5,14.5,"NIGHT_CLEAR,MIST","Offshore,Cross-shore",2
5842041f4e65fad6a770892c,2025_03_29,33.77209986806257,-118.4268428476672,Lunada Bay,1.5,1.8399999999999999,2.1950000000000003,14.5,14.5,"NIGHT_MOSTLY_CLEAR,CLEAR","Cross-shore,Offshore",2
5842041f4e65fad6a770892d,2025_03_29,33.79294656286144,-118.40703,PV Cove,2.5,1.180875,1.482375,14.5,14.5,"NIGHT_MOSTLY_CLEAR,CLEAR","Onshore,Offshore",2
5842041f4e65fad6a7708930,2025_03_29,34.03944902292561,-118.57539,Chart House,3,0.40508,0.72488,14,14,"NIGHT_MOSTLY_CLEAR,MOSTLY_CLEAR","Onshore,Offshore",2
5842041f4e65fad6a7708936,2025_03_29,34.0016731994772,-118.80456,Point Dume,3,0.5583,0.9096599999999999,14,14,"NIGHT_CLEAR,MOSTLY_CLOUDY","Cross-shore,Onshore",2
5842041f4e65fad6a7708937,2025_03_29,34.02587527588963,-118.7554939066114,Latigo Point,3,0.415,0.715,14,14,"NIGHT_MOSTLY_CLOUDY,MOSTLY_CLOUDY","Offshore,Offshore",2
5842041f4e65fad6a770893f,2025_03_29,34.043762,-118.93294,Leo Carrillo,3.5,1.2337150000000001,1.5535999999999999,14,14,"NIGHT_CLEAR,CLEAR","Offshore,Onshore",2
5842041f4e65fad6a7708941,2025_03_29,36.69388179265737,-121.81289,Marina State Beach,2.5,2.273975,2.70867,12.5,12.5,"NIGHT_MOSTLY_CLOUDY,CLEAR","Onshore,Cross-shore",2
5842041f4e65fad6a7708944,2025_03_29,34.34145077331085,-119.416999352654,Stanley's,3,0.87,1.1800000000000002,13.5,13.5,"NIGHT_CLEAR,CLEAR","Offshore,Offshore",2
5842041f4e65fad6a7708945,2025_03_29,34.35113017313915,-119.426921498899,Oil Piers,3.5,0.87,1.1800000000000002,13.5,13.5,"NIGHT_CLEAR,CLEAR","Offshore,Offshore",2
5842041f4e65fad6a770894c,2025_03_29,34.17876333306018,-119.23995,Oxnard,2.5,1.335,1.595,13.5,13.5,"NIGHT_CLEAR,MOSTLY_CLEAR","Cross-shore,Offshore",2
5842041f4e65fad6a7708957,2025_03_29,34.31720331100517,-119.3882324751725,Pitas Point,3,0.855,1.1,13.5,13.5,"NIGHT_CLEAR,CLEAR","Offshore,Offshore",2
5842041f4e65fad6a7708959,2025_03_29,34.27851754384724,-119.3162,Emma Wood,3.5,1.2499799999999999,1.494,13.5,13.5,"NIGHT_CLEAR,CLEAR","Offshore,Offshore",2
5842041f4e65fad6a770895a,2025_03_29,34.35513640390276,-119.4400589884255,Mussel Shoals (aka Little Rincon),3,1.045,1.25,13.5,13.5,"NIGHT_CLEAR,CLEAR","Cross-shore,Offshore",2
5842041f4e65fad6a770895e,2025_03_29,34.28991757054902,-119.3366646794652,Summer Beach,3,0.63744,0.93624,13.5,13.5,"NIGHT_CLEAR,CLEAR","Offshore,Offshore",2
5842041f4e65fad6a770895f,2025_03_29,34.30897456105926,-119.3582501170116,Solimar,3,0.64,0.94,13.5,13.5,"NIGHT_CLEAR,CLEAR","Offshore,Offshore",2
5842041f4e65fad6a7708960,2025_03_29,34.39836265281686,-119.70213,Leadbetter Point,2,0.13,0.43,13.5,13.5,"NIGHT_CLEAR,CLEAR","Offshore,Offshore",2
5842041f4e65fad6a7708961,2025_03_29,34.46052293893899,-120.07328,Refugio,1.5,0.33999999999999997,0.645,13,13,"NIGHT_CLEAR,CLEAR","Offshore,Offshore",2
5842041f4e65fad6a7708962,2025_03_29,34.40754276777778,-119.87639,Devereux,3,0.5700000000000001,0.88,13.5,13.5,"NIGHT_CLEAR,CLEAR","Offshore,Offshore",2
5842041f4e65fad6a7708963,2025_03_29,34.27479983305182,-119.3133222656776,Ventura Overhead,4,1.2499799999999999,1.494,13.5,13.5,"NIGHT_CLEAR,MIST","Offshore,Offshore",2
5842041f4e65fad6a7708964,2025_03_29,34.41023236011655,-119.88261,Sands,2,0.53,0.8300000000000001,13.5,13.5,"NIGHT_CLEAR,CLEAR","Cross-shore,Cross-shore",2
5842041f4e65fad6a7708966,2025_03_29,34.40450193869233,-119.68752,Sandspit,2,0.13,0.43,13.5,13.5,"NIGHT_CLEAR,CLEAR","Offshore,Offshore",2
5842041f4e65fad6a7708967,2025_03_29,34.41549098334453,-119.6375149840203,Hammond's,3,0.665,0.9750000000000001,13.5,13.5,"NIGHT_CLEAR,CLEAR","Offshore,Cross-shore",2
5842041f4e65fad6a7708968,2025_03_29,34.45759322742309,-120.02203,El Capitan,3,0.365,0.675,13.5,13.5,"NIGHT_CLEAR,CLEAR","Offshore,Offshore",2
5842041f4e65fad6a770896c,2025_03_29,34.405117655616,-119.84317,Campus Point,3,0.53,0.8300000000000001,13.5,13.5,"NIGHT_CLEAR,CLEAR","Offshore,Offshore",2
5842041f4e65fad6a770896e,2025_03_29,34.38935162233354,-119.51955,Carpinteria State Beach,3,1.055,1.2599999999999998,13.5,13.5,"NIGHT_CLEAR,CLEAR","Cross-shore,Offshore",2
5842041f4e65fad6a770896f,2025_03_29,37.48296565175612,-122.45493,Half Moon Bay,2.5,1.76341,2.1061699999999997,12.5,12.5,"NIGHT_MOSTLY_CLEAR,NIGHT_CLEAR","Onshore,Cross-shore",2
5842041f4e65fad6a7708970,2025_03_29,37.499,-122.471,Princeton Jetty,3,1.6686999999999999,1.99342,12.5,12.5,"NIGHT_MOSTLY_CLEAR,NIGHT_CLEAR","Onshore,Cross-shore",2
5842041f4e65fad6a7708972,2025_03_29,37.35699547365155,-122.4069534707252,Tunitas Creek,2,3.135,3.745,12.5,12.5,"NIGHT_MOSTLY_CLOUDY,NIGHT_MIST","Onshore,Cross-shore",2
5842041f4e65fad6a7708974,2025_03_29,37.54735589428842,-122.51611,Montara,2,2.445,2.885,12.5,12.5,"NIGHT_CLEAR,NIGHT_MIST","Onshore,Onshore",2
5842041f4e65fad6a7708975,2025_03_29,34.3869373724559,-119.5142334209018,Tarpits,3,1.095,1.31,13.5,13.5,"NIGHT_CLEAR,CLEAR","Offshore,Offshore",2
5842041f4e65fad6a7708976,2025_03_29,37.59881852720143,-122.50463,Linda Mar,3,1.307075,1.6197599999999999,12.5,12.5,"NIGHT_MOSTLY_CLEAR,NIGHT_MIST","Onshore,Onshore",2
5842041f4e65fad6a7708978,2025_03_29,37.59883098461164,-122.5143843582282,Pedro Point,2,2.91766,3.4921550000000003,12.5,12.5,"NIGHT_CLEAR,NIGHT_MOSTLY_CLEAR","Onshore,Onshore",2
5842041f4e65fad6a7708979,2025_03_29,37.61081996647663,-122.49733,Rockaway,3,3.1525,3.692,12.5,12.5,"NIGHT_MOSTLY_CLEAR,NIGHT_MIST","Onshore,Onshore",2
5842041f4e65fad6a770897a,2025_03_29,37.809987384424446,-122.47514,Fort Point,4,1.5699999999999998,1.835,12.5,12.5,"NIGHT_CLEAR,NIGHT_CLEAR","Cross-shore,Offshore",2
5842041f4e65fad6a770897c,2025_03_29,37.63422542967464,-122.4951,Sharp Park,2,3.35405,4.0145,12.5,12.5,"NIGHT_MOSTLY_CLEAR,NIGHT_MIST","Onshore,Cross-shore",2
5842041f4e65fad6a770897d,2025_03_29,37.27313605072472,-122.4127387912554,Pescadero,2,3.1100000000000003,3.65,12.5,12.5,"NIGHT_MOSTLY_CLOUDY,NIGHT_MOSTLY_CLEAR","Onshore,Cross-shore",2
5842041f4e65fad6a770897e,2025_03_29,37.18140279972666,-122.3926685899327,Pigeon Point,4,2.9299999999999997,3.505,12.5,12.5,"NIGHT_CLEAR,NIGHT_MOSTLY_CLEAR","Offshore,Offshore",2
5842041f4e65fad6a770897f,2025_03_29,37.11578956919415,-122.314699271291,Ano Nuevo,4,2.23,2.665,12.5,12.5,"NIGHT_MOSTLY_CLEAR,CLEAR","Offshore,Offshore",2
5842041f4e65fad6a7708980,2025_03_29,37.09520872681598,-122.2805474707768,Waddell Creek,3,2.48,2.965,12.5,12.5,"NIGHT_MOSTLY_CLEAR,CLEAR","Cross-shore,Offshore",2
5842041f4e65fad6a7708981,2025_03_29,36.96512852130351,-122.1252825495626,Four Mile,4,2.49,2.9749999999999996,12.5,12.5,"NIGHT_MOSTLY_CLEAR,CLEAR","Offshore,Offshore",2
5842041f4e65fad6a7708982,2025_03_29,37.04122807048655,-122.23337,Scott Creek,3.5,2.41,2.88,12.5,12.5,"NIGHT_MOSTLY_CLEAR,CLEAR","Cross-shore,Offshore",2
5842041f4e65fad6a7708983,2025_03_29,37.02350229387179,-122.21908,Davenport,4,2.5650000000000004,3.0650000000000004,12.5,12.5,"NIGHT_CLEAR,CLEAR","Offshore,Offshore",2
5842041f4e65fad6a7708986,2025_03_29,36.94905295955728,-122.06118,Natural Bridges,3.5,2.10843,2.5188300000000003,12.5,12.5,"NIGHT_CLEAR,CLEAR","Offshore,Offshore",2
5842041f4e65fad6a7708987,2025_03_29,36.95154854910425,-122.04207,Mitchell's Cove,4,1.53476,1.83549,12.5,12.5,"NIGHT_MIST,CLEAR","Offshore,Offshore",2
5842041f4e65fad6a770898a,2025_03_29,36.9572312370203,-121.98177,26th Ave,3,1.9243299999999999,2.30146,12.5,12.5,"NIGHT_MIST,CLEAR","Cross-shore,Cross-shore",2
5842041f4e65fad6a770898e,2025_03_29,36.91899972819882,-121.85536,Manresa,3,2.15335,2.62065,12.5,12.5,"NIGHT_CLEAR,MIST","Onshore,Offshore",2
5842041f4e65fad6a7708990,2025_03_29,34.45747731928454,-120.34242,The Ranch,2.5,1.085,1.355,13,13,"NIGHT_CLEAR,CLEAR","Offshore,Offshore",2
5842041f4e65fad6a7708991,2025_03_29,34.50875036590315,-120.50348,Jalama,2.5,1.87,2.2350000000000003,13,13,"NIGHT_CLEAR,CLEAR","Cross-shore,Cross-shore",2
5842041f4e65fad6a7708996,2025_03_29,34.68700870220497,-120.6111611019887,Surf Beach,1,3.665,4.375,13,13,"NIGHT_OVERCAST,CLEAR","Onshore,Onshore",2
5842041f4e65fad6a770899c,2025_03_29,35.5730538161116,-121.1143362345574,Moonstone,3,2.705,3.24,13,13,"NIGHT_CLEAR,CLEAR","Offshore,Offshore",2
5842041f4e65fad6a770899d,2025_03_29,35.61533716776573,-121.1502053073914,Pico Creek,3,2.05,2.45,13,13,"NIGHT_CLEAR,CLEAR","Cross-shore,Cross-shore",2
5842041f4e65fad6a770899e,2025_03_29,35.56829031927379,-121.11207,Santa Rosa Creek,3,2.705,3.24,13,13,"NIGHT_CLEAR,CLEAR","Cross-shore,Offshore",2
5842041f4e65fad6a77089a2,2025_03_29,35.44820114936284,-120.90715,"Cayucos Pier, Southside",3.5,1.2746849999999998,1.6390150000000001,13,13,"NIGHT_CLEAR,CLEAR","Offshore,Offshore",2
5842041f4e65fad6a77089a4,2025_03_29,35.30143372628852,-120.877819239902,Cable Landing,2.5,3.77,4.505,13,13,"NIGHT_CLEAR,CLEAR","Onshore,Offshore",2
5842041f4e65fad6a77089a9,2025_03_29,35.61269103500222,-121.14807,San Simeon,3.5,1.463,1.7465000000000002,13,13,"NIGHT_CLEAR,CLEAR","Offshore,Offshore",2
5842041f4e65fad6a77089ab,2025_03_29,35.1775325966252,-120.73411,Avila Beach,2,0.105,0.41500000000000004,13,13,"NIGHT_CLEAR,CLEAR","Cross-shore,Offshore",2
5842041f4e65fad6a77089ac,2025_03_29,35.13877877884115,-120.64535,Pismo Beach Pier,3,1.9818850000000001,2.490015,12,12,"NIGHT_CLEAR,CLEAR","Offshore,Offshore",2
5842041f4e65fad6a77089ad,2025_03_29,46.8907710233147,-124.12964,Westport/Olympic Peninsula,2,2.0549999999999997,2.455,10,10,"NIGHT_CLEAR,NIGHT_MOSTLY_CLOUDY","Onshore,Onshore",2
5842041f4e65fad6a77089ae,2025_03_29,46.35185177248545,-124.06747,Long Beach Peninsula,1,2.815,3.16,9,9,"NIGHT_MOSTLY_CLOUDY,NIGHT_MOSTLY_CLOUDY","Onshore,Onshore",2
5842041f4e65fad6a77089af,2025_03_29,47.90649175554033,-124.63709,La Push,1.5,2.075,2.4749999999999996,9,9,"NIGHT_MOSTLY_CLOUDY,NIGHT_CLEAR","Onshore,Cross-shore",2
5842041f4e65fad6a77089b0,2025_03_29,42.04368239985442,-124.26828,Brookings Jetty,3,1.9242,2.086235,11,11,"NIGHT_MOSTLY_CLOUDY,NIGHT_CLEAR","Offshore,Offshore",2
5842041f4e65fad6a77089b1,2025_03_29,42.74071837900346,-124.4983727491047,Port Orford,2.5,2.165,2.585,10,10,"NIGHT_MOSTLY_CLOUDY,NIGHT_FOG","Onshore,Onshore",2
5842041f4e65fad6a77089b2,2025_03_29,44.01532689312291,-124.13865,Florence South Jetty,1.5,3.215,3.485,10,10,"NIGHT_MOSTLY_CLOUDY,NIGHT_FOG","Onshore,Onshore",2
5842041f4e65fad6a77089b3,2025_03_29,42.41812540774362,-124.42945,Gold Beach South Jetty,2.5,3.015,3.3550000000000004,11,11,"NIGHT_CLEAR,NIGHT_CLEAR","Onshore,Offshore",2
5842041f4e65fad6a77089b4,2025_03_29,44.95857310226525,-124.0219,Lincoln City,2,2.8449999999999998,3.1500000000000004,9.5,9.5,"NIGHT_BRIEF_SHOWERS,NIGHT_CLEAR","Onshore,Onshore",2
5842041f4e65fad6a77089b5,2025_03_29,44.63792761362982,-124.0657,Newport,2,3.175,3.52,10,10,"NIGHT_CLEAR,NIGHT_MOSTLY_CLOUDY","Cross-shore,Offshore",2
5842041f4e65fad6a77089b6,2025_03_29,45.61468496266301,-123.94643,Rockaway Beach,2,2.91,3.1950000000000003,9,9,"NIGHT_MOSTLY_CLOUDY,NIGHT_MOSTLY_CLOUDY","Onshore,Cross-shore",2
5842041f4e65fad6a77089b7,2025_03_29,45.20252914186085,-123.96975,Pacific City,1.5,2.7350000000000003,3.04,9.5,9.5,"NIGHT_DRIZZLE,NIGHT_MOSTLY_CLOUDY","Onshore,Onshore",2
5842041f4e65fad6a77089b8,2025_03_29,45.88179930310263,-123.96681,Cannon Beach,1.5,2.855,3.205,9,9,"NIGHT_BRIEF_SHOWERS,NIGHT_BRIEF_SHOWERS","Onshore,Onshore",2
5842041f4e65fad6a77089ba,2025_03_29,40.02528754746774,-124.06372,Shelter Cove,3,0.9974000000000001,1.17561,12,12,"NIGHT_MOSTLY_CLEAR,NIGHT_CLEAR","Offshore,Offshore",2
5842041f4e65fad6a77089bb,2025_03_29,40.76816197136951,-124.24248,Humboldt Harbor Entrance,3,3.0300000000000002,3.585,11,11,"NIGHT_MOSTLY_CLOUDY,NIGHT_MOSTLY_CLOUDY","Offshore,Offshore",2
5842041f4e65fad6a77089bc,2025_03_29,40.76684246920174,-124.23107,North Jetty,3,3.76,4.315,11,11,"NIGHT_BRIEF_SHOWERS,NIGHT_SHOWERS","Onshore,Cross-shore",2
5842041f4e65fad6a77089be,2025_03_29,41.13016238153297,-124.16466,Sue-meg,3,3.015,3.61,11,11,"NIGHT_MOSTLY_CLEAR,NIGHT_CLEAR","Onshore,Offshore",2
5842041f4e65fad6a77089bf,2025_03_29,37.8289474958188,-122.53768,Fort Cronkite/Rodeo Beach,2.5,2.62,3.13,12.5,12.5,"NIGHT_CLEAR,NIGHT_CLEAR","Cross-shore,Offshore",2
5842041f4e65fad6a77089c0,2025_03_29,41.74415759876137,-124.17717,South Beach CA,3.5,2.1550000000000002,2.58,11,11,"NIGHT_MOSTLY_CLOUDY,NIGHT_CLEAR","Onshore,Offshore",2
5842041f4e65fad6a77089c1,2025_03_29,37.89801283969752,-122.64519,Stinson Beach,3,0.9199999999999999,1.105,12.5,12.5,"NIGHT_MIST,NIGHT_MIST","Cross-shore,Offshore",2
5842041f4e65fad6a77089c2,2025_03_29,37.90514516176495,-122.68151,Bolinas,3,0.960085,1.143195,12.5,12.5,"NIGHT_MOSTLY_CLEAR,NIGHT_CLEAR","Onshore,Cross-shore",2
5842041f4e65fad6a77089c3,2025_03_29,38.04892513158693,-122.98925,Point Reyes (north),1,3.59,4.195,13,13,"NIGHT_CLEAR,NIGHT_CLEAR","Onshore,Onshore",2
5842041f4e65fad6a77089c6,2025_03_29,38.31088736605785,-123.0496777333731,Doran Beach,3,0.605,0.9099999999999999,13,13,"NIGHT_CLEAR,NIGHT_CLEAR","Offshore,Offshore",2
5842041f4e65fad6a77089c7,2025_03_29,38.45077228660809,-123.13008,Russian Rivermouth,3,2.65,3.12,13,13,"NIGHT_CLEAR,NIGHT_CLEAR","Cross-shore,Offshore",2
5842041f4e65fad6a77089c8,2025_03_29,38.35329968518107,-123.06906,Salmon Creek,2.5,2.8049999999999997,3.35,13,13,"NIGHT_CLEAR,NIGHT_CLEAR","Onshore,Cross-shore",2
5842041f4e65fad6a77089c9,2025_03_29,38.6845180197959,-123.4322714291198,Black Point Beach,3,1.93,2.235,13,13,"NIGHT_CLEAR,NIGHT_CLEAR","Cross-shore,Cross-shore",2
5842041f4e65fad6a77089ca,2025_03_29,43.251076,-70.59144,Ogunquit,0.8333333333333333,0.4293,0.7323500000000001,4,3,"NIGHT_CLOUDY,ICE_PELLETS","Onshore,Onshore",2
5842041f4e65fad6a77089cb,2025_03_29,41.362631366305415,-71.48007,Point Judith,1.3333333333333333,0.261125,0.58868,7,4,"NIGHT_MIST,MOSTLY_CLOUDY","Offshore,Onshore",2
5842041f4e65fad6a77089cd,2025_03_29,41.422678090954726,-71.45413,Monahan's - Narragansett,1,0.06382,0.37227,5,5,"NIGHT_MIST,MOSTLY_CLOUDY","Cross-shore,Cross-shore",2
5842041f4e65fad6a77089ce,2025_03_29,41.469,-71.293,Ruggles - Newport,2.5,0.48490999999999995,0.919905,5,5,"NIGHT_MIST,MOSTLY_CLOUDY","Onshore,Offshore",2
5842041f4e65fad6a77089cf,2025_03_29,43.175394,-70.606351,Short Sands Beach,1,0.59619,0.9527349999999999,4,4,"NIGHT_CLOUDY,ICE_PELLETS","Onshore,Onshore",2
5842041f4e65fad6a77089d0,2025_03_29,41.487408,-71.29017,First Beach,1.5,0.16197999999999999,0.54201,5,5,"NIGHT_FOG,MOSTLY_CLOUDY","Onshore,Offshore",2
5842041f4e65fad6a77089d1,2025_03_29,42.27916830233153,-70.86498,Nantasket Beach,0.5,0.35192,0.5846450000000001,6,4,"NIGHT_CLOUDY,OVERCAST","Offshore,Onshore",2
5842041f4e65fad6a77089d2,2025_03_29,41.817,-69.935,Cape Cod,1,0.02,0.265,4,4,"NIGHT_MOSTLY_CLOUDY,OVERCAST","Cross-shore,Onshore",2
5842041f4e65fad6a77089d3,2025_03_29,42.22055448975661,-70.70634873403819,Egypt Beach,0,0.32,0.53,5,5,"NIGHT_CLOUDY,OVERCAST","Cross-shore,Onshore",2
5842041f4e65fad6a77089d4,2025_03_29,41.48739647744607,-71.25723,Second Beach,0.8333333333333333,0.131255,0.41451499999999997,7,4,"NIGHT_MIST,MOSTLY_CLOUDY","Onshore,Offshore",2
5842041f4e65fad6a77089d5,2025_03_29,42.964,-70.769,Fox Hill,0.3333333333333333,0.3269,0.6458250000000001,4,3,"NIGHT_OVERCAST,OVERCAST","Cross-shore,Cross-shore",2
5842041f4e65fad6a77089d6,2025_03_29,42.991359,-70.75149,Straws Point,0.8333333333333333,0.37179999999999996,0.6786000000000001,4,3,"NIGHT_OVERCAST,OVERCAST","Cross-shore,Cross-shore",2
5842041f4e65fad6a77089d7,2025_03_29,42.946,-70.786,Plaice Cove,0.3333333333333333,0.3269,0.6458250000000001,4,3,"NIGHT_OVERCAST,OVERCAST","Onshore,Onshore",2
5842041f4e65fad6a77089d9,2025_03_29,42.911574,-70.80831,The Main Beach,0,0.23066499999999998,0.599,4,3,"NIGHT_CLOUDY,ICE_PELLETS","Cross-shore,Cross-shore",2
5842041f4e65fad6a77089da,2025_03_29,42.97583846220203,-70.764,Sawyer's Beach,0.3333333333333333,0.30555,0.61235,4,3,"NIGHT_OVERCAST,OVERCAST","Onshore,Cross-shore",2
5842041f4e65fad6a77089db,2025_03_29,42.97,-70.77,Rye on the Rocks / 5-0's,0.8333333333333333,0.405315,0.6754549999999999,4,3,"NIGHT_OVERCAST,OVERCAST","Cross-shore,Cross-shore",2
5842041f4e65fad6a77089dc,2025_03_29,43.55902946610303,-70.27795,Higgins Beach,1,0.06136,0.386245,4,3,"NIGHT_CLOUDY,OVERCAST","Cross-shore,Cross-shore",2
5842041f4e65fad6a77089dd,2025_03_29,43.302676,-70.5652,Wells Beach,0.8333333333333333,0.34929999999999994,0.6561,4,3,"NIGHT_CLEAR,CLOUDY","Onshore,Onshore",2
5842041f4e65fad6a77089de,2025_03_29,43.545359,-70.30479,Scarborough Beach State Park,0.8333333333333333,0.306385,0.6729149999999999,4,3,"NIGHT_CLEAR,CLOUDY","Cross-shore,Cross-shore",2
5842041f4e65fad6a77089df,2025_03_29,43.514481,-70.37215,Old Orchard Beach,0.8333333333333333,0.22305,0.5261,4,3,"NIGHT_CLEAR,CLOUDY","Cross-shore,Cross-shore",2
5842041f4e65fad6a77089e0,2025_03_29,43.34711,-70.48165,Gooch's Beach,1,0.14855,0.43039,4,3,"NIGHT_CLEAR,OVERCAST","Offshore,Offshore",2
5842041f4e65fad6a77089e2,2025_03_29,40.58433,-73.62953,Lido Beach,1.3333333333333333,0.38493,0.71479,8,7,"NIGHT_MOSTLY_CLOUDY,CLEAR","Onshore,Cross-shore",2
5842041f4e65fad6a77089e3,2025_03_29,43.163135,-70.61689,Long Sands Beach,0.3333333333333333,0.274525,0.580105,4,3,"NIGHT_CLOUDY,ICE_PELLETS","Cross-shore,Cross-shore",2
5842041f4e65fad6a77089e4,2025_03_29,40.61695351251805,-73.39376,Gilgo Beach,1.6666666666666665,0.477215,0.8008900000000001,8,7,"NIGHT_MIST,CLEAR","Onshore,Onshore",2
5842041f4e65fad6a77089e5,2025_03_29,40.62530081928036,-73.23827,Robert Moses,1,0.53,0.835,6,6,"NIGHT_MIST,CLEAR","Onshore,Onshore",2
5842041f4e65fad6a77089e6,2025_03_29,40.64313317632791,-73.15727,Fire Island,1.5,0.47,0.77,6,6,"NIGHT_MIST,CLEAR","Onshore,Cross-shore",2
5842041f4e65fad6a77089e8,2025_03_29,40.76653118828782,-72.7458,Cupsogue,2,0.8799999999999999,1.185,6,6,"NIGHT_DRIZZLE,CLEAR","Onshore,Onshore",2
5842041f4e65fad6a77089e9,2025_03_29,42.9376373334092,-70.79141,The Wall,0,0.32336,0.659695,4,3,"NIGHT_CLOUDY,ICE_PELLETS","Onshore,Onshore",2
5842041f4e65fad6a77089ea,2025_03_29,40.887088,-72.33856,Flys,2,0.7250000000000001,0.97,6,6,"NIGHT_MIST,CLEAR","Onshore,Onshore",2
5842041f4e65fad6a77089eb,2025_03_29,41.0389266436591,-71.91068529316958,Trailer Park,1.5,0.49259000000000003,0.7875650000000001,8,7,"NIGHT_RAIN,CLEAR","Onshore,Offshore",2
5842041f4e65fad6a77089ec,2025_03_29,41.039505402729105,-71.9142,Ditch Plains,1.5,0.44545999999999997,0.83281,5.5,5.5,"NIGHT_DRIZZLE,CLEAR","Onshore,Offshore",2
5842041f4e65fad6a77089ee,2025_03_29,40.57633275206492,-73.56895305108567,"West End, Jones Beach",1.3333333333333333,0.45999999999999996,0.76305,8,7,"NIGHT_MOSTLY_CLOUDY,MOSTLY_CLEAR","Onshore,Onshore",2
5842041f4e65fad6a77089f1,2025_03_29,41.038286691230795,-71.91991567611694,Poles,1.5,0.29307,0.61087,8,7,"NIGHT_RAIN,CLEAR","Onshore,Offshore",2
5842041f4e65fad6a77089f3,2025_03_29,40.84077769766295,-72.47989493724765,The Bowl,1.5,0.7649999999999999,1.01,6,6,"NIGHT_MIST,CLEAR","Onshore,Onshore",2
5842041f4e65fad6a77089f4,2025_03_29,40.94235535243154,-72.19286,Main Beach,1.3333333333333333,0.66805,0.9160999999999999,14,13,"NIGHT_MIST,CLEAR","Onshore,Onshore",2
5842041f4e65fad6a77089f5,2025_03_29,40.58270702399518,-73.67251552079799,Laurelton Blvd.,1.3333333333333333,0.5162450000000001,0.7397149999999999,8,7,"NIGHT_MIST,CLEAR","Onshore,Onshore",2
5842041f4e65fad6a77089f6,2025_03_29,41.033752854071416,-71.93696,Terrace,2,0.775655,1.09855,8,7,"NIGHT_HEAVY_RAIN,CLEAR","Onshore,Offshore",2
5842041f4e65fad6a77089f7,2025_03_29,40.83372943645748,-72.50426173210144,K Road,1.5,0.845,1.06,6,6,"NIGHT_MIST,CLEAR","Onshore,Cross-shore",2
5842041f4e65fad6a77089f8,2025_03_29,40.58456099581507,-73.80730032920837,84th Street,1.3333333333333333,0.422145,0.736895,8,7,"NIGHT_MOSTLY_CLOUDY,CLEAR","Onshore,Onshore",2
5842041f4e65fad6a77089fa,2025_03_29,40.1319,-74.02788,Sea Girt,1.25,0.321605,0.637625,8,7,"NIGHT_MIST,CLEAR","Offshore,Offshore",2
5842041f4e65fad6a77089fb,2025_03_29,40.54698301868125,-73.9268,Breezy Point,1.5,0.395,0.6950000000000001,6,6,"NIGHT_CLEAR,MOSTLY_CLEAR","Onshore,Onshore",2
5842041f4e65fad6a77089fc,2025_03_29,40.152504,-74.02138,Spring Lake,1.75,0.30396999999999996,0.6246499999999999,8,7,"NIGHT_MIST,CLEAR","Offshore,Offshore",2
5842041f4e65fad6a77089fd,2025_03_29,40.591277,-73.770792,30th - 39th Streets,1.3333333333333333,0.304,0.62273,8,7,"NIGHT_MOSTLY_CLOUDY,CLEAR","Onshore,Onshore",2
5842041f4e65fad6a77089fe,2025_03_29,40.18834955871439,-74.00860982500222,Avon,1.25,0.275515,0.603055,8,7,"NIGHT_MIST,CLEAR","Offshore,Offshore",2
5842041f4e65fad6a77089ff,2025_03_29,40.1974229100932,-74.00650533798255,Bradley Beach,1.75,0.31345500000000004,0.640995,8,7,"NIGHT_MIST,CLEAR","Offshore,Offshore",2
5842041f4e65fad6a7708a01,2025_03_29,40.17202,-74.01503,"16th Ave., Belmar",1.75,0.33235,0.65442,8,7,"NIGHT_MIST,CLEAR","Offshore,Offshore",2
5842041f4e65fad6a7708a02,2025_03_29,40.217443,-73.99982,Asbury Park,1.75,0.3225,0.630335,8,7,"NIGHT_MIST,CLEAR","Offshore,Offshore",2
5842041f4e65fad6a7708a03,2025_03_29,40.229841,-73.99678,Loch Arbour and Deal,1.25,0.31,0.607835,8,7,"NIGHT_MIST,CLEAR","Cross-shore,Offshore",2
5842041f4e65fad6a7708a05,2025_03_29,40.41754,-73.97935,Sandy Hook,1.5,0.215,0.515,6,6,"NIGHT_MIST,CLEAR","Cross-shore,Offshore",2
5842041f4e65fad6a7708a06,2025_03_29,39.36353,-74.40873,Crystals,1.25,0.695845,1.0803,8,7,"NIGHT_CLEAR,MOSTLY_CLOUDY","Cross-shore,Cross-shore",2
5842041f4e65fad6a7708a07,2025_03_29,39.31443,-74.51863,32nd Street,1.25,0.7582549999999999,1.151445,8,7,"NIGHT_CLEAR,CLEAR","Cross-shore,Cross-shore",2
5842041f4e65fad6a7708a08,2025_03_29,39.327688,-74.49524,Margate Pier Northside,1.25,0.7582549999999999,1.151445,8,7,"NIGHT_CLEAR,CLEAR","Cross-shore,Cross-shore",2
5842041f4e65fad6a7708a09,2025_03_29,39.336276,-74.47782,Ventnor Pier,1.25,0.9091800000000001,1.30042,8,7,"NIGHT_CLEAR,CLEAR","Cross-shore,Cross-shore",2
5842041f4e65fad6a7708a0a,2025_03_29,39.35929751441085,-74.41683,States Avenue,1.25,0.695845,1.0803,8,7,"NIGHT_CLEAR,CLEAR","Cross-shore,Cross-shore",2
5842041f4e65fad6a7708a0b,2025_03_29,39.37274173278517,-74.40454,Brigantine Jetty,1.25,0.7312449999999999,1.119575,8,7,"NIGHT_CLEAR,MOSTLY_CLOUDY","Onshore,Onshore",2
5842041f4e65fad6a7708a0c,2025_03_29,39.356505,-74.42263,South Carolina Avenue,1.25,0.7312449999999999,1.119575,8,7,"NIGHT_CLEAR,CLEAR","Onshore,Onshore",2
5842041f4e65fad6a7708a0d,2025_03_29,39.413485,-74.35476,14th Street North,1.5,0.5765,0.947835,8,7,"NIGHT_CLEAR,MOSTLY_CLOUDY","Cross-shore,Offshore",2
5842041f4e65fad6a7708a0e,2025_03_29,39.531319,-74.26325,The Wooden Jetty,1.5,0.800705,1.055665,8,7,"NIGHT_CLEAR,CLEAR","Cross-shore,Cross-shore",2
5842041f4e65fad6a7708a0f,2025_03_29,39.552472,-74.24344,Holyoke,2,0.900515,1.2545950000000001,8,7,"NIGHT_CLEAR,CLEAR","Cross-shore,Cross-shore",2
5842041f4e65fad6a7708a10,2025_03_29,39.692364,-74.14068,Hudson Ave.,1.5,0.730615,1.0375649999999998,8,7,"NIGHT_CLEAR,CLEAR","Cross-shore,Cross-shore",2
5842041f4e65fad6a7708a11,2025_03_29,39.79614,-74.09248,Island Beach State Park,1,0.427,0.734835,13,13,"NIGHT_CLEAR,CLEAR","Offshore,Offshore",2
5842041f4e65fad6a7708a12,2025_03_29,39.91813588078152,-74.07527,Seaside Park,2,0.38858499999999996,0.724835,8,7,"NIGHT_CLEAR,MOSTLY_CLOUDY","Offshore,Offshore",2
5842041f4e65fad6a7708a15,2025_03_29,39.95745637606704,-74.06736,Ortley Beach,1.75,0.527405,0.857845,8,7,"NIGHT_CLEAR,CLEAR","Cross-shore,Offshore",2
5842041f4e65fad6a7708a16,2025_03_29,39.98313468342945,-74.06265685577506,Lavallette,1.75,0.4095,0.7164999999999999,8,7,"NIGHT_CLEAR,MOSTLY_CLEAR","Cross-shore,Offshore",2
5842041f4e65fad6a7708a17,2025_03_29,40.0699319967757,-74.04145,Bay Head,1.75,0.402835,0.704835,8,7,"NIGHT_CLEAR,CLEAR","Cross-shore,Offshore",2
5842041f4e65fad6a7708a18,2025_03_29,40.094041,-74.034859,Jenkinson's,1.75,0.43376,0.75371,8,7,"NIGHT_MIST,CLEAR","Offshore,Offshore",2
5842041f4e65fad6a7708a1a,2025_03_29,38.148058,-75.17704,Assateague,1.25,0.707335,1.082835,9,8,"NIGHT_CLEAR,CLEAR","Cross-shore,Cross-shore",2
5842041f4e65fad6a7708a1b,2025_03_29,38.33889038664497,-75.08017670566352,North End to Ocean City Inlet,2.75,0.753495,1.13991,9,8,"NIGHT_CLEAR,CLEAR","Offshore,Offshore",2
5842041f4e65fad6a7708a1c,2025_03_29,38.603993,-75.06271,Indian River Inlet,1,0.456045,0.82325,8,8,"NIGHT_CLEAR,CLEAR","Cross-shore,Offshore",2
5842041f4e65fad6a7708a1d,2025_03_29,38.460477,-75.05207,Fenwick Island,2,0.41000000000000003,0.71,8,8,"NIGHT_CLEAR,CLEAR","Offshore,Offshore",2
5842041f4e65fad6a7708a1e,2025_03_29,38.538767,-75.05619,Bethany Beach,1.5,0.45277,0.817335,8,8,"NIGHT_CLEAR,CLEAR","Offshore,Offshore",2
5842041f4e65fad6a7708a1f,2025_03_29,38.697657,-75.07595,Dewey Beach,2,0.47,0.7749999999999999,8,8,"NIGHT_CLEAR,CLEAR","Offshore,Offshore",2
5842041f4e65fad6a7708a20,2025_03_29,38.75034741676525,-75.08194,Gordons Pond,1,0.19424999999999998,0.59569,8,8,"NIGHT_CLEAR,CLOUDY","Offshore,Offshore",2
5842041f4e65fad6a7708a21,2025_03_29,38.767837,-75.08284,Naval Jetties,2,0.38,0.69,8,8,"NIGHT_CLEAR,CLOUDY","Offshore,Offshore",2
5842041f4e65fad6a7708a22,2025_03_29,36.81735875786576,-75.96624,Camp Pendleton,1,0.222525,0.5433749999999999,10.5,10.5,"NIGHT_CLEAR,CLEAR","Offshore,Offshore",2
5842041f4e65fad6a7708a23,2025_03_29,36.9102212316428,-75.98732471466064,North End,0.75,0.012499999999999999,0.3195,11,10,"NIGHT_CLEAR,CLEAR","Offshore,Offshore",2
5842041f4e65fad6a7708a24,2025_03_29,36.737117517621314,-75.93924,Sandbridge Beach,1,0.09122,0.439005,11,10,"NIGHT_CLEAR,CLEAR","Offshore,Offshore",2
5842041f4e65fad6a7708a26,2025_03_29,36.818257440557794,-75.96666,Croatan to Pendleton,0.75,0.197725,0.52022,11,10,"NIGHT_CLEAR,CLEAR","Offshore,Offshore",2
5842041f4e65fad6a7708a27,2025_03_29,36.84318777204769,-75.9719,South End,1,0.03785,0.36491,11,10,"NIGHT_CLEAR,CLEAR","Offshore,Offshore",2
5842041f4e65fad6a7708a28,2025_03_29,37.08612627584661,-75.976121638199,Fishermans Island,1,0.126,0.246,10,10,"NIGHT_CLEAR,CLEAR","Cross-shore,Cross-shore",2
5842041f4e65fad6a7708a38,2025_03_29,35.254619418229026,-75.52074,Cape Hatteras Lighthouse,1.25,0.36333499999999996,0.6930499999999999,14,13,"NIGHT_CLEAR,CLEAR","Cross-shore,Cross-shore",2
5842041f4e65fad6a7708a3a,2025_03_29,35.54572934093336,-75.46477,Waves and Salvo,1,0.42274,0.7562,13,12,"NIGHT_CLEAR,CLEAR","Cross-shore,Cross-shore",2
5842041f4e65fad6a7708a3b,2025_03_29,35.22565892751075,-75.63606,Frisco,1,0.590825,0.927125,19,18,"NIGHT_CLEAR,CLEAR","Onshore,Onshore",2
5842041f4e65fad6a7708a3c,2025_03_29,35.13086,-75.90591,Ocracoke,1,0.5481050000000001,0.9076150000000001,16.5,16.5,"NIGHT_CLEAR,CLEAR","Cross-shore,Cross-shore",2
5842041f4e65fad6a7708a3d,2025_03_29,35.34721340158342,-75.50084,Avon Pier,1,0.390085,0.686375,13,12,"NIGHT_CLEAR,CLEAR","Cross-shore,Cross-shore",2
5842041f4e65fad6a7708a3f,2025_03_29,35.71680821253768,-75.49243,Pea Island,1,0.10500000000000001,0.415,12,12,"NIGHT_CLEAR,CLEAR","Offshore,Offshore",2
5842041f4e65fad6a7708a40,2025_03_29,35.97427620657821,-75.62984,Nags Head Pier,1,0.041665,0.348665,12,11,"NIGHT_CLEAR,CLEAR","Offshore,Offshore",2
5842041f4e65fad6a7708a41,2025_03_29,36.0439998039079,-75.67288,Avalon Pier,0.75,0.01568,0.36024,12,11,"NIGHT_CLEAR,CLEAR","Offshore,Offshore",2
5842041f4e65fad6a7708a42,2025_03_29,36.03043116489792,-75.66413,First Street,0.75,0.034335000000000004,0.362435,12,11,"NIGHT_CLEAR,CLEAR","Offshore,Offshore",2
5842041f4e65fad6a7708a43,2025_03_29,36.06829910590498,-75.6899,Old Station/Laundromats,0.75,0.055955000000000005,0.400885,12,11,"NIGHT_CLEAR,CLEAR","Offshore,Offshore",2
5842041f4e65fad6a7708a44,2025_03_29,36.10126676607491,-75.71107,Kitty Hawk Pier,0.75,0.034435,0.369035,12,11,"NIGHT_CLEAR,CLEAR","Offshore,Offshore",2
5842041f4e65fad6a7708a45,2025_03_29,36.18220630068973,-75.75014,Duck Pier,1,0.045,0.345,10.5,10.5,"NIGHT_CLEAR,CLEAR","Offshore,Offshore",2
5842041f4e65fad6a7708a46,2025_03_29,36.37660668125033,-75.8241,Corolla,1,0.175,0.48,11,11,"NIGHT_CLEAR,CLEAR","Offshore,Offshore",2
5842041f4e65fad6a7708a47,2025_03_29,33.90373404124834,-78.08241431707907,Oak Island,2,0.34,0.64,15.5,15.5,"NIGHT_MOSTLY_CLEAR,MOSTLY_CLEAR","Onshore,Onshore",2
5842041f4e65fad6a7708a48,2025_03_29,33.91108837766468,-78.29653,South Brunswick Beaches,2,0.28788,0.678115,15,15,"NIGHT_MIST,CLEAR","Onshore,Onshore",2
5842041f4e65fad6a7708a49,2025_03_29,34.05683595651973,-77.88128,Carolina Beach Pier,1,0.29762,0.6116999999999999,15,15,"NIGHT_CLEAR,CLEAR","Cross-shore,Cross-shore",2
5842041f4e65fad6a7708a4a,2025_03_29,33.96841191816696,-77.9180242565498,Fort Fisher,1.5,0.377,0.679835,15,15,"NIGHT_CLEAR,CLEAR","Cross-shore,Cross-shore",2
5842041f4e65fad6a7708a4b,2025_03_29,34.46776662988774,-77.47083,Topsail Beach,1,0.4195,0.7265,15,15,"NIGHT_MIST,CLEAR","Onshore,Onshore",2
5842041f4e65fad6a7708a4c,2025_03_29,34.69270354752445,-76.82854854446575,Iron Steamer,1.3333333333333333,0.41805000000000003,0.72485,17,17,"NIGHT_CLEAR,CLEAR","Onshore,Onshore",2
5842041f4e65fad6a7708a4f,2025_03_29,30.85132684893727,-81.42283496231143,Cumberland Island,2,0.95,1.145,18.5,18.5,"NIGHT_CLEAR,MIST","Onshore,Onshore",2
5842041f4e65fad6a7708a50,2025_03_29,34.686741128540874,-76.47516712138378,Cape Lookout National Seashore,1,0.52,0.825,17.5,17.5,"NIGHT_CLEAR,CLEAR","Cross-shore,Cross-shore",2
5842041f4e65fad6a7708a51,2025_03_29,31.10585419260024,-81.40422767604812,Jekyll Island,2,0.46499999999999997,0.775,18,18,"NIGHT_CLEAR,CLEAR","Onshore,Onshore",2
5842041f4e65fad6a7708a52,2025_03_29,31.16212806376699,-81.32512426500224,Harbor Marker Buoys,2.5,0.765,1.07,18,18,"NIGHT_CLEAR,CLEAR","Onshore,Onshore",2
5842041f4e65fad6a7708a53,2025_03_29,31.20076299997009,-81.32629,Sea Island,2,0.775,1.085,18,18,"NIGHT_MOSTLY_CLEAR,CLEAR","Onshore,Onshore",2
5842041f4e65fad6a7708a54,2025_03_29,31.13553222995767,-81.38457634790909,St. Simons Island,2,0.925,1.23,18,18,"NIGHT_MOSTLY_CLEAR,OVERCAST","Onshore,Onshore",2
5842041f4e65fad6a7708a55,2025_03_29,31.33550077186516,-81.28383377408417,Wolf Island,2,0.73,1.0350000000000001,18,18,"NIGHT_CLEAR,MIST","Onshore,Onshore",2
5842041f4e65fad6a7708a56,2025_03_29,31.2704493877174,-81.27324039152315,Little St. Simons Island,2,0.75,1.06,18,18,"NIGHT_CLEAR,CLOUDY","Onshore,Onshore",2
5842041f4e65fad6a7708a57,2025_03_29,31.39261761368919,-81.26190520231917,Sapelo Island,2,0.6699999999999999,0.97,18,18,"NIGHT_CLEAR,CLOUDY","Onshore,Onshore",2
5842041f4e65fad6a7708a58,2025_03_29,34.42458783809001,-77.54492,Surf City Pier,1.5,0.280835,0.587835,15,15,"NIGHT_CLEAR,CLEAR","Onshore,Onshore",2
5842041f4e65fad6a7708a59,2025_03_29,31.4231993614213,-81.24725340591522,Cabretta Island,2,0.745,1.05,18,18,"NIGHT_MOSTLY_CLEAR,CLEAR","Onshore,Onshore",2
5842041f4e65fad6a7708a5a,2025_03_29,31.46684389030369,-81.2100056410468,Blackbeard Island,2,0.6699999999999999,0.97,18,18,"NIGHT_MOSTLY_CLEAR,OVERCAST","Onshore,Onshore",2
5842041f4e65fad6a7708a5b,2025_03_29,31.85953587631629,-80.99031310336719,Wassaw Island/South End,1.5,0.315,0.62,17,17,"NIGHT_MOSTLY_CLEAR,MIST","Onshore,Onshore",2
5842041f4e65fad6a7708a5c,2025_03_29,31.62535662342983,-81.13328352167974,St. Catherines Island,2,0.6799999999999999,0.9850000000000001,17,17,"NIGHT_CLEAR,OVERCAST","Onshore,Onshore",2
5842041f4e65fad6a7708a5d,2025_03_29,31.76502169596568,-81.07655443806622,Ossabaw Island,2,0.595,0.9,17,17,"NIGHT_MIST,CLOUDY","Onshore,Onshore",2
5842041f4e65fad6a7708a5e,2025_03_29,31.90593619092352,-80.93589231700857,Wassaw Island/North End,2,0.71,1.02,17,17,"NIGHT_CLEAR,CLOUDY","Onshore,Onshore",2
5842041f4e65fad6a7708a5f,2025_03_29,31.96738675414547,-80.86977980706155,Little Tybee Island,2,0.6699999999999999,0.98,17,17,"NIGHT_CLEAR,MOSTLY_CLOUDY","Onshore,Onshore",2
5842041f4e65fad6a7708a60,2025_03_29,31.9812255780179,-80.84773973467009,South Tybee Sandbars,2,0.6699999999999999,0.98,17,17,"NIGHT_CLEAR,MOSTLY_CLOUDY","Onshore,Onshore",2
5842041f4e65fad6a7708a61,2025_03_29,32.01226,-80.83983,Sugar Shack,2.5,0.7250000000000001,1.03,17,17,"NIGHT_CLEAR,MOSTLY_CLOUDY","Cross-shore,Cross-shore",2
5842041f4e65fad6a7708a62,2025_03_29,31.98722842396969,-80.84773,18th St. Jetty,2,0.47595999999999994,0.85171,17,17,"NIGHT_CLEAR,MIST","Onshore,Onshore",2
5842041f4e65fad6a7708a64,2025_03_29,34.013473721006676,-77.8991,"Alabama Ave., Kure Beach",2,0.310705,0.61825,14.5,14.5,"NIGHT_CLEAR,CLEAR","Offshore,Cross-shore",2
5842041f4e65fad6a7708a65,2025_03_29,34.20859853336924,-77.79293,"C Street, Wrightsville Beach",1.25,0.31366499999999997,0.6214999999999999,15,15,"NIGHT_CLEAR,CLEAR","Cross-shore,Cross-shore",2
5842041f4e65fad6a7708a66,2025_03_29,32.831,-79.71,Dewees Island,2,0.45999999999999996,0.765,16,16,"NIGHT_CLEAR,BRIEF_SHOWERS","Onshore,Onshore",2
5842041f4e65fad6a7708a67,2025_03_29,33.82924423172106,-78.62813,Cherry Grove Pier,2,0.30699,0.619255,15,15,"NIGHT_MIST,MIST","Onshore,Onshore",2
5842041f4e65fad6a7708a69,2025_03_29,34.27197439666496,-77.74050223196774,Figure Eight and Shell Islands,1.75,0.437,0.739,15,15,"NIGHT_CLEAR,CLEAR","Onshore,Onshore",2
5842041f4e65fad6a7708a6b,2025_03_29,33.49041958261793,-79.07666070599386,North End,2,0.41000000000000003,0.715,16,16,"NIGHT_CLEAR,OVERCAST","Onshore,Onshore",2
5842041f4e65fad6a7708a6c,2025_03_29,33.39537062495087,-79.13835037835189,The South End,2,0.33999999999999997,0.645,16,16,"NIGHT_CLEAR,CLOUDY","Onshore,Onshore",2
5842041f4e65fad6a7708a6d,2025_03_29,33.29001727666697,-79.17190003352977,North Island,2,0.48,0.785,16,16,"NIGHT_OVERCAST,OVERCAST","Cross-shore,Cross-shore",2
5842041f4e65fad6a7708a6e,2025_03_29,32.90929771158952,-79.57810400297359,Bull Island,2,0.39,0.69,16,16,"NIGHT_MOSTLY_CLEAR,BRIEF_SHOWERS","Onshore,Onshore",2
5842041f4e65fad6a7708a6f,2025_03_29,31.99153112815895,-80.84543050470074,Tybee Island Pier,1.5,0.315,0.6200000000000001,17,17,"NIGHT_CLEAR,MOSTLY_CLOUDY","Onshore,Onshore",2
5842041f4e65fad6a7708a70,2025_03_29,33.03478144356316,-79.35021028265125,Cape Romain,2,0.64,0.9450000000000001,16,16,"NIGHT_CLEAR,CLEAR","Onshore,Onshore",2
5842041f4e65fad6a7708a71,2025_03_29,33.43231073271028,-79.11789,The Pier,2,0.235725,0.620325,16,16,"NIGHT_MIST,CLEAR","Onshore,Onshore",2
5842041f4e65fad6a7708a72,2025_03_29,33.45423621397969,-79.10497798178424,South Litchfield,2,0.355,0.6599999999999999,16,16,"NIGHT_OVERCAST,OVERCAST","Onshore,Onshore",2
5842041f4e65fad6a7708a73,2025_03_29,34.19316590251396,-77.8045,Crystal Pier,1.25,0.29092,0.608945,15,15,"NIGHT_CLEAR,CLEAR","Cross-shore,Cross-shore",2
5842041f4e65fad6a7708a74,2025_03_29,33.68628680045124,-78.88346,Myrtle Beach,2,0.42000000000000004,0.725,16,16,"NIGHT_CLEAR,MOSTLY_CLOUDY","Onshore,Onshore",2
5842041f4e65fad6a7708a75,2025_03_29,32.66166297145973,-79.91951806398808,10th Street,2,0.604305,0.924535,16,16,"NIGHT_CLEAR,CLEAR","Onshore,Onshore",2
5842041f4e65fad6a7708a76,2025_03_29,33.16729555197199,-79.19829236867845,South Island,2,0.56,0.87,16,16,"NIGHT_CLEAR,CLEAR","Cross-shore,Cross-shore",2
5842041f4e65fad6a7708a77,2025_03_29,32.595,-80.088,Kiawah Island/Seabrook Island,2,0.635,0.9450000000000001,17,17,"NIGHT_CLEAR,MIST","Onshore,Onshore",2
5842041f4e65fad6a7708a78,2025_03_29,32.51356930575787,-80.28223,Edisto Beach,2,0.41127,0.815895,16.5,16.5,"NIGHT_MIST,MIST","Onshore,Onshore",2
5842041f4e65fad6a7708a79,2025_03_29,32.366270751262,-80.43911,Hunting Island,2,0.42721,0.7986949999999999,17,17,"NIGHT_CLEAR,MIST","Onshore,Onshore",2
5842041f4e65fad6a7708a7a,2025_03_29,32.65337734408365,-79.93983,Folly Beach Pier,2,0.37754,0.690095,16,16,"NIGHT_MOSTLY_CLEAR,MOSTLY_CLOUDY","Onshore,Onshore",2
5842041f4e65fad6a7708a7b,2025_03_29,33.41209545530049,-79.13026341393126,South Jetty,2,0.33999999999999997,0.645,16,16,"NIGHT_CLEAR,CLOUDY","Onshore,Onshore",2
5842041f4e65fad6a7708a7c,2025_03_29,32.31115640606869,-80.48564,Fripp Island,2,0.494055,0.897095,17,17,"NIGHT_CLEAR,CLEAR","Onshore,Onshore",2
5842041f4e65fad6a7708a7d,2025_03_29,32.14365226036034,-80.74402,Hilton Head Island,1,0.16,0.46499999999999997,17,17,"NIGHT_CLEAR,CLEAR","Onshore,Onshore",2
5842041f4e65fad6a7708a7e,2025_03_29,29.70405364733744,-81.22426,Matanzas Inlet,1,0.64133,0.970295,19,19,"NIGHT_MOSTLY_CLOUDY,CLEAR","Onshore,Onshore",2
5842041f4e65fad6a7708a81,2025_03_29,29.76878537149042,-81.25109,Crescent Beach,1,0.655,0.965,20,20,"NIGHT_MOSTLY_CLOUDY,MOSTLY_CLOUDY","Onshore,Onshore",2
5842041f4e65fad6a7708a82,2025_03_29,32.80251718689188,-79.73221919500764,Wild Dunes,2,0.635,0.94,16,16,"NIGHT_CLEAR,MOSTLY_CLOUDY","Onshore,Onshore",2
5842041f4e65fad6a7708a84,2025_03_29,32.75733539419244,-79.83258856064796,Bert's Bar,1.5,0.21500000000000002,0.525,16,16,"NIGHT_CLEAR,MOSTLY_CLOUDY","Onshore,Onshore",2
5842041f4e65fad6a7708a85,2025_03_29,32.66829212943039,-79.90735,Washout,2.25,0.5432950000000001,0.8562700000000001,17,17,"NIGHT_MOSTLY_CLEAR,CLEAR","Onshore,Onshore",2
5842041f4e65fad6a7708a86,2025_03_29,32.78452968219067,-79.7854,The Pier/Windjammer,2,0.64,0.95,16,16,"NIGHT_MIST,MOSTLY_CLOUDY","Onshore,Onshore",2
5842041f4e65fad6a7708a87,2025_03_29,29.86618162637438,-81.2662150259608,Anastasia Park (The Entrance),1,0.695,0.995,20,20,"NIGHT_CLEAR,MOSTLY_CLOUDY","Onshore,Onshore",2
5842041f4e65fad6a7708a89,2025_03_29,29.89149785916623,-81.2723223244215,Blowholes,1,0.507,0.878335,24,23,"NIGHT_MOSTLY_CLOUDY,CLOUDY","Onshore,Onshore",2
5842041f4e65fad6a7708a8a,2025_03_29,30.16227112983666,-81.35502907491218,Crossroads,1.75,0.690335,1.060835,24,23,"NIGHT_CLEAR,CLEAR","Onshore,Onshore",2
5842041f4e65fad6a7708a8b,2025_03_29,30.19308537587637,-81.36314247820911,Sawgrass,1.75,0.6895,0.9908349999999999,24,23,"NIGHT_MOSTLY_CLOUDY,MOSTLY_CLOUDY","Onshore,Onshore",2
5842041f4e65fad6a7708a8c,2025_03_29,30.34696027700899,-81.39451,18th Street,2,0.6799850000000001,1.029055,18.5,18.5,"NIGHT_MOSTLY_CLOUDY,MIST","Onshore,Onshore",2
5842041f4e65fad6a7708a8d,2025_03_29,30.381793,-81.39686,Mayport Poles,1.5,0.7,1,18.5,18.5,"NIGHT_MOSTLY_CLOUDY,OVERCAST","Onshore,Onshore",2
5842041f4e65fad6a7708a8e,2025_03_29,30.390516,-81.395591,Blue Roofs,2,0.8799999999999999,1.185,18.5,18.5,"NIGHT_MOSTLY_CLOUDY,OVERCAST","Onshore,Onshore",2
5842041f4e65fad6a7708a8f,2025_03_29,30.40517712722211,-81.40074116169004,Huguenot Park (North Jetty),1.5,0.735,1.045,18.5,18.5,"NIGHT_MOSTLY_CLOUDY,OVERCAST","Onshore,Onshore",2
5842041f4e65fad6a7708a90,2025_03_29,30.47788918872762,-81.41056,Talbot Island,1.5,0.77291,1.000605,19,19,"NIGHT_MOSTLY_CLOUDY,OVERCAST","Onshore,Onshore",2
5842041f4e65fad6a7708a91,2025_03_29,30.66753984549761,-81.42983,Main Beach,1.5,0.635,0.94,18,18,"NIGHT_MOSTLY_CLOUDY,CLEAR","Onshore,Onshore",2
5842041f4e65fad6a7708a92,2025_03_29,30.69983581209126,-81.42483,Ft. Clinch State Park,1.5,0.785,1.0899999999999999,18,18,"NIGHT_MOSTLY_CLOUDY,CLEAR","Onshore,Onshore",2
5842041f4e65fad6a7708a93,2025_03_29,30.62059700777582,-81.43725,Amelia Pier,2,0.84,1.145,18,18,"NIGHT_MOSTLY_CLOUDY,CLEAR","Onshore,Onshore",2
5842041f4e65fad6a7708a95,2025_03_29,28.95125170929067,-80.83837,Bethune Beach,1,0.635,0.945,21,21,"NIGHT_OVERCAST,CLOUDY","Onshore,Onshore",2
5842041f4e65fad6a7708a96,2025_03_29,29.03874288905362,-80.8933424949646,Flagler Ave.,1,0.6942550000000001,1.0178850000000002,24,23,"NIGHT_DRIZZLE,OVERCAST","Onshore,Onshore",2
5842041f4e65fad6a7708a98,2025_03_29,30.332297686992757,-81.39319,Atlantic Beach,2,0.79242,1.23588,18.5,18.5,"NIGHT_MOSTLY_CLOUDY,MIST","Onshore,Onshore",2
5842041f4e65fad6a7708a99,2025_03_29,29.87530059952514,-81.26757958498874,Middles,1,0.517,0.878335,24,23,"NIGHT_MOSTLY_CLOUDY,CLOUDY","Onshore,Onshore",2
5842041f4e65fad6a7708a9a,2025_03_29,29.146475528378218,-80.96347,Sunglow Pier,1,0.7,1.005,21,21,"NIGHT_MOSTLY_CLOUDY,LIGHT_SHOWERS_POSSIBLE","Onshore,Onshore",2
5842041f4e65fad6a7708a9b,2025_03_29,30.02251238001095,-81.32183077344881,Gate Station,1.25,0.512835,0.879165,24,23,"NIGHT_MOSTLY_CLOUDY,MOSTLY_CLOUDY","Onshore,Onshore",2
5842041f4e65fad6a7708a9c,2025_03_29,29.33976495417899,-81.0606,Bicentennial Park,1,0.73,1.0350000000000001,21,21,"NIGHT_MOSTLY_CLOUDY,CLEAR","Onshore,Onshore",2
5842041f4e65fad6a7708a9d,2025_03_29,29.08257353385602,-80.92137,Ponce Inlet,1,0.930075,1.24515,21,19,"NIGHT_MOSTLY_CLOUDY,OVERCAST","Onshore,Onshore",2
5842041f4e65fad6a7708a9f,2025_03_29,27.862962005874696,-80.44668,Sebastian Inlet,1.25,0.8744799999999999,1.10253,22,22,"NIGHT_DRIZZLE,CLOUDY","Onshore,Onshore",2
5842041f4e65fad6a7708aa0,2025_03_29,30.292626880836885,-81.38579,Jacksonville Beach Pier,1.5,0.6114999999999999,0.982,19,19,"NIGHT_MOSTLY_CLOUDY,CLOUDY","Onshore,Onshore",2
5842041f4e65fad6a7708aa2,2025_03_29,29.21860397328164,-81.0019,Daytona Beach,1,0.5569999999999999,0.859835,21,21,"NIGHT_MOSTLY_CLOUDY,MOSTLY_CLOUDY","Onshore,Onshore",2
5842041f4e65fad6a7708aa3,2025_03_29,27.47531255634912,-80.28914,Ft. Pierce Inlet,1.75,0.9572149999999999,1.29062,23,23,"NIGHT_OVERCAST,OVERCAST","Cross-shore,Cross-shore",2
5842041f4e65fad6a7708aa4,2025_03_29,29.29239875585548,-81.0386,Ormond Beach,1,0.7949999999999999,1.105,21,21,"NIGHT_MOSTLY_CLOUDY,MOSTLY_CLOUDY","Onshore,Onshore",2
5842041f4e65fad6a7708aa5,2025_03_29,29.91629441498523,-81.28801,Vilano,1,0.62,0.925,19.5,19.5,"NIGHT_CLEAR,CLOUDY","Onshore,Onshore",2
5842041f4e65fad6a7708aa6,2025_03_29,27.876230736320828,-80.4551,Spanish House,1,1.06364,1.38936,22,22,"NIGHT_CLOUDY,CLOUDY","Onshore,Onshore",2
5842041f4e65fad6a7708aa7,2025_03_29,28.64397251741012,-80.62329,Playalinda,1,1.045,1.3450000000000002,22,22,"NIGHT_CLOUDY,CLEAR","Onshore,Onshore",2
5842041f4e65fad6a7708aa8,2025_03_29,28.406142,-80.58886,Jetty Park,1.5,0.7399,1.062285,22,22,"NIGHT_CLOUDY,CLOUDY","Onshore,Onshore",2
5842041f4e65fad6a7708aa9,2025_03_29,28.49083243010974,-80.58001715986319,Kennedy Space Center,1.5,0.92,1.08,22.5,22.5,"NIGHT_MOSTLY_CLOUDY,CLOUDY","Onshore,Onshore",2
5842041f4e65fad6a7708aab,2025_03_29,28.336757013024314,-80.60568,Lori Wilson Park,1,1.06039,1.3657300000000001,22,21,"NIGHT_OVERCAST,CLOUDY","Onshore,Onshore",2
5842041f4e65fad6a7708aad,2025_03_29,27.76388821683801,-80.3962958234027,Wabasso,1,0.925,1.2349999999999999,23,23,"NIGHT_OVERCAST,MOSTLY_CLOUDY","Onshore,Onshore",2
5842041f4e65fad6a7708aae,2025_03_29,27.521583322459,-80.30987620353699,P.V. Martin's,1,0.946835,1.2546650000000001,23,22,"NIGHT_LIGHT_RAIN,OVERCAST","Onshore,Onshore",2
5842041f4e65fad6a7708aaf,2025_03_29,27.644996047720046,-80.35242676734924,Riomar,0.25,0.9068350000000001,1.214665,23,22,"NIGHT_CLOUDY,CLOUDY","Onshore,Onshore",2
5842041f4e65fad6a7708ab1,2025_03_29,27.670121806659253,-80.36026954650879,Vero Pier,1,1.0010000000000001,1.298835,23,22,"NIGHT_LIGHT_RAIN,OVERCAST","Onshore,Onshore",2
5842041f4e65fad6a7708ab2,2025_03_29,28.047705032021486,-80.54680109024048,Spessard Holland,1,1.05871,1.35005,22,22,"NIGHT_OVERCAST,CLEAR","Onshore,Onshore",2
5842041f4e65fad6a7708ab7,2025_03_29,28.135426226217064,-80.57895541191101,The Radisson,1,1.2099000000000002,1.5423499999999999,22,22,"NIGHT_LIGHT_RAIN,CLEAR","Onshore,Onshore",2
5842041f4e65fad6a7708ab8,2025_03_29,28.26664623907351,-80.60448,Picnic Tables,1,1.25,1.5550000000000002,22,22,"NIGHT_OVERCAST,CLEAR","Onshore,Onshore",2
5842041f4e65fad6a7708ab9,2025_03_29,28.200840983180232,-80.59493,Perkins,1,1.32225,1.6555,22,22,"NIGHT_CLOUDY,CLEAR","Onshore,Onshore",2
5842041f4e65fad6a7708aba,2025_03_29,28.185652556759443,-80.59154,RC's,1,1.187875,1.510375,22,22,"NIGHT_OVERCAST,CLEAR","Onshore,Onshore",2
5842041f4e65fad6a7708abc,2025_03_29,28.252541991968208,-80.60269,2nd Light,1,1.2349999999999999,1.5350000000000001,22,22,"NIGHT_OVERCAST,CLEAR","Onshore,Onshore",2
5842041f4e65fad6a7708abd,2025_03_29,27.901611308716447,-80.4697,Bonsteel Park,1,1.0894,1.4096,22,22,"NIGHT_MOSTLY_CLOUDY,CLOUDY","Onshore,Onshore",2
5842041f4e65fad6a7708abe,2025_03_29,28.2423394657007,-80.60104,Hangar's Beach,1,1.115,1.415,22,22,"NIGHT_CLOUDY,CLEAR","Onshore,Onshore",2
5842041f4e65fad6a7708abf,2025_03_29,27.34018197146798,-80.23278,Walton Rocks,1,0.929335,1.2321650000000002,24,23,"NIGHT_OVERCAST,CLOUDY","Onshore,Onshore",2
5842041f4e65fad6a7708ac0,2025_03_29,25.80407401902198,-80.1222227290161,30th Street,1,0.5937950000000001,0.951225,25,25,"NIGHT_CLOUDY,CLOUDY","Onshore,Onshore",2
5842041f4e65fad6a7708ac1,2025_03_29,25.76570280215999,-80.12983,South Beach,1,0.702685,1.095915,24,23,"NIGHT_CLOUDY,CLEAR","Onshore,Onshore",2
5842041f4e65fad6a7708ac2,2025_03_29,26.058022412197,-80.10873562327671,Dania Pier,1,0.495,0.795,25,25,"NIGHT_CLOUDY,MOSTLY_CLOUDY","Onshore,Onshore",2
5842041f4e65fad6a7708ac3,2025_03_29,26.04825428257198,-80.11153150137932,Franklin Street,1,0.5700000000000001,0.87,25,25,"NIGHT_CLOUDY,MOSTLY_CLOUDY","Onshore,Onshore",2
5842041f4e65fad6a7708ac4,2025_03_29,26.09086461141498,-80.10728410144065,John Lloyd State Park,1,0.5700000000000001,0.88,25,25,"NIGHT_OVERCAST,MOSTLY_CLOUDY","Onshore,Onshore",2
5842041f4e65fad6a7708ac5,2025_03_29,26.0971397396683,-80.10298876028907,Spoils,0,0.43,0.735,25,25,"NIGHT_OVERCAST,MOSTLY_CLOUDY","Onshore,Onshore",2
5842041f4e65fad6a7708ac6,2025_03_29,26.18920557475824,-80.09224,Commercial Pier,1,0.46499999999999997,0.775,25,25,"NIGHT_CLOUDY,MOSTLY_CLOUDY","Onshore,Onshore",2
5842041f4e65fad6a7708ac7,2025_03_29,28.289851576629342,-80.6063,16th St. South,1,0.8888,1.19922,22,21,"NIGHT_CLOUDY,MOSTLY_CLOUDY","Onshore,Onshore",2
5842041f4e65fad6a7708ac8,2025_03_29,26.23467460139735,-80.0874,Pompano Pier,1,0.65,0.95,25,25,"NIGHT_OVERCAST,MOSTLY_CLOUDY","Onshore,Onshore",2
5842041f4e65fad6a7708acb,2025_03_29,26.44179551370651,-80.05928855229453,Atlantic Dunes Park,1,0.549005,0.84721,24,22,"NIGHT_DRIZZLE,BRIEF_SHOWERS","Onshore,Onshore",2
5842041f4e65fad6a7708acd,2025_03_29,26.62215707439298,-80.03599398392342,Hilton Hotel Backyard,1,0.66507,0.997605,23,22,"NIGHT_OVERCAST,OVERCAST","Onshore,Onshore",2
5842041f4e65fad6a7708ace,2025_03_29,26.96418190555367,-80.07769168113562,Coral Cove Park,1,0.805665,1.167,23,22,"NIGHT_OVERCAST,OVERCAST","Onshore,Onshore",2
5842041f4e65fad6a7708acf,2025_03_29,26.7029496416037,-80.03184,Palm Beach,1,0.7273350000000001,1.0293350000000001,23,22,"NIGHT_OVERCAST,OVERCAST","Onshore,Onshore",2
5842041f4e65fad6a7708ad0,2025_03_29,26.97679878167375,-80.08141631388132,Blowing Rocks,1,0.7415,1.1078350000000001,23,22,"NIGHT_OVERCAST,OVERCAST","Onshore,Onshore",2
5842041f4e65fad6a7708ad2,2025_03_29,26.45661880078336,-80.057,Delray Beach,0.5,0.67843,1.05747,24,22,"NIGHT_DRIZZLE,BRIEF_SHOWERS","Onshore,Onshore",2
5842041f4e65fad6a7708ad3,2025_03_29,27.205685534312778,-80.16826629638672,Fletcher's,1,0.7673350000000001,1.142835,23,22,"NIGHT_CLOUDY,CLOUDY","Cross-shore,Cross-shore",2
5842041f4e65fad6a7708ad5,2025_03_29,26.5848450388814,-80.03649735753257,Lantana Public Beach,1,0.654885,0.981865,23,22,"NIGHT_CLOUDY,OVERCAST","Onshore,Onshore",2
5842041f4e65fad6a7708ad6,2025_03_29,25.77468432731322,-80.12884045797499,5th Street,1,0.59956,0.94546,25,25,"NIGHT_OVERCAST,OVERCAST","Onshore,Onshore",2
5842041f4e65fad6a7708ad7,2025_03_29,25.795157990715975,-80.12527585029602,21st Street,1,0.54191,0.88781,25,25,"NIGHT_OVERCAST,OVERCAST","Onshore,Onshore",2
5842041f4e65fad6a7708ad8,2025_03_29,25.897806453088073,-80.1211827993393,Haulover Inlet (South Jetty),1,0.39,0.6950000000000001,25,25,"NIGHT_OVERCAST,MOSTLY_CLOUDY","Onshore,Onshore",2
5842041f4e65fad6a7708ad9,2025_03_29,25.90147392328634,-80.12110769748688,Haulover Inlet (North Jetty),1,0.52,0.825,25,25,"NIGHT_OVERCAST,MOSTLY_CLOUDY","Onshore,Onshore",2
5842041f4e65fad6a7708ada,2025_03_29,25.87049374242476,-80.11828560342356,85th Street,1,0.45499999999999996,0.76,25,25,"NIGHT_OVERCAST,MOSTLY_CLOUDY","Onshore,Onshore",2
5842041f4e65fad6a7708adb,2025_03_29,26.25486382031396,-80.0805,Hillsboro Inlet,1,1.156085,1.381025,25,25,"NIGHT_CLOUDY,SHOWERS","Onshore,Onshore",2
5842041f4e65fad6a7708add,2025_03_29,26.29705672965111,-80.07612,Hillsboro Beach,1,0.407135,0.598865,25,25,"NIGHT_OVERCAST,BRIEF_SHOWERS","Onshore,Onshore",2
5842041f4e65fad6a7708ade,2025_03_29,26.36569956413266,-80.06717936869391,Red Reef Park,1,0.6398349999999999,1.006165,24,22,"NIGHT_OVERCAST,BRIEF_SHOWERS","Onshore,Onshore",2
5842041f4e65fad6a7708adf,2025_03_29,26.54593873498907,-80.04104359585143,Boynton Beach Inlet (Northside),1,0.595665,0.9076649999999999,23,22,"NIGHT_OVERCAST,OVERCAST","Onshore,Onshore",2
5842041f4e65fad6a7708ae0,2025_03_29,26.92746505629809,-80.06721138954163,Corners,1,0.81389,1.14121,23,22,"NIGHT_OVERCAST,OVERCAST","Onshore,Onshore",2
5842041f4e65fad6a7708ae1,2025_03_29,26.76983179886943,-80.03413481937037,The Cove,1,0.6765,1.0470000000000002,23,22,"NIGHT_LIGHT_RAIN,OVERCAST","Onshore,Onshore",2
5842041f4e65fad6a7708ae3,2025_03_29,26.39224485175123,-80.0650461233983,Japanese Rock,1,0.560665,0.9319999999999999,24,22,"NIGHT_OVERCAST,SHOWERS","Onshore,Onshore",2
5842041f4e65fad6a7708ae4,2025_03_29,29.94810928551321,-85.42545434612366,Mexico Beach,2,0.37,0.675,19,19,"NIGHT_CLEAR,CLEAR","Cross-shore,Offshore",2
5842041f4e65fad6a7708ae5,2025_03_29,30.11752500931267,-85.7306,Shell Island,1,0.5349999999999999,0.845,19,19,"NIGHT_CLEAR,CLEAR","Cross-shore,Cross-shore",2
5842041f4e65fad6a7708ae7,2025_03_29,29.94901514702268,-85.43042978529013,D.J.'s,1.5,0.365,0.675,19,19,"NIGHT_CLEAR,CLEAR","Cross-shore,Cross-shore",2
5842041f4e65fad6a7708ae8,2025_03_29,30.12396111446713,-85.73637,St. Andrew's Park,1.5,0.5489999999999999,0.9145,19,18,"NIGHT_CLEAR,CLEAR","Offshore,Offshore",2
5842041f4e65fad6a7708ae9,2025_03_29,30.16781531760227,-85.79604918824084,Spinnaker,1,0.579,0.9503349999999999,19,18,"NIGHT_CLEAR,CLEAR","Cross-shore,Cross-shore",2
5842041f4e65fad6a7708aea,2025_03_29,30.18877050526983,-85.83243530466363,Wood Pier,1,0.590665,0.952,19,18,"NIGHT_CLEAR,CLEAR","Cross-shore,Cross-shore",2
5842041f4e65fad6a7708aeb,2025_03_29,30.2676205895555,-85.9938578144113,Inlet Beach Pier,1,0.6456649999999999,1.012,19,18,"NIGHT_CLEAR,CLEAR","Cross-shore,Cross-shore",2
5842041f4e65fad6a7708aec,2025_03_29,30.31815542759119,-86.1383771867044,Bud and Alley's,1,0.623165,0.9844999999999999,19,18,"NIGHT_CLEAR,CLEAR","Cross-shore,Cross-shore",2
5842041f4e65fad6a7708aed,2025_03_29,30.32686082481946,-86.16650590275447,Grayton Beach,1,0.677335,1.042835,19,18,"NIGHT_CLEAR,MOSTLY_CLOUDY","Cross-shore,Cross-shore",2
5842041f4e65fad6a7708aee,2025_03_29,30.33661488976303,-86.20094,Blue Mountain Beach,1,0.544835,0.915335,19,18,"NIGHT_CLEAR,CLEAR","Cross-shore,Cross-shore",2
5842041f4e65fad6a7708aef,2025_03_29,30.37677202831587,-86.38513,Pompano Joe's,1,0.672335,1.0751650000000001,19,18,"NIGHT_CLEAR,CLEAR","Cross-shore,Cross-shore",2
5842041f4e65fad6a7708af0,2025_03_29,30.37429731725911,-86.36687,Seascape,1,0.583165,0.890165,19,18,"NIGHT_CLEAR,CLEAR","Cross-shore,Cross-shore",2
5842041f4e65fad6a7708af1,2025_03_29,30.382815988547186,-86.45839,The Back Porch,1,0.6990000000000001,1.0885,19,18,"NIGHT_CLEAR,CLEAR","Cross-shore,Cross-shore",2
5842041f4e65fad6a7708af2,2025_03_29,30.21207176798612,-85.87989730830542,Panama City Pier,1,0.609,0.970335,19,18,"NIGHT_CLEAR,CLEAR","Cross-shore,Offshore",2
5842041f4e65fad6a7708af3,2025_03_29,30.37521499110326,-86.3717,Whale's Tail,1,0.7798350000000001,1.086835,19,18,"NIGHT_CLEAR,CLEAR","Cross-shore,Cross-shore",2
5842041f4e65fad6a7708af4,2025_03_29,30.38120596658251,-86.43046,Old Crystal Pier,0.75,0.794835,1.092665,19,18,"NIGHT_CLEAR,CLEAR","Cross-shore,Cross-shore",2
5842041f4e65fad6a7708af5,2025_03_29,30.38090573159031,-86.50655,Jetty East,1,0.7789999999999999,1.081,19,18,"NIGHT_CLEAR,CLEAR","Cross-shore,Cross-shore",2
5842041f4e65fad6a7708af6,2025_03_29,30.37584509640838,-86.50563,HMO's,1,0.8140000000000001,1.121835,19,18,"NIGHT_CLEAR,CLEAR","Cross-shore,Cross-shore",2
5842041f4e65fad6a7708af7,2025_03_29,30.38124006131522,-86.50052,Two By Fours,1,0.8265,1.1285,19,18,"NIGHT_CLEAR,CLEAR","Onshore,Cross-shore",2
5842041f4e65fad6a7708af8,2025_03_29,30.38250751017554,-86.45776,The Pumphouse,1,0.8073349999999999,1.119335,19,18,"NIGHT_CLEAR,CLEAR","Cross-shore,Cross-shore",2
5842041f4e65fad6a7708af9,2025_03_29,30.38655981578935,-86.52475,NCO Club,1,0.724,1.0268350000000002,19,18,"NIGHT_CLEAR,CLEAR","Onshore,Cross-shore",2
5842041f4e65fad6a7708afa,2025_03_29,30.39024516541047,-86.59341,Okaloosa Pier,1,0.8140000000000001,1.121,19,18,"NIGHT_CLEAR,CLEAR","Cross-shore,Cross-shore",2
5842041f4e65fad6a7708afb,2025_03_29,30.39281125722673,-86.59766,Dead Man's,1,0.819,1.126,19,18,"NIGHT_CLEAR,CLEAR","Cross-shore,Cross-shore",2
5842041f4e65fad6a7708afc,2025_03_29,30.32703176167034,-87.14196,Pensacola Pier,1.5,1.01,1.315,20,20,"NIGHT_CLEAR,OVERCAST","Onshore,Onshore",2
5842041f4e65fad6a7708afd,2025_03_29,30.37920054094992,-86.85583,Navarre Beach,1,0.702335,0.9733350000000001,19,18,"NIGHT_CLEAR,CLEAR","Cross-shore,Cross-shore",2
5842041f4e65fad6a7708afe,2025_03_29,30.39491626029151,-86.61248,Blue Horizon Motel,1,0.6565000000000001,1.037665,19,18,"NIGHT_CLEAR,CLEAR","Cross-shore,Cross-shore",2
5842041f4e65fad6a7708aff,2025_03_29,30.29345899260828,-87.43547,First Parking Lot,1.5,0.97,1.275,20,20,"NIGHT_CLEAR,CLOUDY","Onshore,Cross-shore",2
5842041f4e65fad6a7708b00,2025_03_29,30.29767401311303,-87.41362,Johnsons Beach,1,1,1.3050000000000002,20,20,"NIGHT_CLEAR,OVERCAST","Onshore,Cross-shore",2
5842041f4e65fad6a7708b01,2025_03_29,30.29513397370759,-87.42642,Sandy Key,1.5,0.975,1.275,20,20,"NIGHT_CLEAR,CLOUDY","Onshore,Cross-shore",2
5842041f4e65fad6a7708b03,2025_03_29,30.377504907388026,-86.86444,Navarre Pier,1,0.7647349999999999,1.097845,19,18,"NIGHT_CLEAR,CLEAR","Cross-shore,Cross-shore",2
5842041f4e65fad6a7708b04,2025_03_29,30.31482647791307,-87.26164,Pickens Point Dunes,1,1.0699999999999998,1.375,20,20,"NIGHT_CLEAR,CLOUDY","Onshore,Onshore",2
5842041f4e65fad6a7708b05,2025_03_29,30.32632110836516,-87.16019503253068,Slabs,1.5,1.165,1.47,20,20,"NIGHT_CLEAR,OVERCAST","Onshore,Onshore",2
5842041f4e65fad6a7708b06,2025_03_29,30.32739721382043,-87.30406515493348,Pickens Point,2,1.015,1.325,20,20,"NIGHT_CLEAR,CLEAR","Offshore,Offshore",2
5842041f4e65fad6a7708b07,2025_03_29,30.27406893266753,-87.54367,Bungalows,1.5,1.175,1.38,20,20,"NIGHT_CLEAR,OVERCAST","Onshore,Onshore",2
5842041f4e65fad6a7708b08,2025_03_29,27.99627311846992,-82.82942,880,1,0.03304,0.368935,21,21,"NIGHT_CLEAR,CLEAR","Offshore,Offshore",2
5842041f4e65fad6a7708b09,2025_03_29,27.97779860371595,-82.83246509090527,Pier 60,0.5,0.015,0.275,21,21,"NIGHT_CLEAR,CLEAR","Offshore,Offshore",2
5842041f4e65fad6a7708b0a,2025_03_29,27.96296387618043,-82.8332635965418,Sand Key,1,0.01,0.255,21,21,"NIGHT_CLEAR,MOSTLY_CLEAR","Offshore,Offshore",2
5842041f4e65fad6a7708b0b,2025_03_29,27.92492619212885,-82.8449122845279,Belleair,1,0.01,0.255,21,21,"NIGHT_CLEAR,CLEAR","Offshore,Offshore",2
5842041f4e65fad6a7708b0c,2025_03_29,27.882,-82.854,Indian Rocks Beach,1,0.02,0.27999999999999997,21,21,"NIGHT_CLEAR,MOSTLY_CLOUDY","Offshore,Offshore",2
5842041f4e65fad6a7708b0d,2025_03_29,27.83106104966094,-82.83550218771384,Redington Breakwater,1,0.025,0.3,21,21,"NIGHT_CLEAR,CLEAR","Offshore,Offshore",2
5842041f4e65fad6a7708b0e,2025_03_29,27.74369029906206,-82.76053473435867,Middle Jetty,1,0.04,0.32,21,21,"NIGHT_CLEAR,MOSTLY_CLEAR","Offshore,Offshore",2
5842041f4e65fad6a7708b0f,2025_03_29,27.82174178852146,-82.83148664631841,Redington Pier,0.5,0.02,0.29,21,21,"NIGHT_CLEAR,CLEAR","Offshore,Offshore",2
5842041f4e65fad6a7708b10,2025_03_29,27.31496308261514,-82.5830466912004,Lido Beach,1,0.045000000000000005,0.345,20.5,20.5,"NIGHT_CLEAR,CLEAR","Offshore,Offshore",2
5842041f4e65fad6a7708b11,2025_03_29,27.31122010159892,-82.57833234007632,Coolidge,1,0.045000000000000005,0.345,20.5,20.5,"NIGHT_CLEAR,CLEAR","Offshore,Offshore",2
5842041f4e65fad6a7708b12,2025_03_29,27.26471672017615,-82.55465,Siesta Key,1,0,0.17296,20,20,"NIGHT_CLEAR,CLEAR","Offshore,Offshore",2
5842041f4e65fad6a7708b13,2025_03_29,27.24638693488133,-82.53809115716797,Stickney Point,1,0,0.28500000000000003,20,20,"NIGHT_CLEAR,CLEAR","Offshore,Offshore",2
5842041f4e65fad6a7708b14,2025_03_29,27.21907878229092,-82.51813937562073,Turtles,1,0,0.28,20,20,"NIGHT_CLEAR,CLEAR","Offshore,Offshore",2
5842041f4e65fad6a7708b15,2025_03_29,27.11375765852028,-82.47039,Venice Jetties North,0.5,0,0.155,20,18,"NIGHT_CLEAR,MOSTLY_CLEAR","Offshore,Offshore",2
5842041f4e65fad6a7708b16,2025_03_29,27.111485758834025,-82.46757,Venice Jetties South,1,0,0.21295,20,18,"NIGHT_CLEAR,CLEAR","Offshore,Offshore",2
5842041f4e65fad6a7708b17,2025_03_29,27.07249378831575,-82.4530285256104,Venice Pier,1,0,0.28500000000000003,20,18,"NIGHT_CLEAR,CLEAR","Offshore,Offshore",2
5842041f4e65fad6a7708b19,2025_03_29,27.49680446426314,-82.7140145455959,Holmes Beach Pier,0.5,0.03,0.33499999999999996,21,21,"NIGHT_CLEAR,CLEAR","Offshore,Offshore",2
5842041f4e65fad6a7708b1a,2025_03_29,27.7390348493064,-82.75763,Sunset Beach,0.5,0.04,0.32,21,21,"NIGHT_CLEAR,MOSTLY_CLEAR","Offshore,Offshore",2
5842041f4e65fad6a7708b1b,2025_03_29,26.80347307599041,-82.28564775623539,Gasparilla Point,1,0,0.225,22,22,"NIGHT_CLEAR,CLEAR","Offshore,Offshore",2
5842041f4e65fad6a7708b1c,2025_03_29,27.45365831548911,-82.69609,Coquina Jetties,1,0.035,0.33499999999999996,21,21,"NIGHT_CLEAR,CLEAR","Offshore,Offshore",2
5842041f4e65fad6a7708b1d,2025_03_29,27.46077315206043,-82.69924,Twin Piers,0.75,0,0.20266499999999998,20,18,"NIGHT_CLEAR,CLEAR","Offshore,Offshore",2
5842041f4e65fad6a7708b1e,2025_03_29,26.91007316019612,-82.35352,Englewood,0,0,0.065,22,22,"NIGHT_CLEAR,MOSTLY_CLEAR","Offshore,Offshore",2
5842041f4e65fad6a7708b1f,2025_03_29,26.88221101560038,-82.3359828282636,Knight's Point,1,0,0.225,22,22,"NIGHT_CLEAR,MOSTLY_CLEAR","Offshore,Offshore",2
5842041f4e65fad6a7708b20,2025_03_29,26.51219285784982,-82.1928203289264,Tween Waters,1,0,0.26,22,22,"NIGHT_CLEAR,MOSTLY_CLEAR","Offshore,Offshore",2
5842041f4e65fad6a7708b21,2025_03_29,26.55130241615096,-82.20222762415648,Redfish Pass,1,0,0.26,22,22,"NIGHT_CLEAR,MOSTLY_CLEAR","Offshore,Offshore",2
5842041f4e65fad6a7708b22,2025_03_29,26.71713432926596,-82.26287777058234,Boca Grande,1,0,0.235,22,22,"NIGHT_CLEAR,MOSTLY_CLEAR","Offshore,Offshore",2
5842041f4e65fad6a7708b23,2025_03_29,26.47856785808584,-82.181288592828,Blind Pass,1,0,0.28,22.5,22.5,"NIGHT_MOSTLY_CLOUDY,MOSTLY_CLEAR","Offshore,Offshore",2
5842041f4e65fad6a7708b24,2025_03_29,26.25358330618783,-81.82429246081317,The Wall,0,0,0.14,23,23,"NIGHT_CLEAR,CLEAR","Offshore,Offshore",2
5842041f4e65fad6a7708b25,2025_03_29,26.17456407516186,-81.81588575623482,Doctor's Pass,0,0,0.14,23,23,"NIGHT_CLEAR,CLEAR","Offshore,Offshore",2
5842041f4e65fad6a7708b26,2025_03_29,27.427134501874612,-82.68110766159296,Whitney Beach,1,0.08499999999999999,0.39,21,21,"NIGHT_CLEAR,CLEAR","Offshore,Offshore",2
5842041f4e65fad6a7708b27,2025_03_29,26.17300183052463,-81.81515842430267,Doctor's Pass (South Jetty),0,0,0.15,23,23,"NIGHT_CLEAR,CLEAR","Offshore,Offshore",2
5842041f4e65fad6a7708b28,2025_03_29,27.73496421495629,-82.75268962468695,Upham Beach Park,1,0.04,0.32,21,21,"NIGHT_CLEAR,MOSTLY_CLEAR","Offshore,Offshore",2
5842041f4e65fad6a7708b29,2025_03_29,26.13144856766723,-81.8090395116521,Naples Pier,0,0,0.12,23,23,"NIGHT_CLEAR,CLEAR","Offshore,Offshore",2
5842041f4e65fad6a7708b2a,2025_03_29,20.63474,-156.45211,Little Beach,2,0.22499999999999998,0.535,25,25,"NIGHT_CLEAR,NIGHT_CLEAR","Offshore,Offshore",2
5842041f4e65fad6a7708b2b,2025_03_29,20.613,-156.438,Dumps,2.5,0.29000000000000004,0.595,25,25,"NIGHT_CLEAR,NIGHT_CLEAR","Cross-shore,Offshore",2
5842041f4e65fad6a7708b2c,2025_03_29,22.216,-159.502,Hanalei Bay,4,1.3250000000000002,1.605,25,25,"NIGHT_CLEAR,NIGHT_MOSTLY_CLEAR","Onshore,Onshore",2
5842041f4e65fad6a7708b2d,2025_03_29,22.225,-159.567,Ha'Ena Bay (Cannons/Tunnels),3,1.125,1.395,25.5,25.5,"NIGHT_CLEAR,NIGHT_CLEAR","Cross-shore,Onshore",2
5842041f4e65fad6a7708b2f,2025_03_29,22.148,-159.301,Anahola Bay,2.5,0.645,0.9550000000000001,25,25,"NIGHT_MOSTLY_CLOUDY,NIGHT_CLEAR","Onshore,Onshore",2
5842041f4e65fad6a7708b30,2025_03_29,21.872,-159.462,Poipu Outer Reef,3.5,1.13,1.405,25,25,"NIGHT_MOSTLY_CLEAR,NIGHT_CLEAR","Onshore,Cross-shore",2
5842041f4e65fad6a7708b31,2025_03_29,21.936,-159.652,Pakala,3,0.33999999999999997,0.645,25,25,"NIGHT_MOSTLY_CLEAR,NIGHT_CLEAR","Onshore,Offshore",2
5842041f4e65fad6a7708b32,2025_03_29,21.272,-157.832,Populars,3,0.611005,0.91303,26,25,"NIGHT_CLEAR,NIGHT_CLEAR","Offshore,Offshore",2
5842041f4e65fad6a7708b33,2025_03_29,21.26841992117695,-157.82329,Publics,3,0.96048,1.1484,26,25,"NIGHT_CLEAR,NIGHT_CLEAR","Offshore,Offshore",2
5842041f4e65fad6a7708b34,2025_03_29,21.25460513357954,-157.79432,Black Point,3,0.77719,1.107735,25,25,"NIGHT_CLEAR,NIGHT_CLEAR","Offshore,Offshore",2
5842041f4e65fad6a7708b35,2025_03_29,21.27394674233747,-157.82777,Canoes,3,0.997975,1.1913,26,25,"NIGHT_CLEAR,NIGHT_CLEAR","Offshore,Offshore",2
5842041f4e65fad6a7708b36,2025_03_29,21.273658410008455,-157.8263,Queen's,3,0.65395,0.947755,26,25,"NIGHT_CLEAR,NIGHT_CLEAR","Offshore,Offshore",2
5842041f4e65fad6a7708b37,2025_03_29,20.869,-156.679,Lahaina Harbor - Breakwall,3,0.42500000000000004,0.735,25,25,"NIGHT_CLEAR,NIGHT_CLEAR","Cross-shore,Offshore",2
5842041f4e65fad6a7708b38,2025_03_29,21.277,-157.841,Kaiser's,3,0.531215,0.95102,26,25,"NIGHT_CLEAR,NIGHT_CLEAR","Offshore,Offshore",2
5842041f4e65fad6a7708b39,2025_03_29,21.280537020769913,-157.84107,Rockpiles,2.5,0.492865,0.786665,26,25,"NIGHT_CLEAR,NIGHT_CLEAR","Offshore,Offshore",2
5842041f4e65fad6a7708b3a,2025_03_29,21.2745,-157.8395,Four's,3,0.64452,0.95892,25,25,"NIGHT_CLEAR,NIGHT_CLEAR","Offshore,Offshore",2
5842041f4e65fad6a7708b3b,2025_03_29,21.576,-158.282,Kaena Point,2.5,0.64,0.95,26,26,"NIGHT_MOSTLY_CLOUDY,NIGHT_CLEAR","Onshore,Onshore",2
5842041f4e65fad6a7708b3c,2025_03_29,21.31110306220024,-157.6590697786346,Makapu'u,2,0.515,0.8200000000000001,25,25,"NIGHT_MOSTLY_CLOUDY,NIGHT_CLEAR","Onshore,Onshore",2
5842041f4e65fad6a7708b3d,2025_03_29,21.276618032562773,-157.83386,Three's,3,0.38065,0.76754,26,25,"NIGHT_CLEAR,NIGHT_CLEAR","Offshore,Offshore",2
5842041f4e65fad6a7708b3f,2025_03_29,39.63537452931482,-123.7858735430881,Westport,3.5,2.76,3.215,12,12,"NIGHT_CLEAR,NIGHT_CLEAR","Offshore,Offshore",2
5842041f4e65fad6a7708b40,2025_03_29,39.47339314374171,-123.8053109861082,MacKerricher,3,3.83,4.295,12,12,"NIGHT_MOSTLY_CLEAR,NIGHT_CLEAR","Offshore,Cross-shore",2
5842041f4e65fad6a7708b41,2025_03_29,39.30271935445495,-123.79757,Mendocino Township,4,2.5300000000000002,2.925,12,12,"NIGHT_MOSTLY_CLEAR,NIGHT_CLEAR","Offshore,Offshore",2
5842041f4e65fad6a7708b42,2025_03_29,21.281416779283845,-157.8457,Ala Moana Bowls,3,0.733245,1.0174699999999999,26,25,"NIGHT_CLEAR,NIGHT_CLEAR","Offshore,Offshore",2
5842041f4e65fad6a7708b43,2025_03_29,15.846,-97.06,Puerto Escondido,4,1.9649999999999999,2.3499999999999996,29,29,"NIGHT_CLEAR,CLEAR","Offshore,Cross-shore",2
5842041f4e65fad6a7708b44,2025_03_29,11.44175,-86.08519,Santana,2.5,1.18,1.4049999999999998,27.5,27.5,"NIGHT_CLEAR,MOSTLY_CLOUDY","Offshore,Offshore",2
5842041f4e65fad6a7708b46,2025_03_29,38.91444690804076,-123.7104245288878,Point Arena,3,3.2199999999999998,3.85,13,13,"NIGHT_CLEAR,NIGHT_CLEAR","Offshore,Offshore",2
5842041f4e65fad6a7708b47,2025_03_29,18.46,-66.07383728027,San Juan,1.1666666666666667,0.6586,1.0238,28,27,"NIGHT_MOSTLY_CLOUDY,CLEAR","Cross-shore,Cross-shore",2
5842041f4e65fad6a7708b48,2025_03_29,13.21526058417982,-59.52183,Soup Bowl,1.5,1.315,1.62,27.5,27.5,"NIGHT_BRIEF_SHOWERS_POSSIBLE,LIGHT_SHOWERS","Onshore,Onshore",2
5842041f4e65fad6a7708b49,2025_03_29,18.371581,-67.25941,Puntas,1,0.19350499999999998,0.454155,28,27,"NIGHT_CLEAR,CLEAR","Cross-shore,Cross-shore",2
5842041f4e65fad6a7708b4b,2025_03_29,-8.814,115.089,Uluwatu,1.5,1.15852,1.456455,28,28,"THUNDER_SHOWERS,NIGHT_LIGHT_RAIN","Onshore,Onshore",2
5842041f4e65fad6a7708b4c,2025_03_29,-8.950192825865,115.12573,Kuta,1.5,1.6600000000000001,1.9849999999999999,29,29,"LIGHT_RAIN,NIGHT_BRIEF_SHOWERS_POSSIBLE","Cross-shore,Cross-shore",2
5842041f4e65fad6a7708b4d,2025_03_29,9.94,-85.668,Guiones,3,0.8400000000000001,1.085,29,29,"NIGHT_CLEAR,CLEAR","Offshore,Offshore",2
5842041f4e65fad6a7708b4e,2025_03_29,9.56516,-84.59148,Playa Hermosa South,3,0.78928,1.1356549999999999,30,30,"NIGHT_CLEAR,CLEAR","Offshore,Offshore",2
5842041f4e65fad6a7708b4f,2025_03_29,9.526305556,-84.48822,Playa Esterillos,4,1.315,1.5899999999999999,30,30,"NIGHT_CLEAR,CLEAR","Offshore,Cross-shore",2
5842041f4e65fad6a7708b50,2025_03_29,9.576,-84.608,Playa Hermosa North,3,1.01,1.27,30,30,"NIGHT_CLEAR,CLEAR","Offshore,Offshore",2
5842041f4e65fad6a7708b53,2025_03_29,-12.337,-76.839,Pico Alto,3,1.365435,1.628655,21,21,"NIGHT_OVERCAST,CLEAR","Onshore,Onshore",2
5842041f4e65fad6a7708b55,2025_03_29,-12.17155,-77.08515,Peruazul,3,0.975,1.165,21,21,"NIGHT_CLEAR,CLEAR","Cross-shore,Cross-shore",2
5842041f4e65fad6a7708b56,2025_03_29,-12.133164,-77.03916,Makaha,3,1.421515,1.694885,21,21,"NIGHT_CLEAR,CLEAR","Cross-shore,Onshore",2
5842041f4e65fad6a7708b57,2025_03_29,43.29,-2.1708,Zarautz,1.5,1.115365,1.3942100000000002,13,13,"LIGHT_SHOWERS,BRIEF_SHOWERS","Onshore,Onshore",2
5842041f4e65fad6a7708b58,2025_03_29,54.27129984804951,-8.60171,Strandhill,3,1.6274950000000001,2.5429649999999997,9,9,"OVERCAST,OVERCAST","Offshore,Cross-shore",2
5842041f4e65fad6a7708b5b,2025_03_29,39.276101,-74.56709,7th Street,1.75,0.794405,1.20147,8,7,"NIGHT_CLEAR,CLEAR","Cross-shore,Cross-shore",2
5842041f4e65fad6a7708b5d,2025_03_29,39.321896,-74.506191,Sumner Avenue,1,0.427835,0.803335,13,13,"NIGHT_CLEAR,CLEAR","Onshore,Cross-shore",2
5842041f4e65fad6a7708b5e,2025_03_29,39.093673,-74.71653,26th to 30th Street Pier,1.25,0.6463000000000001,1.038225,8,7,"NIGHT_CLEAR,CLEAR","Cross-shore,Cross-shore",2
5842041f4e65fad6a7708b5f,2025_03_29,39.039903,-74.76417,Nun's Beach,1.25,0.6284799999999999,1.04684,9,8,"NIGHT_CLEAR,CLEAR","Cross-shore,Cross-shore",2
5842041f4e65fad6a7708b60,2025_03_29,38.96768,-74.82565,Rambler Road,1.25,0.595665,0.961165,9,8,"NIGHT_CLEAR,CLEAR","Cross-shore,Cross-shore",2
5842041f4e65fad6a7708b61,2025_03_29,38.99931,-74.78814,2nd St. to 10th St.,1.25,0.5665,0.9328350000000001,9,8,"NIGHT_CLEAR,CLEAR","Cross-shore,Cross-shore",2
5842041f4e65fad6a7708b62,2025_03_29,38.929886,-74.91718,Stockton Avenue,1.25,0.461835,0.894995,9,8,"NIGHT_CLEAR,CLEAR","Offshore,Offshore",2
5842041f4e65fad6a7708b63,2025_03_29,38.942988,-74.862452,The Rocks,1.25,0.5714999999999999,0.9328350000000001,9,8,"NIGHT_CLEAR,CLEAR","Cross-shore,Cross-shore",2
5842041f4e65fad6a7708b64,2025_03_29,38.93036,-74.91257,Queen Street,1,0.589,0.9595,9,8,"NIGHT_CLEAR,CLEAR","Cross-shore,Cross-shore",2
5842041f4e65fad6a7708b65,2025_03_29,38.942757,-74.880791,Poverty Beach,1.25,0.647335,1.017835,9,8,"NIGHT_CLEAR,CLEAR","Onshore,Onshore",2
5842041f4e65fad6a7708b66,2025_03_29,38.929441,-74.93129,Broadway Beach,1,0.594835,0.960335,9,8,"NIGHT_CLEAR,CLEAR","Cross-shore,Cross-shore",2
5842041f4e65fad6a7708b67,2025_03_29,38.92870117926206,-74.92116,Grant Street Beach,1,0.594835,0.960335,9,8,"NIGHT_CLEAR,CLEAR","Cross-shore,Cross-shore",2
5842041f4e65fad6a7708b68,2025_03_29,38.928934874358276,-74.93582,The Cove,1,0.5800000000000001,0.8799999999999999,8,8,"NIGHT_CLEAR,CLEAR","Cross-shore,Cross-shore",2
5842041f4e65fad6a7708b69,2025_03_29,26.775154329102108,-80.03124833106995,Pumphouse,1,0.71,1.01,25,25,"NIGHT_LIGHT_RAIN,OVERCAST","Onshore,Onshore",2
5842041f4e65fad6a7708b6a,2025_03_29,26.72114353296791,-80.03310374527736,Sunrise,1,0.704835,1.0126650000000001,23,22,"NIGHT_OVERCAST,OVERCAST","Onshore,Onshore",2
5842041f4e65fad6a7708b6b,2025_03_29,26.71306786153966,-80.03222170715443,Breakers,1,0.7231650000000001,1.030165,23,22,"NIGHT_OVERCAST,OVERCAST","Onshore,Onshore",2
5842041f4e65fad6a7708b6c,2025_03_29,26.699075556703683,-80.03263235092163,Charlie's Crab,1,0.7273350000000001,1.030165,23,22,"NIGHT_OVERCAST,OVERCAST","Onshore,Onshore",2
5842041f4e65fad6a7708b6d,2025_03_29,26.79441490392914,-80.0306161110009,Ocean Reef Park,1,0.6965,1.0578349999999999,23,22,"NIGHT_DRIZZLE,OVERCAST","Onshore,Onshore",2
5842041f4e65fad6a7708b6f,2025_03_29,26.93134670517399,-80.06760115579169,Civic Center,1,0.82318,1.153575,23,22,"NIGHT_OVERCAST,OVERCAST","Onshore,Onshore",2
5842041f4e65fad6a7708b70,2025_03_29,26.90524197396177,-80.0593609780092,Kite Beach,1,0.6963550000000001,1.03454,23,22,"NIGHT_CLOUDY,OVERCAST","Onshore,Onshore",2
5842041f4e65fad6a7708b71,2025_03_29,26.54279208054373,-80.04292130470276,Boynton Beach Inlet (Southside),0.25,0.595665,0.9076649999999999,23,22,"NIGHT_OVERCAST,OVERCAST","Onshore,Onshore",2
5842041f4e65fad6a7708b72,2025_03_29,26.613511029817357,-80.03534,Lake Worth Pier,1,0.818975,1.14685,23,22,"NIGHT_OVERCAST,OVERCAST","Onshore,Onshore",2
5842041f4e65fad6a7708b73,2025_03_29,27.06670219261476,-80.11447191238403,Hobe Sound Public Beach,1,0.7889999999999999,1.1595,23,22,"NIGHT_CLOUDY,CLOUDY","Onshore,Onshore",2
5842041f4e65fad6a7708b75,2025_03_29,27.21467611230439,-80.17308,Stuart Public Beach,1,0.8230999999999999,1.209625,23,22,"NIGHT_CLOUDY,CLOUDY","Cross-shore,Cross-shore",2
5842041f4e65fad6a7708b76,2025_03_29,27.36627923374593,-80.24622,Blind Creek Park,1,1.000165,1.302165,24,23,"NIGHT_OVERCAST,OVERCAST","Onshore,Onshore",2
5842041f4e65fad6a7708b77,2025_03_29,26.94256932088346,-80.07057,Jupiter Inlet,1,0.712335,1.077835,23,22,"NIGHT_OVERCAST,OVERCAST","Onshore,Onshore",2
5842041f4e65fad6a7708b78,2025_03_29,26.89365359499372,-80.056,Juno Pier,1,0.802635,1.22736,23,22,"NIGHT_CLOUDY,OVERCAST","Onshore,Onshore",2
5842041f4e65fad6a7708b7a,2025_03_29,29.67671206577928,-85.3689474172784,Cape San Blas,2,0.655,0.96,19,19,"NIGHT_CLEAR,MOSTLY_CLEAR","Offshore,Offshore",2
5842041f4e65fad6a7708b7b,2025_03_29,26.706551543472415,-80.03280401229858,Flagpole,1,0.7164999999999999,1.024335,23,22,"NIGHT_OVERCAST,OVERCAST","Onshore,Onshore",2
5842041f4e65fad6a7708b7c,2025_03_29,29.94036477533054,-85.40953557392244,El Governor,2,0.365,0.6699999999999999,19,19,"NIGHT_CLEAR,CLEAR","Offshore,Offshore",2
5842041f4e65fad6a7708b7d,2025_03_29,29.68231979841189,-85.30627194238092,Toilet Bowls,1.5,0.71,1.0150000000000001,19.5,19.5,"NIGHT_CLEAR,MOSTLY_CLOUDY","Cross-shore,Cross-shore",2
5842041f4e65fad6a7708b7e,2025_03_29,29.6607153445246,-84.86361191991014,St. George Island,1,0.6699999999999999,0.975,19.5,19.5,"NIGHT_CLEAR,CLOUDY","Onshore,Onshore",2
5842041f4e65fad6a7708b7f,2025_03_29,29.77441172865639,-84.65942657000329,Dog Island,1,0.645,0.95,19.5,19.5,"NIGHT_CLEAR,CLEAR","Onshore,Onshore",2
5842041f4e65fad6a7708b80,2025_03_29,28.59674155718017,-95.97559,Matagorda,2,1.145,1.415,20,20,"NIGHT_MOSTLY_CLOUDY,MIST","Onshore,Onshore",2
5842041f4e65fad6a7708b81,2025_03_29,27.84601633294622,-97.04372701603208,St. Joe's Island,2.5,1.125,1.435,20,20,"NIGHT_CLEAR,MOSTLY_CLEAR","Onshore,Cross-shore",2
5842041f4e65fad6a7708b82,2025_03_29,27.64327897922308,-97.18612,J.P. Luby Surf Park,2.5,1.00305,1.3694350000000002,20,20,"NIGHT_MOSTLY_CLEAR,CLEAR","Onshore,Cross-shore",2
5842041f4e65fad6a7708b83,2025_03_29,27.82704888028459,-97.05277,Horace Caldwell Pier,2,1.129945,1.49853,20,20,"NIGHT_CLEAR,MOSTLY_CLEAR","Onshore,Onshore",2
5842041f4e65fad6a7708b84,2025_03_29,27.67634780977739,-97.16473,Fish Pass,2.5,1.00305,1.3694350000000002,20,20,"NIGHT_CLEAR,BRIEF_SHOWERS_POSSIBLE","Onshore,Cross-shore",2
5842041f4e65fad6a7708b85,2025_03_29,27.58118015227788,-97.2191,Bob Hall Pier,1.5,0.981005,1.361145,20,20,"NIGHT_MOSTLY_CLEAR,CLEAR","Onshore,Onshore",2
5842041f4e65fad6a7708b86,2025_03_29,28.93236038480434,-95.30205,Quintana,2,1.310695,1.54371,20,20,"NIGHT_MIST,RAIN","Onshore,Onshore",2
5842041f4e65fad6a7708b87,2025_03_29,28.94367955201253,-95.28969,Octagon,2,1.310695,1.54371,20,20,"NIGHT_MIST,SHOWERS","Onshore,Onshore",2
5842041f4e65fad6a7708b88,2025_03_29,29.02647703020454,-95.18702498902157,Boilers,2,1.145,1.365,20,20,"NIGHT_CLEAR,MIST","Onshore,Onshore",2
5842041f4e65fad6a7708b89,2025_03_29,28.9653363517684,-95.26739753922841,Assholes,2,1.1099999999999999,1.42,20,20,"NIGHT_CLEAR,SHOWERS","Onshore,Onshore",2
5842041f4e65fad6a7708b8a,2025_03_29,29.27159138874912,-94.81532732168617,51st Street,2,1.0150000000000001,1.25,20,20,"NIGHT_MOSTLY_CLOUDY,MOSTLY_CLOUDY","Onshore,Onshore",2
5842041f4e65fad6a7708b8b,2025_03_29,29.13902635892794,-95.04070493829546,West Galveston,1.5,0.975,1.17,20,20,"NIGHT_MOSTLY_CLOUDY,MIST","Onshore,Onshore",2
5842041f4e65fad6a7708b8c,2025_03_29,29.26596874354759,-94.82556,61st Street,2,0.83075,1.1919499999999998,20,20,"NIGHT_CLEAR,MIST","Onshore,Onshore",2
5842041f4e65fad6a7708b8d,2025_03_29,29.279815639798642,-94.80146,37th Street,2,0.845595,1.217415,20,20,"NIGHT_MOSTLY_CLOUDY,MOSTLY_CLOUDY","Onshore,Onshore",2
5842041f4e65fad6a7708b8e,2025_03_29,29.28680654948785,-94.79106,Flagship,1.5,0.8288949999999999,1.19006,20,20,"NIGHT_MOSTLY_CLOUDY,MOSTLY_CLOUDY","Onshore,Onshore",2
5842041f4e65fad6a7708b8f,2025_03_29,29.4702751255731,-94.59146640261427,A-Frames,1,0.73,1.0350000000000001,20,20,"NIGHT_CLEAR,MIST","Onshore,Onshore",2
5842041f4e65fad6a7708b90,2025_03_29,29.52172627288487,-94.45911,Meacom's Pier,2,0.8326,1.1972399999999999,20,20,"NIGHT_MOSTLY_CLEAR,MOSTLY_CLEAR","Onshore,Onshore",2
5842041f4e65fad6a7708b91,2025_03_29,29.4510876813709,-94.63230467945758,Crystal Beach,1,0.91,1.1400000000000001,20,20,"NIGHT_MOSTLY_CLEAR,MIST","Onshore,Onshore",2
5842041f4e65fad6a7708b92,2025_03_29,26.06123118244004,-97.14769,Boca Chica,2,0.9845950000000001,1.339505,22,22,"NIGHT_MIST,CLEAR","Cross-shore,Cross-shore",2
5842041f4e65fad6a7708b93,2025_03_29,26.06961904983808,-97.15243,Isla Blanca State Park,2,0.88541,1.2285050000000002,22,22,"NIGHT_MIST,CLEAR","Cross-shore,Cross-shore",2
5842041f4e65fad6a7708b96,2025_03_29,26.56132001354785,-97.26967,Port Mansfield,1.5,0.99886,1.3697,21,21,"NIGHT_DRIZZLE,MOSTLY_CLOUDY","Onshore,Onshore",2
5842041f4e65fad6a7708b98,2025_03_29,10.85099440725964,-85.79981,Ollie's Point,3,0.615,0.92,28,28,"NIGHT_CLEAR,CLEAR","Offshore,Offshore",2
5842041f4e65fad6a7708b99,2025_03_29,10.79489213393012,-85.68066,Witches Rock,3,1.02,1.22,28,28,"NIGHT_CLEAR,CLEAR","Offshore,Offshore",2
5842041f4e65fad6a7708b9a,2025_03_29,9.570222044864844,-85.14184,Mal Pais,3,1.02,1.28,30,30,"NIGHT_CLEAR,CLEAR","Offshore,Offshore",2
5842041f4e65fad6a7708b9b,2025_03_29,10.29970304257365,-85.84398,Tamarindo,2,0.545,0.855,29,29,"NIGHT_CLEAR,CLEAR","Offshore,Offshore",2
5842041f4e65fad6a7708b9c,2025_03_29,9.250593929300813,-83.86522,Dominical,3.5,0.97,1.16,29,29,"NIGHT_CLEAR,CLEAR","Offshore,Onshore",2
5842041f4e65fad6a7708b9d,2025_03_29,9.48278011021258,-84.28883991550364,Bejuco,3,0.73,1.0350000000000001,30,30,"NIGHT_CLEAR,CLEAR","Offshore,Cross-shore",2
5842041f4e65fad6a7708ba1,2025_03_29,9.616940559391795,-84.63541,Playa Jaco,3,1.018025,1.220505,30,30,"NIGHT_CLEAR,CLEAR","Offshore,Offshore",2
5842041f4e65fad6a7708ba3,2025_03_29,9.661646156842439,-84.67316883195207,Playa Escondida,2,0.62,0.925,30,30,"NIGHT_CLEAR,CLEAR","Cross-shore,Cross-shore",2
5842041f4e65fad6a7708ba4,2025_03_29,9.635059578319176,-84.66159522794959,Herradura,2,0.65,0.96,30,30,"NIGHT_CLEAR,CLEAR","Offshore,Cross-shore",2
5842041f4e65fad6a7708ba5,2025_03_29,9.958235741436532,-84.74122,Boca Barranca,3,0.53714,0.897205,29.5,29.5,"NIGHT_CLEAR,CLEAR","Offshore,Offshore",2
5842041f4e65fad6a7708ba6,2025_03_29,9.922484732656224,-84.7158981889118,Caldera Jetty,3,0.5,0.8049999999999999,29.5,29.5,"NIGHT_CLEAR,CLEAR","Offshore,Cross-shore",2
5842041f4e65fad6a7708ba7,2025_03_29,9.661180947362254,-82.75273,Salsa Brava,3,0.7276,1.07707,28,28,"NIGHT_BRIEF_SHOWERS_POSSIBLE,CLEAR","Offshore,Offshore",2
5842041f4e65fad6a7708ba8,2025_03_29,8.38230022212565,-83.28332,Matapalo,3,0.995,1.1949999999999998,30,30,"NIGHT_CLEAR,CLEAR","Offshore,Offshore",2
5842041f4e65fad6a7708ba9,2025_03_29,8.394937,-83.13952,Pavones,3,0.7050000000000001,1.0150000000000001,30,30,"NIGHT_CLEAR,CLEAR","Offshore,Cross-shore",2
5842041f4e65fad6a7708baa,2025_03_29,13.47971255664387,-89.28610104791234,Playa San Diego,3.5,1.2650000000000001,1.51,30,30,"NIGHT_CLEAR,CLEAR","Offshore,Offshore",2
5842041f4e65fad6a7708bab,2025_03_29,13.4834740494465,-89.32376,La Paz,3,0.44434,0.74378,30,30,"NIGHT_CLEAR,CLEAR","Offshore,Onshore",2
5842041f4e65fad6a7708bac,2025_03_29,13.48587874937462,-89.31998852531258,El Muelle (Pier),3,1.35,1.66,30,30,"NIGHT_CLEAR,CLEAR","Offshore,Cross-shore",2
5842041f4e65fad6a7708bad,2025_03_29,13.47973883183636,-89.32655,Punta Roca,4,1.3,1.55,30,30,"NIGHT_THUNDER_SHOWERS,CLEAR","Offshore,Onshore",2
5842041f4e65fad6a7708bae,2025_03_29,13.491596878346689,-89.38104,La Bocana,3,1.112615,1.331855,30,30,"NIGHT_CLEAR,CLEAR","Offshore,Offshore",2
5842041f4e65fad6a7708baf,2025_03_29,13.48324995683858,-89.33946,Playa Conchalio,3,1.1145450000000001,1.332975,30,30,"NIGHT_CLEAR,CLEAR","Cross-shore,Offshore",2
5842041f4e65fad6a7708bb0,2025_03_29,13.49167561061991,-89.39,Sunzal,3,0.744,0.888,30,30,"NIGHT_CLEAR,CLEAR","Offshore,Offshore",2
5842041f4e65fad6a7708bb1,2025_03_29,35.92499624829542,-121.46957,Sand Dollar Beach,2.5,4.29,5.13,13,13,"NIGHT_CLEAR,CLEAR","Cross-shore,Offshore",2
5842041f4e65fad6a7708bb3,2025_03_29,36.55448900657569,-121.93114,Carmel Beach,3,2.15,2.565,12.5,12.5,"NIGHT_BRIEF_SHOWERS,CLEAR","Cross-shore,Cross-shore",2
5842041f4e65fad6a7708bb4,2025_03_29,36.27968576518622,-121.85962,Big Sur Rivermouth,3.5,2.6799999999999997,3.2,13,13,"NIGHT_CLEAR,CLEAR","Offshore,Offshore",2
5842041f4e65fad6a7708bb5,2025_03_29,36.60883280895963,-121.9603486684287,Mole Point,2,3.24,3.87,12.5,12.5,"NIGHT_MOSTLY_CLOUDY,MOSTLY_CLEAR","Onshore,Onshore",2
5842041f4e65fad6a7708bb6,2025_03_29,36.63788026219399,-121.9311174079908,Boneyard,2,2.75,3.25,12.5,12.5,"NIGHT_MOSTLY_CLOUDY,CLEAR","Onshore,Onshore",2
5842041f4e65fad6a7708bb7,2025_03_29,36.61880091818895,-121.9422482210244,Asilomar,2,3.7750000000000004,4.4,12.5,12.5,"NIGHT_MOSTLY_CLOUDY,MOSTLY_CLEAR","Onshore,Onshore",2
5842041f4e65fad6a7708bb8,2025_03_29,36.56037685095311,-121.9516152313922,Ghost Tree,3,2.775,3.3200000000000003,12.5,12.5,"NIGHT_MOSTLY_CLOUDY,CLEAR","Cross-shore,Cross-shore",2
5842041f4e65fad6a7708bbb,2025_03_29,35.89412279173619,-121.462380148047,Willow Creek,2.5,3.58,4.285,13,13,"NIGHT_CLEAR,CLEAR","Cross-shore,Offshore",2
5842041f4e65fad6a7708bbc,2025_03_29,36.6260658643635,-121.91548,Lovers Point,3,2.35,2.71,12.5,12.5,"NIGHT_MOSTLY_CLOUDY,MOSTLY_CLEAR","Onshore,Onshore",2
5842041f4e65fad6a7708bbd,2025_03_29,38.945,-9.42,Foz de Lizandro,1.5,1.092035,1.3600750000000001,14,14,"CLEAR,CLEAR","Cross-shore,Cross-shore",2
5842041f4e65fad6a7708bbf,2025_03_29,36.80821791915616,-121.79055,Moss Landing,3,3.49,4.145,12.5,12.5,"NIGHT_CLEAR,MIST","Onshore,Offshore",2
5842041f4e65fad6a7708bc0,2025_03_29,38.67869246746279,-9.33685,Carcavelos,2,0.25603,0.568395,14.5,14.5,"CLEAR,CLEAR","Offshore,Offshore",2
5842041f4e65fad6a7708bc1,2025_03_29,38.983,-9.425,Reef,2.5,1.545,1.8450000000000002,14.5,14.5,"CLEAR,CLEAR","Cross-shore,Cross-shore",2
5842041f4e65fad6a7708bc2,2025_03_29,38.988,-9.424,Ribeira D'Ilhas,3.5,1.0699999999999998,1.3399999999999999,15,15,"CLEAR,CLEAR","Offshore,Offshore",2
5842041f4e65fad6a7708bc3,2025_03_29,39.34167968424256,-9.36331,Supertubos,2,0.45999999999999996,0.77,15,15,"CLEAR,CLEAR","Offshore,Offshore",2
5842041f4e65fad6a7708bc4,2025_03_29,39.001,-9.4284,Coxos,2.5,1.2548400000000002,1.50161,15,15,"CLEAR,CLEAR","Offshore,Offshore",2
5842041f4e65fad6a7708bc5,2025_03_29,40.13063921100635,-8.87044,Cabedelo,1.5,1.328025,1.578305,14,14,"CLEAR,CLEAR","Cross-shore,Cross-shore",2
5842041f4e65fad6a7708bc6,2025_03_29,39.37397686060677,-9.33235,Baleal,2.5,0.7,1.01,15,15,"CLEAR,CLEAR","Onshore,Onshore",2
5842041f4e65fad6a7708bc7,2025_03_29,31.80902927937703,-116.8081979700041,Todos Santos / Killers,NA,5.98,7.085,15.5,15.5,"NIGHT_BRIEF_SHOWERS,MOSTLY_CLOUDY","Onshore,Onshore",2
5842041f4e65fad6a7708bc8,2025_03_29,43.68220203786759,-1.44167,Les Culs Nus,2,1.57943,1.857195,13,13,"BRIEF_SHOWERS_POSSIBLE,CLEAR","Cross-shore,Cross-shore",2
5842041f4e65fad6a7708bc9,2025_03_29,31.90016519474307,-116.73117,San Miguel,4,1.59,1.9049999999999998,15.5,15.5,"NIGHT_MIST,FOG","Offshore,Offshore",2
5842041f4e65fad6a7708bca,2025_03_29,43.48469485823068,-1.56023,Biarritz,2,1.37595,1.643075,13,13,"LIGHT_SHOWERS,CLEAR","Cross-shore,Cross-shore",2
5842041f4e65fad6a7708bcb,2025_03_29,39.0132,-9.424,Sao Lourenco,1.5,1.1246550000000002,1.3892799999999998,15,15,"CLEAR,CLEAR","Cross-shore,Cross-shore",2
5842041f4e65fad6a7708bcd,2025_03_29,43.64760422014503,-1.44721,Le Santocha,1,0.793875,0.98657,13,13,"BRIEF_SHOWERS_POSSIBLE,CLEAR","Onshore,Onshore",2
5842041f4e65fad6a7708bce,2025_03_29,43.51401611768647,-1.53382,Anglet,2,1.83,2.1500000000000004,13,13,"LIGHT_SHOWERS,CLEAR","Onshore,Onshore",2
5842041f4e65fad6a7708bcf,2025_03_29,43.479,-1.569,La Cote des Basques,2,1.411335,1.68533,13,13,"LIGHT_SHOWERS,CLEAR","Onshore,Onshore",2
5842041f4e65fad6a7708bd0,2025_03_29,32.3489432986615,-117.0668043482785,Rosarito Beach,2,1.585,1.9,16,16,"NIGHT_FOG,FOG","Onshore,Onshore",2
5842041f4e65fad6a7708bd1,2025_03_29,23.44473573026049,-110.2452466338192,Todos Santos,3,1.22,1.46,20.5,20.5,"NIGHT_CLEAR,CLEAR","Cross-shore,Offshore",2
5842041f4e65fad6a7708bd2,2025_03_29,31.97636522717259,-116.7913888957552,Salsipuedes,4,1.4849999999999999,1.775,15.5,15.5,"NIGHT_MOSTLY_CLOUDY,CLEAR","Offshore,Offshore",2
5842041f4e65fad6a7708bd3,2025_03_29,23.39151658553801,-110.2143952234506,Las Palmas,3,1.345,1.605,20.5,20.5,"NIGHT_CLEAR,CLEAR","Cross-shore,Offshore",2
5842041f4e65fad6a7708bd4,2025_03_29,23.02358192684975,-109.7147,Old Man's,3,0.545,0.845,22,22,"NIGHT_CLEAR,CLEAR","Offshore,Offshore",2
5842041f4e65fad6a7708bd5,2025_03_29,23.32877869857464,-110.17715,Cerritos,2,1.2650000000000001,1.5150000000000001,20.5,20.5,"NIGHT_CLEAR,CLEAR","Cross-shore,Cross-shore",2
