_id,date,lat,lon,name,daily_mean_swell_rating,daily_mean_wave_height_min,daily_mean_wave_height_max,daily_mean_water_temperature_max,daily_mean_water_temperature_min,weather_per_timestamp,wind_per_timestamp,n_samples_per_day
5842041f4e65fad6a77087f9,2025_03_13,37.741668,-122.51038,South Ocean Beach,1,2.52846,3.023835,11,11,"NIGHT_BRIEF_SHOWERS,NIGHT_MOSTLY_CLEAR","Onshore,Onshore",2
5842041f4e65fad6a7708801,2025_03_13,37.49142,-122.50428,Maverick's,NA,2.385,2.85,11.5,11.5,"NIGHT_MOSTLY_CLOUDY,NIGHT_MOSTLY_CLOUDY","Onshore,Cross-shore",2
5842041f4e65fad6a7708804,2025_03_13,44.997,-124.018,Roads End,1,2.6550000000000002,3.17,10,10,"NIGHT_CLEAR,NIGHT_MOSTLY_CLOUDY","Onshore,Onshore",2
5842041f4e65fad6a7708805,2025_03_13,36.95188851423011,-122.02522,Steamer Lane,3,1.707895,2.043875,11,11,"NIGHT_CLEAR,NIGHT_MOSTLY_CLOUDY","Cross-shore,Offshore",2
5842041f4e65fad6a7708806,2025_03_13,36.95918781542251,-122.02489,Cowells,2.5,0.48445499999999997,0.771365,12,12,"NIGHT_CLEAR,NIGHT_MOSTLY_CLOUDY","Onshore,Cross-shore",2
5842041f4e65fad6a7708807,2025_03_13,36.95468082526536,-121.97234,Pleasure Point,2.5,1.162395,1.378415,12,12,"NIGHT_SHOWERS,NIGHT_CLEAR","Cross-shore,Offshore",2
5842041f4e65fad6a770880a,2025_03_13,35.37815414378748,-120.86589,Morro Bay,2.5,0.865795,1.12813,11,11,"NIGHT_MOSTLY_CLOUDY,NIGHT_FOG","Offshore,Offshore",2
5842041f4e65fad6a770880b,2025_03_13,36.95782765000708,-121.96729,Jack's,2.5,0.59839,0.88135,12,12,"NIGHT_SHOWERS,NIGHT_CLEAR","Cross-shore,Offshore",2
5842041f4e65fad6a770880d,2025_03_13,34.29982939936656,-119.3489016603669,Gold Coast Beachbreaks,1,0.395,0.6950000000000001,12,12,"NIGHT_OVERCAST,NIGHT_CLEAR","Cross-shore,Onshore",2
5842041f4e65fad6a7708811,2025_03_13,34.245076,-119.26799,Ventura Harbor,2,0.822945,1.148915,12,12,"NIGHT_CLEAR,NIGHT_CLEAR","Onshore,Onshore",2
5842041f4e65fad6a7708813,2025_03_13,34.051,-118.964,County Line,1.9166666666666665,0.6897150000000001,1.0863800000000001,12,12,"NIGHT_OVERCAST,NIGHT_MOSTLY_CLOUDY","Cross-shore,Cross-shore",2
5842041f4e65fad6a7708814,2025_03_13,34.37256264378892,-119.47797,Rincon,1,0.325,0.635,12,12,"NIGHT_MOSTLY_CLOUDY,NIGHT_CLEAR","Cross-shore,Cross-shore",2
5842041f4e65fad6a7708817,2025_03_13,34.03096101876324,-118.68109,Malibu Third Point,1.5,0.46728000000000003,0.789845,12,12,"NIGHT_RAIN,NIGHT_CLOUDY","Onshore,Offshore",2
5842041f4e65fad6a7708819,2025_03_13,33.984079047970035,-118.47382,Venice Beach,1.5,0.784025,1.09333,13,13,"NIGHT_HEAVY_RAIN,NIGHT_CLOUDY","Onshore,Onshore",2
5842041f4e65fad6a770881e,2025_03_13,34.037508438646746,-118.5834,Topanga Beach,2,0.65032,0.970145,13,13,"NIGHT_RAIN,NIGHT_CLOUDY","Onshore,Cross-shore",2
5842041f4e65fad6a7708820,2025_03_13,33.73954373690184,-118.11414,Seal Beach Jetty,1.5,0.731665,1.0916899999999998,13,13,"NIGHT_OVERCAST,NIGHT_DRIZZLE","Onshore,Onshore",2
5842041f4e65fad6a7708822,2025_03_13,33.72309983348433,-118.08078,Anderson Street,1.5,0.6885,0.9585,13,13,"NIGHT_OVERCAST,NIGHT_DRIZZLE","Onshore,Onshore",2
5842041f4e65fad6a7708827,2025_03_13,33.65574085629463,-118.00397,Huntington Beach Pier Northside,2,0.911055,1.24061,13,13,"NIGHT_OVERCAST,NIGHT_OVERCAST","Cross-shore,Onshore",2
5842041f4e65fad6a7708828,2025_03_13,34.272041739333,-119.29976,C St.,2,0.619275,0.917555,12,12,"NIGHT_OVERCAST,NIGHT_CLEAR","Onshore,Cross-shore",2
5842041f4e65fad6a770882a,2025_03_13,33.61555743705257,-117.93676,Newport Lower Jetties,1.5,0.7524850000000001,1.0897000000000001,13.5,13.5,"NIGHT_OVERCAST,NIGHT_RAIN_AND_FOG","Onshore,Onshore",2
5842041f4e65fad6a770882b,2025_03_13,33.5930302087,-117.88199,The Wedge,1,0.8154950000000001,1.13235,13.5,13.5,"NIGHT_DRIZZLE,NIGHT_LIGHT_RAIN_AND_FOG","Onshore,Onshore",2
5842041f4e65fad6a770882e,2025_03_13,33.475793399792984,-117.72291,Salt Creek,2,0.8773,1.2080950000000001,13,13,"NIGHT_LIGHT_RAIN,NIGHT_LIGHT_RAIN","Cross-shore,Onshore",2
5842041f4e65fad6a7708830,2025_03_13,33.41800974113613,-117.61952,T-Street,1,0.82196,1.17258,14,14,"NIGHT_OVERCAST,NIGHT_LIGHT_RAIN_AND_FOG","Onshore,Cross-shore",2
5842041f4e65fad6a7708832,2025_03_13,33.202391008646,-117.39475,Oceanside Harbor,1.5,1.046995,1.43005,14,14,"NIGHT_DRIZZLE,NIGHT_DRIZZLE","Cross-shore,Onshore",2
5842041f4e65fad6a7708835,2025_03_13,33.19477795952803,-117.38667,Oceanside Pier,1.5,1.1009550000000001,1.4586000000000001,14,14,"NIGHT_DRIZZLE,NIGHT_RAIN","Onshore,Onshore",2
5842041f4e65fad6a7708837,2025_03_13,33.14948100706,-117.35029,Tamarack,1.5,0.62874,0.92769,14,14,"NIGHT_OVERCAST,NIGHT_RAIN","Cross-shore,Offshore",2
5842041f4e65fad6a7708839,2025_03_13,32.865777159358856,-117.25614,Scripps,1.5,0.97272,1.28969,14,14,"NIGHT_CLEAR,NIGHT_OVERCAST","Cross-shore,Onshore",2
5842041f4e65fad6a770883a,2025_03_13,32.813094,-117.27381,Birdrock,2.5,0.9899199999999999,1.24816,14,14,"NIGHT_DRIZZLE,NIGHT_OVERCAST","Cross-shore,Cross-shore",2
5842041f4e65fad6a770883b,2025_03_13,32.88338,-117.25571,Blacks,1.5,1.376645,1.716695,13,13,"NIGHT_CLEAR,NIGHT_OVERCAST","Onshore,Offshore",2
5842041f4e65fad6a770883c,2025_03_13,32.82978974229765,-117.28162,Windansea,1.5,1.3382450000000001,1.727785,14,14,"NIGHT_DRIZZLE,NIGHT_OVERCAST","Cross-shore,Onshore",2
5842041f4e65fad6a770883d,2025_03_13,32.838278,-117.28396,Horseshoe,1.5,1.1715,1.5125,14,14,"NIGHT_DRIZZLE,NIGHT_OVERCAST","Cross-shore,Onshore",2
5842041f4e65fad6a770883f,2025_03_13,32.75034717673179,-117.25337,Ocean Beach,2,1.27466,1.653965,14,14,"NIGHT_BRIEF_SHOWERS,NIGHT_RAIN","Offshore,Cross-shore",2
5842041f4e65fad6a7708840,2025_03_13,32.73693,-117.25718,Sunset Cliffs,2,0.8492500000000001,1.1825,14,14,"NIGHT_MOSTLY_CLOUDY,NIGHT_HEAVY_RAIN","Offshore,Cross-shore",2
5842041f4e65fad6a7708841,2025_03_13,32.796582258728826,-117.25779,Pacific Beach,2,1.073795,1.38206,14,14,"NIGHT_BRIEF_SHOWERS,NIGHT_OVERCAST","Cross-shore,Cross-shore",2
5842041f4e65fad6a7708842,2025_03_13,32.776636,-117.25514,Mission Beach,2.5,0.94154,1.2624,14,14,"NIGHT_BRIEF_SHOWERS,NIGHT_OVERCAST","Cross-shore,Onshore",2
5842041f4e65fad6a7708844,2025_03_13,32.577195519016,-117.13475,Imperial Beach Pier,1.5,1.185,1.395,14,14,"NIGHT_MOSTLY_CLOUDY,NIGHT_RAIN","Cross-shore,Cross-shore",2
5842041f4e65fad6a770884a,2025_03_13,42.88678181061,-70.80843,Seabrook,1.75,0.468545,0.7991649999999999,3,3,"NIGHT_CLEAR,CLEAR","Onshore,Onshore",2
5842041f4e65fad6a770884e,2025_03_13,41.434181432898335,-71.45312,Narragansett,1.25,0.558425,0.9426950000000001,3,3,"NIGHT_CLEAR,MOSTLY_CLEAR","Cross-shore,Cross-shore",2
5842041f4e65fad6a7708850,2025_03_13,40.582703230722,-73.65247,Lincoln Blvd,2.75,0.6421250000000001,1.01492,4,3,"NIGHT_CLEAR,CLEAR","Offshore,Offshore",2
5842041f4e65fad6a7708852,2025_03_13,40.58342841721757,-73.81182,Rockaways,1.75,0.6127199999999999,0.995085,4,3,"NIGHT_MOSTLY_CLOUDY,CLEAR","Cross-shore,Cross-shore",2
5842041f4e65fad6a7708853,2025_03_13,40.330474,-73.9734,Monmouth Beach,1,0.90958,1.20106,4,4,"NIGHT_CLEAR,DRIZZLE","Onshore,Onshore",2
5842041f4e65fad6a7708856,2025_03_13,40.113,-74.028,Manasquan Inlet,1,1.0121799999999999,1.296865,4,4,"NIGHT_CLEAR,OVERCAST","Onshore,Onshore",2
5842041f4e65fad6a7708857,2025_03_13,39.941519877445664,-74.06829,Casino Pier,1,1.04836,1.37107,4,4,"NIGHT_CLEAR,OVERCAST","Onshore,Onshore",2
5842041f4e65fad6a7708858,2025_03_13,39.28223089949212,-74.55766,North End OC,1.5,0.845665,1.154565,6,4,"NIGHT_OVERCAST,OVERCAST","Onshore,Onshore",2
5842041f4e65fad6a770885b,2025_03_13,39.65080599934257,-74.17146,Ship Bottom,1,0.99516,1.287275,6,4,"NIGHT_MOSTLY_CLOUDY,OVERCAST","Onshore,Onshore",2
5842041f4e65fad6a7708863,2025_03_13,36.034151543144,-75.66791,Third Street,2.5,0.5664899999999999,0.900185,9,8,"NIGHT_CLEAR,CLEAR","Offshore,Offshore",2
5842041f4e65fad6a7708867,2025_03_13,35.605833221351425,-75.46303,S-Turns,1.25,0.5599700000000001,0.94577,12,12,"NIGHT_CLEAR,CLEAR","Offshore,Offshore",2
5842041f4e65fad6a770886d,2025_03_13,38.338461,-75.08117,Ocean City Boardwalk,2,0.762355,1.1558899999999999,7,6,"NIGHT_MIST,MIST","Onshore,Cross-shore",2
5842041f4e65fad6a770886f,2025_03_13,29.844757212379562,-81.26136,A St.,2,0.185,0.485,17,17,"NIGHT_CLEAR,CLEAR","Offshore,Offshore",2
5842041f4e65fad6a7708871,2025_03_13,29.069417851135093,-80.90824,New Smyrna Beach,2.75,0.5082599999999999,0.901205,18,18,"NIGHT_CLEAR,CLEAR","Offshore,Offshore",2
5842041f4e65fad6a7708872,2025_03_13,28.367707417566,-80.60171,Cocoa Beach Pier,1,0.072255,0.38517,21,21,"NIGHT_CLEAR,CLEAR","Offshore,Onshore",2
5842041f4e65fad6a7708873,2025_03_13,28.091782738658846,-80.56479,Indialantic,1.75,0.30023500000000003,0.631805,22,22,"NIGHT_CLEAR,CLEAR","Offshore,Onshore",2
5842041f4e65fad6a7708876,2025_03_13,27.25392904143517,-80.19455,Jensen Beach,1.5,0.30577,0.617705,24,23,"NIGHT_CLEAR,CLEAR","Offshore,Offshore",2
5842041f4e65fad6a7708879,2025_03_13,26.76346795333825,-80.03607,Reef Road,1.75,0.25,0.557,23,22,"NIGHT_CLEAR,CLEAR","Offshore,Offshore",2
5842041f4e65fad6a770887c,2025_03_13,26.336499228484,-80.06956100463,Boca Raton Inlet,1,0.076155,0.3163,24,22,"NIGHT_CLEAR,CLEAR","Offshore,Cross-shore",2
5842041f4e65fad6a770887d,2025_03_13,26.31719311695038,-80.07453,Deerfield Beach Pier,1,0.119105,0.29314,24,23,"NIGHT_CLEAR,CLEAR","Offshore,Onshore",2
5842041f4e65fad6a7708881,2025_03_13,30.20276320866628,-85.85626528676136,"Spyglass Dr., Panama City",0.75,0.10220499999999999,0.42257,15.5,15.5,"NIGHT_CLEAR,MOSTLY_CLOUDY","Onshore,Onshore",2
5842041f4e65fad6a7708884,2025_03_13,33.39000832738053,-117.59852,Cottons,1,0.83304,1.1859250000000001,13,13,"NIGHT_OVERCAST,NIGHT_LIGHT_RAIN_AND_FOG","Onshore,Cross-shore",2
5842041f4e65fad6a7708885,2025_03_13,33.359416282661,-117.54168,Trails,1.5,0.91104,1.26144,14,14,"NIGHT_OVERCAST,NIGHT_LIGHT_RAIN","Cross-shore,Offshore",2
5842041f4e65fad6a7708886,2025_03_13,33.38042605929805,-117.58332,Middles,1,0.757835,1.1107200000000002,14,14,"NIGHT_OVERCAST,NIGHT_LIGHT_RAIN_AND_FOG","Onshore,Cross-shore",2
5842041f4e65fad6a7708887,2025_03_13,33.38445596302903,-117.59445,Upper Trestles,2,0.84816,1.1954,13,13,"NIGHT_OVERCAST,NIGHT_LIGHT_RAIN_AND_FOG","Onshore,Cross-shore",2
5842041f4e65fad6a7708889,2025_03_13,28.944414,-95.28883,Surfside,2,0.520145,0.882495,17,17,"NIGHT_MIST,MIST","Onshore,Cross-shore",2
5842041f4e65fad6a770888a,2025_03_13,33.38143999849023,-117.58843,Lower Trestles,2,0.78528,1.155575,13,13,"NIGHT_OVERCAST,NIGHT_LIGHT_RAIN_AND_FOG","Cross-shore,Offshore",2
5842041f4e65fad6a770888b,2025_03_13,33.379622288757,-117.57894,Church,1.5,0.859815,1.248325,14,14,"NIGHT_OVERCAST,NIGHT_LIGHT_RAIN_AND_FOG","Onshore,Cross-shore",2
5842041f4e65fad6a770888d,2025_03_13,21.679,-158.042,Sunset Beach,4,1.9148450000000001,2.29145,26,25,"NIGHT_MOSTLY_CLEAR,NIGHT_CLEAR","Cross-shore,Offshore",2
5842041f4e65fad6a770888e,2025_03_13,21.670550036401,-158.0482,Rocky Point,4,1.77368,2.221935,26,25,"NIGHT_CLEAR,NIGHT_SHOWERS","Cross-shore,Offshore",2
5842041f4e65fad6a770888f,2025_03_13,21.668,-158.05,Chambers,3,1.9499300000000002,2.435775,24,24,"NIGHT_CLEAR,NIGHT_SHOWERS","Cross-shore,Offshore",2
5842041f4e65fad6a7708890,2025_03_13,21.66522,-158.0526,Pipeline,2.5,1.56019,1.9839449999999998,26,25,"NIGHT_CLEAR,NIGHT_SHOWERS","Cross-shore,Offshore",2
5842041f4e65fad6a7708891,2025_03_13,21.665,-158.054,Backdoor,3,1.62549,2.06187,26,25,"NIGHT_CLEAR,NIGHT_SHOWERS","Cross-shore,Offshore",2
5842041f4e65fad6a7708892,2025_03_13,21.662,-158.057,Rockpile,3,1.94488,2.3201150000000004,24,24,"NIGHT_CLEAR,NIGHT_SHOWERS","Cross-shore,Offshore",2
5842041f4e65fad6a7708893,2025_03_13,21.65870453806827,-158.06058,Log Cabins,3,1.4256000000000002,1.7212800000000001,24,24,"NIGHT_CLEAR,NIGHT_SHOWERS","Cross-shore,Offshore",2
5842041f4e65fad6a7708894,2025_03_13,21.66203493640557,-158.05495,Off The Wall,3,1.93308,2.31222,24,24,"NIGHT_CLEAR,NIGHT_SHOWERS","Cross-shore,Offshore",2
5842041f4e65fad6a7708895,2025_03_13,21.643,-158.067,Waimea Bay,NA,1.885,2.255,26,25,"NIGHT_CLEAR,NIGHT_SHOWERS","Cross-shore,Offshore",2
5842041f4e65fad6a7708896,2025_03_13,21.622,-158.087,Hultin's,3.5,2.10304,2.51472,26,25,"NIGHT_CLEAR,NIGHT_CLEAR","Offshore,Offshore",2
5842041f4e65fad6a7708897,2025_03_13,21.623,-158.085,Jocko's,3,1.3455149999999998,1.623555,25,25,"NIGHT_CLEAR,NIGHT_CLEAR","Cross-shore,Cross-shore",2
5842041f4e65fad6a7708898,2025_03_13,21.62,-158.088,Laniakea,3,1.5250599999999999,1.8216,26,25,"NIGHT_CLEAR,NIGHT_CLEAR","Offshore,Offshore",2
5842041f4e65fad6a7708899,2025_03_13,21.625,-158.083,Chun's,3,1.478235,1.764675,25,25,"NIGHT_CLEAR,NIGHT_CLEAR","Offshore,Offshore",2
5842041f4e65fad6a770889c,2025_03_13,21.286357895152136,-157.8515,Ala Moana Beach Park,2,0.61111,0.9310700000000001,24.5,24.5,"NIGHT_CLEAR,NIGHT_CLEAR","Offshore,Offshore",2
5842041f4e65fad6a770889d,2025_03_13,19.606,-155.978,Banyans,2.5,0.3,0.61,26,25,"NIGHT_CLEAR,NIGHT_CLEAR","Offshore,Offshore",2
5842041f4e65fad6a770889e,2025_03_13,20.029,-155.831,Kawaihae,2,0.4444,0.6943900000000001,25,25,"NIGHT_CLEAR,NIGHT_CLEAR","Offshore,Offshore",2
5842041f4e65fad6a770889f,2025_03_13,33.07541383424675,-117.3105,Grandview,1,0.87665,1.1770749999999999,14,14,"NIGHT_OVERCAST,NIGHT_LIGHT_RAIN","Onshore,Onshore",2
5842041f4e65fad6a77088a0,2025_03_13,33.065267421296596,-117.30577,Beacons,1,0.893505,1.214295,14,14,"NIGHT_OVERCAST,NIGHT_LIGHT_RAIN","Onshore,Onshore",2
5842041f4e65fad6a77088a2,2025_03_13,21.252,-157.805,Diamond Head,3,0.6863049999999999,1.00631,26,25,"NIGHT_MOSTLY_CLOUDY,NIGHT_BRIEF_SHOWERS","Cross-shore,Cross-shore",2
5842041f4e65fad6a77088a3,2025_03_13,33.04694255008896,-117.29966,Moonlight State Beach,1.5,0.89385,1.19685,14,14,"NIGHT_DRIZZLE,NIGHT_LIGHT_RAIN","Onshore,Onshore",2
5842041f4e65fad6a77088a5,2025_03_13,33.08685865930869,-117.31532,Ponto,1.5,1.255,1.5550000000000002,14,14,"NIGHT_OVERCAST,NIGHT_LIGHT_RAIN","Onshore,Onshore",2
5842041f4e65fad6a77088a6,2025_03_13,33.130343587871906,-117.33668,Terra Mar Point,1.5,0.64901,0.95013,14,14,"NIGHT_OVERCAST,NIGHT_LIGHT_RAIN","Cross-shore,Offshore",2
5842041f4e65fad6a77088af,2025_03_13,32.95916304183685,-117.26963,Del Mar,1.5,1.03118,1.36028,14,14,"NIGHT_OVERCAST,NIGHT_OVERCAST","Cross-shore,Onshore",2
5842041f4e65fad6a77088b0,2025_03_13,32.97527261243354,-117.2721061331305,Del Mar Rivermouth,1,1.0146000000000002,1.34034,14,14,"NIGHT_CLOUDY,NIGHT_OVERCAST","Cross-shore,Onshore",2
5842041f4e65fad6a77088b1,2025_03_13,33.01352178146273,-117.28219,Cardiff Reef,1.5,1.21406,1.56142,14,14,"NIGHT_OVERCAST,NIGHT_DRIZZLE","Cross-shore,Offshore",2
5842041f4e65fad6a77088b3,2025_03_13,33.00211185876003,-117.2811,Seaside Reef,1.5,1.140245,1.481485,14,14,"NIGHT_OVERCAST,NIGHT_OVERCAST","Cross-shore,Offshore",2
5842041f4e65fad6a77088b4,2025_03_13,33.0341859796287,-117.29552,Swami's,1.5,1.12963,1.43579,14,14,"NIGHT_OVERCAST,NIGHT_DRIZZLE","Onshore,Onshore",2
5842041f4e65fad6a77088b7,2025_03_13,33.04569760260221,-117.2994,D Street,1.5,0.92677,1.228095,14,14,"NIGHT_DRIZZLE,NIGHT_LIGHT_RAIN","Onshore,Onshore",2
5842041f4e65fad6a77088b8,2025_03_13,33.02090944350196,-117.28535,San Elijo State Beach,1,0.658755,0.967335,14,14,"NIGHT_OVERCAST,NIGHT_DRIZZLE","Cross-shore,Offshore",2
5842041f4e65fad6a77088c2,2025_03_13,32.80662846492798,-117.26888,PB Point,2,0.92364,1.25121,14,14,"NIGHT_DRIZZLE,NIGHT_OVERCAST","Onshore,Cross-shore",2
5842041f4e65fad6a77088c4,2025_03_13,32.8060476681448,-117.26479,Old Man's at Tourmaline,2,0.565735,0.8483499999999999,14,14,"NIGHT_DRIZZLE,NIGHT_OVERCAST","Onshore,Cross-shore",2
5842041f4e65fad6a77088cb,2025_03_13,32.557056711256,-117.1327445020322,Tijuana Slough,0.5,0.56,0.865,14,14,"NIGHT_MOSTLY_CLOUDY,NIGHT_DRIZZLE","Cross-shore,Cross-shore",2
5842041f4e65fad6a77088cc,2025_03_13,32.863,-117.257,La Jolla Shores,2,0.903375,1.2373500000000002,14,14,"NIGHT_CLEAR,NIGHT_OVERCAST","Cross-shore,Onshore",2
5842041f4e65fad6a77088ce,2025_03_13,32.67443657790586,-117.17421,Coronado Beach,1,0.6950000000000001,1,14,14,"NIGHT_MOSTLY_CLOUDY,NIGHT_HEAVY_RAIN","Onshore,Onshore",2
5842041f4e65fad6a77088cf,2025_03_13,33.40484417640326,-117.60749,San Clemente State Beach,1,0.97983,1.3293599999999999,14,14,"NIGHT_OVERCAST,NIGHT_LIGHT_RAIN_AND_FOG","Onshore,Cross-shore",2
5842041f4e65fad6a77088d5,2025_03_13,33.4663042002114,-117.71684,Strands,1.5,0.79288,1.15434,13,13,"NIGHT_LIGHT_RAIN,NIGHT_LIGHT_RAIN","Cross-shore,Cross-shore",2
5842041f4e65fad6a77088d7,2025_03_13,33.4609858001748,-117.68535,Doheny State Beach,1.5,0.31766,0.671725,14,14,"NIGHT_OVERCAST,NIGHT_LIGHT_RAIN","Onshore,Cross-shore",2
5842041f4e65fad6a77088dc,2025_03_13,33.50894790083017,-117.75243,Aliso Creek,1,0.674505,1.02617,14,14,"NIGHT_LIGHT_RAIN,NIGHT_DRIZZLE","Onshore,Onshore",2
5842041f4e65fad6a77088dd,2025_03_13,33.5326591767067,-117.77764,Brooks Street,1,0.53,0.835,14,14,"NIGHT_OVERCAST,NIGHT_LIGHT_RAIN","Onshore,Onshore",2
5842041f4e65fad6a77088de,2025_03_13,33.53561225884637,-117.7799,Thalia Street,1,0.475,0.78,14,14,"NIGHT_OVERCAST,NIGHT_LIGHT_RAIN","Onshore,Onshore",2
5842041f4e65fad6a77088e3,2025_03_13,33.54268310353641,-117.7916,Rockpile,1,0.53,0.835,14,14,"NIGHT_OVERCAST,NIGHT_LIGHT_RAIN","Onshore,Onshore",2
5842041f4e65fad6a77088e4,2025_03_13,33.7368459504689,-118.10342,"Seal Beach Pier, Southside",1.5,0.42591,0.731545,13,13,"NIGHT_OVERCAST,NIGHT_OVERCAST","Onshore,Onshore",2
5842041f4e65fad6a77088e5,2025_03_13,33.73933701820233,-118.117,Ray Bay,1.5,0.655,0.965,13,13,"NIGHT_OVERCAST,NIGHT_DRIZZLE","Onshore,Onshore",2
5842041f4e65fad6a77088e7,2025_03_13,33.728733,-118.08982,Surfside,0.5,0.06,0.365,13,13,"NIGHT_OVERCAST,NIGHT_DRIZZLE","Onshore,Onshore",2
5842041f4e65fad6a77088e8,2025_03_13,33.68760321488161,-118.04236,Bolsa Chica State Beach,2.5,0.75633,1.0535999999999999,13,13,"NIGHT_OVERCAST,NIGHT_DRIZZLE","Offshore,Offshore",2
5842041f4e65fad6a77088ea,2025_03_13,33.66704400178788,-118.0192,North HB Streets,1,0.926245,1.2472699999999999,13,13,"NIGHT_OVERCAST,NIGHT_OVERCAST","Cross-shore,Onshore",2
5842041f4e65fad6a77088ed,2025_03_13,33.65475101379567,-118.00291,Huntington Beach Pier Southside,1,0.8351,1.193,13,13,"NIGHT_OVERCAST,NIGHT_OVERCAST","Cross-shore,Onshore",2
5842041f4e65fad6a77088ee,2025_03_13,33.62778647706099,-117.95939,River Jetties,0.5,0.8811100000000001,1.22042,13,13,"NIGHT_OVERCAST,NIGHT_RAIN_AND_FOG","Cross-shore,Cross-shore",2
5842041f4e65fad6a77088f2,2025_03_13,33.605165797643664,-117.925,Newport Point,1,0.7587,1.0959,13.5,13.5,"NIGHT_OVERCAST,NIGHT_LIGHT_RAIN_AND_FOG","Onshore,Onshore",2
5842041f4e65fad6a77088f3,2025_03_13,33.58982984726977,-117.87713,Corona del Mar,1.5,0.69613,1.01822,13.5,13.5,"NIGHT_OVERCAST,NIGHT_LIGHT_RAIN_AND_FOG","Onshore,Onshore",2
5842041f4e65fad6a77088f7,2025_03_13,34.00750300824362,-118.49718,Santa Monica Pier,1,0.49179000000000006,0.80613,13,13,"NIGHT_HEAVY_RAIN,NIGHT_CLOUDY","Onshore,Onshore",2
5842041f4e65fad6a77088ff,2025_03_13,33.94070283102945,-118.44321,Dockweiler Beach,1,0.86866,1.17706,14,14,"NIGHT_HEAVY_RAIN,NIGHT_OVERCAST","Onshore,Onshore",2
5842041f4e65fad6a7708900,2025_03_13,33.9231846937237,-118.4341465777908,Shitpipe,1,0.77614,1.08968,14,14,"NIGHT_HEAVY_RAIN,NIGHT_OVERCAST","Onshore,Onshore",2
5842041f4e65fad6a7708902,2025_03_13,33.9108528052242,-118.4279133138721,Hammerland,1,0.76708,1.0769600000000001,13,13,"NIGHT_HEAVY_RAIN,NIGHT_OVERCAST","Onshore,Onshore",2
5842041f4e65fad6a7708904,2025_03_13,33.87201368173932,-118.40752,Hermosa Beach,1,0.76715,1.0717050000000001,13,13,"NIGHT_HEAVY_RAIN,NIGHT_OVERCAST","Cross-shore,Onshore",2
5842041f4e65fad6a7708906,2025_03_13,33.90129336911256,-118.42184,El Porto,1.5,0.776215,1.089785,13,13,"NIGHT_HEAVY_RAIN,NIGHT_OVERCAST","Cross-shore,Onshore",2
5842041f4e65fad6a7708907,2025_03_13,33.87963506431794,-118.41102,Manhattan Beach Pier,1.5,0.7169749999999999,1.048745,13,13,"NIGHT_HEAVY_RAIN,NIGHT_OVERCAST","Cross-shore,Onshore",2
5842041f4e65fad6a7708914,2025_03_13,34.038053387863464,-118.5532,Sunset Point,1.5,0.51701,0.84747,13,13,"NIGHT_RAIN,NIGHT_CLOUDY","Onshore,Cross-shore",2
5842041f4e65fad6a7708920,2025_03_13,33.80282,-118.39989,Haggerty's,1.5,0.39396,0.6432,13,13,"NIGHT_HEAVY_RAIN,NIGHT_CLOUDY","Offshore,Onshore",2
5842041f4e65fad6a7708921,2025_03_13,33.85044519861206,-118.40048,Redondo Breakwater,1,0.638215,0.9492,13,13,"NIGHT_HEAVY_RAIN,NIGHT_OVERCAST","Cross-shore,Onshore",2
5842041f4e65fad6a7708927,2025_03_13,33.70877301002487,-118.2840112858389,Cabrillo Beach,1.5,0.675,0.98,13,13,"NIGHT_LIGHT_RAIN,NIGHT_OVERCAST","Offshore,Onshore",2
5842041f4e65fad6a770892c,2025_03_13,33.77209986806257,-118.4268428476672,Lunada Bay,0.5,0.675,0.985,13,13,"NIGHT_HEAVY_RAIN,NIGHT_CLOUDY","Onshore,Onshore",2
5842041f4e65fad6a770892d,2025_03_13,33.79294656286144,-118.40703,PV Cove,1,0.49245,0.804,13,13,"NIGHT_HEAVY_RAIN,NIGHT_CLOUDY","Offshore,Onshore",2
5842041f4e65fad6a7708930,2025_03_13,34.03944902292561,-118.57539,Chart House,1,0.43706,0.7568600000000001,13,13,"NIGHT_RAIN,NIGHT_CLOUDY","Onshore,Cross-shore",2
5842041f4e65fad6a7708936,2025_03_13,34.0016731994772,-118.80456,Point Dume,1.4166666666666665,0.46516,0.790695,13,13,"NIGHT_LIGHT_RAIN,NIGHT_MOSTLY_CLOUDY","Onshore,Offshore",2
5842041f4e65fad6a7708937,2025_03_13,34.02587527588963,-118.7554939066114,Latigo Point,2,0.58,0.89,12,12,"NIGHT_RAIN,NIGHT_MOSTLY_CLOUDY","Onshore,Offshore",2
5842041f4e65fad6a770893f,2025_03_13,34.043762,-118.93294,Leo Carrillo,1.9166666666666665,0.7384,1.1296,12,12,"NIGHT_DRIZZLE,NIGHT_CLEAR","Cross-shore,Offshore",2
5842041f4e65fad6a7708941,2025_03_13,36.69388179265737,-121.81289,Marina State Beach,2,1.79775,2.159585,12,12,"NIGHT_MOSTLY_CLEAR,NIGHT_CLEAR","Onshore,Onshore",2
5842041f4e65fad6a7708944,2025_03_13,34.34145077331085,-119.416999352654,Stanley's,1,0.26,0.565,12,12,"NIGHT_LIGHT_RAIN,NIGHT_MOSTLY_CLEAR","Onshore,Onshore",2
5842041f4e65fad6a7708945,2025_03_13,34.35113017313915,-119.426921498899,Oil Piers,1.5,0.26,0.565,12,12,"NIGHT_LIGHT_RAIN,NIGHT_MOSTLY_CLEAR","Cross-shore,Cross-shore",2
5842041f4e65fad6a770894c,2025_03_13,34.17876333306018,-119.23995,Oxnard,1,0.705,1.005,12,12,"NIGHT_OVERCAST,NIGHT_CLEAR","Cross-shore,Onshore",2
5842041f4e65fad6a7708957,2025_03_13,34.31720331100517,-119.3882324751725,Pitas Point,1,0.37,0.68,12,12,"NIGHT_OVERCAST,NIGHT_MOSTLY_CLEAR","Cross-shore,Cross-shore",2
5842041f4e65fad6a7708959,2025_03_13,34.27851754384724,-119.3162,Emma Wood,1.5,0.498,0.8017799999999999,12,12,"NIGHT_OVERCAST,NIGHT_MOSTLY_CLEAR","Onshore,Cross-shore",2
5842041f4e65fad6a770895a,2025_03_13,34.35513640390276,-119.4400589884255,Mussel Shoals (aka Little Rincon),2,0.29,0.6000000000000001,12,12,"NIGHT_LIGHT_SHOWERS_POSSIBLE,NIGHT_CLEAR","Cross-shore,Cross-shore",2
5842041f4e65fad6a770895e,2025_03_13,34.28991757054902,-119.3366646794652,Summer Beach,2,0.39342,0.6922200000000001,12,12,"NIGHT_OVERCAST,NIGHT_MOSTLY_CLEAR","Onshore,Onshore",2
5842041f4e65fad6a770895f,2025_03_13,34.30897456105926,-119.3582501170116,Solimar,1,0.395,0.6950000000000001,12,12,"NIGHT_OVERCAST,NIGHT_MOSTLY_CLEAR","Cross-shore,Cross-shore",2
5842041f4e65fad6a7708960,2025_03_13,34.39836265281686,-119.70213,Leadbetter Point,1,0.02,0.31000000000000005,12,12,"NIGHT_MOSTLY_CLOUDY,NIGHT_CLEAR","Offshore,Offshore",2
5842041f4e65fad6a7708961,2025_03_13,34.46052293893899,-120.07328,Refugio,2,0.275,0.585,12,12,"NIGHT_MOSTLY_CLOUDY,NIGHT_LIGHT_SHOWERS_POSSIBLE","Offshore,Offshore",2
5842041f4e65fad6a7708962,2025_03_13,34.40754276777778,-119.87639,Devereux,2,0.28,0.585,12,12,"NIGHT_OVERCAST,NIGHT_MOSTLY_CLOUDY","Offshore,Offshore",2
5842041f4e65fad6a7708963,2025_03_13,34.27479983305182,-119.3133222656776,Ventura Overhead,1.5,0.498,0.8017799999999999,12,12,"NIGHT_OVERCAST,NIGHT_CLEAR","Onshore,Onshore",2
5842041f4e65fad6a7708964,2025_03_13,34.41023236011655,-119.88261,Sands,1.5,0.255,0.56,12,12,"NIGHT_OVERCAST,NIGHT_MOSTLY_CLOUDY","Offshore,Cross-shore",2
5842041f4e65fad6a7708966,2025_03_13,34.40450193869233,-119.68752,Sandspit,1,0.02,0.31000000000000005,12,12,"NIGHT_CLEAR,NIGHT_CLEAR","Offshore,Offshore",2
5842041f4e65fad6a7708967,2025_03_13,34.41549098334453,-119.6375149840203,Hammond's,2,0.26,0.5700000000000001,12,12,"NIGHT_CLEAR,NIGHT_CLEAR","Offshore,Offshore",2
5842041f4e65fad6a7708968,2025_03_13,34.45759322742309,-120.02203,El Capitan,2,0.28,0.585,12,12,"NIGHT_MOSTLY_CLOUDY,NIGHT_LIGHT_SHOWERS_POSSIBLE","Offshore,Offshore",2
5842041f4e65fad6a770896c,2025_03_13,34.405117655616,-119.84317,Campus Point,2,0.255,0.56,12,12,"NIGHT_MOSTLY_CLOUDY,NIGHT_MOSTLY_CLOUDY","Offshore,Offshore",2
5842041f4e65fad6a770896e,2025_03_13,34.38935162233354,-119.51955,Carpinteria State Beach,1.5,0.275,0.585,12,12,"NIGHT_CLEAR,NIGHT_CLEAR","Onshore,Offshore",2
5842041f4e65fad6a770896f,2025_03_13,37.48296565175612,-122.45493,Half Moon Bay,2,1.56046,1.86263,11.5,11.5,"NIGHT_MOSTLY_CLOUDY,NIGHT_MOSTLY_CLOUDY","Onshore,Onshore",2
5842041f4e65fad6a7708970,2025_03_13,37.499,-122.471,Princeton Jetty,2,1.28986,1.53791,11.5,11.5,"NIGHT_MOSTLY_CLOUDY,NIGHT_MOSTLY_CLOUDY","Onshore,Cross-shore",2
5842041f4e65fad6a7708972,2025_03_13,37.35699547365155,-122.4069534707252,Tunitas Creek,1,2.56,3.06,12,12,"NIGHT_MOSTLY_CLOUDY,NIGHT_MOSTLY_CLOUDY","Onshore,Onshore",2
5842041f4e65fad6a7708974,2025_03_13,37.54735589428842,-122.51611,Montara,1.5,1.98,2.365,11.5,11.5,"NIGHT_MOSTLY_CLOUDY,NIGHT_MOSTLY_CLOUDY","Cross-shore,Onshore",2
5842041f4e65fad6a7708975,2025_03_13,34.3869373724559,-119.5142334209018,Tarpits,1.5,0.29,0.6000000000000001,12,12,"NIGHT_MOSTLY_CLOUDY,NIGHT_CLEAR","Cross-shore,Offshore",2
5842041f4e65fad6a7708976,2025_03_13,37.59881852720143,-122.50463,Linda Mar,2.5,0.866025,1.1458849999999998,11.5,11.5,"NIGHT_MOSTLY_CLOUDY,NIGHT_MOSTLY_CLOUDY","Onshore,Onshore",2
5842041f4e65fad6a7708978,2025_03_13,37.59883098461164,-122.5143843582282,Pedro Point,3,2.381895,2.846655,11.5,11.5,"NIGHT_MOSTLY_CLOUDY,NIGHT_MOSTLY_CLOUDY","Cross-shore,Onshore",2
5842041f4e65fad6a7708979,2025_03_13,37.61081996647663,-122.49733,Rockaway,2.5,2.483,2.9705000000000004,11.5,11.5,"NIGHT_MOSTLY_CLOUDY,NIGHT_MOSTLY_CLOUDY","Cross-shore,Cross-shore",2
5842041f4e65fad6a770897a,2025_03_13,37.809987384424446,-122.47514,Fort Point,3,1.29,1.54,11.5,11.5,"NIGHT_CLEAR,NIGHT_CLEAR","Cross-shore,Cross-shore",2
5842041f4e65fad6a770897c,2025_03_13,37.63422542967464,-122.4951,Sharp Park,2.5,2.518775,3.010875,11.5,11.5,"NIGHT_CLEAR,NIGHT_BRIEF_SHOWERS","Cross-shore,Cross-shore",2
5842041f4e65fad6a770897d,2025_03_13,37.27313605072472,-122.4127387912554,Pescadero,1,2.425,2.9,12,12,"NIGHT_MOSTLY_CLOUDY,NIGHT_MOSTLY_CLOUDY","Cross-shore,Onshore",2
5842041f4e65fad6a770897e,2025_03_13,37.18140279972666,-122.3926685899327,Pigeon Point,2,2.535,3.0250000000000004,12,12,"NIGHT_MOSTLY_CLOUDY,NIGHT_MOSTLY_CLOUDY","Onshore,Offshore",2
5842041f4e65fad6a770897f,2025_03_13,37.11578956919415,-122.314699271291,Ano Nuevo,2.5,1.9300000000000002,2.31,11.5,11.5,"NIGHT_MOSTLY_CLOUDY,NIGHT_MOSTLY_CLOUDY","Onshore,Offshore",2
5842041f4e65fad6a7708980,2025_03_13,37.09520872681598,-122.2805474707768,Waddell Creek,3,1.96,2.3449999999999998,11.5,11.5,"NIGHT_BRIEF_SHOWERS,NIGHT_CLEAR","Onshore,Cross-shore",2
5842041f4e65fad6a7708981,2025_03_13,36.96512852130351,-122.1252825495626,Four Mile,3,2.065,2.47,11.5,11.5,"NIGHT_MOSTLY_CLOUDY,NIGHT_SHOWERS","Cross-shore,Offshore",2
5842041f4e65fad6a7708982,2025_03_13,37.04122807048655,-122.23337,Scott Creek,3,2.075,2.48,11.5,11.5,"NIGHT_BRIEF_SHOWERS,NIGHT_CLEAR","Onshore,Offshore",2
5842041f4e65fad6a7708983,2025_03_13,37.02350229387179,-122.21908,Davenport,3.5,2.045,2.4450000000000003,11.5,11.5,"NIGHT_MOSTLY_CLOUDY,NIGHT_MOSTLY_CLEAR","Onshore,Offshore",2
5842041f4e65fad6a7708986,2025_03_13,36.94905295955728,-122.06118,Natural Bridges,2,2.16999,2.59578,12,12,"NIGHT_MOSTLY_CLOUDY,NIGHT_MOSTLY_CLOUDY","Onshore,Cross-shore",2
5842041f4e65fad6a7708987,2025_03_13,36.95154854910425,-122.04207,Mitchell's Cove,3,1.622905,1.840675,12,12,"NIGHT_CLEAR,NIGHT_MOSTLY_CLOUDY","Cross-shore,Cross-shore",2
5842041f4e65fad6a770898a,2025_03_13,36.9572312370203,-121.98177,26th Ave,3,1.416655,1.69225,12,12,"NIGHT_BRIEF_SHOWERS_POSSIBLE,NIGHT_MOSTLY_CLOUDY","Offshore,Onshore",2
5842041f4e65fad6a770898e,2025_03_13,36.91899972819882,-121.85536,Manresa,1.5,1.815,2.17,12,12,"NIGHT_CLEAR,NIGHT_MOSTLY_CLEAR","Onshore,Onshore",2
5842041f4e65fad6a7708990,2025_03_13,34.45747731928454,-120.34242,The Ranch,3,0.6950000000000001,1.005,12,12,"NIGHT_MOSTLY_CLOUDY,NIGHT_CLEAR","Onshore,Cross-shore",2
5842041f4e65fad6a7708991,2025_03_13,34.50875036590315,-120.50348,Jalama,2,0.8300000000000001,1.13,12,12,"NIGHT_MOSTLY_CLOUDY,NIGHT_MOSTLY_CLOUDY","Offshore,Onshore",2
5842041f4e65fad6a7708996,2025_03_13,34.68700870220497,-120.6111611019887,Surf Beach,2.5,1.86,2.23,12.5,12.5,"NIGHT_MOSTLY_CLOUDY,NIGHT_MOSTLY_CLOUDY","Offshore,Onshore",2
5842041f4e65fad6a770899c,2025_03_13,35.5730538161116,-121.1143362345574,Moonstone,2.5,1.705,2.0549999999999997,12.5,12.5,"NIGHT_HEAVY_SHOWERS,NIGHT_SHOWERS","Onshore,Onshore",2
5842041f4e65fad6a770899d,2025_03_13,35.61533716776573,-121.1502053073914,Pico Creek,3,1.445,1.7149999999999999,12.5,12.5,"NIGHT_HEAVY_SHOWERS,NIGHT_BRIEF_SHOWERS_POSSIBLE","Offshore,Offshore",2
5842041f4e65fad6a770899e,2025_03_13,35.56829031927379,-121.11207,Santa Rosa Creek,2.5,1.705,2.0549999999999997,12.5,12.5,"NIGHT_BRIEF_SHOWERS,NIGHT_BRIEF_SHOWERS","Onshore,Cross-shore",2
5842041f4e65fad6a77089a2,2025_03_13,35.44820114936284,-120.90715,"Cayucos Pier, Southside",2.5,0.8300000000000001,1.085,12.5,12.5,"NIGHT_MOSTLY_CLOUDY,NIGHT_FOG","Onshore,Onshore",2
5842041f4e65fad6a77089a4,2025_03_13,35.30143372628852,-120.877819239902,Cable Landing,2.5,2.33,2.785,13,13,"NIGHT_CLEAR,NIGHT_MOSTLY_CLEAR","Cross-shore,Onshore",2
5842041f4e65fad6a77089a9,2025_03_13,35.61269103500222,-121.14807,San Simeon,2.5,0.959,1.1445,12.5,12.5,"NIGHT_HEAVY_SHOWERS,NIGHT_SHOWERS","Onshore,Cross-shore",2
5842041f4e65fad6a77089ab,2025_03_13,35.1775325966252,-120.73411,Avila Beach,2,0.36,0.665,12.5,12.5,"NIGHT_MOSTLY_CLOUDY,NIGHT_MOSTLY_CLOUDY","Onshore,Onshore",2
5842041f4e65fad6a77089ac,2025_03_13,35.13877877884115,-120.64535,Pismo Beach Pier,3,0.9861500000000001,1.2148949999999998,11,11,"NIGHT_MOSTLY_CLOUDY,NIGHT_FOG","Offshore,Offshore",2
5842041f4e65fad6a77089ad,2025_03_13,46.8907710233147,-124.12964,Westport/Olympic Peninsula,1,2.135,2.5549999999999997,9,9,"NIGHT_OVERCAST,NIGHT_OVERCAST","Cross-shore,Onshore",2
5842041f4e65fad6a77089ae,2025_03_13,46.35185177248545,-124.06747,Long Beach Peninsula,1,3.19,3.8150000000000004,10,10,"NIGHT_CLOUDY,NIGHT_MOSTLY_CLOUDY","Onshore,Onshore",2
5842041f4e65fad6a77089af,2025_03_13,47.90649175554033,-124.63709,La Push,2,2.4299999999999997,2.9050000000000002,9,9,"NIGHT_CLEAR,NIGHT_CLOUDY","Cross-shore,Onshore",2
5842041f4e65fad6a77089b0,2025_03_13,42.04368239985442,-124.26828,Brookings Jetty,2.5,1.847225,2.21181,11,11,"NIGHT_FOG,NIGHT_MOSTLY_CLOUDY","Cross-shore,Cross-shore",2
5842041f4e65fad6a77089b1,2025_03_13,42.74071837900346,-124.4983727491047,Port Orford,3,1.99,2.375,10,10,"NIGHT_MOSTLY_CLOUDY,NIGHT_MOSTLY_CLOUDY","Offshore,Offshore",2
5842041f4e65fad6a77089b2,2025_03_13,44.01532689312291,-124.13865,Florence South Jetty,1.5,3.105,3.71,10,10,"NIGHT_BRIEF_SHOWERS,NIGHT_BRIEF_SHOWERS","Onshore,Onshore",2
5842041f4e65fad6a77089b3,2025_03_13,42.41812540774362,-124.42945,Gold Beach South Jetty,2.5,2.9699999999999998,3.5549999999999997,10.5,10.5,"NIGHT_CLEAR,NIGHT_MOSTLY_CLOUDY","Offshore,Offshore",2
5842041f4e65fad6a77089b4,2025_03_13,44.95857310226525,-124.0219,Lincoln City,1,3.085,3.69,10,10,"NIGHT_CLEAR,NIGHT_BRIEF_SHOWERS","Onshore,Onshore",2
5842041f4e65fad6a77089b5,2025_03_13,44.63792761362982,-124.0657,Newport,1,3.4050000000000002,4.07,10,10,"NIGHT_CLOUDY,NIGHT_BRIEF_SHOWERS","Onshore,Onshore",2
5842041f4e65fad6a77089b6,2025_03_13,45.61468496266301,-123.94643,Rockaway Beach,1,3.125,3.74,10,10,"NIGHT_CLOUDY,NIGHT_CLEAR","Onshore,Onshore",2
5842041f4e65fad6a77089b7,2025_03_13,45.20252914186085,-123.96975,Pacific City,1.5,2.6500000000000004,3.165,10,10,"NIGHT_CLOUDY,NIGHT_SHOWERS","Cross-shore,Onshore",2
5842041f4e65fad6a77089b8,2025_03_13,45.88179930310263,-123.96681,Cannon Beach,1.5,2.99,3.575,10,10,"NIGHT_OVERCAST,NIGHT_MOSTLY_CLOUDY","Cross-shore,Onshore",2
5842041f4e65fad6a77089ba,2025_03_13,40.02528754746774,-124.06372,Shelter Cove,3,0.9830300000000001,1.1727400000000001,11,11,"NIGHT_CLEAR,NIGHT_CLEAR","Cross-shore,Offshore",2
5842041f4e65fad6a77089bb,2025_03_13,40.76816197136951,-124.24248,Humboldt Harbor Entrance,3.5,3.175,3.8,11,11,"NIGHT_HEAVY_SHOWERS,NIGHT_CLEAR","Cross-shore,Offshore",2
5842041f4e65fad6a77089bc,2025_03_13,40.76684246920174,-124.23107,North Jetty,3,4.09,4.890000000000001,11,11,"NIGHT_BRIEF_SHOWERS,NIGHT_CLEAR","Offshore,Offshore",2
5842041f4e65fad6a77089be,2025_03_13,41.13016238153297,-124.16466,Sue-meg,2.5,3.21,3.84,11,11,"NIGHT_MOSTLY_CLOUDY,NIGHT_MOSTLY_CLOUDY","Onshore,Onshore",2
5842041f4e65fad6a77089bf,2025_03_13,37.8289474958188,-122.53768,Fort Cronkite/Rodeo Beach,2,1.91,2.285,11.5,11.5,"NIGHT_MOSTLY_CLOUDY,NIGHT_CLEAR","Onshore,Cross-shore",2
5842041f4e65fad6a77089c0,2025_03_13,41.74415759876137,-124.17717,South Beach CA,3,1.55,1.855,11,11,"NIGHT_FOG,NIGHT_MOSTLY_CLOUDY","Cross-shore,Offshore",2
5842041f4e65fad6a77089c1,2025_03_13,37.89801283969752,-122.64519,Stinson Beach,2.5,0.9550000000000001,1.2000000000000002,11,11,"NIGHT_BRIEF_SHOWERS,NIGHT_FOG","Onshore,Cross-shore",2
5842041f4e65fad6a77089c2,2025_03_13,37.90514516176495,-122.68151,Bolinas,2.5,0.8809,1.128345,11,11,"NIGHT_MOSTLY_CLEAR,NIGHT_MOSTLY_CLEAR","Cross-shore,Offshore",2
5842041f4e65fad6a77089c3,2025_03_13,38.04892513158693,-122.98925,Point Reyes (north),1,3.24,3.77,11,11,"NIGHT_MOSTLY_CLOUDY,NIGHT_CLEAR","Cross-shore,Onshore",2
5842041f4e65fad6a77089c6,2025_03_13,38.31088736605785,-123.0496777333731,Doran Beach,2.5,0.655,0.9550000000000001,11,11,"NIGHT_MOSTLY_CLOUDY,NIGHT_CLEAR","Cross-shore,Offshore",2
5842041f4e65fad6a77089c7,2025_03_13,38.45077228660809,-123.13008,Russian Rivermouth,2.5,2.2,2.63,11,11,"NIGHT_FOG,NIGHT_CLEAR","Onshore,Cross-shore",2
5842041f4e65fad6a77089c8,2025_03_13,38.35329968518107,-123.06906,Salmon Creek,2,2.405,2.87,11,11,"NIGHT_MOSTLY_CLOUDY,NIGHT_CLEAR","Onshore,Onshore",2
5842041f4e65fad6a77089c9,2025_03_13,38.6845180197959,-123.4322714291198,Black Point Beach,3,1.87,2.235,11,11,"NIGHT_MOSTLY_CLOUDY,NIGHT_CLEAR","Cross-shore,Cross-shore",2
5842041f4e65fad6a77089ca,2025_03_13,43.251076,-70.59144,Ogunquit,1.25,0.638165,0.946,3,3,"NIGHT_CLEAR,CLEAR","Onshore,Onshore",2
5842041f4e65fad6a77089cb,2025_03_13,41.362631366305415,-71.48007,Point Judith,1.5,0.64859,1.04799,3,3,"NIGHT_MOSTLY_CLOUDY,CLEAR","Onshore,Onshore",2
5842041f4e65fad6a77089cd,2025_03_13,41.422678090954726,-71.45413,Monahan's - Narragansett,1,0.37759,0.6966749999999999,5,5,"NIGHT_CLEAR,CLEAR","Onshore,Onshore",2
5842041f4e65fad6a77089ce,2025_03_13,41.469,-71.293,Ruggles - Newport,3,0.67032,1.11244,5,5,"NIGHT_CLEAR,MOSTLY_CLEAR","Cross-shore,Cross-shore",2
5842041f4e65fad6a77089cf,2025_03_13,43.175394,-70.606351,Short Sands Beach,2,0.68971,1.046255,3,3,"NIGHT_CLEAR,CLEAR","Onshore,Onshore",2
5842041f4e65fad6a77089d0,2025_03_13,41.487408,-71.29017,First Beach,2,0.54201,0.91581,5,5,"NIGHT_CLEAR,CLEAR","Cross-shore,Cross-shore",2
5842041f4e65fad6a77089d1,2025_03_13,42.27916830233153,-70.86498,Nantasket Beach,1.5,0.04068,0.36729,3,2,"NIGHT_CLEAR,CLEAR","Cross-shore,Onshore",2
5842041f4e65fad6a77089d2,2025_03_13,41.817,-69.935,Cape Cod,1.5,0.51,0.82,4,4,"NIGHT_MOSTLY_CLOUDY,CLEAR","Onshore,Onshore",2
5842041f4e65fad6a77089d3,2025_03_13,42.22055448975661,-70.70634873403819,Egypt Beach,1,0.13,0.43000000000000005,4,4,"NIGHT_CLEAR,CLEAR","Onshore,Onshore",2
5842041f4e65fad6a77089d4,2025_03_13,41.48739647744607,-71.25723,Second Beach,1.75,0.513415,0.800485,3,3,"NIGHT_CLEAR,MOSTLY_CLEAR","Offshore,Offshore",2
5842041f4e65fad6a77089d5,2025_03_13,42.964,-70.769,Fox Hill,1.75,0.446225,0.760135,3,3,"NIGHT_CLEAR,CLEAR","Cross-shore,Onshore",2
5842041f4e65fad6a77089d6,2025_03_13,42.991359,-70.75149,Straws Point,2.25,0.5031650000000001,0.806,3,3,"NIGHT_MOSTLY_CLOUDY,CLEAR","Cross-shore,Onshore",2
5842041f4e65fad6a77089d7,2025_03_13,42.946,-70.786,Plaice Cove,1.75,0.446225,0.760135,3,3,"NIGHT_MOSTLY_CLOUDY,CLEAR","Onshore,Onshore",2
5842041f4e65fad6a77089d9,2025_03_13,42.911574,-70.80831,The Main Beach,1.75,0.48236,0.839905,3,3,"NIGHT_CLEAR,CLEAR","Cross-shore,Onshore",2
5842041f4e65fad6a77089da,2025_03_13,42.97583846220203,-70.764,Sawyer's Beach,2.25,0.5498350000000001,0.852665,3,3,"NIGHT_CLEAR,CLEAR","Cross-shore,Onshore",2
5842041f4e65fad6a77089db,2025_03_13,42.97,-70.77,Rye on the Rocks / 5-0's,2.25,0.648085,0.9237,3,3,"NIGHT_CLEAR,CLEAR","Cross-shore,Onshore",2
5842041f4e65fad6a77089dc,2025_03_13,43.55902946610303,-70.27795,Higgins Beach,1.5,0.634255,1.0209199999999998,3,3,"NIGHT_CLEAR,CLEAR","Cross-shore,Cross-shore",2
5842041f4e65fad6a77089dd,2025_03_13,43.302676,-70.5652,Wells Beach,1.25,0.5756650000000001,0.8835,3,3,"NIGHT_CLEAR,CLEAR","Onshore,Onshore",2
5842041f4e65fad6a77089de,2025_03_13,43.545359,-70.30479,Scarborough Beach State Park,1.75,0.650425,1.019075,3,3,"NIGHT_CLEAR,CLEAR","Cross-shore,Cross-shore",2
5842041f4e65fad6a77089df,2025_03_13,43.514481,-70.37215,Old Orchard Beach,1.25,0.412335,0.7143349999999999,3,3,"NIGHT_CLEAR,CLEAR","Onshore,Cross-shore",2
5842041f4e65fad6a77089e0,2025_03_13,43.34711,-70.48165,Gooch's Beach,1.5,0.58014,0.8679749999999999,3,3,"NIGHT_CLEAR,CLEAR","Cross-shore,Cross-shore",2
5842041f4e65fad6a77089e2,2025_03_13,40.58433,-73.62953,Lido Beach,1.25,0.69818500000000006,1.090245,4,3,"NIGHT_MOSTLY_CLEAR,CLEAR","Cross-shore,Cross-shore",2
5842041f4e65fad6a77089e3,2025_03_13,43.163135,-70.61689,Long Sands Beach,1.25,0.53636,0.8372550000000001,3,3,"NIGHT_CLEAR,CLEAR","Cross-shore,Cross-shore",2
5842041f4e65fad6a77089e4,2025_03_13,40.61695351251805,-73.39376,Gilgo Beach,2,0.71242,1.04416,4,2,"NIGHT_CLEAR,CLEAR","Cross-shore,Offshore",2
5842041f4e65fad6a77089e5,2025_03_13,40.62530081928036,-73.23827,Robert Moses,1,0.725,1.0350000000000001,5,5,"NIGHT_CLEAR,CLEAR","Cross-shore,Cross-shore",2
5842041f4e65fad6a77089e6,2025_03_13,40.64313317632791,-73.15727,Fire Island,1,0.705,1.01,5,5,"NIGHT_CLEAR,CLEAR","Cross-shore,Cross-shore",2
5842041f4e65fad6a77089e8,2025_03_13,40.76653118828782,-72.7458,Cupsogue,1.5,1.0350000000000001,1.2349999999999999,5,5,"NIGHT_MOSTLY_CLEAR,CLEAR","Cross-shore,Cross-shore",2
5842041f4e65fad6a77089e9,2025_03_13,42.9376373334092,-70.79141,The Wall,1.75,0.42990000000000006,0.770285,3,3,"NIGHT_CLEAR,CLEAR","Onshore,Onshore",2
5842041f4e65fad6a77089ea,2025_03_13,40.887088,-72.33856,Flys,2,0.91,1.09,4,4,"NIGHT_MOSTLY_CLOUDY,CLEAR","Offshore,Cross-shore",2
5842041f4e65fad6a77089eb,2025_03_13,41.0389266436591,-71.91068529316958,Trailer Park,1,1.029355,1.38071,4,2,"NIGHT_OVERCAST,CLEAR","Cross-shore,Cross-shore",2
5842041f4e65fad6a77089ec,2025_03_13,41.039505402729105,-71.9142,Ditch Plains,0.5,0.9296500000000001,1.32346,4.5,4.5,"NIGHT_CLEAR,CLEAR","Onshore,Cross-shore",2
5842041f4e65fad6a77089ee,2025_03_13,40.57633275206492,-73.56895305108567,"West End, Jones Beach",1.5,0.704,1.0653350000000001,4,3,"NIGHT_MOSTLY_CLEAR,CLEAR","Offshore,Offshore",2
5842041f4e65fad6a77089f1,2025_03_13,41.038286691230795,-71.91991567611694,Poles,1,0.90164,1.30145,4,2,"NIGHT_OVERCAST,CLEAR","Cross-shore,Cross-shore",2
5842041f4e65fad6a77089f3,2025_03_13,40.84077769766295,-72.47989493724765,The Bowl,2,0.9299999999999999,1.1099999999999999,4,4,"NIGHT_MOSTLY_CLOUDY,CLEAR","Offshore,Cross-shore",2
5842041f4e65fad6a77089f4,2025_03_13,40.94235535243154,-72.19286,Main Beach,2.25,0.782335,1.073665,13,11,"NIGHT_OVERCAST,CLEAR","Offshore,Offshore",2
5842041f4e65fad6a77089f5,2025_03_13,40.58270702399518,-73.67251552079799,Laurelton Blvd.,2,0.6958249999999999,0.9904299999999999,4,3,"NIGHT_CLEAR,CLEAR","Offshore,Offshore",2
5842041f4e65fad6a77089f6,2025_03_13,41.033752854071416,-71.93696,Terrace,1.5,0.735335,1.06549,4,2,"NIGHT_OVERCAST,CLEAR","Cross-shore,Cross-shore",2
5842041f4e65fad6a77089f7,2025_03_13,40.83372943645748,-72.50426173210144,K Road,1.5,1.03,1.23,4,4,"NIGHT_MOSTLY_CLOUDY,CLEAR","Cross-shore,Cross-shore",2
5842041f4e65fad6a77089f8,2025_03_13,40.58456099581507,-73.80730032920837,84th Street,1.75,0.9518249999999999,1.27618,4,3,"NIGHT_MOSTLY_CLOUDY,CLEAR","Cross-shore,Cross-shore",2
5842041f4e65fad6a77089fa,2025_03_13,40.1319,-74.02788,Sea Girt,1,1.080645,1.460165,4,4,"NIGHT_CLEAR,OVERCAST","Onshore,Onshore",2
5842041f4e65fad6a77089fb,2025_03_13,40.54698301868125,-73.9268,Breezy Point,1,0.7050000000000001,1.0150000000000001,5.5,5.5,"NIGHT_MOSTLY_CLOUDY,CLEAR","Cross-shore,Cross-shore",2
5842041f4e65fad6a77089fc,2025_03_13,40.152504,-74.02138,Spring Lake,0.5,1.039155,1.364155,4,4,"NIGHT_CLEAR,OVERCAST","Onshore,Onshore",2
5842041f4e65fad6a77089fd,2025_03_13,40.591277,-73.770792,30th - 39th Streets,1.5,0.6867650000000001,1.010235,4,3,"NIGHT_CLEAR,CLEAR","Offshore,Cross-shore",2
5842041f4e65fad6a77089fe,2025_03_13,40.18834955871439,-74.00860982500222,Avon,0.5,0.942875,1.3781750000000001,4,4,"NIGHT_CLEAR,OVERCAST","Onshore,Onshore",2
5842041f4e65fad6a77089ff,2025_03_13,40.1974229100932,-74.00650533798255,Bradley Beach,1,0.995265,1.369145,4,4,"NIGHT_CLEAR,OVERCAST","Onshore,Onshore",2
5842041f4e65fad6a7708a01,2025_03_13,40.17202,-74.01503,"16th Ave., Belmar",1,1.002345,1.3879199999999998,4,4,"NIGHT_CLEAR,OVERCAST","Onshore,Onshore",2
5842041f4e65fad6a7708a02,2025_03_13,40.217443,-73.99982,Asbury Park,0.5,0.959335,1.314835,4,4,"NIGHT_CLEAR,OVERCAST","Onshore,Onshore",2
5842041f4e65fad6a7708a03,2025_03_13,40.229841,-73.99678,Loch Arbour and Deal,1,0.9935,1.4140000000000001,4,4,"NIGHT_CLEAR,OVERCAST","Onshore,Onshore",2
5842041f4e65fad6a7708a05,2025_03_13,40.41754,-73.97935,Sandy Hook,1,0.665,0.97,5.5,5.5,"NIGHT_MOSTLY_CLOUDY,MOSTLY_CLOUDY","Onshore,Onshore",2
5842041f4e65fad6a7708a06,2025_03_13,39.36353,-74.40873,Crystals,0.75,0.82379,1.149475,6,4,"NIGHT_OVERCAST,OVERCAST","Cross-shore,Cross-shore",2
5842041f4e65fad6a7708a07,2025_03_13,39.31443,-74.51863,32nd Street,0.5,0.916895,1.2525149999999998,6,4,"NIGHT_OVERCAST,LIGHT_RAIN","Cross-shore,Cross-shore",2
5842041f4e65fad6a7708a08,2025_03_13,39.327688,-74.49524,Margate Pier Northside,0.5,0.916895,1.2525149999999998,6,4,"NIGHT_OVERCAST,LIGHT_RAIN","Cross-shore,Cross-shore",2
5842041f4e65fad6a7708a09,2025_03_13,39.336276,-74.47782,Ventnor Pier,0.75,0.913905,1.24979,6,4,"NIGHT_OVERCAST,LIGHT_RAIN","Cross-shore,Cross-shore",2
5842041f4e65fad6a7708a0a,2025_03_13,39.35929751441085,-74.41683,States Avenue,0.75,0.82379,1.149475,6,4,"NIGHT_OVERCAST,OVERCAST","Cross-shore,Cross-shore",2
5842041f4e65fad6a7708a0b,2025_03_13,39.37274173278517,-74.40454,Brigantine Jetty,1,0.78792,1.10713,6,4,"NIGHT_OVERCAST,OVERCAST","Cross-shore,Cross-shore",2
5842041f4e65fad6a7708a0c,2025_03_13,39.356505,-74.42263,South Carolina Avenue,1.25,0.78792,1.10713,6,4,"NIGHT_OVERCAST,OVERCAST","Cross-shore,Cross-shore",2
5842041f4e65fad6a7708a0d,2025_03_13,39.413485,-74.35476,14th Street North,1,0.8193349999999999,1.126335,6,4,"NIGHT_LIGHT_RAIN,OVERCAST","Cross-shore,Cross-shore",2
5842041f4e65fad6a7708a0e,2025_03_13,39.531319,-74.26325,The Wooden Jetty,1,0.987485,1.24608,6,4,"NIGHT_OVERCAST,OVERCAST","Onshore,Cross-shore",2
5842041f4e65fad6a7708a0f,2025_03_13,39.552472,-74.24344,Holyoke,1.25,1.16415,1.4384700000000001,6,4,"NIGHT_OVERCAST,OVERCAST","Onshore,Cross-shore",2
5842041f4e65fad6a7708a10,2025_03_13,39.692364,-74.14068,Hudson Ave.,1.75,1.1068,1.41889,6,4,"NIGHT_MOSTLY_CLOUDY,OVERCAST","Cross-shore,Onshore",2
5842041f4e65fad6a7708a11,2025_03_13,39.79614,-74.09248,Island Beach State Park,1,0.792835,0.984835,12,11,"NIGHT_MOSTLY_CLOUDY,OVERCAST","Onshore,Onshore",2
5842041f4e65fad6a7708a12,2025_03_13,39.91813588078152,-74.07527,Seaside Park,1,0.8625700000000001,1.17336,4,4,"NIGHT_CLEAR,OVERCAST","Onshore,Onshore",2
5842041f4e65fad6a7708a15,2025_03_13,39.95745637606704,-74.06736,Ortley Beach,1,1.06556,1.4137849999999998,4,4,"NIGHT_CLEAR,OVERCAST","Onshore,Onshore",2
5842041f4e65fad6a7708a16,2025_03_13,39.98313468342945,-74.06265685577506,Lavallette,1,0.9735,1.3165,4,4,"NIGHT_CLEAR,OVERCAST","Onshore,Onshore",2
5842041f4e65fad6a7708a17,2025_03_13,40.0699319967757,-74.04145,Bay Head,1,0.9585,1.320665,4,4,"NIGHT_CLEAR,OVERCAST","Onshore,Onshore",2
5842041f4e65fad6a7708a18,2025_03_13,40.094041,-74.034859,Jenkinson's,1,1.027425,1.3957549999999999,4,4,"NIGHT_CLEAR,OVERCAST","Onshore,Onshore",2
5842041f4e65fad6a7708a1a,2025_03_13,38.148058,-75.17704,Assateague,1,0.876,1.2515,7,5,"NIGHT_MIST,MIST","Cross-shore,Cross-shore",2
5842041f4e65fad6a7708a1b,2025_03_13,38.33889038664497,-75.08017670566352,North End to Ocean City Inlet,1,0.7913600000000001,1.16807,7,5,"NIGHT_MIST,MIST","Onshore,Onshore",2
5842041f4e65fad6a7708a1c,2025_03_13,38.603993,-75.06271,Indian River Inlet,1,0.941705,1.302985,6.5,6.5,"NIGHT_MIST,CLOUDY","Onshore,Cross-shore",2
5842041f4e65fad6a7708a1d,2025_03_13,38.460477,-75.05207,Fenwick Island,1,0.675,0.98,6.5,6.5,"NIGHT_DRIZZLE,OVERCAST","Onshore,Onshore",2
5842041f4e65fad6a7708a1e,2025_03_13,38.538767,-75.05619,Bethany Beach,1,0.934935,1.29362,6.5,6.5,"NIGHT_DRIZZLE,MIST","Onshore,Onshore",2
5842041f4e65fad6a7708a1f,2025_03_13,38.697657,-75.07595,Dewey Beach,1,0.725,1.03,6.5,6.5,"NIGHT_OVERCAST,OVERCAST","Onshore,Onshore",2
5842041f4e65fad6a7708a20,2025_03_13,38.75034741676525,-75.08194,Gordons Pond,1,0.73814,1.133105,6,6,"NIGHT_DRIZZLE,OVERCAST","Onshore,Onshore",2
5842041f4e65fad6a7708a21,2025_03_13,38.767837,-75.08284,Naval Jetties,1,0.65,0.9550000000000001,6,6,"NIGHT_DRIZZLE,OVERCAST","Onshore,Onshore",2
5842041f4e65fad6a7708a22,2025_03_13,36.81735875786576,-75.96624,Camp Pendleton,2.5,0.5278499999999999,0.8383499999999999,8.5,8.5,"NIGHT_CLOUDY,OVERCAST","Cross-shore,Cross-shore",2
5842041f4e65fad6a7708a23,2025_03_13,36.9102212316428,-75.98732471466064,North End,1.75,0.265335,0.568165,8,8,"NIGHT_MIST,OVERCAST","Cross-shore,Cross-shore",2
5842041f4e65fad6a7708a24,2025_03_13,36.737117517621314,-75.93924,Sandbridge Beach,2,0.368355,0.6901550000000001,8,8,"NIGHT_CLOUDY,OVERCAST","Offshore,Cross-shore",2
5842041f4e65fad6a7708a26,2025_03_13,36.818257440557794,-75.96666,Croatan to Pendleton,2.5,0.33516,0.658485,8,8,"NIGHT_CLOUDY,OVERCAST","Cross-shore,Cross-shore",2
5842041f4e65fad6a7708a27,2025_03_13,36.84318777204769,-75.9719,South End,2.5,0.307235,0.634295,8,8,"NIGHT_MIST,OVERCAST","Cross-shore,Cross-shore",2
5842041f4e65fad6a7708a28,2025_03_13,37.08612627584661,-75.976121638199,Fishermans Island,2,0.174,0.296,8.5,8.5,"NIGHT_MIST,CLOUDY","Offshore,Offshore",2
5842041f4e65fad6a7708a38,2025_03_13,35.254619418229026,-75.52074,Cape Hatteras Lighthouse,1,0.5835250000000001,0.97098,13,12,"NIGHT_CLEAR,CLEAR","Cross-shore,Cross-shore",2
5842041f4e65fad6a7708a3a,2025_03_13,35.54572934093336,-75.46477,Waves and Salvo,1.25,0.55439,0.94112,13,12,"NIGHT_CLEAR,CLEAR","Cross-shore,Cross-shore",2
5842041f4e65fad6a7708a3b,2025_03_13,35.22565892751075,-75.63606,Frisco,1,0.5726,0.909575,16,15,"NIGHT_CLEAR,CLEAR","Onshore,Onshore",2
5842041f4e65fad6a7708a3c,2025_03_13,35.13086,-75.90591,Ocracoke,0,0.5481050000000001,0.913505,14,14,"NIGHT_CLEAR,CLEAR","Cross-shore,Onshore",2
5842041f4e65fad6a7708a3d,2025_03_13,35.34721340158342,-75.50084,Avon Pier,1,0.60554,0.8926799999999999,13,12,"NIGHT_CLEAR,CLEAR","Cross-shore,Cross-shore",2
5842041f4e65fad6a7708a3f,2025_03_13,35.71680821253768,-75.49243,Pea Island,2,0.41500000000000004,0.72,13,13,"NIGHT_CLEAR,CLEAR","Offshore,Offshore",2
5842041f4e65fad6a7708a40,2025_03_13,35.97427620657821,-75.62984,Nags Head Pier,1.75,0.5265,0.8335,9,8,"NIGHT_CLEAR,CLEAR","Offshore,Offshore",2
5842041f4e65fad6a7708a41,2025_03_13,36.0439998039079,-75.67288,Avalon Pier,2.5,0.56074,0.89942,9,8,"NIGHT_CLEAR,CLEAR","Offshore,Offshore",2
5842041f4e65fad6a7708a42,2025_03_13,36.03043116489792,-75.66413,First Street,2.5,0.580665,0.91465,9,8,"NIGHT_CLEAR,CLEAR","Offshore,Offshore",2
5842041f4e65fad6a7708a43,2025_03_13,36.06829910590498,-75.6899,Old Station/Laundromats,2,0.5288649999999999,0.867905,9,8,"NIGHT_CLEAR,CLEAR","Offshore,Offshore",2
5842041f4e65fad6a7708a44,2025_03_13,36.10126676607491,-75.71107,Kitty Hawk Pier,2,0.5412950000000001,0.8867149999999999,9,8,"NIGHT_CLEAR,CLEAR","Offshore,Offshore",2
5842041f4e65fad6a7708a45,2025_03_13,36.18220630068973,-75.75014,Duck Pier,2,0.32999999999999996,0.635,9.5,9.5,"NIGHT_CLEAR,CLEAR","Offshore,Cross-shore",2
5842041f4e65fad6a7708a46,2025_03_13,36.37660668125033,-75.8241,Corolla,2,0.355,0.655,9,9,"NIGHT_CLEAR,MIST","Offshore,Cross-shore",2
5842041f4e65fad6a7708a47,2025_03_13,33.90373404124834,-78.08241431707907,Oak Island,1,0.19,0.495,12.5,12.5,"NIGHT_CLEAR,CLEAR","Onshore,Onshore",2
5842041f4e65fad6a7708a48,2025_03_13,33.91108837766468,-78.29653,South Brunswick Beaches,1.5,0.2303,0.6205400000000001,12.5,12.5,"NIGHT_MIST,CLEAR","Onshore,Onshore",2
5842041f4e65fad6a7708a49,2025_03_13,34.05683595651973,-77.88128,Carolina Beach Pier,0.8333333333333333,0.115625,0.435195,12,11.5,"NIGHT_CLEAR,CLEAR","Cross-shore,Cross-shore",2
5842041f4e65fad6a7708a4a,2025_03_13,33.96841191816696,-77.9180242565498,Fort Fisher,1.3333333333333333,0.2075,0.5143,12,11.5,"NIGHT_CLEAR,CLEAR","Cross-shore,Offshore",2
5842041f4e65fad6a7708a4b,2025_03_13,34.46776662988774,-77.47083,Topsail Beach,0.8333333333333333,0.3318,0.62985,11,10.5,"NIGHT_CLEAR,MIST","Onshore,Onshore",2
5842041f4e65fad6a7708a4c,2025_03_13,34.69270354752445,-76.82854854446575,Iron Steamer,1,0.4093,0.71735,11,9,"NIGHT_CLEAR,CLEAR","Onshore,Onshore",2
5842041f4e65fad6a7708a4f,2025_03_13,30.85132684893727,-81.42283496231143,Cumberland Island,1,0.175,0.48,15.5,15.5,"NIGHT_CLEAR,CLEAR","Offshore,Offshore",2
5842041f4e65fad6a7708a50,2025_03_13,34.686741128540874,-76.47516712138378,Cape Lookout National Seashore,1,0.625,0.925,16,16,"NIGHT_CLEAR,CLEAR","Cross-shore,Cross-shore",2
5842041f4e65fad6a7708a51,2025_03_13,31.10585419260024,-81.40422767604812,Jekyll Island,2,0.07500000000000001,0.38,15.5,15.5,"NIGHT_CLEAR,CLEAR","Offshore,Offshore",2
5842041f4e65fad6a7708a52,2025_03_13,31.16212806376699,-81.32512426500224,Harbor Marker Buoys,2,0.065,0.365,14.5,14.5,"NIGHT_CLEAR,CLEAR","Offshore,Offshore",2
5842041f4e65fad6a7708a53,2025_03_13,31.20076299997009,-81.32629,Sea Island,1,0.14500000000000002,0.445,14.5,14.5,"NIGHT_CLEAR,MOSTLY_CLEAR","Offshore,Offshore",2
5842041f4e65fad6a7708a54,2025_03_13,31.13553222995767,-81.38457634790909,St. Simons Island,1,0.09,0.395,15,15,"NIGHT_CLEAR,CLEAR","Cross-shore,Cross-shore",2
5842041f4e65fad6a7708a55,2025_03_13,31.33550077186516,-81.28383377408417,Wolf Island,1,0.05,0.355,14.5,14.5,"NIGHT_CLEAR,MOSTLY_CLEAR","Offshore,Offshore",2
5842041f4e65fad6a7708a56,2025_03_13,31.2704493877174,-81.27324039152315,Little St. Simons Island,1.5,0.12,0.425,14.5,14.5,"NIGHT_CLEAR,MOSTLY_CLEAR","Offshore,Offshore",2
5842041f4e65fad6a7708a57,2025_03_13,31.39261761368919,-81.26190520231917,Sapelo Island,1,0.05,0.35,14.5,14.5,"NIGHT_CLEAR,MOSTLY_CLEAR","Offshore,Offshore",2
5842041f4e65fad6a7708a58,2025_03_13,34.42458783809001,-77.54492,Surf City Pier,1.3333333333333333,0.21375,0.52555,12,11.5,"NIGHT_CLEAR,CLEAR","Onshore,Cross-shore",2
5842041f4e65fad6a7708a59,2025_03_13,31.4231993614213,-81.24725340591522,Cabretta Island,1,0.04,0.345,14.5,14.5,"NIGHT_CLEAR,MOSTLY_CLEAR","Offshore,Offshore",2
5842041f4e65fad6a7708a5a,2025_03_13,31.46684389030369,-81.2100056410468,Blackbeard Island,1,0.05,0.35,14.5,14.5,"NIGHT_CLEAR,CLEAR","Cross-shore,Offshore",2
5842041f4e65fad6a7708a5b,2025_03_13,31.85953587631629,-80.99031310336719,Wassaw Island/South End,0.5,0,0.20500000000000002,14,14,"NIGHT_CLEAR,CLEAR","Cross-shore,Cross-shore",2
5842041f4e65fad6a7708a5c,2025_03_13,31.62535662342983,-81.13328352167974,St. Catherines Island,1.5,0.125,0.425,14.5,14.5,"NIGHT_CLEAR,CLEAR","Offshore,Offshore",2
5842041f4e65fad6a7708a5d,2025_03_13,31.76502169596568,-81.07655443806622,Ossabaw Island,1,0.09,0.39,14.5,14.5,"NIGHT_CLEAR,CLEAR","Offshore,Offshore",2
5842041f4e65fad6a7708a5e,2025_03_13,31.90593619092352,-80.93589231700857,Wassaw Island/North End,1,0.14,0.445,14.5,14.5,"NIGHT_CLEAR,CLEAR","Cross-shore,Cross-shore",2
5842041f4e65fad6a7708a5f,2025_03_13,31.96738675414547,-80.86977980706155,Little Tybee Island,1,0.135,0.435,14.5,14.5,"NIGHT_CLEAR,CLEAR","Cross-shore,Cross-shore",2
5842041f4e65fad6a7708a60,2025_03_13,31.9812255780179,-80.84773973467009,South Tybee Sandbars,1,0.11000000000000001,0.41500000000000004,14.5,14.5,"NIGHT_CLEAR,CLEAR","Offshore,Offshore",2
5842041f4e65fad6a7708a61,2025_03_13,32.01226,-80.83983,Sugar Shack,1,0.075,0.375,14,14,"NIGHT_CLEAR,CLEAR","Offshore,Offshore",2
5842041f4e65fad6a7708a62,2025_03_13,31.98722842396969,-80.84773,18th St. Jetty,1,0,0.350705,14.5,14.5,"NIGHT_CLEAR,CLEAR","Offshore,Offshore",2
5842041f4e65fad6a7708a64,2025_03_13,34.013473721006676,-77.8991,"Alabama Ave., Kure Beach",2,0.264465,0.5677,12,12,"NIGHT_MOSTLY_CLEAR,CLEAR","Offshore,Offshore",2
5842041f4e65fad6a7708a65,2025_03_13,34.20859853336924,-77.79293,"C Street, Wrightsville Beach",0.8333333333333333,0.1275,0.43055,12,11.5,"NIGHT_CLEAR,CLEAR","Cross-shore,Cross-shore",2
5842041f4e65fad6a7708a66,2025_03_13,32.831,-79.71,Dewees Island,1.5,0.14,0.445,13.5,13.5,"NIGHT_CLEAR,CLEAR","Cross-shore,Offshore",2
5842041f4e65fad6a7708a67,2025_03_13,33.82924423172106,-78.62813,Cherry Grove Pier,1,0.06625,0.36845,12.5,12.5,"NIGHT_CLEAR,CLEAR","Onshore,Onshore",2
5842041f4e65fad6a7708a69,2025_03_13,34.27197439666496,-77.74050223196774,Figure Eight and Shell Islands,1.3333333333333333,0.18,0.4868,12,11.5,"NIGHT_CLEAR,CLEAR","Onshore,Onshore",2
5842041f4e65fad6a7708a6b,2025_03_13,33.49041958261793,-79.07666070599386,North End,1,0.185,0.485,13,13,"NIGHT_CLEAR,CLEAR","Cross-shore,Cross-shore",2
5842041f4e65fad6a7708a6c,2025_03_13,33.39537062495087,-79.13835037835189,The South End,1,0.11,0.42,13.5,13.5,"NIGHT_CLEAR,CLEAR","Cross-shore,Cross-shore",2
5842041f4e65fad6a7708a6d,2025_03_13,33.29001727666697,-79.17190003352977,North Island,1.5,0.1,0.4,13.5,13.5,"NIGHT_CLEAR,CLEAR","Offshore,Offshore",2
5842041f4e65fad6a7708a6e,2025_03_13,32.90929771158952,-79.57810400297359,Bull Island,1,0.10500000000000001,0.415,14,14,"NIGHT_CLEAR,CLEAR","Cross-shore,Offshore",2
5842041f4e65fad6a7708a6f,2025_03_13,31.99153112815895,-80.84543050470074,Tybee Island Pier,0.5,0,0.2,14.5,14.5,"NIGHT_CLEAR,CLEAR","Offshore,Offshore",2
5842041f4e65fad6a7708a70,2025_03_13,33.03478144356316,-79.35021028265125,Cape Romain,1.5,0.22,0.525,14,14,"NIGHT_CLEAR,CLEAR","Cross-shore,Offshore",2
5842041f4e65fad6a7708a71,2025_03_13,33.43231073271028,-79.11789,The Pier,1,0.02481,0.40320999999999996,13,13,"NIGHT_CLEAR,CLEAR","Cross-shore,Offshore",2
5842041f4e65fad6a7708a72,2025_03_13,33.45423621397969,-79.10497798178424,South Litchfield,1.5,0.135,0.435,13,13,"NIGHT_CLEAR,CLEAR","Cross-shore,Cross-shore",2
5842041f4e65fad6a7708a73,2025_03_13,34.19316590251396,-77.8045,Crystal Pier,0.8333333333333333,0.173495,0.49370500000000006,12,11.5,"NIGHT_CLEAR,CLEAR","Cross-shore,Cross-shore",2
5842041f4e65fad6a7708a74,2025_03_13,33.68628680045124,-78.88346,Myrtle Beach,1,0.2,0.51,13,13,"NIGHT_CLEAR,CLEAR","Cross-shore,Cross-shore",2
5842041f4e65fad6a7708a75,2025_03_13,32.66166297145973,-79.91951806398808,10th Street,1.5,0.17561,0.48551,13.5,13.5,"NIGHT_CLEAR,CLEAR","Cross-shore,Offshore",2
5842041f4e65fad6a7708a76,2025_03_13,33.16729555197199,-79.19829236867845,South Island,1.5,0.275,0.5800000000000001,14,14,"NIGHT_CLEAR,CLEAR","Cross-shore,Offshore",2
5842041f4e65fad6a7708a77,2025_03_13,32.595,-80.088,Kiawah Island/Seabrook Island,1.5,0.135,0.435,13.5,13.5,"NIGHT_MIST,MIST","Onshore,Cross-shore",2
5842041f4e65fad6a7708a78,2025_03_13,32.51356930575787,-80.28223,Edisto Beach,1,0.026535,0.41790000000000005,13.5,13.5,"NIGHT_CLEAR,CLEAR","Cross-shore,Cross-shore",2
5842041f4e65fad6a7708a79,2025_03_13,32.366270751262,-80.43911,Hunting Island,1,0,0.34672000000000003,13.5,13.5,"NIGHT_CLEAR,CLEAR","Offshore,Offshore",2
5842041f4e65fad6a7708a7a,2025_03_13,32.65337734408365,-79.93983,Folly Beach Pier,1,0.19411499999999998,0.507525,13.5,13.5,"NIGHT_CLEAR,CLEAR","Onshore,Cross-shore",2
5842041f4e65fad6a7708a7b,2025_03_13,33.41209545530049,-79.13026341393126,South Jetty,1,0.11,0.42,13,13,"NIGHT_CLEAR,CLEAR","Cross-shore,Offshore",2
5842041f4e65fad6a7708a7c,2025_03_13,32.31115640606869,-80.48564,Fripp Island,1,0.026005,0.409545,13.5,13.5,"NIGHT_MIST,CLEAR","Cross-shore,Cross-shore",2
5842041f4e65fad6a7708a7d,2025_03_13,32.14365226036034,-80.74402,Hilton Head Island,0,0,0.12,13.5,13.5,"NIGHT_CLEAR,CLEAR","Cross-shore,Cross-shore",2
5842041f4e65fad6a7708a7e,2025_03_13,29.70405364733744,-81.22426,Matanzas Inlet,1.5,0.175885,0.491925,17,16,"NIGHT_CLEAR,CLEAR","Offshore,Offshore",2
5842041f4e65fad6a7708a81,2025_03_13,29.76878537149042,-81.25109,Crescent Beach,2,0.07500000000000001,0.38,17,17,"NIGHT_CLEAR,CLEAR","Offshore,Offshore",2
5842041f4e65fad6a7708a82,2025_03_13,32.80251718689188,-79.73221919500764,Wild Dunes,1,0.15500000000000003,0.45999999999999996,13.5,13.5,"NIGHT_CLEAR,CLEAR","Cross-shore,Cross-shore",2
5842041f4e65fad6a7708a84,2025_03_13,32.75733539419244,-79.83258856064796,Bert's Bar,0.5,0,0.275,13.5,13.5,"NIGHT_CLEAR,CLEAR","Cross-shore,Cross-shore",2
5842041f4e65fad6a7708a85,2025_03_13,32.66829212943039,-79.90735,Washout,0.8333333333333333,0.05424,0.36743000000000003,13,12.5,"NIGHT_CLEAR,CLEAR","Cross-shore,Cross-shore",2
5842041f4e65fad6a7708a86,2025_03_13,32.78452968219067,-79.7854,The Pier/Windjammer,1.5,0.18,0.485,13.5,13.5,"NIGHT_CLEAR,CLEAR","Onshore,Cross-shore",2
5842041f4e65fad6a7708a87,2025_03_13,29.86618162637438,-81.2662150259608,Anastasia Park (The Entrance),2,0.055,0.355,17,17,"NIGHT_CLEAR,CLEAR","Offshore,Offshore",2
5842041f4e65fad6a7708a89,2025_03_13,29.89149785916623,-81.2723223244215,Blowholes,1.75,0.046665,0.348665,23,21,"NIGHT_CLEAR,CLEAR","Offshore,Offshore",2
5842041f4e65fad6a7708a8a,2025_03_13,30.16227112983666,-81.35502907491218,Crossroads,1.75,0.099165,0.401165,23,21,"NIGHT_CLEAR,MIST","Offshore,Offshore",2
5842041f4e65fad6a7708a8b,2025_03_13,30.19308537587637,-81.36314247820911,Sawgrass,1.75,0.120835,0.418665,23,21,"NIGHT_CLEAR,CLEAR","Offshore,Offshore",2
5842041f4e65fad6a7708a8c,2025_03_13,30.34696027700899,-81.39451,18th Street,2,0.208815,0.5574349999999999,16.5,16.5,"NIGHT_CLEAR,MOSTLY_CLEAR","Offshore,Offshore",2
5842041f4e65fad6a7708a8d,2025_03_13,30.381793,-81.39686,Mayport Poles,2,0.235,0.54,16.5,16.5,"NIGHT_CLEAR,CLEAR","Offshore,Offshore",2
5842041f4e65fad6a7708a8e,2025_03_13,30.390516,-81.395591,Blue Roofs,2,0.195,0.5,16.5,16.5,"NIGHT_CLEAR,CLEAR","Offshore,Offshore",2
5842041f4e65fad6a7708a8f,2025_03_13,30.40517712722211,-81.40074116169004,Huguenot Park (North Jetty),2,0.21000000000000002,0.51,16,16,"NIGHT_CLEAR,CLEAR","Offshore,Offshore",2
5842041f4e65fad6a7708a90,2025_03_13,30.47788918872762,-81.41056,Talbot Island,2,0.28686,0.5073,17,16,"NIGHT_CLEAR,CLEAR","Offshore,Offshore",2
5842041f4e65fad6a7708a91,2025_03_13,30.66753984549761,-81.42983,Main Beach,1.5,0.11,0.415,16,16,"NIGHT_CLEAR,CLEAR","Offshore,Offshore",2
5842041f4e65fad6a7708a92,2025_03_13,30.69983581209126,-81.42483,Ft. Clinch State Park,1.5,0.17,0.475,16,16,"NIGHT_CLEAR,CLEAR","Offshore,Offshore",2
5842041f4e65fad6a7708a93,2025_03_13,30.62059700777582,-81.43725,Amelia Pier,1,0.11,0.415,16,16,"NIGHT_CLEAR,CLEAR","Offshore,Offshore",2
5842041f4e65fad6a7708a95,2025_03_13,28.95125170929067,-80.83837,Bethune Beach,2,0.155,0.455,19,19,"NIGHT_CLEAR,CLEAR","Offshore,Offshore",2
5842041f4e65fad6a7708a96,2025_03_13,29.03874288905362,-80.8933424949646,Flagler Ave.,2,0.33361,0.725535,23,22,"NIGHT_CLEAR,CLEAR","Offshore,Offshore",2
5842041f4e65fad6a7708a98,2025_03_13,30.332297686992757,-81.39319,Atlantic Beach,2,0,0.44346,16.5,16.5,"NIGHT_CLEAR,MOSTLY_CLEAR","Offshore,Offshore",2
5842041f4e65fad6a7708a99,2025_03_13,29.87530059952514,-81.26757958498874,Middles,1.75,0.046665,0.348665,23,21,"NIGHT_CLEAR,CLEAR","Offshore,Offshore",2
5842041f4e65fad6a7708a9a,2025_03_13,29.146475528378218,-80.96347,Sunglow Pier,2,0.11499999999999999,0.415,18,18,"NIGHT_CLEAR,CLEAR","Offshore,Offshore",2
5842041f4e65fad6a7708a9b,2025_03_13,30.02251238001095,-81.32183077344881,Gate Station,1.75,0.040835,0.342835,23,21,"NIGHT_CLEAR,MIST","Offshore,Offshore",2
5842041f4e65fad6a7708a9c,2025_03_13,29.33976495417899,-81.0606,Bicentennial Park,2,0.10500000000000001,0.41000000000000003,17,17,"NIGHT_CLEAR,CLEAR","Offshore,Offshore",2
5842041f4e65fad6a7708a9d,2025_03_13,29.08257353385602,-80.92137,Ponce Inlet,2.5,0.32577,0.64531,18,18,"NIGHT_CLEAR,CLEAR","Offshore,Offshore",2
5842041f4e65fad6a7708a9f,2025_03_13,27.862962005874696,-80.44668,Sebastian Inlet,2.25,0.472495,0.7034199999999999,22,22,"NIGHT_CLEAR,CLEAR","Offshore,Offshore",2
5842041f4e65fad6a7708aa0,2025_03_13,30.292626880836885,-81.38579,Jacksonville Beach Pier,2,0.110835,0.418665,17,16,"NIGHT_CLEAR,CLEAR","Offshore,Offshore",2
5842041f4e65fad6a7708aa2,2025_03_13,29.21860397328164,-81.0019,Daytona Beach,2,0.386235,0.6892100000000001,18,18,"NIGHT_CLEAR,CLEAR","Offshore,Offshore",2
5842041f4e65fad6a7708aa3,2025_03_13,27.47531255634912,-80.28914,Ft. Pierce Inlet,2.5,0.292315,0.625725,23,23,"NIGHT_CLEAR,CLEAR","Offshore,Onshore",2
5842041f4e65fad6a7708aa4,2025_03_13,29.29239875585548,-81.0386,Ormond Beach,2,0.235,0.54,17,17,"NIGHT_CLEAR,CLEAR","Offshore,Offshore",2
5842041f4e65fad6a7708aa5,2025_03_13,29.91629441498523,-81.28801,Vilano,2,0.065,0.37,17,17,"NIGHT_CLEAR,MIST","Offshore,Offshore",2
5842041f4e65fad6a7708aa6,2025_03_13,27.876230736320828,-80.4551,Spanish House,2.25,0.3432,0.66984,22,22,"NIGHT_CLEAR,CLEAR","Offshore,Offshore",2
5842041f4e65fad6a7708aa7,2025_03_13,28.64397251741012,-80.62329,Playalinda,2,0.16,0.45999999999999996,20,20,"NIGHT_CLEAR,CLEAR","Offshore,Cross-shore",2
5842041f4e65fad6a7708aa8,2025_03_13,28.406142,-80.58886,Jetty Park,1,0,0.301245,20.5,20.5,"NIGHT_CLEAR,CLEAR","Offshore,Onshore",2
5842041f4e65fad6a7708aa9,2025_03_13,28.49083243010974,-80.58001715986319,Kennedy Space Center,1,0.19,0.49,20.5,20.5,"NIGHT_CLEAR,CLEAR","Cross-shore,Onshore",2
5842041f4e65fad6a7708aab,2025_03_13,28.336757013024314,-80.60568,Lori Wilson Park,1.5,0.053505,0.363935,21,21,"NIGHT_CLEAR,CLEAR","Offshore,Onshore",2
5842041f4e65fad6a7708aad,2025_03_13,27.76388821683801,-80.3962958234027,Wabasso,2.5,0.30500000000000005,0.61,22,22,"NIGHT_CLEAR,CLEAR","Offshore,Offshore",2
5842041f4e65fad6a7708aae,2025_03_13,27.521583322459,-80.30987620353699,P.V. Martin's,1.75,0.375335,0.677335,22,22,"NIGHT_CLEAR,CLEAR","Offshore,Offshore",2
5842041f4e65fad6a7708aaf,2025_03_13,27.644996047720046,-80.35242676734924,Riomar,1.75,0.3645,0.6715,22,22,"NIGHT_CLEAR,CLEAR","Offshore,Offshore",2
5842041f4e65fad6a7708ab1,2025_03_13,27.670121806659253,-80.36026954650879,Vero Pier,2.5,0.381165,0.693165,22,22,"NIGHT_CLEAR,CLEAR","Offshore,Offshore",2
5842041f4e65fad6a7708ab2,2025_03_13,28.047705032021486,-80.54680109024048,Spessard Holland,1.75,0.38438,0.6749700000000001,22,22,"NIGHT_CLEAR,CLEAR","Offshore,Onshore",2
5842041f4e65fad6a7708ab7,2025_03_13,28.135426226217064,-80.57895541191101,The Radisson,2,0.28885000000000005,0.62675,21,21,"NIGHT_CLEAR,CLEAR","Offshore,Onshore",2
5842041f4e65fad6a7708ab8,2025_03_13,28.26664623907351,-80.60448,Picnic Tables,2,0.235,0.535,21,21,"NIGHT_CLEAR,CLEAR","Offshore,Onshore",2
5842041f4e65fad6a7708ab9,2025_03_13,28.200840983180232,-80.59493,Perkins,2,0.284875,0.607375,21,21,"NIGHT_CLEAR,CLEAR","Offshore,Onshore",2
5842041f4e65fad6a7708aba,2025_03_13,28.185652556759443,-80.59154,RC's,2,0.295625,0.6288750000000001,21,21,"NIGHT_CLEAR,CLEAR","Offshore,Onshore",2
5842041f4e65fad6a7708abc,2025_03_13,28.252541991968208,-80.60269,2nd Light,2,0.225,0.525,21,21,"NIGHT_CLEAR,CLEAR","Offshore,Onshore",2
5842041f4e65fad6a7708abd,2025_03_13,27.901611308716447,-80.4697,Bonsteel Park,2.25,0.33768,0.66432,22,22,"NIGHT_CLEAR,CLEAR","Offshore,Offshore",2
5842041f4e65fad6a7708abe,2025_03_13,28.2423394657007,-80.60104,Hangar's Beach,2,0.255,0.565,21,21,"NIGHT_CLEAR,CLEAR","Offshore,Onshore",2
5842041f4e65fad6a7708abf,2025_03_13,27.34018197146798,-80.23278,Walton Rocks,1.5,0.346165,0.649,24,23,"NIGHT_CLEAR,CLEAR","Offshore,Offshore",2
5842041f4e65fad6a7708ac0,2025_03_13,25.80407401902198,-80.1222227290161,30th Street,1.5,0.005765,0.3459,24,24,"NIGHT_CLEAR,CLEAR","Onshore,Onshore",2
5842041f4e65fad6a7708ac1,2025_03_13,25.76570280215999,-80.12983,South Beach,0.25,0,0.25085,24,23,"NIGHT_CLEAR,CLEAR","Onshore,Onshore",2
5842041f4e65fad6a7708ac2,2025_03_13,26.058022412197,-80.10873562327671,Dania Pier,2,0.034999999999999996,0.345,24,24,"NIGHT_CLEAR,MOSTLY_CLEAR","Offshore,Cross-shore",2
5842041f4e65fad6a7708ac3,2025_03_13,26.04825428257198,-80.11153150137932,Franklin Street,2,0.16,0.45999999999999996,24,24,"NIGHT_CLEAR,MOSTLY_CLEAR","Offshore,Cross-shore",2
5842041f4e65fad6a7708ac4,2025_03_13,26.09086461141498,-80.10728410144065,John Lloyd State Park,2,0.155,0.45499999999999996,24,24,"NIGHT_CLEAR,MOSTLY_CLEAR","Offshore,Cross-shore",2
5842041f4e65fad6a7708ac5,2025_03_13,26.0971397396683,-80.10298876028907,Spoils,1,0.045000000000000005,0.35,24,24,"NIGHT_CLEAR,CLEAR","Offshore,Onshore",2
5842041f4e65fad6a7708ac6,2025_03_13,26.18920557475824,-80.09224,Commercial Pier,2,0.075,0.385,24,24,"NIGHT_CLEAR,CLEAR","Offshore,Onshore",2
5842041f4e65fad6a7708ac7,2025_03_13,28.289851576629342,-80.6063,16th St. South,1.5,0.11718500000000001,0.42335999999999996,24,24,"NIGHT_CLEAR,CLEAR","Offshore,Onshore",2
5842041f4e65fad6a7708ac8,2025_03_13,26.23467460139735,-80.0874,Pompano Pier,1.5,0.02425,0.30474999999999997,24,24,"NIGHT_CLEAR,CLEAR","Offshore,Onshore",2
5842041f4e65fad6a7708acb,2025_03_13,26.44179551370651,-80.05928855229453,Atlantic Dunes Park,1.25,0.11889999999999999,0.29317,24,22,"NIGHT_CLEAR,CLEAR","Offshore,Offshore",2
5842041f4e65fad6a7708acd,2025_03_13,26.62215707439298,-80.03599398392342,Hilton Hotel Backyard,1.75,0.372345,0.69377,23,22,"NIGHT_CLEAR,CLEAR","Offshore,Offshore",2
5842041f4e65fad6a7708ace,2025_03_13,26.96418190555367,-80.07769168113562,Coral Cove Park,2.25,0.441165,0.7531650000000001,23,22,"NIGHT_CLEAR,CLEAR","Offshore,Offshore",2
5842041f4e65fad6a7708acf,2025_03_13,26.7029496416037,-80.03184,Palm Beach,1.75,0.36033499999999996,0.667335,23,22,"NIGHT_CLEAR,MOSTLY_CLEAR","Offshore,Offshore",2
5842041f4e65fad6a7708ad0,2025_03_13,26.97679878167375,-80.08141631388132,Blowing Rocks,2.25,0.410335,0.713165,23,22,"NIGHT_CLEAR,CLEAR","Offshore,Offshore",2
5842041f4e65fad6a7708ad2,2025_03_13,26.45661880078336,-80.057,Delray Beach,1.25,0.06255000000000001,0.32441,24,22,"NIGHT_CLEAR,CLEAR","Offshore,Offshore",2
5842041f4e65fad6a7708ad3,2025_03_13,27.205685534312778,-80.16826629638672,Fletcher's,1.75,0.347,0.6539999999999999,23,22,"NIGHT_CLEAR,CLEAR","Offshore,Offshore",2
5842041f4e65fad6a7708ad5,2025_03_13,26.5848450388814,-80.03649735753257,Lantana Public Beach,1.75,0.28237999999999996,0.60473,23,22,"NIGHT_CLEAR,CLEAR","Offshore,Offshore",2
5842041f4e65fad6a7708ad6,2025_03_13,25.77468432731322,-80.12884045797499,5th Street,1.5,0.05765000000000001,0.41508,24,24,"NIGHT_CLEAR,CLEAR","Onshore,Onshore",2
5842041f4e65fad6a7708ad7,2025_03_13,25.795157990715975,-80.12527585029602,21st Street,1.5,0,0.32860500000000004,24,24,"NIGHT_CLEAR,CLEAR","Onshore,Onshore",2
5842041f4e65fad6a7708ad8,2025_03_13,25.897806453088073,-80.1211827993393,Haulover Inlet (South Jetty),2,0.125,0.43,24,24,"NIGHT_CLEAR,CLEAR","Onshore,Onshore",2
5842041f4e65fad6a7708ad9,2025_03_13,25.90147392328634,-80.12110769748688,Haulover Inlet (North Jetty),2,0.17,0.48,24,24,"NIGHT_CLEAR,CLEAR","Onshore,Onshore",2
5842041f4e65fad6a7708ada,2025_03_13,25.87049374242476,-80.11828560342356,85th Street,1.5,0.09,0.395,24,24,"NIGHT_CLEAR,CLEAR","Cross-shore,Onshore",2
5842041f4e65fad6a7708adb,2025_03_13,26.25486382031396,-80.0805,Hillsboro Inlet,2,0.083695,0.402795,24,24,"NIGHT_CLEAR,CLEAR","Offshore,Onshore",2
5842041f4e65fad6a7708add,2025_03_13,26.29705672965111,-80.07612,Hillsboro Beach,2,0.14626,0.334845,24,24,"NIGHT_CLEAR,MOSTLY_CLEAR","Offshore,Onshore",2
5842041f4e65fad6a7708ade,2025_03_13,26.36569956413266,-80.06717936869391,Red Reef Park,1,0.115,0.417835,24,22,"NIGHT_CLEAR,CLEAR","Offshore,Cross-shore",2
5842041f4e65fad6a7708adf,2025_03_13,26.54593873498907,-80.04104359585143,Boynton Beach Inlet (Northside),1,0.07,0.37783500000000003,23,22,"NIGHT_CLEAR,CLEAR","Offshore,Offshore",2
5842041f4e65fad6a7708ae0,2025_03_13,26.92746505629809,-80.06721138954163,Corners,2,0.54817,0.805025,23,22,"NIGHT_CLEAR,CLEAR","Offshore,Offshore",2
5842041f4e65fad6a7708ae1,2025_03_13,26.76983179886943,-80.03413481937037,The Cove,1.75,0.382,0.6839999999999999,23,22,"NIGHT_CLEAR,CLEAR","Offshore,Offshore",2
5842041f4e65fad6a7708ae3,2025_03_13,26.39224485175123,-80.0650461233983,Japanese Rock,1.25,0.081665,0.38366500000000003,24,22,"NIGHT_CLEAR,MOSTLY_CLEAR","Offshore,Cross-shore",2
5842041f4e65fad6a7708ae4,2025_03_13,29.94810928551321,-85.42545434612366,Mexico Beach,1.5,0.175,0.48000000000000004,18,18,"NIGHT_CLEAR,MOSTLY_CLOUDY","Cross-shore,Cross-shore",2
5842041f4e65fad6a7708ae5,2025_03_13,30.11752500931267,-85.7306,Shell Island,1,0.23,0.53,17,17,"NIGHT_CLEAR,MOSTLY_CLOUDY","Onshore,Onshore",2
5842041f4e65fad6a7708ae7,2025_03_13,29.94901514702268,-85.43042978529013,D.J.'s,1,0.175,0.48000000000000004,18,18,"NIGHT_CLEAR,MOSTLY_CLOUDY","Onshore,Onshore",2
5842041f4e65fad6a7708ae8,2025_03_13,30.12396111446713,-85.73637,St. Andrew's Park,0.75,0.128335,0.436165,15.5,15.5,"NIGHT_CLEAR,MOSTLY_CLOUDY","Cross-shore,Cross-shore",2
5842041f4e65fad6a7708ae9,2025_03_13,30.16781531760227,-85.79604918824084,Spinnaker,0.75,0.16749999999999998,0.47450000000000003,15.5,15.5,"NIGHT_CLEAR,BRIEF_SHOWERS","Onshore,Onshore",2
5842041f4e65fad6a7708aea,2025_03_13,30.18877050526983,-85.83243530466363,Wood Pier,0.75,0.17833500000000002,0.476165,15.5,15.5,"NIGHT_CLEAR,BRIEF_SHOWERS","Onshore,Onshore",2
5842041f4e65fad6a7708aeb,2025_03_13,30.2676205895555,-85.9938578144113,Inlet Beach Pier,0.75,0.185835,0.493665,15.5,15.5,"NIGHT_MOSTLY_CLOUDY,MOSTLY_CLOUDY","Onshore,Onshore",2
5842041f4e65fad6a7708aec,2025_03_13,30.31815542759119,-86.1383771867044,Bud and Alley's,0.75,0.18666500000000003,0.498665,15.5,15.5,"NIGHT_CLEAR,CLEAR","Onshore,Onshore",2
5842041f4e65fad6a7708aed,2025_03_13,30.32686082481946,-86.16650590275447,Grayton Beach,0.75,0.186665,0.493665,15.5,15.5,"NIGHT_MOSTLY_CLOUDY,MOSTLY_CLOUDY","Onshore,Onshore",2
5842041f4e65fad6a7708aee,2025_03_13,30.33661488976303,-86.20094,Blue Mountain Beach,0.75,0.191665,0.493665,15.5,15.5,"NIGHT_MOSTLY_CLOUDY,MOSTLY_CLOUDY","Onshore,Onshore",2
5842041f4e65fad6a7708aef,2025_03_13,30.37677202831587,-86.38513,Pompano Joe's,0.75,0.17916500000000002,0.482,15.5,15.5,"NIGHT_OVERCAST,MOSTLY_CLOUDY","Onshore,Onshore",2
5842041f4e65fad6a7708af0,2025_03_13,30.37429731725911,-86.36687,Seascape,0.75,0.186665,0.493665,15.5,15.5,"NIGHT_MOSTLY_CLOUDY,CLEAR","Onshore,Onshore",2
5842041f4e65fad6a7708af1,2025_03_13,30.382815988547186,-86.45839,The Back Porch,0.75,0.17916500000000002,0.487,15.5,15.5,"NIGHT_OVERCAST,OVERCAST","Onshore,Onshore",2
5842041f4e65fad6a7708af2,2025_03_13,30.21207176798612,-85.87989730830542,Panama City Pier,0.75,0.17916500000000002,0.482,15.5,15.5,"NIGHT_MOSTLY_CLOUDY,MOSTLY_CLOUDY","Cross-shore,Cross-shore",2
5842041f4e65fad6a7708af3,2025_03_13,30.37521499110326,-86.3717,Whale's Tail,0.75,0.18416500000000002,0.482,15.5,15.5,"NIGHT_MOSTLY_CLOUDY,CLEAR","Onshore,Cross-shore",2
5842041f4e65fad6a7708af4,2025_03_13,30.38120596658251,-86.43046,Old Crystal Pier,0.75,0.17333500000000002,0.476165,15.5,15.5,"NIGHT_OVERCAST,DRIZZLE","Onshore,Onshore",2
5842041f4e65fad6a7708af5,2025_03_13,30.38090573159031,-86.50655,Jetty East,0.75,0.18,0.487,15.5,15.5,"NIGHT_OVERCAST,LIGHT_RAIN","Onshore,Onshore",2
5842041f4e65fad6a7708af6,2025_03_13,30.37584509640838,-86.50563,HMO's,0,0.185,0.487835,15.5,15.5,"NIGHT_OVERCAST,LIGHT_RAIN","Onshore,Onshore",2
5842041f4e65fad6a7708af7,2025_03_13,30.38124006131522,-86.50052,Two By Fours,0,0.185,0.487835,15.5,15.5,"NIGHT_OVERCAST,LIGHT_RAIN","Onshore,Onshore",2
5842041f4e65fad6a7708af8,2025_03_13,30.38250751017554,-86.45776,The Pumphouse,0.75,0.19083499999999998,0.493665,15.5,15.5,"NIGHT_OVERCAST,OVERCAST","Onshore,Onshore",2
5842041f4e65fad6a7708af9,2025_03_13,30.38655981578935,-86.52475,NCO Club,0.75,0.185,0.487835,15.5,15.5,"NIGHT_OVERCAST,LIGHT_RAIN","Onshore,Onshore",2
5842041f4e65fad6a7708afa,2025_03_13,30.39024516541047,-86.59341,Okaloosa Pier,0.75,0.17916500000000002,0.482,15.5,15.5,"NIGHT_OVERCAST,OVERCAST","Onshore,Onshore",2
5842041f4e65fad6a7708afb,2025_03_13,30.39281125722673,-86.59766,Dead Man's,0.75,0.17916500000000002,0.487,15.5,15.5,"NIGHT_OVERCAST,OVERCAST","Onshore,Onshore",2
5842041f4e65fad6a7708afc,2025_03_13,30.32703176167034,-87.14196,Pensacola Pier,1,0.175,0.485,18,18,"NIGHT_MOSTLY_CLOUDY,BRIEF_SHOWERS","Onshore,Onshore",2
5842041f4e65fad6a7708afd,2025_03_13,30.37920054094992,-86.85583,Navarre Beach,1,0.048665,0.32033500000000004,15.5,15.5,"NIGHT_OVERCAST,MIST","Onshore,Onshore",2
5842041f4e65fad6a7708afe,2025_03_13,30.39491626029151,-86.61248,Blue Horizon Motel,0.75,0.17416500000000001,0.481165,15.5,15.5,"NIGHT_OVERCAST,OVERCAST","Onshore,Onshore",2
5842041f4e65fad6a7708aff,2025_03_13,30.29345899260828,-87.43547,First Parking Lot,1,0.135,0.44499999999999995,18,18,"NIGHT_CLEAR,MIST","Onshore,Onshore",2
5842041f4e65fad6a7708b00,2025_03_13,30.29767401311303,-87.41362,Johnsons Beach,1,0.145,0.44999999999999996,18,18,"NIGHT_MOSTLY_CLOUDY,CLEAR","Onshore,Onshore",2
5842041f4e65fad6a7708b01,2025_03_13,30.29513397370759,-87.42642,Sandy Key,1,0.135,0.44499999999999995,18,18,"NIGHT_CLEAR,MIST","Onshore,Cross-shore",2
5842041f4e65fad6a7708b03,2025_03_13,30.377504907388026,-86.86444,Navarre Pier,1,0.10353,0.441395,15.5,15.5,"NIGHT_OVERCAST,MIST","Onshore,Onshore",2
5842041f4e65fad6a7708b04,2025_03_13,30.31482647791307,-87.26164,Pickens Point Dunes,1,0.195,0.495,18,18,"NIGHT_CLEAR,MOSTLY_CLOUDY","Onshore,Onshore",2
5842041f4e65fad6a7708b05,2025_03_13,30.32632110836516,-87.16019503253068,Slabs,1,0.195,0.495,18,18,"NIGHT_MOSTLY_CLOUDY,BRIEF_SHOWERS","Onshore,Onshore",2
5842041f4e65fad6a7708b06,2025_03_13,30.32739721382043,-87.30406515493348,Pickens Point,1,0.175,0.485,18,18,"NIGHT_CLEAR,MOSTLY_CLOUDY","Onshore,Onshore",2
5842041f4e65fad6a7708b07,2025_03_13,30.27406893266753,-87.54367,Bungalows,1.5,0.15,0.45499999999999996,18,18,"NIGHT_MOSTLY_CLOUDY,CLEAR","Onshore,Offshore",2
5842041f4e65fad6a7708b08,2025_03_13,27.99627311846992,-82.82942,880,0.5,0,0.20924500000000001,19.5,19.5,"NIGHT_CLEAR,CLEAR","Cross-shore,Cross-shore",2
5842041f4e65fad6a7708b09,2025_03_13,27.97779860371595,-82.83246509090527,Pier 60,0.5,0,0.21000000000000002,19.5,19.5,"NIGHT_CLEAR,CLEAR","Cross-shore,Cross-shore",2
5842041f4e65fad6a7708b0a,2025_03_13,27.96296387618043,-82.8332635965418,Sand Key,1,0,0.21000000000000002,19.5,19.5,"NIGHT_CLEAR,CLEAR","Onshore,Cross-shore",2
5842041f4e65fad6a7708b0b,2025_03_13,27.92492619212885,-82.8449122845279,Belleair,1,0,0.21500000000000002,19.5,19.5,"NIGHT_CLEAR,CLEAR","Cross-shore,Cross-shore",2
5842041f4e65fad6a7708b0c,2025_03_13,27.882,-82.854,Indian Rocks Beach,1,0,0.22,19,19,"NIGHT_CLEAR,CLEAR","Cross-shore,Cross-shore",2
5842041f4e65fad6a7708b0d,2025_03_13,27.83106104966094,-82.83550218771384,Redington Breakwater,0.5,0,0.22,19.5,19.5,"NIGHT_CLEAR,MOSTLY_CLOUDY","Cross-shore,Cross-shore",2
5842041f4e65fad6a7708b0e,2025_03_13,27.74369029906206,-82.76053473435867,Middle Jetty,1,0,0.21000000000000002,20,20,"NIGHT_CLEAR,CLEAR","Cross-shore,Cross-shore",2
5842041f4e65fad6a7708b0f,2025_03_13,27.82174178852146,-82.83148664631841,Redington Pier,0.5,0,0.22,19.5,19.5,"NIGHT_CLEAR,MOSTLY_CLOUDY","Cross-shore,Cross-shore",2
5842041f4e65fad6a7708b10,2025_03_13,27.31496308261514,-82.5830466912004,Lido Beach,1,0,0.21000000000000002,20.5,20.5,"NIGHT_MOSTLY_CLOUDY,CLEAR","Offshore,Offshore",2
5842041f4e65fad6a7708b11,2025_03_13,27.31122010159892,-82.57833234007632,Coolidge,1,0,0.21000000000000002,20.5,20.5,"NIGHT_MOSTLY_CLOUDY,CLEAR","Offshore,Offshore",2
5842041f4e65fad6a7708b12,2025_03_13,27.26471672017615,-82.55465,Siesta Key,1,0,0.178365,20.5,20.5,"NIGHT_CLEAR,CLEAR","Offshore,Cross-shore",2
5842041f4e65fad6a7708b13,2025_03_13,27.24638693488133,-82.53809115716797,Stickney Point,1,0,0.22,20.5,20.5,"NIGHT_CLEAR,CLEAR","Offshore,Cross-shore",2
5842041f4e65fad6a7708b14,2025_03_13,27.21907878229092,-82.51813937562073,Turtles,1,0,0.22,20.5,20.5,"NIGHT_MOSTLY_CLEAR,MIST","Offshore,Cross-shore",2
5842041f4e65fad6a7708b15,2025_03_13,27.11375765852028,-82.47039,Venice Jetties North,0.5,0,0.16499999999999998,17,16,"NIGHT_MIST,MIST","Cross-shore,Offshore",2
5842041f4e65fad6a7708b16,2025_03_13,27.111485758834025,-82.46757,Venice Jetties South,1,0,0.20703500000000002,17,16,"NIGHT_MIST,MIST","Offshore,Offshore",2
5842041f4e65fad6a7708b17,2025_03_13,27.07249378831575,-82.4530285256104,Venice Pier,1,0,0.22999999999999998,17,16,"NIGHT_MIST,CLEAR","Offshore,Offshore",2
5842041f4e65fad6a7708b19,2025_03_13,27.49680446426314,-82.7140145455959,Holmes Beach Pier,0,0,0.2,20,20,"NIGHT_CLEAR,MOSTLY_CLOUDY","Cross-shore,Cross-shore",2
5842041f4e65fad6a7708b1a,2025_03_13,27.7390348493064,-82.75763,Sunset Beach,1,0,0.21000000000000002,20,20,"NIGHT_CLEAR,CLEAR","Offshore,Cross-shore",2
5842041f4e65fad6a7708b1b,2025_03_13,26.80347307599041,-82.28564775623539,Gasparilla Point,1,0,0.22999999999999998,21,21,"NIGHT_MIST,CLEAR","Cross-shore,Offshore",2
5842041f4e65fad6a7708b1c,2025_03_13,27.45365831548911,-82.69609,Coquina Jetties,1,0,0.2,20,20,"NIGHT_CLEAR,MOSTLY_CLEAR","Cross-shore,Cross-shore",2
5842041f4e65fad6a7708b1d,2025_03_13,27.46077315206043,-82.69924,Twin Piers,0,0,0.145165,17,16,"NIGHT_CLEAR,MOSTLY_CLEAR","Cross-shore,Cross-shore",2
5842041f4e65fad6a7708b1e,2025_03_13,26.91007316019612,-82.35352,Englewood,0.5,0,0.16,21,21,"NIGHT_CLEAR,CLEAR","Cross-shore,Offshore",2
5842041f4e65fad6a7708b1f,2025_03_13,26.88221101560038,-82.3359828282636,Knight's Point,1,0,0.22,21,21,"NIGHT_CLEAR,CLEAR","Cross-shore,Offshore",2
5842041f4e65fad6a7708b20,2025_03_13,26.51219285784982,-82.1928203289264,Tween Waters,1,0,0.22,21.5,21.5,"NIGHT_CLEAR,CLEAR","Offshore,Offshore",2
5842041f4e65fad6a7708b21,2025_03_13,26.55130241615096,-82.20222762415648,Redfish Pass,1,0,0.225,21.5,21.5,"NIGHT_CLEAR,CLEAR","Offshore,Offshore",2
5842041f4e65fad6a7708b22,2025_03_13,26.71713432926596,-82.26287777058234,Boca Grande,1,0,0.22999999999999998,21.5,21.5,"NIGHT_CLEAR,CLEAR","Cross-shore,Offshore",2
5842041f4e65fad6a7708b23,2025_03_13,26.47856785808584,-82.181288592828,Blind Pass,1,0,0.22,21.5,21.5,"NIGHT_CLEAR,CLEAR","Offshore,Offshore",2
5842041f4e65fad6a7708b24,2025_03_13,26.25358330618783,-81.82429246081317,The Wall,1,0,0.195,22,22,"NIGHT_CLEAR,CLEAR","Offshore,Offshore",2
5842041f4e65fad6a7708b25,2025_03_13,26.17456407516186,-81.81588575623482,Doctor's Pass,1,0,0.195,22,22,"NIGHT_CLEAR,CLEAR","Offshore,Offshore",2
5842041f4e65fad6a7708b26,2025_03_13,27.427134501874612,-82.68110766159296,Whitney Beach,1,0,0.225,20,20,"NIGHT_CLEAR,MOSTLY_CLEAR","Cross-shore,Cross-shore",2
5842041f4e65fad6a7708b27,2025_03_13,26.17300183052463,-81.81515842430267,Doctor's Pass (South Jetty),1,0,0.195,22,22,"NIGHT_CLEAR,CLEAR","Offshore,Offshore",2
5842041f4e65fad6a7708b28,2025_03_13,27.73496421495629,-82.75268962468695,Upham Beach Park,1,0,0.21000000000000002,20,20,"NIGHT_CLEAR,CLEAR","Cross-shore,Cross-shore",2
5842041f4e65fad6a7708b29,2025_03_13,26.13144856766723,-81.8090395116521,Naples Pier,1,0,0.175,22,22,"NIGHT_CLEAR,CLEAR","Offshore,Offshore",2
5842041f4e65fad6a7708b2a,2025_03_13,20.63474,-156.45211,Little Beach,2,0.07500000000000001,0.375,25,25,"NIGHT_CLEAR,NIGHT_CLEAR","Onshore,Offshore",2
5842041f4e65fad6a7708b2b,2025_03_13,20.613,-156.438,Dumps,2,0.09,0.39,25,25,"NIGHT_CLEAR,NIGHT_CLEAR","Onshore,Offshore",2
5842041f4e65fad6a7708b2c,2025_03_13,22.216,-159.502,Hanalei Bay,3,1.67,1.9949999999999999,24,24,"NIGHT_MOSTLY_CLOUDY,NIGHT_BRIEF_SHOWERS","Offshore,Offshore",2
5842041f4e65fad6a7708b2d,2025_03_13,22.225,-159.567,Ha'Ena Bay (Cannons/Tunnels),2,1.6600000000000001,1.9849999999999999,24,24,"NIGHT_CLEAR,NIGHT_CLEAR","Cross-shore,Offshore",2
5842041f4e65fad6a7708b2f,2025_03_13,22.148,-159.301,Anahola Bay,2,1.125,1.4249999999999998,24,24,"NIGHT_CLOUDY,NIGHT_MOSTLY_CLOUDY","Onshore,Cross-shore",2
5842041f4e65fad6a7708b30,2025_03_13,21.872,-159.462,Poipu Outer Reef,2,0.6799999999999999,0.98,25,25,"NIGHT_CLEAR,NIGHT_MOSTLY_CLOUDY","Offshore,Offshore",2
5842041f4e65fad6a7708b31,2025_03_13,21.936,-159.652,Pakala,2,0.27,0.575,25,25,"NIGHT_CLEAR,NIGHT_CLEAR","Offshore,Offshore",2
5842041f4e65fad6a7708b32,2025_03_13,21.272,-157.832,Populars,1.5,0.28764999999999996,0.60668,26,25,"NIGHT_CLEAR,NIGHT_CLEAR","Offshore,Offshore",2
5842041f4e65fad6a7708b33,2025_03_13,21.26841992117695,-157.82329,Publics,2,0.43326,0.7569,26,25,"NIGHT_CLEAR,NIGHT_CLEAR","Offshore,Offshore",2
5842041f4e65fad6a7708b34,2025_03_13,21.25460513357954,-157.79432,Black Point,2.5,0.750095,1.080635,24.5,24.5,"NIGHT_MOSTLY_CLOUDY,NIGHT_MOSTLY_CLOUDY","Offshore,Offshore",2
5842041f4e65fad6a7708b35,2025_03_13,21.27394674233747,-157.82777,Canoes,2,0.4598,0.7785249999999999,26,25,"NIGHT_CLEAR,NIGHT_CLEAR","Offshore,Offshore",2
5842041f4e65fad6a7708b36,2025_03_13,21.273658410008455,-157.8263,Queen's,2,0.35306,0.66377,26,25,"NIGHT_CLEAR,NIGHT_CLEAR","Offshore,Offshore",2
5842041f4e65fad6a7708b37,2025_03_13,20.869,-156.679,Lahaina Harbor - Breakwall,2,0.28,0.585,25,25,"NIGHT_CLEAR,NIGHT_CLEAR","Offshore,Offshore",2
5842041f4e65fad6a7708b38,2025_03_13,21.277,-157.841,Kaiser's,3,0.7160150000000001,1.130905,26,25,"NIGHT_CLEAR,NIGHT_CLEAR","Offshore,Offshore",2
5842041f4e65fad6a7708b39,2025_03_13,21.280537020769913,-157.84107,Rockpiles,2,0.2896,0.6072850000000001,26,25,"NIGHT_CLEAR,NIGHT_CLEAR","Offshore,Offshore",2
5842041f4e65fad6a7708b3a,2025_03_13,21.2745,-157.8395,Four's,2,0.56592,0.88032,24.5,24.5,"NIGHT_CLEAR,NIGHT_CLEAR","Offshore,Offshore",2
5842041f4e65fad6a7708b3b,2025_03_13,21.576,-158.282,Kaena Point,0.5,1.6099999999999999,1.92,25,25,"NIGHT_CLEAR,NIGHT_CLEAR","Cross-shore,Cross-shore",2
5842041f4e65fad6a7708b3c,2025_03_13,21.31110306220024,-157.6590697786346,Makapu'u,1,1.2650000000000001,1.565,24,24,"NIGHT_MOSTLY_CLOUDY,NIGHT_CLOUDY","Onshore,Onshore",2
5842041f4e65fad6a7708b3d,2025_03_13,21.276618032562773,-157.83386,Three's,2,0.3025,0.70167,26,25,"NIGHT_CLEAR,NIGHT_CLEAR","Offshore,Offshore",2
5842041f4e65fad6a7708b3f,2025_03_13,39.63537452931482,-123.7858735430881,Westport,2.5,2.425,2.84,11,11,"NIGHT_MOSTLY_CLOUDY,NIGHT_FOG","Onshore,Onshore",2
5842041f4e65fad6a7708b40,2025_03_13,39.47339314374171,-123.8053109861082,MacKerricher,2.5,3.665,4.385,11,11,"NIGHT_MOSTLY_CLOUDY,NIGHT_MOSTLY_CLOUDY","Onshore,Offshore",2
5842041f4e65fad6a7708b41,2025_03_13,39.30271935445495,-123.79757,Mendocino Township,2.5,2.435,2.91,11,11,"NIGHT_MOSTLY_CLOUDY,NIGHT_MOSTLY_CLOUDY","Onshore,Offshore",2
5842041f4e65fad6a7708b42,2025_03_13,21.281416779283845,-157.8457,Ala Moana Bowls,2,0.593475,0.89805,26,25,"NIGHT_CLEAR,NIGHT_CLEAR","Offshore,Offshore",2
5842041f4e65fad6a7708b43,2025_03_13,15.846,-97.06,Puerto Escondido,3.5,1.355,1.64,27.5,27.5,"NIGHT_CLEAR,CLEAR","Offshore,Offshore",2
5842041f4e65fad6a7708b44,2025_03_13,11.44175,-86.08519,Santana,3,0.96,1.2000000000000002,28,28,"NIGHT_CLEAR,MOSTLY_CLEAR","Offshore,Offshore",2
5842041f4e65fad6a7708b46,2025_03_13,38.91444690804076,-123.7104245288878,Point Arena,2.5,3.34,3.995,11,11,"NIGHT_CLEAR,NIGHT_MOSTLY_CLOUDY","Onshore,Offshore",2
5842041f4e65fad6a7708b47,2025_03_13,18.46,-66.07383728027,San Juan,3,1.5829,1.81185,28,27,"NIGHT_MOSTLY_CLOUDY,CLEAR","Onshore,Onshore",2
5842041f4e65fad6a7708b48,2025_03_13,13.21526058417982,-59.52183,Soup Bowl,1.5,0.505,0.8049999999999999,27,27,"NIGHT_CLEAR,MOSTLY_CLEAR","Onshore,Onshore",2
5842041f4e65fad6a7708b49,2025_03_13,18.371581,-67.25941,Puntas,3,1.18628,1.56857,28,27,"NIGHT_CLEAR,MOSTLY_CLEAR","Cross-shore,Onshore",2
5842041f4e65fad6a7708b4b,2025_03_13,-8.814,115.089,Uluwatu,3.5,0.942645,1.2816100000000001,28,28,"MOSTLY_CLOUDY,NIGHT_CLEAR","Offshore,Offshore",2
5842041f4e65fad6a7708b4c,2025_03_13,-8.950192825865,115.12573,Kuta,3,1.445,1.74,29,29,"CLEAR,NIGHT_CLEAR","Onshore,Onshore",2
5842041f4e65fad6a7708b4d,2025_03_13,9.94,-85.668,Guiones,3,0.615,0.9199999999999999,29,29,"NIGHT_CLEAR,CLEAR","Offshore,Offshore",2
5842041f4e65fad6a7708b4e,2025_03_13,9.56516,-84.59148,Playa Hermosa South,2.5,0.61893,0.96531,30,30,"NIGHT_CLEAR,CLOUDY","Cross-shore,Cross-shore",2
5842041f4e65fad6a7708b4f,2025_03_13,9.526305556,-84.48822,Playa Esterillos,4,1.1099999999999999,1.38,30,30,"NIGHT_CLEAR,CLOUDY","Offshore,Offshore",2
5842041f4e65fad6a7708b50,2025_03_13,9.576,-84.608,Playa Hermosa North,3,0.9450000000000001,1.135,30,30,"NIGHT_CLEAR,CLOUDY","Offshore,Offshore",2
5842041f4e65fad6a7708b53,2025_03_13,-12.337,-76.839,Pico Alto,2.5,0.904805,1.173505,21,21,"NIGHT_OVERCAST,CLEAR","Onshore,Onshore",2
5842041f4e65fad6a7708b55,2025_03_13,-12.17155,-77.08515,Peruazul,2,0.725,1.025,21,21,"NIGHT_CLEAR,CLEAR","Cross-shore,Cross-shore",2
5842041f4e65fad6a7708b56,2025_03_13,-12.133164,-77.03916,Makaha,3,0.9403900000000001,1.2082899999999999,21,21,"NIGHT_CLEAR,CLEAR","Cross-shore,Onshore",2
5842041f4e65fad6a7708b57,2025_03_13,43.29,-2.1708,Zarautz,1.5,0.25038499999999997,0.597515,13,13,"BRIEF_SHOWERS,LIGHT_SHOWERS","Onshore,Onshore",2
5842041f4e65fad6a7708b58,2025_03_13,54.27129984804951,-8.60171,Strandhill,2,0.535115,0.836115,9,9,"CLOUDY,MOSTLY_CLOUDY","Onshore,Onshore",2
5842041f4e65fad6a7708b5b,2025_03_13,39.276101,-74.56709,7th Street,1.25,0.893335,1.2318850000000001,6,4,"NIGHT_DRIZZLE,OVERCAST","Onshore,Onshore",2
5842041f4e65fad6a7708b5d,2025_03_13,39.321896,-74.506191,Sumner Avenue,1,0.482,0.794,12,12,"NIGHT_OVERCAST,OVERCAST","Cross-shore,Cross-shore",2
5842041f4e65fad6a7708b5e,2025_03_13,39.093673,-74.71653,26th to 30th Street Pier,0.5,0.8509899999999999,1.180375,6,4,"NIGHT_DRIZZLE,OVERCAST","Cross-shore,Cross-shore",2
5842041f4e65fad6a7708b5f,2025_03_13,39.039903,-74.76417,Nun's Beach,0.75,0.8346,1.1957849999999999,7,5,"NIGHT_OVERCAST,OVERCAST","Cross-shore,Cross-shore",2
5842041f4e65fad6a7708b60,2025_03_13,38.96768,-74.82565,Rambler Road,0.75,0.769335,1.0671650000000001,7,5,"NIGHT_OVERCAST,OVERCAST","Cross-shore,Cross-shore",2
5842041f4e65fad6a7708b61,2025_03_13,38.99931,-74.78814,2nd St. to 10th St.,0.75,0.837665,1.1355,7,5,"NIGHT_DRIZZLE,OVERCAST","Cross-shore,Cross-shore",2
5842041f4e65fad6a7708b62,2025_03_13,38.929886,-74.91718,Stockton Avenue,1.75,0.687695,1.0640999999999998,7,5,"NIGHT_OVERCAST,OVERCAST","Onshore,Onshore",2
5842041f4e65fad6a7708b63,2025_03_13,38.942988,-74.862452,The Rocks,0.75,0.627665,0.934665,7,5,"NIGHT_OVERCAST,OVERCAST","Cross-shore,Cross-shore",2
5842041f4e65fad6a7708b64,2025_03_13,38.93036,-74.91257,Queen Street,1.5,0.7084999999999999,1.0205,7,5,"NIGHT_OVERCAST,OVERCAST","Onshore,Cross-shore",2
5842041f4e65fad6a7708b65,2025_03_13,38.942757,-74.880791,Poverty Beach,1.25,0.691835,0.999665,7,5,"NIGHT_OVERCAST,OVERCAST","Offshore,Offshore",2
5842041f4e65fad6a7708b66,2025_03_13,38.929441,-74.93129,Broadway Beach,1.5,0.6768350000000001,0.9846649999999999,7,5,"NIGHT_OVERCAST,OVERCAST","Onshore,Cross-shore",2
5842041f4e65fad6a7708b67,2025_03_13,38.92870117926206,-74.92116,Grant Street Beach,1.5,0.712665,1.0205,7,5,"NIGHT_OVERCAST,OVERCAST","Onshore,Cross-shore",2
5842041f4e65fad6a7708b68,2025_03_13,38.928934874358276,-74.93582,The Cove,1,0.30127499999999996,0.59922,6,6,"NIGHT_OVERCAST,OVERCAST","Onshore,Cross-shore",2
5842041f4e65fad6a7708b69,2025_03_13,26.775154329102108,-80.03124833106995,Pumphouse,2.5,0.44,0.75,24,24,"NIGHT_CLEAR,CLEAR","Offshore,Offshore",2
5842041f4e65fad6a7708b6a,2025_03_13,26.72114353296791,-80.03310374527736,Sunrise,1.75,0.3245,0.6265000000000001,23,22,"NIGHT_CLEAR,MOSTLY_CLEAR","Offshore,Offshore",2
5842041f4e65fad6a7708b6b,2025_03_13,26.71306786153966,-80.03222170715443,Breakers,1.75,0.347835,0.6548350000000001,23,22,"NIGHT_CLEAR,MOSTLY_CLEAR","Offshore,Offshore",2
5842041f4e65fad6a7708b6c,2025_03_13,26.699075556703683,-80.03263235092163,Charlie's Crab,1.75,0.37033499999999997,0.673165,23,22,"NIGHT_CLEAR,MOSTLY_CLEAR","Offshore,Offshore",2
5842041f4e65fad6a7708b6d,2025_03_13,26.79441490392914,-80.0306161110009,Ocean Reef Park,1.25,0.301165,0.603165,23,22,"NIGHT_CLEAR,CLEAR","Offshore,Offshore",2
5842041f4e65fad6a7708b6f,2025_03_13,26.93134670517399,-80.06760115579169,Civic Center,2,0.54139,0.805045,23,22,"NIGHT_CLEAR,CLEAR","Offshore,Offshore",2
5842041f4e65fad6a7708b70,2025_03_13,26.90524197396177,-80.0593609780092,Kite Beach,2,0.382285,0.661195,23,22,"NIGHT_CLEAR,CLEAR","Offshore,Offshore",2
5842041f4e65fad6a7708b71,2025_03_13,26.54279208054373,-80.04292130470276,Boynton Beach Inlet (Southside),0.25,0.07,0.37783500000000003,23,22,"NIGHT_CLEAR,CLEAR","Offshore,Offshore",2
5842041f4e65fad6a7708b72,2025_03_13,26.613511029817357,-80.03534,Lake Worth Pier,1.25,0.42192,0.7405999999999999,23,22,"NIGHT_CLEAR,CLEAR","Offshore,Offshore",2
5842041f4e65fad6a7708b73,2025_03_13,27.06670219261476,-80.11447191238403,Hobe Sound Public Beach,1.75,0.42200000000000004,0.729835,23,22,"NIGHT_CLEAR,CLEAR","Offshore,Offshore",2
5842041f4e65fad6a7708b75,2025_03_13,27.21467611230439,-80.17308,Stuart Public Beach,1.5,0.3709,0.6885049999999999,23,22,"NIGHT_CLEAR,CLEAR","Offshore,Offshore",2
5842041f4e65fad6a7708b76,2025_03_13,27.36627923374593,-80.24622,Blind Creek Park,1.5,0.341165,0.648165,24,23,"NIGHT_CLEAR,CLEAR","Offshore,Offshore",2
5842041f4e65fad6a7708b77,2025_03_13,26.94256932088346,-80.07057,Jupiter Inlet,2.25,0.37616499999999997,0.683165,23,22,"NIGHT_CLEAR,CLEAR","Offshore,Offshore",2
5842041f4e65fad6a7708b78,2025_03_13,26.89365359499372,-80.056,Juno Pier,1.5,0.22617500000000001,0.569465,23,22,"NIGHT_CLEAR,CLEAR","Offshore,Offshore",2
5842041f4e65fad6a7708b7a,2025_03_13,29.67671206577928,-85.3689474172784,Cape San Blas,1.5,0.265,0.565,18,18,"NIGHT_CLEAR,CLOUDY","Cross-shore,Cross-shore",2
5842041f4e65fad6a7708b7b,2025_03_13,26.706551543472415,-80.03280401229858,Flagpole,1.75,0.35450000000000004,0.6665,23,22,"NIGHT_CLEAR,MOSTLY_CLEAR","Offshore,Offshore",2
5842041f4e65fad6a7708b7c,2025_03_13,29.94036477533054,-85.40953557392244,El Governor,1,0.175,0.48000000000000004,18,18,"NIGHT_CLEAR,MOSTLY_CLOUDY","Cross-shore,Cross-shore",2
5842041f4e65fad6a7708b7d,2025_03_13,29.68231979841189,-85.30627194238092,Toilet Bowls,1,0.22,0.52,18,18,"NIGHT_CLEAR,CLOUDY","Onshore,Onshore",2
5842041f4e65fad6a7708b7e,2025_03_13,29.6607153445246,-84.86361191991014,St. George Island,0,0,0.215,18,18,"NIGHT_MOSTLY_CLOUDY,MOSTLY_CLOUDY","Onshore,Onshore",2
5842041f4e65fad6a7708b7f,2025_03_13,29.77441172865639,-84.65942657000329,Dog Island,0,0,0.195,18,18,"NIGHT_CLEAR,MOSTLY_CLOUDY","Onshore,Onshore",2
5842041f4e65fad6a7708b80,2025_03_13,28.59674155718017,-95.97559,Matagorda,2,0.735,1.035,17.5,17.5,"NIGHT_MIST,OVERCAST","Onshore,Onshore",2
5842041f4e65fad6a7708b81,2025_03_13,27.84601633294622,-97.04372701603208,St. Joe's Island,2,0.41500000000000004,0.7250000000000001,18,18,"NIGHT_MIST,MIST","Cross-shore,Offshore",2
5842041f4e65fad6a7708b82,2025_03_13,27.64327897922308,-97.18612,J.P. Luby Surf Park,2,0.43245,0.798835,18,18,"NIGHT_MIST,MIST","Cross-shore,Offshore",2
5842041f4e65fad6a7708b83,2025_03_13,27.82704888028459,-97.05277,Horace Caldwell Pier,2,0.549865,0.91846,18,18,"NIGHT_MIST,MIST","Cross-shore,Cross-shore",2
5842041f4e65fad6a7708b84,2025_03_13,27.67634780977739,-97.16473,Fish Pass,2,0.43245,0.798835,18,18,"NIGHT_MIST,MIST","Cross-shore,Offshore",2
5842041f4e65fad6a7708b85,2025_03_13,27.58118015227788,-97.2191,Bob Hall Pier,1.5,0.47824,0.85838,18,18,"NIGHT_MIST,MIST","Cross-shore,Cross-shore",2
5842041f4e65fad6a7708b86,2025_03_13,28.93236038480434,-95.30205,Quintana,2.5,0.51845,0.8796200000000001,17,17,"NIGHT_MIST,MIST","Cross-shore,Cross-shore",2
5842041f4e65fad6a7708b87,2025_03_13,28.94367955201253,-95.28969,Octagon,2,0.51845,0.8796200000000001,17,17,"NIGHT_MIST,MIST","Onshore,Cross-shore",2
5842041f4e65fad6a7708b88,2025_03_13,29.02647703020454,-95.18702498902157,Boilers,1.5,0.325,0.63,17,17,"NIGHT_MIST,MIST","Onshore,Cross-shore",2
5842041f4e65fad6a7708b89,2025_03_13,28.9653363517684,-95.26739753922841,Assholes,2,0.5,0.8,17,17,"NIGHT_BRIEF_SHOWERS,MIST","Onshore,Cross-shore",2
5842041f4e65fad6a7708b8a,2025_03_13,29.27159138874912,-94.81532732168617,51st Street,2,0.465,0.7749999999999999,17,17,"NIGHT_MIST,MIST","Onshore,Cross-shore",2
5842041f4e65fad6a7708b8b,2025_03_13,29.13902635892794,-95.04070493829546,West Galveston,2,0.44,0.75,17.5,17.5,"NIGHT_MIST,MIST","Onshore,Cross-shore",2
5842041f4e65fad6a7708b8c,2025_03_13,29.26596874354759,-94.82556,61st Street,2,0.48160000000000003,0.8427899999999999,17,17,"NIGHT_MIST,MIST","Onshore,Onshore",2
5842041f4e65fad6a7708b8d,2025_03_13,29.279815639798642,-94.80146,37th Street,2,0.311845,0.68367,17,17,"NIGHT_BRIEF_SHOWERS,MIST","Onshore,Onshore",2
5842041f4e65fad6a7708b8e,2025_03_13,29.28680654948785,-94.79106,Flagship,1.5,0.26643,0.62167,17,17,"NIGHT_MIST,MIST","Onshore,Cross-shore",2
5842041f4e65fad6a7708b8f,2025_03_13,29.4702751255731,-94.59146640261427,A-Frames,1.5,0.27,0.5700000000000001,17.5,17.5,"NIGHT_FOG,MIST","Onshore,Onshore",2
5842041f4e65fad6a7708b90,2025_03_13,29.52172627288487,-94.45911,Meacom's Pier,2,0.346405,0.71713,17.5,17.5,"NIGHT_MIST,MIST","Onshore,Onshore",2
5842041f4e65fad6a7708b91,2025_03_13,29.4510876813709,-94.63230467945758,Crystal Beach,1.5,0.29000000000000004,0.6000000000000001,17.5,17.5,"NIGHT_FOG,MIST","Onshore,Onshore",2
5842041f4e65fad6a7708b92,2025_03_13,26.06123118244004,-97.14769,Boca Chica,1.5,0.21753,0.566715,18,18,"NIGHT_CLOUDY,MIST","Offshore,Cross-shore",2
5842041f4e65fad6a7708b93,2025_03_13,26.06961904983808,-97.15243,Isla Blanca State Park,1.5,0.14941500000000002,0.486975,18,18,"NIGHT_CLOUDY,MIST","Offshore,Offshore",2
5842041f4e65fad6a7708b96,2025_03_13,26.56132001354785,-97.26967,Port Mansfield,2,0.317005,0.675875,18,18,"NIGHT_OVERCAST,MIST","Cross-shore,Cross-shore",2
5842041f4e65fad6a7708b98,2025_03_13,10.85099440725964,-85.79981,Ollie's Point,3,0.54,0.85,28.5,28.5,"NIGHT_CLEAR,CLEAR","Offshore,Offshore",2
5842041f4e65fad6a7708b99,2025_03_13,10.79489213393012,-85.68066,Witches Rock,3,0.835,1.08,28.5,28.5,"NIGHT_CLEAR,CLEAR","Offshore,Offshore",2
5842041f4e65fad6a7708b9a,2025_03_13,9.570222044864844,-85.14184,Mal Pais,3,0.96,1.15,29.5,29.5,"NIGHT_CLEAR,CLEAR","Cross-shore,Cross-shore",2
5842041f4e65fad6a7708b9b,2025_03_13,10.29970304257365,-85.84398,Tamarindo,2,0.41000000000000003,0.715,29,29,"NIGHT_CLEAR,CLEAR","Offshore,Offshore",2
5842041f4e65fad6a7708b9c,2025_03_13,9.250593929300813,-83.86522,Dominical,3.5,0.935,1.115,30,30,"NIGHT_CLOUDY,LIGHT_RAIN","Offshore,Onshore",2
5842041f4e65fad6a7708b9d,2025_03_13,9.48278011021258,-84.28883991550364,Bejuco,3,0.5700000000000001,0.87,30,30,"NIGHT_LIGHT_SHOWERS,LIGHT_RAIN","Offshore,Offshore",2
5842041f4e65fad6a7708ba1,2025_03_13,9.616940559391795,-84.63541,Playa Jaco,3,0.7593000000000001,1.096765,30,30,"NIGHT_CLEAR,CLOUDY","Offshore,Offshore",2
5842041f4e65fad6a7708ba3,2025_03_13,9.661646156842439,-84.67316883195207,Playa Escondida,1,0.455,0.76,30,30,"NIGHT_CLEAR,CLEAR","Cross-shore,Cross-shore",2
5842041f4e65fad6a7708ba4,2025_03_13,9.635059578319176,-84.66159522794959,Herradura,2,0.48,0.785,30,30,"NIGHT_CLEAR,CLEAR","Cross-shore,Cross-shore",2
5842041f4e65fad6a7708ba5,2025_03_13,9.958235741436532,-84.74122,Boca Barranca,3,0.4427,0.7968550000000001,29.5,29.5,"NIGHT_CLEAR,CLEAR","Offshore,Offshore",2
5842041f4e65fad6a7708ba6,2025_03_13,9.922484732656224,-84.7158981889118,Caldera Jetty,2.5,0.395,0.7,29.5,29.5,"NIGHT_CLEAR,CLEAR","Offshore,Cross-shore",2
5842041f4e65fad6a7708ba7,2025_03_13,9.661180947362254,-82.75273,Salsa Brava,2,0.166145,0.52135,28.5,28.5,"NIGHT_LIGHT_SHOWERS,BRIEF_SHOWERS_POSSIBLE","Onshore,Onshore",2
5842041f4e65fad6a7708ba8,2025_03_13,8.38230022212565,-83.28332,Matapalo,3,0.8200000000000001,1.06,30.5,30.5,"NIGHT_CLEAR,BRIEF_SHOWERS_POSSIBLE","Offshore,Offshore",2
5842041f4e65fad6a7708ba9,2025_03_13,8.394937,-83.13952,Pavones,3,0.745,1.0550000000000002,30,30,"NIGHT_CLEAR,BRIEF_SHOWERS_POSSIBLE","Cross-shore,Offshore",2
5842041f4e65fad6a7708baa,2025_03_13,13.47971255664387,-89.28610104791234,Playa San Diego,3,0.975,1.23,30,30,"NIGHT_CLEAR,CLEAR","Offshore,Cross-shore",2
5842041f4e65fad6a7708bab,2025_03_13,13.4834740494465,-89.32376,La Paz,3,0.38155,0.681,30,30,"NIGHT_CLEAR,CLEAR","Offshore,Onshore",2
5842041f4e65fad6a7708bac,2025_03_13,13.48587874937462,-89.31998852531258,El Muelle (Pier),3,1.115,1.3900000000000001,30,30,"NIGHT_CLEAR,CLEAR","Offshore,Onshore",2
5842041f4e65fad6a7708bad,2025_03_13,13.47973883183636,-89.32655,Punta Roca,3,1.125,1.35,30,30,"NIGHT_BRIEF_SHOWERS_POSSIBLE,CLEAR","Offshore,Onshore",2
5842041f4e65fad6a7708bae,2025_03_13,13.491596878346689,-89.38104,La Bocana,3,0.88242,1.1509800000000001,30,30,"NIGHT_CLEAR,CLEAR","Offshore,Cross-shore",2
5842041f4e65fad6a7708baf,2025_03_13,13.48324995683858,-89.33946,Playa Conchalio,3,0.7673000000000001,1.1145450000000001,30,30,"NIGHT_CLEAR,CLEAR","Offshore,Cross-shore",2
5842041f4e65fad6a7708bb0,2025_03_13,13.49167561061991,-89.39,Sunzal,3,0.548,0.796,30,30,"NIGHT_CLEAR,CLEAR","Offshore,Cross-shore",2
5842041f4e65fad6a7708bb1,2025_03_13,35.92499624829542,-121.46957,Sand Dollar Beach,2,3.0549999999999997,3.65,13,13,"NIGHT_MOSTLY_CLOUDY,NIGHT_FOG","Onshore,Cross-shore",2
5842041f4e65fad6a7708bb3,2025_03_13,36.55448900657569,-121.93114,Carmel Beach,1.5,1.775,2.115,12,12,"NIGHT_MOSTLY_CLOUDY,NIGHT_MOSTLY_CLOUDY","Onshore,Onshore",2
5842041f4e65fad6a7708bb4,2025_03_13,36.27968576518622,-121.85962,Big Sur Rivermouth,2,1.81,2.165,12,12,"NIGHT_MOSTLY_CLOUDY,NIGHT_CLEAR","Onshore,Cross-shore",2
5842041f4e65fad6a7708bb5,2025_03_13,36.60883280895963,-121.9603486684287,Mole Point,1.5,2.33,2.785,12,12,"NIGHT_HEAVY_SHOWERS,NIGHT_MOSTLY_CLOUDY","Cross-shore,Onshore",2
5842041f4e65fad6a7708bb6,2025_03_13,36.63788026219399,-121.9311174079908,Boneyard,2,1.865,2.225,12,12,"NIGHT_SHOWERS,NIGHT_CLEAR","Cross-shore,Onshore",2
5842041f4e65fad6a7708bb7,2025_03_13,36.61880091818895,-121.9422482210244,Asilomar,1,2.8449999999999998,3.4,12,12,"NIGHT_HEAVY_SHOWERS,NIGHT_MOSTLY_CLOUDY","Onshore,Onshore",2
5842041f4e65fad6a7708bb8,2025_03_13,36.56037685095311,-121.9516152313922,Ghost Tree,1,2.2750000000000004,2.715,12,12,"NIGHT_CLEAR,NIGHT_OVERCAST","Onshore,Onshore",2
5842041f4e65fad6a7708bbb,2025_03_13,35.89412279173619,-121.462380148047,Willow Creek,2,2.645,3.16,13,13,"NIGHT_CLEAR,NIGHT_FOG","Onshore,Onshore",2
5842041f4e65fad6a7708bbc,2025_03_13,36.6260658643635,-121.91548,Lovers Point,2,1.615,1.9300000000000002,12,12,"NIGHT_SHOWERS,NIGHT_CLEAR","Cross-shore,Cross-shore",2
5842041f4e65fad6a7708bbd,2025_03_13,38.945,-9.42,Foz de Lizandro,3,2.253555,2.601025,15,15,"CLEAR,CLEAR","Cross-shore,Cross-shore",2
5842041f4e65fad6a7708bbf,2025_03_13,36.80821791915616,-121.79055,Moss Landing,2,2.3,2.745,12,12,"NIGHT_MOSTLY_CLEAR,NIGHT_MOSTLY_CLEAR","Onshore,Onshore",2
5842041f4e65fad6a7708bc0,2025_03_13,38.67869246746279,-9.33685,Carcavelos,3.5,1.730785,2.04315,15,15,"CLEAR,CLOUDY","Cross-shore,Offshore",2
5842041f4e65fad6a7708bc1,2025_03_13,38.983,-9.425,Reef,3,3.07,3.52,15,15,"CLEAR,CLEAR","Cross-shore,Cross-shore",2
5842041f4e65fad6a7708bc2,2025_03_13,38.988,-9.424,Ribeira D'Ilhas,3,2.63,3,15,15,"CLEAR,CLEAR","Cross-shore,Offshore",2
5842041f4e65fad6a7708bc3,2025_03_13,39.34167968424256,-9.36331,Supertubos,3,2.625,3.0549999999999997,15,15,"CLEAR,CLEAR","Offshore,Cross-shore",2
5842041f4e65fad6a7708bc4,2025_03_13,39.001,-9.4284,Coxos,3.5,2.283915,2.6199399999999997,15,15,"CLEAR,CLEAR","Cross-shore,Cross-shore",2
5842041f4e65fad6a7708bc5,2025_03_13,40.13063921100635,-8.87044,Cabedelo,3,2.17592,2.56922,14,14,"BRIEF_SHOWERS,CLEAR","Offshore,Cross-shore",2
5842041f4e65fad6a7708bc6,2025_03_13,39.37397686060677,-9.33235,Baleal,3,0.64,0.9450000000000001,15,15,"CLEAR,CLEAR","Cross-shore,Onshore",2
5842041f4e65fad6a7708bc7,2025_03_13,31.80902927937703,-116.8081979700041,Todos Santos / Killers,NA,1.67,1.9649999999999999,14.5,14.5,"NIGHT_MOSTLY_CLOUDY,NIGHT_MOSTLY_CLOUDY","Offshore,Offshore",2
5842041f4e65fad6a7708bc8,2025_03_13,43.68220203786759,-1.44167,Les Culs Nus,2.5,0.522845,0.85507,13,13,"BRIEF_SHOWERS_POSSIBLE,BRIEF_SHOWERS","Offshore,Onshore",2
5842041f4e65fad6a7708bc9,2025_03_13,31.90016519474307,-116.73117,San Miguel,1,0.855,1.155,14.5,14.5,"NIGHT_MOSTLY_CLOUDY,NIGHT_MOSTLY_CLOUDY","Onshore,Onshore",2
5842041f4e65fad6a7708bca,2025_03_13,43.48469485823068,-1.56023,Biarritz,3,0.44353,0.750975,13,13,"LIGHT_SHOWERS,CLEAR","Offshore,Offshore",2
5842041f4e65fad6a7708bcb,2025_03_13,39.0132,-9.424,Sao Lourenco,3,2.26458,2.59536,15,15,"CLEAR,CLEAR","Cross-shore,Cross-shore",2
