_id,date,lat,lon,name,daily_mean_swell_rating,daily_mean_wave_height_min,daily_mean_wave_height_max,daily_mean_water_temperature_max,daily_mean_water_temperature_min,weather_per_timestamp,wind_per_timestamp,n_samples_per_day
5842041f4e65fad6a77087f9,2025_06_12,37.741668,-122.51038,South Ocean Beach,1,0.84626,1.09395,12,12,"NIGHT_MOSTLY_CLOUDY,MIST","Onshore,Onshore",2
5842041f4e65fad6a7708801,2025_06_12,37.49142,-122.50428,Maverick's,NA,1.02,1.32,14,14,"NIGHT_BRIEF_SHOWERS,MIST","Offshore,Offshore",2
5842041f4e65fad6a7708804,2025_06_12,44.997,-124.018,Roads End,3,1.425,1.725,15,15,"NIGHT_CLEAR,MIST","Cross-shore,Cross-shore",2
5842041f4e65fad6a7708805,2025_06_12,36.95188851423011,-122.02522,Steamer Lane,3,0.9127449999999999,1.192725,14,14,"NIGHT_CLEAR,MOSTLY_CLEAR","Onshore,Onshore",2
5842041f4e65fad6a7708806,2025_06_12,36.95918781542251,-122.02489,Cowells,1,0,0.19284,14.5,14.5,"NIGHT_CLEAR,MOSTLY_CLEAR","Offshore,Offshore",2
5842041f4e65fad6a7708807,2025_06_12,36.95468082526536,-121.97234,Pleasure Point,3,0.8692249999999999,1.12125,14.5,14.5,"NIGHT_MOSTLY_CLEAR,MOSTLY_CLEAR","Onshore,Onshore",2
5842041f4e65fad6a770880a,2025_06_12,35.37815414378748,-120.86589,Morro Bay,3,1.02,1.27,12,12,"NIGHT_MOSTLY_CLOUDY,MIST","Offshore,Cross-shore",2
5842041f4e65fad6a770880b,2025_06_12,36.95782765000708,-121.96729,Jack's,2,0.264405,0.547365,14.5,14.5,"NIGHT_MOSTLY_CLEAR,MOSTLY_CLEAR","Onshore,Onshore",2
5842041f4e65fad6a770880d,2025_06_12,34.29982939936656,-119.3489016603669,Gold Coast Beachbreaks,2,0.29000000000000004,0.6000000000000001,17.5,17.5,"NIGHT_MIST,MOSTLY_CLEAR","Cross-shore,Onshore",2
5842041f4e65fad6a7708811,2025_06_12,34.245076,-119.26799,Ventura Harbor,2.916666666666667,0.7321,1.0580699999999998,16,16,"NIGHT_MOSTLY_CLEAR,MOSTLY_CLOUDY","Onshore,Cross-shore",2
5842041f4e65fad6a7708813,2025_06_12,34.051,-118.964,County Line,3,0.655985,0.986685,16,16,"NIGHT_CLEAR,MOSTLY_CLEAR","Cross-shore,Cross-shore",2
5842041f4e65fad6a7708814,2025_06_12,34.37256264378892,-119.47797,Rincon,2,0.08499999999999999,0.39,17.5,17.5,"NIGHT_CLEAR,MIST","Onshore,Onshore",2
5842041f4e65fad6a7708817,2025_06_12,34.03096101876324,-118.68109,Malibu Third Point,3,0.698885,1.029655,18.5,18.5,"NIGHT_MOSTLY_CLEAR,MIST","Onshore,Onshore",2
5842041f4e65fad6a7708819,2025_06_12,33.984079047970035,-118.47382,Venice Beach,3,0.7250099999999999,1.03428,18.5,18.5,"NIGHT_MOSTLY_CLOUDY,MIST","Onshore,Onshore",2
5842041f4e65fad6a770881e,2025_06_12,34.037508438646746,-118.5834,Topanga Beach,3,0.602345,0.927505,18.5,18.5,"NIGHT_MOSTLY_CLEAR,MOSTLY_CLEAR","Cross-shore,Cross-shore",2
5842041f4e65fad6a7708820,2025_06_12,33.73954373690184,-118.11414,Seal Beach Jetty,2,0.19743500000000003,0.55165,19,19,"NIGHT_MOSTLY_CLEAR,OVERCAST","Onshore,Offshore",2
5842041f4e65fad6a7708822,2025_06_12,33.72309983348433,-118.08078,Anderson Street,3,0.612,0.8865000000000001,19,19,"NIGHT_MOSTLY_CLOUDY,OVERCAST","Onshore,Offshore",2
5842041f4e65fad6a7708827,2025_06_12,33.65574085629463,-118.00397,Huntington Beach Pier Northside,3,0.76759,1.111875,19,19,"NIGHT_MOSTLY_CLOUDY,OVERCAST","Cross-shore,Cross-shore",2
5842041f4e65fad6a7708828,2025_06_12,34.272041739333,-119.29976,C St.,3,0.5127200000000001,0.8105800000000001,18,18,"NIGHT_MIST,MOSTLY_CLOUDY","Cross-shore,Offshore",2
5842041f4e65fad6a770882a,2025_06_12,33.61555743705257,-117.93676,Newport Lower Jetties,3,0.69664,1.0449600000000001,19,19,"NIGHT_MOSTLY_CLOUDY,OVERCAST","Onshore,Cross-shore",2
5842041f4e65fad6a770882b,2025_06_12,33.5930302087,-117.88199,The Wedge,3,1.173905,1.40245,19,19,"NIGHT_MOSTLY_CLOUDY,OVERCAST","Onshore,Onshore",2
5842041f4e65fad6a770882e,2025_06_12,33.475793399792984,-117.72291,Salt Creek,3,0.847675,1.1994349999999998,17,17,"NIGHT_MOSTLY_CLOUDY,MIST","Onshore,Onshore",2
5842041f4e65fad6a7708830,2025_06_12,33.41800974113613,-117.61952,T-Street,3,0.775975,1.1265999999999998,19,19,"NIGHT_MIST,MIST","Onshore,Onshore",2
5842041f4e65fad6a7708832,2025_06_12,33.202391008646,-117.39475,Oceanside Harbor,2.583333333333333,0.81804,1.19373,17,17,"NIGHT_CLOUDY,MIST","Onshore,Onshore",2
5842041f4e65fad6a7708835,2025_06_12,33.19477795952803,-117.38667,Oceanside Pier,3,0.735085,1.102625,19,19,"NIGHT_MOSTLY_CLOUDY,OVERCAST","Onshore,Onshore",2
5842041f4e65fad6a7708837,2025_06_12,33.14948100706,-117.35029,Tamarack,3,0.71,1.02,19,19,"NIGHT_MOSTLY_CLOUDY,MIST","Onshore,Onshore",2
5842041f4e65fad6a7708839,2025_06_12,32.865777159358856,-117.25614,Scripps,3,0.806265,1.12877,19,19,"NIGHT_MIST,MIST","Onshore,Onshore",2
5842041f4e65fad6a770883a,2025_06_12,32.813094,-117.27381,Birdrock,3,0.70478,1.03296,19,19,"NIGHT_OVERCAST,OVERCAST","Cross-shore,Onshore",2
5842041f4e65fad6a770883b,2025_06_12,32.88338,-117.25571,Blacks,3,1.06402,1.27244,17,17,"NIGHT_MIST,MIST","Onshore,Onshore",2
5842041f4e65fad6a770883c,2025_06_12,32.82978974229765,-117.28162,Windansea,3,0.885885,1.27542,17,17,"NIGHT_MOSTLY_CLOUDY,OVERCAST","Onshore,Onshore",2
5842041f4e65fad6a770883d,2025_06_12,32.838278,-117.28396,Horseshoe,3,0.946,1.2815,19,19,"NIGHT_MOSTLY_CLOUDY,OVERCAST","Onshore,Onshore",2
5842041f4e65fad6a770883f,2025_06_12,32.75034717673179,-117.25337,Ocean Beach,3,1.0108300000000001,1.2097699999999998,17,17,"NIGHT_MIST,MIST","Onshore,Onshore",2
5842041f4e65fad6a7708840,2025_06_12,32.73693,-117.25718,Sunset Cliffs,2,0.72025,1.0427499999999998,19,19,"NIGHT_MIST,MIST","Onshore,Onshore",2
5842041f4e65fad6a7708841,2025_06_12,32.796582258728826,-117.25779,Pacific Beach,3,0.9659,1.15086,19,19,"NIGHT_MIST,MIST","Onshore,Onshore",2
5842041f4e65fad6a7708842,2025_06_12,32.776636,-117.25514,Mission Beach,3,0.72062,1.04148,19,19,"NIGHT_MIST,MIST","Onshore,Onshore",2
5842041f4e65fad6a7708844,2025_06_12,32.577195519016,-117.13475,Imperial Beach Pier,3,0.9450000000000001,1.13,19,19,"NIGHT_MIST,MIST","Onshore,Onshore",2
5842041f4e65fad6a770884a,2025_06_12,42.88678181061,-70.80843,Seabrook,1,0.089395,0.45889,13.5,13,"NIGHT_CLEAR,CLEAR","Cross-shore,Offshore",2
5842041f4e65fad6a770884e,2025_06_12,41.434181432898335,-71.45312,Narragansett,1,0.245,0.5549999999999999,16,15,"NIGHT_CLEAR,CLEAR","Cross-shore,Cross-shore",2
5842041f4e65fad6a7708850,2025_06_12,40.582703230722,-73.65247,Lincoln Blvd,1.5,0.383085,0.6855150000000001,17,16,"NIGHT_CLEAR,CLEAR","Cross-shore,Offshore",2
5842041f4e65fad6a7708852,2025_06_12,40.58342841721757,-73.81182,Rockaways,1.8333333333333333,0.37184,0.6905600000000001,17,16,"NIGHT_CLEAR,CLEAR","Onshore,Onshore",2
5842041f4e65fad6a7708853,2025_06_12,40.330474,-73.9734,Monmouth Beach,1.8333333333333333,0.327465,0.6011,17,16,"NIGHT_CLEAR,CLEAR","Offshore,Offshore",2
5842041f4e65fad6a7708856,2025_06_12,40.113,-74.028,Manasquan Inlet,1.8333333333333333,0.234775,0.56026,17,16,"NIGHT_CLEAR,CLEAR","Offshore,Offshore",2
5842041f4e65fad6a7708857,2025_06_12,39.941519877445664,-74.06829,Casino Pier,1.8333333333333333,0.281815,0.639965,17,16,"NIGHT_CLEAR,CLEAR","Offshore,Offshore",2
5842041f4e65fad6a7708858,2025_06_12,39.28223089949212,-74.55766,North End OC,1.8333333333333333,0.237935,0.5534600000000001,18,17,"NIGHT_CLEAR,CLEAR","Cross-shore,Onshore",2
5842041f4e65fad6a770885b,2025_06_12,39.65080599934257,-74.17146,Ship Bottom,1.1666666666666667,0.27,0.575,18,17,"NIGHT_CLEAR,CLEAR","Cross-shore,Cross-shore",2
5842041f4e65fad6a7708863,2025_06_12,36.034151543144,-75.66791,Third Street,1.5,0.00588,0.36441,19,18,"NIGHT_MIST,CLEAR","Offshore,Offshore",2
5842041f4e65fad6a7708867,2025_06_12,35.605833221351425,-75.46303,S-Turns,1.25,0.26226000000000005,0.60822,23,23,"NIGHT_MOSTLY_CLOUDY,CLEAR","Offshore,Offshore",2
5842041f4e65fad6a770886d,2025_06_12,38.338461,-75.08117,Ocean City Boardwalk,2,0.19055,0.518715,20,18.5,"NIGHT_MIST,MIST","Cross-shore,Offshore",2
5842041f4e65fad6a770886f,2025_06_12,29.844757212379562,-81.26136,A St.,1,0.24,0.55,27,27,"NIGHT_CLEAR,MOSTLY_CLOUDY","Onshore,Cross-shore",2
5842041f4e65fad6a7708871,2025_06_12,29.069417851135093,-80.90824,New Smyrna Beach,1.5,0.523865,0.87503,26,25,"NIGHT_CLEAR,CLEAR","Cross-shore,Cross-shore",2
5842041f4e65fad6a7708872,2025_06_12,28.367707417566,-80.60171,Cocoa Beach Pier,1.25,0.222045,0.54454,22,22,"NIGHT_MIST,CLEAR","Onshore,Onshore",2
5842041f4e65fad6a7708873,2025_06_12,28.091782738658846,-80.56479,Indialantic,1.25,0.215625,0.552885,23,23,"NIGHT_CLEAR,CLEAR","Onshore,Cross-shore",2
5842041f4e65fad6a7708876,2025_06_12,27.25392904143517,-80.19455,Jensen Beach,0.75,0.108445,0.444615,27,26,"NIGHT_MOSTLY_CLOUDY,MIST","Onshore,Cross-shore",2
5842041f4e65fad6a7708879,2025_06_12,26.76346795333825,-80.03607,Reef Road,0.75,0.16499999999999998,0.47,28,27,"NIGHT_CLEAR,CLEAR","Onshore,Onshore",2
5842041f4e65fad6a770887c,2025_06_12,26.336499228484,-80.06956100463,Boca Raton Inlet,0.75,0.171405,0.36313,28,27,"NIGHT_CLEAR,CLEAR","Onshore,Onshore",2
5842041f4e65fad6a770887d,2025_06_12,26.31719311695038,-80.07453,Deerfield Beach Pier,0.75,0.17769000000000001,0.36941999999999997,28,27,"NIGHT_CLEAR,CLEAR","Onshore,Onshore",2
5842041f4e65fad6a7708881,2025_06_12,30.20276320866628,-85.85626528676136,"Spyglass Dr., Panama City",0.75,0,0.17679,27,27,"NIGHT_CLEAR,LIGHT_SHOWERS_POSSIBLE","Cross-shore,Cross-shore",2
5842041f4e65fad6a7708884,2025_06_12,33.39000832738053,-117.59852,Cottons,3,1.0991499999999998,1.313195,17,17,"NIGHT_CLEAR,MIST","Onshore,Onshore",2
5842041f4e65fad6a7708885,2025_06_12,33.359416282661,-117.54168,Trails,3,0.73,1.0920800000000002,19,19,"NIGHT_MOSTLY_CLOUDY,MIST","Onshore,Cross-shore",2
5842041f4e65fad6a7708886,2025_06_12,33.38042605929805,-117.58332,Middles,3,0.9660949999999999,1.24956,19,19,"NIGHT_CLEAR,MIST","Onshore,Onshore",2
5842041f4e65fad6a7708887,2025_06_12,33.38445596302903,-117.59445,Upper Trestles,3,1.1043150000000002,1.32063,17,17,"NIGHT_CLEAR,MIST","Onshore,Onshore",2
5842041f4e65fad6a7708889,2025_06_12,28.944414,-95.28883,Surfside,1,0.958475,1.30914,29,29,"NIGHT_CLOUDY,CLEAR","Onshore,Onshore",2
5842041f4e65fad6a770888a,2025_06_12,33.38143999849023,-117.58843,Lower Trestles,3,1.1280700000000001,1.40718,17,17,"NIGHT_CLEAR,MIST","Cross-shore,Onshore",2
5842041f4e65fad6a770888b,2025_06_12,33.379622288757,-117.57894,Church,3,1.063625,1.3757,17,17,"NIGHT_CLEAR,MIST","Onshore,Onshore",2
5842041f4e65fad6a770888d,2025_06_12,21.679,-158.042,Sunset Beach,3,0.47208000000000006,0.80095,26,25,"NIGHT_CLEAR,NIGHT_MOSTLY_CLEAR","Offshore,Offshore",2
5842041f4e65fad6a770888e,2025_06_12,21.670550036401,-158.0482,Rocky Point,3,0.427725,0.749835,26,25,"NIGHT_CLEAR,NIGHT_CLEAR","Offshore,Cross-shore",2
5842041f4e65fad6a770888f,2025_06_12,21.668,-158.05,Chambers,3,0.5607,0.8811,25,25,"NIGHT_CLEAR,NIGHT_CLEAR","Offshore,Cross-shore",2
5842041f4e65fad6a7708890,2025_06_12,21.66522,-158.0526,Pipeline,1,0.29000000000000004,0.595,26,25,"NIGHT_CLEAR,NIGHT_CLEAR","Offshore,Cross-shore",2
5842041f4e65fad6a7708891,2025_06_12,21.665,-158.054,Backdoor,2.5,0.283285,0.614675,26,25,"NIGHT_CLEAR,NIGHT_CLEAR","Offshore,Cross-shore",2
5842041f4e65fad6a7708892,2025_06_12,21.662,-158.057,Rockpile,3,0.5285,0.85617,25,25,"NIGHT_CLEAR,NIGHT_CLEAR","Offshore,Cross-shore",2
5842041f4e65fad6a7708893,2025_06_12,21.65870453806827,-158.06058,Log Cabins,2,0.46992,0.78672,25,25,"NIGHT_CLEAR,NIGHT_CLEAR","Offshore,Cross-shore",2
5842041f4e65fad6a7708894,2025_06_12,21.66203493640557,-158.05495,Off The Wall,2.5,0.40049999999999997,0.73158,25,25,"NIGHT_CLEAR,NIGHT_CLEAR","Offshore,Cross-shore",2
5842041f4e65fad6a7708895,2025_06_12,21.643,-158.067,Waimea Bay,NA,0.315,0.62,26,25,"NIGHT_CLEAR,NIGHT_CLEAR","Offshore,Offshore",2
5842041f4e65fad6a7708896,2025_06_12,21.622,-158.087,Hultin's,1.5,0.23807999999999999,0.5356799999999999,26,25,"NIGHT_CLEAR,NIGHT_CLEAR","Offshore,Offshore",2
5842041f4e65fad6a7708897,2025_06_12,21.623,-158.085,Jocko's,2,0.461745,0.759645,25.5,25.5,"NIGHT_CLEAR,NIGHT_CLEAR","Cross-shore,Cross-shore",2
5842041f4e65fad6a7708898,2025_06_12,21.62,-158.088,Laniakea,2.5,0.5666,0.889615,26,25,"NIGHT_CLEAR,NIGHT_CLEAR","Offshore,Offshore",2
5842041f4e65fad6a7708899,2025_06_12,21.625,-158.083,Chun's,2,0.537075,0.843975,25,25,"NIGHT_CLEAR,NIGHT_CLEAR","Offshore,Offshore",2
5842041f4e65fad6a770889c,2025_06_12,21.286357895152136,-157.8515,Ala Moana Beach Park,2.5,0.4824,0.804,26,26,"NIGHT_FOG,NIGHT_CLEAR","Offshore,Offshore",2
5842041f4e65fad6a770889d,2025_06_12,19.606,-155.978,Banyans,2,0.37,0.675,26,25,"NIGHT_MOSTLY_CLEAR,NIGHT_FOG","Cross-shore,Cross-shore",2
5842041f4e65fad6a770889e,2025_06_12,20.029,-155.831,Kawaihae,2,0.4444,0.72644,26,26,"NIGHT_CLEAR,NIGHT_FOG","Cross-shore,Cross-shore",2
5842041f4e65fad6a770889f,2025_06_12,33.07541383424675,-117.3105,Grandview,3,0.674725,0.970225,19,19,"NIGHT_MIST,MIST","Onshore,Onshore",2
5842041f4e65fad6a77088a0,2025_06_12,33.065267421296596,-117.30577,Beacons,3,0.62055,0.920975,19,19,"NIGHT_MIST,MIST","Onshore,Onshore",2
5842041f4e65fad6a77088a2,2025_06_12,21.252,-157.805,Diamond Head,3,0.61286,0.92762,26,25,"NIGHT_CLEAR,NIGHT_MOSTLY_CLEAR","Cross-shore,Cross-shore",2
5842041f4e65fad6a77088a3,2025_06_12,33.04694255008896,-117.29966,Moonlight State Beach,3,0.6262,0.9393,19,19,"NIGHT_MIST,MIST","Onshore,Onshore",2
5842041f4e65fad6a77088a5,2025_06_12,33.08685865930869,-117.31532,Ponto,3,0.8,1.04,19,19,"NIGHT_MIST,MIST","Onshore,Onshore",2
5842041f4e65fad6a77088a6,2025_06_12,33.130343587871906,-117.33668,Terra Mar Point,2.5,0.56,0.86,17,17,"NIGHT_MOSTLY_CLOUDY,OVERCAST","Onshore,Cross-shore",2
5842041f4e65fad6a77088af,2025_06_12,32.95916304183685,-117.26963,Del Mar,3,0.861145,1.1957300000000002,19,19,"NIGHT_MIST,MIST","Onshore,Onshore",2
5842041f4e65fad6a77088b0,2025_06_12,32.97527261243354,-117.2721061331305,Del Mar Rivermouth,3,0.77964,1.10538,19,19,"NIGHT_MIST,MIST","Onshore,Onshore",2
5842041f4e65fad6a77088b1,2025_06_12,33.01352178146273,-117.28219,Cardiff Reef,3,0.814005,1.1428449999999999,19,19,"NIGHT_MIST,MIST","Onshore,Onshore",2
5842041f4e65fad6a77088b3,2025_06_12,33.00211185876003,-117.2811,Seaside Reef,3,0.72387,1.0638649999999998,19,19,"NIGHT_MIST,MIST","Onshore,Onshore",2
5842041f4e65fad6a77088b4,2025_06_12,33.0341859796287,-117.29552,Swami's,2.916666666666667,0.689215,0.984595,17,17,"NIGHT_MIST,MIST","Onshore,Onshore",2
5842041f4e65fad6a77088b7,2025_06_12,33.04569760260221,-117.2994,D Street,3,0.63125,0.9393,19,19,"NIGHT_MIST,MIST","Onshore,Onshore",2
5842041f4e65fad6a77088b8,2025_06_12,33.02090944350196,-117.28535,San Elijo State Beach,3,0.598,0.9152,19,19,"NIGHT_MIST,MIST","Onshore,Onshore",2
5842041f4e65fad6a77088c2,2025_06_12,32.80662846492798,-117.26888,PB Point,2.5,0.67662,1.00419,19,19,"NIGHT_OVERCAST,OVERCAST","Cross-shore,Cross-shore",2
5842041f4e65fad6a77088c4,2025_06_12,32.8060476681448,-117.26479,Old Man's at Tourmaline,2.5,0.665795,0.94397,19,19,"NIGHT_OVERCAST,OVERCAST","Cross-shore,Cross-shore",2
5842041f4e65fad6a77088cb,2025_06_12,32.557056711256,-117.1327445020322,Tijuana Slough,3,0.615,0.925,19,19,"NIGHT_MOSTLY_CLOUDY,MIST","Onshore,Onshore",2
5842041f4e65fad6a77088cc,2025_06_12,32.863,-117.257,La Jolla Shores,3,0.684375,1.0183499999999999,19,19,"NIGHT_MIST,MIST","Onshore,Onshore",2
5842041f4e65fad6a77088ce,2025_06_12,32.67443657790586,-117.17421,Coronado Beach,3,0.895,1.0750000000000002,19,19,"NIGHT_MOSTLY_CLOUDY,OVERCAST","Cross-shore,Cross-shore",2
5842041f4e65fad6a77088cf,2025_06_12,33.40484417640326,-117.60749,San Clemente State Beach,3,0.60738,0.95691,19,19,"NIGHT_MOSTLY_CLOUDY,MIST","Onshore,Onshore",2
5842041f4e65fad6a77088d5,2025_06_12,33.4663042002114,-117.71684,Strands,3,0.79288,1.15434,17,17,"NIGHT_MOSTLY_CLOUDY,MIST","Onshore,Onshore",2
5842041f4e65fad6a77088d7,2025_06_12,33.4609858001748,-117.68535,Doheny State Beach,3,0.28922,0.643365,19,19,"NIGHT_MOSTLY_CLOUDY,MOSTLY_CLOUDY","Offshore,Cross-shore",2
5842041f4e65fad6a77088dc,2025_06_12,33.50894790083017,-117.75243,Aliso Creek,3,0.755215,1.1068799999999999,19,19,"NIGHT_MOSTLY_CLOUDY,OVERCAST","Onshore,Onshore",2
5842041f4e65fad6a77088dd,2025_06_12,33.5326591767067,-117.77764,Brooks Street,3,0.485,0.79,19,19,"NIGHT_MOSTLY_CLOUDY,MOSTLY_CLOUDY","Onshore,Onshore",2
5842041f4e65fad6a77088de,2025_06_12,33.53561225884637,-117.7799,Thalia Street,3,0.45499999999999996,0.76,19,19,"NIGHT_MOSTLY_CLOUDY,MOSTLY_CLOUDY","Onshore,Onshore",2
5842041f4e65fad6a77088e3,2025_06_12,33.54268310353641,-117.7916,Rockpile,3,0.485,0.79,19,19,"NIGHT_MOSTLY_CLOUDY,MOSTLY_CLOUDY","Onshore,Onshore",2
5842041f4e65fad6a77088e4,2025_06_12,33.7368459504689,-118.10342,"Seal Beach Pier, Southside",3,0.505,0.81,19,19,"NIGHT_MIST,CLOUDY","Onshore,Cross-shore",2
5842041f4e65fad6a77088e5,2025_06_12,33.73933701820233,-118.117,Ray Bay,3,0.525,0.835,19,19,"NIGHT_MOSTLY_CLEAR,OVERCAST","Onshore,Cross-shore",2
5842041f4e65fad6a77088e7,2025_06_12,33.728733,-118.08982,Surfside,3,0.6799999999999999,0.985,19,19,"NIGHT_MOSTLY_CLOUDY,OVERCAST","Onshore,Cross-shore",2
5842041f4e65fad6a77088e8,2025_06_12,33.68760321488161,-118.04236,Bolsa Chica State Beach,3,0.67525,0.978125,19,19,"NIGHT_MOSTLY_CLOUDY,OVERCAST","Onshore,Cross-shore",2
5842041f4e65fad6a77088ea,2025_06_12,33.66704400178788,-118.0192,North HB Streets,3,0.8578250000000001,1.1157,19,19,"NIGHT_MOSTLY_CLOUDY,OVERCAST","Cross-shore,Cross-shore",2
5842041f4e65fad6a77088ed,2025_06_12,33.65475101379567,-118.00291,Huntington Beach Pier Southside,3,1.055805,1.36002,17,17,"NIGHT_MOSTLY_CLOUDY,OVERCAST","Cross-shore,Offshore",2
5842041f4e65fad6a77088ee,2025_06_12,33.62778647706099,-117.95939,River Jetties,3,0.8428,1.17664,17,17,"NIGHT_MOSTLY_CLOUDY,OVERCAST","Cross-shore,Offshore",2
5842041f4e65fad6a77088f2,2025_06_12,33.605165797643664,-117.925,Newport Point,2,0.43836,0.7867999999999999,19,19,"NIGHT_MOSTLY_CLOUDY,OVERCAST","Onshore,Cross-shore",2
5842041f4e65fad6a77088f3,2025_06_12,33.58982984726977,-117.87713,Corona del Mar,3,0.587035,0.8987350000000001,19,19,"NIGHT_MOSTLY_CLOUDY,MIST","Onshore,Onshore",2
5842041f4e65fad6a77088f7,2025_06_12,34.00750300824362,-118.49718,Santa Monica Pier,2.5,0.47658,0.79092,18.5,18.5,"NIGHT_MOSTLY_CLEAR,MOSTLY_CLOUDY","Onshore,Onshore",2
5842041f4e65fad6a77088ff,2025_06_12,33.94070283102945,-118.44321,Dockweiler Beach,3,0.71446,1.028,16,16,"NIGHT_MIST,MOSTLY_CLOUDY","Onshore,Onshore",2
5842041f4e65fad6a7708900,2025_06_12,33.9231846937237,-118.4341465777908,Shitpipe,2.5,0.9611799999999999,1.15136,16,16,"NIGHT_MOSTLY_CLOUDY,MOSTLY_CLOUDY","Onshore,Onshore",2
5842041f4e65fad6a7708902,2025_06_12,33.9108528052242,-118.4279133138721,Hammerland,3,0.94996,1.13792,17,17,"NIGHT_MOSTLY_CLOUDY,MOSTLY_CLOUDY","Onshore,Onshore",2
5842041f4e65fad6a7708904,2025_06_12,33.87201368173932,-118.40752,Hermosa Beach,3,0.72065,1.0353,18.5,18.5,"NIGHT_MOSTLY_CLOUDY,MOSTLY_CLOUDY","Onshore,Offshore",2
5842041f4e65fad6a7708906,2025_06_12,33.90129336911256,-118.42184,El Porto,3,0.8944500000000001,1.151475,17,17,"NIGHT_MOSTLY_CLOUDY,MOSTLY_CLOUDY","Onshore,Onshore",2
5842041f4e65fad6a7708907,2025_06_12,33.87963506431794,-118.41102,Manhattan Beach Pier,3,0.9735050000000001,1.2206700000000001,18.5,18.5,"NIGHT_MOSTLY_CLOUDY,MOSTLY_CLOUDY","Onshore,Onshore",2
5842041f4e65fad6a7708914,2025_06_12,34.038053387863464,-118.5532,Sunset Point,3,0.3731,0.70356,18.5,18.5,"NIGHT_MOSTLY_CLEAR,MOSTLY_CLEAR","Cross-shore,Offshore",2
5842041f4e65fad6a7708920,2025_06_12,33.80282,-118.39989,Haggerty's,2.5,0.5025,0.7517400000000001,18.5,18.5,"NIGHT_MOSTLY_CLOUDY,MOSTLY_CLOUDY","Cross-shore,Offshore",2
5842041f4e65fad6a7708921,2025_06_12,33.85044519861206,-118.40048,Redondo Breakwater,3,0.69048,0.99288,18.5,18.5,"NIGHT_MOSTLY_CLOUDY,MOSTLY_CLOUDY","Onshore,Offshore",2
5842041f4e65fad6a7708927,2025_06_12,33.70877301002487,-118.2840112858389,Cabrillo Beach,2.5,0.425,0.73,18.5,18.5,"NIGHT_CLEAR,MOSTLY_CLOUDY","Onshore,Offshore",2
5842041f4e65fad6a770892c,2025_06_12,33.77209986806257,-118.4268428476672,Lunada Bay,2,0.7949999999999999,1.04,18.5,18.5,"NIGHT_MIST,MOSTLY_CLOUDY","Onshore,Cross-shore",2
5842041f4e65fad6a770892d,2025_06_12,33.79294656286144,-118.40703,PV Cove,3,0.628125,0.939675,18.5,18.5,"NIGHT_MOSTLY_CLOUDY,MOSTLY_CLOUDY","Cross-shore,Offshore",2
5842041f4e65fad6a7708930,2025_06_12,34.03944902292561,-118.57539,Chart House,2,0.13324999999999998,0.45305,18.5,18.5,"NIGHT_MOSTLY_CLEAR,MOSTLY_CLEAR","Onshore,Offshore",2
5842041f4e65fad6a7708936,2025_06_12,34.0016731994772,-118.80456,Point Dume,2.916666666666667,0.374195,0.71488,17,17,"NIGHT_CLEAR,CLEAR","Onshore,Onshore",2
5842041f4e65fad6a7708937,2025_06_12,34.02587527588963,-118.7554939066114,Latigo Point,3,0.515,0.8200000000000001,18,18,"NIGHT_MOSTLY_CLEAR,MOSTLY_CLEAR","Onshore,Offshore",2
5842041f4e65fad6a770893f,2025_06_12,34.043762,-118.93294,Leo Carrillo,3,0.72628,1.0623200000000002,16,16,"NIGHT_MOSTLY_CLEAR,MIST","Onshore,Onshore",2
5842041f4e65fad6a7708941,2025_06_12,36.69388179265737,-121.81289,Marina State Beach,2,0.78,1.085,15,15,"NIGHT_MOSTLY_CLOUDY,MIST","Onshore,Onshore",2
5842041f4e65fad6a7708944,2025_06_12,34.34145077331085,-119.416999352654,Stanley's,2,0.135,0.43999999999999995,17.5,17.5,"NIGHT_MIST,MOSTLY_CLEAR","Cross-shore,Cross-shore",2
5842041f4e65fad6a7708945,2025_06_12,34.35113017313915,-119.426921498899,Oil Piers,2,0.135,0.43999999999999995,17.5,17.5,"NIGHT_MIST,MOSTLY_CLEAR","Offshore,Offshore",2
5842041f4e65fad6a770894c,2025_06_12,34.17876333306018,-119.23995,Oxnard,3,0.8,1.0350000000000001,18,18,"NIGHT_MOSTLY_CLEAR,MOSTLY_CLOUDY","Onshore,Cross-shore",2
5842041f4e65fad6a7708957,2025_06_12,34.31720331100517,-119.3882324751725,Pitas Point,2.5,0.28500000000000003,0.5900000000000001,17.5,17.5,"NIGHT_MIST,MOSTLY_CLEAR","Cross-shore,Onshore",2
5842041f4e65fad6a7708959,2025_06_12,34.27851754384724,-119.3162,Emma Wood,3,0.46314,0.76692,18,18,"NIGHT_MIST,MOSTLY_CLEAR","Offshore,Offshore",2
5842041f4e65fad6a770895a,2025_06_12,34.35513640390276,-119.4400589884255,Mussel Shoals (aka Little Rincon),2,0.16,0.47,17.5,17.5,"NIGHT_MIST,MOSTLY_CLEAR","Offshore,Offshore",2
5842041f4e65fad6a770895e,2025_06_12,34.28991757054902,-119.3366646794652,Summer Beach,2.5,0.28884,0.5976,17.5,17.5,"NIGHT_MIST,MOSTLY_CLEAR","Offshore,Offshore",2
5842041f4e65fad6a770895f,2025_06_12,34.30897456105926,-119.3582501170116,Solimar,2.5,0.29000000000000004,0.6000000000000001,17.5,17.5,"NIGHT_MIST,MOSTLY_CLEAR","Cross-shore,Onshore",2
5842041f4e65fad6a7708960,2025_06_12,34.3984,-119.70207,Leadbetter Point,1,0,0.2,17,17,"NIGHT_CLEAR,MIST","Onshore,Cross-shore",2
5842041f4e65fad6a7708961,2025_06_12,34.46052293893899,-120.07328,Refugio,2,0.13,0.44,16.5,16.5,"NIGHT_CLEAR,CLEAR","Offshore,Offshore",2
5842041f4e65fad6a7708962,2025_06_12,34.40754276777778,-119.87639,Devereux,2,0.14500000000000002,0.44999999999999996,17,17,"NIGHT_CLEAR,MIST","Onshore,Cross-shore",2
5842041f4e65fad6a7708963,2025_06_12,34.27479983305182,-119.3133222656776,Ventura Overhead,3,0.46314,0.76692,18,18,"NIGHT_MIST,MOSTLY_CLOUDY","Offshore,Offshore",2
5842041f4e65fad6a7708964,2025_06_12,34.41023236011655,-119.88261,Sands,2,0.12000000000000001,0.42500000000000004,17,17,"NIGHT_CLEAR,MIST","Cross-shore,Offshore",2
5842041f4e65fad6a7708966,2025_06_12,34.4045,-119.68747,Sandspit,1,0,0.2,17,17,"NIGHT_CLEAR,MOSTLY_CLEAR","Cross-shore,Cross-shore",2
5842041f4e65fad6a7708967,2025_06_12,34.41549098334453,-119.6375149840203,Hammond's,2,0.095,0.395,17,17,"NIGHT_BRIEF_SHOWERS,MIST","Cross-shore,Cross-shore",2
5842041f4e65fad6a7708968,2025_06_12,34.45759322742309,-120.02203,El Capitan,2,0.14,0.44,16.5,16.5,"NIGHT_MOSTLY_CLEAR,MOSTLY_CLEAR","Offshore,Offshore",2
5842041f4e65fad6a770896c,2025_06_12,34.405117655616,-119.84317,Campus Point,2,0.12000000000000001,0.42500000000000004,17,17,"NIGHT_CLEAR,MOSTLY_CLEAR","Onshore,Onshore",2
5842041f4e65fad6a770896e,2025_06_12,34.38935162233354,-119.51955,Carpinteria State Beach,2,0.22,0.52,17,17,"NIGHT_CLEAR,CLEAR","Offshore,Offshore",2
5842041f4e65fad6a770896f,2025_06_12,37.48296565175612,-122.45493,Half Moon Bay,2,0.93357,1.11848,14,14,"NIGHT_BRIEF_SHOWERS,MIST","Onshore,Onshore",2
5842041f4e65fad6a7708970,2025_06_12,37.499,-122.471,Princeton Jetty,1,0.60885,0.8839600000000001,14,14,"NIGHT_BRIEF_SHOWERS,MOSTLY_CLOUDY","Cross-shore,Cross-shore",2
5842041f4e65fad6a7708972,2025_06_12,37.35699547365155,-122.4069534707252,Tunitas Creek,2,1.5150000000000001,1.725,14.5,14.5,"NIGHT_BRIEF_SHOWERS,MIST","Cross-shore,Cross-shore",2
5842041f4e65fad6a7708974,2025_06_12,37.54735589428842,-122.51611,Montara,2,1.355,1.6549999999999998,14,14,"NIGHT_SHOWERS,SHOWERS","Onshore,Onshore",2
5842041f4e65fad6a7708975,2025_06_12,34.3869373724559,-119.5142334209018,Tarpits,2,0.23,0.54,17.5,17.5,"NIGHT_MIST,MIST","Cross-shore,Cross-shore",2
5842041f4e65fad6a7708976,2025_06_12,37.59881852720143,-122.50463,Linda Mar,2,0.35,0.655,14,14,"NIGHT_SHOWERS,SHOWERS","Onshore,Onshore",2
5842041f4e65fad6a7708978,2025_06_12,37.59883098461164,-122.5143843582282,Pedro Point,2,1.697665,2.084965,14,14,"NIGHT_MIST,MIST","Onshore,Onshore",2
5842041f4e65fad6a7708979,2025_06_12,37.61081996647663,-122.49733,Rockaway,3,1.6185,2.0149999999999997,14,14,"NIGHT_SHOWERS,SHOWERS","Onshore,Cross-shore",2
5842041f4e65fad6a770897a,2025_06_12,37.809987384424446,-122.47514,Fort Point,1,0.6699999999999999,0.975,14,14,"NIGHT_MOSTLY_CLOUDY,MIST","Cross-shore,Cross-shore",2
5842041f4e65fad6a770897c,2025_06_12,37.63422542967464,-122.4951,Sharp Park,2.5,1.689975,2.08495,14,14,"NIGHT_BRIEF_SHOWERS,MIST","Onshore,Onshore",2
5842041f4e65fad6a770897d,2025_06_12,37.27313605072472,-122.4127387912554,Pescadero,2,1.35,1.6549999999999998,14.5,14.5,"NIGHT_MOSTLY_CLOUDY,OVERCAST","Onshore,Onshore",2
5842041f4e65fad6a770897e,2025_06_12,37.18140279972666,-122.3926685899327,Pigeon Point,3.5,1.355,1.635,14.5,14.5,"NIGHT_BRIEF_SHOWERS,MOSTLY_CLOUDY","Offshore,Offshore",2
5842041f4e65fad6a770897f,2025_06_12,37.11578956919415,-122.314699271291,Ano Nuevo,3,0.655,0.9550000000000001,14.5,14.5,"NIGHT_MOSTLY_CLOUDY,MOSTLY_CLOUDY","Offshore,Offshore",2
5842041f4e65fad6a7708980,2025_06_12,37.09520872681598,-122.2805474707768,Waddell Creek,3,1.2149999999999999,1.4500000000000002,14.5,14.5,"NIGHT_CLEAR,MOSTLY_CLOUDY","Offshore,Offshore",2
5842041f4e65fad6a7708981,2025_06_12,36.96512852130351,-122.1252825495626,Four Mile,3,0.64,0.9450000000000001,14.5,14.5,"NIGHT_CLEAR,CLEAR","Offshore,Offshore",2
5842041f4e65fad6a7708982,2025_06_12,37.04122807048655,-122.23337,Scott Creek,3,1.245,1.475,14.5,14.5,"NIGHT_CLEAR,CLEAR","Offshore,Offshore",2
5842041f4e65fad6a7708983,2025_06_12,37.02350229387179,-122.21908,Davenport,3,1.245,1.49,14.5,14.5,"NIGHT_CLEAR,MOSTLY_CLOUDY","Offshore,Offshore",2
5842041f4e65fad6a7708986,2025_06_12,36.94905295955728,-122.06118,Natural Bridges,3,1.13373,1.41075,14.5,14.5,"NIGHT_CLEAR,CLEAR","Onshore,Cross-shore",2
5842041f4e65fad6a7708987,2025_06_12,36.95154854910425,-122.04207,Mitchell's Cove,3,0.83997,1.0940349999999999,14.5,14.5,"NIGHT_CLEAR,MOSTLY_CLEAR","Onshore,Onshore",2
5842041f4e65fad6a770898a,2025_06_12,36.9572312370203,-121.98177,26th Ave,3,0.971835,1.213585,14.5,14.5,"NIGHT_MOSTLY_CLEAR,MOSTLY_CLEAR","Cross-shore,Cross-shore",2
5842041f4e65fad6a770898e,2025_06_12,36.91899972819882,-121.85536,Manresa,3,0.7,1.005,14.5,14.5,"NIGHT_MIST,MOSTLY_CLOUDY","Offshore,Cross-shore",2
5842041f4e65fad6a7708990,2025_06_12,34.45747731928454,-120.34242,The Ranch,2.5,0.47,0.775,16.5,16.5,"NIGHT_CLEAR,CLEAR","Offshore,Onshore",2
5842041f4e65fad6a7708991,2025_06_12,34.50875036590315,-120.50348,Jalama,2.5,0.865,1.115,15.5,15.5,"NIGHT_CLEAR,CLEAR","Offshore,Offshore",2
5842041f4e65fad6a7708996,2025_06_12,34.68700870220497,-120.6111611019887,Surf Beach,2,1.55,1.855,15.5,15.5,"NIGHT_MIST,MIST","Onshore,Onshore",2
5842041f4e65fad6a770899c,2025_06_12,35.5730538161116,-121.1143362345574,Moonstone,3,0.975,1.28,15,15,"NIGHT_CLEAR,MIST","Cross-shore,Offshore",2
5842041f4e65fad6a770899d,2025_06_12,35.61533716776573,-121.1502053073914,Pico Creek,3,1.2349999999999999,1.54,15,15,"NIGHT_CLEAR,CLEAR","Offshore,Offshore",2
5842041f4e65fad6a770899e,2025_06_12,35.56829031927379,-121.11207,Santa Rosa Creek,3,0.975,1.28,15,15,"NIGHT_CLEAR,CLEAR","Cross-shore,Offshore",2
5842041f4e65fad6a77089a2,2025_06_12,35.44820114936284,-120.90715,"Cayucos Pier, Southside",3,0.38,0.685,15,15,"NIGHT_MOSTLY_CLEAR,MIST","Onshore,Offshore",2
5842041f4e65fad6a77089a4,2025_06_12,35.30143372628852,-120.877819239902,Cable Landing,2,2.185,2.49,15,15,"NIGHT_MIST,MOSTLY_CLOUDY","Onshore,Onshore",2
5842041f4e65fad6a77089a9,2025_06_12,35.61269103500222,-121.14807,San Simeon,3,0.7805,0.9695,15,15,"NIGHT_MOSTLY_CLEAR,MOSTLY_CLEAR","Cross-shore,Cross-shore",2
5842041f4e65fad6a77089ab,2025_06_12,35.1775325966252,-120.73411,Avila Beach,2,0.09,0.395,15.5,15.5,"NIGHT_CLEAR,CLEAR","Offshore,Offshore",2
5842041f4e65fad6a77089ac,2025_06_12,35.13877877884115,-120.64535,Pismo Beach Pier,3,0.742155,1.052235,14,14,"NIGHT_CLEAR,CLEAR","Offshore,Offshore",2
5842041f4e65fad6a77089ad,2025_06_12,46.8907710233147,-124.12964,Westport,2.5,1.29,1.54,13,13,"NIGHT_OVERCAST,OVERCAST","Onshore,Onshore",2
5842041f4e65fad6a77089ae,2025_06_12,46.35185177248545,-124.06747,Long Beach Peninsula,2.5,1.58,1.795,14,14,"NIGHT_OVERCAST,OVERCAST","Onshore,Onshore",2
5842041f4e65fad6a77089af,2025_06_12,47.90649175554033,-124.63709,La Push,3,1.2349999999999999,1.475,13,13,"NIGHT_DRIZZLE,OVERCAST","Cross-shore,Cross-shore",2
5842041f4e65fad6a77089b0,2025_06_12,42.04368239985442,-124.26828,Brookings Jetty,3,0.64815,0.8466450000000001,12,12,"NIGHT_CLEAR,MOSTLY_CLOUDY","Cross-shore,Onshore",2
5842041f4e65fad6a77089b1,2025_06_12,42.74071837900346,-124.4983727491047,Port Orford,3,0.81,1.045,12,12,"NIGHT_CLEAR,CLEAR","Offshore,Offshore",2
5842041f4e65fad6a77089b2,2025_06_12,44.01532689312291,-124.13865,Florence South Jetty,3,1.405,1.66,12,12,"NIGHT_MIST,MOSTLY_CLOUDY","Cross-shore,Cross-shore",2
5842041f4e65fad6a77089b3,2025_06_12,42.41812540774362,-124.42945,Gold Beach South Jetty,3.5,1.1099999999999999,1.325,12,12,"NIGHT_CLEAR,CLEAR","Offshore,Offshore",2
5842041f4e65fad6a77089b4,2025_06_12,44.95857310226525,-124.0219,Lincoln City,3,1.3250000000000002,1.63,15,15,"NIGHT_MOSTLY_CLOUDY,MOSTLY_CLOUDY","Cross-shore,Cross-shore",2
5842041f4e65fad6a77089b5,2025_06_12,44.63792761362982,-124.0657,Newport,3,1.56,1.8,14,14,"NIGHT_MIST,MIST","Cross-shore,Cross-shore",2
5842041f4e65fad6a77089b6,2025_06_12,45.61468496266301,-123.94643,Rockaway Beach,3,1.6099999999999999,1.745,15,15,"NIGHT_LIGHT_RAIN,MOSTLY_CLOUDY","Onshore,Cross-shore",2
5842041f4e65fad6a77089b7,2025_06_12,45.20252914186085,-123.96975,Pacific City,3,0.97,1.275,15,15,"NIGHT_MOSTLY_CLOUDY,MIST","Cross-shore,Cross-shore",2
5842041f4e65fad6a77089b8,2025_06_12,45.88179930310263,-123.96681,Cannon Beach,3,1.4300000000000002,1.675,15,15,"NIGHT_FOG,MIST","Onshore,Cross-shore",2
5842041f4e65fad6a77089ba,2025_06_12,40.02528754746774,-124.06372,Shelter Cove,2,0.32767999999999997,0.503015,12.5,12.5,"NIGHT_CLEAR,CLEAR","Offshore,Offshore",2
5842041f4e65fad6a77089bb,2025_06_12,40.76816197136951,-124.24248,Humboldt Harbor Entrance,3,1.5,1.68,12,12,"NIGHT_MIST,MIST","Onshore,Onshore",2
5842041f4e65fad6a77089bc,2025_06_12,40.76684246920174,-124.23107,North Jetty,3,1.585,1.8900000000000001,12,12,"NIGHT_MIST,MIST","Onshore,Onshore",2
5842041f4e65fad6a77089be,2025_06_12,41.13016238153297,-124.16466,Sue-meg,3,1.46,1.77,12,12,"NIGHT_DRIZZLE,MIST","Onshore,Onshore",2
5842041f4e65fad6a77089bf,2025_06_12,37.8289474958188,-122.53768,Fort Cronkite/Rodeo Beach,1,0.825,1.0699999999999998,13.5,13.5,"NIGHT_MIST,MIST","Cross-shore,Cross-shore",2
5842041f4e65fad6a77089c0,2025_06_12,41.74415759876137,-124.17717,South Beach CA,3,0.8200000000000001,1.07,11.5,11.5,"NIGHT_MOSTLY_CLOUDY,MOSTLY_CLOUDY","Cross-shore,Cross-shore",2
5842041f4e65fad6a77089c1,2025_06_12,37.89801283969752,-122.64519,Stinson Beach,3,0.45,0.755,13.5,13.5,"NIGHT_CLEAR,CLEAR","Cross-shore,Offshore",2
5842041f4e65fad6a77089c2,2025_06_12,37.90514516176495,-122.68151,Bolinas,2,0.26229,0.56912,13.5,13.5,"NIGHT_MOSTLY_CLOUDY,MIST","Onshore,Offshore",2
5842041f4e65fad6a77089c3,2025_06_12,38.04892513158693,-122.98925,Point Reyes (north),1,2.1950000000000003,2.505,13,13,"NIGHT_MIST,MIST","Onshore,Onshore",2
5842041f4e65fad6a77089c6,2025_06_12,38.31088736605785,-123.0496777333731,Doran Beach,1,0.18,0.48,13,13,"NIGHT_CLEAR,MOSTLY_CLOUDY","Offshore,Offshore",2
5842041f4e65fad6a77089c7,2025_06_12,38.45077228660809,-123.13008,Russian Rivermouth,3,1.315,1.53,13,13,"NIGHT_CLEAR,CLEAR","Cross-shore,Cross-shore",2
5842041f4e65fad6a77089c8,2025_06_12,38.35329968518107,-123.06906,Salmon Creek,1.5,1.745,2.055,13,13,"NIGHT_CLEAR,CLEAR","Onshore,Onshore",2
5842041f4e65fad6a77089c9,2025_06_12,38.6845180197959,-123.4322714291198,Black Point Beach,3,0.8049999999999999,1.045,13,13,"NIGHT_CLEAR,CLEAR","Onshore,Onshore",2
5842041f4e65fad6a77089ca,2025_06_12,43.251076,-70.59144,Ogunquit,1.8333333333333333,0.35,0.65,13.5,13,"NIGHT_CLEAR,CLEAR","Cross-shore,Offshore",2
5842041f4e65fad6a77089cb,2025_06_12,41.362631366305415,-71.48007,Point Judith,2.333333333333333,0.33076,0.6847300000000001,16,15,"NIGHT_CLEAR,CLEAR","Offshore,Offshore",2
5842041f4e65fad6a77089cd,2025_06_12,41.422678090954726,-71.45413,Monahan's - Narragansett,1,0.14891,0.468,16,16,"NIGHT_CLEAR,CLEAR","Offshore,Offshore",2
5842041f4e65fad6a77089ce,2025_06_12,41.469,-71.293,Ruggles - Newport,2,0.713105,1.1481,16,16,"NIGHT_MIST,CLEAR","Onshore,Onshore",2
5842041f4e65fad6a77089cf,2025_06_12,43.175394,-70.606351,Short Sands Beach,2,0.403305,0.75985,14.5,14.5,"NIGHT_CLEAR,CLEAR","Offshore,Offshore",2
5842041f4e65fad6a77089d0,2025_06_12,41.487408,-71.29017,First Beach,1,0.17443999999999998,0.5607,16,16,"NIGHT_CLEAR,CLEAR","Onshore,Onshore",2
5842041f4e65fad6a77089d1,2025_06_12,42.27916830233153,-70.86498,Nantasket Beach,0,0,0.13623,14,13.5,"NIGHT_CLEAR,CLEAR","Offshore,Offshore",2
5842041f4e65fad6a77089d2,2025_06_12,41.817,-69.935,Cape Cod,1,0.02,0.32999999999999996,15,15,"NIGHT_CLEAR,CLEAR","Offshore,Offshore",2
5842041f4e65fad6a77089d3,2025_06_12,42.22055448975661,-70.70634873403819,Egypt Beach,0,0,0.135,15,15,"NIGHT_CLEAR,CLEAR","Offshore,Offshore",2
5842041f4e65fad6a77089d4,2025_06_12,41.48739647744607,-71.25723,Second Beach,1,0.46621,0.73706,16,15,"NIGHT_CLEAR,CLEAR","Onshore,Onshore",2
5842041f4e65fad6a77089d5,2025_06_12,42.964,-70.769,Fox Hill,1,0.122245,0.44646,13.5,13,"NIGHT_CLEAR,CLEAR","Cross-shore,Offshore",2
5842041f4e65fad6a77089d6,2025_06_12,42.991359,-70.75149,Straws Point,1,0.15000000000000002,0.45999999999999996,13.5,13,"NIGHT_CLEAR,CLEAR","Cross-shore,Offshore",2
5842041f4e65fad6a77089d7,2025_06_12,42.946,-70.786,Plaice Cove,1,0.122245,0.44646,13.5,13,"NIGHT_CLEAR,CLEAR","Cross-shore,Offshore",2
5842041f4e65fad6a77089d9,2025_06_12,42.911574,-70.80831,The Main Beach,1,0.11145,0.51791,13.5,13,"NIGHT_CLEAR,CLEAR","Onshore,Cross-shore",2
5842041f4e65fad6a77089da,2025_06_12,42.97583846220203,-70.764,Sawyer's Beach,1,0.16999999999999998,0.48,13.5,13,"NIGHT_CLEAR,CLEAR","Cross-shore,Offshore",2
5842041f4e65fad6a77089db,2025_06_12,42.97,-70.77,Rye on the Rocks / 5-0's,1.3333333333333333,0.39132,0.643135,13.5,13,"NIGHT_CLEAR,CLEAR","Cross-shore,Offshore",2
5842041f4e65fad6a77089dc,2025_06_12,43.55902946610303,-70.27795,Higgins Beach,1,0.24544,0.58572,13.5,13,"NIGHT_CLEAR,CLEAR","Onshore,Cross-shore",2
5842041f4e65fad6a77089dd,2025_06_12,43.302676,-70.5652,Wells Beach,1.8333333333333333,0.33499999999999996,0.64,13.5,13,"NIGHT_CLEAR,CLEAR","Cross-shore,Offshore",2
5842041f4e65fad6a77089de,2025_06_12,43.545359,-70.30479,Scarborough Beach State Park,1.3333333333333333,0.3942,0.80845,13.5,13,"NIGHT_CLEAR,CLEAR","Onshore,Offshore",2
5842041f4e65fad6a77089df,2025_06_12,43.514481,-70.37215,Old Orchard Beach,1,0.14,0.445,13.5,13,"NIGHT_CLEAR,CLEAR","Cross-shore,Offshore",2
5842041f4e65fad6a77089e0,2025_06_12,43.34711,-70.48165,Gooch's Beach,1,0.303805,0.57633,13.5,13,"NIGHT_MOSTLY_CLEAR,CLEAR","Onshore,Cross-shore",2
5842041f4e65fad6a77089e2,2025_06_12,40.58433,-73.62953,Lido Beach,1,0.41432,0.75586,17,16,"NIGHT_CLEAR,CLEAR","Onshore,Onshore",2
5842041f4e65fad6a77089e3,2025_06_12,43.163135,-70.61689,Long Sands Beach,1,0.19376,0.49683,13.5,13,"NIGHT_CLEAR,CLEAR","Onshore,Cross-shore",2
5842041f4e65fad6a77089e4,2025_06_12,40.61695351251805,-73.39376,Gilgo Beach,1,0.39156,0.7233,17,16,"NIGHT_CLEAR,CLEAR","Onshore,Cross-shore",2
5842041f4e65fad6a77089e5,2025_06_12,40.62530081928036,-73.23827,Robert Moses,1,0.30500000000000005,0.61,16.5,16.5,"NIGHT_CLEAR,CLEAR","Onshore,Onshore",2
5842041f4e65fad6a77089e6,2025_06_12,40.64313317632791,-73.15727,Fire Island,1,0.315,0.615,16.5,16.5,"NIGHT_CLEAR,CLEAR","Onshore,Onshore",2
5842041f4e65fad6a77089e8,2025_06_12,40.76653118828782,-72.7458,Cupsogue,1,0.685,0.99,16,16,"NIGHT_CLEAR,CLEAR","Onshore,Onshore",2
5842041f4e65fad6a77089e9,2025_06_12,42.9376373334092,-70.79141,The Wall,1,0.05190500000000001,0.40947,13.5,13,"NIGHT_CLEAR,CLEAR","Offshore,Offshore",2
5842041f4e65fad6a77089ea,2025_06_12,40.887088,-72.33856,Flys,1,0.585,0.895,16,16,"NIGHT_CLEAR,CLEAR","Onshore,Onshore",2
5842041f4e65fad6a77089eb,2025_06_12,41.0389266436591,-71.91068529316958,Trailer Park,1,0.63446,0.9134800000000001,17,16,"NIGHT_CLEAR,CLEAR","Onshore,Onshore",2
5842041f4e65fad6a77089ec,2025_06_12,41.039505402729105,-71.9142,Ditch Plains,1,0.464825,0.858635,15.5,15.5,"NIGHT_CLEAR,CLEAR","Cross-shore,Cross-shore",2
5842041f4e65fad6a77089ee,2025_06_12,40.57633275206492,-73.56895305108567,"West End, Jones Beach",1,0.46499999999999997,0.77,17,16,"NIGHT_CLEAR,CLEAR","Onshore,Onshore",2
5842041f4e65fad6a77089f1,2025_06_12,41.038286691230795,-71.91991567611694,Poles,1,0.45728500000000005,0.811955,17,16,"NIGHT_CLEAR,CLEAR","Onshore,Onshore",2
5842041f4e65fad6a77089f3,2025_06_12,40.84077769766295,-72.47989493724765,The Bowl,1,0.615,0.9199999999999999,16,16,"NIGHT_CLEAR,CLEAR","Onshore,Onshore",2
5842041f4e65fad6a77089f4,2025_06_12,40.94235535243154,-72.19286,Main Beach,1,0.61,0.915,19,18,"NIGHT_CLEAR,CLEAR","Onshore,Onshore",2
5842041f4e65fad6a77089f5,2025_06_12,40.58270702399518,-73.67251552079799,Laurelton Blvd.,1.8333333333333333,0.609105,0.7884,17,16,"NIGHT_CLEAR,CLEAR","Onshore,Onshore",2
5842041f4e65fad6a77089f6,2025_06_12,41.033752854071416,-71.93696,Terrace,1,0.54095,0.886235,17,16,"NIGHT_CLEAR,CLEAR","Onshore,Onshore",2
5842041f4e65fad6a77089f7,2025_06_12,40.83372943645748,-72.50426173210144,K Road,1,0.71,1.0150000000000001,16,16,"NIGHT_MIST,CLEAR","Onshore,Onshore",2
5842041f4e65fad6a77089fa,2025_06_12,40.1319,-74.02788,Sea Girt,1.8333333333333333,0.2795,0.607375,17,16,"NIGHT_CLEAR,CLEAR","Offshore,Offshore",2
5842041f4e65fad6a77089fb,2025_06_12,40.54698301868125,-73.9268,Breezy Point,1,0.215,0.52,17,17,"NIGHT_CLEAR,CLEAR","Onshore,Onshore",2
5842041f4e65fad6a77089fc,2025_06_12,40.152504,-74.02138,Spring Lake,2.333333333333333,0.26362,0.59718,17,16,"NIGHT_CLEAR,CLEAR","Offshore,Offshore",2
5842041f4e65fad6a77089fd,2025_06_12,40.591277,-73.770792,30th - 39th Streets,1.3333333333333333,0.28142999999999996,0.6106499999999999,17,16,"NIGHT_CLEAR,CLEAR","Onshore,Onshore",2
5842041f4e65fad6a77089fe,2025_06_12,40.18834955871439,-74.00860982500222,Avon,1.8333333333333333,0.2439,0.57994,17,16,"NIGHT_CLEAR,CLEAR","Offshore,Offshore",2
5842041f4e65fad6a77089ff,2025_06_12,40.1974229100932,-74.00650533798255,Bradley Beach,1.8333333333333333,0.2439,0.57994,17,16,"NIGHT_CLEAR,CLEAR","Offshore,Offshore",2
5842041f4e65fad6a7708a01,2025_06_12,40.17202,-74.01503,"16th Ave., Belmar",1.8333333333333333,0.238425,0.5743849999999999,17,16,"NIGHT_CLEAR,CLEAR","Offshore,Offshore",2
5842041f4e65fad6a7708a02,2025_06_12,40.217443,-73.99982,Asbury Park,1.8333333333333333,0.265,0.565,17,16,"NIGHT_CLEAR,CLEAR","Offshore,Offshore",2
5842041f4e65fad6a7708a03,2025_06_12,40.229841,-73.99678,Loch Arbour and Deal,1.8333333333333333,0.255,0.565,17,16,"NIGHT_CLEAR,CLEAR","Offshore,Offshore",2
5842041f4e65fad6a7708a05,2025_06_12,40.41754,-73.97935,Sandy Hook,1.5,0.075,0.38,17.5,17.5,"NIGHT_CLEAR,CLEAR","Offshore,Offshore",2
5842041f4e65fad6a7708a06,2025_06_12,39.36353,-74.40873,Crystals,1,0.29518999999999995,0.6358,18,17,"NIGHT_CLEAR,CLEAR","Cross-shore,Cross-shore",2
5842041f4e65fad6a7708a07,2025_06_12,39.31443,-74.51863,32nd Street,1.5,0.24916500000000003,0.61104,18,17,"NIGHT_CLEAR,CLEAR","Cross-shore,Cross-shore",2
5842041f4e65fad6a7708a08,2025_06_12,39.327688,-74.49524,Margate Pier Northside,1.5,0.24916500000000003,0.61104,18,17,"NIGHT_CLEAR,CLEAR","Cross-shore,Cross-shore",2
5842041f4e65fad6a7708a09,2025_06_12,39.336276,-74.47782,Ventnor Pier,1.5,0.24913,0.610955,18,17,"NIGHT_CLEAR,CLEAR","Cross-shore,Cross-shore",2
5842041f4e65fad6a7708a0a,2025_06_12,39.35929751441085,-74.41683,States Avenue,1,0.29518999999999995,0.6358,18,17,"NIGHT_CLEAR,CLEAR","Cross-shore,Cross-shore",2
5842041f4e65fad6a7708a0b,2025_06_12,39.37274173278517,-74.40454,Brigantine Jetty,1.3333333333333333,0.292535,0.6356999999999999,18,17,"NIGHT_CLEAR,CLEAR","Onshore,Onshore",2
5842041f4e65fad6a7708a0c,2025_06_12,39.356505,-74.42263,South Carolina Avenue,1.5,0.292535,0.6356999999999999,18,17,"NIGHT_CLEAR,CLEAR","Onshore,Onshore",2
5842041f4e65fad6a7708a0d,2025_06_12,39.413485,-74.35476,14th Street North,1.8333333333333333,0.20500000000000002,0.51,18,17,"NIGHT_CLEAR,CLEAR","Onshore,Offshore",2
5842041f4e65fad6a7708a0e,2025_06_12,39.531319,-74.26325,The Wooden Jetty,1.6666666666666667,0.488195,0.7065049999999999,18,17,"NIGHT_CLEAR,CLEAR","Cross-shore,Cross-shore",2
5842041f4e65fad6a7708a0f,2025_06_12,39.552472,-74.24344,Holyoke,1.6666666666666667,0.325665,0.72444,18,17,"NIGHT_CLEAR,CLEAR","Offshore,Cross-shore",2
5842041f4e65fad6a7708a10,2025_06_12,39.692364,-74.14068,Hudson Ave.,1.1666666666666665,0.31877,0.627255,18,17,"NIGHT_CLEAR,CLEAR","Cross-shore,Cross-shore",2
5842041f4e65fad6a7708a11,2025_06_12,39.79614,-74.09248,Island Beach State Park,1,0.245,0.55,18,17,"NIGHT_CLEAR,CLEAR","Cross-shore,Cross-shore",2
5842041f4e65fad6a7708a12,2025_06_12,39.91813588078152,-74.07527,Seaside Park,1.8333333333333333,0.25241,0.6104799999999999,17,16,"NIGHT_CLEAR,CLEAR","Offshore,Offshore",2
5842041f4e65fad6a7708a15,2025_06_12,39.95745637606704,-74.06736,Ortley Beach,1.8333333333333333,0.2348,0.59287,17,16,"NIGHT_CLEAR,CLEAR","Offshore,Offshore",2
5842041f4e65fad6a7708a16,2025_06_12,39.98313468342945,-74.06265685577506,Lavallette,1.8333333333333333,0.245,0.5449999999999999,17,16,"NIGHT_CLEAR,CLEAR","Offshore,Offshore",2
5842041f4e65fad6a7708a17,2025_06_12,40.0699319967757,-74.04145,Bay Head,1.3333333333333333,0.225,0.535,17,16,"NIGHT_CLEAR,CLEAR","Offshore,Offshore",2
5842041f4e65fad6a7708a18,2025_06_12,40.094041,-74.034859,Jenkinson's,1.8333333333333333,0.261415,0.581515,17,16,"NIGHT_CLEAR,CLEAR","Offshore,Offshore",2
5842041f4e65fad6a7708a1a,2025_06_12,38.148058,-75.17704,Assateague,1.5,0.305,0.61,18.5,17.5,"NIGHT_MIST,MIST","Cross-shore,Cross-shore",2
5842041f4e65fad6a7708a1b,2025_06_12,38.33889038664497,-75.08017670566352,North End to Ocean City Inlet,1.75,0.32299500000000003,0.6459900000000001,18.5,17.5,"NIGHT_MIST,MIST","Offshore,Offshore",2
5842041f4e65fad6a7708a1c,2025_06_12,38.603993,-75.06271,Indian River Inlet,1.5,0.124375,0.485655,20,20,"NIGHT_CLEAR,MIST","Cross-shore,Offshore",2
5842041f4e65fad6a7708a1d,2025_06_12,38.460477,-75.05207,Fenwick Island,2,0.07,0.375,20.5,20.5,"NIGHT_CLEAR,CLEAR","Offshore,Offshore",2
5842041f4e65fad6a7708a1e,2025_06_12,38.538767,-75.05619,Bethany Beach,1.5,0.12348,0.48217,20.5,20.5,"NIGHT_CLEAR,MIST","Cross-shore,Offshore",2
5842041f4e65fad6a7708a1f,2025_06_12,38.697657,-75.07595,Dewey Beach,2,0.21500000000000002,0.52,20,20,"NIGHT_CLEAR,CLEAR","Offshore,Offshore",2
5842041f4e65fad6a7708a20,2025_06_12,38.75034741676525,-75.08194,Gordons Pond,1.5,0,0.37554,20,20,"NIGHT_CLEAR,CLEAR","Cross-shore,Offshore",2
5842041f4e65fad6a7708a21,2025_06_12,38.767837,-75.08284,Naval Jetties,2,0.1,0.405,20,20,"NIGHT_CLEAR,CLEAR","Offshore,Offshore",2
5842041f4e65fad6a7708a22,2025_06_12,36.81735875786576,-75.96624,Camp Pendleton,2,0.11385,0.42435,23.5,23.5,"NIGHT_MIST,MIST","Cross-shore,Offshore",2
5842041f4e65fad6a7708a23,2025_06_12,36.9102212316428,-75.98732471466064,North End,0.75,0,0.27,22,21,"NIGHT_MIST,CLEAR","Offshore,Offshore",2
5842041f4e65fad6a7708a24,2025_06_12,36.737117517621314,-75.93924,Sandbridge Beach,1.5,0.02281,0.36489,22,21,"NIGHT_CLEAR,CLEAR","Cross-shore,Offshore",2
5842041f4e65fad6a7708a26,2025_06_12,36.818257440557794,-75.96666,Croatan to Pendleton,1.5,0.02118,0.344115,22,21,"NIGHT_MIST,MIST","Cross-shore,Offshore",2
5842041f4e65fad6a7708a27,2025_06_12,36.84318777204769,-75.9719,South End,0.75,0,0.33524,22,21,"NIGHT_MIST,CLEAR","Cross-shore,Offshore",2
5842041f4e65fad6a7708a28,2025_06_12,37.08612627584661,-75.976121638199,Fishermans Island,1,0.068,0.19,23.5,23.5,"NIGHT_MIST,MIST","Cross-shore,Cross-shore",2
5842041f4e65fad6a7708a38,2025_06_12,35.254619418229026,-75.52074,Cape Hatteras Lighthouse,1.25,0.33433,0.685955,24,23,"NIGHT_MOSTLY_CLEAR,CLEAR","Cross-shore,Cross-shore",2
5842041f4e65fad6a7708a3a,2025_06_12,35.54572934093336,-75.46477,Waves and Salvo,1,0.4185,0.7533000000000001,24,23,"NIGHT_MOSTLY_CLOUDY,MIST","Cross-shore,Cross-shore",2
5842041f4e65fad6a7708a3b,2025_06_12,35.22565892751075,-75.63606,Frisco,1,0.4374,0.68445,25,24,"NIGHT_MOSTLY_CLEAR,MIST","Onshore,Onshore",2
5842041f4e65fad6a7708a3c,2025_06_12,35.13086,-75.90591,Ocracoke,1,0.39487,0.76027,24,24,"NIGHT_MOSTLY_CLEAR,CLEAR","Onshore,Cross-shore",2
5842041f4e65fad6a7708a3d,2025_06_12,35.34721340158342,-75.50084,Avon Pier,1.75,0.480415,0.75951,24,23,"NIGHT_CLEAR,CLEAR","Cross-shore,Cross-shore",2
5842041f4e65fad6a7708a3f,2025_06_12,35.71680821253768,-75.49243,Pea Island,1,0.10500000000000001,0.405,23.5,23.5,"NIGHT_CLEAR,CLEAR","Offshore,Offshore",2
5842041f4e65fad6a7708a40,2025_06_12,35.97427620657821,-75.62984,Nags Head Pier,1.5,0.1,0.41000000000000003,19,18,"NIGHT_CLEAR,CLEAR","Offshore,Offshore",2
5842041f4e65fad6a7708a41,2025_06_12,36.0439998039079,-75.67288,Avalon Pier,1,0.00588,0.36456,19,18,"NIGHT_MIST,CLEAR","Offshore,Offshore",2
5842041f4e65fad6a7708a42,2025_06_12,36.03043116489792,-75.66413,First Street,1.5,0.035315,0.394355,19,18,"NIGHT_MIST,CLEAR","Cross-shore,Offshore",2
5842041f4e65fad6a7708a43,2025_06_12,36.06829910590498,-75.6899,Old Station/Laundromats,1.5,0.11191000000000001,0.4712,19,18,"NIGHT_CLEAR,CLEAR","Cross-shore,Offshore",2
5842041f4e65fad6a7708a44,2025_06_12,36.10126676607491,-75.71107,Kitty Hawk Pier,1,0.047225,0.40142500000000003,19,18,"NIGHT_CLEAR,MIST","Cross-shore,Offshore",2
5842041f4e65fad6a7708a45,2025_06_12,36.18220630068973,-75.75014,Duck Pier,1,0.035,0.34,23.5,23.5,"NIGHT_MIST,MIST","Cross-shore,Offshore",2
5842041f4e65fad6a7708a46,2025_06_12,36.37660668125033,-75.8241,Corolla,1.5,0.08,0.385,23,23,"NIGHT_MIST,CLEAR","Cross-shore,Cross-shore",2
5842041f4e65fad6a7708a47,2025_06_12,33.90373404124834,-78.08241431707907,Oak Island,1.5,0.24,0.55,25,25,"NIGHT_CLEAR,CLEAR","Onshore,Onshore",2
5842041f4e65fad6a7708a48,2025_06_12,33.91108837766468,-78.29653,South Brunswick Beaches,1,0.153535,0.537375,25,25,"NIGHT_CLEAR,MIST","Onshore,Onshore",2
5842041f4e65fad6a7708a49,2025_06_12,34.05683595651973,-77.88128,Carolina Beach Pier,1.5,0.21826,0.54045,24,24,"NIGHT_CLEAR,MIST","Cross-shore,Offshore",2
5842041f4e65fad6a7708a4a,2025_06_12,33.96841191816696,-77.9180242565498,Fort Fisher,2,0.33,0.635,24,24,"NIGHT_CLEAR,MIST","Cross-shore,Offshore",2
5842041f4e65fad6a7708a4b,2025_06_12,34.46776662988774,-77.47083,Topsail Beach,1.25,0.445,0.75,24,23,"NIGHT_MOSTLY_CLEAR,MIST","Onshore,Onshore",2
5842041f4e65fad6a7708a4c,2025_06_12,34.69270354752445,-76.82854854446575,Iron Steamer,1.25,0.41000000000000003,0.715,24,23,"NIGHT_CLEAR,MIST","Onshore,Onshore",2
5842041f4e65fad6a7708a4f,2025_06_12,30.85132684893727,-81.42283496231143,Cumberland Island,1.5,0.405,0.705,27,27,"NIGHT_CLEAR,CLEAR","Onshore,Onshore",2
5842041f4e65fad6a7708a50,2025_06_12,34.686741128540874,-76.47516712138378,Cape Lookout National Seashore,1.5,0.475,0.78,24,24,"NIGHT_CLEAR,CLEAR","Cross-shore,Cross-shore",2
5842041f4e65fad6a7708a51,2025_06_12,31.10585419260024,-81.40422767604812,Jekyll Island,1,0.135,0.44,27,27,"NIGHT_MOSTLY_CLOUDY,MOSTLY_CLOUDY","Cross-shore,Cross-shore",2
5842041f4e65fad6a7708a52,2025_06_12,31.16212806376699,-81.32512426500224,Harbor Marker Buoys,1.5,0.31,0.61,27,27,"NIGHT_MOSTLY_CLOUDY,CLOUDY","Onshore,Onshore",2
5842041f4e65fad6a7708a53,2025_06_12,31.20076299997009,-81.32629,Sea Island,1.5,0.325,0.63,27,27,"NIGHT_CLEAR,CLEAR","Onshore,Onshore",2
5842041f4e65fad6a7708a54,2025_06_12,31.13553222995767,-81.38457634790909,St. Simons Island,1.5,0.38,0.68,27,27,"NIGHT_MOSTLY_CLOUDY,MOSTLY_CLOUDY","Onshore,Onshore",2
5842041f4e65fad6a7708a55,2025_06_12,31.33550077186516,-81.28383377408417,Wolf Island,1,0.31,0.615,27,27,"NIGHT_OVERCAST,CLOUDY","Cross-shore,Onshore",2
5842041f4e65fad6a7708a56,2025_06_12,31.2704493877174,-81.27324039152315,Little St. Simons Island,1,0.315,0.62,27,27,"NIGHT_MOSTLY_CLOUDY,CLOUDY","Cross-shore,Cross-shore",2
5842041f4e65fad6a7708a57,2025_06_12,31.39261761368919,-81.26190520231917,Sapelo Island,1,0.28,0.59,27,27,"NIGHT_CLEAR,CLEAR","Onshore,Onshore",2
5842041f4e65fad6a7708a58,2025_06_12,34.42458783809001,-77.54492,Surf City Pier,2,0.43,0.735,24,24,"NIGHT_CLEAR,CLEAR","Cross-shore,Cross-shore",2
5842041f4e65fad6a7708a59,2025_06_12,31.4231993614213,-81.24725340591522,Cabretta Island,1,0.3,0.605,27,27,"NIGHT_CLEAR,CLEAR","Onshore,Onshore",2
5842041f4e65fad6a7708a5a,2025_06_12,31.46684389030369,-81.2100056410468,Blackbeard Island,1,0.28,0.59,27,27,"NIGHT_CLEAR,CLEAR","Onshore,Onshore",2
5842041f4e65fad6a7708a5b,2025_06_12,31.85953587631629,-80.99031310336719,Wassaw Island/South End,1,0.08,0.385,27.5,27.5,"NIGHT_OVERCAST,MOSTLY_CLOUDY","Onshore,Onshore",2
5842041f4e65fad6a7708a5c,2025_06_12,31.62535662342983,-81.13328,St. Catherines Island,1,0.365,0.67,27,27,"NIGHT_CLEAR,CLEAR","Cross-shore,Cross-shore",2
5842041f4e65fad6a7708a5d,2025_06_12,31.76502169596568,-81.07655443806622,Ossabaw Island,1,0.275,0.58,27,27,"NIGHT_CLOUDY,CLEAR","Cross-shore,Onshore",2
5842041f4e65fad6a7708a5e,2025_06_12,31.90593619092352,-80.93589231700857,Wassaw Island/North End,1,0.365,0.67,27.5,27.5,"NIGHT_DRIZZLE,MOSTLY_CLOUDY","Onshore,Onshore",2
5842041f4e65fad6a7708a5f,2025_06_12,31.96738675414547,-80.86977980706155,Little Tybee Island,1,0.355,0.66,27.5,27.5,"NIGHT_BRIEF_SHOWERS_POSSIBLE,CLEAR","Onshore,Onshore",2
5842041f4e65fad6a7708a60,2025_06_12,31.9812255780179,-80.84773973467009,South Tybee Sandbars,1,0.36,0.665,27.5,27.5,"NIGHT_BRIEF_SHOWERS_POSSIBLE,CLEAR","Cross-shore,Cross-shore",2
5842041f4e65fad6a7708a61,2025_06_12,32.01226,-80.83983,Sugar Shack,1.5,0.305,0.61,27,27,"NIGHT_MOSTLY_CLOUDY,CLEAR","Offshore,Cross-shore",2
5842041f4e65fad6a7708a62,2025_06_12,31.98722842396969,-80.84773,18th St. Jetty,1,0.17535499999999998,0.551105,27,27,"NIGHT_MOSTLY_CLOUDY,CLEAR","Cross-shore,Cross-shore",2
5842041f4e65fad6a7708a64,2025_06_12,34.013473721006676,-77.8991,"Alabama Ave., Kure Beach",1.5,0.225,0.53,25,25,"NIGHT_MOSTLY_CLEAR,CLEAR","Cross-shore,Offshore",2
5842041f4e65fad6a7708a65,2025_06_12,34.20859853336924,-77.79293,"C Street, Wrightsville Beach",1.5,0.265,0.575,24,24,"NIGHT_MOSTLY_CLOUDY,MIST","Cross-shore,Cross-shore",2
5842041f4e65fad6a7708a66,2025_06_12,32.831,-79.71,Dewees Island,2,0.27,0.575,26.5,26.5,"NIGHT_CLEAR,CLEAR","Offshore,Cross-shore",2
5842041f4e65fad6a7708a67,2025_06_12,33.82924423172106,-78.62813,Cherry Grove Pier,1,0.185,0.495,25.5,25.5,"NIGHT_CLEAR,OVERCAST","Onshore,Onshore",2
5842041f4e65fad6a7708a69,2025_06_12,34.27197439666496,-77.74050223196774,Figure Eight and Shell Islands,2,0.455,0.765,24,24,"NIGHT_CLEAR,MIST","Cross-shore,Cross-shore",2
5842041f4e65fad6a7708a6b,2025_06_12,33.49041958261793,-79.07666070599386,North End,1.5,0.275,0.58,25.5,25.5,"NIGHT_MIST,CLEAR","Onshore,Onshore",2
5842041f4e65fad6a7708a6c,2025_06_12,33.39537062495087,-79.13835037835189,The South End,1,0.215,0.52,26,26,"NIGHT_MOSTLY_CLEAR,MOSTLY_CLOUDY","Cross-shore,Cross-shore",2
5842041f4e65fad6a7708a6d,2025_06_12,33.29001727666697,-79.17190003352977,North Island,2,0.305,0.61,26,26,"NIGHT_CLEAR,CLEAR","Cross-shore,Cross-shore",2
5842041f4e65fad6a7708a6e,2025_06_12,32.90929771158952,-79.57810400297359,Bull Island,1,0.195,0.5,26,26,"NIGHT_CLEAR,CLEAR","Cross-shore,Onshore",2
5842041f4e65fad6a7708a6f,2025_06_12,31.99153112815895,-80.84543050470074,Tybee Island Pier,1,0.055,0.36,27,27,"NIGHT_CLEAR,CLEAR","Cross-shore,Onshore",2
5842041f4e65fad6a7708a70,2025_06_12,33.03478144356316,-79.35021028265125,Cape Romain,2,0.4,0.7050000000000001,26,26,"NIGHT_MOSTLY_CLOUDY,MOSTLY_CLOUDY","Cross-shore,Cross-shore",2
5842041f4e65fad6a7708a71,2025_06_12,33.43231073271028,-79.11789,The Pier,1,0.099255,0.47765,26,26,"NIGHT_MOSTLY_CLOUDY,MOSTLY_CLOUDY","Cross-shore,Cross-shore",2
5842041f4e65fad6a7708a72,2025_06_12,33.45423621397969,-79.10497798178424,South Litchfield,2,0.24,0.54,26,26,"NIGHT_CLEAR,CLEAR","Onshore,Onshore",2
5842041f4e65fad6a7708a73,2025_06_12,34.19316590251396,-77.8045,Crystal Pier,1.5,0.16585,0.49755000000000005,24,24,"NIGHT_MOSTLY_CLOUDY,MIST","Cross-shore,Cross-shore",2
5842041f4e65fad6a7708a74,2025_06_12,33.68628680045124,-78.88346,Myrtle Beach,2,0.275,0.58,25.5,25.5,"NIGHT_MIST,CLEAR","Onshore,Onshore",2
5842041f4e65fad6a7708a75,2025_06_12,32.66166297145973,-79.91951806398808,10th Street,2,0.33572500000000005,0.65079,26.5,26.5,"NIGHT_CLEAR,CLEAR","Cross-shore,Onshore",2
5842041f4e65fad6a7708a76,2025_06_12,33.16729555197199,-79.19829236867845,South Island,2,0.36,0.66,26,26,"NIGHT_CLEAR,MOSTLY_CLOUDY","Cross-shore,Cross-shore",2
5842041f4e65fad6a7708a77,2025_06_12,32.595,-80.088,Kiawah Island/Seabrook Island,2,0.325,0.625,26.5,26.5,"NIGHT_MOSTLY_CLOUDY,CLEAR","Onshore,Onshore",2
5842041f4e65fad6a7708a78,2025_06_12,32.51356930575787,-80.28223,Edisto Beach,1,0.1592,0.5572,26.5,26.5,"NIGHT_CLEAR,MIST","Cross-shore,Onshore",2
5842041f4e65fad6a7708a79,2025_06_12,32.366270751262,-80.43911,Hunting Island,1,0.16097499999999998,0.5324599999999999,27,27,"NIGHT_MIST,MIST","Offshore,Onshore",2
5842041f4e65fad6a7708a7a,2025_06_12,32.65337734408365,-79.93983,Folly Beach Pier,1,0.170445,0.480345,26.5,26.5,"NIGHT_CLEAR,CLEAR","Onshore,Onshore",2
5842041f4e65fad6a7708a7b,2025_06_12,33.41209545530049,-79.13026341393126,South Jetty,2,0.215,0.52,26,26,"NIGHT_CLEAR,CLEAR","Onshore,Onshore",2
5842041f4e65fad6a7708a7c,2025_06_12,32.31115640606869,-80.48564,Fripp Island,1,0.22102,0.611065,27,27,"NIGHT_MIST,CLEAR","Onshore,Onshore",2
5842041f4e65fad6a7708a7d,2025_06_12,32.14365226036034,-80.74402,Hilton Head Island,1,0,0.26,27,27,"NIGHT_CLEAR,CLEAR","Onshore,Onshore",2
5842041f4e65fad6a7708a7e,2025_06_12,29.70405364733744,-81.22426,Matanzas Inlet,1.25,0.17203,0.51609,26,26,"NIGHT_CLEAR,CLEAR","Cross-shore,Cross-shore",2
5842041f4e65fad6a7708a81,2025_06_12,29.76878537149042,-81.25109,Crescent Beach,1,0.16,0.46,27,27,"NIGHT_CLEAR,CLEAR","Cross-shore,Cross-shore",2
5842041f4e65fad6a7708a82,2025_06_12,32.80251718689188,-79.73221919500764,Wild Dunes,2,0.35,0.66,26.5,26.5,"NIGHT_MOSTLY_CLOUDY,MOSTLY_CLOUDY","Cross-shore,Onshore",2
5842041f4e65fad6a7708a84,2025_06_12,32.75733539419244,-79.83258856064796,Bert's Bar,1,0.065,0.375,26.5,26.5,"NIGHT_CLEAR,CLEAR","Cross-shore,Onshore",2
5842041f4e65fad6a7708a85,2025_06_12,32.66829212943039,-79.90735,Washout,1.5,0.263465,0.5785899999999999,26,24,"NIGHT_CLEAR,CLEAR","Cross-shore,Onshore",2
5842041f4e65fad6a7708a86,2025_06_12,32.78452968219067,-79.7854,The Pier/Windjammer,2,0.39,0.69,26.5,26.5,"NIGHT_CLEAR,CLEAR","Onshore,Onshore",2
5842041f4e65fad6a7708a87,2025_06_12,29.86618162637438,-81.2662150259608,Anastasia Park (The Entrance),1,0.165,0.47,27,27,"NIGHT_CLEAR,MOSTLY_CLOUDY","Cross-shore,Cross-shore",2
5842041f4e65fad6a7708a89,2025_06_12,29.89149785916623,-81.2723223244215,Blowholes,0.75,0.17,0.47,27,26,"NIGHT_CLEAR,MOSTLY_CLOUDY","Cross-shore,Cross-shore",2
5842041f4e65fad6a7708a8a,2025_06_12,30.16227112983666,-81.35502907491218,Crossroads,1.25,0.375,0.68,27,26,"NIGHT_CLEAR,MOSTLY_CLEAR","Cross-shore,Cross-shore",2
5842041f4e65fad6a7708a8b,2025_06_12,30.19308537587637,-81.36314247820911,Sawgrass,1.25,0.4,0.705,27,26,"NIGHT_CLEAR,CLEAR","Cross-shore,Cross-shore",2
5842041f4e65fad6a7708a8c,2025_06_12,30.34696027700899,-81.39451,18th Street,1.5,0.2218,0.619745,27,27,"NIGHT_MOSTLY_CLOUDY,CLEAR","Cross-shore,Cross-shore",2
5842041f4e65fad6a7708a8d,2025_06_12,30.381793,-81.39686,Mayport Poles,2,0.36,0.66,27,27,"NIGHT_CLEAR,CLEAR","Cross-shore,Onshore",2
5842041f4e65fad6a7708a8e,2025_06_12,30.390516,-81.395591,Blue Roofs,2,0.4,0.71,27,27,"NIGHT_CLEAR,CLEAR","Cross-shore,Onshore",2
5842041f4e65fad6a7708a8f,2025_06_12,30.40517712722211,-81.40074116169004,Huguenot Park (North Jetty),1.5,0.275,0.575,27,27,"NIGHT_CLEAR,CLEAR","Cross-shore,Cross-shore",2
5842041f4e65fad6a7708a90,2025_06_12,30.47788918872762,-81.41056,Talbot Island,1.75,0.590835,0.75291,26,26,"NIGHT_CLEAR,CLEAR","Cross-shore,Cross-shore",2
5842041f4e65fad6a7708a91,2025_06_12,30.66753984549761,-81.42983,Main Beach,1.5,0.325,0.635,27,27,"NIGHT_MOSTLY_CLOUDY,MOSTLY_CLOUDY","Onshore,Onshore",2
5842041f4e65fad6a7708a92,2025_06_12,30.69983581209126,-81.42483,Ft. Clinch State Park,1.5,0.36,0.665,27,27,"NIGHT_MOSTLY_CLOUDY,MOSTLY_CLOUDY","Cross-shore,Onshore",2
5842041f4e65fad6a7708a93,2025_06_12,30.62059700777582,-81.43725,Amelia Pier,1.5,0.36,0.66,27,27,"NIGHT_CLEAR,CLEAR","Cross-shore,Onshore",2
5842041f4e65fad6a7708a95,2025_06_12,28.95125170929067,-80.83837,Bethune Beach,1.5,0.295,0.605,27,27,"NIGHT_CLEAR,CLEAR","Cross-shore,Cross-shore",2
5842041f4e65fad6a7708a96,2025_06_12,29.03874288905362,-80.8933424949646,Flagler Ave.,1,0.17265,0.5237050000000001,27,26,"NIGHT_CLEAR,CLEAR","Cross-shore,Cross-shore",2
5842041f4e65fad6a7708a98,2025_06_12,30.332297686992757,-81.39319,Atlantic Beach,1.5,0.2181,0.66156,27,27,"NIGHT_MOSTLY_CLOUDY,CLEAR","Cross-shore,Cross-shore",2
5842041f4e65fad6a7708a99,2025_06_12,29.87530059952514,-81.26757958498874,Middles,0.75,0.17,0.48,27,26,"NIGHT_CLEAR,MOSTLY_CLOUDY","Cross-shore,Cross-shore",2
5842041f4e65fad6a7708a9a,2025_06_12,29.146475528378218,-80.96347,Sunglow Pier,2,0.28,0.585,27,27,"NIGHT_CLEAR,CLEAR","Cross-shore,Cross-shore",2
5842041f4e65fad6a7708a9b,2025_06_12,30.02251238001095,-81.32183077344881,Gate Station,0.75,0.17,0.48,27,26,"NIGHT_CLEAR,CLEAR","Cross-shore,Cross-shore",2
5842041f4e65fad6a7708a9c,2025_06_12,29.33976495417899,-81.0606,Bicentennial Park,1,0.17,0.48,27,27,"NIGHT_CLEAR,CLEAR","Cross-shore,Cross-shore",2
5842041f4e65fad6a7708a9d,2025_06_12,29.08257353385602,-80.92137,Ponce Inlet,1.5,0.29415,0.62573,26,25,"NIGHT_CLEAR,CLEAR","Cross-shore,Cross-shore",2
5842041f4e65fad6a7708a9f,2025_06_12,27.862962005874696,-80.44668,Sebastian Inlet,1.25,0.522905,0.70106,24,23,"NIGHT_HEAVY_SHOWERS,CLEAR","Onshore,Cross-shore",2
5842041f4e65fad6a7708aa0,2025_06_12,30.292626880836885,-81.38579,Jacksonville Beach Pier,1.5,0.32,0.62,26,26,"NIGHT_CLEAR,CLEAR","Cross-shore,Cross-shore",2
5842041f4e65fad6a7708aa2,2025_06_12,29.21860397328164,-81.0019,Daytona Beach,1,0.18,0.49,27,27,"NIGHT_MIST,CLEAR","Onshore,Cross-shore",2
5842041f4e65fad6a7708aa3,2025_06_12,27.47531255634912,-80.28914,Ft. Pierce Inlet,0.75,0.06307,0.41281500000000004,25,25,"NIGHT_CLEAR,CLEAR","Cross-shore,Cross-shore",2
5842041f4e65fad6a7708aa4,2025_06_12,29.29239875585548,-81.0386,Ormond Beach,1.5,0.19,0.495,27,27,"NIGHT_CLEAR,CLEAR","Cross-shore,Cross-shore",2
5842041f4e65fad6a7708aa5,2025_06_12,29.91629441498523,-81.28801,Vilano,1,0.16,0.46,27,27,"NIGHT_CLEAR,MOSTLY_CLOUDY","Cross-shore,Cross-shore",2
5842041f4e65fad6a7708aa6,2025_06_12,27.876230736320828,-80.4551,Spanish House,1.5,0.32567999999999997,0.6679200000000001,24,23,"NIGHT_MOSTLY_CLEAR,CLEAR","Cross-shore,Cross-shore",2
5842041f4e65fad6a7708aa7,2025_06_12,28.64397251741012,-80.62329,Playalinda,2,0.32999999999999996,0.64,27,27,"NIGHT_CLEAR,CLEAR","Cross-shore,Cross-shore",2
5842041f4e65fad6a7708aa8,2025_06_12,28.406142,-80.58886,Jetty Park,2,0.2114,0.5390699999999999,26.5,26.5,"NIGHT_MIST,MOSTLY_CLEAR","Onshore,Onshore",2
5842041f4e65fad6a7708aa9,2025_06_12,28.49083243010974,-80.58001715986319,Kennedy Space Center,1,0.24,0.54,26.5,26.5,"NIGHT_MOSTLY_CLEAR,CLEAR","Cross-shore,Cross-shore",2
5842041f4e65fad6a7708aab,2025_06_12,28.336757013024314,-80.60568,Lori Wilson Park,1.75,0.32101,0.63183,22,22,"NIGHT_MIST,CLEAR","Onshore,Onshore",2
5842041f4e65fad6a7708aad,2025_06_12,27.76388821683801,-80.3962958234027,Wabasso,1,0.235,0.54,26.5,26.5,"NIGHT_MOSTLY_CLEAR,MOSTLY_CLEAR","Cross-shore,Cross-shore",2
5842041f4e65fad6a7708aae,2025_06_12,27.521583322459,-80.30987620353699,P.V. Martin's,0.75,0.24,0.54,24,24,"NIGHT_CLEAR,CLEAR","Cross-shore,Cross-shore",2
5842041f4e65fad6a7708aaf,2025_06_12,27.644996047720046,-80.35242676734924,Riomar,0,0.225,0.525,24,24,"NIGHT_CLEAR,MIST","Cross-shore,Cross-shore",2
5842041f4e65fad6a7708ab1,2025_06_12,27.670121806659253,-80.36026954650879,Vero Pier,0.75,0.255,0.56,24,24,"NIGHT_CLEAR,CLEAR","Cross-shore,Onshore",2
5842041f4e65fad6a7708ab2,2025_06_12,28.047705032021486,-80.54680109024048,Spessard Holland,1.75,0.46653999999999995,0.73918,24,23,"NIGHT_CLEAR,CLEAR","Onshore,Cross-shore",2
5842041f4e65fad6a7708ab7,2025_06_12,28.135426226217064,-80.57895541191101,The Radisson,2,0.33245,0.65945,26.5,26.5,"NIGHT_CLEAR,CLEAR","Onshore,Cross-shore",2
5842041f4e65fad6a7708ab8,2025_06_12,28.26664623907351,-80.60448,Picnic Tables,2,0.345,0.655,26.5,26.5,"NIGHT_CLEAR,CLEAR","Onshore,Onshore",2
5842041f4e65fad6a7708ab9,2025_06_12,28.200840983180232,-80.59493,Perkins,2,0.349375,0.671875,26.5,26.5,"NIGHT_CLEAR,MOSTLY_CLOUDY","Onshore,Onshore",2
5842041f4e65fad6a7708aba,2025_06_12,28.185652556759443,-80.59154,RC's,1.5,0.306375,0.6288750000000001,26.5,26.5,"NIGHT_CLEAR,CLEAR","Onshore,Onshore",2
5842041f4e65fad6a7708abc,2025_06_12,28.252541991968208,-80.60269,2nd Light,2,0.345,0.655,26.5,26.5,"NIGHT_CLEAR,CLEAR","Onshore,Onshore",2
5842041f4e65fad6a7708abd,2025_06_12,27.901611308716447,-80.4697,Bonsteel Park,1.5,0.36984,0.71208,24,23,"NIGHT_SHOWERS,CLEAR","Onshore,Cross-shore",2
5842041f4e65fad6a7708abe,2025_06_12,28.2423394657007,-80.60104,Hangar's Beach,1.5,0.31000000000000005,0.615,26.5,26.5,"NIGHT_CLEAR,MOSTLY_CLOUDY","Onshore,Onshore",2
5842041f4e65fad6a7708abf,2025_06_12,27.34018197146798,-80.23278,Walton Rocks,0.75,0.14,0.44499999999999995,27,26,"NIGHT_MOSTLY_CLOUDY,MIST","Cross-shore,Cross-shore",2
5842041f4e65fad6a7708ac0,2025_06_12,25.80407401902198,-80.1222227290161,30th Street,1,0.14989,0.501555,28.5,28.5,"NIGHT_MOSTLY_CLOUDY,CLEAR","Onshore,Onshore",2
5842041f4e65fad6a7708ac1,2025_06_12,25.76570280215999,-80.12983,South Beach,0.75,0.10376500000000001,0.45541,28,27,"NIGHT_CLEAR,CLEAR","Onshore,Onshore",2
5842041f4e65fad6a7708ac2,2025_06_12,26.058022412197,-80.10873562327671,Dania Pier,1,0.065,0.375,29,29,"NIGHT_MOSTLY_CLOUDY,SHOWERS","Onshore,Onshore",2
5842041f4e65fad6a7708ac3,2025_06_12,26.04825428257198,-80.11153150137932,Franklin Street,1,0.195,0.5,29,29,"NIGHT_MOSTLY_CLOUDY,SHOWERS","Onshore,Onshore",2
5842041f4e65fad6a7708ac4,2025_06_12,26.09086461141498,-80.10728410144065,John Lloyd State Park,1,0.195,0.5,29,29,"NIGHT_MOSTLY_CLOUDY,MOSTLY_CLOUDY","Onshore,Onshore",2
5842041f4e65fad6a7708ac5,2025_06_12,26.0971397396683,-80.10298876028907,Spoils,0,0.07,0.375,29,29,"NIGHT_CLEAR,MOSTLY_CLOUDY","Onshore,Onshore",2
5842041f4e65fad6a7708ac6,2025_06_12,26.18920557475824,-80.09224,Commercial Pier,1,0.075,0.385,29,29,"NIGHT_MOSTLY_CLEAR,CLEAR","Onshore,Onshore",2
5842041f4e65fad6a7708ac7,2025_06_12,28.289851576629342,-80.6063,16th St. South,1,0.21399,0.5247850000000001,23,23,"NIGHT_CLEAR,MOSTLY_CLOUDY","Onshore,Onshore",2
5842041f4e65fad6a7708ac8,2025_06_12,26.23467460139735,-80.0874,Pompano Pier,1,0.065,0.37,29,29,"NIGHT_CLEAR,CLEAR","Onshore,Onshore",2
5842041f4e65fad6a7708acb,2025_06_12,26.44179551370651,-80.05928855229453,Atlantic Dunes Park,0.75,0.154825,0.34165500000000004,28,27,"NIGHT_CLEAR,MOSTLY_CLEAR","Onshore,Onshore",2
5842041f4e65fad6a7708acd,2025_06_12,26.62215707439298,-80.03599398392342,Hilton Hotel Backyard,0.75,0.205535,0.549945,28,27,"NIGHT_CLEAR,MOSTLY_CLEAR","Onshore,Onshore",2
5842041f4e65fad6a7708ace,2025_06_12,26.96418190555367,-80.07769168113562,Coral Cove Park,0.75,0.015,0.315,26,26,"NIGHT_CLEAR,CLEAR","Onshore,Onshore",2
5842041f4e65fad6a7708acf,2025_06_12,26.7029496416037,-80.03184,Palm Beach,0.75,0.16999999999999998,0.48,28,27,"NIGHT_CLEAR,MOSTLY_CLEAR","Onshore,Cross-shore",2
5842041f4e65fad6a7708ad0,2025_06_12,26.97679878167375,-80.08141631388132,Blowing Rocks,0.75,0.195,0.495,26,26,"NIGHT_CLEAR,CLEAR","Onshore,Cross-shore",2
5842041f4e65fad6a7708ad2,2025_06_12,26.45661880078336,-80.057,Delray Beach,0.75,0.08041999999999999,0.40745,28,27,"NIGHT_CLEAR,MOSTLY_CLEAR","Onshore,Onshore",2
5842041f4e65fad6a7708ad3,2025_06_12,27.205685534312778,-80.16826629638672,Fletcher's,0.75,0.2,0.51,26,26,"NIGHT_MOSTLY_CLOUDY,CLEAR","Offshore,Cross-shore",2
5842041f4e65fad6a7708ad5,2025_06_12,26.5848450388814,-80.03649735753257,Lantana Public Beach,0.75,0.22775499999999999,0.561055,28,27,"NIGHT_CLEAR,CLEAR","Onshore,Onshore",2
5842041f4e65fad6a7708ad6,2025_06_12,25.77468432731322,-80.12884045797499,5th Street,1,0.178715,0.5361450000000001,29,29,"NIGHT_CLEAR,CLEAR","Onshore,Onshore",2
5842041f4e65fad6a7708ad7,2025_06_12,25.795157990715975,-80.12527585029602,21st Street,1,0.08071,0.432375,28.5,28.5,"NIGHT_CLEAR,CLEAR","Onshore,Onshore",2
5842041f4e65fad6a7708ad8,2025_06_12,25.897806453088073,-80.1211827993393,Haulover Inlet (South Jetty),0.5,0.005,0.29000000000000004,28.5,28.5,"NIGHT_MOSTLY_CLOUDY,HEAVY_SHOWERS","Onshore,Onshore",2
5842041f4e65fad6a7708ad9,2025_06_12,25.90147392328634,-80.12110769748688,Haulover Inlet (North Jetty),1,0.155,0.45499999999999996,28.5,28.5,"NIGHT_MOSTLY_CLOUDY,HEAVY_SHOWERS","Onshore,Onshore",2
5842041f4e65fad6a7708ada,2025_06_12,25.87049374242476,-80.11828560342356,85th Street,0.5,0.01,0.305,28.5,28.5,"NIGHT_CLEAR,HEAVY_SHOWERS","Onshore,Onshore",2
5842041f4e65fad6a7708adb,2025_06_12,26.25486382031396,-80.0805,Hillsboro Inlet,1,0.38187499999999996,0.700975,29,29,"NIGHT_CLEAR,CLEAR","Onshore,Onshore",2
5842041f4e65fad6a7708add,2025_06_12,26.29705672965111,-80.07612,Hillsboro Beach,1,0.130545,0.31913,28.5,28.5,"NIGHT_CLEAR,CLEAR","Onshore,Onshore",2
5842041f4e65fad6a7708ade,2025_06_12,26.36569956413266,-80.06717936869391,Red Reef Park,0.25,0.08,0.39,28,27,"NIGHT_CLEAR,CLEAR","Onshore,Onshore",2
5842041f4e65fad6a7708adf,2025_06_12,26.54593873498907,-80.04104359585143,Boynton Beach Inlet (Northside),0.75,0.08499999999999999,0.39,28,27,"NIGHT_CLEAR,CLEAR","Onshore,Onshore",2
5842041f4e65fad6a7708ae0,2025_06_12,26.92746505629809,-80.06721138954163,Corners,0.75,0.50972,0.745355,28,27,"NIGHT_CLEAR,CLEAR","Onshore,Onshore",2
5842041f4e65fad6a7708ae1,2025_06_12,26.76983179886943,-80.03413481937037,The Cove,0.75,0.16999999999999998,0.475,28,27,"NIGHT_CLEAR,CLEAR","Onshore,Onshore",2
5842041f4e65fad6a7708ae3,2025_06_12,26.39224485175123,-80.0650461233983,Japanese Rock,0.75,0.08,0.38,28,27,"NIGHT_BRIEF_SHOWERS_POSSIBLE,MOSTLY_CLEAR","Onshore,Onshore",2
5842041f4e65fad6a7708ae4,2025_06_12,29.94810928551321,-85.42545434612366,Mexico Beach,1,0,0.175,28,28,"NIGHT_CLEAR,CLEAR","Offshore,Offshore",2
5842041f4e65fad6a7708ae5,2025_06_12,30.11752500931267,-85.7306,Shell Island,0.5,0,0.195,28,28,"NIGHT_MOSTLY_CLEAR,CLEAR","Cross-shore,Cross-shore",2
5842041f4e65fad6a7708ae7,2025_06_12,29.94901514702268,-85.43042978529013,D.J.'s,1,0,0.175,28,28,"NIGHT_CLEAR,CLEAR","Offshore,Offshore",2
5842041f4e65fad6a7708ae8,2025_06_12,30.12396111446713,-85.73637,St. Andrew's Park,0.75,0,0.19,27,27,"NIGHT_MOSTLY_CLEAR,CLEAR","Offshore,Cross-shore",2
5842041f4e65fad6a7708ae9,2025_06_12,30.16781531760227,-85.79604918824084,Spinnaker,0.75,0,0.19,27,27,"NIGHT_CLEAR,CLEAR","Cross-shore,Cross-shore",2
5842041f4e65fad6a7708aea,2025_06_12,30.18877050526983,-85.83243530466363,Wood Pier,0.75,0,0.2,27,27,"NIGHT_CLEAR,LIGHT_SHOWERS_POSSIBLE","Cross-shore,Cross-shore",2
5842041f4e65fad6a7708aeb,2025_06_12,30.2676205895555,-85.9938578144113,Inlet Beach Pier,0.75,0,0.21000000000000002,27,27,"NIGHT_CLEAR,CLEAR","Cross-shore,Cross-shore",2
5842041f4e65fad6a7708aec,2025_06_12,30.31815542759119,-86.1383771867044,Bud and Alley's,0.75,0,0.21000000000000002,27,27,"NIGHT_CLEAR,MOSTLY_CLOUDY","Onshore,Cross-shore",2
5842041f4e65fad6a7708aed,2025_06_12,30.32686082481946,-86.16650590275447,Grayton Beach,0.75,0,0.21000000000000002,27,27,"NIGHT_CLEAR,CLEAR","Onshore,Onshore",2
5842041f4e65fad6a7708aee,2025_06_12,30.33661488976303,-86.20094,Blue Mountain Beach,0.75,0,0.21000000000000002,27,27,"NIGHT_CLEAR,CLOUDY","Onshore,Onshore",2
5842041f4e65fad6a7708aef,2025_06_12,30.37677202831587,-86.38513,Pompano Joe's,0.75,0,0.215,27,27,"NIGHT_MOSTLY_CLEAR,MIST","Onshore,Offshore",2
5842041f4e65fad6a7708af0,2025_06_12,30.37429731725911,-86.36687,Seascape,0.75,0,0.21000000000000002,27,27,"NIGHT_CLEAR,HEAVY_SHOWERS","Onshore,Offshore",2
5842041f4e65fad6a7708af1,2025_06_12,30.382815988547186,-86.45839,The Back Porch,0.75,0,0.215,27,27,"NIGHT_CLEAR,MOSTLY_CLOUDY","Onshore,Onshore",2
5842041f4e65fad6a7708af2,2025_06_12,30.21207176798612,-85.87989730830542,Panama City Pier,0.75,0,0.2,27,27,"NIGHT_CLEAR,MIST","Cross-shore,Offshore",2
5842041f4e65fad6a7708af3,2025_06_12,30.37521499110326,-86.3717,Whale's Tail,0.75,0,0.21000000000000002,27,27,"NIGHT_CLEAR,HEAVY_SHOWERS","Onshore,Offshore",2
5842041f4e65fad6a7708af4,2025_06_12,30.38120596658251,-86.43046,Old Crystal Pier,0.75,0,0.21000000000000002,27,27,"NIGHT_CLEAR,MOSTLY_CLOUDY","Onshore,Onshore",2
5842041f4e65fad6a7708af5,2025_06_12,30.38090573159031,-86.50655,Jetty East,0.75,0,0.215,27,27,"NIGHT_CLEAR,CLEAR","Onshore,Onshore",2
5842041f4e65fad6a7708af6,2025_06_12,30.37584509640838,-86.50563,HMO's,0,0,0.215,27,27,"NIGHT_CLEAR,CLEAR","Onshore,Onshore",2
5842041f4e65fad6a7708af7,2025_06_12,30.38124006131522,-86.50052,Two By Fours,0,0,0.22,27,27,"NIGHT_CLEAR,CLEAR","Onshore,Onshore",2
5842041f4e65fad6a7708af8,2025_06_12,30.38250751017554,-86.45776,The Pumphouse,0.75,0,0.22,27,27,"NIGHT_CLEAR,MOSTLY_CLOUDY","Onshore,Onshore",2
5842041f4e65fad6a7708af9,2025_06_12,30.38655981578935,-86.52475,NCO Club,0.75,0,0.22,27,27,"NIGHT_CLEAR,CLEAR","Onshore,Onshore",2
5842041f4e65fad6a7708afa,2025_06_12,30.39024516541047,-86.59341,Okaloosa Pier,0.75,0,0.215,27,27,"NIGHT_CLEAR,CLEAR","Onshore,Onshore",2
5842041f4e65fad6a7708afb,2025_06_12,30.39281125722673,-86.59766,Dead Man's,0.75,0,0.215,27,27,"NIGHT_CLEAR,CLEAR","Onshore,Onshore",2
5842041f4e65fad6a7708afc,2025_06_12,30.32703176167034,-87.14196,Pensacola Pier,1,0,0.22999999999999998,28.5,28.5,"NIGHT_CLEAR,MIST","Onshore,Onshore",2
5842041f4e65fad6a7708afd,2025_06_12,30.37920054094992,-86.85583,Navarre Beach,0,0,0.14,27,27,"NIGHT_MOSTLY_CLEAR,MIST","Offshore,Cross-shore",2
5842041f4e65fad6a7708afe,2025_06_12,30.39491626029151,-86.61248,Blue Horizon Motel,0.75,0,0.215,27,27,"NIGHT_CLEAR,CLEAR","Onshore,Onshore",2
5842041f4e65fad6a7708aff,2025_06_12,30.29345899260828,-87.43547,First Parking Lot,0,0,0.225,28.5,28.5,"NIGHT_CLEAR,MIST","Onshore,Onshore",2
5842041f4e65fad6a7708b00,2025_06_12,30.29767401311303,-87.41362,Johnsons Beach,0.5,0,0.23,28.5,28.5,"NIGHT_CLEAR,MIST","Onshore,Onshore",2
5842041f4e65fad6a7708b01,2025_06_12,30.29513397370759,-87.42642,Sandy Key,0.5,0,0.225,28.5,28.5,"NIGHT_CLEAR,MIST","Onshore,Onshore",2
5842041f4e65fad6a7708b03,2025_06_12,30.377504907388026,-86.86444,Navarre Pier,0.75,0,0.199465,27,27,"NIGHT_MOSTLY_CLEAR,MIST","Offshore,Cross-shore",2
5842041f4e65fad6a7708b04,2025_06_12,30.31482647791307,-87.26164,Pickens Point Dunes,1,0,0.24,28.5,28.5,"NIGHT_MOSTLY_CLOUDY,MIST","Onshore,Onshore",2
5842041f4e65fad6a7708b05,2025_06_12,30.32632110836516,-87.16019503253068,Slabs,1,0,0.24,28.5,28.5,"NIGHT_CLEAR,MIST","Onshore,Onshore",2
5842041f4e65fad6a7708b06,2025_06_12,30.32739721382043,-87.30406515493348,Pickens Point,1,0,0.235,28.5,28.5,"NIGHT_CLEAR,MIST","Cross-shore,Onshore",2
5842041f4e65fad6a7708b07,2025_06_12,30.27406893266753,-87.54367,Bungalows,0.5,0,0.235,28.5,28.5,"NIGHT_CLEAR,MIST","Onshore,Onshore",2
5842041f4e65fad6a7708b08,2025_06_12,27.99627311846992,-82.82942,880,1,0,0.18722,30,30,"NIGHT_CLEAR,CLEAR","Offshore,Offshore",2
5842041f4e65fad6a7708b09,2025_06_12,27.97779860371595,-82.83246509090527,Pier 60,0.5,0,0.16999999999999998,30,30,"NIGHT_CLEAR,CLEAR","Offshore,Offshore",2
5842041f4e65fad6a7708b0a,2025_06_12,27.96296387618043,-82.8332635965418,Sand Key,0.5,0,0.165,30,30,"NIGHT_MOSTLY_CLOUDY,CLEAR","Offshore,Offshore",2
5842041f4e65fad6a7708b0b,2025_06_12,27.92492619212885,-82.8449122845279,Belleair,0.5,0,0.165,29.5,29.5,"NIGHT_CLEAR,CLEAR","Offshore,Offshore",2
5842041f4e65fad6a7708b0c,2025_06_12,27.882,-82.854,Indian Rocks Beach,0.5,0,0.175,29.5,29.5,"NIGHT_MOSTLY_CLOUDY,MOSTLY_CLEAR","Offshore,Offshore",2
5842041f4e65fad6a7708b0d,2025_06_12,27.83106104966094,-82.83550218771384,Redington Breakwater,0.5,0,0.165,29.5,29.5,"NIGHT_CLEAR,CLEAR","Offshore,Offshore",2
5842041f4e65fad6a7708b0e,2025_06_12,27.74369029906206,-82.76053473435867,Middle Jetty,0.5,0,0.16,29.5,29.5,"NIGHT_CLEAR,CLEAR","Offshore,Offshore",2
5842041f4e65fad6a7708b0f,2025_06_12,27.82174178852146,-82.83148664631841,Redington Pier,0,0,0.16,29.5,29.5,"NIGHT_CLEAR,CLEAR","Offshore,Offshore",2
5842041f4e65fad6a7708b10,2025_06_12,27.31496308261514,-82.5830466912004,Lido Beach,0.5,0,0.16,30,30,"NIGHT_CLEAR,CLEAR","Offshore,Offshore",2
5842041f4e65fad6a7708b11,2025_06_12,27.31122010159892,-82.57833234007632,Coolidge,0.5,0,0.16,30,30,"NIGHT_CLEAR,CLEAR","Offshore,Offshore",2
5842041f4e65fad6a7708b12,2025_06_12,27.26471672017615,-82.55465,Siesta Key,0,0,0.08648,30,30,"NIGHT_CLEAR,MIST","Offshore,Offshore",2
5842041f4e65fad6a7708b13,2025_06_12,27.24638693488133,-82.53809115716797,Stickney Point,0,0,0.14500000000000002,30,30,"NIGHT_CLEAR,MIST","Offshore,Offshore",2
5842041f4e65fad6a7708b14,2025_06_12,27.21907878229092,-82.51813937562073,Turtles,0,0,0.14,30,30,"NIGHT_CLEAR,CLEAR","Offshore,Offshore",2
5842041f4e65fad6a7708b15,2025_06_12,27.11375765852028,-82.47039,Venice Jetties North,0,0,0.09,27,27,"NIGHT_MOSTLY_CLOUDY,MIST","Offshore,Offshore",2
5842041f4e65fad6a7708b16,2025_06_12,27.111485758834025,-82.46757,Venice Jetties South,0,0,0.100555,27,27,"NIGHT_CLEAR,CLEAR","Offshore,Offshore",2
5842041f4e65fad6a7708b17,2025_06_12,27.07249378831575,-82.4530285256104,Venice Pier,0,0,0.14,27,27,"NIGHT_CLEAR,CLEAR","Offshore,Offshore",2
5842041f4e65fad6a7708b19,2025_06_12,27.49680446426314,-82.7140145455959,Holmes Beach Pier,0,0,0.165,30,30,"NIGHT_CLEAR,CLEAR","Offshore,Offshore",2
5842041f4e65fad6a7708b1a,2025_06_12,27.7390348493064,-82.75763,Sunset Beach,0,0,0.16,29.5,29.5,"NIGHT_CLEAR,CLEAR","Offshore,Offshore",2
5842041f4e65fad6a7708b1b,2025_06_12,26.80347307599041,-82.28564775623539,Gasparilla Point,0,0,0.115,30,30,"NIGHT_MOSTLY_CLOUDY,CLEAR","Offshore,Offshore",2
5842041f4e65fad6a7708b1c,2025_06_12,27.45365831548911,-82.69609,Coquina Jetties,0.5,0,0.165,30,30,"NIGHT_CLEAR,CLEAR","Offshore,Offshore",2
5842041f4e65fad6a7708b1d,2025_06_12,27.46077315206043,-82.69924,Twin Piers,0,0,0.1,27,27,"NIGHT_CLEAR,CLEAR","Offshore,Offshore",2
5842041f4e65fad6a7708b1e,2025_06_12,26.91007316019612,-82.35352,Englewood,0,0,0.05,30,30,"NIGHT_CLEAR,CLEAR","Offshore,Offshore",2
5842041f4e65fad6a7708b1f,2025_06_12,26.88221101560038,-82.3359828282636,Knight's Point,0,0,0.115,30,30,"NIGHT_CLEAR,CLEAR","Offshore,Offshore",2
5842041f4e65fad6a7708b20,2025_06_12,26.51219285784982,-82.1928203289264,Tween Waters,0,0,0.10500000000000001,30,30,"NIGHT_MOSTLY_CLOUDY,CLEAR","Offshore,Offshore",2
5842041f4e65fad6a7708b21,2025_06_12,26.55130241615096,-82.20222762415648,Redfish Pass,0,0,0.11,30,30,"NIGHT_MOSTLY_CLOUDY,CLEAR","Offshore,Offshore",2
5842041f4e65fad6a7708b22,2025_06_12,26.71713432926596,-82.26287777058234,Boca Grande,0,0,0.12,30,30,"NIGHT_CLEAR,CLEAR","Offshore,Offshore",2
5842041f4e65fad6a7708b23,2025_06_12,26.47856785808584,-82.181288592828,Blind Pass,0,0,0.11,30,30,"NIGHT_MOSTLY_CLEAR,CLEAR","Offshore,Offshore",2
5842041f4e65fad6a7708b24,2025_06_12,26.25358330618783,-81.82429246081317,The Wall,0,0,0.09,30,30,"NIGHT_MOSTLY_CLEAR,CLEAR","Offshore,Offshore",2
5842041f4e65fad6a7708b25,2025_06_12,26.17456407516186,-81.81588575623482,Doctor's Pass,0,0,0.09,30,30,"NIGHT_MOSTLY_CLEAR,CLEAR","Offshore,Offshore",2
5842041f4e65fad6a7708b26,2025_06_12,27.427134501874612,-82.68110766159296,Whitney Beach,0.5,0,0.18,30,30,"NIGHT_CLEAR,CLEAR","Offshore,Offshore",2
5842041f4e65fad6a7708b27,2025_06_12,26.17300183052463,-81.81515842430267,Doctor's Pass (South Jetty),0,0,0.1,30,30,"NIGHT_MOSTLY_CLEAR,CLEAR","Offshore,Offshore",2
5842041f4e65fad6a7708b28,2025_06_12,27.73496421495629,-82.75268962468695,Upham Beach Park,0.5,0,0.165,29.5,29.5,"NIGHT_CLEAR,CLEAR","Offshore,Offshore",2
5842041f4e65fad6a7708b29,2025_06_12,26.13144856766723,-81.8090395116521,Naples Pier,0,0,0.095,30,30,"NIGHT_MOSTLY_CLEAR,CLEAR","Offshore,Offshore",2
5842041f4e65fad6a7708b2a,2025_06_12,20.63474,-156.45211,Little Beach,2,0.095,0.4,26,26,"NIGHT_CLEAR,NIGHT_CLEAR","Cross-shore,Offshore",2
5842041f4e65fad6a7708b2b,2025_06_12,20.613,-156.438,Dumps,2,0.03,0.335,26,26,"NIGHT_MOSTLY_CLEAR,NIGHT_CLEAR","Offshore,Cross-shore",2
5842041f4e65fad6a7708b2c,2025_06_12,22.216,-159.502,Hanalei Bay,3,0.645,0.9550000000000001,26,26,"NIGHT_CLEAR,NIGHT_CLEAR","Offshore,Offshore",2
5842041f4e65fad6a7708b2d,2025_06_12,22.225,-159.567,Ha'Ena Bay (Cannons/Tunnels),1,0.645,0.9450000000000001,26,26,"NIGHT_MOSTLY_CLOUDY,NIGHT_MOSTLY_CLEAR","Cross-shore,Cross-shore",2
5842041f4e65fad6a7708b2f,2025_06_12,22.148,-159.301,Anahola Bay,1,0.73,1.0350000000000001,26,26,"NIGHT_MOSTLY_CLOUDY,NIGHT_MOSTLY_CLOUDY","Onshore,Onshore",2
5842041f4e65fad6a7708b30,2025_06_12,21.872,-159.462,Poipu Outer Reef,2,0.6,0.905,26,26,"NIGHT_BRIEF_SHOWERS,NIGHT_MOSTLY_CLOUDY","Offshore,Offshore",2
5842041f4e65fad6a7708b31,2025_06_12,21.936,-159.652,Pakala,2,0.28500000000000003,0.595,26,26,"NIGHT_CLEAR,NIGHT_CLEAR","Offshore,Offshore",2
5842041f4e65fad6a7708b32,2025_06_12,21.272,-157.832,Populars,2,0.35563999999999996,0.67467,26,25,"NIGHT_CLEAR,NIGHT_CLEAR","Offshore,Offshore",2
5842041f4e65fad6a7708b33,2025_06_12,21.26841992117695,-157.82329,Publics,2,0.42282,0.74124,26,25,"NIGHT_OVERCAST,NIGHT_BRIEF_SHOWERS_POSSIBLE","Offshore,Offshore",2
5842041f4e65fad6a7708b34,2025_06_12,21.25460513357954,-157.79432,Black Point,1.5,0.5983700000000001,0.93433,26,26,"NIGHT_CLOUDY,NIGHT_MOSTLY_CLOUDY","Offshore,Offshore",2
5842041f4e65fad6a7708b35,2025_06_12,21.27394674233747,-157.82777,Canoes,2,0.444125,0.757625,26,25,"NIGHT_OVERCAST,NIGHT_BRIEF_SHOWERS_POSSIBLE","Offshore,Offshore",2
5842041f4e65fad6a7708b36,2025_06_12,21.273658410008455,-157.8263,Queen's,2,0.3654,0.6786,26,25,"NIGHT_OVERCAST,NIGHT_BRIEF_SHOWERS_POSSIBLE","Offshore,Offshore",2
5842041f4e65fad6a7708b37,2025_06_12,20.869,-156.679,Lahaina Harbor - Breakwall,2.5,0.295,0.605,26,26,"NIGHT_MOSTLY_CLEAR,NIGHT_FOG","Onshore,Cross-shore",2
5842041f4e65fad6a7708b38,2025_06_12,21.277,-157.841,Kaiser's,2.5,0.595565,1.00376,26,25,"NIGHT_CLEAR,NIGHT_CLEAR","Offshore,Offshore",2
5842041f4e65fad6a7708b39,2025_06_12,21.280537020769913,-157.84107,Rockpiles,2,0.33599999999999997,0.6615,26,25,"NIGHT_CLEAR,NIGHT_CLEAR","Offshore,Offshore",2
5842041f4e65fad6a7708b3a,2025_06_12,21.2745,-157.8395,Four's,2,0.57116,0.88556,26,26,"NIGHT_CLEAR,NIGHT_CLEAR","Offshore,Offshore",2
5842041f4e65fad6a7708b3b,2025_06_12,21.576,-158.282,Kaena Point,1,0.36,0.665,26,26,"NIGHT_CLEAR,NIGHT_MOSTLY_CLEAR","Cross-shore,Cross-shore",2
5842041f4e65fad6a7708b3c,2025_06_12,21.31110306220024,-157.6590697786346,Makapu'u,1,0.605,0.91,25.5,25.5,"NIGHT_MOSTLY_CLOUDY,NIGHT_MOSTLY_CLOUDY","Onshore,Onshore",2
5842041f4e65fad6a7708b3d,2025_06_12,21.276618032562773,-157.83386,Three's,2,0.316385,0.775895,26,25,"NIGHT_CLEAR,NIGHT_CLEAR","Offshore,Offshore",2
5842041f4e65fad6a7708b3f,2025_06_12,39.63537452931482,-123.7858735430881,Westport,3,1.0350000000000001,1.3399999999999999,13,13,"NIGHT_MIST,MIST","Cross-shore,Cross-shore",2
5842041f4e65fad6a7708b40,2025_06_12,39.47339314374171,-123.8053109861082,MacKerricher,3,1.75,2.0300000000000002,13,13,"NIGHT_MIST,MIST","Cross-shore,Cross-shore",2
5842041f4e65fad6a7708b41,2025_06_12,39.30271935445495,-123.79757,Mendocino Township,2.5,0.79,1.0350000000000001,13,13,"NIGHT_MIST,MIST","Offshore,Offshore",2
5842041f4e65fad6a7708b42,2025_06_12,21.281416779283845,-157.8457,Ala Moana Bowls,2,0.535,0.835,26,25,"NIGHT_CLEAR,NIGHT_CLEAR","Offshore,Offshore",2
5842041f4e65fad6a7708b43,2025_06_12,15.846,-97.06,Puerto Escondido,4,2.305,2.75,30,30,"NIGHT_CLEAR,CLEAR","Offshore,Offshore",2
5842041f4e65fad6a7708b44,2025_06_12,11.44175,-86.08519,Santana,4,1.615,1.93,29.5,29.5,"NIGHT_OVERCAST,THUNDER_SHOWERS","Offshore,Offshore",2
5842041f4e65fad6a7708b46,2025_06_12,38.91444690804076,-123.7104245288878,Point Arena,2,1.55,1.855,12.5,12.5,"NIGHT_MIST,MIST","Cross-shore,Cross-shore",2
5842041f4e65fad6a7708b47,2025_06_12,18.46,-66.07383728027,San Juan,1,0.7,1,28,27,"NIGHT_CLEAR,MOSTLY_CLOUDY","Cross-shore,Cross-shore",2
5842041f4e65fad6a7708b48,2025_06_12,13.21526058417982,-59.52183,Soup Bowl,1,1.365,1.67,28,28,"NIGHT_HEAVY_THUNDER_STORMS,LIGHT_RAIN","Onshore,Onshore",2
5842041f4e65fad6a7708b49,2025_06_12,18.371581,-67.25941,Puntas,0.75,0,0.257395,28,27,"NIGHT_CLEAR,CLEAR","Cross-shore,Cross-shore",2
5842041f4e65fad6a7708b4b,2025_06_12,-8.814,115.089,Uluwatu,3,2.48503,2.96563,28,28,"CLEAR,NIGHT_BRIEF_SHOWERS_POSSIBLE","Offshore,Offshore",2
5842041f4e65fad6a7708b4c,2025_06_12,-8.950192825865,115.12573,Kuta,0.5,2.315,2.7699999999999996,29,29,"CLEAR,NIGHT_CLEAR","Onshore,Onshore",2
5842041f4e65fad6a7708b4d,2025_06_12,9.94,-85.668,Guiones,3.5,1.105,1.365,29.5,29.5,"NIGHT_DRIZZLE,BRIEF_SHOWERS","Offshore,Offshore",2
5842041f4e65fad6a7708b4e,2025_06_12,9.56516,-84.59148,Playa Hermosa South,4,1.1867649999999998,1.5331350000000001,29.5,29.5,"NIGHT_CLOUDY,MOSTLY_CLOUDY","Cross-shore,Offshore",2
5842041f4e65fad6a7708b4f,2025_06_12,9.526305556,-84.48822,Playa Esterillos,3,1.7650000000000001,2.11,29.5,29.5,"NIGHT_CLOUDY,MOSTLY_CLOUDY","Offshore,Offshore",2
5842041f4e65fad6a7708b50,2025_06_12,9.576,-84.608,Playa Hermosa North,3.5,1.35,1.615,29.5,29.5,"NIGHT_CLOUDY,MOSTLY_CLOUDY","Cross-shore,Offshore",2
5842041f4e65fad6a7708b53,2025_06_12,-12.337,-76.839,Pico Alto,3,2.35798,2.818605,19.5,19.5,"NIGHT_OVERCAST,MOSTLY_CLOUDY","Onshore,Onshore",2
5842041f4e65fad6a7708b55,2025_06_12,-12.17155,-77.08515,Peruazul,3,1.22,1.46,20,20,"NIGHT_CLOUDY,CLOUDY","Cross-shore,Cross-shore",2
5842041f4e65fad6a7708b56,2025_06_12,-12.133164,-77.03916,Makaha,2,2.361905,2.8266299999999998,20,20,"NIGHT_CLOUDY,CLOUDY","Cross-shore,Cross-shore",2
5842041f4e65fad6a7708b57,2025_06_12,43.29,-2.1708,Zarautz,1.5,0.062595,0.409725,20,20,"CLEAR,MOSTLY_CLEAR","Onshore,Onshore",2
5842041f4e65fad6a7708b58,2025_06_12,54.27129984804951,-8.60171,Strandhill,4,1.586755,2.479305,14,14,"OVERCAST,LIGHT_RAIN","Offshore,Offshore",2
5842041f4e65fad6a7708b5b,2025_06_12,39.276101,-74.56709,7th Street,1.8333333333333333,0.252655,0.619615,18,17,"NIGHT_CLEAR,CLEAR","Cross-shore,Onshore",2
5842041f4e65fad6a7708b5d,2025_06_12,39.321896,-74.506191,Sumner Avenue,1,0.14,0.44,18,18,"NIGHT_CLEAR,CLEAR","Onshore,Cross-shore",2
5842041f4e65fad6a7708b5e,2025_06_12,39.093673,-74.71653,26th to 30th Street Pier,1.3333333333333333,0.18416,0.52946,18,17,"NIGHT_CLEAR,CLEAR","Cross-shore,Cross-shore",2
5842041f4e65fad6a7708b5f,2025_06_12,39.039903,-74.76417,Nun's Beach,1,0.145575,0.5253300000000001,18.5,17.5,"NIGHT_CLEAR,CLEAR","Cross-shore,Cross-shore",2
5842041f4e65fad6a7708b60,2025_06_12,38.96768,-74.82565,Rambler Road,1,0.16,0.45999999999999996,18.5,17.5,"NIGHT_CLEAR,CLEAR","Cross-shore,Cross-shore",2
5842041f4e65fad6a7708b61,2025_06_12,38.99931,-74.78814,2nd St. to 10th St.,1,0.13,0.44,18.5,17.5,"NIGHT_CLEAR,CLEAR","Cross-shore,Cross-shore",2
5842041f4e65fad6a7708b62,2025_06_12,38.929886,-74.91718,Stockton Avenue,1.5,0.00674,0.404435,18.5,17.5,"NIGHT_CLEAR,MIST","Offshore,Cross-shore",2
5842041f4e65fad6a7708b63,2025_06_12,38.942988,-74.862452,The Rocks,1,0.065,0.365,18.5,17.5,"NIGHT_CLEAR,CLEAR","Onshore,Cross-shore",2
5842041f4e65fad6a7708b64,2025_06_12,38.93036,-74.91257,Queen Street,1.8333333333333333,0.12,0.43,18.5,17.5,"NIGHT_CLEAR,CLEAR","Cross-shore,Cross-shore",2
5842041f4e65fad6a7708b65,2025_06_12,38.942757,-74.880791,Poverty Beach,1,0.15000000000000002,0.45499999999999996,18.5,17.5,"NIGHT_CLEAR,CLEAR","Onshore,Onshore",2
5842041f4e65fad6a7708b66,2025_06_12,38.929441,-74.93129,Broadway Beach,1.8333333333333333,0.115,0.42,18.5,17.5,"NIGHT_CLEAR,CLEAR","Cross-shore,Onshore",2
5842041f4e65fad6a7708b67,2025_06_12,38.92870117926206,-74.92116,Grant Street Beach,1.8333333333333333,0.12,0.43,18.5,17.5,"NIGHT_CLEAR,MIST","Cross-shore,Cross-shore",2
5842041f4e65fad6a7708b68,2025_06_12,38.928934874358276,-74.93582,The Cove,2,0.085,0.385,19.5,19.5,"NIGHT_CLEAR,CLEAR","Cross-shore,Onshore",2
5842041f4e65fad6a7708b69,2025_06_12,26.775154329102108,-80.03124833106995,Pumphouse,1,0.16499999999999998,0.47,28.5,28.5,"NIGHT_CLEAR,CLEAR","Onshore,Onshore",2
5842041f4e65fad6a7708b6a,2025_06_12,26.72114353296791,-80.03310374527736,Sunrise,0.75,0.16,0.45999999999999996,28,27,"NIGHT_CLEAR,MOSTLY_CLEAR","Onshore,Cross-shore",2
5842041f4e65fad6a7708b6b,2025_06_12,26.71306786153966,-80.03222170715443,Breakers,0.75,0.16499999999999998,0.47,28,27,"NIGHT_CLEAR,MOSTLY_CLEAR","Onshore,Cross-shore",2
5842041f4e65fad6a7708b6c,2025_06_12,26.699075556703683,-80.03263235092163,Charlie's Crab,0.75,0.16999999999999998,0.48,28,27,"NIGHT_CLEAR,MOSTLY_CLEAR","Onshore,Cross-shore",2
5842041f4e65fad6a7708b6d,2025_06_12,26.79441490392914,-80.0306161110009,Ocean Reef Park,0.75,0.115,0.42000000000000004,28,27,"NIGHT_CLEAR,CLEAR","Onshore,Onshore",2
5842041f4e65fad6a7708b6f,2025_06_12,26.93134670517399,-80.06760115579169,Civic Center,0.75,0.5077499999999999,0.74091,28,27,"NIGHT_CLEAR,CLEAR","Onshore,Onshore",2
5842041f4e65fad6a7708b70,2025_06_12,26.90524197396177,-80.0593609780092,Kite Beach,0.75,0.0856,0.32189500000000004,28,27,"NIGHT_CLEAR,MOSTLY_CLEAR","Onshore,Onshore",2
5842041f4e65fad6a7708b71,2025_06_12,26.54279208054373,-80.04292130470276,Boynton Beach Inlet (Southside),0,0.08499999999999999,0.39,28,27,"NIGHT_CLEAR,CLEAR","Onshore,Onshore",2
5842041f4e65fad6a7708b72,2025_06_12,26.613511029817357,-80.03534,Lake Worth Pier,0.75,0.17768,0.51083,28,27,"NIGHT_CLEAR,MOSTLY_CLEAR","Onshore,Onshore",2
5842041f4e65fad6a7708b73,2025_06_12,27.06670219261476,-80.11447191238403,Hobe Sound Public Beach,0.75,0.215,0.52,26,26,"NIGHT_MOSTLY_CLOUDY,CLEAR","Onshore,Cross-shore",2
5842041f4e65fad6a7708b75,2025_06_12,27.21467611230439,-80.17308,Stuart Public Beach,0.5,0.23306,0.5690999999999999,27,26,"NIGHT_MOSTLY_CLOUDY,SHOWERS","Offshore,Cross-shore",2
5842041f4e65fad6a7708b76,2025_06_12,27.36627923374593,-80.24622,Blind Creek Park,0.75,0.175,0.485,27,26,"NIGHT_CLEAR,MOSTLY_CLEAR","Cross-shore,Onshore",2
5842041f4e65fad6a7708b77,2025_06_12,26.94256932088346,-80.07057,Jupiter Inlet,0.75,0.185,0.485,26,26,"NIGHT_CLEAR,CLEAR","Onshore,Onshore",2
5842041f4e65fad6a7708b78,2025_06_12,26.89365359499372,-80.056,Juno Pier,0.75,0,0.27221,28,27,"NIGHT_CLEAR,MOSTLY_CLEAR","Onshore,Onshore",2
5842041f4e65fad6a7708b7a,2025_06_12,29.67671206577928,-85.3689474172784,Cape San Blas,1.5,0,0.21000000000000002,28,28,"NIGHT_OVERCAST,CLEAR","Cross-shore,Offshore",2
5842041f4e65fad6a7708b7b,2025_06_12,26.706551543472415,-80.03280401229858,Flagpole,0.75,0.16499999999999998,0.47,28,27,"NIGHT_CLEAR,MOSTLY_CLEAR","Onshore,Cross-shore",2
5842041f4e65fad6a7708b7c,2025_06_12,29.94036477533054,-85.40953557392244,El Governor,1,0,0.175,28,28,"NIGHT_CLEAR,CLEAR","Offshore,Offshore",2
5842041f4e65fad6a7708b7d,2025_06_12,29.68231979841189,-85.30627194238092,Toilet Bowls,1,0,0.21000000000000002,28,28,"NIGHT_CLOUDY,MOSTLY_CLOUDY","Onshore,Offshore",2
5842041f4e65fad6a7708b7e,2025_06_12,29.6607153445246,-84.86361191991014,St. George Island,0.5,0,0.185,28,28,"NIGHT_CLOUDY,CLEAR","Onshore,Onshore",2
5842041f4e65fad6a7708b7f,2025_06_12,29.77441172865639,-84.65942657000329,Dog Island,1,0,0.18,28,28,"NIGHT_CLOUDY,CLEAR","Onshore,Onshore",2
5842041f4e65fad6a7708b80,2025_06_12,28.59674155718017,-95.97559,Matagorda,1,0.79,1.0899999999999999,29,29,"NIGHT_CLOUDY,CLEAR","Onshore,Onshore",2
5842041f4e65fad6a7708b81,2025_06_12,27.84601633294622,-97.04372701603208,St. Joe's Island,0.5,0.6950000000000001,1,29,29,"NIGHT_MIST,CLOUDY","Onshore,Onshore",2
5842041f4e65fad6a7708b82,2025_06_12,27.64327897922308,-97.18612,J.P. Luby Surf Park,0.5,0.90094,1.261315,28.5,28.5,"NIGHT_MIST,CLEAR","Onshore,Onshore",2
5842041f4e65fad6a7708b83,2025_06_12,27.82704888028459,-97.05277,Horace Caldwell Pier,1,0.8580300000000001,1.2326700000000002,29,29,"NIGHT_MIST,CLOUDY","Onshore,Onshore",2
5842041f4e65fad6a7708b84,2025_06_12,27.67634780977739,-97.16473,Fish Pass,1,0.90094,1.261315,28.5,28.5,"NIGHT_MIST,CLEAR","Onshore,Onshore",2
5842041f4e65fad6a7708b85,2025_06_12,27.58118015227788,-97.2191,Bob Hall Pier,0.5,0.9319550000000001,1.30596,28,28,"NIGHT_DRIZZLE,MOSTLY_CLOUDY","Onshore,Onshore",2
5842041f4e65fad6a7708b86,2025_06_12,28.93236038480434,-95.30205,Quintana,1,0.95535,1.3048700000000002,29,29,"NIGHT_CLOUDY,CLEAR","Onshore,Onshore",2
5842041f4e65fad6a7708b87,2025_06_12,28.94367955201253,-95.28969,Octagon,1,0.95535,1.3048700000000002,29,29,"NIGHT_CLOUDY,MOSTLY_CLOUDY","Onshore,Onshore",2
5842041f4e65fad6a7708b88,2025_06_12,29.02647703020454,-95.18702498902157,Boilers,0.5,0.75,1.05,29,29,"NIGHT_MOSTLY_CLOUDY,SHOWERS","Onshore,Onshore",2
5842041f4e65fad6a7708b89,2025_06_12,28.9653363517684,-95.26739753922841,Assholes,1,0.86,1.165,29,29,"NIGHT_CLEAR,CLEAR","Onshore,Onshore",2
5842041f4e65fad6a7708b8a,2025_06_12,29.27159138874912,-94.81532732168617,51st Street,1,0.8200000000000001,1.125,29,29,"NIGHT_CLEAR,CLEAR","Onshore,Onshore",2
5842041f4e65fad6a7708b8b,2025_06_12,29.13902635892794,-95.04070493829546,West Galveston,1,0.91,1.215,29,29,"NIGHT_MOSTLY_CLOUDY,MOSTLY_CLOUDY","Onshore,Onshore",2
5842041f4e65fad6a7708b8c,2025_06_12,29.26596874354759,-94.82556,61st Street,1,0.83075,1.1919499999999998,29,29,"NIGHT_MOSTLY_CLOUDY,OVERCAST","Onshore,Onshore",2
5842041f4e65fad6a7708b8d,2025_06_12,29.279815639798642,-94.80146,37th Street,1,0.78562,1.1454499999999999,29,29,"NIGHT_MOSTLY_CLOUDY,OVERCAST","Onshore,Onshore",2
5842041f4e65fad6a7708b8e,2025_06_12,29.28680654948785,-94.79106,Flagship,1,0.751925,1.10717,29,29,"NIGHT_CLEAR,OVERCAST","Onshore,Onshore",2
5842041f4e65fad6a7708b8f,2025_06_12,29.4702751255731,-94.59146640261427,A-Frames,1,0.7949999999999999,1.1,29,29,"NIGHT_OVERCAST,CLEAR","Onshore,Onshore",2
5842041f4e65fad6a7708b90,2025_06_12,29.52172627288487,-94.45911,Meacom's Pier,1,0.783975,1.1547,29.5,29.5,"NIGHT_OVERCAST,CLOUDY","Onshore,Onshore",2
5842041f4e65fad6a7708b91,2025_06_12,29.4510876813709,-94.63230467945758,Crystal Beach,1,0.6699999999999999,0.98,29,29,"NIGHT_CLEAR,CLEAR","Onshore,Onshore",2
5842041f4e65fad6a7708b92,2025_06_12,26.06123118244004,-97.14769,Boca Chica,1,0.73272,1.0819100000000001,28,28,"NIGHT_MIST,MOSTLY_CLOUDY","Onshore,Cross-shore",2
5842041f4e65fad6a7708b93,2025_06_12,26.06961904983808,-97.15243,Isla Blanca State Park,1,0.6253200000000001,0.968415,28,28,"NIGHT_MIST,MOSTLY_CLOUDY","Cross-shore,Cross-shore",2
5842041f4e65fad6a7708b96,2025_06_12,26.56132001354785,-97.26967,Port Mansfield,1,0.849335,1.22017,28,28,"NIGHT_MIST,CLOUDY","Onshore,Onshore",2
5842041f4e65fad6a7708b98,2025_06_12,10.85099440725964,-85.79981,Ollie's Point,4,1.19,1.415,29.5,29.5,"NIGHT_OVERCAST,CLEAR","Offshore,Offshore",2
5842041f4e65fad6a7708b99,2025_06_12,10.79489213393012,-85.68066,Witches Rock,4,1.585,1.8900000000000001,29.5,29.5,"NIGHT_OVERCAST,CLEAR","Offshore,Offshore",2
5842041f4e65fad6a7708b9a,2025_06_12,9.570222044864844,-85.14184,Mal Pais,3.5,1.415,1.71,29.5,29.5,"NIGHT_LIGHT_SHOWERS,LIGHT_SHOWERS","Offshore,Cross-shore",2
5842041f4e65fad6a7708b9b,2025_06_12,10.29970304257365,-85.84398,Tamarindo,3,0.8300000000000001,1.08,29.5,29.5,"NIGHT_OVERCAST,CLEAR","Offshore,Offshore",2
5842041f4e65fad6a7708b9c,2025_06_12,9.250593929300813,-83.86522,Dominical,4,1.33,1.6099999999999999,29.5,29.5,"NIGHT_OVERCAST,CLEAR","Offshore,Cross-shore",2
5842041f4e65fad6a7708b9d,2025_06_12,9.48278011021258,-84.28883991550364,Bejuco,3.5,1.005,1.31,29.5,29.5,"NIGHT_OVERCAST,MOSTLY_CLEAR","Cross-shore,Offshore",2
5842041f4e65fad6a7708ba1,2025_06_12,9.616940559391795,-84.63541,Playa Jaco,3.5,1.37236,1.6367099999999999,29.5,29.5,"NIGHT_CLOUDY,MOSTLY_CLOUDY","Cross-shore,Offshore",2
5842041f4e65fad6a7708ba3,2025_06_12,9.661646156842439,-84.67316883195207,Playa Escondida,3,1.025,1.2850000000000001,29.5,29.5,"NIGHT_LIGHT_SHOWERS,CLEAR","Cross-shore,Offshore",2
5842041f4e65fad6a7708ba4,2025_06_12,9.635059578319176,-84.66159522794959,Herradura,3,1.005,1.31,29.5,29.5,"NIGHT_LIGHT_SHOWERS,CLEAR","Cross-shore,Offshore",2
5842041f4e65fad6a7708ba5,2025_06_12,9.958235741436532,-84.74122,Boca Barranca,4,0.962135,1.24546,29.5,29.5,"NIGHT_DRIZZLE,CLEAR","Cross-shore,Cross-shore",2
5842041f4e65fad6a7708ba6,2025_06_12,9.922484732656224,-84.7158981889118,Caldera Jetty,3,0.825,1.07,29.5,29.5,"NIGHT_DRIZZLE,CLEAR","Offshore,Offshore",2
5842041f4e65fad6a7708ba7,2025_06_12,9.661180947362254,-82.75273,Salsa Brava,2,0.68176,1.03124,29.5,29.5,"NIGHT_THUNDER_STORMS,LIGHT_RAIN","Cross-shore,Cross-shore",2
5842041f4e65fad6a7708ba8,2025_06_12,8.38230022212565,-83.28332,Matapalo,4,1.1949999999999998,1.43,29.5,29.5,"NIGHT_OVERCAST,LIGHT_SHOWERS","Offshore,Onshore",2
5842041f4e65fad6a7708ba9,2025_06_12,8.394937,-83.13952,Pavones,4,1.24,1.4849999999999999,29.5,29.5,"NIGHT_OVERCAST,LIGHT_SHOWERS","Onshore,Cross-shore",2
5842041f4e65fad6a7708baa,2025_06_12,13.47971255664387,-89.28610104791234,Playa San Diego,3.5,1.68,2.01,31,31,"NIGHT_CLEAR,CLEAR","Offshore,Offshore",2
5842041f4e65fad6a7708bab,2025_06_12,13.4834740494465,-89.32376,La Paz,3,0.83555,1.06738,31,31,"NIGHT_CLEAR,CLEAR","Offshore,Offshore",2
5842041f4e65fad6a7708bac,2025_06_12,13.48587874937462,-89.31998852531258,El Muelle (Pier),3,1.8,2.1550000000000002,31,31,"NIGHT_CLEAR,CLEAR","Offshore,Offshore",2
5842041f4e65fad6a7708bad,2025_06_12,13.47973883183636,-89.32655,Punta Roca,4,1.6749999999999998,2,30,29,"NIGHT_BRIEF_SHOWERS_POSSIBLE,CLEAR","Onshore,Offshore",2
5842041f4e65fad6a7708bae,2025_06_12,13.491596878346689,-89.38104,La Bocana,4,1.479835,1.792245,0,0,"NIGHT_CLEAR,CLEAR","Offshore,Offshore",2
5842041f4e65fad6a7708baf,2025_06_12,13.48324995683858,-89.33946,Playa Conchalio,4,1.428185,1.713825,30.5,30.5,"NIGHT_CLEAR,CLEAR","Offshore,Offshore",2
5842041f4e65fad6a7708bb0,2025_06_12,13.49167561061991,-89.39,Sunzal,4,1.4688750000000002,1.7538749999999999,30.5,30.5,"NIGHT_CLEAR,CLEAR","Offshore,Offshore",2
5842041f4e65fad6a7708bb1,2025_06_12,35.92499624829542,-121.46957,Sand Dollar Beach,1.5,2.075,2.305,15,15,"NIGHT_CLEAR,CLEAR","Cross-shore,Cross-shore",2
5842041f4e65fad6a7708bb3,2025_06_12,36.55448900657569,-121.93114,Carmel Beach,3,0.99,1.19,15,15,"NIGHT_MIST,MIST","Cross-shore,Cross-shore",2
5842041f4e65fad6a7708bb4,2025_06_12,36.27968576518622,-121.85962,Big Sur Rivermouth,3,1.135,1.355,15,15,"NIGHT_CLEAR,CLEAR","Offshore,Offshore",2
5842041f4e65fad6a7708bb5,2025_06_12,36.60883280895963,-121.9603486684287,Mole Point,2,1.145,1.355,15,15,"NIGHT_MIST,MIST","Onshore,Onshore",2
5842041f4e65fad6a7708bb6,2025_06_12,36.63788026219399,-121.9311174079908,Boneyard,2,1.1099999999999999,1.415,15,15,"NIGHT_MIST,MIST","Onshore,Onshore",2
5842041f4e65fad6a7708bb7,2025_06_12,36.61880091818895,-121.9422482210244,Asilomar,2,1.605,1.775,15,15,"NIGHT_MIST,MIST","Onshore,Onshore",2
5842041f4e65fad6a7708bb8,2025_06_12,36.56037685095311,-121.9516152313922,Ghost Tree,NA,0.995,1.19,15,15,"NIGHT_MIST,MIST","Cross-shore,Cross-shore",2
5842041f4e65fad6a7708bbb,2025_06_12,35.89412279173619,-121.462380148047,Willow Creek,1,1.98,2.2800000000000002,15,15,"NIGHT_MOSTLY_CLEAR,CLEAR","Cross-shore,Cross-shore",2
5842041f4e65fad6a7708bbc,2025_06_12,36.6260658643635,-121.91548,Lovers Point,2,0.41500000000000004,0.72,15,15,"NIGHT_OVERCAST,MIST","Onshore,Onshore",2
5842041f4e65fad6a7708bbd,2025_06_12,38.945,-9.42,Foz de Lizandro,1,0.610545,0.9183,17,17,"CLEAR,CLEAR","Cross-shore,Cross-shore",2
5842041f4e65fad6a7708bbf,2025_06_12,36.80821791915616,-121.79055,Moss Landing,3,0.715,1.025,15,15,"NIGHT_MIST,CLOUDY","Onshore,Cross-shore",2
5842041f4e65fad6a7708bc0,2025_06_12,38.67869246746279,-9.33685,Carcavelos,1,0.26115,0.568395,17,17,"CLEAR,OVERCAST","Onshore,Onshore",2
5842041f4e65fad6a7708bc1,2025_06_12,38.983,-9.425,Reef,2,1.05,1.33,17,17,"CLEAR,CLEAR","Cross-shore,Onshore",2
5842041f4e65fad6a7708bc2,2025_06_12,38.988,-9.424,Ribeira D'Ilhas,2,0.6950000000000001,1,17,17,"CLEAR,CLEAR","Onshore,Onshore",2
5842041f4e65fad6a7708bc3,2025_06_12,39.34167968424256,-9.36331,Supertubos,1,0.435,0.74,17,17,"CLEAR,CLOUDY","Onshore,Onshore",2
5842041f4e65fad6a7708bc4,2025_06_12,39.001,-9.4284,Coxos,1,0.67205,0.99232,17,17,"CLEAR,CLEAR","Onshore,Onshore",2
5842041f4e65fad6a7708bc5,2025_06_12,40.13063921100635,-8.87044,Cabedelo,1,0.83257,1.08796,18,18,"CLOUDY,CLOUDY","Cross-shore,Cross-shore",2
5842041f4e65fad6a7708bc6,2025_06_12,39.37397686060677,-9.33235,Baleal,2,0.11000000000000001,0.415,17,17,"CLEAR,CLOUDY","Offshore,Offshore",2
5842041f4e65fad6a7708bc7,2025_06_12,31.80902927937703,-116.8081979700041,Todos Santos / Killers,NA,0.995,1.185,19,19,"NIGHT_MIST,CLOUDY","Onshore,Onshore",2
5842041f4e65fad6a7708bc8,2025_06_12,43.68220203786759,-1.44167,Les Culs Nus,1.5,0.19062,0.5174000000000001,20,20,"CLEAR,CLEAR","Offshore,Cross-shore",2
5842041f4e65fad6a7708bc9,2025_06_12,31.90016519474307,-116.73117,San Miguel,3,0.655,0.96,19,19,"NIGHT_MOSTLY_CLOUDY,CLEAR","Cross-shore,Offshore",2
5842041f4e65fad6a7708bca,2025_06_12,43.48469485823068,-1.56023,Biarritz,1.5,0.13104,0.43849,20,20,"CLEAR,MOSTLY_CLOUDY","Onshore,Cross-shore",2
5842041f4e65fad6a7708bcb,2025_06_12,39.0132,-9.424,Sao Lourenco,1,0.6462950000000001,0.96181,17,17,"CLEAR,CLEAR","Cross-shore,Cross-shore",2
5842041f4e65fad6a7708bcd,2025_06_12,43.64760422014503,-1.44721,Le Santocha,1.5,0.042394999999999995,0.27747,20,20,"CLEAR,CLEAR","Offshore,Onshore",2
5842041f4e65fad6a7708bce,2025_06_12,43.51401611768647,-1.53382,Anglet,1.5,0.25,0.555,20,20,"CLEAR,MOSTLY_CLOUDY","Onshore,Onshore",2
5842041f4e65fad6a7708bcf,2025_06_12,43.479,-1.569,La Cote des Basques,1.5,0.13441,0.44976499999999997,20,20,"CLEAR,MOSTLY_CLOUDY","Onshore,Onshore",2
5842041f4e65fad6a7708bd0,2025_06_12,32.3489432986615,-117.0668043482785,Rosarito Beach,3,0.9299999999999999,1.11,19,19,"NIGHT_MOSTLY_CLOUDY,MOSTLY_CLOUDY","Cross-shore,Cross-shore",2
5842041f4e65fad6a7708bd1,2025_06_12,23.44473573026049,-110.2452466338192,Todos Santos,3,1.26,1.505,21.5,21.5,"NIGHT_CLEAR,CLEAR","Onshore,Onshore",2
5842041f4e65fad6a7708bd2,2025_06_12,31.97636522717259,-116.7913888957552,Salsipuedes,3,0.405,0.715,19,19,"NIGHT_CLEAR,CLEAR","Offshore,Offshore",2
5842041f4e65fad6a7708bd3,2025_06_12,23.39151658553801,-110.2143952234506,Las Palmas,3,1.33,1.605,21.5,21.5,"NIGHT_CLEAR,CLEAR","Onshore,Onshore",2
5842041f4e65fad6a7708bd4,2025_06_12,23.02358192684975,-109.7147,Old Man's,2.5,1.0350000000000001,1.29,25,25,"NIGHT_CLEAR,CLEAR","Onshore,Onshore",2
5842041f4e65fad6a7708bd5,2025_06_12,23.32877869857464,-110.17715,Cerritos,3,1.2349999999999999,1.48,21.5,21.5,"NIGHT_CLEAR,CLEAR","Cross-shore,Cross-shore",2
5842041f4e65fad6a7708bd6,2025_06_12,23.36729303816202,-110.20268,San Pedrito,3,0.97,1.155,21.5,21.5,"NIGHT_CLEAR,CLEAR","Cross-shore,Cross-shore",2
5842041f4e65fad6a7708bd7,2025_06_12,23.02506324659338,-109.71456,The Rock,3,1.0899999999999999,1.3599999999999999,25,25,"NIGHT_CLEAR,CLEAR","Onshore,Onshore",2
5842041f4e65fad6a7708bd8,2025_06_12,22.896,-109.869,Monuments,3,1.29,1.54,24,24,"NIGHT_CLEAR,CLEAR","Offshore,Cross-shore",2
5842041f4e65fad6a7708bd9,2025_06_12,23.04871261564847,-109.6800082320905,The Estuary,2.5,1.085,1.345,25.5,25.5,"NIGHT_CLEAR,CLEAR","Onshore,Cross-shore",2
5842041f4e65fad6a7708bda,2025_06_12,23.029,-109.714,Zippers,3,1.155,1.435,25,25,"NIGHT_CLEAR,CLEAR","Onshore,Onshore",2
5842041f4e65fad6a7708bdb,2025_06_12,23.12,-109.527,Shipwreck,3,1.01,1.255,25.5,25.5,"NIGHT_CLEAR,CLEAR","Onshore,Onshore",2
5842041f4e65fad6a7708bdc,2025_06_12,23.174,-109.476,Nine Palms,3,1.295,1.55,25.5,25.5,"NIGHT_CLEAR,CLEAR","Onshore,Onshore",2
5842041f4e65fad6a7708bdd,2025_06_12,4.307463458457968,73.57742,Jailbreaks,3,1.225,1.53,30,30,"CLEAR,BRIEF_SHOWERS_POSSIBLE","Offshore,Offshore",2
5842041f4e65fad6a7708bde,2025_06_12,4.31216545719424,73.58368,Honky's,1,1.439575,1.573865,30,30,"CLEAR,BRIEF_SHOWERS_POSSIBLE","Cross-shore,Cross-shore",2
