_id,date,lat,lon,name,daily_mean_swell_rating,daily_mean_wave_height_min,daily_mean_wave_height_max,daily_mean_water_temperature_max,daily_mean_water_temperature_min,weather_per_timestamp,wind_per_timestamp,n_samples_per_day
5842041f4e65fad6a77087f9,2025_01_27,37.741668,-122.51038,South Ocean Beach,3,0.81132,1.1099,11,11,NIGHT_CLEAR,Offshore,1
5842041f4e65fad6a7708801,2025_01_27,37.49142,-122.50428,Maverick's,NA,0.7,1,12,12,NIGHT_CLEAR,Offshore,1
5842041f4e65fad6a7708804,2025_01_27,44.997,-124.018,Roads End,3,1.17,1.4,10,10,NIGHT_CLEAR,Cross-shore,1
5842041f4e65fad6a7708805,2025_01_27,36.95188851423011,-122.02522,Steamer Lane,2,0.33971,0.65847,12,12,NIGHT_CLEAR,Offshore,1
5842041f4e65fad6a7708806,2025_01_27,36.95918781542251,-122.02489,Cowells,0,0,0.09407,12,12,NIGHT_CLEAR,Cross-shore,1
5842041f4e65fad6a7708807,2025_01_27,36.95468082526536,-121.97234,Pleasure Point,2,0.33146,0.61025,12,12,NIGHT_CLEAR,Offshore,1
5842041f4e65fad6a770880a,2025_01_27,35.37815414378748,-120.86589,Morro Bay,3,0.61,0.92,11,11,NIGHT_CLEAR,Cross-shore,1
5842041f4e65fad6a770880b,2025_01_27,36.95782765000708,-121.96729,Jack's,1,0.0508,0.29488,12,12,NIGHT_CLEAR,Onshore,1
5842041f4e65fad6a770880d,2025_01_27,34.29982939936656,-119.3489016603669,Gold Coast Beachbreaks,2,0.04,0.35,14,14,NIGHT_CLEAR,Offshore,1
5842041f4e65fad6a7708811,2025_01_27,34.245076,-119.26799,Ventura Harbor,3,0.43819,0.76951,13,13,NIGHT_MOSTLY_CLEAR,Offshore,1
5842041f4e65fad6a7708813,2025_01_27,34.051,-118.964,County Line,3,0.29275,0.61804,14,14,NIGHT_CLEAR,Offshore,1
5842041f4e65fad6a7708814,2025_01_27,34.37256264378892,-119.47797,Rincon,2,0.12,0.42,14,14,NIGHT_MOSTLY_CLEAR,Offshore,1
5842041f4e65fad6a7708817,2025_01_27,34.03096101876324,-118.68109,Malibu Third Point,2,0.02,0.32,14,14,NIGHT_MOSTLY_CLEAR,Offshore,1
5842041f4e65fad6a7708819,2025_01_27,33.984079047970035,-118.47382,Venice Beach,3,0.46035,0.77073,13,13,NIGHT_MOSTLY_CLEAR,Offshore,1
5842041f4e65fad6a770881e,2025_01_27,34.037508438646746,-118.5834,Topanga Beach,2,0.17058,0.4904,14,14,NIGHT_SHOWERS,Offshore,1
5842041f4e65fad6a7708820,2025_01_27,33.73954373690184,-118.11414,Seal Beach Jetty,2,0.19743,0.55746,14,14,NIGHT_FOG,Offshore,1
5842041f4e65fad6a7708822,2025_01_27,33.72309983348433,-118.08078,Anderson Street,2,0.17224,0.45497,14,14,NIGHT_SHOWERS,Offshore,1
5842041f4e65fad6a7708827,2025_01_27,33.65574085629463,-118.00397,Huntington Beach Pier Northside,3,0.49215,0.87649,14,14,NIGHT_MOSTLY_CLEAR,Offshore,1
5842041f4e65fad6a7708828,2025_01_27,34.272041739333,-119.29976,C St.,2,0.20509,0.49807,13,13,NIGHT_CLEAR,Offshore,1
5842041f4e65fad6a770882a,2025_01_27,33.61555743705257,-117.93676,Newport Lower Jetties,2,0.3951,0.73905,13,13,NIGHT_CLEAR,Offshore,1
5842041f4e65fad6a770882b,2025_01_27,33.5930302087,-117.88199,The Wedge,2,0.33243,0.64409,13,13,NIGHT_CLEAR,Offshore,1
5842041f4e65fad6a770882e,2025_01_27,33.475793399792984,-117.72291,Salt Creek,2,0.56873,0.88776,13,13,NIGHT_FOG,Offshore,1
5842041f4e65fad6a7708830,2025_01_27,33.41800974113613,-117.61952,T-Street,2,0.41885,0.80685,13,13,NIGHT_MOSTLY_CLOUDY,Offshore,1
5842041f4e65fad6a7708832,2025_01_27,33.202391008646,-117.39475,Oceanside Harbor,2,0.68746,1.02378,13,13,NIGHT_CLEAR,Cross-shore,1
5842041f4e65fad6a7708835,2025_01_27,33.19477795952803,-117.38667,Oceanside Pier,2,0.33161,0.69008,13,13,NIGHT_MOSTLY_CLEAR,Onshore,1
5842041f4e65fad6a7708837,2025_01_27,33.14948100706,-117.35029,Tamarack,2,0.25034,0.55847,14,14,NIGHT_CLEAR,Offshore,1
5842041f4e65fad6a7708839,2025_01_27,32.865777159358856,-117.25614,Scripps,2,0.69769,1.03071,14,14,NIGHT_BRIEF_SHOWERS,Onshore,1
5842041f4e65fad6a770883a,2025_01_27,32.813094,-117.27381,Birdrock,3,0.5,0.81,14,14,NIGHT_MOSTLY_CLOUDY,Cross-shore,1
5842041f4e65fad6a770883b,2025_01_27,32.88338,-117.25571,Blacks,2,0.86658,1.19565,14,14,NIGHT_BRIEF_SHOWERS,Onshore,1
5842041f4e65fad6a770883c,2025_01_27,32.82978974229765,-117.28162,Windansea,2,0.81677,1.20631,14,14,NIGHT_MOSTLY_CLOUDY,Onshore,1
5842041f4e65fad6a770883d,2025_01_27,32.838278,-117.28396,Horseshoe,3,0.65,0.96,14,14,NIGHT_MOSTLY_CLOUDY,Onshore,1
5842041f4e65fad6a770883f,2025_01_27,32.75034717673179,-117.25337,Ocean Beach,3,0.78311,1.15631,14,14,NIGHT_CLEAR,Offshore,1
5842041f4e65fad6a7708840,2025_01_27,32.73693,-117.25718,Sunset Cliffs,2,0.5898,0.91229,14,14,NIGHT_MOSTLY_CLOUDY,Offshore,1
5842041f4e65fad6a7708841,2025_01_27,32.796582258728826,-117.25779,Pacific Beach,3,0.70066,1.02136,14,14,NIGHT_CLEAR,Offshore,1
5842041f4e65fad6a7708842,2025_01_27,32.776636,-117.25514,Mission Beach,3,0.66,0.97,14,14,NIGHT_CLEAR,Offshore,1
5842041f4e65fad6a7708844,2025_01_27,32.577195519016,-117.13475,Imperial Beach Pier,2,0.71,1.01,14,14,NIGHT_OVERCAST,Onshore,1
5842041f4e65fad6a770884a,2025_01_27,42.88678181061,-70.80843,Seabrook,1,0,0.16687,3,3,NIGHT_CLEAR,Offshore,1
5842041f4e65fad6a770884e,2025_01_27,41.434181432898335,-71.45312,Narragansett,1,0,0.26,3,2,NIGHT_CLEAR,Cross-shore,1
5842041f4e65fad6a7708850,2025_01_27,40.582703230722,-73.65247,Lincoln Blvd,1,0.15122,0.45365,2,2,NIGHT_CLEAR,Cross-shore,1
5842041f4e65fad6a7708852,2025_01_27,40.58342841721757,-73.81182,Rockaways,1,0.03099,0.33822,2,2,NIGHT_CLEAR,Onshore,1
5842041f4e65fad6a7708853,2025_01_27,40.330474,-73.9734,Monmouth Beach,2,0.0628,0.33195,1,1,NIGHT_CLEAR,Offshore,1
5842041f4e65fad6a7708856,2025_01_27,40.113,-74.028,Manasquan Inlet,2,0,0.30948,1,1,NIGHT_CLEAR,Offshore,1
5842041f4e65fad6a7708857,2025_01_27,39.941519877445664,-74.06829,Casino Pier,1,-0.01576,0.34519,1,1,NIGHT_CLEAR,Offshore,1
5842041f4e65fad6a7708858,2025_01_27,39.28223089949212,-74.55766,North End OC,2,0.03104,0.35173,0,0,NIGHT_CLEAR,Cross-shore,1
5842041f4e65fad6a770885b,2025_01_27,39.65080599934257,-74.17146,Ship Bottom,2,0.02,0.32,0,0,NIGHT_CLEAR,Cross-shore,1
5842041f4e65fad6a7708863,2025_01_27,36.034151543144,-75.66791,Third Street,1,0,0.31739,6,6,NIGHT_CLEAR,Offshore,1
5842041f4e65fad6a7708867,2025_01_27,35.605833221351425,-75.46303,S-Turns,1,0.09,0.39,6,6,NIGHT_CLEAR,Offshore,1
5842041f4e65fad6a770886d,2025_01_27,38.338461,-75.08117,Ocean City Boardwalk,2,0.02117,0.34934,3,3,NIGHT_CLEAR,Offshore,1
5842041f4e65fad6a770886f,2025_01_27,29.844757212379562,-81.26136,A St.,2,0.22,0.52,12,12,NIGHT_FOG,Cross-shore,1
5842041f4e65fad6a7708871,2025_01_27,29.069417851135093,-80.90824,New Smyrna Beach,3,0.51811,0.86352,15,15,NIGHT_MOSTLY_CLEAR,Offshore,1
5842041f4e65fad6a7708872,2025_01_27,28.367707417566,-80.60171,Cocoa Beach Pier,2,0.27491,0.59212,15,15,NIGHT_CLEAR,Offshore,1
5842041f4e65fad6a7708873,2025_01_27,28.091782738658846,-80.56479,Indialantic,2,0.39808,0.72981,16,16,NIGHT_CLEAR,Offshore,1
5842041f4e65fad6a7708876,2025_01_27,27.25392904143517,-80.19455,Jensen Beach,2,0.32458,0.64765,17,16,NIGHT_CLEAR,Offshore,1
5842041f4e65fad6a7708879,2025_01_27,26.76346795333825,-80.03607,Reef Road,2,0.44,0.74,23,22,NIGHT_MOSTLY_CLOUDY,Onshore,1
5842041f4e65fad6a770887c,2025_01_27,26.336499228484,-80.06956100463,Boca Raton Inlet,1,0.14,0.44,24,22,NIGHT_MOSTLY_CLEAR,Onshore,1
5842041f4e65fad6a770887d,2025_01_27,26.31719311695038,-80.07453,Deerfield Beach Pier,1,0.21977,0.35174,24,23,NIGHT_MOSTLY_CLEAR,Onshore,1
5842041f4e65fad6a7708881,2025_01_27,30.20276320866628,-85.85626528676136,"Spyglass Dr., Panama City",0,0,0.11049,14,13,NIGHT_CLEAR,Onshore,1
5842041f4e65fad6a7708884,2025_01_27,33.39000832738053,-117.59852,Cottons,2,0.42,0.73,13,13,NIGHT_MOSTLY_CLOUDY,Offshore,1
5842041f4e65fad6a7708885,2025_01_27,33.359416282661,-117.54168,Trails,2,0.21,0.52,14,14,NIGHT_CLEAR,Offshore,1
5842041f4e65fad6a7708886,2025_01_27,33.38042605929805,-117.58332,Middles,3,0.37,0.68,14,14,NIGHT_MOSTLY_CLOUDY,Cross-shore,1
5842041f4e65fad6a7708887,2025_01_27,33.38445596302903,-117.59445,Upper Trestles,3,0.444,0.79693,13,13,NIGHT_MOSTLY_CLOUDY,Cross-shore,1
5842041f4e65fad6a7708889,2025_01_27,28.944414,-95.28883,Surfside,3,0.88834,1.23901,12,12,NIGHT_MIST,Offshore,1
5842041f4e65fad6a770888a,2025_01_27,33.38143999849023,-117.58843,Lower Trestles,2,0.38325,0.72528,13,13,NIGHT_MOSTLY_CLOUDY,Offshore,1
5842041f4e65fad6a770888b,2025_01_27,33.379622288757,-117.57894,Church,3,0.451,0.781,13,13,NIGHT_MOSTLY_CLOUDY,Offshore,1
5842041f4e65fad6a770888d,2025_01_27,21.679,-158.042,Sunset Beach,3,1.2306,1.46398,26,25,NIGHT_CLEAR,Cross-shore,1
5842041f4e65fad6a770888e,2025_01_27,21.670550036401,-158.0482,Rocky Point,3,1.31412,1.59605,26,25,NIGHT_CLEAR,Cross-shore,1
5842041f4e65fad6a770888f,2025_01_27,21.668,-158.05,Chambers,3,1.21,1.45,25,25,NIGHT_CLEAR,Cross-shore,1
5842041f4e65fad6a7708890,2025_01_27,21.66522,-158.0526,Pipeline,2,1.01,1.21,26,25,NIGHT_CLEAR,Cross-shore,1
5842041f4e65fad6a7708891,2025_01_27,21.665,-158.054,Backdoor,3,1.01,1.21,26,25,NIGHT_CLEAR,Cross-shore,1
5842041f4e65fad6a7708892,2025_01_27,21.662,-158.057,Rockpile,3,1.3,1.56,25,25,NIGHT_CLEAR,Cross-shore,1
5842041f4e65fad6a7708893,2025_01_27,21.65870453806827,-158.06058,Log Cabins,2,0.99,1.18,25,25,NIGHT_CLEAR,Cross-shore,1
5842041f4e65fad6a7708894,2025_01_27,21.66203493640557,-158.05495,Off The Wall,3,1.05,1.35,25,25,NIGHT_CLEAR,Cross-shore,1
5842041f4e65fad6a7708895,2025_01_27,21.643,-158.067,Waimea Bay,NA,1.28,1.53,26,25,NIGHT_CLEAR,Cross-shore,1
5842041f4e65fad6a7708896,2025_01_27,21.622,-158.087,Hultin's,3,1.37,1.64,26,25,NIGHT_CLEAR,Offshore,1
5842041f4e65fad6a7708897,2025_01_27,21.623,-158.085,Jocko's,3,1.06,1.26,25,25,NIGHT_CLEAR,Cross-shore,1
5842041f4e65fad6a7708898,2025_01_27,21.62,-158.088,Laniakea,3,1.07828,1.39857,26,25,NIGHT_CLEAR,Offshore,1
5842041f4e65fad6a7708899,2025_01_27,21.625,-158.083,Chun's,2,1.02,1.22,25,25,NIGHT_CLEAR,Offshore,1
5842041f4e65fad6a770889c,2025_01_27,21.286357895152136,-157.8515,Ala Moana Beach Park,2,0.23,0.53,25,25,NIGHT_LIGHT_RAIN_AND_FOG,Onshore,1
5842041f4e65fad6a770889d,2025_01_27,19.606,-155.978,Banyans,2,0.34,0.65,26,25,NIGHT_CLEAR,Cross-shore,1
5842041f4e65fad6a770889e,2025_01_27,20.029,-155.831,Kawaihae,2,0.4444,0.67516,25,25,NIGHT_CLEAR,Offshore,1
5842041f4e65fad6a770889f,2025_01_27,33.07541383424675,-117.3105,Grandview,2,0.4,0.7,14,14,NIGHT_CLEAR,Cross-shore,1
5842041f4e65fad6a77088a0,2025_01_27,33.065267421296596,-117.30577,Beacons,2,0.41,0.72,14,14,NIGHT_CLEAR,Cross-shore,1
5842041f4e65fad6a77088a2,2025_01_27,21.252,-157.805,Diamond Head,2,0.54991,0.86467,26,25,NIGHT_CLOUDY,Cross-shore,1
5842041f4e65fad6a77088a3,2025_01_27,33.04694255008896,-117.29966,Moonlight State Beach,2,0.4,0.7,14,14,NIGHT_CLEAR,Onshore,1
5842041f4e65fad6a77088a5,2025_01_27,33.08685865930869,-117.31532,Ponto,2,0.60296,0.93772,14,14,NIGHT_CLEAR,Offshore,1
5842041f4e65fad6a77088a6,2025_01_27,33.130343587871906,-117.33668,Terra Mar Point,2,0.27,0.57,13,13,NIGHT_CLEAR,Offshore,1
5842041f4e65fad6a77088af,2025_01_27,32.95916304183685,-117.26963,Del Mar,2,0.63991,0.97484,14,14,NIGHT_MOSTLY_CLOUDY,Onshore,1
5842041f4e65fad6a77088b0,2025_01_27,32.97527261243354,-117.2721061331305,Del Mar Rivermouth,2,0.55,0.86,14,14,NIGHT_MOSTLY_CLOUDY,Onshore,1
5842041f4e65fad6a77088b1,2025_01_27,33.01352178146273,-117.28219,Cardiff Reef,3,0.70188,0.99079,13,13,NIGHT_MOSTLY_CLEAR,Offshore,1
5842041f4e65fad6a77088b3,2025_01_27,33.00211185876003,-117.2811,Seaside Reef,2,0.61191,0.9957,13,13,NIGHT_MOSTLY_CLEAR,Cross-shore,1
5842041f4e65fad6a77088b4,2025_01_27,33.0341859796287,-117.29552,Swami's,3,0.63271,0.93131,13,13,NIGHT_MOSTLY_CLEAR,Onshore,1
5842041f4e65fad6a77088b7,2025_01_27,33.04569760260221,-117.2994,D Street,2,0.54015,0.84849,14,14,NIGHT_CLEAR,Onshore,1
5842041f4e65fad6a77088b8,2025_01_27,33.02090944350196,-117.28535,San Elijo State Beach,2,0.33893,0.61853,13,13,NIGHT_MOSTLY_CLEAR,Offshore,1
5842041f4e65fad6a77088c2,2025_01_27,32.80662846492798,-117.26888,PB Point,2,0.5,0.81,14,14,NIGHT_MOSTLY_CLOUDY,Cross-shore,1
5842041f4e65fad6a77088c4,2025_01_27,32.8060476681448,-117.26479,Old Man's at Tourmaline,2,0.35658,0.63442,14,14,NIGHT_MOSTLY_CLOUDY,Cross-shore,1
5842041f4e65fad6a77088cb,2025_01_27,32.557056711256,-117.1327445020322,Tijuana Slough,2,0.38,0.68,14,14,NIGHT_DRIZZLE,Onshore,1
5842041f4e65fad6a77088cc,2025_01_27,32.863,-117.257,La Jolla Shores,2,0.51,0.82,14,14,NIGHT_BRIEF_SHOWERS,Onshore,1
5842041f4e65fad6a77088ce,2025_01_27,32.67443657790586,-117.17421,Coronado Beach,2,0.17,0.48,14,14,NIGHT_MOSTLY_CLOUDY,Offshore,1
5842041f4e65fad6a77088cf,2025_01_27,33.40484417640326,-117.60749,San Clemente State Beach,2,0.29,0.6,14,14,NIGHT_MOSTLY_CLOUDY,Offshore,1
5842041f4e65fad6a77088d5,2025_01_27,33.4663042002114,-117.7168352817103,Strands,2,0.35,0.66,13,13,NIGHT_FOG,Offshore,1
5842041f4e65fad6a77088d7,2025_01_27,33.4609858001748,-117.68535,Doheny State Beach,1,0,0.25971,13,13,NIGHT_MOSTLY_CLOUDY,Offshore,1
5842041f4e65fad6a77088dc,2025_01_27,33.50894790083017,-117.75243,Aliso Creek,1,0.16,0.46,14,14,NIGHT_FOG,Offshore,1
5842041f4e65fad6a77088dd,2025_01_27,33.5326591767067,-117.77764,Brooks Street,2,0.11,0.42,14,14,NIGHT_CLEAR,Offshore,1
5842041f4e65fad6a77088de,2025_01_27,33.53561225884637,-117.7799,Thalia Street,2,0.12,0.43,14,14,NIGHT_CLEAR,Offshore,1
5842041f4e65fad6a77088e3,2025_01_27,33.54268310353641,-117.7916,Rockpile,2,0.11,0.42,14,14,NIGHT_CLEAR,Offshore,1
5842041f4e65fad6a77088e4,2025_01_27,33.7368459504689,-118.10342,"Seal Beach Pier, Southside",3,0.32,0.62,14,14,NIGHT_FOG,Offshore,1
5842041f4e65fad6a77088e5,2025_01_27,33.73933701820233,-118.117,Ray Bay,2,0.18,0.49,14,14,NIGHT_FOG,Offshore,1
5842041f4e65fad6a77088e7,2025_01_27,33.728733,-118.08982,Surfside,1,0,0.16,14,14,NIGHT_SHOWERS,Offshore,1
5842041f4e65fad6a77088e8,2025_01_27,33.68760321488161,-118.04236,Bolsa Chica State Beach,2,0.29479,0.60222,14,14,NIGHT_SHOWERS,Offshore,1
5842041f4e65fad6a77088ea,2025_01_27,33.66704400178788,-118.0192,North HB Streets,3,0.4526,0.77889,14,14,NIGHT_MOSTLY_CLEAR,Offshore,1
5842041f4e65fad6a77088ed,2025_01_27,33.65475101379567,-118.00291,Huntington Beach Pier Southside,3,0.57264,0.93054,14,14,NIGHT_MOSTLY_CLEAR,Offshore,1
5842041f4e65fad6a77088ee,2025_01_27,33.62778647706099,-117.95939,River Jetties,2,0.38309,0.7224,13,13,NIGHT_CLEAR,Offshore,1
5842041f4e65fad6a77088f2,2025_01_27,33.605165797643664,-117.925,Newport Point,2,0.15,0.46,14,14,NIGHT_MOSTLY_CLOUDY,Offshore,1
5842041f4e65fad6a77088f3,2025_01_27,33.58982984726977,-117.87713,Corona del Mar,2,0.13,0.43,14,14,NIGHT_CLEAR,Offshore,1
5842041f4e65fad6a77088f7,2025_01_27,34.00750300824362,-118.49718,Santa Monica Pier,2,0.21,0.52,14,14,NIGHT_MOSTLY_CLEAR,Offshore,1
5842041f4e65fad6a77088ff,2025_01_27,33.94070283102945,-118.44321,Dockweiler Beach,3,0.51,0.81,13,13,NIGHT_MOSTLY_CLEAR,Offshore,1
5842041f4e65fad6a7708900,2025_01_27,33.9231846937237,-118.4341465777908,Shitpipe,3,0.6,0.91,13,13,NIGHT_MOSTLY_CLEAR,Offshore,1
5842041f4e65fad6a7708902,2025_01_27,33.9108528052242,-118.4279133138721,Hammerland,3,0.6,0.91,13,13,NIGHT_MOSTLY_CLEAR,Offshore,1
5842041f4e65fad6a7708904,2025_01_27,33.87201368173932,-118.40752,Hermosa Beach,3,0.47688,0.75629,13,13,NIGHT_FOG,Offshore,1
5842041f4e65fad6a7708906,2025_01_27,33.90129336911256,-118.42184,El Porto,3,0.52175,0.83619,13,13,NIGHT_MOSTLY_CLEAR,Offshore,1
5842041f4e65fad6a7708907,2025_01_27,33.87963506431794,-118.41102,Manhattan Beach Pier,3,0.4739,0.74731,13,13,NIGHT_MOSTLY_CLEAR,Offshore,1
5842041f4e65fad6a7708914,2025_01_27,34.038053387863464,-118.5532,Sunset Point,1,0.08,0.38,14,14,NIGHT_SHOWERS,Offshore,1
5842041f4e65fad6a7708920,2025_01_27,33.80282,-118.39989,Haggerty's,2,0.288,0.528,14,14,NIGHT_FOG,Cross-shore,1
5842041f4e65fad6a7708921,2025_01_27,33.85044519861206,-118.40048,Redondo Breakwater,3,0.41413,0.71327,14,14,NIGHT_FOG,Offshore,1
5842041f4e65fad6a7708927,2025_01_27,33.70877301002487,-118.2840112858389,Cabrillo Beach,2,0.21,0.52,14,14,NIGHT_MOSTLY_CLOUDY,Cross-shore,1
5842041f4e65fad6a770892c,2025_01_27,33.77209986806257,-118.4268428476672,Lunada Bay,2,0.38,0.69,14,14,NIGHT_MOSTLY_CLOUDY,Offshore,1
5842041f4e65fad6a770892d,2025_01_27,33.79294656286144,-118.40703,PV Cove,2,0.36,0.66,14,14,NIGHT_FOG,Offshore,1
5842041f4e65fad6a7708930,2025_01_27,34.03944902292561,-118.57539,Chart House,1,0,0.28,14,14,NIGHT_MOSTLY_CLEAR,Offshore,1
5842041f4e65fad6a7708936,2025_01_27,34.0016731994772,-118.80456,Point Dume,1,0,0.3,14,14,NIGHT_MOSTLY_CLEAR,Offshore,1
5842041f4e65fad6a7708937,2025_01_27,34.02587527588963,-118.7554939066114,Latigo Point,1,0,0.28,14,14,NIGHT_CLEAR,Offshore,1
5842041f4e65fad6a770893f,2025_01_27,34.043762,-118.93294,Leo Carrillo,2,0.3,0.61,14,14,NIGHT_CLEAR,Offshore,1
5842041f4e65fad6a7708941,2025_01_27,36.69388179265737,-121.81289,Marina State Beach,3,0.6804,0.9922,12,12,NIGHT_CLEAR,Cross-shore,1
5842041f4e65fad6a7708944,2025_01_27,34.34145077331085,-119.416999352654,Stanley's,2,0.07,0.38,14,14,NIGHT_MOSTLY_CLEAR,Offshore,1
5842041f4e65fad6a7708945,2025_01_27,34.35113017313915,-119.426921498899,Oil Piers,2,0.07,0.38,14,14,NIGHT_MOSTLY_CLEAR,Offshore,1
5842041f4e65fad6a770894c,2025_01_27,34.17876333306018,-119.23995,Oxnard,2,0.24,0.54,14,14,NIGHT_CLEAR,Offshore,1
5842041f4e65fad6a7708957,2025_01_27,34.31720331100517,-119.3882324751725,Pitas Point,1,0.09,0.4,14,14,NIGHT_CLEAR,Offshore,1
5842041f4e65fad6a7708959,2025_01_27,34.27851754384724,-119.3162,Emma Wood,2,0.18,0.49,14,14,NIGHT_CLEAR,Offshore,1
5842041f4e65fad6a770895a,2025_01_27,34.35513640390276,-119.4400589884255,Mussel Shoals (aka Little Rincon),2,0.1,0.4,14,14,NIGHT_CLEAR,Offshore,1
5842041f4e65fad6a770895e,2025_01_27,34.28991757054902,-119.3366646794652,Summer Beach,2,0.04,0.35,14,14,NIGHT_CLEAR,Offshore,1
5842041f4e65fad6a770895f,2025_01_27,34.30897456105926,-119.3582501170116,Solimar,2,0.04,0.35,14,14,NIGHT_CLEAR,Offshore,1
5842041f4e65fad6a7708960,2025_01_27,34.39836265281686,-119.70213,Leadbetter Point,1,0,0.13,14,14,NIGHT_MOSTLY_CLEAR,Offshore,1
5842041f4e65fad6a7708961,2025_01_27,34.46052293893899,-120.07328,Refugio,1,0,0.3,14,14,NIGHT_MOSTLY_CLEAR,Offshore,1
5842041f4e65fad6a7708962,2025_01_27,34.40754276777778,-119.87639,Devereux,2,0.02,0.33,14,14,NIGHT_MOSTLY_CLOUDY,Offshore,1
5842041f4e65fad6a7708963,2025_01_27,34.27479983305182,-119.3133222656776,Ventura Overhead,2,0.18,0.49,14,14,NIGHT_CLEAR,Offshore,1
5842041f4e65fad6a7708964,2025_01_27,34.41023236011655,-119.88261,Sands,2,0.01,0.32,14,14,NIGHT_MOSTLY_CLOUDY,Onshore,1
5842041f4e65fad6a7708966,2025_01_27,34.40450193869233,-119.68752,Sandspit,1,0,0.13,14,14,NIGHT_MOSTLY_CLEAR,Offshore,1
5842041f4e65fad6a7708967,2025_01_27,34.41549098334453,-119.6375149840203,Hammond's,1,0,0.26,14,14,NIGHT_CLEAR,Offshore,1
5842041f4e65fad6a7708968,2025_01_27,34.45759322742309,-120.02203,El Capitan,1,0,0.3,14,14,NIGHT_MOSTLY_CLEAR,Offshore,1
5842041f4e65fad6a770896c,2025_01_27,34.405117655616,-119.84317,Campus Point,2,0.01,0.32,14,14,NIGHT_MOSTLY_CLOUDY,Offshore,1
5842041f4e65fad6a770896e,2025_01_27,34.38935162233354,-119.51955,Carpinteria State Beach,2,0.06,0.36,14,14,NIGHT_MOSTLY_CLEAR,Offshore,1
5842041f4e65fad6a770896f,2025_01_27,37.48296565175612,-122.45493,Half Moon Bay,3,0.57,0.88,11,11,NIGHT_CLEAR,Offshore,1
5842041f4e65fad6a7708970,2025_01_27,37.499,-122.471,Princeton Jetty,2,0.37,0.67,11,11,NIGHT_CLEAR,Offshore,1
5842041f4e65fad6a7708972,2025_01_27,37.35699547365155,-122.4069534707252,Tunitas Creek,3,1.05,1.36,11,11,NIGHT_CLEAR,Offshore,1
5842041f4e65fad6a7708974,2025_01_27,37.54735589428842,-122.51611,Montara,3,0.95,1.14,11,11,NIGHT_CLEAR,Cross-shore,1
5842041f4e65fad6a7708975,2025_01_27,34.3869373724559,-119.5142334209018,Tarpits,2,0.07,0.38,14,14,NIGHT_CLEAR,Offshore,1
5842041f4e65fad6a7708976,2025_01_27,37.59881852720143,-122.50463,Linda Mar,2,0.26307,0.60107,12,12,NIGHT_CLEAR,Cross-shore,1
5842041f4e65fad6a7708978,2025_01_27,37.59883098461164,-122.5143843582282,Pedro Point,2,0.98,1.17,11,11,NIGHT_CLEAR,Onshore,1
5842041f4e65fad6a7708979,2025_01_27,37.61081996647663,-122.49733,Rockaway,3,0.89,1.07,11,11,NIGHT_CLEAR,Offshore,1
5842041f4e65fad6a770897a,2025_01_27,37.809987384424446,-122.47514,Fort Point,3,0.4,0.71,11,11,NIGHT_CLEAR,Offshore,1
5842041f4e65fad6a770897c,2025_01_27,37.63422542967464,-122.4951,Sharp Park,3,0.96,1.27,11,11,NIGHT_CLEAR,Offshore,1
5842041f4e65fad6a770897d,2025_01_27,37.27313605072472,-122.4127387912554,Pescadero,3,1.02,1.32,11,11,NIGHT_CLEAR,Cross-shore,1
5842041f4e65fad6a770897e,2025_01_27,37.18140279972666,-122.3926685899327,Pigeon Point,4,0.98,1.28,12,12,NIGHT_CLEAR,Offshore,1
5842041f4e65fad6a770897f,2025_01_27,37.11578956919415,-122.314699271291,Ano Nuevo,3,0.6,0.91,12,12,NIGHT_CLEAR,Offshore,1
5842041f4e65fad6a7708980,2025_01_27,37.09520872681598,-122.2805474707768,Waddell Creek,3,0.61,0.92,12,12,NIGHT_CLEAR,Offshore,1
5842041f4e65fad6a7708981,2025_01_27,36.96512852130351,-122.1252825495626,Four Mile,3,0.5,0.8,12,12,NIGHT_CLEAR,Offshore,1
5842041f4e65fad6a7708982,2025_01_27,37.04122807048655,-122.23337,Scott Creek,3,0.72,1.02,12,12,NIGHT_CLEAR,Offshore,1
5842041f4e65fad6a7708983,2025_01_27,37.02350229387179,-122.21908,Davenport,3,0.71,1.02,12,12,NIGHT_CLEAR,Offshore,1
5842041f4e65fad6a7708986,2025_01_27,36.94905295955728,-122.06118,Natural Bridges,3,0.63,0.94,12,12,NIGHT_CLEAR,Offshore,1
5842041f4e65fad6a7708987,2025_01_27,36.95154854910425,-122.04207,Mitchell's Cove,2,0.19,0.5,12,12,NIGHT_CLEAR,Offshore,1
5842041f4e65fad6a770898a,2025_01_27,36.9572312370203,-121.98177,26th Ave,3,0.32,0.63,12,12,NIGHT_CLEAR,Offshore,1
5842041f4e65fad6a770898e,2025_01_27,36.91899972819882,-121.85536,Manresa,3,0.48,0.78,12,12,NIGHT_CLEAR,Offshore,1
5842041f4e65fad6a7708990,2025_01_27,34.45747731928454,-120.34242,The Ranch,2,0.18,0.48,13,13,NIGHT_CLEAR,Onshore,1
5842041f4e65fad6a7708991,2025_01_27,34.50875036590315,-120.50348,Jalama,3,0.44,0.75,13,13,NIGHT_CLEAR,Offshore,1
5842041f4e65fad6a7708996,2025_01_27,34.68700870220497,-120.6111611019887,Surf Beach,3,1.53,1.71,13,13,NIGHT_CLEAR,Offshore,1
5842041f4e65fad6a770899c,2025_01_27,35.5730538161116,-121.1143362345574,Moonstone,3,0.6,0.9,12,12,NIGHT_CLEAR,Offshore,1
5842041f4e65fad6a770899d,2025_01_27,35.61533716776573,-121.1502053073914,Pico Creek,3,0.64,0.94,12,12,NIGHT_CLEAR,Offshore,1
5842041f4e65fad6a770899e,2025_01_27,35.56829031927379,-121.11207,Santa Rosa Creek,3,0.6,0.9,12,12,NIGHT_CLEAR,Offshore,1
5842041f4e65fad6a77089a2,2025_01_27,35.44820114936284,-120.90715,"Cayucos Pier, Southside",2,0.19431,0.50597,12,12,NIGHT_CLEAR,Offshore,1
5842041f4e65fad6a77089a4,2025_01_27,35.30143372628852,-120.877819239902,Cable Landing,4,1.68,1.91,13,13,NIGHT_CLEAR,Offshore,1
5842041f4e65fad6a77089a9,2025_01_27,35.61269103500222,-121.14807,San Simeon,2,0.378,0.595,12,12,NIGHT_CLEAR,Offshore,1
5842041f4e65fad6a77089ab,2025_01_27,35.1775325966252,-120.73411,Avila Beach,1,0,0.19,12,12,NIGHT_CLEAR,Offshore,1
5842041f4e65fad6a77089ac,2025_01_27,35.13877877884115,-120.64535,Pismo Beach Pier,3,0.52866,0.83365,11,11,NIGHT_CLEAR,Cross-shore,1
5842041f4e65fad6a77089ad,2025_01_27,46.8907710233147,-124.12964,Westport/Olympic Peninsula,3,0.98,1.17,8,8,NIGHT_CLEAR,Offshore,1
5842041f4e65fad6a77089ae,2025_01_27,46.35185177248545,-124.06747,Long Beach Peninsula,4,1.45,1.73,8,8,NIGHT_CLEAR,Offshore,1
5842041f4e65fad6a77089af,2025_01_27,47.90649175554033,-124.63709,La Push,4,1.25,1.49,8,8,NIGHT_CLEAR,Offshore,1
5842041f4e65fad6a77089b0,2025_01_27,42.04368239985442,-124.26828,Brookings Jetty,3,0.4132,0.65625,11,11,NIGHT_CLEAR,Offshore,1
5842041f4e65fad6a77089b1,2025_01_27,42.74071837900346,-124.4983727491047,Port Orford,2,0.34,0.64,10,10,NIGHT_CLEAR,Cross-shore,1
5842041f4e65fad6a77089b2,2025_01_27,44.01532689312291,-124.13865,Florence South Jetty,4,1.34,1.6,11,11,NIGHT_CLEAR,Offshore,1
5842041f4e65fad6a77089b3,2025_01_27,42.41812540774362,-124.42945,Gold Beach South Jetty,3,0.74,1.05,10,10,NIGHT_CLEAR,Cross-shore,1
5842041f4e65fad6a77089b4,2025_01_27,44.95857310226525,-124.0219,Lincoln City,4,1.34,1.6,10,10,NIGHT_CLEAR,Offshore,1
5842041f4e65fad6a77089b5,2025_01_27,44.63792761362982,-124.0657,Newport,4,1.56,1.87,10,10,NIGHT_CLEAR,Offshore,1
5842041f4e65fad6a77089b6,2025_01_27,45.61468496266301,-123.94643,Rockaway Beach,4,1.51,1.8,10,10,NIGHT_CLEAR,Offshore,1
5842041f4e65fad6a77089b7,2025_01_27,45.20252914186085,-123.96975,Pacific City,4,1.25,1.5,10,10,NIGHT_CLEAR,Offshore,1
5842041f4e65fad6a77089b8,2025_01_27,45.88179930310263,-123.96681,Cannon Beach,4,1.37,1.64,10,10,NIGHT_CLEAR,Offshore,1
5842041f4e65fad6a77089ba,2025_01_27,40.02528754746774,-124.06372,Shelter Cove,1,0.09773,0.27594,12,12,NIGHT_CLEAR,Offshore,1
5842041f4e65fad6a77089bb,2025_01_27,40.76816197136951,-124.24248,Humboldt Harbor Entrance,3,1.37,1.64,11,11,NIGHT_CLEAR,Offshore,1
5842041f4e65fad6a77089bc,2025_01_27,40.76684246920174,-124.23107,North Jetty,3,1.73,2.07,11,11,NIGHT_CLEAR,Offshore,1
5842041f4e65fad6a77089be,2025_01_27,41.13016238153297,-124.16466,Sue-meg,4,1.25,1.49,11,11,NIGHT_CLEAR,Offshore,1
5842041f4e65fad6a77089bf,2025_01_27,37.8289474958188,-122.53768,Fort Cronkite/Rodeo Beach,3,0.57,0.87,11,11,NIGHT_CLEAR,Offshore,1
5842041f4e65fad6a77089c0,2025_01_27,41.74415759876137,-124.17717,South Beach CA,2,0.16,0.47,11,11,NIGHT_CLEAR,Cross-shore,1
5842041f4e65fad6a77089c1,2025_01_27,37.89801283969752,-122.64519,Stinson Beach,2,0.09,0.39,11,11,NIGHT_CLEAR,Offshore,1
5842041f4e65fad6a77089c2,2025_01_27,37.90514516176495,-122.68151,Bolinas,1,0,0.25734,11,11,NIGHT_CLEAR,Offshore,1
5842041f4e65fad6a77089c3,2025_01_27,38.04892513158693,-122.98925,Point Reyes (north),2,1.31,1.61,12,12,NIGHT_CLEAR,Onshore,1
5842041f4e65fad6a77089c6,2025_01_27,38.31088736605785,-123.0496777333731,Doran Beach,1,0,0.24,12,12,NIGHT_CLEAR,Offshore,1
5842041f4e65fad6a77089c7,2025_01_27,38.45077228660809,-123.13008,Russian Rivermouth,3,0.63,0.94,12,12,NIGHT_CLEAR,Offshore,1
5842041f4e65fad6a77089c8,2025_01_27,38.35329968518107,-123.06906,Salmon Creek,3,0.94,1.24,12,12,NIGHT_CLEAR,Offshore,1
5842041f4e65fad6a77089c9,2025_01_27,38.6845180197959,-123.4322714291198,Black Point Beach,2,0.19,0.49,12,12,NIGHT_CLEAR,Cross-shore,1
5842041f4e65fad6a77089ca,2025_01_27,43.251076,-70.59144,Ogunquit,1,0,0.2,3,3,NIGHT_CLEAR,Offshore,1
5842041f4e65fad6a77089cb,2025_01_27,41.362631366305415,-71.48007,Point Judith,2,0,0.33656,3,2,NIGHT_CLEAR,Offshore,1
5842041f4e65fad6a77089cd,2025_01_27,41.422678090954726,-71.45413,Monahan's - Narragansett,1,0,0.19588,4,4,NIGHT_CLEAR,Offshore,1
5842041f4e65fad6a77089ce,2025_01_27,41.469,-71.293,Ruggles - Newport,1,0.16025,0.50364,5,5,NIGHT_CLEAR,Cross-shore,1
5842041f4e65fad6a77089cf,2025_01_27,43.175394,-70.606351,Short Sands Beach,1,0,0.17,4,4,NIGHT_CLEAR,Offshore,1
5842041f4e65fad6a77089d0,2025_01_27,41.487408,-71.29017,First Beach,1,0,0.23,4,4,NIGHT_CLEAR,Cross-shore,1
5842041f4e65fad6a77089d1,2025_01_27,42.27916830233153,-70.86498,Nantasket Beach,0,0,0.03406,4,4,NIGHT_CLEAR,Offshore,1
5842041f4e65fad6a77089d2,2025_01_27,41.817,-69.935,Cape Cod,1,0,0.3,4,4,NIGHT_CLEAR,Offshore,1
5842041f4e65fad6a77089d3,2025_01_27,42.22055448975661,-70.70634873403819,Egypt Beach,0,0,0.03,4,4,NIGHT_CLEAR,Offshore,1
5842041f4e65fad6a77089d4,2025_01_27,41.48739647744607,-71.25723,Second Beach,1,0.15096,0.42625,3,2,NIGHT_CLEAR,Onshore,1
5842041f4e65fad6a77089d5,2025_01_27,42.964,-70.769,Fox Hill,0,0,0.13,3,3,NIGHT_CLEAR,Offshore,1
5842041f4e65fad6a77089d6,2025_01_27,42.991359,-70.75149,Straws Point,1,0,0.2,3,3,NIGHT_CLEAR,Cross-shore,1
5842041f4e65fad6a77089d7,2025_01_27,42.946,-70.786,Plaice Cove,0,0,0.13,3,3,NIGHT_CLEAR,Offshore,1
5842041f4e65fad6a77089d9,2025_01_27,42.911574,-70.80831,The Main Beach,0,0,0.20969,3,3,NIGHT_CLEAR,Cross-shore,1
5842041f4e65fad6a77089da,2025_01_27,42.97583846220203,-70.764,Sawyer's Beach,1,0,0.2,3,3,NIGHT_CLEAR,Offshore,1
5842041f4e65fad6a77089db,2025_01_27,42.97,-70.77,Rye on the Rocks / 5-0's,1,0.1684,0.34704,3,3,NIGHT_CLEAR,Cross-shore,1
5842041f4e65fad6a77089dc,2025_01_27,43.55902946610303,-70.27795,Higgins Beach,1,0,0.1785,3,3,NIGHT_CLEAR,Cross-shore,1
5842041f4e65fad6a77089dd,2025_01_27,43.302676,-70.5652,Wells Beach,1,0,0.19,3,3,NIGHT_CLEAR,Offshore,1
5842041f4e65fad6a77089de,2025_01_27,43.545359,-70.30479,Scarborough Beach State Park,0,0,0.25145,3,3,NIGHT_CLEAR,Cross-shore,1
5842041f4e65fad6a77089df,2025_01_27,43.514481,-70.37215,Old Orchard Beach,0,0,0.13,3,3,NIGHT_CLEAR,Cross-shore,1
5842041f4e65fad6a77089e0,2025_01_27,43.34711,-70.48165,Gooch's Beach,1,0,0.16084,3,3,NIGHT_CLEAR,Onshore,1
5842041f4e65fad6a77089e2,2025_01_27,40.58433,-73.62953,Lido Beach,1,0.13438,0.48151,2,2,NIGHT_CLEAR,Cross-shore,1
5842041f4e65fad6a77089e3,2025_01_27,43.163135,-70.61689,Long Sands Beach,0,0,0.28816,3,3,NIGHT_CLEAR,Cross-shore,1
5842041f4e65fad6a77089e4,2025_01_27,40.61695351251805,-73.39376,Gilgo Beach,1,0.23929,0.56559,2,2,NIGHT_CLEAR,Cross-shore,1
5842041f4e65fad6a77089e5,2025_01_27,40.62530081928036,-73.23827,Robert Moses,0,0.14,0.45,3,3,NIGHT_CLEAR,Cross-shore,1
5842041f4e65fad6a77089e6,2025_01_27,40.64313317632791,-73.15727,Fire Island,0,0.14,0.45,3,3,NIGHT_CLEAR,Cross-shore,1
5842041f4e65fad6a77089e8,2025_01_27,40.76653118828782,-72.7458,Cupsogue,1,0.3,0.61,3,3,NIGHT_CLEAR,Cross-shore,1
5842041f4e65fad6a77089e9,2025_01_27,42.9376373334092,-70.79141,The Wall,0,0,0.13841,3,3,NIGHT_CLEAR,Offshore,1
5842041f4e65fad6a77089ea,2025_01_27,40.887088,-72.33856,Flys,1,0.24,0.54,3,3,NIGHT_CLEAR,Cross-shore,1
5842041f4e65fad6a77089eb,2025_01_27,41.0389266436591,-71.91068529316958,Trailer Park,1,0.4332,0.66369,2,2,NIGHT_CLEAR,Onshore,1
5842041f4e65fad6a77089ec,2025_01_27,41.039505402729105,-71.9142,Ditch Plains,1,0.06731,0.40384,4,4,NIGHT_CLEAR,Cross-shore,1
5842041f4e65fad6a77089ee,2025_01_27,40.57633275206492,-73.56895305108567,"West End, Jones Beach",1,0.24,0.55,2,2,NIGHT_CLEAR,Onshore,1
5842041f4e65fad6a77089f1,2025_01_27,41.038286691230795,-71.91991567611694,Poles,1,0.4224,0.59415,2,2,NIGHT_CLEAR,Onshore,1
5842041f4e65fad6a77089f3,2025_01_27,40.84077769766295,-72.47989493724765,The Bowl,1,0.28,0.58,3,3,NIGHT_CLEAR,Cross-shore,1
5842041f4e65fad6a77089f4,2025_01_27,40.94235535243154,-72.19286,Main Beach,1,0.26,0.56,12,11,NIGHT_CLEAR,Onshore,1
5842041f4e65fad6a77089f5,2025_01_27,40.58270702399518,-73.67251552079799,Laurelton Blvd.,1,0.46475,0.62813,2,2,NIGHT_CLEAR,Onshore,1
5842041f4e65fad6a77089f6,2025_01_27,41.033752854071416,-71.93696,Terrace,2,0.35717,0.69408,2,2,NIGHT_CLEAR,Onshore,1
5842041f4e65fad6a77089f7,2025_01_27,40.83372943645748,-72.50426173210144,K Road,1,0.34,0.64,3,3,NIGHT_CLEAR,Cross-shore,1
5842041f4e65fad6a77089f8,2025_01_27,40.58456099581507,-73.80730032920837,84th Street,1,0.08,0.38,2,2,NIGHT_CLEAR,Onshore,1
5842041f4e65fad6a77089fa,2025_01_27,40.1319,-74.02788,Sea Girt,2,0.04,0.34,1,1,NIGHT_CLEAR,Offshore,1
5842041f4e65fad6a77089fb,2025_01_27,40.54698301868125,-73.9268,Breezy Point,1,0,0.29,4,4,NIGHT_CLEAR,Onshore,1
5842041f4e65fad6a77089fc,2025_01_27,40.152504,-74.02138,Spring Lake,2,0.03,0.33,1,1,NIGHT_CLEAR,Offshore,1
5842041f4e65fad6a77089fd,2025_01_27,40.591277,-73.770792,30th - 39th Streets,1,0.05,0.35,2,2,NIGHT_CLEAR,Onshore,1
5842041f4e65fad6a77089fe,2025_01_27,40.18834955871439,-74.00860982500222,Avon,2,0.02,0.32,1,1,NIGHT_CLEAR,Offshore,1
5842041f4e65fad6a77089ff,2025_01_27,40.1974229100932,-74.00650533798255,Bradley Beach,1,0,0.3,1,1,NIGHT_CLEAR,Offshore,1
5842041f4e65fad6a7708a01,2025_01_27,40.17202,-74.01503,"16th Ave., Belmar",2,0,0.32512,1,1,NIGHT_CLEAR,Offshore,1
5842041f4e65fad6a7708a02,2025_01_27,40.217443,-73.99982,Asbury Park,2,0.02,0.33,1,1,NIGHT_CLEAR,Offshore,1
5842041f4e65fad6a7708a03,2025_01_27,40.229841,-73.99678,Loch Arbour and Deal,2,0.03,0.34,1,1,NIGHT_CLEAR,Offshore,1
5842041f4e65fad6a7708a05,2025_01_27,40.41754,-73.97935,Sandy Hook,1,0,0.19,3,3,NIGHT_CLEAR,Offshore,1
5842041f4e65fad6a7708a06,2025_01_27,39.36353,-74.40873,Crystals,1,0.07948,0.43144,0,0,NIGHT_CLEAR,Cross-shore,1
5842041f4e65fad6a7708a07,2025_01_27,39.31443,-74.51863,32nd Street,1,0.05932,0.41527,0,0,NIGHT_CLEAR,Cross-shore,1
5842041f4e65fad6a7708a08,2025_01_27,39.327688,-74.49524,Margate Pier Northside,1,0.05932,0.41527,0,0,NIGHT_CLEAR,Cross-shore,1
5842041f4e65fad6a7708a09,2025_01_27,39.336276,-74.47782,Ventnor Pier,1,0.07234,0.42616,0,0,NIGHT_CLEAR,Cross-shore,1
5842041f4e65fad6a7708a0a,2025_01_27,39.35929751441085,-74.41683,States Avenue,2,0.07948,0.43144,0,0,NIGHT_MOSTLY_CLOUDY,Cross-shore,1
5842041f4e65fad6a7708a0b,2025_01_27,39.37274173278517,-74.40454,Brigantine Jetty,1,0.09001,0.4388,0,0,NIGHT_CLEAR,Cross-shore,1
5842041f4e65fad6a7708a0c,2025_01_27,39.356505,-74.42263,South Carolina Avenue,1,0.09001,0.4388,0,0,NIGHT_MOSTLY_CLOUDY,Cross-shore,1
5842041f4e65fad6a7708a0d,2025_01_27,39.413485,-74.35476,14th Street North,2,0.11,0.42,0,0,NIGHT_CLEAR,Offshore,1
5842041f4e65fad6a7708a0e,2025_01_27,39.531319,-74.26325,The Wooden Jetty,2,0.28808,0.51366,0,0,NIGHT_CLEAR,Offshore,1
5842041f4e65fad6a7708a0f,2025_01_27,39.552472,-74.24344,Holyoke,2,0.04533,0.39662,0,0,NIGHT_CLEAR,Offshore,1
5842041f4e65fad6a7708a10,2025_01_27,39.692364,-74.14068,Hudson Ave.,1,0.0617,0.37018,0,0,NIGHT_CLEAR,Cross-shore,1
5842041f4e65fad6a7708a11,2025_01_27,39.79614,-74.09248,Island Beach State Park,1,0.01,0.31,10,10,NIGHT_CLEAR,Offshore,1
5842041f4e65fad6a7708a12,2025_01_27,39.91813588078152,-74.07527,Seaside Park,1,0.01275,0.31254,10,10,NIGHT_CLEAR,Offshore,1
5842041f4e65fad6a7708a15,2025_01_27,39.95745637606704,-74.06736,Ortley Beach,1,0.01316,0.30392,1,1,NIGHT_CLEAR,Offshore,1
5842041f4e65fad6a7708a16,2025_01_27,39.98313468342945,-74.06265685577506,Lavallette,1,0.02,0.32,1,1,NIGHT_CLEAR,Offshore,1
5842041f4e65fad6a7708a17,2025_01_27,40.0699319967757,-74.04145,Bay Head,1,0,0.31,1,1,NIGHT_CLEAR,Offshore,1
5842041f4e65fad6a7708a18,2025_01_27,40.094041,-74.034859,Jenkinson's,2,0.01,0.31,1,1,NIGHT_CLEAR,Offshore,1
5842041f4e65fad6a7708a1a,2025_01_27,38.148058,-75.17704,Assateague,2,0.07,0.38,2,2,NIGHT_CLEAR,Offshore,1
5842041f4e65fad6a7708a1b,2025_01_27,38.33889038664497,-75.08017670566352,North End to Ocean City Inlet,2,0.04,0.34,2,2,NIGHT_CLEAR,Offshore,1
5842041f4e65fad6a7708a1c,2025_01_27,38.603993,-75.06271,Indian River Inlet,1,0,0.30798,2,2,NIGHT_CLEAR,Offshore,1
5842041f4e65fad6a7708a1d,2025_01_27,38.460477,-75.05207,Fenwick Island,1,0,0.26,3,3,NIGHT_CLEAR,Offshore,1
5842041f4e65fad6a7708a1e,2025_01_27,38.538767,-75.05619,Bethany Beach,2,0,0.30577,2,2,NIGHT_CLEAR,Offshore,1
5842041f4e65fad6a7708a1f,2025_01_27,38.697657,-75.07595,Dewey Beach,2,0.09,0.4,2,2,NIGHT_CLEAR,Offshore,1
5842041f4e65fad6a7708a20,2025_01_27,38.75034741676525,-75.08194,Gordons Pond,1,0,0.2072,2,2,NIGHT_CLEAR,Offshore,1
5842041f4e65fad6a7708a21,2025_01_27,38.767837,-75.08284,Naval Jetties,2,0,0.3,2,2,NIGHT_CLEAR,Offshore,1
5842041f4e65fad6a7708a22,2025_01_27,36.81735875786576,-75.96624,Camp Pendleton,1,0,0.26,4,4,NIGHT_CLEAR,Offshore,1
5842041f4e65fad6a7708a23,2025_01_27,36.9102212316428,-75.98732471466064,North End,1,0,0.16,7,6,NIGHT_CLEAR,Offshore,1
5842041f4e65fad6a7708a24,2025_01_27,36.737117517621314,-75.93924,Sandbridge Beach,1,0,0.21665,7,6,NIGHT_CLEAR,Offshore,1
5842041f4e65fad6a7708a26,2025_01_27,36.818257440557794,-75.96666,Croatan to Pendleton,1,0,0.21176,7,6,NIGHT_CLEAR,Offshore,1
5842041f4e65fad6a7708a27,2025_01_27,36.84318777204769,-75.9719,South End,1,0,0.18384,7,6,NIGHT_CLEAR,Offshore,1
5842041f4e65fad6a7708a28,2025_01_27,37.08612627584661,-75.976121638199,Fishermans Island,0,0,0.124,3,3,NIGHT_CLEAR,Cross-shore,1
5842041f4e65fad6a7708a38,2025_01_27,35.254619418229026,-75.52074,Cape Hatteras Lighthouse,1,0.0807,0.42656,7,6,NIGHT_CLEAR,Offshore,1
5842041f4e65fad6a7708a3a,2025_01_27,35.54572934093336,-75.46477,Waves and Salvo,1,0.09,0.4,6,6,NIGHT_CLEAR,Offshore,1
5842041f4e65fad6a7708a3b,2025_01_27,35.22565892751075,-75.63606,Frisco,1,0.2997,0.5508,9,8,NIGHT_CLEAR,Cross-shore,1
5842041f4e65fad6a7708a3c,2025_01_27,35.13086,-75.90591,Ocracoke,1,0.10608,0.47149,16,16,NIGHT_CLEAR,Offshore,1
5842041f4e65fad6a7708a3d,2025_01_27,35.34721340158342,-75.50084,Avon Pier,1,0.24707,0.52159,6,6,NIGHT_CLEAR,Offshore,1
5842041f4e65fad6a7708a3f,2025_01_27,35.71680821253768,-75.49243,Pea Island,1,0.01,0.31,14,14,NIGHT_CLEAR,Offshore,1
5842041f4e65fad6a7708a40,2025_01_27,35.97427620657821,-75.62984,Nags Head Pier,2,0.04305,0.34328,6,6,NIGHT_CLEAR,Offshore,1
5842041f4e65fad6a7708a41,2025_01_27,36.0439998039079,-75.67288,Avalon Pier,1,0,0.25,6,6,NIGHT_CLEAR,Offshore,1
5842041f4e65fad6a7708a42,2025_01_27,36.03043116489792,-75.66413,First Street,1,0,0.34138,6,6,NIGHT_CLEAR,Offshore,1
5842041f4e65fad6a7708a43,2025_01_27,36.06829910590498,-75.6899,Old Station/Laundromats,1,0,0.26,6,6,NIGHT_CLEAR,Offshore,1
5842041f4e65fad6a7708a44,2025_01_27,36.10126676607491,-75.71107,Kitty Hawk Pier,1,0.01181,0.37781,6,6,NIGHT_CLEAR,Offshore,1
5842041f4e65fad6a7708a45,2025_01_27,36.18220630068973,-75.75014,Duck Pier,1,0,0.24,9,9,NIGHT_CLEAR,Offshore,1
5842041f4e65fad6a7708a46,2025_01_27,36.37660668125033,-75.8241,Corolla,1,0,0.24,7,7,NIGHT_CLEAR,Offshore,1
5842041f4e65fad6a7708a47,2025_01_27,33.90373404124834,-78.08241431707907,Oak Island,1,0,0.25,7,7,NIGHT_CLEAR,Cross-shore,1
5842041f4e65fad6a7708a48,2025_01_27,33.91108837766468,-78.29653,South Brunswick Beaches,1,0,0.2431,7,7,NIGHT_CLEAR,Offshore,1
5842041f4e65fad6a7708a49,2025_01_27,34.05683595651973,-77.88128,Carolina Beach Pier,2,0,0.3118,8,8,NIGHT_CLEAR,Offshore,1
5842041f4e65fad6a7708a4a,2025_01_27,33.96841191816696,-77.9180242565498,Fort Fisher,2,0.02,0.32,8,8,NIGHT_MOSTLY_CLOUDY,Offshore,1
5842041f4e65fad6a7708a4b,2025_01_27,34.46776662988774,-77.47083,Topsail Beach,1,0.06,0.36,9,8,NIGHT_CLEAR,Offshore,1
5842041f4e65fad6a7708a4c,2025_01_27,34.69270354752445,-76.82854854446575,Iron Steamer,1,0.1,0.41,9,9,NIGHT_CLEAR,Cross-shore,1
5842041f4e65fad6a7708a4f,2025_01_27,30.85132684893727,-81.42283496231143,Cumberland Island,2,0.12,0.42,8,8,NIGHT_CLEAR,Cross-shore,1
5842041f4e65fad6a7708a50,2025_01_27,34.686741128540874,-76.47516712138378,Cape Lookout National Seashore,2,0.22,0.53,13,13,NIGHT_CLEAR,Offshore,1
5842041f4e65fad6a7708a51,2025_01_27,31.10585419260024,-81.40422767604812,Jekyll Island,1,0,0.27,7,7,NIGHT_CLEAR,Cross-shore,1
5842041f4e65fad6a7708a52,2025_01_27,31.16212806376699,-81.32512426500224,Harbor Marker Buoys,2,0.05,0.35,8,8,NIGHT_CLEAR,Offshore,1
5842041f4e65fad6a7708a53,2025_01_27,31.20076299997009,-81.32629,Sea Island,2,0.01,0.31,8,8,NIGHT_MOSTLY_CLOUDY,Offshore,1
5842041f4e65fad6a7708a54,2025_01_27,31.13553222995767,-81.38457634790909,St. Simons Island,2,0.01,0.32,7,7,NIGHT_CLEAR,Offshore,1
5842041f4e65fad6a7708a55,2025_01_27,31.33550077186516,-81.28383377408417,Wolf Island,1,0,0.28,7,7,NIGHT_CLEAR,Offshore,1
5842041f4e65fad6a7708a56,2025_01_27,31.2704493877174,-81.27324039152315,Little St. Simons Island,2,0.07,0.37,8,8,NIGHT_CLEAR,Offshore,1
5842041f4e65fad6a7708a57,2025_01_27,31.39261761368919,-81.26190520231917,Sapelo Island,1,0,0.29,7,7,NIGHT_CLEAR,Offshore,1
5842041f4e65fad6a7708a58,2025_01_27,34.42458783809001,-77.54492,Surf City Pier,2,0.03,0.34,9,8,NIGHT_MOSTLY_CLOUDY,Offshore,1
5842041f4e65fad6a7708a59,2025_01_27,31.4231993614213,-81.24725340591522,Cabretta Island,2,0.06,0.36,7,7,NIGHT_CLEAR,Offshore,1
5842041f4e65fad6a7708a5a,2025_01_27,31.46684389030369,-81.2100056410468,Blackbeard Island,1,0,0.29,7,7,NIGHT_CLEAR,Offshore,1
5842041f4e65fad6a7708a5b,2025_01_27,31.85953587631629,-80.99031310336719,Wassaw Island/South End,1,0,0.19,7,7,NIGHT_CLEAR,Offshore,1
5842041f4e65fad6a7708a5c,2025_01_27,31.62535662342983,-81.13328352167974,St. Catherines Island,2,0.04,0.35,8,8,NIGHT_CLEAR,Offshore,1
5842041f4e65fad6a7708a5d,2025_01_27,31.76502169596568,-81.07655443806622,Ossabaw Island,1,0,0.24,7,7,NIGHT_CLEAR,Offshore,1
5842041f4e65fad6a7708a5e,2025_01_27,31.90593619092352,-80.93589231700857,Wassaw Island/North End,2,0.07,0.38,7,7,NIGHT_CLEAR,Offshore,1
5842041f4e65fad6a7708a5f,2025_01_27,31.96738675414547,-80.86977980706155,Little Tybee Island,2,0.04,0.35,7,7,NIGHT_CLEAR,Offshore,1
5842041f4e65fad6a7708a60,2025_01_27,31.9812255780179,-80.84773973467009,South Tybee Sandbars,2,0,0.31,7,7,NIGHT_CLEAR,Offshore,1
5842041f4e65fad6a7708a61,2025_01_27,32.01226,-80.83983,Sugar Shack,1,0,0.24,7,7,NIGHT_CLEAR,Offshore,1
5842041f4e65fad6a7708a62,2025_01_27,31.98722842396969,-80.84773,18th St. Jetty,1,0,0.3006,7,7,NIGHT_CLEAR,Offshore,1
5842041f4e65fad6a7708a64,2025_01_27,34.013473721006676,-77.8991,"Alabama Ave., Kure Beach",2,0.03053,0.34107,8,8,NIGHT_CLEAR,Offshore,1
5842041f4e65fad6a7708a65,2025_01_27,34.20859853336924,-77.79293,"C Street, Wrightsville Beach",2,0.01,0.31,8,8,NIGHT_MOSTLY_CLOUDY,Offshore,1
5842041f4e65fad6a7708a66,2025_01_27,32.831,-79.71,Dewees Island,1,0,0.23,7,7,NIGHT_CLEAR,Offshore,1
5842041f4e65fad6a7708a67,2025_01_27,33.82924423172106,-78.62813,Cherry Grove Pier,1,0,0.23387,7,7,NIGHT_OVERCAST,Cross-shore,1
5842041f4e65fad6a7708a69,2025_01_27,34.27197439666496,-77.74050223196774,Figure Eight and Shell Islands,2,0.08,0.39,8,8,NIGHT_MOSTLY_CLOUDY,Offshore,1
5842041f4e65fad6a7708a6b,2025_01_27,33.49041958261793,-79.07666070599386,North End,1,0,0.21,7,7,NIGHT_CLEAR,Offshore,1
5842041f4e65fad6a7708a6c,2025_01_27,33.39537062495087,-79.13835037835189,The South End,1,0,0.2,8,8,NIGHT_CLEAR,Offshore,1
5842041f4e65fad6a7708a6d,2025_01_27,33.29001727666697,-79.17190003352977,North Island,2,0.01,0.32,8,8,NIGHT_CLEAR,Offshore,1
5842041f4e65fad6a7708a6e,2025_01_27,32.90929771158952,-79.57810400297359,Bull Island,1,0,0.27,8,8,NIGHT_CLEAR,Offshore,1
5842041f4e65fad6a7708a6f,2025_01_27,31.99153112815895,-80.84543050470074,Tybee Island Pier,1,0,0.18,7,7,NIGHT_CLEAR,Offshore,1
5842041f4e65fad6a7708a70,2025_01_27,33.03478144356316,-79.35021028265125,Cape Romain,1,0,0.29,8,8,NIGHT_CLEAR,Offshore,1
5842041f4e65fad6a7708a71,2025_01_27,33.43231073271028,-79.11789,The Pier,1,0,0.21091,8,8,NIGHT_CLEAR,Offshore,1
5842041f4e65fad6a7708a72,2025_01_27,33.45423621397969,-79.10497798178424,South Litchfield,1,0,0.25,8,8,NIGHT_CLEAR,Offshore,1
5842041f4e65fad6a7708a73,2025_01_27,34.19316590251396,-77.8045,Crystal Pier,1,0.0381,0.26059,8,8,NIGHT_MOSTLY_CLOUDY,Offshore,1
5842041f4e65fad6a7708a74,2025_01_27,33.68628680045124,-78.88346,Myrtle Beach,1,0,0.25,7,7,NIGHT_MOSTLY_CLOUDY,Offshore,1
5842041f4e65fad6a7708a75,2025_01_27,32.66166297145973,-79.91951806398808,10th Street,2,0.01,0.31,7,7,NIGHT_CLEAR,Offshore,1
5842041f4e65fad6a7708a76,2025_01_27,33.16729555197199,-79.19829236867845,South Island,1,0,0.29,9,9,NIGHT_CLEAR,Offshore,1
5842041f4e65fad6a7708a77,2025_01_27,32.595,-80.088,Kiawah Island/Seabrook Island,1,0,0.26,7,7,NIGHT_CLEAR,Cross-shore,1
5842041f4e65fad6a7708a78,2025_01_27,32.51356930575787,-80.28223,Edisto Beach,1,0,0.22553,7,7,NIGHT_CLEAR,Offshore,1
5842041f4e65fad6a7708a79,2025_01_27,32.366270751262,-80.43911,Hunting Island,1,0,0.28481,7,7,NIGHT_CLEAR,Offshore,1
5842041f4e65fad6a7708a7a,2025_01_27,32.65337734408365,-79.93983,Folly Beach Pier,1,0.04094,0.33161,7,7,NIGHT_CLEAR,Offshore,1
5842041f4e65fad6a7708a7b,2025_01_27,33.41209545530049,-79.13026341393126,South Jetty,1,0,0.2,8,8,NIGHT_CLEAR,Offshore,1
5842041f4e65fad6a7708a7c,2025_01_27,32.31115640606869,-80.48564,Fripp Island,1,0,0.27303,7,7,NIGHT_CLEAR,Cross-shore,1
5842041f4e65fad6a7708a7d,2025_01_27,32.14365226036034,-80.74402,Hilton Head Island,0,0,0.06,7,7,NIGHT_CLEAR,Offshore,1
5842041f4e65fad6a7708a7e,2025_01_27,29.70405364733744,-81.22426,Matanzas Inlet,2,0.09025,0.44387,15,15,NIGHT_MOSTLY_CLOUDY,Cross-shore,1
5842041f4e65fad6a7708a81,2025_01_27,29.76878537149042,-81.25109,Crescent Beach,2,0.1,0.4,12,12,NIGHT_MOSTLY_CLOUDY,Cross-shore,1
5842041f4e65fad6a7708a82,2025_01_27,32.80251718689188,-79.73221919500764,Wild Dunes,2,0.02,0.33,7,7,NIGHT_CLEAR,Offshore,1
5842041f4e65fad6a7708a84,2025_01_27,32.75733539419244,-79.83258856064796,Bert's Bar,1,0,0.21,7,7,NIGHT_CLEAR,Offshore,1
5842041f4e65fad6a7708a85,2025_01_27,32.66829212943039,-79.90735,Washout,2,0.031,0.34095,7,7,NIGHT_CLEAR,Offshore,1
5842041f4e65fad6a7708a86,2025_01_27,32.78452968219067,-79.7854,The Pier/Windjammer,1,0,0.3,7,7,NIGHT_CLEAR,Offshore,1
5842041f4e65fad6a7708a87,2025_01_27,29.86618162637438,-81.2662150259608,Anastasia Park (The Entrance),2,0.07,0.37,12,12,NIGHT_FOG,Cross-shore,1
5842041f4e65fad6a7708a89,2025_01_27,29.89149785916623,-81.2723223244215,Blowholes,2,0.06,0.37,22,21,NIGHT_FOG,Cross-shore,1
5842041f4e65fad6a7708a8a,2025_01_27,30.16227112983666,-81.35502907491218,Crossroads,2,0.17,0.48,22,21,NIGHT_MOSTLY_CLOUDY,Cross-shore,1
5842041f4e65fad6a7708a8b,2025_01_27,30.19308537587637,-81.36314247820911,Sawgrass,2,0.18,0.48,22,21,NIGHT_CLEAR,Cross-shore,1
5842041f4e65fad6a7708a8c,2025_01_27,30.34696027700899,-81.39451,18th Street,2,0.04451,0.43513,10,10,NIGHT_CLEAR,Cross-shore,1
5842041f4e65fad6a7708a8d,2025_01_27,30.381793,-81.39686,Mayport Poles,2,0.23,0.53,10,10,NIGHT_MIST,Cross-shore,1
5842041f4e65fad6a7708a8e,2025_01_27,30.390516,-81.395591,Blue Roofs,2,0.17,0.48,10,10,NIGHT_MIST,Cross-shore,1
5842041f4e65fad6a7708a8f,2025_01_27,30.40517712722211,-81.40074116169004,Huguenot Park (North Jetty),2,0.12,0.43,10,10,NIGHT_MIST,Cross-shore,1
5842041f4e65fad6a7708a90,2025_01_27,30.47788918872762,-81.41055821335078,Talbot Island,2,0.49784,0.65726,14,14,NIGHT_CLEAR,Cross-shore,1
5842041f4e65fad6a7708a91,2025_01_27,30.66753984549761,-81.42983,Main Beach,2,0.11,0.42,9,9,NIGHT_CLEAR,Cross-shore,1
5842041f4e65fad6a7708a92,2025_01_27,30.69983581209126,-81.42483,Ft. Clinch State Park,2,0.13,0.43,9,9,NIGHT_CLEAR,Cross-shore,1
5842041f4e65fad6a7708a93,2025_01_27,30.62059700777582,-81.437252942757425,Amelia Pier,2,0.12,0.43,9,9,NIGHT_CLEAR,Cross-shore,1
5842041f4e65fad6a7708a95,2025_01_27,28.95125170929067,-80.83837,Bethune Beach,2,0.2,0.51,16,16,NIGHT_CLEAR,Offshore,1
5842041f4e65fad6a7708a96,2025_01_27,29.03874288905362,-80.8933424949646,Flagler Ave.,2,0.13,0.44,21,21,NIGHT_MOSTLY_CLEAR,Offshore,1
5842041f4e65fad6a7708a98,2025_01_27,30.332297686992757,-81.39319,Atlantic Beach,2,0.01297,0.40208,10,10,NIGHT_CLEAR,Cross-shore,1
5842041f4e65fad6a7708a99,2025_01_27,29.87530059952514,-81.26757958498874,Middles,2,0.06,0.37,22,21,NIGHT_FOG,Cross-shore,1
5842041f4e65fad6a7708a9a,2025_01_27,29.146475528378218,-80.96347,Sunglow Pier,2,0.15,0.45,14,14,NIGHT_MOSTLY_CLEAR,Offshore,1
5842041f4e65fad6a7708a9b,2025_01_27,30.02251238001095,-81.32183077344881,Gate Station,2,0.1,0.4,22,21,NIGHT_CLEAR,Cross-shore,1
5842041f4e65fad6a7708a9c,2025_01_27,29.33976495417899,-81.0606,Bicentennial Park,2,0.14,0.45,13,13,NIGHT_MOSTLY_CLEAR,Offshore,1
5842041f4e65fad6a7708a9d,2025_01_27,29.08257353385602,-80.92137,Ponce Inlet,3,0.39576,0.72735,15,15,NIGHT_MIST,Offshore,1
5842041f4e65fad6a7708a9f,2025_01_27,27.862962005874696,-80.44668,Sebastian Inlet,3,0.63497,0.81312,16,16,NIGHT_MOSTLY_CLOUDY,Onshore,1
5842041f4e65fad6a7708aa0,2025_01_27,30.292626880836885,-81.38579,Jacksonville Beach Pier,2,0.19,0.5,14,14,NIGHT_MOSTLY_CLEAR,Cross-shore,1
5842041f4e65fad6a7708aa2,2025_01_27,29.21860397328164,-81.0019,Daytona Beach,2,0.16,0.47,14,14,NIGHT_MIST,Offshore,1
5842041f4e65fad6a7708aa3,2025_01_27,27.47531255634912,-80.28914,Ft. Pierce Inlet,2,0.32108,0.67655,17,17,NIGHT_CLEAR,Onshore,1
5842041f4e65fad6a7708aa4,2025_01_27,29.29239875585548,-81.0386,Ormond Beach,2,0.28,0.58,13,13,NIGHT_CLEAR,Offshore,1
5842041f4e65fad6a7708aa5,2025_01_27,29.91629441498523,-81.28801,Vilano,2,0.06,0.36,12,12,NIGHT_MOSTLY_CLOUDY,Cross-shore,1
5842041f4e65fad6a7708aa6,2025_01_27,27.876230736320828,-80.4551,Spanish House,3,0.43,0.73,16,16,NIGHT_MOSTLY_CLOUDY,Cross-shore,1
5842041f4e65fad6a7708aa7,2025_01_27,28.64397251741012,-80.62329,Playalinda,2,0.3,0.61,17,17,NIGHT_MOSTLY_CLOUDY,Offshore,1
5842041f4e65fad6a7708aa8,2025_01_27,28.406142,-80.58886,Jetty Park,2,0.1,0.41,18,18,NIGHT_MOSTLY_CLEAR,Cross-shore,1
5842041f4e65fad6a7708aa9,2025_01_27,28.49083243010974,-80.58001715986319,Kennedy Space Center,1,0.25,0.55,18,18,NIGHT_CLEAR,Offshore,1
5842041f4e65fad6a7708aab,2025_01_27,28.336757013024314,-80.60568,Lori Wilson Park,3,0.31592,0.63183,15,15,NIGHT_CLEAR,Offshore,1
5842041f4e65fad6a7708aad,2025_01_27,27.76388821683801,-80.3962958234027,Wabasso,2,0.39,0.69,20,20,NIGHT_CLEAR,Cross-shore,1
5842041f4e65fad6a7708aae,2025_01_27,27.521583322459,-80.30987620353699,P.V. Martin's,2,0.44,0.74,16,16,NIGHT_MOSTLY_CLEAR,Onshore,1
5842041f4e65fad6a7708aaf,2025_01_27,27.644996047720046,-80.35242676734924,Riomar,2,0.46,0.76,16,16,NIGHT_MOSTLY_CLEAR,Onshore,1
5842041f4e65fad6a7708ab1,2025_01_27,27.670121806659253,-80.36026954650879,Vero Pier,3,0.46,0.77,16,16,NIGHT_CLEAR,Onshore,1
5842041f4e65fad6a7708ab2,2025_01_27,28.047705032021486,-80.54680109024048,Spessard Holland,3,0.51521,0.76217,16,16,NIGHT_CLEAR,Offshore,1
5842041f4e65fad6a7708ab7,2025_01_27,28.135426226217064,-80.57895541191101,The Radisson,3,0.41,0.72,16,16,NIGHT_CLEAR,Offshore,1
5842041f4e65fad6a7708ab8,2025_01_27,28.26664623907351,-80.60448,Picnic Tables,3,0.45,0.76,18,18,NIGHT_CLEAR,Offshore,1
5842041f4e65fad6a7708ab9,2025_01_27,28.200840983180232,-80.59493,Perkins,3,0.43,0.73,18,18,NIGHT_CLEAR,Offshore,1
5842041f4e65fad6a7708aba,2025_01_27,28.185652556759443,-80.59154,RC's,3,0.41,0.71,18,18,NIGHT_CLEAR,Offshore,1
5842041f4e65fad6a7708abc,2025_01_27,28.252541991968208,-80.60269,2nd Light,3,0.42,0.73,18,18,NIGHT_CLEAR,Offshore,1
5842041f4e65fad6a7708abd,2025_01_27,27.901611308716447,-80.4697,Bonsteel Park,3,0.43,0.74,16,16,NIGHT_CLEAR,Offshore,1
5842041f4e65fad6a7708abe,2025_01_27,28.2423394657007,-80.60104,Hangar's Beach,3,0.4,0.7,18,18,NIGHT_CLEAR,Offshore,1
5842041f4e65fad6a7708abf,2025_01_27,27.34018197146798,-80.23278,Walton Rocks,2,0.42,0.72,17,16,NIGHT_MOSTLY_CLEAR,Onshore,1
5842041f4e65fad6a7708ac0,2025_01_27,25.80407401902198,-80.1222227290161,30th Street,1,0.03,0.33,22,22,NIGHT_CLEAR,Onshore,1
5842041f4e65fad6a7708ac1,2025_01_27,25.76570280215999,-80.12983,South Beach,1,0.16141,0.51882,24,23,NIGHT_MOSTLY_CLOUDY,Onshore,1
5842041f4e65fad6a7708ac2,2025_01_27,26.058022412197,-80.10873562327671,Dania Pier,1,0.13,0.43,22,22,NIGHT_MOSTLY_CLOUDY,Onshore,1
5842041f4e65fad6a7708ac3,2025_01_27,26.04825428257198,-80.11153150137932,Franklin Street,1,0.23,0.53,22,22,NIGHT_MOSTLY_CLOUDY,Onshore,1
5842041f4e65fad6a7708ac4,2025_01_27,26.09086461141498,-80.10728410144065,John Lloyd State Park,1,0.23,0.53,22,22,NIGHT_MOSTLY_CLOUDY,Onshore,1
5842041f4e65fad6a7708ac5,2025_01_27,26.0971397396683,-80.10298876028907,Spoils,0,0.12,0.42,22,22,NIGHT_CLEAR,Onshore,1
5842041f4e65fad6a7708ac6,2025_01_27,26.18920557475824,-80.09224,Commercial Pier,1,0.18,0.48,22,22,NIGHT_MOSTLY_CLOUDY,Onshore,1
5842041f4e65fad6a7708ac7,2025_01_27,28.289851576629342,-80.6063,16th St. South,2,0.33,0.64,21,21,NIGHT_CLEAR,Offshore,1
5842041f4e65fad6a7708ac8,2025_01_27,26.23467460139735,-80.0874,Pompano Pier,1,0.12,0.42,22,22,NIGHT_MOSTLY_CLOUDY,Onshore,1
5842041f4e65fad6a7708acb,2025_01_27,26.44179551370651,-80.05928855229453,Atlantic Dunes Park,1,0.25969,0.43111,24,22,NIGHT_CLEAR,Onshore,1
5842041f4e65fad6a7708acd,2025_01_27,26.62215707439298,-80.03599398392342,Hilton Hotel Backyard,1,0.4,0.7,23,22,NIGHT_MOSTLY_CLOUDY,Onshore,1
5842041f4e65fad6a7708ace,2025_01_27,26.96418190555367,-80.07769168113562,Coral Cove Park,2,0.56,0.86,20,19,NIGHT_MOSTLY_CLOUDY,Onshore,1
5842041f4e65fad6a7708acf,2025_01_27,26.7029496416037,-80.03184,Palm Beach,2,0.43,0.74,23,22,NIGHT_CLEAR,Onshore,1
5842041f4e65fad6a7708ad0,2025_01_27,26.97679878167375,-80.08141631388132,Blowing Rocks,2,0.48,0.79,20,19,NIGHT_CLEAR,Onshore,1
5842041f4e65fad6a7708ad2,2025_01_27,26.45661880078336,-80.057,Delray Beach,1,0.0965,0.4289,24,22,NIGHT_CLEAR,Cross-shore,1
5842041f4e65fad6a7708ad3,2025_01_27,27.205685534312778,-80.16826629638672,Fletcher's,2,0.4,0.7,20,19,NIGHT_CLEAR,Onshore,1
5842041f4e65fad6a7708ad5,2025_01_27,26.5848450388814,-80.03649735753257,Lantana Public Beach,1,0.42,0.72,23,22,NIGHT_MOSTLY_CLOUDY,Onshore,1
5842041f4e65fad6a7708ad6,2025_01_27,25.77468432731322,-80.12884045797499,5th Street,1,0.13,0.43,22,22,NIGHT_CLEAR,Onshore,1
5842041f4e65fad6a7708ad7,2025_01_27,25.795157990715975,-80.12527585029602,21st Street,1,0.03,0.33,22,22,NIGHT_CLEAR,Onshore,1
5842041f4e65fad6a7708ad8,2025_01_27,25.897806453088073,-80.1211827993393,Haulover Inlet (South Jetty),1,0.14,0.45,22,22,NIGHT_MOSTLY_CLOUDY,Onshore,1
5842041f4e65fad6a7708ad9,2025_01_27,25.90147392328634,-80.12110769748688,Haulover Inlet (North Jetty),1,0.2,0.5,22,22,NIGHT_MOSTLY_CLOUDY,Onshore,1
5842041f4e65fad6a7708ada,2025_01_27,25.87049374242476,-80.11828560342356,85th Street,1,0.15,0.46,22,22,NIGHT_CLEAR,Onshore,1
5842041f4e65fad6a7708adb,2025_01_27,26.25486382031396,-80.0805,Hillsboro Inlet,1,0.37664,0.69051,22,22,NIGHT_MOSTLY_CLOUDY,Onshore,1
5842041f4e65fad6a7708add,2025_01_27,26.29705672965111,-80.07612,Hillsboro Beach,1,0.18,0.48,22,22,NIGHT_MOSTLY_CLEAR,Onshore,1
5842041f4e65fad6a7708ade,2025_01_27,26.36569956413266,-80.06717936869391,Red Reef Park,1,0.29,0.59,24,22,NIGHT_CLEAR,Onshore,1
5842041f4e65fad6a7708adf,2025_01_27,26.54593873498907,-80.04104359585143,Boynton Beach Inlet (Northside),1,0.21,0.52,23,22,NIGHT_MOSTLY_CLOUDY,Onshore,1
5842041f4e65fad6a7708ae0,2025_01_27,26.92746505629809,-80.06721138954163,Corners,2,0.64528,0.83141,23,22,NIGHT_MOSTLY_CLOUDY,Onshore,1
5842041f4e65fad6a7708ae1,2025_01_27,26.76983179886943,-80.03413481937037,The Cove,2,0.44,0.75,23,22,NIGHT_MOSTLY_CLOUDY,Onshore,1
5842041f4e65fad6a7708ae3,2025_01_27,26.39224485175123,-80.0650461233983,Japanese Rock,1,0.23,0.53,24,22,NIGHT_CLEAR,Onshore,1
5842041f4e65fad6a7708ae4,2025_01_27,29.94810928551321,-85.42545434612366,Mexico Beach,0,0,0.07,14,14,NIGHT_CLEAR,Offshore,1
5842041f4e65fad6a7708ae5,2025_01_27,30.11752500931267,-85.7306,Shell Island,0,0,0.08,15,15,NIGHT_CLEAR,Cross-shore,1
5842041f4e65fad6a7708ae7,2025_01_27,29.94901514702268,-85.43042978529013,D.J.'s,0,0,0.07,14,14,NIGHT_CLEAR,Offshore,1
5842041f4e65fad6a7708ae8,2025_01_27,30.12396111446713,-85.73637,St. Andrew's Park,0,0,0.08,14,13,NIGHT_CLEAR,Cross-shore,1
5842041f4e65fad6a7708ae9,2025_01_27,30.16781531760227,-85.79604918824084,Spinnaker,0,0,0.15,14,13,NIGHT_CLEAR,Onshore,1
5842041f4e65fad6a7708aea,2025_01_27,30.18877050526983,-85.83243530466363,Wood Pier,1,0,0.16,14,13,NIGHT_CLEAR,Onshore,1
5842041f4e65fad6a7708aeb,2025_01_27,30.2676205895555,-85.9938578144113,Inlet Beach Pier,0,0,0.17,14,13,NIGHT_CLEAR,Onshore,1
5842041f4e65fad6a7708aec,2025_01_27,30.31815542759119,-86.1383771867044,Bud and Alley's,0,0,0.18,14,13,NIGHT_CLEAR,Onshore,1
5842041f4e65fad6a7708aed,2025_01_27,30.32686082481946,-86.16650590275447,Grayton Beach,0,0,0.21,14,13,NIGHT_MOSTLY_CLOUDY,Onshore,1
5842041f4e65fad6a7708aee,2025_01_27,30.33661488976303,-86.20094,Blue Mountain Beach,0,0,0.19,14,13,NIGHT_MOSTLY_CLOUDY,Onshore,1
5842041f4e65fad6a7708aef,2025_01_27,30.37677202831587,-86.38513,Pompano Joe's,1,0,0.28,14,13,NIGHT_CLOUDY,Onshore,1
5842041f4e65fad6a7708af0,2025_01_27,30.37429731725911,-86.36687,Seascape,1,0,0.21,14,13,NIGHT_CLOUDY,Cross-shore,1
5842041f4e65fad6a7708af1,2025_01_27,30.382815988547186,-86.45839,The Back Porch,0,0,0.29,14,13,NIGHT_MOSTLY_CLOUDY,Onshore,1
5842041f4e65fad6a7708af2,2025_01_27,30.21207176798612,-85.87989730830542,Panama City Pier,0,0,0.16,14,13,NIGHT_CLEAR,Onshore,1
5842041f4e65fad6a7708af3,2025_01_27,30.37521499110326,-86.3717,Whale's Tail,1,0,0.25,14,13,NIGHT_CLOUDY,Offshore,1
5842041f4e65fad6a7708af4,2025_01_27,30.38120596658251,-86.43046,Old Crystal Pier,0,0,0.25,14,13,NIGHT_CLOUDY,Onshore,1
5842041f4e65fad6a7708af5,2025_01_27,30.38090573159031,-86.50655,Jetty East,0,0,0.26,14,13,NIGHT_MOSTLY_CLOUDY,Onshore,1
5842041f4e65fad6a7708af6,2025_01_27,30.37584509640838,-86.50563,HMO's,0,0,0.26,14,13,NIGHT_MOSTLY_CLOUDY,Onshore,1
5842041f4e65fad6a7708af7,2025_01_27,30.38124006131522,-86.50052,Two By Fours,0,0,0.27,14,13,NIGHT_CLOUDY,Onshore,1
5842041f4e65fad6a7708af8,2025_01_27,30.38250751017554,-86.45776,The Pumphouse,0,0,0.27,14,13,NIGHT_MOSTLY_CLOUDY,Onshore,1
5842041f4e65fad6a7708af9,2025_01_27,30.38655981578935,-86.52475,NCO Club,0,0,0.26,14,13,NIGHT_MOSTLY_CLOUDY,Onshore,1
5842041f4e65fad6a7708afa,2025_01_27,30.39024516541047,-86.59341,Okaloosa Pier,0,0,0.27,14,13,NIGHT_CLEAR,Onshore,1
5842041f4e65fad6a7708afb,2025_01_27,30.39281125722673,-86.59766,Dead Man's,0,0,0.3,14,13,NIGHT_CLEAR,Onshore,1
5842041f4e65fad6a7708afc,2025_01_27,30.32703176167034,-87.14196,Pensacola Pier,1,0.11,0.42,16,16,NIGHT_BRIEF_SHOWERS,Onshore,1
5842041f4e65fad6a7708afd,2025_01_27,30.37920054094992,-86.85583,Navarre Beach,1,0,0.224,14,13,NIGHT_CLEAR,Cross-shore,1
5842041f4e65fad6a7708afe,2025_01_27,30.39491626029151,-86.61248,Blue Horizon Motel,0,0,0.3,14,13,NIGHT_CLEAR,Onshore,1
5842041f4e65fad6a7708aff,2025_01_27,30.29345899260828,-87.43547,First Parking Lot,1,0.1,0.41,15,15,NIGHT_BRIEF_SHOWERS,Onshore,1
5842041f4e65fad6a7708b00,2025_01_27,30.29767401311303,-87.41362,Johnsons Beach,1,0.11,0.42,15,15,NIGHT_LIGHT_RAIN_AND_FOG,Onshore,1
5842041f4e65fad6a7708b01,2025_01_27,30.29513397370759,-87.42642,Sandy Key,1,0.11,0.41,15,15,NIGHT_BRIEF_SHOWERS,Onshore,1
5842041f4e65fad6a7708b03,2025_01_27,30.377504907388026,-86.86444,Navarre Pier,2,0,0.31914,14,13,NIGHT_CLEAR,Cross-shore,1
5842041f4e65fad6a7708b04,2025_01_27,30.31482647791307,-87.26164,Pickens Point Dunes,1,0.12,0.42,16,16,NIGHT_CLOUDY,Onshore,1
5842041f4e65fad6a7708b05,2025_01_27,30.32632110836516,-87.16019503253068,Slabs,1,0.13,0.43,16,16,NIGHT_BRIEF_SHOWERS,Onshore,1
5842041f4e65fad6a7708b06,2025_01_27,30.32739721382043,-87.30406515493348,Pickens Point,1,0.12,0.43,15,15,NIGHT_MOSTLY_CLOUDY,Onshore,1
5842041f4e65fad6a7708b07,2025_01_27,30.27406893266753,-87.54367,Bungalows,1,0.13,0.43,15,15,NIGHT_FOG,Onshore,1
5842041f4e65fad6a7708b08,2025_01_27,27.99627311846992,-82.82942,880,0,0,0.06608,13,13,NIGHT_CLEAR,Offshore,1
5842041f4e65fad6a7708b09,2025_01_27,27.97779860371595,-82.83246509090527,Pier 60,0,0,0.05,13,13,NIGHT_CLEAR,Offshore,1
5842041f4e65fad6a7708b0a,2025_01_27,27.96296387618043,-82.8332635965418,Sand Key,0,0,0.05,13,13,NIGHT_CLEAR,Offshore,1
5842041f4e65fad6a7708b0b,2025_01_27,27.92492619212885,-82.8449122845279,Belleair,0,0,0.05,13,13,NIGHT_CLEAR,Offshore,1
5842041f4e65fad6a7708b0c,2025_01_27,27.882,-82.854,Indian Rocks Beach,0,0,0.05,13,13,NIGHT_CLEAR,Offshore,1
5842041f4e65fad6a7708b0d,2025_01_27,27.83106104966094,-82.83550218771384,Redington Breakwater,0,0,0.06,14,14,NIGHT_CLEAR,Offshore,1
5842041f4e65fad6a7708b0e,2025_01_27,27.74369029906206,-82.76053473435867,Middle Jetty,0,0,0.05,14,14,NIGHT_CLEAR,Offshore,1
5842041f4e65fad6a7708b0f,2025_01_27,27.82174178852146,-82.83148664631841,Redington Pier,0,0,0.06,14,14,NIGHT_CLEAR,Offshore,1
5842041f4e65fad6a7708b10,2025_01_27,27.31496308261514,-82.5830466912004,Lido Beach,0,0,0.06,16,16,NIGHT_CLEAR,Offshore,1
5842041f4e65fad6a7708b11,2025_01_27,27.31122010159892,-82.57833234007632,Coolidge,0,0,0.06,16,16,NIGHT_CLEAR,Offshore,1
5842041f4e65fad6a7708b12,2025_01_27,27.26471672017615,-82.55464835167173,Siesta Key,0,0,0.03243,18,17,NIGHT_CLEAR,Offshore,1
5842041f4e65fad6a7708b13,2025_01_27,27.24638693488133,-82.53809115716797,Stickney Point,0,0,0.07,16,16,NIGHT_CLEAR,Offshore,1
5842041f4e65fad6a7708b14,2025_01_27,27.21907878229092,-82.51813937562073,Turtles,0,0,0.07,16,16,NIGHT_CLEAR,Offshore,1
5842041f4e65fad6a7708b15,2025_01_27,27.11375765852028,-82.47039,Venice Jetties North,0,0,0.05,18,17,NIGHT_CLEAR,Offshore,1
5842041f4e65fad6a7708b16,2025_01_27,27.111485758834025,-82.46757,Venice Jetties South,0,0,0.05915,18,17,NIGHT_CLEAR,Offshore,1
5842041f4e65fad6a7708b17,2025_01_27,27.07249378831575,-82.4530285256104,Venice Pier,0,0,0.08,18,17,NIGHT_CLEAR,Offshore,1
5842041f4e65fad6a7708b19,2025_01_27,27.49680446426314,-82.7140145455959,Holmes Beach Pier,0,0,0.06,15,15,NIGHT_CLEAR,Offshore,1
5842041f4e65fad6a7708b1a,2025_01_27,27.7390348493064,-82.75763,Sunset Beach,0,0,0.05,14,14,NIGHT_CLEAR,Offshore,1
5842041f4e65fad6a7708b1b,2025_01_27,26.80347307599041,-82.28564775623539,Gasparilla Point,0,0,0.08,17,17,NIGHT_CLEAR,Offshore,1
5842041f4e65fad6a7708b1c,2025_01_27,27.45365831548911,-82.69609,Coquina Jetties,0,0,0.06,15,15,NIGHT_CLEAR,Offshore,1
5842041f4e65fad6a7708b1d,2025_01_27,27.46077315206043,-82.69924,Twin Piers,0,0,0.04,18,17,NIGHT_CLEAR,Offshore,1
5842041f4e65fad6a7708b1e,2025_01_27,26.91007316019612,-82.35352,Englewood,0,0,0.03,17,17,NIGHT_CLEAR,Offshore,1
5842041f4e65fad6a7708b1f,2025_01_27,26.88221101560038,-82.3359828282636,Knight's Point,0,0,0.08,17,17,NIGHT_CLEAR,Offshore,1
5842041f4e65fad6a7708b20,2025_01_27,26.51219285784982,-82.1928203289264,Tween Waters,0,0,0.09,17,17,NIGHT_CLEAR,Offshore,1
5842041f4e65fad6a7708b21,2025_01_27,26.55130241615096,-82.20222762415648,Redfish Pass,0,0,0.09,17,17,NIGHT_CLEAR,Offshore,1
5842041f4e65fad6a7708b22,2025_01_27,26.71713432926596,-82.26287777058234,Boca Grande,0,0,0.08,17,17,NIGHT_CLEAR,Offshore,1
5842041f4e65fad6a7708b23,2025_01_27,26.47856785808584,-82.181288592828,Blind Pass,0,0,0.09,17,17,NIGHT_CLEAR,Offshore,1
5842041f4e65fad6a7708b24,2025_01_27,26.25358330618783,-81.82429246081317,The Wall,0,0,0.06,17,17,NIGHT_CLEAR,Offshore,1
5842041f4e65fad6a7708b25,2025_01_27,26.17456407516186,-81.81588575623482,Doctor's Pass,0,0,0.06,17,17,NIGHT_CLEAR,Offshore,1
5842041f4e65fad6a7708b26,2025_01_27,27.427134501874612,-82.68110766159296,Whitney Beach,0,0,0.07,15,15,NIGHT_CLEAR,Offshore,1
5842041f4e65fad6a7708b27,2025_01_27,26.17300183052463,-81.81515842430267,Doctor's Pass (South Jetty),0,0,0.06,17,17,NIGHT_CLEAR,Offshore,1
5842041f4e65fad6a7708b28,2025_01_27,27.73496421495629,-82.75268962468695,Upham Beach Park,0,0,0.05,14,14,NIGHT_CLEAR,Offshore,1
5842041f4e65fad6a7708b29,2025_01_27,26.13144856766723,-81.8090395116521,Naples Pier,0,0,0.05,17,17,NIGHT_CLEAR,Offshore,1
5842041f4e65fad6a7708b2a,2025_01_27,20.63474,-156.45211,Little Beach,1,0,0.23,26,26,NIGHT_CLEAR,Offshore,1
5842041f4e65fad6a7708b2b,2025_01_27,20.613,-156.438,Dumps,1,0,0.22,26,26,NIGHT_CLEAR,Offshore,1
5842041f4e65fad6a7708b2c,2025_01_27,22.216,-159.502,Hanalei Bay,2,2.06,2.34,25,25,NIGHT_SHOWERS,Cross-shore,1
5842041f4e65fad6a7708b2d,2025_01_27,22.225,-159.567,Ha'Ena Bay (Cannons/Tunnels),0,1.88,2.25,25,25,NIGHT_SHOWERS,Onshore,1
5842041f4e65fad6a7708b2f,2025_01_27,22.148,-159.301,Anahola Bay,0,0.99,1.3,25,25,NIGHT_MOSTLY_CLOUDY,Onshore,1
5842041f4e65fad6a7708b30,2025_01_27,21.872,-159.462,Poipu Outer Reef,2,0.33,0.63,25,25,NIGHT_CLEAR,Offshore,1
5842041f4e65fad6a7708b31,2025_01_27,21.936,-159.652,Pakala,2,0.13,0.44,25,25,NIGHT_MOSTLY_CLEAR,Onshore,1
5842041f4e65fad6a7708b32,2025_01_27,21.272,-157.832,Populars,2,0.13,0.43,26,25,NIGHT_CLEAR,Cross-shore,1
5842041f4e65fad6a7708b33,2025_01_27,21.26841992117695,-157.82329,Publics,2,0.16,0.46,26,25,NIGHT_MIST,Cross-shore,1
5842041f4e65fad6a7708b34,2025_01_27,21.25460513357954,-157.79432,Black Point,2,0.55723,0.8785,25,25,NIGHT_MOSTLY_CLOUDY,Cross-shore,1
5842041f4e65fad6a7708b35,2025_01_27,21.27394674233747,-157.82777,Canoes,2,0.16,0.46,26,25,NIGHT_MIST,Cross-shore,1
5842041f4e65fad6a7708b36,2025_01_27,21.273658410008455,-157.8263,Queen's,2,0.02,0.33,26,25,NIGHT_MIST,Cross-shore,1
5842041f4e65fad6a7708b37,2025_01_27,20.869,-156.679,Lahaina Harbor - Breakwall,2,0.02,0.33,26,26,NIGHT_CLEAR,Cross-shore,1
5842041f4e65fad6a7708b38,2025_01_27,21.277,-157.841,Kaiser's,2,0.30620000000000003,0.70171,26,25,NIGHT_CLEAR,Cross-shore,1
5842041f4e65fad6a7708b39,2025_01_27,21.280537020769913,-157.84107,Rockpiles,2,0.23232,0.52936,26,25,NIGHT_CLEAR,Cross-shore,1
5842041f4e65fad6a7708b3a,2025_01_27,21.2745,-157.8395,Four's,2,0.3,0.6,25,25,NIGHT_CLEAR,Cross-shore,1
5842041f4e65fad6a7708b3b,2025_01_27,21.576,-158.282,Kaena Point,1,0.57,0.87,25,25,NIGHT_MOSTLY_CLOUDY,Onshore,1
5842041f4e65fad6a7708b3c,2025_01_27,21.31110306220024,-157.6590697786346,Makapu'u,2,0.26,0.56,25,25,NIGHT_MOSTLY_CLOUDY,Onshore,1
5842041f4e65fad6a7708b3d,2025_01_27,21.276618032562773,-157.83386,Three's,2,0.21906,0.58861,26,25,NIGHT_CLEAR,Cross-shore,1
5842041f4e65fad6a7708b3f,2025_01_27,39.63537452931482,-123.7858735430881,Westport,3,0.75,1.05,12,12,NIGHT_CLEAR,Offshore,1
5842041f4e65fad6a7708b40,2025_01_27,39.47339314374171,-123.8053109861082,MacKerricher,4,1.49,1.72,12,12,NIGHT_CLEAR,Offshore,1
5842041f4e65fad6a7708b41,2025_01_27,39.30271935445495,-123.79757,Mendocino Township,3,0.45,0.76,12,12,NIGHT_CLEAR,Offshore,1
5842041f4e65fad6a7708b42,2025_01_27,21.281416779283845,-157.8457,Ala Moana Bowls,2,0.29363,0.5906,26,25,NIGHT_CLEAR,Cross-shore,1
5842041f4e65fad6a7708b43,2025_01_27,15.846,-97.06,Puerto Escondido,3,1.05,1.36,29,29,NIGHT_CLEAR,Offshore,1
5842041f4e65fad6a7708b44,2025_01_27,11.44175,-86.08519,Santana,1,0.28,0.58,26,26,NIGHT_OVERCAST,Offshore,1
5842041f4e65fad6a7708b46,2025_01_27,38.91444690804076,-123.7104245288878,Point Arena,4,1.22,1.44,12,12,NIGHT_CLEAR,Offshore,1
5842041f4e65fad6a7708b47,2025_01_27,18.46,-66.07383728027,San Juan,1,0.98,1.28,28,27,NIGHT_MOSTLY_CLOUDY,Cross-shore,1
5842041f4e65fad6a7708b48,2025_01_27,13.21526058417982,-59.52183,Soup Bowl,1,1.46,1.77,27,27,NIGHT_BRIEF_SHOWERS,Onshore,1
5842041f4e65fad6a7708b49,2025_01_27,18.371581,-67.25941,Puntas,1,0.69004,1.01862,28,27,NIGHT_CLEAR,Cross-shore,1
5842041f4e65fad6a7708b4b,2025_01_27,-8.814,115.089,Uluwatu,4,1.19565,1.62742,28,28,OVERCAST,Offshore,1
5842041f4e65fad6a7708b4c,2025_01_27,-8.950192825865,115.12573,Kuta,4,1.35,1.66,29,29,OVERCAST,Offshore,1
5842041f4e65fad6a7708b4d,2025_01_27,9.94,-85.668,Guiones,3,0.45,0.76,28,28,NIGHT_CLEAR,Offshore,1
5842041f4e65fad6a7708b4e,2025_01_27,9.56516,-84.59148,Playa Hermosa South,3,1.05616,1.27194,29,29,NIGHT_CLEAR,Offshore,1
5842041f4e65fad6a7708b4f,2025_01_27,9.526305556,-84.48822,Playa Esterillos,4,1.6,1.91,29,29,NIGHT_CLEAR,Offshore,1
5842041f4e65fad6a7708b50,2025_01_27,9.576,-84.608,Playa Hermosa North,4,1.34,1.64,29,29,NIGHT_CLEAR,Offshore,1
5842041f4e65fad6a7708b53,2025_01_27,-12.337,-76.839,Pico Alto,3,1.45866,1.78768,20,20,NIGHT_CLEAR,Onshore,1
5842041f4e65fad6a7708b55,2025_01_27,-12.17155,-77.08515,Peruazul,3,1.32,1.46,20,20,NIGHT_CLEAR,Cross-shore,1
5842041f4e65fad6a7708b56,2025_01_27,-12.133164,-77.03916,Makaha,3,1.5746,1.88078,20,20,NIGHT_CLEAR,Cross-shore,1
5842041f4e65fad6a7708b57,2025_01_27,43.29,-2.1708,Zarautz,3,3.80136,4.54114,14,14,BRIEF_SHOWERS_POSSIBLE,Onshore,1
5842041f4e65fad6a7708b58,2025_01_27,54.27129984804951,-8.60171,Strandhill,4,1.66853,2.60707,9,9,DRIZZLE,Offshore,1
5842041f4e65fad6a7708b5b,2025_01_27,39.276101,-74.56709,7th Street,2,0.07098,0.42589,0,0,NIGHT_MOSTLY_CLOUDY,Cross-shore,1
5842041f4e65fad6a7708b5d,2025_01_27,39.321896,-74.506191,Sumner Avenue,1,0,0.28,9,9,NIGHT_MOSTLY_CLOUDY,Cross-shore,1
5842041f4e65fad6a7708b5e,2025_01_27,39.093673,-74.71653,26th to 30th Street Pier,1,0,0.3,0,0,NIGHT_CLEAR,Cross-shore,1
5842041f4e65fad6a7708b5f,2025_01_27,39.039903,-74.76417,Nun's Beach,2,0,0.3671,2,2,NIGHT_CLEAR,Cross-shore,1
5842041f4e65fad6a7708b60,2025_01_27,38.96768,-74.82565,Rambler Road,1,0,0.29,2,2,NIGHT_CLEAR,Cross-shore,1
5842041f4e65fad6a7708b61,2025_01_27,38.99931,-74.78814,2nd St. to 10th St.,2,0.02,0.32,2,2,NIGHT_CLEAR,Cross-shore,1
5842041f4e65fad6a7708b62,2025_01_27,38.929886,-74.91718,Stockton Avenue,1,0,0.2157,2,2,NIGHT_MOSTLY_CLOUDY,Cross-shore,1
5842041f4e65fad6a7708b63,2025_01_27,38.942988,-74.862452,The Rocks,1,0,0.25,2,2,NIGHT_MOSTLY_CLOUDY,Cross-shore,1
5842041f4e65fad6a7708b64,2025_01_27,38.93036,-74.91257,Queen Street,1,0,0.29,2,2,NIGHT_MOSTLY_CLOUDY,Cross-shore,1
5842041f4e65fad6a7708b65,2025_01_27,38.942757,-74.880791,Poverty Beach,2,0.01,0.32,2,2,NIGHT_MOSTLY_CLOUDY,Onshore,1
5842041f4e65fad6a7708b66,2025_01_27,38.929441,-74.93129,Broadway Beach,1,0,0.29,2,2,NIGHT_MOSTLY_CLOUDY,Cross-shore,1
5842041f4e65fad6a7708b67,2025_01_27,38.92870117926206,-74.92116,Grant Street Beach,1,0,0.3,2,2,NIGHT_MOSTLY_CLOUDY,Cross-shore,1
5842041f4e65fad6a7708b68,2025_01_27,38.928934874358276,-74.93582,The Cove,2,0,0.25,2,2,NIGHT_MOSTLY_CLOUDY,Cross-shore,1
5842041f4e65fad6a7708b69,2025_01_27,26.775154329102108,-80.03124833106995,Pumphouse,2,0.44,0.75,22,22,NIGHT_MOSTLY_CLOUDY,Onshore,1
5842041f4e65fad6a7708b6a,2025_01_27,26.72114353296791,-80.03310374527736,Sunrise,2,0.4,0.7,23,22,NIGHT_CLEAR,Onshore,1
5842041f4e65fad6a7708b6b,2025_01_27,26.71306786153966,-80.03222170715443,Breakers,2,0.42,0.73,23,22,NIGHT_CLEAR,Onshore,1
5842041f4e65fad6a7708b6c,2025_01_27,26.699075556703683,-80.03263235092163,Charlie's Crab,2,0.44,0.74,23,22,NIGHT_CLEAR,Onshore,1
5842041f4e65fad6a7708b6d,2025_01_27,26.79441490392914,-80.0306161110009,Ocean Reef Park,2,0.37,0.67,23,22,NIGHT_MOSTLY_CLOUDY,Onshore,1
5842041f4e65fad6a7708b6f,2025_01_27,26.93134670517399,-80.06760115579169,Civic Center,2,0.63859,0.8289,23,22,NIGHT_MOSTLY_CLOUDY,Onshore,1
5842041f4e65fad6a7708b70,2025_01_27,26.90524197396177,-80.0593609780092,Kite Beach,1,0.37224,0.57222,23,22,NIGHT_CLEAR,Onshore,1
5842041f4e65fad6a7708b71,2025_01_27,26.54279208054373,-80.04292130470276,Boynton Beach Inlet (Southside),0,0.21,0.52,23,22,NIGHT_MOSTLY_CLOUDY,Onshore,1
5842041f4e65fad6a7708b72,2025_01_27,26.613511029817357,-80.03534,Lake Worth Pier,1,0.19989,0.54415,23,22,NIGHT_MOSTLY_CLOUDY,Onshore,1
5842041f4e65fad6a7708b73,2025_01_27,27.06670219261476,-80.11447191238403,Hobe Sound Public Beach,2,0.51,0.81,20,19,NIGHT_MOSTLY_CLOUDY,Onshore,1
5842041f4e65fad6a7708b75,2025_01_27,27.21467611230439,-80.17308,Stuart Public Beach,2,0.4,0.7,20,19,NIGHT_MOSTLY_CLEAR,Cross-shore,1
5842041f4e65fad6a7708b76,2025_01_27,27.36627923374593,-80.24622,Blind Creek Park,2,0.39,0.69,17,16,NIGHT_MOSTLY_CLEAR,Onshore,1
5842041f4e65fad6a7708b77,2025_01_27,26.94256932088346,-80.07057,Jupiter Inlet,2,0.45,0.75,20,19,NIGHT_MOSTLY_CLOUDY,Onshore,1
5842041f4e65fad6a7708b78,2025_01_27,26.89365359499372,-80.056,Juno Pier,1,0.03798,0.41781,23,22,NIGHT_CLEAR,Onshore,1
5842041f4e65fad6a7708b7a,2025_01_27,29.67671206577928,-85.3689474172784,Cape San Blas,1,0,0.14,15,15,NIGHT_CLEAR,Offshore,1
5842041f4e65fad6a7708b7b,2025_01_27,26.706551543472415,-80.03280401229858,Flagpole,2,0.43,0.73,23,22,NIGHT_CLEAR,Onshore,1
5842041f4e65fad6a7708b7c,2025_01_27,29.94036477533054,-85.40953557392244,El Governor,0,0,0.06,14,14,NIGHT_CLEAR,Offshore,1
5842041f4e65fad6a7708b7d,2025_01_27,29.68231979841189,-85.30627194238092,Toilet Bowls,0,0,0.15,15,15,NIGHT_CLEAR,Offshore,1
5842041f4e65fad6a7708b7e,2025_01_27,29.6607153445246,-84.86361191991014,St. George Island,0,0,0.05,13,13,NIGHT_CLEAR,Onshore,1
5842041f4e65fad6a7708b7f,2025_01_27,29.77441172865639,-84.65942657000329,Dog Island,0,0,0.05,12,12,NIGHT_CLEAR,Cross-shore,1
5842041f4e65fad6a7708b80,2025_01_27,28.59674155718017,-95.97559,Matagorda,3,1.02,1.32,13,13,NIGHT_OVERCAST,Offshore,1
5842041f4e65fad6a7708b81,2025_01_27,27.84601633294622,-97.04372701603208,St. Joe's Island,3,0.88,1.19,17,17,NIGHT_MIST,Offshore,1
5842041f4e65fad6a7708b82,2025_01_27,27.64327897922308,-97.18612,J.P. Luby Surf Park,2,0.84088,1.20125,18,18,NIGHT_MIST,Cross-shore,1
5842041f4e65fad6a7708b83,2025_01_27,27.82704888028459,-97.05277,Horace Caldwell Pier,3,0.94263,1.30518,17,17,NIGHT_MIST,Offshore,1
5842041f4e65fad6a7708b84,2025_01_27,27.67634780977739,-97.16473,Fish Pass,3,0.84088,1.20125,18,18,NIGHT_LIGHT_RAIN,Cross-shore,1
5842041f4e65fad6a7708b85,2025_01_27,27.58118015227788,-97.2191,Bob Hall Pier,3,0.87064,1.23852,18,18,NIGHT_MIST,Offshore,1
5842041f4e65fad6a7708b86,2025_01_27,28.93236038480434,-95.30205,Quintana,3,0.88545,1.23497,12,12,NIGHT_MIST,Offshore,1
5842041f4e65fad6a7708b87,2025_01_27,28.94367955201253,-95.28969,Octagon,3,0.88545,1.23497,12,12,NIGHT_MIST,Offshore,1
5842041f4e65fad6a7708b88,2025_01_27,29.02647703020454,-95.18702498902157,Boilers,3,0.73,1.03,12,12,NIGHT_OVERCAST,Offshore,1
5842041f4e65fad6a7708b89,2025_01_27,28.9653363517684,-95.26739753922841,Assholes,3,0.87,1.17,12,12,NIGHT_FOG,Offshore,1
5842041f4e65fad6a7708b8a,2025_01_27,29.27159138874912,-94.81532732168617,51st Street,2,0.68,0.98,12,12,NIGHT_OVERCAST,Offshore,1
5842041f4e65fad6a7708b8b,2025_01_27,29.13902635892794,-95.04070493829546,West Galveston,3,0.7,1,12,12,NIGHT_MIST,Offshore,1
5842041f4e65fad6a7708b8c,2025_01_27,29.26596874354759,-94.82556,61st Street,3,0.69831,1.05951,12,12,NIGHT_OVERCAST,Offshore,1
5842041f4e65fad6a7708b8d,2025_01_27,29.279815639798642,-94.80146,37th Street,2,0.44379,0.81561,12,12,NIGHT_MIST,Offshore,1
5842041f4e65fad6a7708b8e,2025_01_27,29.28680654948785,-94.79106,Flagship,2,0.41445,0.76969,12,12,NIGHT_MIST,Offshore,1
5842041f4e65fad6a7708b8f,2025_01_27,29.4702751255731,-94.59146640261427,A-Frames,2,0.45,0.76,12,12,NIGHT_DRIZZLE,Offshore,1
5842041f4e65fad6a7708b90,2025_01_27,29.52172627288487,-94.45911,Meacom's Pier,2,0.46188,0.82652,12,12,NIGHT_MIST,Offshore,1
5842041f4e65fad6a7708b91,2025_01_27,29.4510876813709,-94.63230467945758,Crystal Beach,2,0.49,0.8,12,12,NIGHT_MIST,Offshore,1
5842041f4e65fad6a7708b92,2025_01_27,26.06123118244004,-97.14769,Boca Chica,2,0.75562,1.11053,19,19,NIGHT_CLEAR,Onshore,1
5842041f4e65fad6a7708b93,2025_01_27,26.06961904983808,-97.15243,Isla Blanca State Park,1,0.66406,0.99608,19,19,NIGHT_CLEAR,Cross-shore,1
5842041f4e65fad6a7708b96,2025_01_27,26.56132001354785,-97.26967,Port Mansfield,2,0.78952,1.14839,19,19,NIGHT_MOSTLY_CLEAR,Onshore,1
5842041f4e65fad6a7708b98,2025_01_27,10.85099440725964,-85.79981,Ollie's Point,2,0.63,0.94,26,26,NIGHT_CLEAR,Offshore,1
5842041f4e65fad6a7708b99,2025_01_27,10.79489213393012,-85.68066,Witches Rock,2,0.39,0.69,26,26,NIGHT_CLEAR,Offshore,1
5842041f4e65fad6a7708b9a,2025_01_27,9.570222044864844,-85.14184,Mal Pais,4,1.61,1.93,29,29,NIGHT_CLEAR,Offshore,1
5842041f4e65fad6a7708b9b,2025_01_27,10.29970304257365,-85.84398,Tamarindo,1,0.22,0.53,28,28,NIGHT_CLEAR,Cross-shore,1
5842041f4e65fad6a7708b9c,2025_01_27,9.250593929300813,-83.86522,Dominical,4,1.01,1.21,29,29,NIGHT_CLEAR,Offshore,1
5842041f4e65fad6a7708b9d,2025_01_27,9.48278011021258,-84.28883991550364,Bejuco,4,1.45,1.74,29,29,NIGHT_CLEAR,Offshore,1
5842041f4e65fad6a7708ba1,2025_01_27,9.616940559391795,-84.63541,Playa Jaco,4,1.18113,1.40611,29,29,NIGHT_CLEAR,Offshore,1
5842041f4e65fad6a7708ba3,2025_01_27,9.661646156842439,-84.67316883195207,Playa Escondida,2,0.42,0.72,29,29,NIGHT_CLEAR,Offshore,1
5842041f4e65fad6a7708ba4,2025_01_27,9.635059578319176,-84.66159522794959,Herradura,2,0.47,0.78,29,29,NIGHT_CLEAR,Offshore,1
5842041f4e65fad6a7708ba5,2025_01_27,9.958235741436532,-84.74122,Boca Barranca,4,1.19233,1.42844,29,29,NIGHT_CLEAR,Offshore,1
5842041f4e65fad6a7708ba6,2025_01_27,9.922484732656224,-84.7158981889118,Caldera Jetty,3,0.64,0.95,29,29,NIGHT_CLEAR,Offshore,1
5842041f4e65fad6a7708ba7,2025_01_27,9.661180947362254,-82.75273,Salsa Brava,3,1.11145,1.45519,28,28,NIGHT_CLEAR,Offshore,1
5842041f4e65fad6a7708ba8,2025_01_27,8.38230022212565,-83.28332,Matapalo,4,1.67,2,29,29,NIGHT_CLEAR,Offshore,1
5842041f4e65fad6a7708ba9,2025_01_27,8.394937,-83.13952,Pavones,3,0.43,0.73,29,29,NIGHT_CLEAR,Cross-shore,1
5842041f4e65fad6a7708baa,2025_01_27,13.47971255664387,-89.28610104791234,Playa San Diego,3,0.4,0.7,29,29,NIGHT_CLEAR,Offshore,1
5842041f4e65fad6a7708bab,2025_01_27,13.4834740494465,-89.32376,La Paz,2,0.32842,0.61821,29,29,NIGHT_CLEAR,Offshore,1
5842041f4e65fad6a7708bac,2025_01_27,13.48587874937462,-89.31998852531258,El Muelle (Pier),3,0.43,0.73,29,29,NIGHT_CLEAR,Offshore,1
5842041f4e65fad6a7708bad,2025_01_27,13.47973883183636,-89.32655,Punta Roca,1,0.44,0.74,29,29,NIGHT_CLEAR,Cross-shore,1
5842041f4e65fad6a7708bae,2025_01_27,13.491596878346689,-89.38104,La Bocana,2,0.35078,0.69059,29,29,NIGHT_CLEAR,Offshore,1
5842041f4e65fad6a7708baf,2025_01_27,13.48324995683858,-89.33946,Playa Conchalio,2,0.26883,0.60488,29,29,NIGHT_CLEAR,Offshore,1
5842041f4e65fad6a7708bb0,2025_01_27,13.49167561061991,-89.39,Sunzal,1,0.288,0.528,29,29,NIGHT_CLEAR,Offshore,1
5842041f4e65fad6a7708bb1,2025_01_27,35.92499624829542,-121.46957,Sand Dollar Beach,3,1.8,2.14,12,12,NIGHT_CLEAR,Cross-shore,1
5842041f4e65fad6a7708bb3,2025_01_27,36.55448900657569,-121.93114,Carmel Beach,3,0.62,0.92,12,12,NIGHT_CLEAR,Offshore,1
5842041f4e65fad6a7708bb4,2025_01_27,36.27968576518622,-121.85962,Big Sur Rivermouth,3,0.65,0.95,12,12,NIGHT_CLEAR,Cross-shore,1
5842041f4e65fad6a7708bb5,2025_01_27,36.60883280895963,-121.9603486684287,Mole Point,3,1.02,1.33,12,12,NIGHT_CLEAR,Onshore,1
5842041f4e65fad6a7708bb6,2025_01_27,36.63788026219399,-121.9311174079908,Boneyard,3,0.98,1.28,12,12,NIGHT_CLEAR,Cross-shore,1
5842041f4e65fad6a7708bb7,2025_01_27,36.61880091818895,-121.9422482210244,Asilomar,3,1.55,1.85,12,12,NIGHT_CLEAR,Onshore,1
5842041f4e65fad6a7708bb8,2025_01_27,36.56037685095311,-121.9516152313922,Ghost Tree,3,0.75,1.05,12,12,NIGHT_CLEAR,Offshore,1
5842041f4e65fad6a7708bbb,2025_01_27,35.89412279173619,-121.462380148047,Willow Creek,3,1.65,1.95,12,12,NIGHT_CLEAR,Cross-shore,1
5842041f4e65fad6a7708bbc,2025_01_27,36.6260658643635,-121.91548,Lovers Point,3,0.65,0.95,12,12,NIGHT_CLEAR,Offshore,1
5842041f4e65fad6a7708bbd,2025_01_27,38.945,-9.42,Foz de Lizandro,1,5.75799,6.87981,16,16,OVERCAST,Onshore,1
5842041f4e65fad6a7708bbf,2025_01_27,36.80821791915616,-121.79055,Moss Landing,3,0.66,0.96,12,12,NIGHT_CLEAR,Offshore,1
5842041f4e65fad6a7708bc0,2025_01_27,38.67869246746279,-9.33685,Carcavelos,1,3.01095,3.60495,16,16,MOSTLY_CLOUDY,Cross-shore,1
5842041f4e65fad6a7708bc1,2025_01_27,38.983,-9.425,Reef,1,7.05,8.42,16,16,OVERCAST,Onshore,1
5842041f4e65fad6a7708bc2,2025_01_27,38.988,-9.424,Ribeira D'Ilhas,1,5.98,7.15,16,16,OVERCAST,Onshore,1
5842041f4e65fad6a7708bc3,2025_01_27,39.34167968424256,-9.36331,Supertubos,1,4.96,5.93,16,16,OVERCAST,Onshore,1
5842041f4e65fad6a7708bc4,2025_01_27,39.001,-9.4284,Coxos,1,6.34246,7.58155,16,16,OVERCAST,Onshore,1
5842041f4e65fad6a7708bc5,2025_01_27,40.13063921100635,-8.87044,Cabedelo,0,6.096,7.62,15,15,CLEAR,Onshore,1
5842041f4e65fad6a7708bc6,2025_01_27,39.37397686060677,-9.33235,Baleal,3,3.57,4.27,16,16,OVERCAST,Offshore,1
5842041f4e65fad6a7708bc7,2025_01_27,31.80902927937703,-116.8081979700041,Todos Santos / Killers,NA,1.79,2.04,14,14,NIGHT_MOSTLY_CLOUDY,Cross-shore,1
5842041f4e65fad6a7708bc8,2025_01_27,43.68220203786759,-1.44167,Les Culs Nus,3,3.048,4.572,13,13,LIGHT_SHOWERS,Onshore,1
5842041f4e65fad6a7708bc9,2025_01_27,31.90016519474307,-116.73117,San Miguel,2,0.51,0.82,14,14,NIGHT_MOSTLY_CLOUDY,Onshore,1
5842041f4e65fad6a7708bca,2025_01_27,43.48469485823068,-1.56023,Biarritz,3,4.572,5.4864,13,13,BRIEF_SHOWERS,Offshore,1
5842041f4e65fad6a7708bcb,2025_01_27,39.0132,-9.424,Sao Lourenco,1,6.08638,7.27719,16,16,OVERCAST,Onshore,1
5842041f4e65fad6a7708bcd,2025_01_27,43.64760422014503,-1.44721,Le Santocha,3,3.91544,4.67849,13,13,LIGHT_SHOWERS,Onshore,1
5842041f4e65fad6a7708bce,2025_01_27,43.51401611768647,-1.53382,Anglet,3,4.52,5.4,13,13,BRIEF_SHOWERS,Cross-shore,1
5842041f4e65fad6a7708bcf,2025_01_27,43.479,-1.569,La Cote des Basques,3,4.572,5.4864,13,13,BRIEF_SHOWERS,Offshore,1
5842041f4e65fad6a7708bd0,2025_01_27,32.3489432986615,-117.0668043482785,Rosarito Beach,2,0.42,0.73,14,14,NIGHT_BRIEF_SHOWERS,Cross-shore,1
5842041f4e65fad6a7708bd1,2025_01_27,23.44473573026049,-110.2452466338192,Todos Santos,1,0.26,0.56,21,21,NIGHT_CLEAR,Cross-shore,1
5842041f4e65fad6a7708bd2,2025_01_27,31.97636522717259,-116.7913888957552,Salsipuedes,1,0.26,0.56,14,14,NIGHT_BRIEF_SHOWERS,Onshore,1
5842041f4e65fad6a7708bd3,2025_01_27,23.39151658553801,-110.2143952234506,Las Palmas,1,0.19,0.49,21,21,NIGHT_CLEAR,Cross-shore,1
5842041f4e65fad6a7708bd4,2025_01_27,23.02358192684975,-109.7147,Old Man's,2,0.04,0.35,21,21,NIGHT_CLEAR,Offshore,1
5842041f4e65fad6a7708bd5,2025_01_27,23.32877869857464,-110.17715,Cerritos,1,0.26,0.56,21,21,NIGHT_CLEAR,Cross-shore,1
5842041f4e65fad6a7708bd6,2025_01_27,23.36729303816202,-110.20268,San Pedrito,1,0.09,0.39,21,21,NIGHT_CLEAR,Cross-shore,1
5842041f4e65fad6a7708bd7,2025_01_27,23.02506324659338,-109.71456,The Rock,2,0.04,0.35,21,21,NIGHT_CLEAR,Offshore,1
5842041f4e65fad6a7708bd8,2025_01_27,22.896,-109.869,Monuments,2,0.08,0.39,22,22,NIGHT_CLEAR,Offshore,1
5842041f4e65fad6a7708bd9,2025_01_27,23.04871261564847,-109.6800082320905,The Estuary,2,0.04,0.35,21,21,NIGHT_CLEAR,Cross-shore,1
5842041f4e65fad6a7708bda,2025_01_27,23.029,-109.714,Zippers,2,0.04,0.35,21,21,NIGHT_CLEAR,Offshore,1
5842041f4e65fad6a7708bdb,2025_01_27,23.12,-109.527,Shipwreck,2,0.08,0.39,21,21,NIGHT_CLEAR,Offshore,1
5842041f4e65fad6a7708bdc,2025_01_27,23.174,-109.476,Nine Palms,2,0.08,0.38,21,21,NIGHT_CLEAR,Offshore,1
5842041f4e65fad6a7708bdd,2025_01_27,4.307463458457968,73.57742,Jailbreaks,2,0.66,0.97,29,29,RAIN,Onshore,1
5842041f4e65fad6a7708bde,2025_01_27,4.31216545719424,73.58368,Honky's,2,0.65533,0.97762,29,29,RAIN,Cross-shore,1
5842041f4e65fad6a7708bdf,2025_01_27,4.313574269102099,73.58541879522511,Sultans,2,0.65745,0.98078,29,29,RAIN,Onshore,1
5842041f4e65fad6a7708be0,2025_01_27,4.343204315364438,73.6136,Ninja's,2,0.65655,0.97944,29,29,RAIN,Onshore,1
5842041f4e65fad6a7708be1,2025_01_27,4.348032688767217,73.621,Lohi's,2,0.59101,0.92412,29,29,RAIN,Cross-shore,1
5842041f4e65fad6a7708be2,2025_01_27,4.31537277405848,73.59171,Pasta Point,2,0.74657,1.06653,29,29,RAIN,Cross-shore,1
5842041f4e65fad6a7708be4,2025_01_27,4.372896005883011,73.66323,Chickens,2,0.65519,0.97741,29,29,RAIN,Onshore,1
5842041f4e65fad6a7708be6,2025_01_27,4.370274672691539,73.65602,Colas,2,0.5993,0.93106,29,29,RAIN,Cross-shore,1
5842041f4e65fad6a7708bed,2025_01_27,40.028403115215,-74.04837,Mantoloking,1,0.01089,0.28105,1,1,NIGHT_CLEAR,Offshore,1
5842041f4e65fad6a7708c17,2025_01_27,-28.93778889,113.9235722,Abrolhos Islands,0,2.01,2.32,25,25,CLEAR,Cross-shore,1
5842041f4e65fad6a7708c19,2025_01_27,-24.031,113.441,The Bluff,1,0.45,0.76,28,28,CLEAR,Offshore,1
5842041f4e65fad6a7708c1a,2025_01_27,-23.882,113.482,Tombstones,0,0.45,0.75,28,28,CLEAR,Cross-shore,1
5842041f4e65fad6a7708c1b,2025_01_27,-23.64909722,113.6129972,Warroora Station,0,1.02,1.17,29,29,CLEAR,Cross-shore,1
5842041f4e65fad6a7708c1e,2025_01_27,-31.89140556,115.75388,Scarborough,2,0.31,0.62,24,24,CLEAR,Onshore,1
5842041f4e65fad6a7708c1f,2025_01_27,-32.007275,115.75131,Cottesloe,0,0.04313,0.47444,24,24,CLEAR,Cross-shore,1
5842041f4e65fad6a7708c20,2025_01_27,-32.01661667,115.7511583,Cables,0,0.09928,0.52476,24,24,CLEAR,Cross-shore,1
5842041f4e65fad6a7708c21,2025_01_27,-33.65305556,115.018,Supertubes,1,0.67,0.98,23,23,CLEAR,Offshore,1
5842041f4e65fad6a7708c22,2025_01_27,-33.63875278,115.02247,Yallingup,1,0.44,0.75,23,23,CLEAR,Cross-shore,1
5842041f4e65fad6a7708c23,2025_01_27,-32.01881111,115.48693,Strickland Bay/Rottnest Island,0,1.02,1.14,24,24,CLEAR,Onshore,1
5842041f4e65fad6a7708c24,2025_01_27,-33.69852222,114.98713,Injidup Carpark,0,0.2,0.5,23,23,CLEAR,Offshore,1
5842041f4e65fad6a7708c25,2025_01_27,-33.858925,114.98469,North Point,0,0.75,1.06,23,23,CLEAR,Cross-shore,1
5842041f4e65fad6a7708c26,2025_01_27,-33.65705556,115.01457,Smiths Beach,0,0.15,0.46,23,23,CLEAR,Offshore,1
5842041f4e65fad6a7708c27,2025_01_27,-33.86301667,114.9767861,South Point,2,1.48,1.79,23,23,CLEAR,Offshore,1
5842041f4e65fad6a7708c28,2025_01_27,-33.97649722,114.98311,Margaret River,1,1.76,1.859,23,23,CLEAR,Cross-shore,1
5842041f4e65fad6a7708c29,2025_01_27,-33.978325,114.9863667,Gas Bay,1,1.48,1.78,23,23,CLEAR,Onshore,1
5842041f4e65fad6a7708c2a,2025_01_27,-33.88036667,114.9803222,Lefthanders (Lefties),1,0.92,1.1,23,23,CLEAR,Cross-shore,1
5842041f4e65fad6a7708c2c,2025_01_27,-32.08626,132.97959,Cactus,1,2.16,2.29,20,20,MOSTLY_CLEAR,Onshore,1
5842041f4e65fad6a7708c33,2025_01_27,9.746222222,-82.85211111,Cahuita,4,1.75,2.05,28,28,NIGHT_CLEAR,Offshore,1
5842041f4e65fad6a7708c35,2025_01_27,10.22975,-85.84058,Avellanas,3,0.66,0.97,28,28,NIGHT_CLEAR,Offshore,1
5842041f4e65fad6a7708c36,2025_01_27,10.33328,-85.85069,Playa Grande,2,0.7,1,28,28,NIGHT_CLEAR,Offshore,1
5842041f4e65fad6a7708c37,2025_01_27,9.389333333,-84.15386111,Manuel Antonio,4,1.61,1.93,29,29,NIGHT_CLEAR,Offshore,1
5842041f4e65fad6a7708c38,2025_01_27,10.28630556,-85.85228,Playa Langosta,2,0.68,0.99,28,28,NIGHT_CLEAR,Offshore,1
5842041f4e65fad6a7708c39,2025_01_27,54.55819760353214,-8.21518,Rossnowlagh,4,1.59543,2.49286,9,9,DRIZZLE,Offshore,1
5842041f4e65fad6a7708c3a,2025_01_27,54.4924,-8.2709,Tullan Strand,4,1.82335,2.84898,9,9,DRIZZLE,Offshore,1
5842041f4e65fad6a7708c3b,2025_01_27,54.47958088962024,-8.29256,Bundoran,4,1.69812,2.65331,9,9,DRIZZLE,Offshore,1
5842041f4e65fad6a7708c3c,2025_01_27,54.45887147557389,-8.434952849016696,Mullaghmore Strand,3,0.80128,1.252,9,9,DRIZZLE,Offshore,1
5842041f4e65fad6a7708c3d,2025_01_27,54.29465584522581,-8.965232737720527,Easkey,3,1.97621,2.36157,10,10,OVERCAST,Offshore,1
5842041f4e65fad6a7708c3e,2025_01_27,54.28521527547639,-9.223662106008305,Kilcummin Harbour,0,0.38287,0.59823,10,10,OVERCAST,Onshore,1
5842041f4e65fad6a7708c3f,2025_01_27,54.4123841889832,-8.535520783992467,Streedagh Strand,3,0.95453,1.49146,9,9,DRIZZLE,Offshore,1
5842041f4e65fad6a7708c44,2025_01_27,54.266,-8.729,Dunmoran,0,0.19844,0.31007,9,9,DRIZZLE,Cross-shore,1
5842041f4e65fad6a7708c46,2025_01_27,20.934,-105.401,Costa Azul,1,0.2,0.5,23,23,NIGHT_CLEAR,Cross-shore,1
5842041f4e65fad6a7708c47,2025_01_27,18.51369499135283,-67.03911,Middles,2,1.35,1.4,28,28,NIGHT_MOSTLY_CLEAR,Cross-shore,1
5842041f4e65fad6a7708c48,2025_01_27,18.515,-67.077,Jobos,3,0.84713,1.18153,28,27,NIGHT_CLEAR,Cross-shore,1
5842041f4e65fad6a7708c49,2025_01_27,18.50659587388844,-67.14095,Surfer's Beach,3,0.94,1.13,28,28,NIGHT_CLEAR,Offshore,1
5842041f4e65fad6a7708c4a,2025_01_27,18.4724771991133,-67.16964903636637,Wishing Well,2,0.36,0.66,28,28,NIGHT_CLEAR,Offshore,1
5842041f4e65fad6a7708c4b,2025_01_27,18.48507943247522,-67.16805,Wilderness,3,0.95,1.14,28,28,NIGHT_CLEAR,Offshore,1
5842041f4e65fad6a7708c4c,2025_01_27,18.46090012303478,-67.16701,Chambers,1,0.19,0.49,28,28,NIGHT_CLEAR,Offshore,1
5842041f4e65fad6a7708c4d,2025_01_27,18.45734083137307,-67.16435,Crash Boat,1,0.1,0.4,28,28,NIGHT_CLEAR,Offshore,1
5842041f4e65fad6a7708c4f,2025_01_27,18.36085983178037,-67.27182288542944,Indicators,3,0.52,0.82,28,28,NIGHT_CLEAR,Offshore,1
5842041f4e65fad6a7708c50,2025_01_27,18.42530999756879,-67.15604263628627,Bridges,1,0.26,0.57,28,28,NIGHT_CLEAR,Offshore,1
5842041f4e65fad6a7708c51,2025_01_27,18.50806588732911,-67.1388404959542,Table Top,3,0.94,1.13,28,28,NIGHT_CLEAR,Cross-shore,1
5842041f4e65fad6a7708c53,2025_01_27,18.37335029722464,-67.25282708189441,Antonio's,2,0.65,0.95,28,28,NIGHT_CLEAR,Cross-shore,1
5842041f4e65fad6a7708c54,2025_01_27,18.3717999427746,-67.2592,Sandy Beach,1,0.53,0.84,28,27,NIGHT_CLEAR,Cross-shore,1
5842041f4e65fad6a7708c55,2025_01_27,18.36591901691329,-67.27131,Domes,2,0.6,0.9,28,28,NIGHT_CLEAR,Offshore,1
5842041f4e65fad6a7708c56,2025_01_27,18.37093775805671,-67.26124188960489,Pools,3,0.78273,1.09563,28,27,NIGHT_CLEAR,Cross-shore,1
5842041f4e65fad6a7708c58,2025_01_27,18.359052,-67.271765,The Point,3,0.63799,0.87643,28,28,NIGHT_CLEAR,Offshore,1
5842041f4e65fad6a7708c59,2025_01_27,18.343578,-67.26082,Little Malibu,2,0.39413,0.57648,28,28,NIGHT_CLEAR,Offshore,1
5842041f4e65fad6a7708c5a,2025_01_27,18.35046796998277,-67.26958496140767,Tres Palmas,1,0.59,0.9,28,28,NIGHT_CLEAR,Offshore,1
5842041f4e65fad6a7708c5c,2025_01_27,18.358457148373724,-67.27163,Maria's,3,0.55107,0.88171,28,27,NIGHT_CLEAR,Offshore,1
5842041f4e65fad6a7708c5d,2025_01_27,18.36436193914082,-65.67175850608821,La Selva,1,0.55,0.86,27,27,NIGHT_CLEAR,Cross-shore,1
5842041f4e65fad6a7708c5e,2025_01_27,18.377237,-65.714583,La Pared,1,0.77,1.08,27,27,NIGHT_MOSTLY_CLOUDY,Cross-shore,1
5842041f4e65fad6a7708c5f,2025_01_27,18.47587365739435,-66.73093579970327,Margara,1,0.67,0.98,27,27,NIGHT_MOSTLY_CLEAR,Cross-shore,1
5842041f4e65fad6a7708c60,2025_01_27,18.49042886903135,-66.9558167601821,Guajataca,3,1.36,1.4,28,28,NIGHT_CLEAR,Cross-shore,1
5842041f4e65fad6a7708c61,2025_01_27,18.47273941014759,-66.44904622785756,Los Tubos,2,0.62,0.92,27,27,NIGHT_CLEAR,Offshore,1
5842041f4e65fad6a7708c62,2025_01_27,18.467168313149315,-66.09311,La Ocho,1,0.70993,1.03759,28,27,NIGHT_MOSTLY_CLOUDY,Cross-shore,1
5842041f4e65fad6a7708c63,2025_01_27,18.45529355651344,-65.96670584112921,Chatarra,1,0.93,1.23,27,27,NIGHT_MOSTLY_CLOUDY,Cross-shore,1
5842041f4e65fad6a7708c64,2025_01_27,18.452,-65.957871,Aviones,0,0.81,1.11,27,27,NIGHT_CLEAR,Cross-shore,1
5842041f4e65fad6a7708c65,2025_01_27,18.451764,-65.956416,Tocones,0,0.81,1.11,27,27,NIGHT_CLEAR,Cross-shore,1
5842041f4e65fad6a7708c66,2025_01_27,23.09289784805277,-82.49361057903533,Old Man's,1,0.34,0.65,24,24,NIGHT_MOSTLY_CLOUDY,Cross-shore,1
5842041f4e65fad6a7708c67,2025_01_27,17.97138086645092,-65.96246,Inches,2,0.73,1.04,27,27,NIGHT_SHOWERS,Offshore,1
5842041f4e65fad6a7708c68,2025_01_27,21.18269590184542,-76.17425732522923,Gibara Coast,1,1.22,1.53,26,26,NIGHT_CLEAR,Onshore,1
5842041f4e65fad6a7708c69,2025_01_27,20.29935933410474,-74.38513580703325,Baracoa Coast,1,1.29,1.59,27,27,NIGHT_CLEAR,Cross-shore,1
5842041f4e65fad6a7708c6a,2025_01_27,17.90850736737134,-76.18979571186617,Ranch,2,1.37,1.52,27,27,NIGHT_SHOWERS,Cross-shore,1
5842041f4e65fad6a7708c6b,2025_01_27,20.062663,-74.4972,Cajo Babo,2,0.37,0.68,27,27,NIGHT_CLEAR,Cross-shore,1
5842041f4e65fad6a7708c6c,2025_01_27,17.869517,-76.582916,Makka,1,0.06,0.37,28,28,NIGHT_CLEAR,Cross-shore,1
5842041f4e65fad6a7708c6d,2025_01_27,17.927946,-76.77929,Lighthouse,3,0.59,0.9,28,28,NIGHT_CLEAR,Cross-shore,1
5842041f4e65fad6a7708c6e,2025_01_27,17.945043,-76.717493,Zoo,3,0.35,0.65,28,28,NIGHT_CLEAR,Cross-shore,1
5842041f4e65fad6a7708c6f,2025_01_27,17.94222896363424,-76.69415558555534,Copa,2,0.24,0.55,28,28,NIGHT_CLEAR,Cross-shore,1
5842041f4e65fad6a7708c70,2025_01_27,18.1586,-76.3553,Boston Bay,1,0.81,1.11,27,27,NIGHT_BRIEF_SHOWERS,Onshore,1
5842041f4e65fad6a7708c71,2025_01_27,19.760009,-70.51905,Sosua,1,0.41,0.71,27,27,NIGHT_CLEAR,Onshore,1
5842041f4e65fad6a7708c72,2025_01_27,19.783,-70.45,Encuentro,2,1.13346,1.48043,27,27,NIGHT_MOSTLY_CLOUDY,Cross-shore,1
5842041f4e65fad6a7708c73,2025_01_27,18.229,-70.189,Patho Beach,3,0.71499,1.1332,27,27,NIGHT_MOSTLY_CLEAR,Offshore,1
5842041f4e65fad6a7708c74,2025_01_27,18.433,-69.631,La Boya,3,0.85393,1.2542,27,27,NIGHT_CLEAR,Cross-shore,1
5842041f4e65fad6a7708c75,2025_01_27,18.420275,-70.01139,El Chinchorro,3,0.82019,1.23701,27,27,NIGHT_CLEAR,Offshore,1
5842041f4e65fad6a7708c76,2025_01_27,18.4469967022155,-64.59065,Josiah's Bay,1,0.68102,0.98699,27,27,NIGHT_MOSTLY_CLEAR,Cross-shore,1
5842041f4e65fad6a7708c77,2025_01_27,17.988754,-71.16075,Bahoruco,3,1.11074,1.49821,27,27,NIGHT_CLEAR,Offshore,1
5842041f4e65fad6a7708c78,2025_01_27,18.40133856648012,-64.68076,Apple Bay,1,0.25,0.56,27,27,NIGHT_CLEAR,Offshore,1
5842041f4e65fad6a7708c79,2025_01_27,11.15033417501753,-60.84783,Airports,1,0.84826,1.29395,28,28,NIGHT_BRIEF_SHOWERS_POSSIBLE,Onshore,1
5842041f4e65fad6a7708c7b,2025_01_27,10.83550342228099,-60.920248032489326,Salybia Bay,3,1.21,1.51,28,28,NIGHT_BRIEF_SHOWERS_POSSIBLE,Onshore,1
5842041f4e65fad6a7708c7c,2025_01_27,10.717707,-60.98962,Balandra Bay,2,0.59,0.89,28,28,NIGHT_BRIEF_SHOWERS_POSSIBLE,Onshore,1
5842041f4e65fad6a7708c7d,2025_01_27,10.839254,-61.00207,Sans Souci Bay,3,1.02667,1.14075,28,28,NIGHT_BRIEF_SHOWERS_POSSIBLE,Cross-shore,1
5842041f4e65fad6a7708c7e,2025_01_27,13.21452297223763,-59.51781,Parlour,1,1.84349,2.18985,27,27,NIGHT_BRIEF_SHOWERS,Onshore,1
5842041f4e65fad6a7708c7f,2025_01_27,13.220009,-59.52954,Cattle Wash,1,1.49,1.8,27,27,NIGHT_BRIEF_SHOWERS,Onshore,1
5842041f4e65fad6a7708c80,2025_01_27,13.316799,-59.64713,Duppies,2,0.98,1.17,28,28,NIGHT_CLEAR,Cross-shore,1
5842041f4e65fad6a7708c81,2025_01_27,13.07622829845154,-59.60844,Brandon's,3,1.63029,2.00745,28,28,NIGHT_CLEAR,Offshore,1
5842041f4e65fad6a7708c82,2025_01_27,43.64083333,-8.113611111,Playa de Rodo,0,8.69,10.39,15,15,LIGHT_RAIN,Cross-shore,1
5842041f4e65fad6a7708c83,2025_01_27,43.53583333,-5.38583,Rodiles,0,2.03946,2.43239,14,14,CLEAR,Offshore,1
5842041f4e65fad6a7708c84,2025_01_27,43.44166667,-4.022777778,Playa de los Caballos,2,7.15,8.54,14,14,CLEAR,Cross-shore,1
5842041f4e65fad6a7708c85,2025_01_27,43.46972222,-3.731388889,Isla de Santa Marina,3,8.81,10.54,14,14,BRIEF_SHOWERS_POSSIBLE,Cross-shore,1
5842041f4e65fad6a7708c86,2025_01_27,43.397,-2.98667,Menakoz,3,3.94255,4.71758,13,13,CLEAR,Offshore,1
5842041f4e65fad6a7708c87,2025_01_27,43.43388889,-2.80194,Bakio,3,5.9846,7.15718,13,13,BRIEF_SHOWERS_POSSIBLE,Offshore,1
5842041f4e65fad6a7708c88,2025_01_27,43.40861111,-2.69472,Mundaka,3,4.22002,5.0361,13,13,BRIEF_SHOWERS_POSSIBLE,Cross-shore,1
5842041f4e65fad6a7708c89,2025_01_27,43.30777778,-2.239444444,Roca Puta,3,2.38,2.84,14,14,BRIEF_SHOWERS_POSSIBLE,Cross-shore,1
5842041f4e65fad6a7708c8b,2025_01_27,47.84083333,-4.35083,La Torche,0,4.572,5.4864,11,11,LIGHT_RAIN,Onshore,1
5842041f4e65fad6a7708c8c,2025_01_27,43.41611111,-1.62833,Lafitenia,3,4.572,5.4864,13,13,MOSTLY_CLOUDY,Cross-shore,1
5842041f4e65fad6a7708c8d,2025_01_27,45.00222222,-1.2025,Lacanau,1,3.048,4.572,12,12,CLEAR,Onshore,1
5842041f4e65fad6a7708c8e,2025_01_27,43.66388889,-1.44389,La Graviere,3,4.572,5.4864,13,13,LIGHT_SHOWERS,Onshore,1
5842041f4e65fad6a7708c8f,2025_01_27,43.5225,-1.52583,Les Cavaliers,2,4.572,5.4864,13,13,LIGHT_SHOWERS,Cross-shore,1
5842041f4e65fad6a7708c90,2025_01_27,53.01055556,-9.400277778,Doolin Point,3,2.54888,3.98263,10,10,LIGHT_SHOWERS,Offshore,1
5842041f4e65fad6a7708c91,2025_01_27,53.01583333,-9.413055556,Crab Island,3,2.79929,4.3739,10,10,LIGHT_SHOWERS,Offshore,1
5842041f4e65fad6a7708c92,2025_01_27,52.1425,-9.993055556,Inch Reef,0,9.84671,11.7654,10,10,BRIEF_SHOWERS_POSSIBLE,Onshore,1
5842041f4e65fad6a7708c93,2025_01_27,50.32127176553899,-5.20277738571167,Trevaunance Cove,0,6.096,7.62,10,10,BRIEF_SHOWERS_POSSIBLE,Offshore,1
5842041f4e65fad6a7708c94,2025_01_27,50.34833333,-5.15889,Perranporth,0,6.096,7.62,10,9,BRIEF_SHOWERS_POSSIBLE,Cross-shore,1
5842041f4e65fad6a7708c95,2025_01_27,50.224940120492306,-5.39939,Gwithian,0,6.75415,8.0751,10,9,BRIEF_SHOWERS_POSSIBLE,Onshore,1
5842041f4e65fad6a7708c96,2025_01_27,50.2166643894,-5.48326,Porthmeor,0,5.78438,6.91558,10,10,BRIEF_SHOWERS_POSSIBLE,Offshore,1
5842041f4e65fad6a7708c97,2025_01_27,50.082260215669976,-5.69518,Sennen,0,6.1462,7.33886,10,9,BRIEF_SHOWERS_POSSIBLE,Onshore,1
5842041f4e65fad6a7708c98,2025_01_27,50.288859416902646,-5.24643,Porthtowan,0,7.63061,9.11152,10,9,BRIEF_SHOWERS_POSSIBLE,Cross-shore,1
5842041f4e65fad6a7708c99,2025_01_27,54.58611111,-0.96667,Saltburn,1,0.5413,0.94727,7,7,CLEAR,Offshore,1
5842041f4e65fad6a7708c9a,2025_01_27,50.10222222,-5.38833,Praa Sands,0,5.44307,6.50144,10,9,BRIEF_SHOWERS_POSSIBLE,Onshore,1
5842041f4e65fad6a7708c9b,2025_01_27,50.08194444,-5.32111,Porthleven,0,7.62,9.144,10,10,BRIEF_SHOWERS_POSSIBLE,Onshore,1
5842041f4e65fad6a7708c9c,2025_01_27,54.49861111,-0.65583,Sandsend,2,0.6113,0.95732,7,7,CLEAR,Offshore,1
5842041f4e65fad6a7708c9d,2025_01_27,54.24472222,-0.35806,Cayton Bay,1,0.30116,0.67461,7,7,CLEAR,Offshore,1
5842041f4e65fad6a7708c9e,2025_01_27,55.3879,-1.60495,Alnmouth,1,0.62,0.93,7,7,RAIN,Offshore,1
5842041f4e65fad6a7708c9f,2025_01_27,55.61055556,-1.698333333,Bamburgh,2,1.0095,1.46972,7,7,RAIN,Offshore,1
5842041f4e65fad6a7708ca0,2025_01_27,55.49944444,-1.613055556,Embleton Bay,2,0.93,1.23,7,7,RAIN,Offshore,1
5842041f4e65fad6a7708ca1,2025_01_27,51.15111111,-4.22333,Putsborough,0,4.8976,5.85982,9,8,BRIEF_SHOWERS_POSSIBLE,Offshore,1
5842041f4e65fad6a7708ca2,2025_01_27,51.23472222,-3.82583,Lynmouth,2,3.27761,3.92642,9,9,CLEAR,Offshore,1
5842041f4e65fad6a7708ca3,2025_01_27,58.49888889,-6.27417,Eoropie,1,3.32268,3.96621,10,10,LIGHT_SHOWERS,Offshore,1
5842041f4e65fad6a7708ca4,2025_01_27,51.13027778,-4.24083,Croyde,0,6.03606,7.21238,9,8,BRIEF_SHOWERS_POSSIBLE,Onshore,1
5842041f4e65fad6a7708ca5,2025_01_27,50.83565,-4.55516,Bude Crooklets,0,6.096,7.62,10,9,CLEAR,Onshore,1
5842041f4e65fad6a7708ca6,2025_01_27,50.444688234298745,-5.04622,Watergate Bay,0,6.096,7.62,10,10,BRIEF_SHOWERS_POSSIBLE,Onshore,1
5842041f4e65fad6a7708ca8,2025_01_27,55.93307468035716,-2.33223,Pease Bay,3,0.82019,1.18204,7,7,LIGHT_RAIN,Offshore,1
5842041f4e65fad6a7708ca9,2025_01_27,58.52777778,-4.24028,Torrisdale,3,1.26893,1.55817,9,9,CLOUDY,Cross-shore,1
5842041f4e65fad6a7708caa,2025_01_27,58.59555556,-3.05444,Skirza,1,2.16,2.46,8,8,LIGHT_SHOWERS,Onshore,1
5842041f4e65fad6a7708cab,2025_01_27,58.65027778,-3.17056,Gills Bay,1,0.62,0.92,8,8,LIGHT_SHOWERS,Onshore,1
5842041f4e65fad6a7708cac,2025_01_27,58.54027778,-5.05917,Sandwood Bay,4,1.65617,1.97506,9,9,CLEAR,Offshore,1
5842041f4e65fad6a7708cad,2025_01_27,58.56138889,-3.91111,Melvich,4,1.34381,1.65469,9,9,CLOUDY,Offshore,1
5842041f4e65fad6a7708cae,2025_01_27,58.56861111,-3.79083,Sandside Bay,3,1.22739,1.46884,9,9,FOG,Cross-shore,1
5842041f4e65fad6a7708caf,2025_01_27,58.60166667,-3.51056,Thurso East,4,1.32194,1.58633,9,9,FOG,Offshore,1
5842041f4e65fad6a7708cb0,2025_01_27,51.58611111,-3.81333,Aberavon,0,6.096,7.62,9,9,BRIEF_SHOWERS_POSSIBLE,Onshore,1
5842041f4e65fad6a7708cb1,2025_01_27,58.62277778,-3.65306,Brims Ness,2,1.42324,1.70579,9,9,CLOUDY,Offshore,1
5842041f4e65fad6a7708cb2,2025_01_27,51.65611111,-5.06194,Freshwater West,0,6.096,7.62,9,9,BRIEF_SHOWERS_POSSIBLE,Onshore,1
5842041f4e65fad6a7708cb3,2025_01_27,51.59277778,-4.29917,Llangennith,0,6.096,7.62,9,9,BRIEF_SHOWERS_POSSIBLE,Onshore,1
5842041f4e65fad6a7708cb4,2025_01_27,51.56527778,-4.01028,Langland Bay,0,4.91016,5.87206,9,9,BRIEF_SHOWERS_POSSIBLE,Onshore,1
5842041f4e65fad6a7708cb5,2025_01_27,32.747742,-17.22032,Ponta Pequena,3,2.85,3.4,20,20,MOSTLY_CLEAR,Onshore,1
5842041f4e65fad6a7708cb6,2025_01_27,32.73768,-17.2113,Jardim do Mar,3,1.92,2.3,20,20,MOSTLY_CLEAR,Cross-shore,1
5842041f4e65fad6a7708cb7,2025_01_27,32.75611111,-17.23055556,Paul do Mar,3,3.01,3.6,20,20,MOSTLY_CLEAR,Onshore,1
5842041f4e65fad6a7708cb8,2025_01_27,29.11027778,-13.6675,El Quemao,3,2.12,2.53,20,20,CLEAR,Cross-shore,1
5842041f4e65fad6a7708cb9,2025_01_27,28.75027778,-13.83528,Los Lobos,4,1.93443,2.31114,20,20,CLEAR,Cross-shore,1
5842041f4e65fad6a7708cba,2025_01_27,-34.423495820297,-72.04571,Punta De Lobos,3,1.66272,1.98454,17,17,NIGHT_CLEAR,Cross-shore,1
5842041f4e65fad6a7708cbb,2025_01_27,52.82166667,-4.58861,Porth Neigwl (Hells Mouth),0,5.08668,5.7536,9,9,LIGHT_SHOWERS,Onshore,1
5842041f4e65fad6a7708cbc,2025_01_27,29.11694444,-13.66306,La Santa Right (Morro Negro),3,2.22924,2.67303,20,20,CLEAR,Cross-shore,1
5842041f4e65fad6a7708cbd,2025_01_27,-32.83471254202934,-71.52493,Ritoque,0,1.46791,1.75941,17,17,NIGHT_CLEAR,Cross-shore,1
5842041f4e65fad6a7708cbe,2025_01_27,-34.40005602954382,-72.02983,Infiernillo,4,1.40594,1.67874,17,17,NIGHT_CLEAR,Cross-shore,1
5842041f4e65fad6a7708cbf,2025_01_27,28.74416667,-13.94806,The Bubble (Hierro Right),3,2.06643,2.46674,20,20,CLEAR,Cross-shore,1
5842041f4e65fad6a7708cc0,2025_01_27,-34.08631568896031,-71.96406,Puertecillo,4,1.28,1.53,16,16,NIGHT_CLEAR,Offshore,1
5842041f4e65fad6a7708cc1,2025_01_27,-32.7797253656226,-71.54022,Papagayo,0,1.46791,1.75941,17,17,NIGHT_CLEAR,Cross-shore,1
5842041f4e65fad6a7708cc2,2025_01_27,-32.96650495157324,-71.54756,Renaca,3,1.26089,1.51098,17,17,NIGHT_CLEAR,Cross-shore,1
5842041f4e65fad6a7708cc3,2025_01_27,-33.9609330136559,-71.87877,Matanzas,2,1.35313,1.60884,16,16,NIGHT_CLEAR,Cross-shore,1
5842041f4e65fad6a7708cc4,2025_01_27,-34.3876776285385,-72.0253,Pichilemu,4,1.34299,1.60529,17,17,NIGHT_CLEAR,Cross-shore,1
5842041f4e65fad6a7708cc5,2025_01_27,-35.35833333,-72.46361,El Puerto,4,1.63,1.95,14,14,NIGHT_CLEAR,Offshore,1
5842041f4e65fad6a7708cc6,2025_01_27,-32.7134435173592,-71.48194,El Claron,0,1.46791,1.75941,17,17,NIGHT_CLEAR,Cross-shore,1
5842041f4e65fad6a7708cc7,2025_01_27,-18.48166667,-70.33333,El Gringo,3,1.48775,1.8244,24,24,NIGHT_CLEAR,Cross-shore,1
5842041f4e65fad6a7708cc8,2025_01_27,-18.45166667,-70.30528,Las Machas,3,1.48775,1.8244,24,24,NIGHT_CLEAR,Cross-shore,1
5842041f4e65fad6a7708ccb,2025_01_27,-35.47416667,-72.50611,Pellines,3,0.9,1.08,14,14,NIGHT_CLEAR,Offshore,1
5842041f4e65fad6a7708ccc,2025_01_27,-8.081944444,-79.12417,Punta Huanchaco,4,1.40956,1.68923,19,19,NIGHT_OVERCAST,Onshore,1
5842041f4e65fad6a7708ccd,2025_01_27,-7.705555556,-79.45472,Chicama,3,0.69,1,19,19,NIGHT_CLOUDY,Offshore,1
5842041f4e65fad6a7708cce,2025_01_27,-4.110833333,-81.06722,Mancora,3,0.70546,1.03681,24,24,NIGHT_MOSTLY_CLEAR,Offshore,1
5842041f4e65fad6a7708ccf,2025_01_27,-7.411666667,-79.5875,Pacasmayo,3,1.36914,1.64518,19,19,NIGHT_CLEAR,Onshore,1
5842041f4e65fad6a7708cd0,2025_01_27,-13.02602,-76.49459,Cerro Azul,4,1.28632,1.54358,21,21,NIGHT_CLEAR,Cross-shore,1
5842041f4e65fad6a7708cd1,2025_01_27,-18.48861111,-70.33278,El Buey,3,2.03952,2.30788,24,24,NIGHT_CLEAR,Onshore,1
5842041f4e65fad6a7708cd2,2025_01_27,-4.248611111,-81.22861,Cabo Blanco,2,0.43841,0.77818,22,22,NIGHT_CLEAR,Offshore,1
5842041f4e65fad6a7708cd3,2025_01_27,-23.74138889,-70.44556,La Cupula,3,0.85516,1.20397,22,22,NIGHT_CLEAR,Onshore,1
5842041f4e65fad6a7708cd4,2025_01_27,-20.23333333,-70.155,La Bestia,3,1.72,2.06,23,23,NIGHT_CLEAR,Onshore,1
5842041f4e65fad6a7708cd5,2025_01_27,-20.22694444,-70.15028,El Colegio,3,1.39671,1.64253,23,23,NIGHT_CLEAR,Onshore,1
5842041f4e65fad6a7708cd6,2025_01_27,-12.44166667,-76.77861,Penascal,4,1.5,1.77,20,20,NIGHT_CLEAR,Cross-shore,1
