_id,date,lat,lon,name,daily_mean_swell_rating,daily_mean_wave_height_min,daily_mean_wave_height_max,daily_mean_water_temperature_max,daily_mean_water_temperature_min,weather_per_timestamp,wind_per_timestamp,n_samples_per_day
5842041f4e65fad6a77087f9,2025_02_21,37.741668,-122.51038,South Ocean Beach,2.6666666666666665,2.13227,2.5952966666666666,11,11,"NIGHT_MIST,NIGHT_MIST,CLEAR","Onshore,Offshore,Offshore",3
5842041f4e65fad6a7708801,2025_02_21,37.49142,-122.50428,Maverick's,NA,2.006666666666667,2.336666666666667,12,12,"NIGHT_CLEAR,NIGHT_CLEAR,CLEAR","Offshore,Offshore,Offshore",3
5842041f4e65fad6a7708804,2025_02_21,44.997,-124.018,Roads End,3.3333333333333335,1.8,2.0733333333333333,8.666666666666666,8.666666666666666,"NIGHT_CLEAR,NIGHT_CLEAR,CLEAR","Cross-shore,Offshore,Cross-shore",3
5842041f4e65fad6a7708805,2025_02_21,36.95188851423011,-122.02522,Steamer Lane,3.6666666666666665,1.28821,1.7260533333333332,12,12,"NIGHT_CLEAR,NIGHT_CLEAR,CLEAR","Offshore,Offshore,Onshore",3
5842041f4e65fad6a7708806,2025_02_21,36.95918781542251,-122.02489,Cowells,1.388888888888889,0.15623,0.4324866666666667,12,12,"NIGHT_CLEAR,NIGHT_CLEAR,CLEAR","Offshore,Offshore,Onshore",3
5842041f4e65fad6a7708807,2025_02_21,36.95468082526536,-121.97234,Pleasure Point,3.388888888888889,1.0738433333333333,1.3760733333333333,12,12,"NIGHT_CLEAR,NIGHT_CLEAR,CLEAR","Offshore,Offshore,Offshore",3
5842041f4e65fad6a770880a,2025_02_21,35.37815414378748,-120.86589,Morro Bay,3,1.2699,1.65471,11,11,"NIGHT_CLEAR,NIGHT_CLEAR,CLEAR","Cross-shore,Cross-shore,Onshore",3
5842041f4e65fad6a770880b,2025_02_21,36.95782765000708,-121.96729,Jack's,2.6666666666666665,0.32509,0.6183933333333334,12,12,"NIGHT_CLEAR,NIGHT_CLEAR,CLEAR","Offshore,Offshore,Onshore",3
5842041f4e65fad6a770880d,2025_02_21,34.29982939936656,-119.3489016603669,Gold Coast Beachbreaks,1.3333333333333333,0.16,0.4633333333333333,14,14,"NIGHT_CLEAR,NIGHT_CLEAR,CLEAR","Offshore,Offshore,Offshore",3
5842041f4e65fad6a7708811,2025_02_21,34.245076,-119.26799,Ventura Harbor,3,1.0001833333333334,1.2231166666666666,13,13,"NIGHT_CLEAR,NIGHT_CLEAR,CLEAR","Offshore,Offshore,Offshore",3
5842041f4e65fad6a7708813,2025_02_21,34.051,-118.964,County Line,2.888888888888889,0.50847,0.8313766666666667,14,14,"NIGHT_CLEAR,NIGHT_CLEAR,CLEAR","Offshore,Offshore,Offshore",3
5842041f4e65fad6a7708814,2025_02_21,34.37256264378892,-119.47797,Rincon,2.6666666666666665,0.33,0.6333333333333333,13.666666666666666,13.666666666666666,"NIGHT_CLEAR,NIGHT_CLEAR,CLEAR","Offshore,Offshore,Cross-shore",3
5842041f4e65fad6a7708817,2025_02_21,34.03096101876324,-118.68109,Malibu Third Point,2,0.13427333333333333,0.4561566666666667,14,14,"NIGHT_CLEAR,NIGHT_CLEAR,MOSTLY_CLEAR","Cross-shore,Offshore,Cross-shore",3
5842041f4e65fad6a7708819,2025_02_21,33.984079047970035,-118.47382,Venice Beach,3,0.58474,0.89232,14,14,"NIGHT_CLEAR,NIGHT_CLEAR,MIST","Cross-shore,Onshore,Onshore",3
5842041f4e65fad6a770881e,2025_02_21,34.037508438646746,-118.5834,Topanga Beach,2,0.25941333333333333,0.58635,14,14,"NIGHT_CLEAR,NIGHT_CLEAR,CLEAR","Offshore,Offshore,Onshore",3
5842041f4e65fad6a7708820,2025_02_21,33.73954373690184,-118.11414,Seal Beach Jetty,2.6666666666666665,0.36777000000000004,0.72005,14,14,"NIGHT_MIST,NIGHT_DRIZZLE,CLEAR","Cross-shore,Offshore,Onshore",3
5842041f4e65fad6a7708822,2025_02_21,33.72309983348433,-118.08078,Anderson Street,2.3333333333333335,0.44361666666666666,0.7248600000000001,14,14,"NIGHT_MIST,NIGHT_DRIZZLE,MOSTLY_CLOUDY","Cross-shore,Offshore,Onshore",3
5842041f4e65fad6a7708827,2025_02_21,33.65574085629463,-118.00397,Huntington Beach Pier Northside,3,0.78287,1.1619766666666667,14,14,"NIGHT_MIST,NIGHT_OVERCAST,MOSTLY_CLOUDY","Cross-shore,Onshore,Onshore",3
5842041f4e65fad6a7708828,2025_02_21,34.272041739333,-119.29976,C St.,2.6666666666666665,0.6557566666666667,0.9705233333333333,13,13,"NIGHT_CLEAR,NIGHT_CLEAR,CLEAR","Offshore,Offshore,Cross-shore",3
5842041f4e65fad6a770882a,2025_02_21,33.61555743705257,-117.93676,Newport Lower Jetties,3,0.6393233333333334,0.9962666666666666,14,14,"NIGHT_BRIEF_SHOWERS,NIGHT_OVERCAST,MOSTLY_CLOUDY","Onshore,Onshore,Onshore",3
5842041f4e65fad6a770882b,2025_02_21,33.5930302087,-117.88199,The Wedge,2,0.46055666666666667,0.7722133333333334,14,14,"NIGHT_BRIEF_SHOWERS_POSSIBLE,NIGHT_OVERCAST,MOSTLY_CLOUDY","Onshore,Onshore,Cross-shore",3
5842041f4e65fad6a770882e,2025_02_21,33.475793399792984,-117.72291,Salt Creek,3,0.7433533333333333,1.0944099999999999,14,14,"NIGHT_MIST,NIGHT_MOSTLY_CLOUDY,BRIEF_SHOWERS","Cross-shore,Cross-shore,Onshore",3
5842041f4e65fad6a7708830,2025_02_21,33.41800974113613,-117.61952,T-Street,2.6666666666666665,0.5907966666666666,0.9182566666666666,14,14,"NIGHT_MIST,NIGHT_MOSTLY_CLOUDY,BRIEF_SHOWERS","Cross-shore,Offshore,Onshore",3
5842041f4e65fad6a7708832,2025_02_21,33.202391008646,-117.39475,Oceanside Harbor,3,0.7274733333333333,1.1264033333333332,13.333333333333334,13.333333333333334,"NIGHT_MIST,NIGHT_CLEAR,BRIEF_SHOWERS_POSSIBLE","Offshore,Offshore,Onshore",3
5842041f4e65fad6a7708835,2025_02_21,33.19477795952803,-117.38667,Oceanside Pier,3,0.5215833333333333,0.86073,13.333333333333334,13.333333333333334,"NIGHT_MIST,NIGHT_CLEAR,CLEAR","Offshore,Offshore,Onshore",3
5842041f4e65fad6a7708837,2025_02_21,33.14948100706,-117.35029,Tamarack,2,0.23377,0.5377266666666667,15,15,"NIGHT_MOSTLY_CLOUDY,NIGHT_CLEAR,MIST","Offshore,Offshore,Onshore",3
5842041f4e65fad6a7708839,2025_02_21,32.865777159358856,-117.25614,Scripps,3,0.82347,1.1566633333333334,13.333333333333334,13.333333333333334,"NIGHT_OVERCAST,NIGHT_MOSTLY_CLOUDY,BRIEF_SHOWERS","Offshore,Offshore,Onshore",3
5842041f4e65fad6a770883a,2025_02_21,32.813094,-117.27381,Birdrock,3,0.7029866666666666,1.0257866666666666,14.666666666666666,14.666666666666666,"NIGHT_OVERCAST,NIGHT_MOSTLY_CLOUDY,CLEAR","Cross-shore,Cross-shore,Onshore",3
5842041f4e65fad6a770883b,2025_02_21,32.88338,-117.25571,Blacks,3,1.0527133333333334,1.27985,13.333333333333334,13.333333333333334,"NIGHT_OVERCAST,NIGHT_MOSTLY_CLOUDY,BRIEF_SHOWERS","Onshore,Onshore,Onshore",3
5842041f4e65fad6a770883c,2025_02_21,32.82978974229765,-117.28162,Windansea,3.3333333333333335,1.2188766666666666,1.4115466666666667,13.333333333333334,13.333333333333334,"NIGHT_OVERCAST,NIGHT_MOSTLY_CLOUDY,CLEAR","Cross-shore,Offshore,Onshore",3
5842041f4e65fad6a770883d,2025_02_21,32.838278,-117.28396,Horseshoe,3,1.067,1.2356666666666667,14.666666666666666,14.666666666666666,"NIGHT_OVERCAST,NIGHT_MOSTLY_CLOUDY,CLEAR","Cross-shore,Offshore,Onshore",3
5842041f4e65fad6a770883f,2025_02_21,32.75034717673179,-117.25337,Ocean Beach,2.944444444444444,0.9127733333333333,1.20686,13.333333333333334,13.333333333333334,"NIGHT_OVERCAST,NIGHT_MOSTLY_CLOUDY,BRIEF_SHOWERS","Offshore,Offshore,Onshore",3
5842041f4e65fad6a7708840,2025_02_21,32.73693,-117.25718,Sunset Cliffs,3,0.71961,1.09901,14.666666666666666,14.666666666666666,"NIGHT_OVERCAST,NIGHT_OVERCAST,CLEAR","Offshore,Offshore,Onshore",3
5842041f4e65fad6a7708841,2025_02_21,32.796582258728826,-117.25779,Pacific Beach,3,0.87503,1.1001999999999998,13.333333333333334,13.333333333333334,"NIGHT_CLOUDY,NIGHT_MOSTLY_CLOUDY,MIST","Cross-shore,Cross-shore,Cross-shore",3
5842041f4e65fad6a7708842,2025_02_21,32.776636,-117.25514,Mission Beach,3,0.8661466666666666,1.1010933333333335,13.333333333333334,13.333333333333334,"NIGHT_CLOUDY,NIGHT_MOSTLY_CLOUDY,MIST","Offshore,Cross-shore,Onshore",3
5842041f4e65fad6a7708844,2025_02_21,32.577195519016,-117.13475,Imperial Beach Pier,3,0.87,1.0966666666666667,14,14,"NIGHT_OVERCAST,NIGHT_CLEAR,CLEAR","Cross-shore,Offshore,Onshore",3
5842041f4e65fad6a770884a,2025_02_21,42.88678181061,-70.80843,Seabrook,0.611111111111111,0,0.29500666666666664,3,3,"NIGHT_CLEAR,CLEAR,CLEAR","Offshore,Offshore,Offshore",3
5842041f4e65fad6a770884e,2025_02_21,41.434181432898335,-71.45312,Narragansett,1,0.24475,0.55253,3,3,"NIGHT_CLEAR,CLEAR,CLEAR","Offshore,Offshore,Offshore",3
5842041f4e65fad6a7708850,2025_02_21,40.582703230722,-73.65247,Lincoln Blvd,0.3333333333333333,0.07225,0.33313333333333334,4,3,"NIGHT_CLEAR,CLEAR,CLEAR","Offshore,Offshore,Offshore",3
5842041f4e65fad6a7708852,2025_02_21,40.58342841721757,-73.81182,Rockaways,0.4444444444444444,0.18009333333333333,0.5012800000000001,4,3,"NIGHT_CLEAR,CLEAR,CLEAR","Offshore,Offshore,Offshore",3
5842041f4e65fad6a7708853,2025_02_21,40.330474,-73.9734,Monmouth Beach,0.6111111111111112,0.11588,0.31717666666666666,3,3,"NIGHT_CLEAR,CLEAR,CLEAR","Offshore,Offshore,Offshore",3
5842041f4e65fad6a7708856,2025_02_21,40.113,-74.028,Manasquan Inlet,0.3333333333333333,0.06106666666666667,0.27713333333333334,3,3,"NIGHT_CLEAR,CLEAR,CLEAR","Offshore,Offshore,Offshore",3
5842041f4e65fad6a7708857,2025_02_21,39.941519877445664,-74.06829,Casino Pier,0.9444444444444444,0.07762999999999999,0.4031866666666667,3,3,"NIGHT_CLEAR,CLEAR,CLEAR","Offshore,Offshore,Offshore",3
5842041f4e65fad6a7708858,2025_02_21,39.28223089949212,-74.55766,North End OC,0.8333333333333334,0.04598000000000001,0.25700666666666666,2,2,"NIGHT_CLEAR,CLEAR,CLEAR","Offshore,Offshore,Offshore",3
5842041f4e65fad6a770885b,2025_02_21,39.65080599934257,-74.17146,Ship Bottom,0.8333333333333334,0.05671333333333334,0.2779566666666667,2,2,"NIGHT_CLEAR,CLEAR,CLEAR","Offshore,Offshore,Offshore",3
5842041f4e65fad6a7708863,2025_02_21,36.034151543144,-75.66791,Third Street,1.3333333333333333,0.7026566666666667,1.12704,7,7,"NIGHT_CLEAR,CLEAR,CLEAR","Cross-shore,Cross-shore,Cross-shore",3
5842041f4e65fad6a7708867,2025_02_21,35.605833221351425,-75.46303,S-Turns,0.3333333333333333,0.84925,1.20804,8,7,"NIGHT_CLEAR,CLEAR,CLEAR","Offshore,Offshore,Offshore",3
5842041f4e65fad6a770886d,2025_02_21,38.338461,-75.08117,Ocean City Boardwalk,1.3333333333333333,0.044566666666666664,0.3646466666666667,4,3,"NIGHT_CLEAR,CLEAR,CLEAR","Offshore,Offshore,Offshore",3
5842041f4e65fad6a770886f,2025_02_21,29.844757212379562,-81.26136,A St.,1.3333333333333333,0.8433333333333333,1.15,16,16,"NIGHT_MOSTLY_CLOUDY,CLOUDY,MOSTLY_CLOUDY","Cross-shore,Cross-shore,Cross-shore",3
5842041f4e65fad6a7708871,2025_02_21,29.069417851135093,-80.90824,New Smyrna Beach,0.5555555555555556,0.9949666666666668,1.40583,18,18,"NIGHT_OVERCAST,CLOUDY,OVERCAST","Cross-shore,Onshore,Cross-shore",3
5842041f4e65fad6a7708872,2025_02_21,28.367707417566,-80.60171,Cocoa Beach Pier,1.7777777777777777,0.32553666666666664,0.6363866666666667,20,20,"NIGHT_CLEAR,OVERCAST,MOSTLY_CLOUDY","Cross-shore,Cross-shore,Cross-shore",3
5842041f4e65fad6a7708873,2025_02_21,28.091782738658846,-80.56479,Indialantic,1,0.8752666666666666,1.2381666666666666,21.333333333333332,21,"NIGHT_CLOUDY,MOSTLY_CLOUDY,OVERCAST","Cross-shore,Cross-shore,Cross-shore",3
5842041f4e65fad6a7708876,2025_02_21,27.25392904143517,-80.19455,Jensen Beach,0.888888888888889,0.7938033333333333,1.1077866666666667,23.333333333333332,23,"NIGHT_BRIEF_SHOWERS,CLOUDY,MOSTLY_CLOUDY","Cross-shore,Cross-shore,Cross-shore",3
5842041f4e65fad6a7708879,2025_02_21,26.76346795333825,-80.03607,Reef Road,1,0.77949,1.0831233333333334,23,22,"NIGHT_MOSTLY_CLOUDY,MOSTLY_CLOUDY,MOSTLY_CLOUDY","Cross-shore,Cross-shore,Cross-shore",3
5842041f4e65fad6a770887c,2025_02_21,26.336499228484,-80.06956100463,Boca Raton Inlet,0.888888888888889,0.3029133333333333,0.5617333333333334,24,22,"NIGHT_BRIEF_SHOWERS,MOSTLY_CLOUDY,MOSTLY_CLOUDY","Offshore,Cross-shore,Offshore",3
5842041f4e65fad6a770887d,2025_02_21,26.31719311695038,-80.07453,Deerfield Beach Pier,1.5,0.35250333333333334,0.60888,24,23,"NIGHT_MOSTLY_CLOUDY,MOSTLY_CLOUDY,OVERCAST","Offshore,Cross-shore,Offshore",3
5842041f4e65fad6a7708881,2025_02_21,30.20276320866628,-85.85626528676136,"Spyglass Dr., Panama City",0,0,0.10769666666666666,14,14,"NIGHT_CLEAR,CLEAR,CLEAR","Offshore,Offshore,Offshore",3
5842041f4e65fad6a7708884,2025_02_21,33.39000832738053,-117.59852,Cottons,2.6666666666666665,0.6720866666666666,1.0095733333333334,14,14,"NIGHT_MOSTLY_CLOUDY,NIGHT_MOSTLY_CLOUDY,CLEAR","Cross-shore,Offshore,Onshore",3
5842041f4e65fad6a7708885,2025_02_21,33.359416282661,-117.54168,Trails,2.6666666666666665,0.4516266666666667,0.8098133333333333,14.666666666666666,14.666666666666666,"NIGHT_MOSTLY_CLOUDY,NIGHT_MIST,CLEAR","Offshore,Cross-shore,Onshore",3
5842041f4e65fad6a7708886,2025_02_21,33.38042605929805,-117.58332,Middles,2.6666666666666665,0.61321,0.9641666666666666,14.666666666666666,14.666666666666666,"NIGHT_MOSTLY_CLOUDY,NIGHT_MOSTLY_CLOUDY,CLEAR","Onshore,Offshore,Cross-shore",3
5842041f4e65fad6a7708887,2025_02_21,33.38445596302903,-117.59445,Upper Trestles,3,0.6647133333333333,0.9970699999999999,14,14,"NIGHT_MOSTLY_CLOUDY,NIGHT_MOSTLY_CLOUDY,CLEAR","Onshore,Offshore,Cross-shore",3
5842041f4e65fad6a7708889,2025_02_21,28.944414,-95.28883,Surfside,1,0.6234000000000001,0.97406,19,19,"NIGHT_OVERCAST,OVERCAST,CLOUDY","Cross-shore,Cross-shore,Cross-shore",3
5842041f4e65fad6a770888a,2025_02_21,33.38143999849023,-117.58843,Lower Trestles,3,0.6271466666666666,0.96708666666666665,14,14,"NIGHT_MOSTLY_CLOUDY,NIGHT_MOSTLY_CLOUDY,CLEAR","Cross-shore,Offshore,Onshore",3
5842041f4e65fad6a770888b,2025_02_21,33.379622288757,-117.57894,Church,2.5555555555555554,0.7065033333333334,1.0777966666666667,13.333333333333334,13.333333333333334,"NIGHT_MOSTLY_CLOUDY,NIGHT_MOSTLY_CLOUDY,CLEAR","Cross-shore,Offshore,Onshore",3
5842041f4e65fad6a770888d,2025_02_21,21.679,-158.042,Sunset Beach,3.6666666666666665,2.2399933333333335,2.8559300000000003,26,25,"NIGHT_MOSTLY_CLEAR,NIGHT_MOSTLY_CLEAR,CLEAR","Onshore,Offshore,Cross-shore",3
5842041f4e65fad6a770888e,2025_02_21,21.670550036401,-158.0482,Rocky Point,3.8333333333333335,2.21325,2.6580566666666665,26,25,"NIGHT_CLEAR,NIGHT_CLEAR,CLEAR","Onshore,Offshore,Cross-shore",3
5842041f4e65fad6a770888f,2025_02_21,21.668,-158.05,Chambers,3.6666666666666665,2.5113166666666666,3.0345033333333333,25,25,"NIGHT_CLEAR,NIGHT_CLEAR,CLEAR","Onshore,Offshore,Cross-shore",3
5842041f4e65fad6a7708890,2025_02_21,21.66522,-158.0526,Pipeline,4.166666666666667,2.2747966666666666,2.9094066666666665,26,25,"NIGHT_CLEAR,NIGHT_CLEAR,CLEAR","Onshore,Offshore,Cross-shore",3
5842041f4e65fad6a7708891,2025_02_21,21.665,-158.054,Backdoor,4.166666666666667,2.392806666666667,2.9562133333333334,26,25,"NIGHT_CLEAR,NIGHT_CLEAR,CLEAR","Onshore,Offshore,Cross-shore",3
5842041f4e65fad6a7708892,2025_02_21,21.662,-158.057,Rockpile,3.6666666666666665,2.7658166666666664,3.2520366666666667,25,25,"NIGHT_CLEAR,NIGHT_CLEAR,CLEAR","Onshore,Offshore,Cross-shore",3
5842041f4e65fad6a7708893,2025_02_21,21.65870453806827,-158.06058,Log Cabins,3.3333333333333335,2.1401600000000003,2.5168,25,25,"NIGHT_CLEAR,NIGHT_CLEAR,CLEAR","Onshore,Offshore,Cross-shore",3
5842041f4e65fad6a7708894,2025_02_21,21.66203493640557,-158.05495,Off The Wall,3.6666666666666665,2.75188,3.23604,25,25,"NIGHT_CLEAR,NIGHT_CLEAR,CLEAR","Onshore,Offshore,Cross-shore",3
5842041f4e65fad6a7708895,2025_02_21,21.643,-158.067,Waimea Bay,NA,2.4194666666666667,2.88211,26,25,"NIGHT_CLEAR,NIGHT_CLEAR,CLEAR","Onshore,Offshore,Offshore",3
5842041f4e65fad6a7708896,2025_02_21,21.622,-158.087,Hultin's,3.8333333333333335,2.33568,3.0231466666666664,26,25,"NIGHT_CLEAR,NIGHT_CLEAR,CLEAR","Offshore,Offshore,Offshore",3
5842041f4e65fad6a7708897,2025_02_21,21.623,-158.085,Jocko's,4,2.16143,2.5156,25,25,"NIGHT_CLEAR,NIGHT_CLEAR,CLEAR","Cross-shore,Cross-shore,Cross-shore",3
5842041f4e65fad6a7708898,2025_02_21,21.62,-158.088,Laniakea,3.8333333333333335,2.19055,2.6797033333333333,26,25,"NIGHT_CLEAR,NIGHT_CLEAR,CLEAR","Offshore,Offshore,Offshore",3
5842041f4e65fad6a7708899,2025_02_21,21.625,-158.083,Chun's,4,2.24378,2.6154699999999997,25,25,"NIGHT_CLEAR,NIGHT_CLEAR,CLEAR","Offshore,Offshore,Offshore",3
5842041f4e65fad6a770889c,2025_02_21,21.286357895152136,-157.8515,Ala Moana Beach Park,3,0.4966933333333333,0.82544,25,25,"NIGHT_CLEAR,NIGHT_BRIEF_SHOWERS,MOSTLY_CLEAR","Offshore,Offshore,Cross-shore",3
5842041f4e65fad6a770889d,2025_02_21,19.606,-155.978,Banyans,3.5,1.2286666666666666,1.4922233333333332,26,25,"NIGHT_MOSTLY_CLEAR,NIGHT_MOSTLY_CLEAR,CLEAR","Offshore,Cross-shore,Cross-shore",3
5842041f4e65fad6a770889e,2025_02_21,20.029,-155.831,Kawaihae,2,0.4444,0.7948133333333333,26,26,"NIGHT_BRIEF_SHOWERS,NIGHT_SHOWERS,CLEAR","Cross-shore,Cross-shore,Onshore",3
5842041f4e65fad6a770889f,2025_02_21,33.07541383424675,-117.3105,Grandview,3,0.5680166666666666,0.8668,14.666666666666666,14.666666666666666,"NIGHT_MOSTLY_CLOUDY,NIGHT_MOSTLY_CLOUDY,MIST","Cross-shore,Cross-shore,Onshore",3
5842041f4e65fad6a77088a0,2025_02_21,33.065267421296596,-117.30577,Beacons,3,0.5655833333333333,0.8643133333333334,14.666666666666666,14.666666666666666,"NIGHT_MOSTLY_CLOUDY,NIGHT_MOSTLY_CLOUDY,MIST","Cross-shore,Cross-shore,Onshore",3
5842041f4e65fad6a77088a2,2025_02_21,21.252,-157.805,Diamond Head,3,0.6526033333333333,1.00638,26,25,"NIGHT_MOSTLY_CLOUDY,NIGHT_MOSTLY_CLEAR,CLEAR","Cross-shore,Cross-shore,Cross-shore",3
5842041f4e65fad6a77088a3,2025_02_21,33.04694255008896,-117.29966,Moonlight State Beach,3,0.5824333333333334,0.8888,15,15,"NIGHT_MOSTLY_CLOUDY,NIGHT_MOSTLY_CLOUDY,MIST","Cross-shore,Offshore,Onshore",3
5842041f4e65fad6a77088a5,2025_02_21,33.08685865930869,-117.31532,Ponto,3,0.70562,1.0743,14.666666666666666,14.666666666666666,"NIGHT_MOSTLY_CLOUDY,NIGHT_MOSTLY_CLOUDY,MIST","Offshore,Cross-shore,Onshore",3
5842041f4e65fad6a77088a6,2025_02_21,33.130343587871906,-117.33668,Terra Mar Point,2.3333333333333335,0.29048,0.5894566666666666,13.333333333333334,13.333333333333334,"NIGHT_MOSTLY_CLOUDY,NIGHT_MIST,CLEAR","Offshore,Offshore,Onshore",3
5842041f4e65fad6a77088af,2025_02_21,32.95916304183685,-117.26963,Del Mar,3,0.8629733333333334,1.19573,15,15,"NIGHT_OVERCAST,NIGHT_MOSTLY_CLOUDY,MIST","Cross-shore,Offshore,Onshore",3
5842041f4e65fad6a77088b0,2025_02_21,32.97527261243354,-117.2721061331305,Del Mar Rivermouth,3,0.77252,1.0964800000000001,15,15,"NIGHT_OVERCAST,NIGHT_MIST,MIST","Cross-shore,Offshore,Onshore",3
5842041f4e65fad6a77088b1,2025_02_21,33.01352178146273,-117.28219,Cardiff Reef,3,0.75917,1.1026266666666666,13.333333333333334,13.333333333333334,"NIGHT_MOSTLY_CLOUDY,NIGHT_CLEAR,MIST","Offshore,Offshore,Onshore",3
5842041f4e65fad6a77088b3,2025_02_21,33.00211185876003,-117.2811,Seaside Reef,3,0.7532333333333333,1.07775,13.333333333333334,13.333333333333334,"NIGHT_MOSTLY_CLOUDY,NIGHT_MIST,MIST","Offshore,Offshore,Onshore",3
5842041f4e65fad6a77088b4,2025_02_21,33.0341859796287,-117.29552,Swami's,3,0.66338,0.9604366666666666,13.333333333333334,13.333333333333334,"NIGHT_MOSTLY_CLOUDY,NIGHT_CLEAR,MIST","Cross-shore,Offshore,Onshore",3
5842041f4e65fad6a77088b7,2025_02_21,33.04569760260221,-117.2994,D Street,3,0.6073666666666667,0.96139,15,15,"NIGHT_MOSTLY_CLOUDY,NIGHT_MOSTLY_CLOUDY,MIST","Cross-shore,Offshore,Onshore",3
5842041f4e65fad6a77088b8,2025_02_21,33.02090944350196,-117.28535,San Elijo State Beach,3,0.54453,0.8535566666666666,15,15,"NIGHT_MOSTLY_CLOUDY,NIGHT_CLEAR,MIST","Offshore,Offshore,Onshore",3
5842041f4e65fad6a77088c2,2025_02_21,32.80662846492798,-117.26888,PB Point,3,0.7840199999999999,1.10622,14.666666666666666,14.666666666666666,"NIGHT_OVERCAST,NIGHT_MOSTLY_CLOUDY,CLEAR","Cross-shore,Cross-shore,Cross-shore",3
5842041f4e65fad6a77088c4,2025_02_21,32.8060476681448,-117.26479,Old Man's at Tourmaline,2.6666666666666665,0.48844333333333334,0.7721766666666666,14.666666666666666,14.666666666666666,"NIGHT_OVERCAST,NIGHT_MOSTLY_CLOUDY,CLEAR","Cross-shore,Cross-shore,Cross-shore",3
5842041f4e65fad6a77088cb,2025_02_21,32.557056711256,-117.1327445020322,Tijuana Slough,2.6666666666666665,0.53,0.8333333333333334,14.666666666666666,14.666666666666666,"NIGHT_OVERCAST,NIGHT_CLEAR,MIST","Offshore,Offshore,Onshore",3
5842041f4e65fad6a77088cc,2025_02_21,32.863,-117.257,La Jolla Shores,3,0.73365,1.06945,14.666666666666666,14.666666666666666,"NIGHT_OVERCAST,NIGHT_MOSTLY_CLOUDY,BRIEF_SHOWERS","Offshore,Offshore,Onshore",3
5842041f4e65fad6a77088ce,2025_02_21,32.67443657790586,-117.17421,Coronado Beach,2.3333333333333335,0.31333333333333335,0.6133333333333333,14.666666666666666,14.666666666666666,"NIGHT_CLOUDY,NIGHT_MOSTLY_CLOUDY,CLEAR","Onshore,Offshore,Cross-shore",3
5842041f4e65fad6a77088cf,2025_02_21,33.40484417640326,-117.60749,San Clemente State Beach,2.6666666666666665,0.46222,0.81366,14.666666666666666,14.666666666666666,"NIGHT_MIST,NIGHT_MOSTLY_CLOUDY,CLEAR","Cross-shore,Offshore,Onshore",3
5842041f4e65fad6a77088d5,2025_02_21,33.4663042002114,-117.7168352817103,Strands,3,0.7698166666666667,1.10934,14,14,"NIGHT_MIST,NIGHT_MOSTLY_CLOUDY,BRIEF_SHOWERS","Cross-shore,Cross-shore,Onshore",3
5842041f4e65fad6a77088d7,2025_02_21,33.4609858001748,-117.68535,Doheny State Beach,2,0.13820666666666667,0.47480666666666665,14,14,"NIGHT_MIST,NIGHT_MOSTLY_CLOUDY,CLEAR","Cross-shore,Onshore,Onshore",3
5842041f4e65fad6a77088dc,2025_02_21,33.50894790083017,-117.75243,Aliso Creek,2.6666666666666665,0.33821333333333337,0.6918,14.666666666666666,14.666666666666666,"NIGHT_MIST,NIGHT_MOSTLY_CLOUDY,BRIEF_SHOWERS","Cross-shore,Onshore,Onshore",3
5842041f4e65fad6a77088dd,2025_02_21,33.5326591767067,-117.77764,Brooks Street,2,0.22,0.52,14.666666666666666,14.666666666666666,"NIGHT_MIST,NIGHT_MIST,MIST","Cross-shore,Onshore,Onshore",3
5842041f4e65fad6a77088de,2025_02_21,33.53561225884637,-117.7799,Thalia Street,2,0.24,0.54,14.666666666666666,14.666666666666666,"NIGHT_MIST,NIGHT_MIST,MIST","Cross-shore,Onshore,Cross-shore",3
5842041f4e65fad6a77088e3,2025_02_21,33.54268310353641,-117.7916,Rockpile,2,0.22,0.52,15,15,"NIGHT_MIST,NIGHT_MIST,MIST","Onshore,Onshore,Cross-shore",3
5842041f4e65fad6a77088e4,2025_02_21,33.7368459504689,-118.10342,"Seal Beach Pier, Southside",2.6666666666666665,0.45999999999999996,0.7633333333333333,15,15,"NIGHT_MIST,NIGHT_DRIZZLE,MIST","Cross-shore,Cross-shore,Onshore",3
5842041f4e65fad6a77088e5,2025_02_21,33.73933701820233,-118.117,Ray Bay,2.3333333333333335,0.33666666666666667,0.64,15,15,"NIGHT_MIST,NIGHT_DRIZZLE,CLEAR","Cross-shore,Offshore,Onshore",3
5842041f4e65fad6a77088e7,2025_02_21,33.728733,-118.08982,Surfside,1,0,0.18333333333333332,15,15,"NIGHT_MIST,NIGHT_DRIZZLE,MOSTLY_CLOUDY","Cross-shore,Cross-shore,Onshore",3
5842041f4e65fad6a77088e8,2025_02_21,33.68760321488161,-118.04236,Bolsa Chica State Beach,3,0.6710166666666667,0.9708966666666666,14,14,"NIGHT_MIST,NIGHT_DRIZZLE,MOSTLY_CLOUDY","Offshore,Offshore,Onshore",3
5842041f4e65fad6a77088ea,2025_02_21,33.66704400178788,-118.0192,North HB Streets,3,0.6911733333333334,1.0069433333333333,14,14,"NIGHT_MIST,NIGHT_OVERCAST,MOSTLY_CLOUDY","Cross-shore,Onshore,Onshore",3
5842041f4e65fad6a77088ed,2025_02_21,33.65475101379567,-118.00291,Huntington Beach Pier Southside,3,0.7574966666666666,1.13724,14,14,"NIGHT_MIST,NIGHT_OVERCAST,MOSTLY_CLOUDY","Cross-shore,Onshore,Onshore",3
5842041f4e65fad6a77088ee,2025_02_21,33.62778647706099,-117.95939,River Jetties,2.111111111111111,0.6495033333333333,1.01464,14,14,"NIGHT_BRIEF_SHOWERS,NIGHT_OVERCAST,MOSTLY_CLOUDY","Cross-shore,Cross-shore,Onshore",3
5842041f4e65fad6a77088f2,2025_02_21,33.605165797643664,-117.925,Newport Point,2,0.18733333333333332,0.5320266666666666,15,15,"NIGHT_BRIEF_SHOWERS,NIGHT_MIST,MIST","Onshore,Onshore,Onshore",3
5842041f4e65fad6a77088f3,2025_02_21,33.58982984726977,-117.87713,Corona del Mar,2,0.16277666666666665,0.47794,15,15,"NIGHT_BRIEF_SHOWERS,NIGHT_MIST,MIST","Cross-shore,Onshore,Onshore",3
5842041f4e65fad6a77088f7,2025_02_21,34.00750300824362,-118.49718,Santa Monica Pier,2,0.1183,0.42588,14,14,"NIGHT_CLEAR,NIGHT_CLEAR,CLEAR","Offshore,Onshore,Onshore",3
5842041f4e65fad6a77088ff,2025_02_21,33.94070283102945,-118.44321,Dockweiler Beach,3,0.8198166666666666,1.07895,14,14,"NIGHT_CLEAR,NIGHT_CLEAR,CLEAR","Cross-shore,Cross-shore,Onshore",3
5842041f4e65fad6a7708900,2025_02_21,33.9231846937237,-118.4341465777908,Shitpipe,3,0.96145,1.20545,14,14,"NIGHT_CLEAR,NIGHT_CLEAR,CLEAR","Cross-shore,Cross-shore,Onshore",3
5842041f4e65fad6a7708902,2025_02_21,33.9108528052242,-118.4279133138721,Hammerland,3,0.9505233333333334,1.1918233333333335,14,14,"NIGHT_CLEAR,NIGHT_CLEAR,CLEAR","Cross-shore,Cross-shore,Onshore",3
5842041f4e65fad6a7708904,2025_02_21,33.87201368173932,-118.40752,Hermosa Beach,3,0.62271,0.9498300000000001,14,14,"NIGHT_CLEAR,NIGHT_CLEAR,CLEAR","Offshore,Offshore,Onshore",3
5842041f4e65fad6a7708906,2025_02_21,33.90129336911256,-118.42184,El Porto,3,0.8386066666666667,1.1199366666666666,14,14,"NIGHT_CLEAR,NIGHT_CLEAR,CLEAR","Offshore,Offshore,Onshore",3
5842041f4e65fad6a7708907,2025_02_21,33.87963506431794,-118.41102,Manhattan Beach Pier,3,0.8238666666666667,1.06598,14,14,"NIGHT_CLEAR,NIGHT_CLEAR,CLEAR","Offshore,Offshore,Onshore",3
5842041f4e65fad6a7708914,2025_02_21,34.038053387863464,-118.5532,Sunset Point,2,0.1066,0.43706,14,14,"NIGHT_CLEAR,NIGHT_CLEAR,MIST","Offshore,Offshore,Onshore",3
5842041f4e65fad6a7708920,2025_02_21,33.80282,-118.39989,Haggerty's,2,0.31892,0.56012,14.666666666666666,14.666666666666666,"NIGHT_CLEAR,NIGHT_CLEAR,CLEAR","Offshore,Cross-shore,Onshore",3
5842041f4e65fad6a7708921,2025_02_21,33.85044519861206,-118.40048,Redondo Breakwater,3,0.6246666666666667,0.9335466666666667,14.666666666666666,14.666666666666666,"NIGHT_CLEAR,NIGHT_CLEAR,CLEAR","Offshore,Offshore,Onshore",3
5842041f4e65fad6a7708927,2025_02_21,33.70877301002487,-118.2840112858389,Cabrillo Beach,2,0.21666666666666667,0.5233333333333333,14,14,"NIGHT_MIST,NIGHT_OVERCAST,CLEAR","Onshore,Onshore,Offshore",3
5842041f4e65fad6a770892c,2025_02_21,33.77209986806257,-118.4268428476672,Lunada Bay,2,0.53,0.8366666666666667,14,14,"NIGHT_CLEAR,NIGHT_CLEAR,CLEAR","Cross-shore,Onshore,Cross-shore",3
5842041f4e65fad6a770892d,2025_02_21,33.79294656286144,-118.40703,PV Cove,2.6666666666666665,0.39865,0.70015,14.666666666666666,14.666666666666666,"NIGHT_CLEAR,NIGHT_CLEAR,CLEAR","Offshore,Offshore,Onshore",3
5842041f4e65fad6a7708930,2025_02_21,34.03944902292561,-118.57539,Chart House,1,0,0.17056,14,14,"NIGHT_CLEAR,NIGHT_CLEAR,CLEAR","Offshore,Offshore,Onshore",3
5842041f4e65fad6a7708936,2025_02_21,34.0016731994772,-118.80456,Point Dume,1.1111111111111112,3.0999999999999995e-4,0.33785333333333334,14,14,"NIGHT_CLEAR,NIGHT_CLEAR,MIST","Cross-shore,Offshore,Onshore",3
5842041f4e65fad6a7708937,2025_02_21,34.02587527588963,-118.7554939066114,Latigo Point,1,0,0.2866666666666667,14,14,"NIGHT_CLEAR,NIGHT_CLEAR,CLEAR","Cross-shore,Cross-shore,Onshore",3
5842041f4e65fad6a770893f,2025_02_21,34.043762,-118.93294,Leo Carrillo,2.2222222222222223,0.5267533333333334,0.8468866666666667,14,14,"NIGHT_CLEAR,NIGHT_CLEAR,CLEAR","Cross-shore,Offshore,Onshore",3
5842041f4e65fad6a7708941,2025_02_21,36.69388179265737,-121.81289,Marina State Beach,3.3333333333333335,1.5039966666666666,1.9420133333333334,12,12,"NIGHT_MIST,NIGHT_CLEAR,CLEAR","Cross-shore,Offshore,Offshore",3
5842041f4e65fad6a7708944,2025_02_21,34.34145077331085,-119.416999352654,Stanley's,2,0.26333333333333336,0.5666666666666667,14,14,"NIGHT_CLEAR,NIGHT_CLEAR,CLEAR","Offshore,Offshore,Onshore",3
5842041f4e65fad6a7708945,2025_02_21,34.35113017313915,-119.426921498899,Oil Piers,2,0.26333333333333336,0.5666666666666667,14,14,"NIGHT_CLEAR,NIGHT_CLEAR,CLEAR","Offshore,Offshore,Cross-shore",3
5842041f4e65fad6a770894c,2025_02_21,34.17876333306018,-119.23995,Oxnard,2,0.5133333333333333,0.8233333333333334,13.666666666666666,13.666666666666666,"NIGHT_CLEAR,NIGHT_CLEAR,CLEAR","Offshore,Offshore,Offshore",3
5842041f4e65fad6a7708957,2025_02_21,34.31720331100517,-119.3882324751725,Pitas Point,1.6666666666666667,0.2733333333333333,0.5766666666666667,14,14,"NIGHT_CLEAR,NIGHT_CLEAR,CLEAR","Offshore,Offshore,Onshore",3
5842041f4e65fad6a7708959,2025_02_21,34.27851754384724,-119.3162,Emma Wood,2.6666666666666665,0.49468,0.7968,14,14,"NIGHT_CLEAR,NIGHT_CLEAR,CLEAR","Offshore,Offshore,Onshore",3
5842041f4e65fad6a770895a,2025_02_21,34.35513640390276,-119.4400589884255,Mussel Shoals (aka Little Rincon),2.3333333333333335,0.29666666666666663,0.6033333333333333,14,14,"NIGHT_CLEAR,NIGHT_CLEAR,CLEAR","Offshore,Offshore,Onshore",3
5842041f4e65fad6a770895e,2025_02_21,34.28991757054902,-119.3366646794652,Summer Beach,2,0.15936,0.46148,14,14,"NIGHT_CLEAR,NIGHT_CLEAR,CLEAR","Offshore,Offshore,Onshore",3
5842041f4e65fad6a770895f,2025_02_21,34.30897456105926,-119.3582501170116,Solimar,1.6666666666666667,0.16,0.4633333333333333,14,14,"NIGHT_CLEAR,NIGHT_CLEAR,CLEAR","Offshore,Offshore,Onshore",3
5842041f4e65fad6a7708960,2025_02_21,34.39836265281686,-119.70213,Leadbetter Point,1,0,0.15,14,14,"NIGHT_CLEAR,NIGHT_CLEAR,CLEAR","Offshore,Offshore,Cross-shore",3
5842041f4e65fad6a7708961,2025_02_21,34.46052293893899,-120.07328,Refugio,1,0,0.23333333333333334,13,13,"NIGHT_CLEAR,NIGHT_CLEAR,CLEAR","Cross-shore,Cross-shore,Cross-shore",3
5842041f4e65fad6a7708962,2025_02_21,34.40754276777778,-119.87639,Devereux,2,0.02666666666666667,0.33,13.333333333333334,13.333333333333334,"NIGHT_CLEAR,NIGHT_CLEAR,CLEAR","Offshore,Offshore,Cross-shore",3
5842041f4e65fad6a7708963,2025_02_21,34.27479983305182,-119.3133222656776,Ventura Overhead,2.6666666666666665,0.49468,0.7968,13.666666666666666,13.666666666666666,"NIGHT_CLEAR,NIGHT_CLEAR,CLEAR","Offshore,Offshore,Onshore",3
5842041f4e65fad6a7708964,2025_02_21,34.41023236011655,-119.88261,Sands,2,0.02,0.32666666666666666,13.333333333333334,13.333333333333334,"NIGHT_CLEAR,NIGHT_CLEAR,CLEAR","Offshore,Onshore,Onshore",3
5842041f4e65fad6a7708966,2025_02_21,34.40450193869233,-119.68752,Sandspit,0.6666666666666666,0,0.15,14,14,"NIGHT_CLEAR,NIGHT_CLEAR,CLEAR","Offshore,Offshore,Cross-shore",3
5842041f4e65fad6a7708967,2025_02_21,34.41549098334453,-119.6375149840203,Hammond's,2,0.03,0.33666666666666667,14,14,"NIGHT_CLEAR,NIGHT_CLEAR,CLEAR","Offshore,Offshore,Cross-shore",3
5842041f4e65fad6a7708968,2025_02_21,34.45759322742309,-120.02203,El Capitan,1,0,0.24333333333333332,13,13,"NIGHT_CLEAR,NIGHT_CLEAR,CLEAR","Cross-shore,Offshore,Cross-shore",3
5842041f4e65fad6a770896c,2025_02_21,34.405117655616,-119.84317,Campus Point,2,0.02,0.32666666666666666,13.333333333333334,13.333333333333334,"NIGHT_CLEAR,NIGHT_CLEAR,CLEAR","Offshore,Cross-shore,Cross-shore",3
5842041f4e65fad6a770896e,2025_02_21,34.38935162233354,-119.51955,Carpinteria State Beach,2,0.16,0.4666666666666667,14,14,"NIGHT_CLEAR,NIGHT_CLEAR,CLEAR","Offshore,Offshore,Onshore",3
5842041f4e65fad6a770896f,2025_02_21,37.48296565175612,-122.45493,Half Moon Bay,3,0.9501066666666667,1.2026666666666666,12,12,"NIGHT_CLEAR,NIGHT_CLEAR,CLEAR","Offshore,Offshore,Offshore",3
5842041f4e65fad6a7708970,2025_02_21,37.499,-122.471,Princeton Jetty,3,1.0884133333333332,1.3018866666666666,12,12,"NIGHT_CLEAR,NIGHT_CLEAR,CLEAR","Offshore,Offshore,Offshore",3
5842041f4e65fad6a7708972,2025_02_21,37.35699547365155,-122.4069534707252,Tunitas Creek,3.6666666666666665,2.0866666666666664,2.4166666666666665,12,12,"NIGHT_MIST,NIGHT_CLEAR,CLEAR","Offshore,Offshore,Offshore",3
5842041f4e65fad6a7708974,2025_02_21,37.54735589428842,-122.51611,Montara,3,1.5,1.8,12,12,"NIGHT_MOSTLY_CLOUDY,NIGHT_CLEAR,CLEAR","Cross-shore,Offshore,Cross-shore",3
5842041f4e65fad6a7708975,2025_02_21,34.3869373724559,-119.5142334209018,Tarpits,2,0.18333333333333335,0.48666666666666664,13.666666666666666,13.666666666666666,"NIGHT_CLEAR,NIGHT_CLEAR,CLEAR","Cross-shore,Offshore,Cross-shore",3
5842041f4e65fad6a7708976,2025_02_21,37.59881852720143,-122.50463,Linda Mar,3,0.6018633333333333,0.9386733333333334,12,12,"NIGHT_MIST,NIGHT_CLEAR,CLEAR","Onshore,Cross-shore,Cross-shore",3
5842041f4e65fad6a7708978,2025_02_21,37.59883098461164,-122.5143843582282,Pedro Point,3.6666666666666665,1.9278933333333335,2.3022833333333335,12,12,"NIGHT_CLEAR,NIGHT_CLEAR,CLEAR","Onshore,Offshore,Cross-shore",3
5842041f4e65fad6a7708979,2025_02_21,37.61081996647663,-122.49733,Rockaway,3.6666666666666665,2.0149999999999997,2.409333333333333,12,12,"NIGHT_MIST,NIGHT_CLEAR,CLEAR","Onshore,Offshore,Offshore",3
5842041f4e65fad6a770897a,2025_02_21,37.809987384424446,-122.47514,Fort Point,3,1,1.19,11,11,"NIGHT_MIST,NIGHT_CLEAR,CLEAR","Onshore,Cross-shore,Offshore",3
5842041f4e65fad6a770897c,2025_02_21,37.63422542967464,-122.4951,Sharp Park,3,2.05905,2.4648166666666667,12,12,"NIGHT_MOSTLY_CLOUDY,NIGHT_CLEAR,CLEAR","Onshore,Offshore,Offshore",3
5842041f4e65fad6a770897d,2025_02_21,37.27313605072472,-122.4127387912554,Pescadero,3,1.8133333333333335,2.17,12,12,"NIGHT_MIST,NIGHT_MIST,CLEAR","Cross-shore,Cross-shore,Onshore",3
5842041f4e65fad6a770897e,2025_02_21,37.18140279972666,-122.3926685899327,Pigeon Point,4,1.82,2.1766666666666667,12,12,"NIGHT_BRIEF_SHOWERS,NIGHT_CLEAR,CLEAR","Offshore,Offshore,Cross-shore",3
5842041f4e65fad6a770897f,2025_02_21,37.11578956919415,-122.314699271291,Ano Nuevo,3.6666666666666665,1.3366666666666667,1.6133333333333333,12,12,"NIGHT_CLEAR,NIGHT_CLEAR,CLEAR","Offshore,Cross-shore,Cross-shore",3
5842041f4e65fad6a7708980,2025_02_21,37.09520872681598,-122.2805474707768,Waddell Creek,3.3333333333333335,1.4433333333333334,1.7266666666666666,12,12,"NIGHT_CLEAR,NIGHT_CLEAR,CLEAR","Cross-shore,Offshore,Onshore",3
5842041f4e65fad6a7708981,2025_02_21,36.96512852130351,-122.1252825495626,Four Mile,3.6666666666666665,1.57,1.85,12,12,"NIGHT_MIST,NIGHT_CLEAR,MIST","Offshore,Offshore,Cross-shore",3
5842041f4e65fad6a7708982,2025_02_21,37.04122807048655,-122.23337,Scott Creek,3,1.4366666666666668,1.7266666666666666,12,12,"NIGHT_CLEAR,NIGHT_CLEAR,CLEAR","Offshore,Offshore,Onshore",3
5842041f4e65fad6a7708983,2025_02_21,37.02350229387179,-122.21908,Davenport,3.6666666666666665,1.59,1.8966666666666667,12,12,"NIGHT_CLEAR,NIGHT_CLEAR,CLEAR","Offshore,Offshore,Onshore",3
5842041f4e65fad6a7708986,2025_02_21,36.94905295955728,-122.06118,Natural Bridges,3.6666666666666665,1.34406,1.61082,12,12,"NIGHT_MIST,NIGHT_CLEAR,CLEAR","Onshore,Offshore,Cross-shore",3
5842041f4e65fad6a7708987,2025_02_21,36.95154854910425,-122.04207,Mitchell's Cove,3,0.8779933333333333,1.1026766666666667,12,12,"NIGHT_CLEAR,NIGHT_CLEAR,CLEAR","Offshore,Offshore,Onshore",3
5842041f4e65fad6a770898a,2025_02_21,36.9572312370203,-121.98177,26th Ave,3,1.1056033333333333,1.3505766666666665,12,12,"NIGHT_CLEAR,NIGHT_CLEAR,CLEAR","Onshore,Cross-shore,Onshore",3
5842041f4e65fad6a770898e,2025_02_21,36.91899972819882,-121.85536,Manresa,3.6666666666666665,1.34,1.65,12,12,"NIGHT_MIST,NIGHT_CLEAR,CLEAR","Cross-shore,Offshore,Cross-shore",3
5842041f4e65fad6a7708990,2025_02_21,34.45747731928454,-120.34242,The Ranch,2,0.2733333333333334,0.58,13,13,"NIGHT_CLEAR,NIGHT_CLEAR,CLEAR","Offshore,Offshore,Onshore",3
5842041f4e65fad6a7708991,2025_02_21,34.50875036590315,-120.50348,Jalama,3,0.9266666666666666,1.11,12,12,"NIGHT_CLEAR,NIGHT_CLEAR,CLEAR","Offshore,Offshore,Onshore",3
5842041f4e65fad6a7708996,2025_02_21,34.68700870220497,-120.6111611019887,Surf Beach,3,2.2266666666666666,2.6366666666666667,12,12,"NIGHT_CLEAR,NIGHT_CLEAR,MIST","Cross-shore,Onshore,Onshore",3
5842041f4e65fad6a770899c,2025_02_21,35.5730538161116,-121.1143362345574,Moonstone,3.6666666666666665,1.5833333333333333,1.88,12,12,"NIGHT_CLEAR,NIGHT_CLEAR,MIST","Offshore,Offshore,Onshore",3
5842041f4e65fad6a770899d,2025_02_21,35.61533716776573,-121.1502053073914,Pico Creek,3.3333333333333335,1.25,1.4933333333333334,12,12,"NIGHT_CLEAR,NIGHT_CLEAR,CLEAR","Offshore,Offshore,Cross-shore",3
5842041f4e65fad6a770899e,2025_02_21,35.56829031927379,-121.11207,Santa Rosa Creek,3.3333333333333335,1.5833333333333333,1.88,12,12,"NIGHT_CLEAR,NIGHT_CLEAR,MIST","Offshore,Offshore,Onshore",3
5842041f4e65fad6a77089a2,2025_02_21,35.44820114936284,-120.90715,"Cayucos Pier, Southside",3,0.6205633333333334,0.9706766666666666,12,12,"NIGHT_CLEAR,NIGHT_CLEAR,CLEAR","Offshore,Offshore,Offshore",3
5842041f4e65fad6a77089a4,2025_02_21,35.30143372628852,-120.877819239902,Cable Landing,3.3333333333333335,2.336666666666667,2.743333333333333,12,12,"NIGHT_CLEAR,NIGHT_CLEAR,CLEAR","Offshore,Offshore,Onshore",3
5842041f4e65fad6a77089a9,2025_02_21,35.61269103500222,-121.14807,San Simeon,3,0.7653333333333333,0.966,12,12,"NIGHT_CLEAR,NIGHT_CLEAR,CLEAR","Offshore,Offshore,Onshore",3
5842041f4e65fad6a77089ab,2025_02_21,35.1775325966252,-120.73411,Avila Beach,1,0,0.21,12,12,"NIGHT_CLEAR,NIGHT_CLEAR,CLEAR","Offshore,Onshore,Onshore",3
5842041f4e65fad6a77089ac,2025_02_21,35.13877877884115,-120.64535,Pismo Beach Pier,3,1.0255566666666667,1.3677433333333333,11,11,"NIGHT_CLEAR,NIGHT_CLEAR,CLEAR","Offshore,Offshore,Cross-shore",3
5842041f4e65fad6a77089ad,2025_02_21,46.8907710233147,-124.12964,Westport/Olympic Peninsula,3,1.6066666666666667,1.8966666666666667,7.333333333333333,7.333333333333333,"NIGHT_CLEAR,NIGHT_CLEAR,CLEAR","Offshore,Offshore,Offshore",3
5842041f4e65fad6a77089ae,2025_02_21,46.35185177248545,-124.06747,Long Beach Peninsula,3.3333333333333335,2.1,2.38,8,8,"NIGHT_CLEAR,NIGHT_CLEAR,CLEAR","Offshore,Offshore,Offshore",3
5842041f4e65fad6a77089af,2025_02_21,47.90649175554033,-124.63709,La Push,2.6666666666666665,2.1833333333333336,2.5300000000000002,8,8,"NIGHT_CLEAR,NIGHT_CLEAR,CLOUDY","Offshore,Offshore,Cross-shore",3
5842041f4e65fad6a77089b0,2025_02_21,42.04368239985442,-124.26828,Brookings Jetty,3,1.11536,1.3287066666666667,9.333333333333334,9.333333333333334,"NIGHT_CLEAR,NIGHT_CLEAR,CLEAR","Offshore,Offshore,Onshore",3
5842041f4e65fad6a77089b1,2025_02_21,42.74071837900346,-124.4983727491047,Port Orford,3,1.25,1.5033333333333332,9.666666666666666,9.666666666666666,"NIGHT_CLEAR,NIGHT_CLEAR,CLEAR","Onshore,Onshore,Onshore",3
5842041f4e65fad6a77089b2,2025_02_21,44.01532689312291,-124.13865,Florence South Jetty,3.6666666666666665,2.0166666666666666,2.3733333333333335,9.666666666666666,9.666666666666666,"NIGHT_CLEAR,NIGHT_CLEAR,CLEAR","Offshore,Offshore,Cross-shore",3
5842041f4e65fad6a77089b3,2025_02_21,42.41812540774362,-124.42945,Gold Beach South Jetty,3,1.83,2.1733333333333333,9,9,"NIGHT_CLEAR,NIGHT_CLEAR,CLEAR","Onshore,Cross-shore,Onshore",3
5842041f4e65fad6a77089b4,2025_02_21,44.95857310226525,-124.0219,Lincoln City,3.6666666666666665,1.9233333333333333,2.25,8.666666666666666,8.666666666666666,"NIGHT_CLEAR,NIGHT_CLEAR,CLEAR","Offshore,Offshore,Cross-shore",3
5842041f4e65fad6a77089b5,2025_02_21,44.63792761362982,-124.0657,Newport,4,2.1500000000000004,2.5166666666666666,9,9,"NIGHT_CLEAR,NIGHT_CLEAR,CLEAR","Offshore,Offshore,Cross-shore",3
5842041f4e65fad6a77089b6,2025_02_21,45.61468496266301,-123.94643,Rockaway Beach,4,2,2.34,8.666666666666666,8.666666666666666,"NIGHT_CLEAR,NIGHT_CLEAR,CLEAR","Offshore,Offshore,Offshore",3
5842041f4e65fad6a77089b7,2025_02_21,45.20252914186085,-123.96975,Pacific City,3,1.8466666666666667,2.1466666666666665,8.666666666666666,8.666666666666666,"NIGHT_CLEAR,NIGHT_CLEAR,CLEAR","Offshore,Offshore,Cross-shore",3
5842041f4e65fad6a77089b8,2025_02_21,45.88179930310263,-123.96681,Cannon Beach,3.3333333333333335,2.0433333333333334,2.3366666666666664,8.666666666666666,8.666666666666666,"NIGHT_CLEAR,NIGHT_CLEAR,CLEAR","Offshore,Offshore,Cross-shore",3
5842041f4e65fad6a77089ba,2025_02_21,40.02528754746774,-124.06372,Shelter Cove,3,0.6936766666666667,0.80482,10.666666666666666,10.666666666666666,"NIGHT_CLEAR,NIGHT_CLEAR,CLEAR","Offshore,Offshore,Onshore",3
5842041f4e65fad6a77089bb,2025_02_21,40.76816197136951,-124.24248,Humboldt Harbor Entrance,3.3333333333333335,2.0933333333333333,2.48,10,10,"NIGHT_OVERCAST,NIGHT_MOSTLY_CLOUDY,CLEAR","Onshore,Offshore,Onshore",3
5842041f4e65fad6a77089bc,2025_02_21,40.76684246920174,-124.23107,North Jetty,3,2.203333333333333,2.6266666666666665,10,10,"NIGHT_MOSTLY_CLOUDY,NIGHT_MOSTLY_CLOUDY,CLEAR","Offshore,Offshore,Onshore",3
5842041f4e65fad6a77089be,2025_02_21,41.13016238153297,-124.16466,Sue-meg,3.6666666666666665,1.9133333333333333,2.2133333333333334,10,10,"NIGHT_CLEAR,NIGHT_CLEAR,CLEAR","Offshore,Offshore,Cross-shore",3
5842041f4e65fad6a77089bf,2025_02_21,37.8289474958188,-122.53768,Fort Cronkite/Rodeo Beach,3.3333333333333335,1.7466666666666666,2.09,11,11,"NIGHT_CLEAR,NIGHT_CLEAR,CLEAR","Onshore,Offshore,Offshore",3
5842041f4e65fad6a77089c0,2025_02_21,41.74415759876137,-124.17717,South Beach CA,3,1.2133333333333334,1.4233333333333333,10,10,"NIGHT_CLEAR,NIGHT_CLEAR,CLEAR","Cross-shore,Cross-shore,Onshore",3
5842041f4e65fad6a77089c1,2025_02_21,37.89801283969752,-122.64519,Stinson Beach,3,0.43333333333333335,0.7366666666666667,11.333333333333334,11.333333333333334,"NIGHT_CLEAR,NIGHT_CLEAR,CLEAR","Cross-shore,Offshore,Offshore",3
5842041f4e65fad6a77089c2,2025_02_21,37.90514516176495,-122.68151,Bolinas,2,0.28703666666666666,0.58397,12,12,"NIGHT_CLEAR,NIGHT_CLEAR,CLEAR","Onshore,Offshore,Offshore",3
5842041f4e65fad6a77089c3,2025_02_21,38.04892513158693,-122.98925,Point Reyes (north),2.3333333333333335,2.3733333333333335,2.76,12,12,"NIGHT_MIST,NIGHT_MIST,MIST","Onshore,Onshore,Onshore",3
5842041f4e65fad6a77089c6,2025_02_21,38.31088736605785,-123.0496777333731,Doran Beach,2,0.22333333333333333,0.5266666666666667,11,11,"NIGHT_MIST,NIGHT_MIST,CLEAR","Cross-shore,Offshore,Offshore",3
5842041f4e65fad6a77089c7,2025_02_21,38.45077228660809,-123.13008,Russian Rivermouth,3,1.7366666666666666,2.0566666666666666,11,11,"NIGHT_CLEAR,NIGHT_CLEAR,CLEAR","Offshore,Onshore,Onshore",3
5842041f4e65fad6a77089c8,2025_02_21,38.35329968518107,-123.06906,Salmon Creek,3,1.6866666666666668,2.013333333333333,11,11,"NIGHT_CLEAR,NIGHT_MIST,MIST","Offshore,Cross-shore,Cross-shore",3
5842041f4e65fad6a77089c9,2025_02_21,38.6845180197959,-123.4322714291198,Black Point Beach,4,1.3033333333333335,1.5166666666666666,11,11,"NIGHT_CLEAR,NIGHT_CLEAR,CLEAR","Cross-shore,Onshore,Onshore",3
5842041f4e65fad6a77089ca,2025_02_21,43.251076,-70.59144,Ogunquit,0.611111111111111,0.0033333333333333335,0.29974333333333336,3,3,"NIGHT_CLOUDY,CLEAR,CLEAR","Offshore,Offshore,Offshore",3
5842041f4e65fad6a77089cb,2025_02_21,41.362631366305415,-71.48007,Point Judith,1.3333333333333333,0.11186333333333333,0.44247333333333333,3,3,"NIGHT_CLEAR,CLEAR,CLEAR","Offshore,Offshore,Offshore",3
5842041f4e65fad6a77089cd,2025_02_21,41.422678090954726,-71.45413,Monahan's - Narragansett,1,0,0.27654333333333336,3,3,"NIGHT_CLEAR,CLEAR,CLEAR","Offshore,Offshore,Offshore",3
5842041f4e65fad6a77089ce,2025_02_21,41.469,-71.293,Ruggles - Newport,1,0.21868666666666667,0.6560566666666666,3,3,"NIGHT_CLEAR,CLEAR,CLEAR","Offshore,Offshore,Offshore",3
5842041f4e65fad6a77089cf,2025_02_21,43.175394,-70.606351,Short Sands Beach,0.6666666666666666,0,0.19483333333333333,3.6666666666666665,3.6666666666666665,"NIGHT_CLEAR,CLEAR,CLEAR","Offshore,Offshore,Offshore",3
5842041f4e65fad6a77089d0,2025_02_21,41.487408,-71.29017,First Beach,1,0.11629333333333333,0.5025533333333333,3,3,"NIGHT_CLEAR,CLEAR,CLEAR","Offshore,Offshore,Offshore",3
5842041f4e65fad6a77089d1,2025_02_21,42.27916830233153,-70.86498,Nantasket Beach,0,0,0.22575666666666666,3,2,"NIGHT_CLEAR,CLEAR,CLEAR","Cross-shore,Cross-shore,Cross-shore",3
5842041f4e65fad6a77089d2,2025_02_21,41.817,-69.935,Cape Cod,1,0.5933333333333333,0.8966666666666667,3.3333333333333335,3.3333333333333335,"NIGHT_CLEAR,CLEAR,CLEAR","Offshore,Offshore,Offshore",3
5842041f4e65fad6a77089d3,2025_02_21,42.22055448975661,-70.70634873403819,Egypt Beach,0,0.26666666666666666,0.5733333333333334,3,3,"NIGHT_CLEAR,CLEAR,CLEAR","Offshore,Offshore,Offshore",3
5842041f4e65fad6a77089d4,2025_02_21,41.48739647744607,-71.25723,Second Beach,1,0.12619,0.42711,3,3,"NIGHT_CLEAR,CLEAR,CLEAR","Offshore,Offshore,Cross-shore",3
5842041f4e65fad6a77089d5,2025_02_21,42.964,-70.769,Fox Hill,0.27777777777777773,0,0.21618666666666667,3,3,"NIGHT_CLEAR,CLEAR,CLEAR","Offshore,Offshore,Offshore",3
5842041f4e65fad6a77089d6,2025_02_21,42.991359,-70.75149,Straws Point,0.611111111111111,0,0.2753,3,3,"NIGHT_CLEAR,CLEAR,CLEAR","Offshore,Offshore,Offshore",3
5842041f4e65fad6a77089d7,2025_02_21,42.946,-70.786,Plaice Cove,0.27777777777777773,0,0.21618666666666667,3,3,"NIGHT_CLOUDY,CLEAR,CLEAR","Offshore,Offshore,Offshore",3
5842041f4e65fad6a77089d9,2025_02_21,42.911574,-70.80831,The Main Beach,0.4444444444444444,0,0.17412666666666668,3,3,"NIGHT_CLEAR,CLEAR,CLEAR","Offshore,Offshore,Offshore",3
5842041f4e65fad6a77089da,2025_02_21,42.97583846220203,-70.764,Sawyer's Beach,0.611111111111111,0,0.25141,3,3,"NIGHT_CLEAR,CLEAR,CLEAR","Offshore,Offshore,Offshore",3
5842041f4e65fad6a77089db,2025_02_21,42.97,-70.77,Rye on the Rocks / 5-0's,0.6111111111111112,0.07016666666666667,0.20975,3,3,"NIGHT_CLEAR,CLEAR,CLEAR","Offshore,Offshore,Offshore",3
5842041f4e65fad6a77089dc,2025_02_21,43.55902946610303,-70.27795,Higgins Beach,0.1111111111111111,0,0.13910333333333333,3,3,"NIGHT_CLEAR,CLEAR,CLEAR","Offshore,Offshore,Offshore",3
5842041f4e65fad6a77089dd,2025_02_21,43.302676,-70.5652,Wells Beach,0.27777777777777773,0,0.23752,3,3,"NIGHT_CLEAR,CLEAR,CLEAR","Offshore,Offshore,Offshore",3
5842041f4e65fad6a77089de,2025_02_21,43.545359,-70.30479,Scarborough Beach State Park,0.611111111111111,0,0.25686333333333333,3,3,"NIGHT_CLEAR,CLEAR,CLEAR","Offshore,Offshore,Offshore",3
5842041f4e65fad6a77089df,2025_02_21,43.514481,-70.37215,Old Orchard Beach,0.1111111111111111,0,0.13056666666666666,3,3,"NIGHT_CLEAR,CLEAR,CLEAR","Offshore,Offshore,Offshore",3
5842041f4e65fad6a77089e0,2025_02_21,43.34711,-70.48165,Gooch's Beach,0.1111111111111111,0,0.13531333333333334,3,3,"NIGHT_CLEAR,CLEAR,CLEAR","Offshore,Offshore,Offshore",3
5842041f4e65fad6a77089e2,2025_02_21,40.58433,-73.62953,Lido Beach,0.6111111111111112,0.07931666666666666,0.31628333333333336,4,3,"NIGHT_CLEAR,CLEAR,CLEAR","Offshore,Offshore,Offshore",3
5842041f4e65fad6a77089e3,2025_02_21,43.163135,-70.61689,Long Sands Beach,0.2777777777777778,0,0.16784,3,3,"NIGHT_CLEAR,CLEAR,CLEAR","Offshore,Offshore,Offshore",3
5842041f4e65fad6a77089e4,2025_02_21,40.61695351251805,-73.39376,Gilgo Beach,0.3333333333333333,0.08731333333333333,0.36176,4,2,"NIGHT_CLEAR,CLEAR,CLEAR","Offshore,Cross-shore,Cross-shore",3
5842041f4e65fad6a77089e5,2025_02_21,40.62530081928036,-73.23827,Robert Moses,0,0.15,0.45666666666666667,3.6666666666666665,3.6666666666666665,"NIGHT_CLEAR,CLEAR,CLEAR","Offshore,Offshore,Offshore",3
5842041f4e65fad6a77089e6,2025_02_21,40.64313317632791,-73.15727,Fire Island,0.6666666666666666,0.11333333333333334,0.42,3.6666666666666665,3.6666666666666665,"NIGHT_CLEAR,CLEAR,CLEAR","Offshore,Offshore,Offshore",3
5842041f4e65fad6a77089e8,2025_02_21,40.76653118828782,-72.7458,Cupsogue,1,0.4166666666666667,0.7233333333333333,3.6666666666666665,3.6666666666666665,"NIGHT_CLEAR,CLEAR,CLEAR","Offshore,Offshore,Offshore",3
5842041f4e65fad6a77089e9,2025_02_21,42.9376373334092,-70.79141,The Wall,0.3333333333333333,0,0.21257666666666666,3,3,"NIGHT_CLEAR,CLEAR,CLEAR","Offshore,Offshore,Offshore",3
5842041f4e65fad6a77089ea,2025_02_21,40.887088,-72.33856,Flys,1,0.30333333333333334,0.61,3.6666666666666665,3.6666666666666665,"NIGHT_CLEAR,CLEAR,CLEAR","Offshore,Offshore,Offshore",3
5842041f4e65fad6a77089eb,2025_02_21,41.0389266436591,-71.91068529316958,Trailer Park,1,0.39235333333333333,0.6852633333333333,4,2,"NIGHT_CLEAR,CLEAR,CLEAR","Offshore,Offshore,Offshore",3
5842041f4e65fad6a77089ec,2025_02_21,41.039505402729105,-71.9142,Ditch Plains,1,0.17215666666666665,0.5638166666666666,4,4,"NIGHT_CLEAR,CLEAR,CLEAR","Offshore,Offshore,Offshore",3
5842041f4e65fad6a77089ee,2025_02_21,40.57633275206492,-73.56895305108567,"West End, Jones Beach",0,0.09000000000000001,0.4028,4,3,"NIGHT_CLEAR,CLEAR,CLEAR","Cross-shore,Cross-shore,Cross-shore",3
5842041f4e65fad6a77089f1,2025_02_21,41.038286691230795,-71.91991567611694,Poles,0.888888888888889,0.3538,0.6372266666666667,4,2,"NIGHT_CLEAR,CLEAR,CLEAR","Offshore,Offshore,Offshore",3
5842041f4e65fad6a77089f3,2025_02_21,40.84077769766295,-72.47989493724765,The Bowl,1,0.34,0.6433333333333333,3.6666666666666665,3.6666666666666665,"NIGHT_CLEAR,CLEAR,CLEAR","Offshore,Offshore,Offshore",3
5842041f4e65fad6a77089f4,2025_02_21,40.94235535243154,-72.19286,Main Beach,1,0.31335666666666667,0.6136533333333334,13,11,"NIGHT_CLEAR,CLEAR,CLEAR","Offshore,Offshore,Cross-shore",3
5842041f4e65fad6a77089f5,2025_02_21,40.58270702399518,-73.67251552079799,Laurelton Blvd.,0.5,0.19957333333333335,0.40326,4,3,"NIGHT_CLEAR,CLEAR,CLEAR","Cross-shore,Cross-shore,Cross-shore",3
5842041f4e65fad6a77089f6,2025_02_21,41.033752854071416,-71.93696,Terrace,0.888888888888889,0.30588666666666664,0.6294066666666667,4,2,"NIGHT_CLEAR,CLEAR,CLEAR","Offshore,Offshore,Offshore",3
5842041f4e65fad6a77089f7,2025_02_21,40.83372943645748,-72.50426173210144,K Road,1,0.39999999999999997,0.7066666666666667,3.6666666666666665,3.6666666666666665,"NIGHT_CLEAR,CLEAR,CLEAR","Offshore,Offshore,Offshore",3
5842041f4e65fad6a77089f8,2025_02_21,40.58456099581507,-73.80730032920837,84th Street,0.6111111111111112,0.06106333333333334,0.28979333333333335,4,3,"NIGHT_CLEAR,CLEAR,CLEAR","Offshore,Offshore,Offshore",3
5842041f4e65fad6a77089fa,2025_02_21,40.1319,-74.02788,Sea Girt,0.5,0.05405,0.36682,3,3,"NIGHT_CLEAR,CLEAR,CLEAR","Offshore,Offshore,Offshore",3
5842041f4e65fad6a77089fb,2025_02_21,40.54698301868125,-73.9268,Breezy Point,1,0.03333333333333333,0.32,3.6666666666666665,3.6666666666666665,"NIGHT_CLEAR,CLEAR,CLEAR","Offshore,Offshore,Offshore",3
5842041f4e65fad6a77089fc,2025_02_21,40.152504,-74.02138,Spring Lake,0.5,0.05409666666666667,0.36669666666666667,3,3,"NIGHT_CLEAR,CLEAR,CLEAR","Offshore,Offshore,Offshore",3
5842041f4e65fad6a77089fd,2025_02_21,40.591277,-73.770792,30th - 39th Streets,0.611111111111111,0.01652,0.32648,4,3,"NIGHT_CLEAR,CLEAR,CLEAR","Offshore,Offshore,Offshore",3
5842041f4e65fad6a77089fe,2025_02_21,40.18834955871439,-74.00860982500222,Avon,0.5,0.03342333333333333,0.3473266666666667,3,3,"NIGHT_CLEAR,CLEAR,CLEAR","Offshore,Offshore,Offshore",3
5842041f4e65fad6a77089ff,2025_02_21,40.1974229100932,-74.00650533798255,Bradley Beach,0.8333333333333334,0.051186666666666665,0.37201666666666666,3,3,"NIGHT_CLEAR,CLEAR,CLEAR","Offshore,Offshore,Offshore",3
5842041f4e65fad6a7708a01,2025_02_21,40.17202,-74.01503,"16th Ave., Belmar",0.8333333333333334,0.06261333333333333,0.32992,3,3,"NIGHT_CLEAR,CLEAR,CLEAR","Offshore,Offshore,Offshore",3
5842041f4e65fad6a7708a02,2025_02_21,40.217443,-73.99982,Asbury Park,0.9444444444444444,0.058056666666666666,0.35835666666666666,3,3,"NIGHT_CLEAR,CLEAR,CLEAR","Offshore,Offshore,Offshore",3
5842041f4e65fad6a7708a03,2025_02_21,40.229841,-73.99678,Loch Arbour and Deal,0.5,0.043333333333333335,0.34946666666666665,3,3,"NIGHT_CLEAR,CLEAR,CLEAR","Offshore,Offshore,Offshore",3
5842041f4e65fad6a7708a05,2025_02_21,40.41754,-73.97935,Sandy Hook,0.3333333333333333,0,0.15,3.6666666666666665,3.6666666666666665,"NIGHT_CLEAR,CLEAR,CLEAR","Offshore,Offshore,Offshore",3
5842041f4e65fad6a7708a06,2025_02_21,39.36353,-74.40873,Crystals,0.5,0.06717333333333333,0.3058766666666667,2,2,"NIGHT_CLEAR,CLEAR,CLEAR","Offshore,Offshore,Offshore",3
5842041f4e65fad6a7708a07,2025_02_21,39.31443,-74.51863,32nd Street,0.3333333333333333,0.043506666666666666,0.27709,2,2,"NIGHT_CLEAR,CLEAR,CLEAR","Offshore,Offshore,Offshore",3
5842041f4e65fad6a7708a08,2025_02_21,39.327688,-74.49524,Margate Pier Northside,0.3333333333333333,0.043506666666666666,0.27709,2,2,"NIGHT_CLEAR,CLEAR,CLEAR","Offshore,Offshore,Offshore",3
5842041f4e65fad6a7708a09,2025_02_21,39.336276,-74.47782,Ventnor Pier,0.5,0.19499,0.48924999999999996,2,2,"NIGHT_CLEAR,CLEAR,CLEAR","Offshore,Offshore,Offshore",3
5842041f4e65fad6a7708a0a,2025_02_21,39.35929751441085,-74.41683,States Avenue,0.5,0.06717333333333333,0.3058766666666667,2,2,"NIGHT_CLEAR,CLEAR,CLEAR","Offshore,Offshore,Offshore",3
5842041f4e65fad6a7708a0b,2025_02_21,39.37274173278517,-74.40454,Brigantine Jetty,0.5,0.07125666666666666,0.3972,2,2,"NIGHT_CLEAR,CLEAR,CLEAR","Offshore,Offshore,Offshore",3
5842041f4e65fad6a7708a0c,2025_02_21,39.356505,-74.42263,South Carolina Avenue,0.3333333333333333,0.07125666666666666,0.3083,2,2,"NIGHT_CLEAR,CLEAR,CLEAR","Offshore,Offshore,Offshore",3
5842041f4e65fad6a7708a0d,2025_02_21,39.413485,-74.35476,14th Street North,0.9444444444444444,0.0425,0.34196666666666664,2,2,"NIGHT_CLEAR,CLEAR,CLEAR","Offshore,Offshore,Offshore",3
5842041f4e65fad6a7708a0e,2025_02_21,39.531319,-74.26325,The Wooden Jetty,0.9444444444444444,0.15156666666666666,0.3362833333333333,2,2,"NIGHT_CLEAR,CLEAR,CLEAR","Offshore,Offshore,Offshore",3
5842041f4e65fad6a7708a0f,2025_02_21,39.552472,-74.24344,Holyoke,0.8333333333333334,0.07015666666666667,0.3385,2,2,"NIGHT_CLEAR,CLEAR,CLEAR","Offshore,Offshore,Offshore",3
5842041f4e65fad6a7708a10,2025_02_21,39.692364,-74.14068,Hudson Ave.,0.6111111111111112,0.05655666666666667,0.28113333333333335,2,2,"NIGHT_CLEAR,CLEAR,CLEAR","Offshore,Offshore,Offshore",3
5842041f4e65fad6a7708a11,2025_02_21,39.79614,-74.09248,Island Beach State Park,0.27777777777777773,0.07888666666666666,0.3819666666666667,11,11,"NIGHT_CLEAR,CLEAR,CLEAR","Offshore,Offshore,Offshore",3
5842041f4e65fad6a7708a12,2025_02_21,39.91813588078152,-74.07527,Seaside Park,0.611111111111111,0.050820000000000004,0.38539,11,11,"NIGHT_CLEAR,CLEAR,CLEAR","Offshore,Offshore,Offshore",3
5842041f4e65fad6a7708a15,2025_02_21,39.95745637606704,-74.06736,Ortley Beach,0.611111111111111,0.02994666666666667,0.35975666666666667,3,3,"NIGHT_CLEAR,CLEAR,CLEAR","Offshore,Offshore,Offshore",3
5842041f4e65fad6a7708a16,2025_02_21,39.98313468342945,-74.06265685577506,Lavallette,0.611111111111111,0.035,0.34196666666666664,3,3,"NIGHT_CLEAR,CLEAR,CLEAR","Offshore,Offshore,Offshore",3
5842041f4e65fad6a7708a17,2025_02_21,40.0699319967757,-74.04145,Bay Head,0.16666666666666666,0.046946666666666664,0.35363333333333336,3,3,"NIGHT_CLEAR,CLEAR,CLEAR","Offshore,Offshore,Offshore",3
5842041f4e65fad6a7708a18,2025_02_21,40.094041,-74.034859,Jenkinson's,0.611111111111111,0.049793333333333335,0.36482,3,3,"NIGHT_CLEAR,CLEAR,CLEAR","Offshore,Offshore,Offshore",3
5842041f4e65fad6a7708a1a,2025_02_21,38.148058,-75.17704,Assateague,0.22222222222222218,0.059443333333333334,0.35932,3,3,"NIGHT_CLEAR,CLEAR,CLEAR","Offshore,Offshore,Offshore",3
5842041f4e65fad6a7708a1b,2025_02_21,38.33889038664497,-75.08017670566352,North End to Ocean City Inlet,-0.11111111111111116,0.05207,0.36541333333333337,3,3,"NIGHT_CLEAR,CLEAR,CLEAR","Offshore,Offshore,Offshore",3
5842041f4e65fad6a7708a1c,2025_02_21,38.603993,-75.06271,Indian River Inlet,0.3333333333333333,0.11845333333333333,0.48170999999999997,4.333333333333333,4.333333333333333,"NIGHT_CLEAR,CLEAR,CLEAR","Offshore,Offshore,Offshore",3
5842041f4e65fad6a7708a1d,2025_02_21,38.460477,-75.05207,Fenwick Island,0.3333333333333333,0.1366666666666667,0.44666666666666666,4.333333333333333,4.333333333333333,"NIGHT_CLEAR,CLEAR,CLEAR","Offshore,Offshore,Offshore",3
5842041f4e65fad6a7708a1e,2025_02_21,38.538767,-75.05619,Bethany Beach,0.3333333333333333,0.1176,0.47825,4.333333333333333,4.333333333333333,"NIGHT_CLEAR,CLEAR,CLEAR","Offshore,Offshore,Offshore",3
5842041f4e65fad6a7708a1f,2025_02_21,38.697657,-75.07595,Dewey Beach,0.3333333333333333,0.06999999999999999,0.37333333333333335,4,4,"NIGHT_CLEAR,CLEAR,CLEAR","Offshore,Offshore,Offshore",3
5842041f4e65fad6a7708a20,2025_02_21,38.75034741676525,-75.08194,Gordons Pond,0,0,0.34532666666666667,4,4,"NIGHT_CLEAR,CLEAR,CLEAR","Offshore,Offshore,Offshore",3
5842041f4e65fad6a7708a21,2025_02_21,38.767837,-75.08284,Naval Jetties,0,0.13,0.43333333333333335,4,4,"NIGHT_CLEAR,CLEAR,CLEAR","Cross-shore,Offshore,Offshore",3
5842041f4e65fad6a7708a22,2025_02_21,36.81735875786576,-75.96624,Camp Pendleton,1,0.345,0.65895,6,6,"NIGHT_CLEAR,CLEAR,CLEAR","Offshore,Offshore,Offshore",3
5842041f4e65fad6a7708a23,2025_02_21,36.9102212316428,-75.98732471466064,North End,0,0.052500000000000005,0.35599000000000003,6,5,"NIGHT_CLEAR,CLEAR,CLEAR","Offshore,Offshore,Offshore",3
5842041f4e65fad6a7708a24,2025_02_21,36.737117517621314,-75.93924,Sandbridge Beach,1.3333333333333333,0.2866766666666667,0.60629,6,5,"NIGHT_CLEAR,CLEAR,CLEAR","Offshore,Offshore,Offshore",3
5842041f4e65fad6a7708a26,2025_02_21,36.818257440557794,-75.96666,Croatan to Pendleton,1,0.09862333333333333,0.4095533333333333,6,5,"NIGHT_CLEAR,CLEAR,CLEAR","Offshore,Offshore,Offshore",3
5842041f4e65fad6a7708a27,2025_02_21,36.84318777204769,-75.9719,South End,0.5555555555555555,0.08591333333333334,0.39533999999999997,6,5,"NIGHT_CLEAR,CLEAR,CLEAR","Offshore,Offshore,Offshore",3
5842041f4e65fad6a7708a28,2025_02_21,37.08612627584661,-75.976121638199,Fishermans Island,0.3333333333333333,0.018666666666666668,0.12533333333333332,5.666666666666667,5.666666666666667,"NIGHT_CLEAR,CLEAR,CLEAR","Offshore,Offshore,Offshore",3
5842041f4e65fad6a7708a38,2025_02_21,35.254619418229026,-75.52074,Cape Hatteras Lighthouse,1.277777777777778,0.56416,0.9823966666666666,9,8,"NIGHT_CLEAR,CLEAR,CLEAR","Offshore,Offshore,Offshore",3
5842041f4e65fad6a7708a3a,2025_02_21,35.54572934093336,-75.46477,Waves and Salvo,0.8888888888888888,0.6687766666666667,1.0275666666666665,8,7,"NIGHT_CLEAR,CLEAR,CLEAR","Offshore,Offshore,Offshore",3
5842041f4e65fad6a7708a3b,2025_02_21,35.22565892751075,-75.63606,Frisco,0.6666666666666666,0.36009,0.6425733333333333,10,9,"NIGHT_CLEAR,CLEAR,CLEAR","Offshore,Offshore,Offshore",3
5842041f4e65fad6a7708a3c,2025_02_21,35.13086,-75.90591,Ocracoke,0.3333333333333333,0.05500666666666667,0.38112,13,13,"NIGHT_CLEAR,CLEAR,CLEAR","Offshore,Offshore,Offshore",3
5842041f4e65fad6a7708a3d,2025_02_21,35.34721340158342,-75.50084,Avon Pier,1,0.7267733333333334,1.05395,9,8,"NIGHT_CLEAR,CLEAR,CLEAR","Offshore,Offshore,Offshore",3
5842041f4e65fad6a7708a3f,2025_02_21,35.71680821253768,-75.49243,Pea Island,0.3333333333333333,0.69,0.9933333333333333,9.333333333333334,9.333333333333334,"NIGHT_CLEAR,CLEAR,CLEAR","Cross-shore,Cross-shore,Cross-shore",3
5842041f4e65fad6a7708a40,2025_02_21,35.97427620657821,-75.62984,Nags Head Pier,0.7777777777777778,0.6775333333333333,1.0741566666666666,7,7,"NIGHT_CLEAR,CLEAR,CLEAR","Cross-shore,Cross-shore,Cross-shore",3
5842041f4e65fad6a7708a41,2025_02_21,36.0439998039079,-75.67288,Avalon Pier,0.8888888888888888,0.8164733333333333,1.2369933333333334,7,7,"NIGHT_CLEAR,CLEAR,CLEAR","Offshore,Cross-shore,Cross-shore",3
5842041f4e65fad6a7708a42,2025_02_21,36.03043116489792,-75.66413,First Street,0.7777777777777778,0.6926566666666667,1.10972,7,7,"NIGHT_CLEAR,CLEAR,CLEAR","Offshore,Offshore,Offshore",3
5842041f4e65fad6a7708a43,2025_02_21,36.06829910590498,-75.6899,Old Station/Laundromats,0.8888888888888888,0.6794666666666667,1.1041533333333333,7,7,"NIGHT_CLEAR,CLEAR,CLEAR","Offshore,Offshore,Offshore",3
5842041f4e65fad6a7708a44,2025_02_21,36.10126676607491,-75.71107,Kitty Hawk Pier,0.8888888888888888,0.7309933333333334,1.1484666666666667,7,7,"NIGHT_CLEAR,CLEAR,CLEAR","Offshore,Offshore,Offshore",3
5842041f4e65fad6a7708a45,2025_02_21,36.18220630068973,-75.75014,Duck Pier,0.6666666666666666,0.30333333333333334,0.61,7.333333333333333,7.333333333333333,"NIGHT_CLEAR,CLEAR,CLEAR","Offshore,Offshore,Offshore",3
5842041f4e65fad6a7708a46,2025_02_21,36.37660668125033,-75.8241,Corolla,1,0.5333333333333333,0.84,7,7,"NIGHT_CLEAR,CLEAR,CLEAR","Offshore,Offshore,Offshore",3
5842041f4e65fad6a7708a47,2025_02_21,33.90373404124834,-78.08241431707907,Oak Island,0.6666666666666666,0,0.2,12,12,"NIGHT_CLEAR,CLEAR,CLEAR","Offshore,Offshore,Offshore",3
5842041f4e65fad6a7708a48,2025_02_21,33.91108837766468,-78.29653,South Brunswick Beaches,0.6666666666666666,0,0.17059333333333335,11.666666666666666,11.666666666666666,"NIGHT_CLEAR,CLEAR,CLEAR","Offshore,Offshore,Offshore",3
5842041f4e65fad6a7708a49,2025_02_21,34.05683595651973,-77.88128,Carolina Beach Pier,0.7222222222222222,0.43956,0.8417266666666666,11,11,"NIGHT_CLEAR,CLEAR,CLEAR","Offshore,Offshore,Offshore",3
5842041f4e65fad6a7708a4a,2025_02_21,33.96841191816696,-77.9180242565498,Fort Fisher,0.6111111111111112,0.04722333333333333,0.35669,11,11,"NIGHT_CLEAR,CLEAR,CLEAR","Offshore,Offshore,Offshore",3
5842041f4e65fad6a7708a4b,2025_02_21,34.46776662988774,-77.47083,Topsail Beach,0.611111111111111,0.033889999999999997,0.33863333333333334,11,10,"NIGHT_CLEAR,CLEAR,CLEAR","Offshore,Offshore,Offshore",3
5842041f4e65fad6a7708a4c,2025_02_21,34.69270354752445,-76.82854854446575,Iron Steamer,0.3333333333333333,0.023333333333333334,0.22056666666666666,11,10,"NIGHT_CLEAR,CLEAR,CLEAR","Offshore,Offshore,Offshore",3
5842041f4e65fad6a7708a4f,2025_02_21,30.85132684893727,-81.42283496231143,Cumberland Island,1,0.68,0.98,15,15,"NIGHT_CLEAR,CLEAR,CLEAR","Offshore,Cross-shore,Cross-shore",3
5842041f4e65fad6a7708a50,2025_02_21,34.686741128540874,-76.47516712138378,Cape Lookout National Seashore,1,0.20333333333333334,0.51,14.333333333333334,14.333333333333334,"NIGHT_CLEAR,CLEAR,CLEAR","Offshore,Offshore,Offshore",3
5842041f4e65fad6a7708a51,2025_02_21,31.10585419260024,-81.40422767604812,Jekyll Island,1,0.5,0.8033333333333333,14.333333333333334,14.333333333333334,"NIGHT_CLEAR,CLEAR,CLEAR","Cross-shore,Cross-shore,Onshore",3
5842041f4e65fad6a7708a52,2025_02_21,31.16212806376699,-81.32512426500224,Harbor Marker Buoys,1,0.43333333333333335,0.7366666666666667,14,14,"NIGHT_CLEAR,CLEAR,CLEAR","Offshore,Cross-shore,Cross-shore",3
5842041f4e65fad6a7708a53,2025_02_21,31.20076299997009,-81.32629,Sea Island,1,0.6166666666666667,0.9266666666666666,14,14,"NIGHT_CLEAR,CLEAR,CLEAR","Offshore,Offshore,Cross-shore",3
5842041f4e65fad6a7708a54,2025_02_21,31.13553222995767,-81.38457634790909,St. Simons Island,2,0.5166666666666666,0.82,14,14,"NIGHT_CLEAR,CLEAR,CLEAR","Offshore,Offshore,Offshore",3
5842041f4e65fad6a7708a55,2025_02_21,31.33550077186516,-81.28383377408417,Wolf Island,1,0.4033333333333333,0.71,14,14,"NIGHT_CLEAR,CLEAR,CLEAR","Cross-shore,Cross-shore,Cross-shore",3
5842041f4e65fad6a7708a56,2025_02_21,31.2704493877174,-81.27324039152315,Little St. Simons Island,0.3333333333333333,0.5933333333333334,0.8966666666666666,14,14,"NIGHT_CLEAR,CLEAR,CLEAR","Cross-shore,Cross-shore,Cross-shore",3
5842041f4e65fad6a7708a57,2025_02_21,31.39261761368919,-81.26190520231917,Sapelo Island,1.6666666666666667,0.4533333333333333,0.76,14,14,"NIGHT_CLEAR,CLEAR,CLEAR","Offshore,Cross-shore,Cross-shore",3
5842041f4e65fad6a7708a58,2025_02_21,34.42458783809001,-77.54492,Surf City Pier,1,0.03722333333333333,0.3391866666666667,10,9,"NIGHT_CLEAR,CLEAR,CLEAR","Offshore,Offshore,Offshore",3
5842041f4e65fad6a7708a59,2025_02_21,31.4231993614213,-81.24725340591522,Cabretta Island,2,0.4633333333333333,0.7733333333333333,14,14,"NIGHT_CLEAR,CLEAR,CLEAR","Offshore,Offshore,Cross-shore",3
5842041f4e65fad6a7708a5a,2025_02_21,31.46684389030369,-81.2100056410468,Blackbeard Island,1.6666666666666667,0.4533333333333333,0.76,14,14,"NIGHT_CLEAR,CLEAR,CLEAR","Offshore,Offshore,Cross-shore",3
5842041f4e65fad6a7708a5b,2025_02_21,31.85953587631629,-80.99031310336719,Wassaw Island/South End,1,0.05,0.3566666666666667,13,13,"NIGHT_CLEAR,CLEAR,CLEAR","Offshore,Offshore,Offshore",3
5842041f4e65fad6a7708a5c,2025_02_21,31.62535662342983,-81.13328352167974,St. Catherines Island,1,0.5266666666666667,0.8333333333333334,13.333333333333334,13.333333333333334,"NIGHT_CLEAR,CLEAR,CLEAR","Cross-shore,Cross-shore,Cross-shore",3
5842041f4e65fad6a7708a5d,2025_02_21,31.76502169596568,-81.07655443806622,Ossabaw Island,1.3333333333333333,0.5033333333333334,0.8133333333333334,13,13,"NIGHT_CLEAR,CLEAR,CLEAR","Offshore,Cross-shore,Cross-shore",3
5842041f4e65fad6a7708a5e,2025_02_21,31.90593619092352,-80.93589231700857,Wassaw Island/North End,2,0.45666666666666667,0.76,13,13,"NIGHT_CLEAR,CLEAR,CLEAR","Offshore,Offshore,Offshore",3
5842041f4e65fad6a7708a5f,2025_02_21,31.96738675414547,-80.86977980706155,Little Tybee Island,1,0.35333333333333333,0.6633333333333333,13,13,"NIGHT_CLEAR,CLEAR,CLEAR","Offshore,Offshore,Offshore",3
5842041f4e65fad6a7708a60,2025_02_21,31.9812255780179,-80.84773973467009,South Tybee Sandbars,1,0.35,0.6533333333333333,13,13,"NIGHT_CLEAR,CLEAR,CLEAR","Cross-shore,Cross-shore,Cross-shore",3
5842041f4e65fad6a7708a61,2025_02_21,32.01226,-80.83983,Sugar Shack,1,0.31333333333333335,0.62,13,13,"NIGHT_CLEAR,CLEAR,CLEAR","Onshore,Onshore,Onshore",3
5842041f4e65fad6a7708a62,2025_02_21,31.98722842396969,-80.84773,18th St. Jetty,1,0.39663000000000004,0.7765633333333333,13,13,"NIGHT_CLEAR,CLEAR,CLEAR","Cross-shore,Cross-shore,Cross-shore",3
5842041f4e65fad6a7708a64,2025_02_21,34.013473721006676,-77.8991,"Alabama Ave., Kure Beach",1.3333333333333333,0.40834666666666664,0.7112066666666667,11.333333333333334,11.333333333333334,"NIGHT_CLEAR,CLEAR,CLEAR","Offshore,Cross-shore,Offshore",3
5842041f4e65fad6a7708a65,2025_02_21,34.20859853336924,-77.79293,"C Street, Wrightsville Beach",0.8333333333333334,0.03722333333333334,0.34335333333333334,11,11,"NIGHT_CLEAR,CLEAR,CLEAR","Offshore,Offshore,Offshore",3
5842041f4e65fad6a7708a66,2025_02_21,32.831,-79.71,Dewees Island,1.3333333333333333,0.13666666666666666,0.44,13,13,"NIGHT_CLEAR,CLEAR,CLEAR","Cross-shore,Cross-shore,Offshore",3
5842041f4e65fad6a7708a67,2025_02_21,33.82924423172106,-78.62813,Cherry Grove Pier,1,-0.0034733333333333335,0.2787233333333333,11.666666666666666,11.666666666666666,"NIGHT_CLEAR,CLEAR,CLEAR","Offshore,Offshore,Offshore",3
5842041f4e65fad6a7708a69,2025_02_21,34.27197439666496,-77.74050223196774,Figure Eight and Shell Islands,0.8333333333333334,0.05611000000000001,0.35252333333333336,11,11,"NIGHT_CLEAR,CLEAR,CLEAR","Offshore,Offshore,Offshore",3
5842041f4e65fad6a7708a6b,2025_02_21,33.49041958261793,-79.07666070599386,North End,1,0.006666666666666667,0.27,12,12,"NIGHT_CLEAR,CLEAR,CLEAR","Offshore,Offshore,Offshore",3
5842041f4e65fad6a7708a6c,2025_02_21,33.39537062495087,-79.13835037835189,The South End,1,0.01,0.27666666666666667,12,12,"NIGHT_CLEAR,CLEAR,CLEAR","Offshore,Offshore,Offshore",3
5842041f4e65fad6a7708a6d,2025_02_21,33.29001727666697,-79.17190003352977,North Island,1,0.1366666666666667,0.44333333333333336,12,12,"NIGHT_CLEAR,CLEAR,CLEAR","Offshore,Cross-shore,Offshore",3
5842041f4e65fad6a7708a6e,2025_02_21,32.90929771158952,-79.57810400297359,Bull Island,1,0.12666666666666668,0.43666666666666665,13,13,"NIGHT_CLEAR,CLEAR,CLEAR","Offshore,Offshore,Offshore",3
5842041f4e65fad6a7708a6f,2025_02_21,31.99153112815895,-80.84543050470074,Tybee Island Pier,1,0.06333333333333334,0.36666666666666664,13,13,"NIGHT_CLEAR,CLEAR,CLEAR","Cross-shore,Cross-shore,Cross-shore",3
5842041f4e65fad6a7708a70,2025_02_21,33.03478144356316,-79.35021028265125,Cape Romain,1,0.24,0.5433333333333333,13,13,"NIGHT_CLEAR,CLEAR,CLEAR","Offshore,Offshore,Offshore",3
5842041f4e65fad6a7708a71,2025_02_21,33.43231073271028,-79.11789,The Pier,0.6666666666666666,0.00827,0.35151666666666664,12,12,"NIGHT_CLEAR,CLEAR,CLEAR","Offshore,Offshore,Offshore",3
5842041f4e65fad6a7708a72,2025_02_21,33.45423621397969,-79.10497798178424,South Litchfield,1,0.04,0.3333333333333333,12,12,"NIGHT_CLEAR,CLEAR,CLEAR","Offshore,Offshore,Offshore",3
5842041f4e65fad6a7708a73,2025_02_21,34.19316590251396,-77.8045,Crystal Pier,0.8333333333333334,0.17528000000000002,0.47014666666666666,11,11,"NIGHT_CLEAR,CLEAR,CLEAR","Offshore,Offshore,Offshore",3
5842041f4e65fad6a7708a74,2025_02_21,33.68628680045124,-78.88346,Myrtle Beach,1,0.02,0.2866666666666667,11.666666666666666,11.666666666666666,"NIGHT_CLEAR,CLEAR,CLEAR","Offshore,Offshore,Offshore",3
5842041f4e65fad6a7708a75,2025_02_21,32.66166297145973,-79.91951806398808,10th Street,1,0.15150666666666668,0.46829333333333334,13,13,"NIGHT_CLEAR,CLEAR,CLEAR","Offshore,Offshore,Offshore",3
5842041f4e65fad6a7708a76,2025_02_21,33.16729555197199,-79.19829236867845,South Island,1,0.25333333333333335,0.5599999999999999,12.333333333333334,12.333333333333334,"NIGHT_CLEAR,CLEAR,CLEAR","Offshore,Cross-shore,Offshore",3
5842041f4e65fad6a7708a77,2025_02_21,32.595,-80.088,Kiawah Island/Seabrook Island,1,0.04,0.33666666666666667,12.666666666666666,12.666666666666666,"NIGHT_CLEAR,CLEAR,CLEAR","Offshore,Offshore,Offshore",3
5842041f4e65fad6a7708a78,2025_02_21,32.51356930575787,-80.28223,Edisto Beach,1,0.013266666666666668,0.3758866666666667,12.333333333333334,12.333333333333334,"NIGHT_CLEAR,CLEAR,CLEAR","Offshore,Offshore,Offshore",3
5842041f4e65fad6a7708a79,2025_02_21,32.366270751262,-80.43911,Hunting Island,1,0.2889333333333333,0.66867,12.333333333333334,12.333333333333334,"NIGHT_CLEAR,CLEAR,CLEAR","Cross-shore,Cross-shore,Cross-shore",3
5842041f4e65fad6a7708a7a,2025_02_21,32.65337734408365,-79.93983,Folly Beach Pier,1,0.08952666666666667,0.40287,13,13,"NIGHT_CLEAR,CLEAR,CLEAR","Offshore,Offshore,Offshore",3
5842041f4e65fad6a7708a7b,2025_02_21,33.41209545530049,-79.13026341393126,South Jetty,0.6666666666666666,0.01,0.27666666666666667,12,12,"NIGHT_CLEAR,CLEAR,CLEAR","Offshore,Offshore,Offshore",3
5842041f4e65fad6a7708a7c,2025_02_21,32.31115640606869,-80.48564,Fripp Island,1,0.06500666666666666,0.45071333333333335,12.333333333333334,12.333333333333334,"NIGHT_CLEAR,CLEAR,CLEAR","Offshore,Offshore,Offshore",3
5842041f4e65fad6a7708a7d,2025_02_21,32.14365226036034,-80.74402,Hilton Head Island,1,0,0.19333333333333333,13,13,"NIGHT_CLEAR,CLEAR,CLEAR","Offshore,Offshore,Offshore",3
5842041f4e65fad6a7708a7e,2025_02_21,29.70405364733744,-81.22426,Matanzas Inlet,0.5,0.5047999999999999,0.8540266666666667,18,17,"NIGHT_MOSTLY_CLOUDY,OVERCAST,OVERCAST","Cross-shore,Onshore,Cross-shore",3
5842041f4e65fad6a7708a81,2025_02_21,29.76878537149042,-81.25109,Crescent Beach,0,0.62,0.92,16,16,"NIGHT_MOSTLY_CLOUDY,OVERCAST,MOSTLY_CLOUDY","Cross-shore,Onshore,Cross-shore",3
5842041f4e65fad6a7708a82,2025_02_21,32.80251718689188,-79.73221919500764,Wild Dunes,1.3333333333333333,0.11666666666666667,0.42,13,13,"NIGHT_CLEAR,CLEAR,CLEAR","Offshore,Offshore,Offshore",3
5842041f4e65fad6a7708a84,2025_02_21,32.75733539419244,-79.83258856064796,Bert's Bar,1,0.01,0.2866666666666667,13,13,"NIGHT_CLEAR,CLEAR,CLEAR","Offshore,Offshore,Offshore",3
5842041f4e65fad6a7708a85,2025_02_21,32.66829212943039,-79.90735,Washout,0.8333333333333334,0.06228,0.3698033333333333,12,11,"NIGHT_CLEAR,CLEAR,CLEAR","Offshore,Offshore,Offshore",3
5842041f4e65fad6a7708a86,2025_02_21,32.78452968219067,-79.7854,The Pier/Windjammer,1,0.14,0.44666666666666666,13,13,"NIGHT_CLEAR,CLEAR,CLEAR","Offshore,Offshore,Offshore",3
5842041f4e65fad6a7708a87,2025_02_21,29.86618162637438,-81.2662150259608,Anastasia Park (The Entrance),0,0.6233333333333333,0.9299999999999999,16,16,"NIGHT_MOSTLY_CLOUDY,CLOUDY,MOSTLY_CLOUDY","Cross-shore,Onshore,Cross-shore",3
5842041f4e65fad6a7708a89,2025_02_21,29.89149785916623,-81.2723223244215,Blowholes,0,0.43501999999999996,0.7411533333333333,23,22,"NIGHT_MOSTLY_CLOUDY,CLOUDY,MOSTLY_CLOUDY","Cross-shore,Onshore,Cross-shore",3
5842041f4e65fad6a7708a8a,2025_02_21,30.16227112983666,-81.35502907491218,Crossroads,0.1111111111111111,0.5447466666666667,0.8450433333333334,23,22,"NIGHT_BRIEF_SHOWERS,CLEAR,MOSTLY_CLOUDY","Cross-shore,Cross-shore,Cross-shore",3
5842041f4e65fad6a7708a8b,2025_02_21,30.19308537587637,-81.36314247820911,Sawgrass,0.1111111111111111,0.5408566666666667,0.8472666666666666,23,22,"NIGHT_BRIEF_SHOWERS,CLEAR,MOSTLY_CLOUDY","Cross-shore,Cross-shore,Cross-shore",3
5842041f4e65fad6a7708a8c,2025_02_21,30.34696027700899,-81.39451,18th Street,0.6666666666666666,0.5940666666666666,1.0266,15,15,"NIGHT_CLEAR,CLEAR,MOSTLY_CLOUDY","Offshore,Onshore,Cross-shore",3
5842041f4e65fad6a7708a8d,2025_02_21,30.381793,-81.39686,Mayport Poles,1,0.7766666666666666,1.0833333333333333,15,15,"NIGHT_MOSTLY_CLOUDY,CLEAR,MOSTLY_CLOUDY","Cross-shore,Cross-shore,Cross-shore",3
5842041f4e65fad6a7708a8e,2025_02_21,30.390516,-81.395591,Blue Roofs,1,0.6333333333333333,0.9400000000000001,15,15,"NIGHT_MOSTLY_CLOUDY,CLEAR,MOSTLY_CLOUDY","Cross-shore,Cross-shore,Cross-shore",3
5842041f4e65fad6a7708a8f,2025_02_21,30.40517712722211,-81.40074116169004,Huguenot Park (North Jetty),1,0.8066666666666666,1.1099999999999999,15,15,"NIGHT_MOSTLY_CLOUDY,CLEAR,MOSTLY_CLOUDY","Cross-shore,Onshore,Onshore",3
5842041f4e65fad6a7708a90,2025_02_21,30.47788918872762,-81.41056,Talbot Island,0.5,0.8502133333333333,1.09798,17,17,"NIGHT_CLEAR,CLEAR,MOSTLY_CLOUDY","Cross-shore,Cross-shore,Cross-shore",3
5842041f4e65fad6a7708a91,2025_02_21,30.66753984549761,-81.42983,Main Beach,1,0.5933333333333334,0.8966666666666667,15,15,"NIGHT_CLEAR,CLEAR,MOSTLY_CLEAR","Cross-shore,Cross-shore,Cross-shore",3
5842041f4e65fad6a7708a92,2025_02_21,30.69983581209126,-81.42483,Ft. Clinch State Park,0.3333333333333333,0.67,0.9766666666666667,15,15,"NIGHT_CLEAR,CLEAR,CLEAR","Cross-shore,Cross-shore,Cross-shore",3
5842041f4e65fad6a7708a93,2025_02_21,30.62059700777582,-81.43725,Amelia Pier,0.6666666666666666,0.5233333333333333,0.8266666666666667,15,15,"NIGHT_MOSTLY_CLEAR,CLEAR,CLEAR","Cross-shore,Cross-shore,Cross-shore",3
5842041f4e65fad6a7708a95,2025_02_21,28.95125170929067,-80.83837,Bethune Beach,0,0.7,1.0066666666666666,19,19,"NIGHT_MOSTLY_CLOUDY,OVERCAST,OVERCAST","Cross-shore,Onshore,Cross-shore",3
5842041f4e65fad6a7708a96,2025_02_21,29.03874288905362,-80.8933424949646,Flagler Ave.,0.3888888888888889,0.8112366666666666,1.1297166666666667,23,22,"NIGHT_OVERCAST,CLOUDY,OVERCAST","Cross-shore,Onshore,Cross-shore",3
5842041f4e65fad6a7708a98,2025_02_21,30.332297686992757,-81.39319,Atlantic Beach,0.6666666666666666,0.68337,1.1195633333333335,15,15,"NIGHT_CLEAR,CLEAR,MOSTLY_CLOUDY","Cross-shore,Onshore,Onshore",3
5842041f4e65fad6a7708a99,2025_02_21,29.87530059952514,-81.26757958498874,Middles,0,0.4183566666666667,0.7181,23,22,"NIGHT_MOSTLY_CLOUDY,CLOUDY,MOSTLY_CLOUDY","Cross-shore,Onshore,Cross-shore",3
5842041f4e65fad6a7708a9a,2025_02_21,29.146475528378218,-80.96347,Sunglow Pier,0,0.66,0.9633333333333333,18,18,"NIGHT_MOSTLY_CLOUDY,OVERCAST,OVERCAST","Cross-shore,Onshore,Cross-shore",3
5842041f4e65fad6a7708a9b,2025_02_21,30.02251238001095,-81.32183077344881,Gate Station,0.3333333333333333,0.41641333333333336,0.7197666666666667,23,22,"NIGHT_BRIEF_SHOWERS,MOSTLY_CLOUDY,MOSTLY_CLOUDY","Cross-shore,Cross-shore,Cross-shore",3
5842041f4e65fad6a7708a9c,2025_02_21,29.33976495417899,-81.0606,Bicentennial Park,0,0.64,0.9433333333333332,17,17,"NIGHT_MOSTLY_CLOUDY,OVERCAST,CLOUDY","Cross-shore,Onshore,Cross-shore",3
5842041f4e65fad6a7708a9d,2025_02_21,29.08257353385602,-80.92137,Ponce Inlet,0.3888888888888889,0.94699,1.40109,18,18,"NIGHT_MOSTLY_CLOUDY,OVERCAST,OVERCAST","Cross-shore,Onshore,Cross-shore",3
5842041f4e65fad6a7708a9f,2025_02_21,27.862962005874696,-80.44668,Sebastian Inlet,0.3888888888888889,0.9392466666666667,1.32483,22.666666666666668,22.333333333333332,"NIGHT_OVERCAST,MOSTLY_CLOUDY,DRIZZLE","Cross-shore,Onshore,Onshore",3
5842041f4e65fad6a7708aa0,2025_02_21,30.292626880836885,-81.38579,Jacksonville Beach Pier,1.3333333333333333,0.8517333333333333,1.1578666666666666,17,17,"NIGHT_MOSTLY_CLOUDY,CLEAR,MOSTLY_CLOUDY","Cross-shore,Cross-shore,Cross-shore",3
5842041f4e65fad6a7708aa2,2025_02_21,29.21860397328164,-81.0019,Daytona Beach,0,0.6266666666666667,0.9333333333333333,18,18,"NIGHT_MOSTLY_CLOUDY,OVERCAST,OVERCAST","Cross-shore,Onshore,Cross-shore",3
5842041f4e65fad6a7708aa3,2025_02_21,27.47531255634912,-80.28914,Ft. Pierce Inlet,1.1111111111111112,0.8331333333333333,1.2903766666666665,23.666666666666668,23,"NIGHT_DRIZZLE,MOSTLY_CLOUDY,OVERCAST","Cross-shore,Cross-shore,Cross-shore",3
5842041f4e65fad6a7708aa4,2025_02_21,29.29239875585548,-81.0386,Ormond Beach,0,0.7333333333333333,1.0366666666666666,17,17,"NIGHT_MOSTLY_CLOUDY,OVERCAST,OVERCAST","Cross-shore,Onshore,Cross-shore",3
5842041f4e65fad6a7708aa5,2025_02_21,29.91629441498523,-81.28801,Vilano,0,0.65,0.9566666666666667,16,16,"NIGHT_BRIEF_SHOWERS,CLOUDY,BRIEF_SHOWERS","Cross-shore,Onshore,Cross-shore",3
5842041f4e65fad6a7708aa6,2025_02_21,27.876230736320828,-80.4551,Spanish House,0.3888888888888889,0.9792933333333333,1.4351,21.666666666666668,21.666666666666668,"NIGHT_OVERCAST,MOSTLY_CLOUDY,LIGHT_RAIN","Cross-shore,Onshore,Onshore",3
5842041f4e65fad6a7708aa7,2025_02_21,28.64397251741012,-80.62329,Playalinda,0,0.7266666666666667,1.0333333333333334,20,20,"NIGHT_CLEAR,MOSTLY_CLOUDY,CLOUDY","Cross-shore,Cross-shore,Cross-shore",3
5842041f4e65fad6a7708aa8,2025_02_21,28.406142,-80.58886,Jetty Park,1,0.17616666666666667,0.4932666666666667,21,21,"NIGHT_CLEAR,OVERCAST,MOSTLY_CLOUDY","Offshore,Cross-shore,Cross-shore",3
5842041f4e65fad6a7708aa9,2025_02_21,28.49083243010974,-80.58001715986319,Kennedy Space Center,1,0.7266666666666667,1.03,21,21,"NIGHT_CLEAR,MOSTLY_CLOUDY,BRIEF_SHOWERS","Cross-shore,Onshore,Onshore",3
5842041f4e65fad6a7708aab,2025_02_21,28.336757013024314,-80.60568,Lori Wilson Park,1.1666666666666667,0.5146933333333333,0.9121699999999999,20.333333333333332,20,"NIGHT_CLEAR,OVERCAST,MOSTLY_CLOUDY","Cross-shore,Cross-shore,Cross-shore",3
5842041f4e65fad6a7708aad,2025_02_21,27.76388821683801,-80.3962958234027,Wabasso,0.3333333333333333,1.0233333333333334,1.3266666666666667,23,23,"NIGHT_LIGHT_RAIN,BRIEF_SHOWERS,LIGHT_RAIN","Cross-shore,Cross-shore,Cross-shore",3
5842041f4e65fad6a7708aae,2025_02_21,27.521583322459,-80.30987620353699,P.V. Martin's,0.3888888888888889,0.9739533333333333,1.4097233333333334,22.666666666666668,22.666666666666668,"NIGHT_OVERCAST,BRIEF_SHOWERS,OVERCAST","Cross-shore,Cross-shore,Cross-shore",3
5842041f4e65fad6a7708aaf,2025_02_21,27.644996047720046,-80.35242676734924,Riomar,0.3888888888888889,0.9792333333333334,1.4116666666666666,22.666666666666668,22.666666666666668,"NIGHT_OVERCAST,MOSTLY_CLOUDY,CLOUDY","Cross-shore,Cross-shore,Cross-shore",3
5842041f4e65fad6a7708ab1,2025_02_21,27.670121806659253,-80.36026954650879,Vero Pier,1.3333333333333333,0.9964566666666667,1.4383333333333332,22.666666666666668,22.666666666666668,"NIGHT_OVERCAST,BRIEF_SHOWERS,LIGHT_RAIN","Cross-shore,Cross-shore,Cross-shore",3
5842041f4e65fad6a7708ab2,2025_02_21,28.047705032021486,-80.54680109024048,Spessard Holland,0.9444444444444444,0.9907166666666667,1.3289366666666667,21.666666666666668,21.333333333333332,"NIGHT_CLOUDY,DRIZZLE,CLOUDY","Cross-shore,Cross-shore,Onshore",3
5842041f4e65fad6a7708ab7,2025_02_21,28.135426226217064,-80.57895541191101,The Radisson,0,0.8611,1.1917333333333333,22,22,"NIGHT_CLOUDY,MOSTLY_CLOUDY,LIGHT_RAIN","Cross-shore,Cross-shore,Cross-shore",3
5842041f4e65fad6a7708ab8,2025_02_21,28.26664623907351,-80.60448,Picnic Tables,0.3333333333333333,0.6266666666666666,0.9266666666666666,21,21,"NIGHT_MOSTLY_CLOUDY,BRIEF_SHOWERS,OVERCAST","Cross-shore,Cross-shore,Cross-shore",3
5842041f4e65fad6a7708ab9,2025_02_21,28.200840983180232,-80.59493,Perkins,0,0.7274166666666667,1.0535,22,22,"NIGHT_MOSTLY_CLOUDY,MOSTLY_CLOUDY,OVERCAST","Cross-shore,Cross-shore,Cross-shore",3
5842041f4e65fad6a7708aba,2025_02_21,28.185652556759443,-80.59154,RC's,0,0.8134166666666667,1.1395,22,22,"NIGHT_MOSTLY_CLOUDY,MOSTLY_CLOUDY,OVERCAST","Cross-shore,Cross-shore,Cross-shore",3
5842041f4e65fad6a7708abc,2025_02_21,28.252541991968208,-80.60269,2nd Light,0,0.6233333333333333,0.9266666666666666,21,21,"NIGHT_MOSTLY_CLOUDY,BRIEF_SHOWERS,OVERCAST","Cross-shore,Cross-shore,Cross-shore",3
5842041f4e65fad6a7708abd,2025_02_21,27.901611308716447,-80.4697,Bonsteel Park,0.3888888888888889,1.0050533333333334,1.4577933333333333,21.666666666666668,21.666666666666668,"NIGHT_OVERCAST,MOSTLY_CLOUDY,CLEAR","Cross-shore,Onshore,Onshore",3
5842041f4e65fad6a7708abe,2025_02_21,28.2423394657007,-80.60104,Hangar's Beach,0.3333333333333333,0.8133333333333334,1.07,21.333333333333332,21.333333333333332,"NIGHT_MOSTLY_CLOUDY,MOSTLY_CLOUDY,OVERCAST","Cross-shore,Cross-shore,Cross-shore",3
5842041f4e65fad6a7708abf,2025_02_21,27.34018197146798,-80.23278,Walton Rocks,0.5,0.94229,1.2517566666666666,23.333333333333332,23,"NIGHT_DRIZZLE,MOSTLY_CLOUDY,BRIEF_SHOWERS","Cross-shore,Cross-shore,Onshore",3
5842041f4e65fad6a7708ac0,2025_02_21,25.80407401902198,-80.1222227290161,30th Street,0.3333333333333333,0.21907,0.5726566666666667,25,25,"NIGHT_MOSTLY_CLEAR,MOSTLY_CLOUDY,CLEAR","Cross-shore,Cross-shore,Cross-shore",3
5842041f4e65fad6a7708ac1,2025_02_21,25.76570280215999,-80.12983,South Beach,1.0555555555555556,0.5074033333333333,0.8754966666666667,24,23,"NIGHT_CLEAR,CLEAR,CLEAR","Cross-shore,Cross-shore,Cross-shore",3
5842041f4e65fad6a7708ac2,2025_02_21,26.058022412197,-80.10873562327671,Dania Pier,0.6666666666666666,0.27,0.5733333333333334,25,25,"NIGHT_SHOWERS,MOSTLY_CLOUDY,CLEAR","Offshore,Cross-shore,Cross-shore",3
5842041f4e65fad6a7708ac3,2025_02_21,26.04825428257198,-80.11153150137932,Franklin Street,0.6666666666666666,0.63,0.9366666666666666,25,25,"NIGHT_SHOWERS,MOSTLY_CLOUDY,CLEAR","Offshore,Cross-shore,Cross-shore",3
5842041f4e65fad6a7708ac4,2025_02_21,26.09086461141498,-80.10728410144065,John Lloyd State Park,0.6666666666666666,0.62,0.9233333333333333,25,25,"NIGHT_CLEAR,MOSTLY_CLOUDY,CLEAR","Offshore,Cross-shore,Cross-shore",3
5842041f4e65fad6a7708ac5,2025_02_21,26.0971397396683,-80.10298876028907,Spoils,1,0.31,0.61,25,25,"NIGHT_CLEAR,CLEAR,MOSTLY_CLEAR","Offshore,Cross-shore,Cross-shore",3
5842041f4e65fad6a7708ac6,2025_02_21,26.18920557475824,-80.09224,Commercial Pier,0.6666666666666666,0.3666666666666667,0.6666666666666666,25,25,"NIGHT_CLEAR,CLEAR,SHOWERS","Cross-shore,Cross-shore,Cross-shore",3
5842041f4e65fad6a7708ac7,2025_02_21,28.289851576629342,-80.6063,16th St. South,0.3333333333333333,0.43283,0.8237933333333334,23.666666666666668,23.333333333333332,"NIGHT_MOSTLY_CLOUDY,OVERCAST,MOSTLY_CLOUDY","Cross-shore,Cross-shore,Cross-shore",3
5842041f4e65fad6a7708ac8,2025_02_21,26.23467460139735,-80.0874,Pompano Pier,1,0.42350666666666664,0.7300033333333333,25,25,"NIGHT_MOSTLY_CLOUDY,BRIEF_SHOWERS,BRIEF_SHOWERS","Offshore,Cross-shore,Offshore",3
5842041f4e65fad6a7708acb,2025_02_21,26.44179551370651,-80.05928855229453,Atlantic Dunes Park,0.8888888888888888,0.5017833333333332,0.7561533333333333,24,22,"NIGHT_LIGHT_RAIN,MOSTLY_CLOUDY,MOSTLY_CLOUDY","Offshore,Cross-shore,Offshore",3
5842041f4e65fad6a7708acd,2025_02_21,26.62215707439298,-80.03599398392342,Hilton Hotel Backyard,1.1666666666666667,0.7814833333333333,1.1055633333333335,23,22,"NIGHT_BRIEF_SHOWERS,CLEAR,MOSTLY_CLOUDY","Cross-shore,Cross-shore,Cross-shore",3
5842041f4e65fad6a7708ace,2025_02_21,26.96418190555367,-80.07769168113562,Coral Cove Park,0.3888888888888889,0.9179,1.3162666666666667,23,22.666666666666668,"NIGHT_MOSTLY_CLOUDY,CLEAR,MOSTLY_CLOUDY","Cross-shore,Cross-shore,Onshore",3
5842041f4e65fad6a7708acf,2025_02_21,26.7029496416037,-80.03184,Palm Beach,1.1666666666666667,0.7222666666666666,1.0406233333333335,23,22,"NIGHT_MOSTLY_CLOUDY,BRIEF_SHOWERS,MOSTLY_CLOUDY","Offshore,Offshore,Onshore",3
5842041f4e65fad6a7708ad0,2025_02_21,26.97679878167375,-80.08141631388132,Blowing Rocks,0.5,0.9262333333333334,1.3182133333333335,23,22.666666666666668,"NIGHT_MOSTLY_CLOUDY,MOSTLY_CLOUDY,MOSTLY_CLOUDY","Cross-shore,Cross-shore,Onshore",3
5842041f4e65fad6a7708ad2,2025_02_21,26.45661880078336,-80.057,Delray Beach,1.0555555555555556,0.5858366666666667,0.89856,24,22,"NIGHT_LIGHT_RAIN,MOSTLY_CLOUDY,MOSTLY_CLOUDY","Cross-shore,Offshore,Cross-shore",3
5842041f4e65fad6a7708ad3,2025_02_21,27.205685534312778,-80.16826629638672,Fletcher's,0.5555555555555556,0.8648433333333333,1.2565433333333333,23,22.666666666666668,"NIGHT_MOSTLY_CLOUDY,CLOUDY,MOSTLY_CLOUDY","Onshore,Cross-shore,Onshore",3
5842041f4e65fad6a7708ad5,2025_02_21,26.5848450388814,-80.03649735753257,Lantana Public Beach,1,0.82592,1.1435266666666668,23,22,"NIGHT_BRIEF_SHOWERS,CLEAR,MOSTLY_CLOUDY","Cross-shore,Cross-shore,Cross-shore",3
5842041f4e65fad6a7708ad6,2025_02_21,25.77468432731322,-80.12884045797499,5th Street,0.3333333333333333,0.5111633333333333,0.8570633333333333,25,25,"NIGHT_MOSTLY_CLOUDY,MOSTLY_CLOUDY,CLEAR","Cross-shore,Cross-shore,Cross-shore",3
5842041f4e65fad6a7708ad7,2025_02_21,25.795157990715975,-80.12527585029602,21st Street,0.3333333333333333,0.17295,0.5265366666666667,25,25,"NIGHT_MOSTLY_CLOUDY,MOSTLY_CLOUDY,CLEAR","Cross-shore,Cross-shore,Cross-shore",3
5842041f4e65fad6a7708ad8,2025_02_21,25.897806453088073,-80.1211827993393,Haulover Inlet (South Jetty),0.6666666666666666,0.4166666666666667,0.7266666666666667,25,25,"NIGHT_MOSTLY_CLEAR,CLEAR,CLEAR","Cross-shore,Cross-shore,Cross-shore",3
5842041f4e65fad6a7708ad9,2025_02_21,25.90147392328634,-80.12110769748688,Haulover Inlet (North Jetty),0.6666666666666666,0.6533333333333333,0.96,25,25,"NIGHT_MOSTLY_CLEAR,CLEAR,CLEAR","Cross-shore,Cross-shore,Cross-shore",3
5842041f4e65fad6a7708ada,2025_02_21,25.87049374242476,-80.11828560342356,85th Street,0.6666666666666666,0.42,0.7266666666666667,25,25,"NIGHT_CLEAR,MOSTLY_CLOUDY,MOSTLY_CLOUDY","Cross-shore,Cross-shore,Cross-shore",3
5842041f4e65fad6a7708adb,2025_02_21,26.25486382031396,-80.0805,Hillsboro Inlet,1,0.40803,0.7253866666666667,25,25,"NIGHT_BRIEF_SHOWERS,BRIEF_SHOWERS,BRIEF_SHOWERS","Offshore,Cross-shore,Offshore",3
5842041f4e65fad6a7708add,2025_02_21,26.29705672965111,-80.07612,Hillsboro Beach,1,0.3254166666666667,0.5160966666666666,25,25,"NIGHT_MOSTLY_CLOUDY,BRIEF_SHOWERS,MOSTLY_CLOUDY","Offshore,Cross-shore,Offshore",3
5842041f4e65fad6a7708ade,2025_02_21,26.36569956413266,-80.06717936869391,Red Reef Park,0.5555555555555556,0.3994666666666667,0.7061566666666667,24,22,"NIGHT_BRIEF_SHOWERS,MOSTLY_CLOUDY,MOSTLY_CLOUDY","Offshore,Cross-shore,Offshore",3
5842041f4e65fad6a7708adf,2025_02_21,26.54593873498907,-80.04104359585143,Boynton Beach Inlet (Northside),1,0.5014333333333334,0.8075666666666667,23,22,"NIGHT_MOSTLY_CLOUDY,CLEAR,MOSTLY_CLOUDY","Cross-shore,Cross-shore,Cross-shore",3
5842041f4e65fad6a7708ae0,2025_02_21,26.92746505629809,-80.06721138954163,Corners,0.3888888888888889,0.8535533333333334,1.2152633333333334,23,22,"NIGHT_MOSTLY_CLOUDY,MOSTLY_CLOUDY,MOSTLY_CLOUDY","Cross-shore,Cross-shore,Onshore",3
5842041f4e65fad6a7708ae1,2025_02_21,26.76983179886943,-80.03413481937037,The Cove,0.8333333333333334,0.7828233333333333,1.1720233333333334,23,22,"NIGHT_MOSTLY_CLOUDY,MOSTLY_CLOUDY,MOSTLY_CLOUDY","Cross-shore,Cross-shore,Cross-shore",3
5842041f4e65fad6a7708ae3,2025_02_21,26.39224485175123,-80.0650461233983,Japanese Rock,1,0.34502333333333335,0.6486533333333333,24,22,"NIGHT_OVERCAST,MOSTLY_CLOUDY,BRIEF_SHOWERS","Offshore,Cross-shore,Offshore",3
5842041f4e65fad6a7708ae4,2025_02_21,29.94810928551321,-85.42545434612366,Mexico Beach,0,0,0.08333333333333333,19,19,"NIGHT_CLEAR,CLEAR,CLEAR","Cross-shore,Offshore,Cross-shore",3
5842041f4e65fad6a7708ae5,2025_02_21,30.11752500931267,-85.7306,Shell Island,0,0,0.09666666666666666,19,19,"NIGHT_CLEAR,CLEAR,CLEAR","Offshore,Offshore,Offshore",3
5842041f4e65fad6a7708ae7,2025_02_21,29.94901514702268,-85.43042978529013,D.J.'s,0,0,0.08333333333333333,19,19,"NIGHT_CLEAR,CLEAR,CLEAR","Offshore,Offshore,Offshore",3
5842041f4e65fad6a7708ae8,2025_02_21,30.12396111446713,-85.73637,St. Andrew's Park,0,0,0.111,14,14,"NIGHT_CLEAR,CLEAR,CLEAR","Offshore,Offshore,Offshore",3
5842041f4e65fad6a7708ae9,2025_02_21,30.16781531760227,-85.79604918824084,Spinnaker,0,0,0.11516666666666667,14,14,"NIGHT_CLEAR,CLEAR,CLEAR","Offshore,Offshore,Offshore",3
5842041f4e65fad6a7708aea,2025_02_21,30.18877050526983,-85.83243530466363,Wood Pier,0.5,0,0.17866666666666667,14,14,"NIGHT_CLEAR,CLEAR,CLEAR","Offshore,Offshore,Offshore",3
5842041f4e65fad6a7708aeb,2025_02_21,30.2676205895555,-85.9938578144113,Inlet Beach Pier,0.16666666666666666,0,0.1745,14,14,"NIGHT_CLEAR,CLEAR,CLEAR","Offshore,Offshore,Offshore",3
5842041f4e65fad6a7708aec,2025_02_21,30.31815542759119,-86.1383771867044,Bud and Alley's,0.16666666666666666,0,0.1745,14,14,"NIGHT_CLEAR,CLEAR,CLEAR","Offshore,Offshore,Offshore",3
5842041f4e65fad6a7708aed,2025_02_21,30.32686082481946,-86.16650590275447,Grayton Beach,0.5,0,0.187,14,14,"NIGHT_CLEAR,CLEAR,CLEAR","Offshore,Offshore,Offshore",3
5842041f4e65fad6a7708aee,2025_02_21,30.33661488976303,-86.20094,Blue Mountain Beach,0.16666666666666666,0,0.17783333333333334,14,14,"NIGHT_CLEAR,CLEAR,CLEAR","Offshore,Offshore,Offshore",3
5842041f4e65fad6a7708aef,2025_02_21,30.37677202831587,-86.38513,Pompano Joe's,0.5,0,0.197,14,14,"NIGHT_CLEAR,CLEAR,CLEAR","Offshore,Offshore,Offshore",3
5842041f4e65fad6a7708af0,2025_02_21,30.37429731725911,-86.36687,Seascape,0.5,0,0.18116666666666667,14,14,"NIGHT_CLEAR,CLEAR,CLEAR","Offshore,Offshore,Offshore",3
5842041f4e65fad6a7708af1,2025_02_21,30.382815988547186,-86.45839,The Back Porch,0.5,0,0.212,14,14,"NIGHT_CLEAR,CLEAR,CLEAR","Offshore,Offshore,Offshore",3
5842041f4e65fad6a7708af2,2025_02_21,30.21207176798612,-85.87989730830542,Panama City Pier,0.5,0,0.18116666666666667,14,14,"NIGHT_CLEAR,CLEAR,CLEAR","Offshore,Offshore,Offshore",3
5842041f4e65fad6a7708af3,2025_02_21,30.37521499110326,-86.3717,Whale's Tail,0.5,0,0.18116666666666667,14,14,"NIGHT_CLEAR,CLEAR,CLEAR","Offshore,Offshore,Offshore",3
5842041f4e65fad6a7708af4,2025_02_21,30.38120596658251,-86.43046,Old Crystal Pier,0.5,0,0.18394666666666667,14,14,"NIGHT_CLEAR,CLEAR,CLEAR","Offshore,Offshore,Offshore",3
5842041f4e65fad6a7708af5,2025_02_21,30.38090573159031,-86.50655,Jetty East,-0.16666666666666666,0,0.1845,14,14,"NIGHT_CLEAR,CLEAR,CLEAR","Offshore,Offshore,Offshore",3
5842041f4e65fad6a7708af6,2025_02_21,30.37584509640838,-86.50563,HMO's,0.5,0,0.1845,14,14,"NIGHT_CLEAR,CLEAR,CLEAR","Offshore,Offshore,Offshore",3
5842041f4e65fad6a7708af7,2025_02_21,30.38124006131522,-86.50052,Two By Fours,0,0,0.19116666666666668,14,14,"NIGHT_CLEAR,CLEAR,CLEAR","Offshore,Offshore,Offshore",3
5842041f4e65fad6a7708af8,2025_02_21,30.38250751017554,-86.45776,The Pumphouse,0.8333333333333334,0,0.19033333333333333,14,14,"NIGHT_CLEAR,CLEAR,CLEAR","Offshore,Offshore,Offshore",3
5842041f4e65fad6a7708af9,2025_02_21,30.38655981578935,-86.52475,NCO Club,0,0,0.1845,14,14,"NIGHT_CLEAR,CLEAR,CLEAR","Offshore,Offshore,Offshore",3
5842041f4e65fad6a7708afa,2025_02_21,30.39024516541047,-86.59341,Okaloosa Pier,0.5,0,0.1845,14,14,"NIGHT_CLEAR,CLEAR,CLEAR","Offshore,Offshore,Offshore",3
5842041f4e65fad6a7708afb,2025_02_21,30.39281125722673,-86.59766,Dead Man's,0.5,0,0.22116666666666665,14,14,"NIGHT_CLEAR,CLEAR,CLEAR","Offshore,Offshore,Offshore",3
5842041f4e65fad6a7708afc,2025_02_21,30.32703176167034,-87.14196,Pensacola Pier,1,0,0.20333333333333334,19,19,"NIGHT_CLEAR,CLEAR,CLEAR","Offshore,Offshore,Offshore",3
5842041f4e65fad6a7708afd,2025_02_21,30.37920054094992,-86.85583,Navarre Beach,0,0,0.12172333333333334,14,14,"NIGHT_CLEAR,CLEAR,CLEAR","Offshore,Offshore,Offshore",3
5842041f4e65fad6a7708afe,2025_02_21,30.39491626029151,-86.61248,Blue Horizon Motel,0.5,0,0.21533333333333332,14,14,"NIGHT_CLEAR,CLEAR,CLEAR","Offshore,Offshore,Offshore",3
5842041f4e65fad6a7708aff,2025_02_21,30.29345899260828,-87.43547,First Parking Lot,1,0,0.20666666666666667,19,19,"NIGHT_CLEAR,CLEAR,CLEAR","Offshore,Offshore,Offshore",3
5842041f4e65fad6a7708b00,2025_02_21,30.29767401311303,-87.41362,Johnsons Beach,1,0,0.21,19,19,"NIGHT_CLEAR,CLEAR,CLEAR","Offshore,Offshore,Offshore",3
5842041f4e65fad6a7708b01,2025_02_21,30.29513397370759,-87.42642,Sandy Key,1,0,0.21,19,19,"NIGHT_CLEAR,CLEAR,CLEAR","Offshore,Offshore,Offshore",3
5842041f4e65fad6a7708b03,2025_02_21,30.377504907388026,-86.86444,Navarre Pier,0.5,0,0.14138333333333333,14,14,"NIGHT_CLEAR,CLEAR,CLEAR","Offshore,Offshore,Offshore",3
5842041f4e65fad6a7708b04,2025_02_21,30.31482647791307,-87.26164,Pickens Point Dunes,1,0,0.2,19,19,"NIGHT_CLEAR,CLEAR,CLEAR","Offshore,Offshore,Offshore",3
5842041f4e65fad6a7708b05,2025_02_21,30.32632110836516,-87.16019503253068,Slabs,1,0,0.20666666666666667,19,19,"NIGHT_CLEAR,CLEAR,CLEAR","Offshore,Offshore,Offshore",3
5842041f4e65fad6a7708b06,2025_02_21,30.32739721382043,-87.30406515493348,Pickens Point,1,0,0.20333333333333334,19,19,"NIGHT_CLEAR,CLEAR,CLEAR","Offshore,Offshore,Offshore",3
5842041f4e65fad6a7708b07,2025_02_21,30.27406893266753,-87.54367,Bungalows,1,0,0.23666666666666666,19,19,"NIGHT_CLEAR,CLEAR,CLEAR","Offshore,Offshore,Offshore",3
5842041f4e65fad6a7708b08,2025_02_21,27.99627311846992,-82.82942,880,1.3333333333333333,0.33406,0.6717933333333334,20,20,"NIGHT_CLEAR,CLEAR,CLEAR","Offshore,Offshore,Offshore",3
5842041f4e65fad6a7708b09,2025_02_21,27.97779860371595,-82.83246509090527,Pier 60,1,0.29,0.5966666666666667,20,20,"NIGHT_CLEAR,CLEAR,CLEAR","Offshore,Offshore,Offshore",3
5842041f4e65fad6a7708b0a,2025_02_21,27.96296387618043,-82.8332635965418,Sand Key,1,0.2866666666666667,0.5966666666666667,19.666666666666668,19.666666666666668,"NIGHT_CLEAR,CLEAR,CLEAR","Offshore,Offshore,Offshore",3
5842041f4e65fad6a7708b0b,2025_02_21,27.92492619212885,-82.8449122845279,Belleair,1,0.29333333333333333,0.5966666666666667,20,20,"NIGHT_CLEAR,CLEAR,CLEAR","Offshore,Offshore,Offshore",3
5842041f4e65fad6a7708b0c,2025_02_21,27.882,-82.854,Indian Rocks Beach,1,0.31666666666666665,0.6233333333333333,20,20,"NIGHT_CLEAR,CLEAR,CLEAR","Offshore,Offshore,Offshore",3
5842041f4e65fad6a7708b0d,2025_02_21,27.83106104966094,-82.83550218771384,Redington Breakwater,1.6666666666666667,0.3433333333333333,0.6466666666666667,20,20,"NIGHT_CLEAR,CLEAR,CLEAR","Offshore,Offshore,Offshore",3
5842041f4e65fad6a7708b0e,2025_02_21,27.74369029906206,-82.76053473435867,Middle Jetty,1,0.2966666666666667,0.6,20,20,"NIGHT_CLEAR,CLEAR,CLEAR","Offshore,Offshore,Offshore",3
5842041f4e65fad6a7708b0f,2025_02_21,27.82174178852146,-82.83148664631841,Redington Pier,1.6666666666666667,0.32333333333333336,0.63,20,20,"NIGHT_CLEAR,CLEAR,CLEAR","Offshore,Offshore,Offshore",3
5842041f4e65fad6a7708b10,2025_02_21,27.31496308261514,-82.5830466912004,Lido Beach,1,0.25666666666666665,0.56,21.333333333333332,21.333333333333332,"NIGHT_CLEAR,CLEAR,CLEAR","Offshore,Offshore,Offshore",3
5842041f4e65fad6a7708b11,2025_02_21,27.31122010159892,-82.57833234007632,Coolidge,1,0.25,0.5533333333333333,21.333333333333332,21.333333333333332,"NIGHT_CLEAR,CLEAR,CLEAR","Offshore,Offshore,Offshore",3
5842041f4e65fad6a7708b12,2025_02_21,27.26471672017615,-82.55465,Siesta Key,1,0.09729,0.42159,21.333333333333332,21.333333333333332,"NIGHT_CLEAR,CLEAR,CLEAR","Offshore,Offshore,Offshore",3
5842041f4e65fad6a7708b13,2025_02_21,27.24638693488133,-82.53809115716797,Stickney Point,1.3333333333333333,0.23666666666666666,0.5433333333333333,21.333333333333332,21.333333333333332,"NIGHT_CLEAR,CLEAR,CLEAR","Offshore,Offshore,Offshore",3
5842041f4e65fad6a7708b14,2025_02_21,27.21907878229092,-82.51813937562073,Turtles,1.3333333333333333,0.22,0.5266666666666667,22,22,"NIGHT_CLEAR,CLEAR,CLEAR","Offshore,Offshore,Offshore",3
5842041f4e65fad6a7708b15,2025_02_21,27.11375765852028,-82.47039,Venice Jetties North,1,0.17666666666666667,0.48333333333333334,17,16,"NIGHT_CLEAR,CLEAR,CLEAR","Offshore,Offshore,Offshore",3
5842041f4e65fad6a7708b16,2025_02_21,27.111485758834025,-82.46757,Venice Jetties South,1.3333333333333333,0.19322999999999999,0.5599733333333333,17,16,"NIGHT_CLEAR,CLEAR,CLEAR","Offshore,Offshore,Offshore",3
5842041f4e65fad6a7708b17,2025_02_21,27.07249378831575,-82.4530285256104,Venice Pier,1.3333333333333333,0.24666666666666667,0.5566666666666666,17,16,"NIGHT_CLEAR,CLEAR,CLEAR","Offshore,Offshore,Offshore",3
5842041f4e65fad6a7708b19,2025_02_21,27.49680446426314,-82.7140145455959,Holmes Beach Pier,1,0.21000000000000002,0.5166666666666667,21,21,"NIGHT_CLEAR,CLEAR,CLEAR","Offshore,Offshore,Offshore",3
5842041f4e65fad6a7708b1a,2025_02_21,27.7390348493064,-82.75763,Sunset Beach,1.3333333333333333,0.2966666666666667,0.6,20,20,"NIGHT_CLEAR,CLEAR,CLEAR","Offshore,Offshore,Offshore",3
5842041f4e65fad6a7708b1b,2025_02_21,26.80347307599041,-82.28564775623539,Gasparilla Point,1.3333333333333333,0.22333333333333333,0.5233333333333333,22,22,"NIGHT_CLEAR,CLEAR,CLEAR","Offshore,Offshore,Offshore",3
5842041f4e65fad6a7708b1c,2025_02_21,27.45365831548911,-82.69609,Coquina Jetties,1,0.19333333333333333,0.49666666666666665,21,21,"NIGHT_MOSTLY_CLEAR,CLEAR,CLEAR","Offshore,Offshore,Offshore",3
5842041f4e65fad6a7708b1d,2025_02_21,27.46077315206043,-82.69924,Twin Piers,1,0.042776666666666664,0.3486666666666667,17,16,"NIGHT_MOSTLY_CLEAR,CLEAR,CLEAR","Offshore,Offshore,Offshore",3
5842041f4e65fad6a7708b1e,2025_02_21,26.91007316019612,-82.35352,Englewood,1,0.13666666666666666,0.44333333333333336,22,22,"NIGHT_CLEAR,CLEAR,CLEAR","Offshore,Offshore,Offshore",3
5842041f4e65fad6a7708b1f,2025_02_21,26.88221101560038,-82.3359828282636,Knight's Point,1.3333333333333333,0.21,0.51,22,22,"NIGHT_CLEAR,CLEAR,CLEAR","Offshore,Offshore,Offshore",3
5842041f4e65fad6a7708b20,2025_02_21,26.51219285784982,-82.1928203289264,Tween Waters,1,0.2966666666666667,0.6033333333333333,22,22,"NIGHT_CLEAR,CLEAR,CLEAR","Offshore,Offshore,Offshore",3
5842041f4e65fad6a7708b21,2025_02_21,26.55130241615096,-82.20222762415648,Redfish Pass,1,0.3,0.6066666666666667,22,22,"NIGHT_CLEAR,CLEAR,CLEAR","Offshore,Offshore,Offshore",3
5842041f4e65fad6a7708b22,2025_02_21,26.71713432926596,-82.26287777058234,Boca Grande,0.6666666666666666,0.21,0.5166666666666666,22,22,"NIGHT_CLEAR,CLEAR,CLEAR","Offshore,Offshore,Offshore",3
5842041f4e65fad6a7708b23,2025_02_21,26.47856785808584,-82.181288592828,Blind Pass,1,0.3066666666666667,0.6133333333333333,22,22,"NIGHT_CLEAR,CLEAR,CLEAR","Offshore,Offshore,Offshore",3
5842041f4e65fad6a7708b24,2025_02_21,26.25358330618783,-81.82429246081317,The Wall,1,0.08666666666666667,0.39,23,23,"NIGHT_CLEAR,CLEAR,CLEAR","Offshore,Offshore,Offshore",3
5842041f4e65fad6a7708b25,2025_02_21,26.17456407516186,-81.81588575623482,Doctor's Pass,1,0.08,0.39,23,23,"NIGHT_CLEAR,CLEAR,CLEAR","Offshore,Offshore,Offshore",3
5842041f4e65fad6a7708b26,2025_02_21,27.427134501874612,-82.68110766159296,Whitney Beach,1,0.30333333333333334,0.61,21,21,"NIGHT_MOSTLY_CLEAR,CLEAR,CLEAR","Offshore,Offshore,Offshore",3
5842041f4e65fad6a7708b27,2025_02_21,26.17300183052463,-81.81515842430267,Doctor's Pass (South Jetty),1,0.08,0.39,23,23,"NIGHT_CLEAR,CLEAR,CLEAR","Offshore,Offshore,Offshore",3
5842041f4e65fad6a7708b28,2025_02_21,27.73496421495629,-82.75268962468695,Upham Beach Park,1,0.29333333333333333,0.5966666666666667,20,20,"NIGHT_CLEAR,CLEAR,CLEAR","Offshore,Offshore,Offshore",3
5842041f4e65fad6a7708b29,2025_02_21,26.13144856766723,-81.8090395116521,Naples Pier,1,0.04,0.3433333333333333,23,23,"NIGHT_CLEAR,CLEAR,CLEAR","Offshore,Offshore,Offshore",3
5842041f4e65fad6a7708b2a,2025_02_21,20.63474,-156.45211,Little Beach,2,0.10333333333333333,0.4033333333333333,25,25,"NIGHT_CLEAR,NIGHT_CLEAR,CLEAR","Cross-shore,Offshore,Cross-shore",3
5842041f4e65fad6a7708b2b,2025_02_21,20.613,-156.438,Dumps,2,0.056666666666666664,0.3566666666666667,25,25,"NIGHT_CLEAR,NIGHT_CLEAR,CLEAR","Cross-shore,Cross-shore,Cross-shore",3
5842041f4e65fad6a7708b2c,2025_02_21,22.216,-159.502,Hanalei Bay,4,1.74,2.04,25,25,"NIGHT_CLEAR,NIGHT_SHOWERS,CLEAR","Offshore,Offshore,Cross-shore",3
5842041f4e65fad6a7708b2d,2025_02_21,22.225,-159.567,Ha'Ena Bay (Cannons/Tunnels),4,2.033333333333333,2.39,25,25,"NIGHT_CLEAR,NIGHT_CLEAR,CLEAR","Offshore,Offshore,Offshore",3
5842041f4e65fad6a7708b2f,2025_02_21,22.148,-159.301,Anahola Bay,1.3333333333333333,0.4766666666666667,0.7833333333333333,25,25,"NIGHT_MOSTLY_CLOUDY,NIGHT_MOSTLY_CLOUDY,CLEAR","Cross-shore,Cross-shore,Cross-shore",3
5842041f4e65fad6a7708b30,2025_02_21,21.872,-159.462,Poipu Outer Reef,2.6666666666666665,0.64,0.9466666666666667,25,25,"NIGHT_CLEAR,NIGHT_MOSTLY_CLOUDY,MOSTLY_CLEAR","Offshore,Offshore,Offshore",3
5842041f4e65fad6a7708b31,2025_02_21,21.936,-159.652,Pakala,2,0.25,0.56,25,25,"NIGHT_MOSTLY_CLEAR,NIGHT_CLEAR,CLEAR","Onshore,Offshore,Offshore",3
5842041f4e65fad6a7708b32,2025_02_21,21.272,-157.832,Populars,2,0.41842,0.7180333333333333,26,25,"NIGHT_CLEAR,NIGHT_MOSTLY_CLOUDY,CLEAR","Offshore,Offshore,Cross-shore",3
5842041f4e65fad6a7708b33,2025_02_21,21.26841992117695,-157.82329,Publics,2.6666666666666665,0.41259333333333337,0.73494,26,25,"NIGHT_CLEAR,NIGHT_MOSTLY_CLOUDY,CLEAR","Offshore,Offshore,Cross-shore",3
5842041f4e65fad6a7708b34,2025_02_21,21.25460513357954,-157.79432,Black Point,2.6666666666666665,0.6290766666666666,0.9614266666666667,25,25,"NIGHT_CLEAR,NIGHT_MOSTLY_CLEAR,CLEAR","Offshore,Offshore,Cross-shore",3
5842041f4e65fad6a7708b35,2025_02_21,21.27394674233747,-157.82777,Canoes,2.6666666666666665,0.49299,0.81612,26,25,"NIGHT_CLEAR,NIGHT_MOSTLY_CLOUDY,CLEAR","Offshore,Offshore,Cross-shore",3
5842041f4e65fad6a7708b36,2025_02_21,21.273658410008455,-157.8263,Queen's,2.6666666666666665,0.3882333333333333,0.71406,26,25,"NIGHT_CLEAR,NIGHT_MOSTLY_CLOUDY,CLEAR","Offshore,Offshore,Cross-shore",3
5842041f4e65fad6a7708b37,2025_02_21,20.869,-156.679,Lahaina Harbor - Breakwall,2.3333333333333335,0.27666666666666667,0.5833333333333334,25,25,"NIGHT_FOG,NIGHT_FOG,CLEAR","Onshore,Onshore,Onshore",3
5842041f4e65fad6a7708b38,2025_02_21,21.277,-157.841,Kaiser's,2.6666666666666665,0.5238,0.8788533333333334,26,25,"NIGHT_CLEAR,NIGHT_MOSTLY_CLOUDY,CLEAR","Offshore,Offshore,Cross-shore",3
5842041f4e65fad6a7708b39,2025_02_21,21.280537020769913,-157.84107,Rockpiles,2.3333333333333335,0.44049,0.7512566666666667,26,25,"NIGHT_CLEAR,NIGHT_MOSTLY_CLOUDY,CLEAR","Offshore,Offshore,Cross-shore",3
5842041f4e65fad6a7708b3a,2025_02_21,21.2745,-157.8395,Four's,3,0.49954666666666664,0.8209333333333333,25,25,"NIGHT_CLEAR,NIGHT_MOSTLY_CLOUDY,CLEAR","Offshore,Offshore,Cross-shore",3
